{"data": {"bikes": [{"rental_uris": {"ios": "https://dc.lft.to/lastmile_qr_scan", "android": "https://dc.lft.to/lastmile_qr_scan"}, "lon": -77.08200783333334, "type": "electric_bike", "fusion_lat": 0.0, "lat": 38.922082333333336, "name": "40d51d4316726843d72355e594cd1958", "fusion_lon": 0.0, "bike_id": "40d51d4316726843d72355e594cd1958", "is_disabled": 0, "is_reserved": 0}, {"rental_uris": {"ios": "https://dc.lft.to/lastmile_qr_scan", "android": "https://dc.lft.to/lastmile_qr_scan"}, "lon": -77.001988, "type": "electric_scooter", "fusion_lat": 0.0, "lat": 38.90037866666667, "name": "1389dde4fb9f0153206f2a9cb11f3457", "fusion_lon": 0.0, "bike_id": "1389dde4fb9f0153206f2a9cb11f3457", "is_disabled": 0, "is_reserved": 0}, {"rental_uris": {"ios": "https://dc.lft.to/lastmile_qr_scan", "android": "https://dc.lft.to/lastmile_qr_scan"}, "lon": -77.010954, "type": "electric_scooter", "fusion_lat": 0.0, "lat": 38.90352466666667, "name": "731f154a7b1832e6cc8143fa1883d1f8", "fusion_lon": 0.0, "bike_id": "731f154a7b1832e6cc8143fa1883d1f8", "is_disabled": 0, "is_reserved": 0}, {"rental_uris": {"ios": "https://dc.lft.to/lastmile_qr_scan", "android": "https://dc.lft.to/lastmile_qr_scan"}, "lon": -77.06317133333333, "type": "electric_scooter", "fusion_lat": 0.0, "lat": 38.94377633333333, "name": "bf9047ca9a3767be53d3739604fa8079", "fusion_lon": 0.0, "bike_id": "bf9047ca9a3767be53d3739604fa8079", "is_disabled": 0, "is_reserved": 0}, {"rental_uris": {"ios": "https://dc.lft.to/lastmile_qr_scan", "android": "https://dc.lft.to/lastmile_qr_scan"}, "lon": -77.03679616666666, "type": "electric_scooter", "fusion_lat": 0.0, "lat": 38.918722833333334, "name": "42dccf6a62a34d6b2f6d9c4f6c4f2457", "fusion_lon": 0.0, "bike_id": "42dccf6a62a34d6b2f6d9c4f6c4f2457", "is_disabled": 0, "is_reserved": 0}, {"rental_uris": {"ios": "https://dc.lft.to/lastmile_qr_scan", "android": "https://dc.lft.to/lastmile_qr_scan"}, "lon": -77.04411783333333, "type": "electric_scooter", "fusion_lat": 0.0, "lat": 38.913169333333336, "name": "13978a939fb9579b3f8856a841ed5eb8", "fusion_lon": 0.0, "bike_id": "13978a939fb9579b3f8856a841ed5eb8", "is_disabled": 0, "is_reserved": 0}, {"rental_uris": {"ios": "https://dc.lft.to/lastmile_qr_scan", "android": "https://dc.lft.to/lastmile_qr_scan"}, "lon": -76.95189616666667, "type": "electric_bike", "fusion_lat": 0.0, "lat": 38.906936333333334, "name": "c6462677c4bce977051540f16cbb7ec5", "fusion_lon": 0.0, "bike_id": "c6462677c4bce977051540f16cbb7ec5", "is_disabled": 0, "is_reserved": 0}, {"rental_uris": {"ios": "https://dc.lft.to/lastmile_qr_scan", "android": "https://dc.lft.to/lastmile_qr_scan"}, "lon": -76.93170683333334, "type": "electric_scooter", "fusion_lat": 0.0, "lat": 38.8988705, "name": "ed632fe2665939d283780ff14612ab7a", "fusion_lon": 0.0, "bike_id": "ed632fe2665939d283780ff14612ab7a", "is_disabled": 0, "is_reserved": 0}, {"rental_uris": {"ios": "https://dc.lft.to/lastmile_qr_scan", "android": "https://dc.lft.to/lastmile_qr_scan"}, "lon": -77.042877, "type": "electric_scooter", "fusion_lat": 0.0, "lat": 38.895366333333335, "name": "7f63f6b9117b21b9798fa726525ecfd1", "fusion_lon": 0.0, "bike_id": "7f63f6b9117b21b9798fa726525ecfd1", "is_disabled": 0, "is_reserved": 0}, {"rental_uris": {"ios": "https://dc.lft.to/lastmile_qr_scan", "android": "https://dc.lft.to/lastmile_qr_scan"}, "lon": -77.013723, "type": "electric_scooter", "fusion_lat": 0.0, "lat": 38.886542666666664, "name": "5b103fabfea198a8d736e78c9efb1b1d", "fusion_lon": 0.0, "bike_id": "5b103fabfea198a8d736e78c9efb1b1d", "is_disabled": 0, "is_reserved": 0}, {"rental_uris": {"ios": "https://dc.lft.to/lastmile_qr_scan", "android": "https://dc.lft.to/lastmile_qr_scan"}, "lon": -77.0578895, "type": "electric_scooter", "fusion_lat": 0.0, "lat": 38.93476033333334, "name": "707642a404f00d0518c3c4b4a7fb208c", "fusion_lon": 0.0, "bike_id": "707642a404f00d0518c3c4b4a7fb208c", "is_disabled": 0, "is_reserved": 0}, {"rental_uris": {"ios": "https://dc.lft.to/lastmile_qr_scan", "android": "https://dc.lft.to/lastmile_qr_scan"}, "lon": -77.04313283333333, "type": "electric_scooter", "fusion_lat": 0.0, "lat": 38.905624333333336, "name": "d192928a666a2f8a2a3b6e2d2d4b6be4", "fusion_lon": 0.0, "bike_id": "d192928a666a2f8a2a3b6e2d2d4b6be4", "is_disabled": 0, "is_reserved": 0}, {"rental_uris": {"ios": "https://dc.lft.to/lastmile_qr_scan", "android": "https://dc.lft.to/lastmile_qr_scan"}, "lon": -77.02890516666666, "type": "electric_scooter", "fusion_lat": 0.0, "lat": 38.907280166666666, "name": "ca9f3eb2613c01ba2755addf86357a6a", "fusion_lon": 0.0, "bike_id": "ca9f3eb2613c01ba2755addf86357a6a", "is_disabled": 0, "is_reserved": 0}, {"rental_uris": {"ios": "https://dc.lft.to/lastmile_qr_scan", "android": "https://dc.lft.to/lastmile_qr_scan"}, "lon": -77.04547533333333, "type": "electric_scooter", "fusion_lat": 0.0, "lat": 38.9039175, "name": "54981095ec4ce84325eafa98c60bef13", "fusion_lon": 0.0, "bike_id": "54981095ec4ce84325eafa98c60bef13", "is_disabled": 0, "is_reserved": 0}, {"rental_uris": {"ios": "https://dc.lft.to/lastmile_qr_scan", "android": "https://dc.lft.to/lastmile_qr_scan"}, "lon": -76.99142233333333, "type": "electric_scooter", "fusion_lat": 0.0, "lat": 38.89345083333333, "name": "b8a20cea92f28de9dee85aef8a8a2f30", "fusion_lon": 0.0, "bike_id": "b8a20cea92f28de9dee85aef8a8a2f30", "is_disabled": 0, "is_reserved": 0}, {"rental_uris": {"ios": "https://dc.lft.to/lastmile_qr_scan", "android": "https://dc.lft.to/lastmile_qr_scan"}, "lon": -77.03769716666666, "type": "electric_scooter", "fusion_lat": 0.0, "lat": 38.916971333333336, "name": "bc8ffc5d80a3404b57df3a55e3cb4222", "fusion_lon": 0.0, "bike_id": "bc8ffc5d80a3404b57df3a55e3cb4222", "is_disabled": 0, "is_reserved": 0}, {"rental_uris": {"ios": "https://dc.lft.to/lastmile_qr_scan", "android": "https://dc.lft.to/lastmile_qr_scan"}, "lon": -76.98441516666666, "type": "electric_scooter", "fusion_lat": 0.0, "lat": 38.91469133333333, "name": "c93dcb7bad7aab50e2414ac8e9838555", "fusion_lon": 0.0, "bike_id": "c93dcb7bad7aab50e2414ac8e9838555", "is_disabled": 0, "is_reserved": 0}, {"rental_uris": {"ios": "https://dc.lft.to/lastmile_qr_scan", "android": "https://dc.lft.to/lastmile_qr_scan"}, "lon": -77.0438095, "type": "electric_scooter", "fusion_lat": 0.0, "lat": 38.920734833333334, "name": "663d3b58046ff2852429aa7a813a09b1", "fusion_lon": 0.0, "bike_id": "663d3b58046ff2852429aa7a813a09b1", "is_disabled": 0, "is_reserved": 0}, {"rental_uris": {"ios": "https://dc.lft.to/lastmile_qr_scan", "android": "https://dc.lft.to/lastmile_qr_scan"}, "lon": -77.05291966666667, "type": "electric_scooter", "fusion_lat": 0.0, "lat": 38.910663, "name": "a6fa091bb135111518d4eb8c4e432001", "fusion_lon": 0.0, "bike_id": "a6fa091bb135111518d4eb8c4e432001", "is_disabled": 0, "is_reserved": 0}, {"rental_uris": {"ios": "https://dc.lft.to/lastmile_qr_scan", "android": "https://dc.lft.to/lastmile_qr_scan"}, "lon": -77.01217983333333, "type": "electric_scooter", "fusion_lat": 0.0, "lat": 38.919177, "name": "ace9cde05e1da834fa809987c02fb6c4", "fusion_lon": 0.0, "bike_id": "ace9cde05e1da834fa809987c02fb6c4", "is_disabled": 0, "is_reserved": 0}, {"rental_uris": {"ios": "https://dc.lft.to/lastmile_qr_scan", "android": "https://dc.lft.to/lastmile_qr_scan"}, "lon": -76.89539, "type": "electric_bike", "fusion_lat": 0.0, "lat": 38.945549, "name": "fed133dd0f35b0b834997191b345bcc4", "fusion_lon": 0.0, "bike_id": "fed133dd0f35b0b834997191b345bcc4", "is_disabled": 0, "is_reserved": 0}, {"rental_uris": {"ios": "https://dc.lft.to/lastmile_qr_scan", "android": "https://dc.lft.to/lastmile_qr_scan"}, "lon": -77.04568666666667, "type": "electric_scooter", "fusion_lat": 0.0, "lat": 38.91410483333333, "name": "eeaeb3f71cd7fe7a6316f847b3eeb25f", "fusion_lon": 0.0, "bike_id": "eeaeb3f71cd7fe7a6316f847b3eeb25f", "is_disabled": 0, "is_reserved": 0}, {"rental_uris": {"ios": "https://dc.lft.to/lastmile_qr_scan", "android": "https://dc.lft.to/lastmile_qr_scan"}, "lon": -77.02148933333334, "type": "electric_bike", "fusion_lat": 0.0, "lat": 38.973302, "name": "8adb1bdf0df33138c4715a0315368b5b", "fusion_lon": 0.0, "bike_id": "8adb1bdf0df33138c4715a0315368b5b", "is_disabled": 0, "is_reserved": 0}, {"rental_uris": {"ios": "https://dc.lft.to/lastmile_qr_scan", "android": "https://dc.lft.to/lastmile_qr_scan"}, "lon": -77.02431866666667, "type": "electric_scooter", "fusion_lat": 0.0, "lat": 38.90967366666667, "name": "50f1e334ea449e06a91d416513fd21f7", "fusion_lon": 0.0, "bike_id": "50f1e334ea449e06a91d416513fd21f7", "is_disabled": 0, "is_reserved": 0}, {"rental_uris": {"ios": "https://dc.lft.to/lastmile_qr_scan", "android": "https://dc.lft.to/lastmile_qr_scan"}, "lon": -77.04833, "type": "electric_scooter", "fusion_lat": 0.0, "lat": 38.90066233333334, "name": "97258cdf713a43984a84123013c57b07", "fusion_lon": 0.0, "bike_id": "97258cdf713a43984a84123013c57b07", "is_disabled": 0, "is_reserved": 0}, {"rental_uris": {"ios": "https://dc.lft.to/lastmile_qr_scan", "android": "https://dc.lft.to/lastmile_qr_scan"}, "lon": -77.02467, "type": "electric_scooter", "fusion_lat": 0.0, "lat": 38.9171215, "name": "5223565512fb8ce64ad0f26f727985fc", "fusion_lon": 0.0, "bike_id": "5223565512fb8ce64ad0f26f727985fc", "is_disabled": 0, "is_reserved": 0}, {"rental_uris": {"ios": "https://dc.lft.to/lastmile_qr_scan", "android": "https://dc.lft.to/lastmile_qr_scan"}, "lon": -77.01221516666666, "type": "electric_scooter", "fusion_lat": 0.0, "lat": 38.920399833333335, "name": "26d1977de7896cc6a2218eb68668e4d8", "fusion_lon": 0.0, "bike_id": "26d1977de7896cc6a2218eb68668e4d8", "is_disabled": 0, "is_reserved": 0}, {"rental_uris": {"ios": "https://dc.lft.to/lastmile_qr_scan", "android": "https://dc.lft.to/lastmile_qr_scan"}, "lon": -76.99363816666667, "type": "electric_scooter", "fusion_lat": 0.0, "lat": 38.90046233333333, "name": "a1349d60663ce827ad385ce01e8a2f9c", "fusion_lon": 0.0, "bike_id": "a1349d60663ce827ad385ce01e8a2f9c", "is_disabled": 0, "is_reserved": 0}, {"rental_uris": {"ios": "https://dc.lft.to/lastmile_qr_scan", "android": "https://dc.lft.to/lastmile_qr_scan"}, "lon": -77.01999733333334, "type": "electric_scooter", "fusion_lat": 0.0, "lat": 38.905541166666666, "name": "31419c96054d6444d9c31249eff8d108", "fusion_lon": 0.0, "bike_id": "31419c96054d6444d9c31249eff8d108", "is_disabled": 0, "is_reserved": 0}, {"rental_uris": {"ios": "https://dc.lft.to/lastmile_qr_scan", "android": "https://dc.lft.to/lastmile_qr_scan"}, "lon": -76.96756, "type": "electric_bike", "fusion_lat": 0.0, "lat": 38.87556566666667, "name": "cba578aaa54515edebb48b6fcc6495c0", "fusion_lon": 0.0, "bike_id": "cba578aaa54515edebb48b6fcc6495c0", "is_disabled": 0, "is_reserved": 0}, {"rental_uris": {"ios": "https://dc.lft.to/lastmile_qr_scan", "android": "https://dc.lft.to/lastmile_qr_scan"}, "lon": -77.02206433333333, "type": "electric_scooter", "fusion_lat": 0.0, "lat": 38.90547333333333, "name": "414d41f9b0abb47b9875d09afc385a6c", "fusion_lon": 0.0, "bike_id": "414d41f9b0abb47b9875d09afc385a6c", "is_disabled": 0, "is_reserved": 0}, {"rental_uris": {"ios": "https://dc.lft.to/lastmile_qr_scan", "android": "https://dc.lft.to/lastmile_qr_scan"}, "lon": -77.01118883333334, "type": "electric_scooter", "fusion_lat": 0.0, "lat": 38.899973, "name": "35db5ce9be04a2254ae2f07f6289fa7a", "fusion_lon": 0.0, "bike_id": "35db5ce9be04a2254ae2f07f6289fa7a", "is_disabled": 0, "is_reserved": 0}, {"rental_uris": {"ios": "https://dc.lft.to/lastmile_qr_scan", "android": "https://dc.lft.to/lastmile_qr_scan"}, "lon": -77.0324755, "type": "electric_bike", "fusion_lat": 0.0, "lat": 38.88858616666667, "name": "7574cea79725c777183195f57d5f74a5", "fusion_lon": 0.0, "bike_id": "7574cea79725c777183195f57d5f74a5", "is_disabled": 0, "is_reserved": 0}, {"rental_uris": {"ios": "https://dc.lft.to/lastmile_qr_scan", "android": "https://dc.lft.to/lastmile_qr_scan"}, "lon": -77.05002683333333, "type": "electric_scooter", "fusion_lat": 0.0, "lat": 38.907295500000004, "name": "d7cbc510f8486242ab5d70b3d6c5fda3", "fusion_lon": 0.0, "bike_id": "d7cbc510f8486242ab5d70b3d6c5fda3", "is_disabled": 0, "is_reserved": 0}, {"rental_uris": {"ios": "https://dc.lft.to/lastmile_qr_scan", "android": "https://dc.lft.to/lastmile_qr_scan"}, "lon": -76.98259766666666, "type": "electric_scooter", "fusion_lat": 0.0, "lat": 38.863543, "name": "5703debc487757fe021cbaa2d1c25610", "fusion_lon": 0.0, "bike_id": "5703debc487757fe021cbaa2d1c25610", "is_disabled": 0, "is_reserved": 0}, {"rental_uris": {"ios": "https://dc.lft.to/lastmile_qr_scan", "android": "https://dc.lft.to/lastmile_qr_scan"}, "lon": -77.04010966666667, "type": "electric_scooter", "fusion_lat": 0.0, "lat": 38.93257883333333, "name": "ce53152154818d23a71248e4154486ab", "fusion_lon": 0.0, "bike_id": "ce53152154818d23a71248e4154486ab", "is_disabled": 0, "is_reserved": 0}, {"rental_uris": {"ios": "https://dc.lft.to/lastmile_qr_scan", "android": "https://dc.lft.to/lastmile_qr_scan"}, "lon": -76.99694316666667, "type": "electric_scooter", "fusion_lat": 0.0, "lat": 38.900254333333336, "name": "2b1c524473e84ef0c9b2ca2a1102e9d4", "fusion_lon": 0.0, "bike_id": "2b1c524473e84ef0c9b2ca2a1102e9d4", "is_disabled": 0, "is_reserved": 0}, {"rental_uris": {"ios": "https://dc.lft.to/lastmile_qr_scan", "android": "https://dc.lft.to/lastmile_qr_scan"}, "lon": -77.05065566666667, "type": "electric_scooter", "fusion_lat": 0.0, "lat": 38.90084733333333, "name": "b2e14283d0a32323b7e7d88b7041e4b6", "fusion_lon": 0.0, "bike_id": "b2e14283d0a32323b7e7d88b7041e4b6", "is_disabled": 0, "is_reserved": 0}, {"rental_uris": {"ios": "https://dc.lft.to/lastmile_qr_scan", "android": "https://dc.lft.to/lastmile_qr_scan"}, "lon": -77.02023583333333, "type": "electric_scooter", "fusion_lat": 0.0, "lat": 38.916481833333336, "name": "f1a964dddf3335a42afc787b9059b878", "fusion_lon": 0.0, "bike_id": "f1a964dddf3335a42afc787b9059b878", "is_disabled": 0, "is_reserved": 0}, {"rental_uris": {"ios": "https://dc.lft.to/lastmile_qr_scan", "android": "https://dc.lft.to/lastmile_qr_scan"}, "lon": -77.04419033333333, "type": "electric_scooter", "fusion_lat": 0.0, "lat": 38.90571, "name": "0b7db02041158189385c7797eb4c1055", "fusion_lon": 0.0, "bike_id": "0b7db02041158189385c7797eb4c1055", "is_disabled": 0, "is_reserved": 0}, {"rental_uris": {"ios": "https://dc.lft.to/lastmile_qr_scan", "android": "https://dc.lft.to/lastmile_qr_scan"}, "lon": -77.05473716666667, "type": "electric_scooter", "fusion_lat": 0.0, "lat": 38.921028666666665, "name": "9057590f09773d8291ffe6e4f95c477d", "fusion_lon": 0.0, "bike_id": "9057590f09773d8291ffe6e4f95c477d", "is_disabled": 0, "is_reserved": 0}, {"rental_uris": {"ios": "https://dc.lft.to/lastmile_qr_scan", "android": "https://dc.lft.to/lastmile_qr_scan"}, "lon": -77.020973, "type": "electric_scooter", "fusion_lat": 0.0, "lat": 38.91417716666667, "name": "8160eca26434b9b86066b41fc379d3f8", "fusion_lon": 0.0, "bike_id": "8160eca26434b9b86066b41fc379d3f8", "is_disabled": 0, "is_reserved": 0}, {"rental_uris": {"ios": "https://dc.lft.to/lastmile_qr_scan", "android": "https://dc.lft.to/lastmile_qr_scan"}, "lon": -76.99507616666666, "type": "electric_scooter", "fusion_lat": 0.0, "lat": 38.88011866666667, "name": "61144f7b12579a217062baaa470f6867", "fusion_lon": 0.0, "bike_id": "61144f7b12579a217062baaa470f6867", "is_disabled": 0, "is_reserved": 0}, {"rental_uris": {"ios": "https://dc.lft.to/lastmile_qr_scan", "android": "https://dc.lft.to/lastmile_qr_scan"}, "lon": -77.046329, "type": "electric_scooter", "fusion_lat": 0.0, "lat": 38.906519, "name": "c104eb682af50aa91dfed3df7b23b602", "fusion_lon": 0.0, "bike_id": "c104eb682af50aa91dfed3df7b23b602", "is_disabled": 0, "is_reserved": 0}, {"rental_uris": {"ios": "https://dc.lft.to/lastmile_qr_scan", "android": "https://dc.lft.to/lastmile_qr_scan"}, "lon": -77.036234, "type": "electric_scooter", "fusion_lat": 0.0, "lat": 38.932595, "name": "1d1d0ecc0b00c643f2ac5054b4b9e89b", "fusion_lon": 0.0, "bike_id": "1d1d0ecc0b00c643f2ac5054b4b9e89b", "is_disabled": 0, "is_reserved": 0}, {"rental_uris": {"ios": "https://dc.lft.to/lastmile_qr_scan", "android": "https://dc.lft.to/lastmile_qr_scan"}, "lon": -76.9417375, "type": "electric_scooter", "fusion_lat": 0.0, "lat": 38.88219383333333, "name": "515acd7c151fccef0fc04463e7660c77", "fusion_lon": 0.0, "bike_id": "515acd7c151fccef0fc04463e7660c77", "is_disabled": 0, "is_reserved": 0}, {"rental_uris": {"ios": "https://dc.lft.to/lastmile_qr_scan", "android": "https://dc.lft.to/lastmile_qr_scan"}, "lon": -77.04487816666666, "type": "electric_scooter", "fusion_lat": 0.0, "lat": 38.91053316666667, "name": "7335dec9f7a13879d6ec0f814b0e2cde", "fusion_lon": 0.0, "bike_id": "7335dec9f7a13879d6ec0f814b0e2cde", "is_disabled": 0, "is_reserved": 0}, {"rental_uris": {"ios": "https://dc.lft.to/lastmile_qr_scan", "android": "https://dc.lft.to/lastmile_qr_scan"}, "lon": -77.042657, "type": "electric_scooter", "fusion_lat": 0.0, "lat": 38.92211416666667, "name": "f035e6a46db1eee50b081ac8b82e4113", "fusion_lon": 0.0, "bike_id": "f035e6a46db1eee50b081ac8b82e4113", "is_disabled": 0, "is_reserved": 0}, {"rental_uris": {"ios": "https://dc.lft.to/lastmile_qr_scan", "android": "https://dc.lft.to/lastmile_qr_scan"}, "lon": -77.04440833333334, "type": "electric_scooter", "fusion_lat": 0.0, "lat": 38.91019033333333, "name": "7e000e01e9f3eef1d349521e5922aba4", "fusion_lon": 0.0, "bike_id": "7e000e01e9f3eef1d349521e5922aba4", "is_disabled": 0, "is_reserved": 0}, {"rental_uris": {"ios": "https://dc.lft.to/lastmile_qr_scan", "android": "https://dc.lft.to/lastmile_qr_scan"}, "lon": -76.99146183333333, "type": "electric_scooter", "fusion_lat": 0.0, "lat": 38.900389833333335, "name": "f5f02bc79f6161273e32a97e13609d37", "fusion_lon": 0.0, "bike_id": "f5f02bc79f6161273e32a97e13609d37", "is_disabled": 0, "is_reserved": 0}, {"rental_uris": {"ios": "https://dc.lft.to/lastmile_qr_scan", "android": "https://dc.lft.to/lastmile_qr_scan"}, "lon": -77.038617, "type": "electric_scooter", "fusion_lat": 0.0, "lat": 38.915647, "name": "e6882c7219676ff3569fda1a329bfd9e", "fusion_lon": 0.0, "bike_id": "e6882c7219676ff3569fda1a329bfd9e", "is_disabled": 0, "is_reserved": 0}, {"rental_uris": {"ios": "https://dc.lft.to/lastmile_qr_scan", "android": "https://dc.lft.to/lastmile_qr_scan"}, "lon": -76.9540495, "type": "electric_scooter", "fusion_lat": 0.0, "lat": 38.889994, "name": "29d99c80b0065cb40e487012a12198eb", "fusion_lon": 0.0, "bike_id": "29d99c80b0065cb40e487012a12198eb", "is_disabled": 0, "is_reserved": 0}, {"rental_uris": {"ios": "https://dc.lft.to/lastmile_qr_scan", "android": "https://dc.lft.to/lastmile_qr_scan"}, "lon": -76.98712733333333, "type": "electric_scooter", "fusion_lat": 0.0, "lat": 38.86262516666667, "name": "e48bd2e19f822e712aa21873656ac1bb", "fusion_lon": 0.0, "bike_id": "e48bd2e19f822e712aa21873656ac1bb", "is_disabled": 0, "is_reserved": 0}, {"rental_uris": {"ios": "https://dc.lft.to/lastmile_qr_scan", "android": "https://dc.lft.to/lastmile_qr_scan"}, "lon": -77.0320705, "type": "electric_scooter", "fusion_lat": 0.0, "lat": 38.909912166666665, "name": "ec3f224d55191c42daccee8ca9e5bb15", "fusion_lon": 0.0, "bike_id": "ec3f224d55191c42daccee8ca9e5bb15", "is_disabled": 0, "is_reserved": 0}, {"rental_uris": {"ios": "https://dc.lft.to/lastmile_qr_scan", "android": "https://dc.lft.to/lastmile_qr_scan"}, "lon": -76.9721675, "type": "electric_bike", "fusion_lat": 0.0, "lat": 38.844855833333334, "name": "f43fadc2c364758f7fa8f92126f4ed8c", "fusion_lon": 0.0, "bike_id": "f43fadc2c364758f7fa8f92126f4ed8c", "is_disabled": 0, "is_reserved": 0}, {"rental_uris": {"ios": "https://dc.lft.to/lastmile_qr_scan", "android": "https://dc.lft.to/lastmile_qr_scan"}, "lon": -77.048397, "type": "electric_scooter", "fusion_lat": 0.0, "lat": 38.90381416666666, "name": "a51ec355975b7ea938aceba19d6591dd", "fusion_lon": 0.0, "bike_id": "a51ec355975b7ea938aceba19d6591dd", "is_disabled": 0, "is_reserved": 0}, {"rental_uris": {"ios": "https://dc.lft.to/lastmile_qr_scan", "android": "https://dc.lft.to/lastmile_qr_scan"}, "lon": -76.94436016666667, "type": "electric_bike", "fusion_lat": 0.0, "lat": 38.902999, "name": "ebf731fd31fba3e1220975a6e7a0250e", "fusion_lon": 0.0, "bike_id": "ebf731fd31fba3e1220975a6e7a0250e", "is_disabled": 0, "is_reserved": 0}, {"rental_uris": {"ios": "https://dc.lft.to/lastmile_qr_scan", "android": "https://dc.lft.to/lastmile_qr_scan"}, "lon": -77.0252695, "type": "electric_scooter", "fusion_lat": 0.0, "lat": 38.94150283333333, "name": "ddf8cef7093753c790191ce85d7658df", "fusion_lon": 0.0, "bike_id": "ddf8cef7093753c790191ce85d7658df", "is_disabled": 0, "is_reserved": 0}, {"rental_uris": {"ios": "https://dc.lft.to/lastmile_qr_scan", "android": "https://dc.lft.to/lastmile_qr_scan"}, "lon": -77.031781, "type": "electric_scooter", "fusion_lat": 0.0, "lat": 38.909688, "name": "a131dd191e7734ed6953404be9b862fe", "fusion_lon": 0.0, "bike_id": "a131dd191e7734ed6953404be9b862fe", "is_disabled": 0, "is_reserved": 0}, {"rental_uris": {"ios": "https://dc.lft.to/lastmile_qr_scan", "android": "https://dc.lft.to/lastmile_qr_scan"}, "lon": -77.01117366666666, "type": "electric_scooter", "fusion_lat": 0.0, "lat": 38.912713333333336, "name": "2daa8f9bca6cfe727221ef607cedd61c", "fusion_lon": 0.0, "bike_id": "2daa8f9bca6cfe727221ef607cedd61c", "is_disabled": 0, "is_reserved": 0}, {"rental_uris": {"ios": "https://dc.lft.to/lastmile_qr_scan", "android": "https://dc.lft.to/lastmile_qr_scan"}, "lon": -77.03220116666667, "type": "electric_scooter", "fusion_lat": 0.0, "lat": 38.9338665, "name": "9415054269e53ce2c7ca2aaa74575ee0", "fusion_lon": 0.0, "bike_id": "9415054269e53ce2c7ca2aaa74575ee0", "is_disabled": 0, "is_reserved": 0}, {"rental_uris": {"ios": "https://dc.lft.to/lastmile_qr_scan", "android": "https://dc.lft.to/lastmile_qr_scan"}, "lon": -77.0419375, "type": "electric_scooter", "fusion_lat": 0.0, "lat": 38.91677333333333, "name": "d50a94854247ddd92c13f7db7cce014c", "fusion_lon": 0.0, "bike_id": "d50a94854247ddd92c13f7db7cce014c", "is_disabled": 0, "is_reserved": 0}, {"rental_uris": {"ios": "https://dc.lft.to/lastmile_qr_scan", "android": "https://dc.lft.to/lastmile_qr_scan"}, "lon": -77.08573966666667, "type": "electric_bike", "fusion_lat": 0.0, "lat": 38.90975233333333, "name": "a16ca166c59d0c2c6ae0e159b5384003", "fusion_lon": 0.0, "bike_id": "a16ca166c59d0c2c6ae0e159b5384003", "is_disabled": 0, "is_reserved": 0}, {"rental_uris": {"ios": "https://dc.lft.to/lastmile_qr_scan", "android": "https://dc.lft.to/lastmile_qr_scan"}, "lon": -76.932356, "type": "electric_bike", "fusion_lat": 0.0, "lat": 38.882852666666665, "name": "042f999cbc89f230a13884d447073440", "fusion_lon": 0.0, "bike_id": "042f999cbc89f230a13884d447073440", "is_disabled": 0, "is_reserved": 0}, {"rental_uris": {"ios": "https://dc.lft.to/lastmile_qr_scan", "android": "https://dc.lft.to/lastmile_qr_scan"}, "lon": -76.99605116666666, "type": "electric_scooter", "fusion_lat": 0.0, "lat": 38.897559, "name": "3de2bcbd7c35003c4ff4346dec032b0a", "fusion_lon": 0.0, "bike_id": "3de2bcbd7c35003c4ff4346dec032b0a", "is_disabled": 0, "is_reserved": 0}, {"rental_uris": {"ios": "https://dc.lft.to/lastmile_qr_scan", "android": "https://dc.lft.to/lastmile_qr_scan"}, "lon": -77.00072833333333, "type": "electric_scooter", "fusion_lat": 0.0, "lat": 38.87431683333333, "name": "e03a2b666e15923037afc8188a351e4d", "fusion_lon": 0.0, "bike_id": "e03a2b666e15923037afc8188a351e4d", "is_disabled": 0, "is_reserved": 0}, {"rental_uris": {"ios": "https://dc.lft.to/lastmile_qr_scan", "android": "https://dc.lft.to/lastmile_qr_scan"}, "lon": -77.053342, "type": "electric_scooter", "fusion_lat": 0.0, "lat": 38.90224533333333, "name": "e2fb02df592399fc30d379832abcd484", "fusion_lon": 0.0, "bike_id": "e2fb02df592399fc30d379832abcd484", "is_disabled": 0, "is_reserved": 0}, {"rental_uris": {"ios": "https://dc.lft.to/lastmile_qr_scan", "android": "https://dc.lft.to/lastmile_qr_scan"}, "lon": -77.0709405, "type": "electric_scooter", "fusion_lat": 0.0, "lat": 38.93365, "name": "b925586c5f7af42d655c5f40077b8ae8", "fusion_lon": 0.0, "bike_id": "b925586c5f7af42d655c5f40077b8ae8", "is_disabled": 0, "is_reserved": 0}, {"rental_uris": {"ios": "https://dc.lft.to/lastmile_qr_scan", "android": "https://dc.lft.to/lastmile_qr_scan"}, "lon": -77.03660333333333, "type": "electric_scooter", "fusion_lat": 0.0, "lat": 38.936342, "name": "d88628639074b0e6133334a8eff041dc", "fusion_lon": 0.0, "bike_id": "d88628639074b0e6133334a8eff041dc", "is_disabled": 0, "is_reserved": 0}, {"rental_uris": {"ios": "https://dc.lft.to/lastmile_qr_scan", "android": "https://dc.lft.to/lastmile_qr_scan"}, "lon": -77.0236695, "type": "electric_scooter", "fusion_lat": 0.0, "lat": 38.93550666666667, "name": "05a014bc8e01c808e79d76c4600194a0", "fusion_lon": 0.0, "bike_id": "05a014bc8e01c808e79d76c4600194a0", "is_disabled": 0, "is_reserved": 0}, {"rental_uris": {"ios": "https://dc.lft.to/lastmile_qr_scan", "android": "https://dc.lft.to/lastmile_qr_scan"}, "lon": -77.044784, "type": "electric_scooter", "fusion_lat": 0.0, "lat": 38.9223735, "name": "ddd7d03af1121e6282475cb73cb3ee4e", "fusion_lon": 0.0, "bike_id": "ddd7d03af1121e6282475cb73cb3ee4e", "is_disabled": 0, "is_reserved": 0}, {"rental_uris": {"ios": "https://dc.lft.to/lastmile_qr_scan", "android": "https://dc.lft.to/lastmile_qr_scan"}, "lon": -77.04191783333333, "type": "electric_scooter", "fusion_lat": 0.0, "lat": 38.922031833333335, "name": "97c950b7ca96dbfcca59fa98db107cb8", "fusion_lon": 0.0, "bike_id": "97c950b7ca96dbfcca59fa98db107cb8", "is_disabled": 0, "is_reserved": 0}, {"rental_uris": {"ios": "https://dc.lft.to/lastmile_qr_scan", "android": "https://dc.lft.to/lastmile_qr_scan"}, "lon": -77.0419255, "type": "electric_scooter", "fusion_lat": 0.0, "lat": 38.920214666666666, "name": "bff93459a3c292da49c923de88b6d590", "fusion_lon": 0.0, "bike_id": "bff93459a3c292da49c923de88b6d590", "is_disabled": 0, "is_reserved": 0}, {"rental_uris": {"ios": "https://dc.lft.to/lastmile_qr_scan", "android": "https://dc.lft.to/lastmile_qr_scan"}, "lon": -77.03387333333333, "type": "electric_scooter", "fusion_lat": 0.0, "lat": 38.93849133333333, "name": "7940024cf5f41869c59ef97d0bc94253", "fusion_lon": 0.0, "bike_id": "7940024cf5f41869c59ef97d0bc94253", "is_disabled": 0, "is_reserved": 0}, {"rental_uris": {"ios": "https://dc.lft.to/lastmile_qr_scan", "android": "https://dc.lft.to/lastmile_qr_scan"}, "lon": -77.04750533333333, "type": "electric_scooter", "fusion_lat": 0.0, "lat": 38.917734333333335, "name": "175eecbcfe27cd8228616adca75a93ed", "fusion_lon": 0.0, "bike_id": "175eecbcfe27cd8228616adca75a93ed", "is_disabled": 0, "is_reserved": 0}, {"rental_uris": {"ios": "https://dc.lft.to/lastmile_qr_scan", "android": "https://dc.lft.to/lastmile_qr_scan"}, "lon": -77.0108365, "type": "electric_scooter", "fusion_lat": 0.0, "lat": 38.89406233333333, "name": "03fdf3d2052cf5952babd398f5607cf0", "fusion_lon": 0.0, "bike_id": "03fdf3d2052cf5952babd398f5607cf0", "is_disabled": 0, "is_reserved": 0}, {"rental_uris": {"ios": "https://dc.lft.to/lastmile_qr_scan", "android": "https://dc.lft.to/lastmile_qr_scan"}, "lon": -77.03199266666667, "type": "electric_scooter", "fusion_lat": 0.0, "lat": 38.91962066666667, "name": "fe89ccbe76a0755505ac4c633f2ee121", "fusion_lon": 0.0, "bike_id": "fe89ccbe76a0755505ac4c633f2ee121", "is_disabled": 0, "is_reserved": 0}, {"rental_uris": {"ios": "https://dc.lft.to/lastmile_qr_scan", "android": "https://dc.lft.to/lastmile_qr_scan"}, "lon": -77.0321545, "type": "electric_scooter", "fusion_lat": 0.0, "lat": 38.89220816666667, "name": "07b1c4a285f5bb72b78f8a3e02971b44", "fusion_lon": 0.0, "bike_id": "07b1c4a285f5bb72b78f8a3e02971b44", "is_disabled": 0, "is_reserved": 0}, {"rental_uris": {"ios": "https://dc.lft.to/lastmile_qr_scan", "android": "https://dc.lft.to/lastmile_qr_scan"}, "lon": -77.101262, "type": "electric_bike", "fusion_lat": 0.0, "lat": 38.852143833333336, "name": "e72473f6155ac74d6f3a7a37395b7803", "fusion_lon": 0.0, "bike_id": "e72473f6155ac74d6f3a7a37395b7803", "is_disabled": 0, "is_reserved": 0}, {"rental_uris": {"ios": "https://dc.lft.to/lastmile_qr_scan", "android": "https://dc.lft.to/lastmile_qr_scan"}, "lon": -77.00181966666666, "type": "electric_scooter", "fusion_lat": 0.0, "lat": 38.873890333333335, "name": "4a8ffc81a18182dde6248ffdf1601db4", "fusion_lon": 0.0, "bike_id": "4a8ffc81a18182dde6248ffdf1601db4", "is_disabled": 0, "is_reserved": 0}, {"rental_uris": {"ios": "https://dc.lft.to/lastmile_qr_scan", "android": "https://dc.lft.to/lastmile_qr_scan"}, "lon": -77.06932683333334, "type": "electric_scooter", "fusion_lat": 0.0, "lat": 38.905074, "name": "f40b641881ca12b87dbbeca3feedebce", "fusion_lon": 0.0, "bike_id": "f40b641881ca12b87dbbeca3feedebce", "is_disabled": 0, "is_reserved": 0}, {"rental_uris": {"ios": "https://dc.lft.to/lastmile_qr_scan", "android": "https://dc.lft.to/lastmile_qr_scan"}, "lon": -77.0433215, "type": "electric_scooter", "fusion_lat": 0.0, "lat": 38.89227833333333, "name": "baef82f8c5207dc9eb069232013b190c", "fusion_lon": 0.0, "bike_id": "baef82f8c5207dc9eb069232013b190c", "is_disabled": 0, "is_reserved": 0}, {"rental_uris": {"ios": "https://dc.lft.to/lastmile_qr_scan", "android": "https://dc.lft.to/lastmile_qr_scan"}, "lon": -77.0444325, "type": "electric_scooter", "fusion_lat": 0.0, "lat": 38.9102015, "name": "fb5d655101cb39ca26ae39f58ec809e6", "fusion_lon": 0.0, "bike_id": "fb5d655101cb39ca26ae39f58ec809e6", "is_disabled": 0, "is_reserved": 0}, {"rental_uris": {"ios": "https://dc.lft.to/lastmile_qr_scan", "android": "https://dc.lft.to/lastmile_qr_scan"}, "lon": -77.03675966666667, "type": "electric_scooter", "fusion_lat": 0.0, "lat": 38.91819566666667, "name": "dcbbabcc696c78a19f70d6ac6f0c736d", "fusion_lon": 0.0, "bike_id": "dcbbabcc696c78a19f70d6ac6f0c736d", "is_disabled": 0, "is_reserved": 0}, {"rental_uris": {"ios": "https://dc.lft.to/lastmile_qr_scan", "android": "https://dc.lft.to/lastmile_qr_scan"}, "lon": -77.03209583333333, "type": "electric_scooter", "fusion_lat": 0.0, "lat": 38.892359, "name": "165ba0cb901f46bba16bb2fec1197587", "fusion_lon": 0.0, "bike_id": "165ba0cb901f46bba16bb2fec1197587", "is_disabled": 0, "is_reserved": 0}, {"rental_uris": {"ios": "https://dc.lft.to/lastmile_qr_scan", "android": "https://dc.lft.to/lastmile_qr_scan"}, "lon": -77.00595433333334, "type": "electric_scooter", "fusion_lat": 0.0, "lat": 38.905826, "name": "af7e3de60308b8ff560a6d59a55c140c", "fusion_lon": 0.0, "bike_id": "af7e3de60308b8ff560a6d59a55c140c", "is_disabled": 0, "is_reserved": 0}, {"rental_uris": {"ios": "https://dc.lft.to/lastmile_qr_scan", "android": "https://dc.lft.to/lastmile_qr_scan"}, "lon": -77.032717, "type": "electric_scooter", "fusion_lat": 0.0, "lat": 38.936695, "name": "965625ab2003691849711fe8211a310b", "fusion_lon": 0.0, "bike_id": "965625ab2003691849711fe8211a310b", "is_disabled": 0, "is_reserved": 0}, {"rental_uris": {"ios": "https://dc.lft.to/lastmile_qr_scan", "android": "https://dc.lft.to/lastmile_qr_scan"}, "lon": -77.09868766666666, "type": "electric_bike", "fusion_lat": 0.0, "lat": 38.85374316666667, "name": "ea79d37b8c64e96ba80629bb8867aad1", "fusion_lon": 0.0, "bike_id": "ea79d37b8c64e96ba80629bb8867aad1", "is_disabled": 0, "is_reserved": 0}, {"rental_uris": {"ios": "https://dc.lft.to/lastmile_qr_scan", "android": "https://dc.lft.to/lastmile_qr_scan"}, "lon": -77.02466333333334, "type": "electric_scooter", "fusion_lat": 0.0, "lat": 38.93832366666667, "name": "2e2039dd35d3275a9c6ebaa9b9086857", "fusion_lon": 0.0, "bike_id": "2e2039dd35d3275a9c6ebaa9b9086857", "is_disabled": 0, "is_reserved": 0}, {"rental_uris": {"ios": "https://dc.lft.to/lastmile_qr_scan", "android": "https://dc.lft.to/lastmile_qr_scan"}, "lon": -77.01630983333334, "type": "electric_bike", "fusion_lat": 0.0, "lat": 38.9033325, "name": "a327f87ab2194c9cb94651d8a2d8e802", "fusion_lon": 0.0, "bike_id": "a327f87ab2194c9cb94651d8a2d8e802", "is_disabled": 0, "is_reserved": 0}, {"rental_uris": {"ios": "https://dc.lft.to/lastmile_qr_scan", "android": "https://dc.lft.to/lastmile_qr_scan"}, "lon": -77.0295885, "type": "electric_scooter", "fusion_lat": 0.0, "lat": 38.922956166666665, "name": "a57645c6823aef13dd72c6bdfbae7257", "fusion_lon": 0.0, "bike_id": "a57645c6823aef13dd72c6bdfbae7257", "is_disabled": 0, "is_reserved": 0}, {"rental_uris": {"ios": "https://dc.lft.to/lastmile_qr_scan", "android": "https://dc.lft.to/lastmile_qr_scan"}, "lon": -77.019744, "type": "electric_scooter", "fusion_lat": 0.0, "lat": 38.89746616666667, "name": "3ff2da38a41d4d5fa2db1e249e60aa26", "fusion_lon": 0.0, "bike_id": "3ff2da38a41d4d5fa2db1e249e60aa26", "is_disabled": 0, "is_reserved": 0}, {"rental_uris": {"ios": "https://dc.lft.to/lastmile_qr_scan", "android": "https://dc.lft.to/lastmile_qr_scan"}, "lon": -76.9899975, "type": "electric_scooter", "fusion_lat": 0.0, "lat": 38.865051333333334, "name": "21aa2d53c974b69d434d07802e39adb6", "fusion_lon": 0.0, "bike_id": "21aa2d53c974b69d434d07802e39adb6", "is_disabled": 0, "is_reserved": 0}, {"rental_uris": {"ios": "https://dc.lft.to/lastmile_qr_scan", "android": "https://dc.lft.to/lastmile_qr_scan"}, "lon": -77.02369183333333, "type": "electric_scooter", "fusion_lat": 0.0, "lat": 38.903080333333335, "name": "3af3fab6c8fccac163a226a5f78d9eac", "fusion_lon": 0.0, "bike_id": "3af3fab6c8fccac163a226a5f78d9eac", "is_disabled": 0, "is_reserved": 0}, {"rental_uris": {"ios": "https://dc.lft.to/lastmile_qr_scan", "android": "https://dc.lft.to/lastmile_qr_scan"}, "lon": -76.9905245, "type": "electric_scooter", "fusion_lat": 0.0, "lat": 38.845630166666666, "name": "19f54d3e9e8d2cd1d3c70b64780b23b9", "fusion_lon": 0.0, "bike_id": "19f54d3e9e8d2cd1d3c70b64780b23b9", "is_disabled": 0, "is_reserved": 0}, {"rental_uris": {"ios": "https://dc.lft.to/lastmile_qr_scan", "android": "https://dc.lft.to/lastmile_qr_scan"}, "lon": -77.01371366666666, "type": "electric_scooter", "fusion_lat": 0.0, "lat": 38.869622166666666, "name": "aae4944f3910b56893415fbff6225bd9", "fusion_lon": 0.0, "bike_id": "aae4944f3910b56893415fbff6225bd9", "is_disabled": 0, "is_reserved": 0}, {"rental_uris": {"ios": "https://dc.lft.to/lastmile_qr_scan", "android": "https://dc.lft.to/lastmile_qr_scan"}, "lon": -77.03049683333333, "type": "electric_scooter", "fusion_lat": 0.0, "lat": 38.894773666666666, "name": "afe9e8df853f84beb3270e4f61c954a6", "fusion_lon": 0.0, "bike_id": "afe9e8df853f84beb3270e4f61c954a6", "is_disabled": 0, "is_reserved": 0}, {"rental_uris": {"ios": "https://dc.lft.to/lastmile_qr_scan", "android": "https://dc.lft.to/lastmile_qr_scan"}, "lon": -77.02601366666667, "type": "electric_scooter", "fusion_lat": 0.0, "lat": 38.8966345, "name": "18dd2e7823f9fa65ec5f5813a5ec3134", "fusion_lon": 0.0, "bike_id": "18dd2e7823f9fa65ec5f5813a5ec3134", "is_disabled": 0, "is_reserved": 0}, {"rental_uris": {"ios": "https://dc.lft.to/lastmile_qr_scan", "android": "https://dc.lft.to/lastmile_qr_scan"}, "lon": -77.01963433333333, "type": "electric_scooter", "fusion_lat": 0.0, "lat": 38.934183166666664, "name": "8a6b22c54439af356c5d6c3c520eb306", "fusion_lon": 0.0, "bike_id": "8a6b22c54439af356c5d6c3c520eb306", "is_disabled": 0, "is_reserved": 0}, {"rental_uris": {"ios": "https://dc.lft.to/lastmile_qr_scan", "android": "https://dc.lft.to/lastmile_qr_scan"}, "lon": -77.02369966666667, "type": "electric_scooter", "fusion_lat": 0.0, "lat": 38.895391000000004, "name": "d93c49e3ebca1ac8d4626cb623c8e5f0", "fusion_lon": 0.0, "bike_id": "d93c49e3ebca1ac8d4626cb623c8e5f0", "is_disabled": 0, "is_reserved": 0}, {"rental_uris": {"ios": "https://dc.lft.to/lastmile_qr_scan", "android": "https://dc.lft.to/lastmile_qr_scan"}, "lon": -77.03282333333334, "type": "electric_scooter", "fusion_lat": 0.0, "lat": 38.9390175, "name": "d7a1dda3f6da7e037d7b523e02938e02", "fusion_lon": 0.0, "bike_id": "d7a1dda3f6da7e037d7b523e02938e02", "is_disabled": 0, "is_reserved": 0}, {"rental_uris": {"ios": "https://dc.lft.to/lastmile_qr_scan", "android": "https://dc.lft.to/lastmile_qr_scan"}, "lon": -77.04062866666666, "type": "electric_scooter", "fusion_lat": 0.0, "lat": 38.92646166666667, "name": "5a4afb68b959a8013d79544e493f9a67", "fusion_lon": 0.0, "bike_id": "5a4afb68b959a8013d79544e493f9a67", "is_disabled": 0, "is_reserved": 0}, {"rental_uris": {"ios": "https://dc.lft.to/lastmile_qr_scan", "android": "https://dc.lft.to/lastmile_qr_scan"}, "lon": -76.98157216666667, "type": "electric_scooter", "fusion_lat": 0.0, "lat": 38.932981833333336, "name": "b31c16578c8bdb360d82c7d0608cb542", "fusion_lon": 0.0, "bike_id": "b31c16578c8bdb360d82c7d0608cb542", "is_disabled": 0, "is_reserved": 0}, {"rental_uris": {"ios": "https://dc.lft.to/lastmile_qr_scan", "android": "https://dc.lft.to/lastmile_qr_scan"}, "lon": -76.98837766666666, "type": "electric_scooter", "fusion_lat": 0.0, "lat": 38.901983333333334, "name": "dbfbbf904f457ad719b75d9fbe33996e", "fusion_lon": 0.0, "bike_id": "dbfbbf904f457ad719b75d9fbe33996e", "is_disabled": 0, "is_reserved": 0}, {"rental_uris": {"ios": "https://dc.lft.to/lastmile_qr_scan", "android": "https://dc.lft.to/lastmile_qr_scan"}, "lon": -77.03995033333334, "type": "electric_scooter", "fusion_lat": 0.0, "lat": 38.917599333333335, "name": "1644906b0763d9eaa9645a2c6a629324", "fusion_lon": 0.0, "bike_id": "1644906b0763d9eaa9645a2c6a629324", "is_disabled": 0, "is_reserved": 0}, {"rental_uris": {"ios": "https://dc.lft.to/lastmile_qr_scan", "android": "https://dc.lft.to/lastmile_qr_scan"}, "lon": -77.04683266666666, "type": "electric_scooter", "fusion_lat": 0.0, "lat": 38.90069116666667, "name": "be157428627aed058fc896ace19a55e5", "fusion_lon": 0.0, "bike_id": "be157428627aed058fc896ace19a55e5", "is_disabled": 0, "is_reserved": 0}, {"rental_uris": {"ios": "https://dc.lft.to/lastmile_qr_scan", "android": "https://dc.lft.to/lastmile_qr_scan"}, "lon": -77.02953633333334, "type": "electric_scooter", "fusion_lat": 0.0, "lat": 38.89732633333333, "name": "dff2cf23a9bcf1afce507be802e45d08", "fusion_lon": 0.0, "bike_id": "dff2cf23a9bcf1afce507be802e45d08", "is_disabled": 0, "is_reserved": 0}, {"rental_uris": {"ios": "https://dc.lft.to/lastmile_qr_scan", "android": "https://dc.lft.to/lastmile_qr_scan"}, "lon": -77.04111466666667, "type": "electric_scooter", "fusion_lat": 0.0, "lat": 38.92122583333333, "name": "81692d7b0562fc6c38ad158d92c30e25", "fusion_lon": 0.0, "bike_id": "81692d7b0562fc6c38ad158d92c30e25", "is_disabled": 0, "is_reserved": 0}, {"rental_uris": {"ios": "https://dc.lft.to/lastmile_qr_scan", "android": "https://dc.lft.to/lastmile_qr_scan"}, "lon": -76.90427966666667, "type": "electric_bike", "fusion_lat": 0.0, "lat": 38.897658166666666, "name": "68d186fe802028b83a4020ae657bc84e", "fusion_lon": 0.0, "bike_id": "68d186fe802028b83a4020ae657bc84e", "is_disabled": 0, "is_reserved": 0}, {"rental_uris": {"ios": "https://dc.lft.to/lastmile_qr_scan", "android": "https://dc.lft.to/lastmile_qr_scan"}, "lon": -77.02690466666667, "type": "electric_scooter", "fusion_lat": 0.0, "lat": 38.903521833333336, "name": "24eb727c893402de850c497a501373a4", "fusion_lon": 0.0, "bike_id": "24eb727c893402de850c497a501373a4", "is_disabled": 0, "is_reserved": 0}, {"rental_uris": {"ios": "https://dc.lft.to/lastmile_qr_scan", "android": "https://dc.lft.to/lastmile_qr_scan"}, "lon": -77.04690666666667, "type": "electric_scooter", "fusion_lat": 0.0, "lat": 38.892256, "name": "229a56553e24035b3d1563a8e1794e68", "fusion_lon": 0.0, "bike_id": "229a56553e24035b3d1563a8e1794e68", "is_disabled": 0, "is_reserved": 0}, {"rental_uris": {"ios": "https://dc.lft.to/lastmile_qr_scan", "android": "https://dc.lft.to/lastmile_qr_scan"}, "lon": -77.02204, "type": "electric_scooter", "fusion_lat": 0.0, "lat": 38.930059, "name": "ae5a16c13f7e9843b9d626b0deb9b95f", "fusion_lon": 0.0, "bike_id": "ae5a16c13f7e9843b9d626b0deb9b95f", "is_disabled": 0, "is_reserved": 0}, {"rental_uris": {"ios": "https://dc.lft.to/lastmile_qr_scan", "android": "https://dc.lft.to/lastmile_qr_scan"}, "lon": -77.0483255, "type": "electric_scooter", "fusion_lat": 0.0, "lat": 38.92041583333334, "name": "90265d8cae0952c4b7f015fc65a44ce2", "fusion_lon": 0.0, "bike_id": "90265d8cae0952c4b7f015fc65a44ce2", "is_disabled": 0, "is_reserved": 0}, {"rental_uris": {"ios": "https://dc.lft.to/lastmile_qr_scan", "android": "https://dc.lft.to/lastmile_qr_scan"}, "lon": -77.0497935, "type": "electric_scooter", "fusion_lat": 0.0, "lat": 38.901189333333335, "name": "4cfcc764cd6d838849fc9af84eae564d", "fusion_lon": 0.0, "bike_id": "4cfcc764cd6d838849fc9af84eae564d", "is_disabled": 0, "is_reserved": 0}, {"rental_uris": {"ios": "https://dc.lft.to/lastmile_qr_scan", "android": "https://dc.lft.to/lastmile_qr_scan"}, "lon": -77.020716, "type": "electric_scooter", "fusion_lat": 0.0, "lat": 38.915543166666666, "name": "986b3ec27bf150d7d6d8387e27ec7796", "fusion_lon": 0.0, "bike_id": "986b3ec27bf150d7d6d8387e27ec7796", "is_disabled": 0, "is_reserved": 0}, {"rental_uris": {"ios": "https://dc.lft.to/lastmile_qr_scan", "android": "https://dc.lft.to/lastmile_qr_scan"}, "lon": -76.9950315, "type": "electric_scooter", "fusion_lat": 0.0, "lat": 38.89960266666667, "name": "60f57dddead72931644de0d0b2edb908", "fusion_lon": 0.0, "bike_id": "60f57dddead72931644de0d0b2edb908", "is_disabled": 0, "is_reserved": 0}, {"rental_uris": {"ios": "https://dc.lft.to/lastmile_qr_scan", "android": "https://dc.lft.to/lastmile_qr_scan"}, "lon": -77.04367366666666, "type": "electric_scooter", "fusion_lat": 0.0, "lat": 38.92810266666667, "name": "3c7227cb1ec27cda385ed9d5590e802a", "fusion_lon": 0.0, "bike_id": "3c7227cb1ec27cda385ed9d5590e802a", "is_disabled": 0, "is_reserved": 0}, {"rental_uris": {"ios": "https://dc.lft.to/lastmile_qr_scan", "android": "https://dc.lft.to/lastmile_qr_scan"}, "lon": -77.05304733333334, "type": "electric_scooter", "fusion_lat": 0.0, "lat": 38.926239333333335, "name": "8dccee8b8b68c5da6d27e880fcce2f76", "fusion_lon": 0.0, "bike_id": "8dccee8b8b68c5da6d27e880fcce2f76", "is_disabled": 0, "is_reserved": 0}, {"rental_uris": {"ios": "https://dc.lft.to/lastmile_qr_scan", "android": "https://dc.lft.to/lastmile_qr_scan"}, "lon": -76.931773, "type": "electric_scooter", "fusion_lat": 0.0, "lat": 38.8988595, "name": "8570b84863674b693741468fc003b453", "fusion_lon": 0.0, "bike_id": "8570b84863674b693741468fc003b453", "is_disabled": 0, "is_reserved": 0}, {"rental_uris": {"ios": "https://dc.lft.to/lastmile_qr_scan", "android": "https://dc.lft.to/lastmile_qr_scan"}, "lon": -76.97495433333333, "type": "electric_scooter", "fusion_lat": 0.0, "lat": 38.86922766666667, "name": "664feaa305ab73f53b29384d3881732f", "fusion_lon": 0.0, "bike_id": "664feaa305ab73f53b29384d3881732f", "is_disabled": 0, "is_reserved": 0}, {"rental_uris": {"ios": "https://dc.lft.to/lastmile_qr_scan", "android": "https://dc.lft.to/lastmile_qr_scan"}, "lon": -77.04141783333333, "type": "electric_scooter", "fusion_lat": 0.0, "lat": 38.923010166666664, "name": "3661a490743422e9033ff706fc59348d", "fusion_lon": 0.0, "bike_id": "3661a490743422e9033ff706fc59348d", "is_disabled": 0, "is_reserved": 0}, {"rental_uris": {"ios": "https://dc.lft.to/lastmile_qr_scan", "android": "https://dc.lft.to/lastmile_qr_scan"}, "lon": -77.007744, "type": "electric_scooter", "fusion_lat": 0.0, "lat": 38.89738366666667, "name": "741062a2726367dc4f2d7cd6ccf19bf9", "fusion_lon": 0.0, "bike_id": "741062a2726367dc4f2d7cd6ccf19bf9", "is_disabled": 0, "is_reserved": 0}, {"rental_uris": {"ios": "https://dc.lft.to/lastmile_qr_scan", "android": "https://dc.lft.to/lastmile_qr_scan"}, "lon": -77.02925166666667, "type": "electric_scooter", "fusion_lat": 0.0, "lat": 38.89551383333333, "name": "5db6116c75dc206195b8b42672095f78", "fusion_lon": 0.0, "bike_id": "5db6116c75dc206195b8b42672095f78", "is_disabled": 0, "is_reserved": 0}, {"rental_uris": {"ios": "https://dc.lft.to/lastmile_qr_scan", "android": "https://dc.lft.to/lastmile_qr_scan"}, "lon": -77.00228816666667, "type": "electric_scooter", "fusion_lat": 0.0, "lat": 38.905662, "name": "b431a12895e683727d03e68abd3ea208", "fusion_lon": 0.0, "bike_id": "b431a12895e683727d03e68abd3ea208", "is_disabled": 0, "is_reserved": 0}, {"rental_uris": {"ios": "https://dc.lft.to/lastmile_qr_scan", "android": "https://dc.lft.to/lastmile_qr_scan"}, "lon": -77.10515983333333, "type": "electric_bike", "fusion_lat": 0.0, "lat": 38.851705833333334, "name": "73ea48e81639570a8287248f32a526d3", "fusion_lon": 0.0, "bike_id": "73ea48e81639570a8287248f32a526d3", "is_disabled": 0, "is_reserved": 0}, {"rental_uris": {"ios": "https://dc.lft.to/lastmile_qr_scan", "android": "https://dc.lft.to/lastmile_qr_scan"}, "lon": -77.0283105, "type": "electric_scooter", "fusion_lat": 0.0, "lat": 38.931898833333335, "name": "daa4f047c20750d1d936424e3a768b66", "fusion_lon": 0.0, "bike_id": "daa4f047c20750d1d936424e3a768b66", "is_disabled": 0, "is_reserved": 0}, {"rental_uris": {"ios": "https://dc.lft.to/lastmile_qr_scan", "android": "https://dc.lft.to/lastmile_qr_scan"}, "lon": -77.02248183333333, "type": "electric_scooter", "fusion_lat": 0.0, "lat": 38.92310583333333, "name": "890acd706e34333a197e63496e731d71", "fusion_lon": 0.0, "bike_id": "890acd706e34333a197e63496e731d71", "is_disabled": 0, "is_reserved": 0}, {"rental_uris": {"ios": "https://dc.lft.to/lastmile_qr_scan", "android": "https://dc.lft.to/lastmile_qr_scan"}, "lon": -77.04443566666667, "type": "electric_scooter", "fusion_lat": 0.0, "lat": 38.91802416666667, "name": "4bf15da156ec6088a2cc2149628ee171", "fusion_lon": 0.0, "bike_id": "4bf15da156ec6088a2cc2149628ee171", "is_disabled": 0, "is_reserved": 0}, {"rental_uris": {"ios": "https://dc.lft.to/lastmile_qr_scan", "android": "https://dc.lft.to/lastmile_qr_scan"}, "lon": -76.9678535, "type": "electric_scooter", "fusion_lat": 0.0, "lat": 38.8614185, "name": "6c170f312143ae6be248d2645be6a932", "fusion_lon": 0.0, "bike_id": "6c170f312143ae6be248d2645be6a932", "is_disabled": 0, "is_reserved": 0}, {"rental_uris": {"ios": "https://dc.lft.to/lastmile_qr_scan", "android": "https://dc.lft.to/lastmile_qr_scan"}, "lon": -77.002846, "type": "electric_scooter", "fusion_lat": 0.0, "lat": 38.90563183333333, "name": "354ddc221c8fbce43445578ee77b4f81", "fusion_lon": 0.0, "bike_id": "354ddc221c8fbce43445578ee77b4f81", "is_disabled": 0, "is_reserved": 0}, {"rental_uris": {"ios": "https://dc.lft.to/lastmile_qr_scan", "android": "https://dc.lft.to/lastmile_qr_scan"}, "lon": -76.9841235, "type": "electric_scooter", "fusion_lat": 0.0, "lat": 38.913907333333334, "name": "a4ce499568a98fdfb6f0353a5042a7dc", "fusion_lon": 0.0, "bike_id": "a4ce499568a98fdfb6f0353a5042a7dc", "is_disabled": 0, "is_reserved": 0}, {"rental_uris": {"ios": "https://dc.lft.to/lastmile_qr_scan", "android": "https://dc.lft.to/lastmile_qr_scan"}, "lon": -77.00326966666667, "type": "electric_scooter", "fusion_lat": 0.0, "lat": 38.9089515, "name": "9e57352f61503ec0543a5c1dc25c31d6", "fusion_lon": 0.0, "bike_id": "9e57352f61503ec0543a5c1dc25c31d6", "is_disabled": 0, "is_reserved": 0}, {"rental_uris": {"ios": "https://dc.lft.to/lastmile_qr_scan", "android": "https://dc.lft.to/lastmile_qr_scan"}, "lon": -77.03216183333333, "type": "electric_scooter", "fusion_lat": 0.0, "lat": 38.8922225, "name": "90cca0d6ecbe4dee57e1e311537d0091", "fusion_lon": 0.0, "bike_id": "90cca0d6ecbe4dee57e1e311537d0091", "is_disabled": 0, "is_reserved": 0}, {"rental_uris": {"ios": "https://dc.lft.to/lastmile_qr_scan", "android": "https://dc.lft.to/lastmile_qr_scan"}, "lon": -77.0301225, "type": "electric_scooter", "fusion_lat": 0.0, "lat": 38.912667166666665, "name": "4407b30ef30c45568dc1494ce958d236", "fusion_lon": 0.0, "bike_id": "4407b30ef30c45568dc1494ce958d236", "is_disabled": 0, "is_reserved": 0}, {"rental_uris": {"ios": "https://dc.lft.to/lastmile_qr_scan", "android": "https://dc.lft.to/lastmile_qr_scan"}, "lon": -77.07082116666666, "type": "electric_bike", "fusion_lat": 0.0, "lat": 38.95559683333333, "name": "47d992fdeb5d074fb66c2c57c069cc76", "fusion_lon": 0.0, "bike_id": "47d992fdeb5d074fb66c2c57c069cc76", "is_disabled": 0, "is_reserved": 0}, {"rental_uris": {"ios": "https://dc.lft.to/lastmile_qr_scan", "android": "https://dc.lft.to/lastmile_qr_scan"}, "lon": -76.98885316666667, "type": "electric_scooter", "fusion_lat": 0.0, "lat": 38.866643333333336, "name": "e8d15c278aad44b4fc9cbd954fa8eeac", "fusion_lon": 0.0, "bike_id": "e8d15c278aad44b4fc9cbd954fa8eeac", "is_disabled": 0, "is_reserved": 0}, {"rental_uris": {"ios": "https://dc.lft.to/lastmile_qr_scan", "android": "https://dc.lft.to/lastmile_qr_scan"}, "lon": -77.0158995, "type": "electric_scooter", "fusion_lat": 0.0, "lat": 38.900367833333334, "name": "92035a1af0a7aa5d1fdc2fd2aeb6803b", "fusion_lon": 0.0, "bike_id": "92035a1af0a7aa5d1fdc2fd2aeb6803b", "is_disabled": 0, "is_reserved": 0}, {"rental_uris": {"ios": "https://dc.lft.to/lastmile_qr_scan", "android": "https://dc.lft.to/lastmile_qr_scan"}, "lon": -77.038223, "type": "electric_scooter", "fusion_lat": 0.0, "lat": 38.931227, "name": "822ca6f641ffbc3973b13aba5821f98b", "fusion_lon": 0.0, "bike_id": "822ca6f641ffbc3973b13aba5821f98b", "is_disabled": 0, "is_reserved": 0}, {"rental_uris": {"ios": "https://dc.lft.to/lastmile_qr_scan", "android": "https://dc.lft.to/lastmile_qr_scan"}, "lon": -77.03206233333333, "type": "electric_scooter", "fusion_lat": 0.0, "lat": 38.911098833333334, "name": "1147e3c7d7fb3e9bd5da0c9ffa49f76e", "fusion_lon": 0.0, "bike_id": "1147e3c7d7fb3e9bd5da0c9ffa49f76e", "is_disabled": 0, "is_reserved": 0}, {"rental_uris": {"ios": "https://dc.lft.to/lastmile_qr_scan", "android": "https://dc.lft.to/lastmile_qr_scan"}, "lon": -77.01181916666667, "type": "electric_scooter", "fusion_lat": 0.0, "lat": 38.91112016666666, "name": "5bdc4e4630faa68e5cd095b832a98a90", "fusion_lon": 0.0, "bike_id": "5bdc4e4630faa68e5cd095b832a98a90", "is_disabled": 0, "is_reserved": 0}, {"rental_uris": {"ios": "https://dc.lft.to/lastmile_qr_scan", "android": "https://dc.lft.to/lastmile_qr_scan"}, "lon": -76.93175816666667, "type": "electric_scooter", "fusion_lat": 0.0, "lat": 38.89888583333333, "name": "e7f013b3c325260359a029b085d27e13", "fusion_lon": 0.0, "bike_id": "e7f013b3c325260359a029b085d27e13", "is_disabled": 0, "is_reserved": 0}, {"rental_uris": {"ios": "https://dc.lft.to/lastmile_qr_scan", "android": "https://dc.lft.to/lastmile_qr_scan"}, "lon": -77.03186183333334, "type": "electric_scooter", "fusion_lat": 0.0, "lat": 38.92479566666667, "name": "aafe7102a2cf0dbedfd931bb4ce0cec3", "fusion_lon": 0.0, "bike_id": "aafe7102a2cf0dbedfd931bb4ce0cec3", "is_disabled": 0, "is_reserved": 0}, {"rental_uris": {"ios": "https://dc.lft.to/lastmile_qr_scan", "android": "https://dc.lft.to/lastmile_qr_scan"}, "lon": -77.02653733333334, "type": "electric_scooter", "fusion_lat": 0.0, "lat": 38.9105975, "name": "d12b23ef0708c15404074bb11945a6e9", "fusion_lon": 0.0, "bike_id": "d12b23ef0708c15404074bb11945a6e9", "is_disabled": 0, "is_reserved": 0}, {"rental_uris": {"ios": "https://dc.lft.to/lastmile_qr_scan", "android": "https://dc.lft.to/lastmile_qr_scan"}, "lon": -77.021542, "type": "electric_scooter", "fusion_lat": 0.0, "lat": 38.942314833333334, "name": "7463391a56ce18e18b9e98e35e795087", "fusion_lon": 0.0, "bike_id": "7463391a56ce18e18b9e98e35e795087", "is_disabled": 0, "is_reserved": 0}, {"rental_uris": {"ios": "https://dc.lft.to/lastmile_qr_scan", "android": "https://dc.lft.to/lastmile_qr_scan"}, "lon": -77.01949233333333, "type": "electric_scooter", "fusion_lat": 0.0, "lat": 38.885957833333336, "name": "e65397ba8eb64cfc0413c31df99f2b2e", "fusion_lon": 0.0, "bike_id": "e65397ba8eb64cfc0413c31df99f2b2e", "is_disabled": 0, "is_reserved": 0}, {"rental_uris": {"ios": "https://dc.lft.to/lastmile_qr_scan", "android": "https://dc.lft.to/lastmile_qr_scan"}, "lon": -76.9652235, "type": "electric_bike", "fusion_lat": 0.0, "lat": 38.87480516666667, "name": "fa46f3b5e71ef0e97a9c3405ea413a1c", "fusion_lon": 0.0, "bike_id": "fa46f3b5e71ef0e97a9c3405ea413a1c", "is_disabled": 0, "is_reserved": 0}, {"rental_uris": {"ios": "https://dc.lft.to/lastmile_qr_scan", "android": "https://dc.lft.to/lastmile_qr_scan"}, "lon": -77.01059633333334, "type": "electric_scooter", "fusion_lat": 0.0, "lat": 38.87577366666667, "name": "cc629720100bdbe83dff7f00e52e44b8", "fusion_lon": 0.0, "bike_id": "cc629720100bdbe83dff7f00e52e44b8", "is_disabled": 0, "is_reserved": 0}, {"rental_uris": {"ios": "https://dc.lft.to/lastmile_qr_scan", "android": "https://dc.lft.to/lastmile_qr_scan"}, "lon": -77.02675066666667, "type": "electric_scooter", "fusion_lat": 0.0, "lat": 38.8958375, "name": "a6e4a04a27bc018f351f59072df23ab6", "fusion_lon": 0.0, "bike_id": "a6e4a04a27bc018f351f59072df23ab6", "is_disabled": 0, "is_reserved": 0}, {"rental_uris": {"ios": "https://dc.lft.to/lastmile_qr_scan", "android": "https://dc.lft.to/lastmile_qr_scan"}, "lon": -77.03656516666666, "type": "electric_scooter", "fusion_lat": 0.0, "lat": 38.9363665, "name": "c359ecb3ffb8f7675b6413d2483e4e79", "fusion_lon": 0.0, "bike_id": "c359ecb3ffb8f7675b6413d2483e4e79", "is_disabled": 0, "is_reserved": 0}, {"rental_uris": {"ios": "https://dc.lft.to/lastmile_qr_scan", "android": "https://dc.lft.to/lastmile_qr_scan"}, "lon": -77.1058525, "type": "electric_bike", "fusion_lat": 0.0, "lat": 38.88536466666667, "name": "2244d347deac87be94361e052ccb792b", "fusion_lon": 0.0, "bike_id": "2244d347deac87be94361e052ccb792b", "is_disabled": 0, "is_reserved": 0}, {"rental_uris": {"ios": "https://dc.lft.to/lastmile_qr_scan", "android": "https://dc.lft.to/lastmile_qr_scan"}, "lon": -77.11314666666667, "type": "electric_bike", "fusion_lat": 0.0, "lat": 38.855656833333335, "name": "4fe960843da4247c4026bf39e4d1ebe5", "fusion_lon": 0.0, "bike_id": "4fe960843da4247c4026bf39e4d1ebe5", "is_disabled": 0, "is_reserved": 0}, {"rental_uris": {"ios": "https://dc.lft.to/lastmile_qr_scan", "android": "https://dc.lft.to/lastmile_qr_scan"}, "lon": -77.000545, "type": "electric_scooter", "fusion_lat": 0.0, "lat": 38.907328666666665, "name": "dd758eec1e9e8d016a8730db98fd6633", "fusion_lon": 0.0, "bike_id": "dd758eec1e9e8d016a8730db98fd6633", "is_disabled": 0, "is_reserved": 0}, {"rental_uris": {"ios": "https://dc.lft.to/lastmile_qr_scan", "android": "https://dc.lft.to/lastmile_qr_scan"}, "lon": -76.93719583333333, "type": "electric_scooter", "fusion_lat": 0.0, "lat": 38.895927, "name": "582566ab965efe38c848d47e706b721b", "fusion_lon": 0.0, "bike_id": "582566ab965efe38c848d47e706b721b", "is_disabled": 0, "is_reserved": 0}, {"rental_uris": {"ios": "https://dc.lft.to/lastmile_qr_scan", "android": "https://dc.lft.to/lastmile_qr_scan"}, "lon": -77.0411285, "type": "electric_scooter", "fusion_lat": 0.0, "lat": 38.92452766666667, "name": "66b65d77c8d6e04d9f32e2df5089a8c5", "fusion_lon": 0.0, "bike_id": "66b65d77c8d6e04d9f32e2df5089a8c5", "is_disabled": 0, "is_reserved": 0}, {"rental_uris": {"ios": "https://dc.lft.to/lastmile_qr_scan", "android": "https://dc.lft.to/lastmile_qr_scan"}, "lon": -77.0609135, "type": "electric_scooter", "fusion_lat": 0.0, "lat": 38.91272, "name": "f3bc555589c870a32408b67e8ac65e49", "fusion_lon": 0.0, "bike_id": "f3bc555589c870a32408b67e8ac65e49", "is_disabled": 0, "is_reserved": 0}, {"rental_uris": {"ios": "https://dc.lft.to/lastmile_qr_scan", "android": "https://dc.lft.to/lastmile_qr_scan"}, "lon": -76.97493083333333, "type": "electric_bike", "fusion_lat": 0.0, "lat": 38.92010916666667, "name": "282febf015c51b3c72db610a7082ff32", "fusion_lon": 0.0, "bike_id": "282febf015c51b3c72db610a7082ff32", "is_disabled": 0, "is_reserved": 0}, {"rental_uris": {"ios": "https://dc.lft.to/lastmile_qr_scan", "android": "https://dc.lft.to/lastmile_qr_scan"}, "lon": -77.025977, "type": "electric_scooter", "fusion_lat": 0.0, "lat": 38.89266383333333, "name": "f45c4ec35485ca1c2bee7a2b86a35e67", "fusion_lon": 0.0, "bike_id": "f45c4ec35485ca1c2bee7a2b86a35e67", "is_disabled": 0, "is_reserved": 0}, {"rental_uris": {"ios": "https://dc.lft.to/lastmile_qr_scan", "android": "https://dc.lft.to/lastmile_qr_scan"}, "lon": -77.04868166666667, "type": "electric_scooter", "fusion_lat": 0.0, "lat": 38.9085175, "name": "22b494e02bfd66ddf225cccbd45c08ff", "fusion_lon": 0.0, "bike_id": "22b494e02bfd66ddf225cccbd45c08ff", "is_disabled": 0, "is_reserved": 0}, {"rental_uris": {"ios": "https://dc.lft.to/lastmile_qr_scan", "android": "https://dc.lft.to/lastmile_qr_scan"}, "lon": -77.032235, "type": "electric_scooter", "fusion_lat": 0.0, "lat": 38.9267605, "name": "87af3a6eb1389f030c7dfae69ed77a1e", "fusion_lon": 0.0, "bike_id": "87af3a6eb1389f030c7dfae69ed77a1e", "is_disabled": 0, "is_reserved": 0}, {"rental_uris": {"ios": "https://dc.lft.to/lastmile_qr_scan", "android": "https://dc.lft.to/lastmile_qr_scan"}, "lon": -77.0248845, "type": "electric_scooter", "fusion_lat": 0.0, "lat": 38.91704983333333, "name": "1ebe694f5244c777565ad14b554adf13", "fusion_lon": 0.0, "bike_id": "1ebe694f5244c777565ad14b554adf13", "is_disabled": 0, "is_reserved": 0}, {"rental_uris": {"ios": "https://dc.lft.to/lastmile_qr_scan", "android": "https://dc.lft.to/lastmile_qr_scan"}, "lon": -77.0233915, "type": "electric_scooter", "fusion_lat": 0.0, "lat": 38.9252045, "name": "0a2af6b68587dbc495c23f795f35387b", "fusion_lon": 0.0, "bike_id": "0a2af6b68587dbc495c23f795f35387b", "is_disabled": 0, "is_reserved": 0}, {"rental_uris": {"ios": "https://dc.lft.to/lastmile_qr_scan", "android": "https://dc.lft.to/lastmile_qr_scan"}, "lon": -77.05812833333333, "type": "electric_scooter", "fusion_lat": 0.0, "lat": 38.9345405, "name": "05a3fda99df7ff5f86e003ef73f357a8", "fusion_lon": 0.0, "bike_id": "05a3fda99df7ff5f86e003ef73f357a8", "is_disabled": 0, "is_reserved": 0}, {"rental_uris": {"ios": "https://dc.lft.to/lastmile_qr_scan", "android": "https://dc.lft.to/lastmile_qr_scan"}, "lon": -77.01830166666667, "type": "electric_scooter", "fusion_lat": 0.0, "lat": 38.90959816666667, "name": "7e8fcbc48b2132cef5eab7aee88529f5", "fusion_lon": 0.0, "bike_id": "7e8fcbc48b2132cef5eab7aee88529f5", "is_disabled": 0, "is_reserved": 0}, {"rental_uris": {"ios": "https://dc.lft.to/lastmile_qr_scan", "android": "https://dc.lft.to/lastmile_qr_scan"}, "lon": -77.05604866666667, "type": "electric_bike", "fusion_lat": 0.0, "lat": 38.9242035, "name": "e335339b4455f9960ee470353e90c8e3", "fusion_lon": 0.0, "bike_id": "e335339b4455f9960ee470353e90c8e3", "is_disabled": 0, "is_reserved": 0}, {"rental_uris": {"ios": "https://dc.lft.to/lastmile_qr_scan", "android": "https://dc.lft.to/lastmile_qr_scan"}, "lon": -77.03508883333333, "type": "electric_scooter", "fusion_lat": 0.0, "lat": 38.93602766666667, "name": "22f35150584da1f3118d5925e1105571", "fusion_lon": 0.0, "bike_id": "22f35150584da1f3118d5925e1105571", "is_disabled": 0, "is_reserved": 0}, {"rental_uris": {"ios": "https://dc.lft.to/lastmile_qr_scan", "android": "https://dc.lft.to/lastmile_qr_scan"}, "lon": -76.97404066666667, "type": "electric_scooter", "fusion_lat": 0.0, "lat": 38.90159333333333, "name": "4a73220eb366d521a0db9ef1783015dc", "fusion_lon": 0.0, "bike_id": "4a73220eb366d521a0db9ef1783015dc", "is_disabled": 0, "is_reserved": 0}, {"rental_uris": {"ios": "https://dc.lft.to/lastmile_qr_scan", "android": "https://dc.lft.to/lastmile_qr_scan"}, "lon": -76.98890816666666, "type": "electric_scooter", "fusion_lat": 0.0, "lat": 38.86660916666666, "name": "09e876a84c3707d7a8f99a74ff746764", "fusion_lon": 0.0, "bike_id": "09e876a84c3707d7a8f99a74ff746764", "is_disabled": 0, "is_reserved": 0}, {"rental_uris": {"ios": "https://dc.lft.to/lastmile_qr_scan", "android": "https://dc.lft.to/lastmile_qr_scan"}, "lon": -76.98578766666667, "type": "electric_scooter", "fusion_lat": 0.0, "lat": 38.86162266666667, "name": "92c89a8375b1cf0e84d4cae24e5e030f", "fusion_lon": 0.0, "bike_id": "92c89a8375b1cf0e84d4cae24e5e030f", "is_disabled": 0, "is_reserved": 0}, {"rental_uris": {"ios": "https://dc.lft.to/lastmile_qr_scan", "android": "https://dc.lft.to/lastmile_qr_scan"}, "lon": -76.9755375, "type": "electric_scooter", "fusion_lat": 0.0, "lat": 38.90439, "name": "1256fdbf639d713a162c5cbbf906bb52", "fusion_lon": 0.0, "bike_id": "1256fdbf639d713a162c5cbbf906bb52", "is_disabled": 0, "is_reserved": 0}, {"rental_uris": {"ios": "https://dc.lft.to/lastmile_qr_scan", "android": "https://dc.lft.to/lastmile_qr_scan"}, "lon": -76.99771816666667, "type": "electric_bike", "fusion_lat": 0.0, "lat": 38.909317333333334, "name": "6ef706bdc87d5200790cf6962b9f8655", "fusion_lon": 0.0, "bike_id": "6ef706bdc87d5200790cf6962b9f8655", "is_disabled": 0, "is_reserved": 0}, {"rental_uris": {"ios": "https://dc.lft.to/lastmile_qr_scan", "android": "https://dc.lft.to/lastmile_qr_scan"}, "lon": -77.02311183333333, "type": "electric_scooter", "fusion_lat": 0.0, "lat": 38.879105833333334, "name": "5f704641e7f1c946b2f8ada6756e7932", "fusion_lon": 0.0, "bike_id": "5f704641e7f1c946b2f8ada6756e7932", "is_disabled": 0, "is_reserved": 0}, {"rental_uris": {"ios": "https://dc.lft.to/lastmile_qr_scan", "android": "https://dc.lft.to/lastmile_qr_scan"}, "lon": -77.044769, "type": "electric_scooter", "fusion_lat": 0.0, "lat": 38.896753333333336, "name": "60bff442ce86ccc7d4f297ce6c234c5e", "fusion_lon": 0.0, "bike_id": "60bff442ce86ccc7d4f297ce6c234c5e", "is_disabled": 0, "is_reserved": 0}, {"rental_uris": {"ios": "https://dc.lft.to/lastmile_qr_scan", "android": "https://dc.lft.to/lastmile_qr_scan"}, "lon": -77.0430955, "type": "electric_scooter", "fusion_lat": 0.0, "lat": 38.90555283333333, "name": "76f21f72ccf8420db6eeaf386044ca9f", "fusion_lon": 0.0, "bike_id": "76f21f72ccf8420db6eeaf386044ca9f", "is_disabled": 0, "is_reserved": 0}, {"rental_uris": {"ios": "https://dc.lft.to/lastmile_qr_scan", "android": "https://dc.lft.to/lastmile_qr_scan"}, "lon": -77.042271, "type": "electric_scooter", "fusion_lat": 0.0, "lat": 38.921353, "name": "d9ba9dd3ab4a1e9c8b3f30aaf5315330", "fusion_lon": 0.0, "bike_id": "d9ba9dd3ab4a1e9c8b3f30aaf5315330", "is_disabled": 0, "is_reserved": 0}, {"rental_uris": {"ios": "https://dc.lft.to/lastmile_qr_scan", "android": "https://dc.lft.to/lastmile_qr_scan"}, "lon": -77.00337483333334, "type": "electric_scooter", "fusion_lat": 0.0, "lat": 38.90815583333333, "name": "39ee52ce397b0457f4764ed1212bd09d", "fusion_lon": 0.0, "bike_id": "39ee52ce397b0457f4764ed1212bd09d", "is_disabled": 0, "is_reserved": 0}, {"rental_uris": {"ios": "https://dc.lft.to/lastmile_qr_scan", "android": "https://dc.lft.to/lastmile_qr_scan"}, "lon": -77.0110075, "type": "electric_scooter", "fusion_lat": 0.0, "lat": 38.89512333333333, "name": "cfee190a400fdf6a820fa9c0922e688e", "fusion_lon": 0.0, "bike_id": "cfee190a400fdf6a820fa9c0922e688e", "is_disabled": 0, "is_reserved": 0}, {"rental_uris": {"ios": "https://dc.lft.to/lastmile_qr_scan", "android": "https://dc.lft.to/lastmile_qr_scan"}, "lon": -77.00518283333334, "type": "electric_scooter", "fusion_lat": 0.0, "lat": 38.874709333333335, "name": "5fd548b31d596ad29e2e44488f6686b8", "fusion_lon": 0.0, "bike_id": "5fd548b31d596ad29e2e44488f6686b8", "is_disabled": 0, "is_reserved": 0}, {"rental_uris": {"ios": "https://dc.lft.to/lastmile_qr_scan", "android": "https://dc.lft.to/lastmile_qr_scan"}, "lon": -77.02784183333333, "type": "electric_scooter", "fusion_lat": 0.0, "lat": 38.91822366666667, "name": "33c7d83729fdb45281a0c19cec607069", "fusion_lon": 0.0, "bike_id": "33c7d83729fdb45281a0c19cec607069", "is_disabled": 0, "is_reserved": 0}, {"rental_uris": {"ios": "https://dc.lft.to/lastmile_qr_scan", "android": "https://dc.lft.to/lastmile_qr_scan"}, "lon": -76.97794483333334, "type": "electric_scooter", "fusion_lat": 0.0, "lat": 38.90317233333333, "name": "0ce6de51925ba417bbd533fb8c9d33ba", "fusion_lon": 0.0, "bike_id": "0ce6de51925ba417bbd533fb8c9d33ba", "is_disabled": 0, "is_reserved": 0}, {"rental_uris": {"ios": "https://dc.lft.to/lastmile_qr_scan", "android": "https://dc.lft.to/lastmile_qr_scan"}, "lon": -77.02359733333333, "type": "electric_scooter", "fusion_lat": 0.0, "lat": 38.92506566666667, "name": "ee93291aed7af74363de5a98e680263f", "fusion_lon": 0.0, "bike_id": "ee93291aed7af74363de5a98e680263f", "is_disabled": 0, "is_reserved": 0}, {"rental_uris": {"ios": "https://dc.lft.to/lastmile_qr_scan", "android": "https://dc.lft.to/lastmile_qr_scan"}, "lon": -76.94889166666667, "type": "electric_scooter", "fusion_lat": 0.0, "lat": 38.8952775, "name": "ccba152c3f51c629a5c4adc47a7c2f23", "fusion_lon": 0.0, "bike_id": "ccba152c3f51c629a5c4adc47a7c2f23", "is_disabled": 0, "is_reserved": 0}, {"rental_uris": {"ios": "https://dc.lft.to/lastmile_qr_scan", "android": "https://dc.lft.to/lastmile_qr_scan"}, "lon": -77.03680883333334, "type": "electric_scooter", "fusion_lat": 0.0, "lat": 38.9393535, "name": "f0f3aef2c1e657ba03456b0d64fe4d8b", "fusion_lon": 0.0, "bike_id": "f0f3aef2c1e657ba03456b0d64fe4d8b", "is_disabled": 0, "is_reserved": 0}, {"rental_uris": {"ios": "https://dc.lft.to/lastmile_qr_scan", "android": "https://dc.lft.to/lastmile_qr_scan"}, "lon": -76.90960883333334, "type": "electric_bike", "fusion_lat": 0.0, "lat": 38.854253666666665, "name": "e7934022d663fb37257f71a778e05315", "fusion_lon": 0.0, "bike_id": "e7934022d663fb37257f71a778e05315", "is_disabled": 0, "is_reserved": 0}, {"rental_uris": {"ios": "https://dc.lft.to/lastmile_qr_scan", "android": "https://dc.lft.to/lastmile_qr_scan"}, "lon": -77.01303083333333, "type": "electric_scooter", "fusion_lat": 0.0, "lat": 38.921242166666666, "name": "1b080985f906da06d1f759a31faae6b5", "fusion_lon": 0.0, "bike_id": "1b080985f906da06d1f759a31faae6b5", "is_disabled": 0, "is_reserved": 0}, {"rental_uris": {"ios": "https://dc.lft.to/lastmile_qr_scan", "android": "https://dc.lft.to/lastmile_qr_scan"}, "lon": -77.01967116666667, "type": "electric_scooter", "fusion_lat": 0.0, "lat": 38.913280666666665, "name": "86e8051799257083be7b65720ee33be8", "fusion_lon": 0.0, "bike_id": "86e8051799257083be7b65720ee33be8", "is_disabled": 0, "is_reserved": 0}, {"rental_uris": {"ios": "https://dc.lft.to/lastmile_qr_scan", "android": "https://dc.lft.to/lastmile_qr_scan"}, "lon": -77.0240385, "type": "electric_scooter", "fusion_lat": 0.0, "lat": 38.93492766666667, "name": "35ce314550e57cf25459e189dffdc82f", "fusion_lon": 0.0, "bike_id": "35ce314550e57cf25459e189dffdc82f", "is_disabled": 0, "is_reserved": 0}, {"rental_uris": {"ios": "https://dc.lft.to/lastmile_qr_scan", "android": "https://dc.lft.to/lastmile_qr_scan"}, "lon": -77.03503233333333, "type": "electric_scooter", "fusion_lat": 0.0, "lat": 38.9188155, "name": "01057a82d96c2a5a49a0be0736705ba0", "fusion_lon": 0.0, "bike_id": "01057a82d96c2a5a49a0be0736705ba0", "is_disabled": 0, "is_reserved": 0}, {"rental_uris": {"ios": "https://dc.lft.to/lastmile_qr_scan", "android": "https://dc.lft.to/lastmile_qr_scan"}, "lon": -77.0440255, "type": "electric_scooter", "fusion_lat": 0.0, "lat": 38.90068266666667, "name": "91e2537aec1f6831e544912f07674bb5", "fusion_lon": 0.0, "bike_id": "91e2537aec1f6831e544912f07674bb5", "is_disabled": 0, "is_reserved": 0}, {"rental_uris": {"ios": "https://dc.lft.to/lastmile_qr_scan", "android": "https://dc.lft.to/lastmile_qr_scan"}, "lon": -77.00104316666666, "type": "electric_scooter", "fusion_lat": 0.0, "lat": 38.89429783333333, "name": "0a9a54579b756894c105187dd2cfa2a3", "fusion_lon": 0.0, "bike_id": "0a9a54579b756894c105187dd2cfa2a3", "is_disabled": 0, "is_reserved": 0}, {"rental_uris": {"ios": "https://dc.lft.to/lastmile_qr_scan", "android": "https://dc.lft.to/lastmile_qr_scan"}, "lon": -77.005158, "type": "electric_bike", "fusion_lat": 0.0, "lat": 38.879901, "name": "cf860cd650e6b033ded999c13853f11b", "fusion_lon": 0.0, "bike_id": "cf860cd650e6b033ded999c13853f11b", "is_disabled": 0, "is_reserved": 0}, {"rental_uris": {"ios": "https://dc.lft.to/lastmile_qr_scan", "android": "https://dc.lft.to/lastmile_qr_scan"}, "lon": -77.0245475, "type": "electric_scooter", "fusion_lat": 0.0, "lat": 38.937380833333336, "name": "f1e8deb4f1aae8694ae35dd279a0c8e7", "fusion_lon": 0.0, "bike_id": "f1e8deb4f1aae8694ae35dd279a0c8e7", "is_disabled": 0, "is_reserved": 0}, {"rental_uris": {"ios": "https://dc.lft.to/lastmile_qr_scan", "android": "https://dc.lft.to/lastmile_qr_scan"}, "lon": -76.9818395, "type": "electric_scooter", "fusion_lat": 0.0, "lat": 38.89588366666667, "name": "326e20037d74f154652e64fd276a77cb", "fusion_lon": 0.0, "bike_id": "326e20037d74f154652e64fd276a77cb", "is_disabled": 0, "is_reserved": 0}, {"rental_uris": {"ios": "https://dc.lft.to/lastmile_qr_scan", "android": "https://dc.lft.to/lastmile_qr_scan"}, "lon": -77.008376, "type": "electric_scooter", "fusion_lat": 0.0, "lat": 38.876382, "name": "db4eddbb45f6f9e15dd9ee7b943559f0", "fusion_lon": 0.0, "bike_id": "db4eddbb45f6f9e15dd9ee7b943559f0", "is_disabled": 0, "is_reserved": 0}, {"rental_uris": {"ios": "https://dc.lft.to/lastmile_qr_scan", "android": "https://dc.lft.to/lastmile_qr_scan"}, "lon": -77.0730125, "type": "electric_scooter", "fusion_lat": 0.0, "lat": 38.9363205, "name": "698d549b58dd4bc3823d782d47cbbbee", "fusion_lon": 0.0, "bike_id": "698d549b58dd4bc3823d782d47cbbbee", "is_disabled": 0, "is_reserved": 0}, {"rental_uris": {"ios": "https://dc.lft.to/lastmile_qr_scan", "android": "https://dc.lft.to/lastmile_qr_scan"}, "lon": -77.0215195, "type": "electric_scooter", "fusion_lat": 0.0, "lat": 38.92607266666667, "name": "8729c2e3ed350a0f2bf0ca4b619ae2d9", "fusion_lon": 0.0, "bike_id": "8729c2e3ed350a0f2bf0ca4b619ae2d9", "is_disabled": 0, "is_reserved": 0}, {"rental_uris": {"ios": "https://dc.lft.to/lastmile_qr_scan", "android": "https://dc.lft.to/lastmile_qr_scan"}, "lon": -77.02738483333333, "type": "electric_scooter", "fusion_lat": 0.0, "lat": 38.88158883333333, "name": "3bf88019ef748010a765332e83937076", "fusion_lon": 0.0, "bike_id": "3bf88019ef748010a765332e83937076", "is_disabled": 0, "is_reserved": 0}, {"rental_uris": {"ios": "https://dc.lft.to/lastmile_qr_scan", "android": "https://dc.lft.to/lastmile_qr_scan"}, "lon": -77.03984816666667, "type": "electric_scooter", "fusion_lat": 0.0, "lat": 38.89928, "name": "99011aaa31b904e1276d95005287975e", "fusion_lon": 0.0, "bike_id": "99011aaa31b904e1276d95005287975e", "is_disabled": 0, "is_reserved": 0}, {"rental_uris": {"ios": "https://dc.lft.to/lastmile_qr_scan", "android": "https://dc.lft.to/lastmile_qr_scan"}, "lon": -76.87494066666666, "type": "electric_bike", "fusion_lat": 0.0, "lat": 38.9909175, "name": "39e28da40bfca97e9d8c9050223f79b0", "fusion_lon": 0.0, "bike_id": "39e28da40bfca97e9d8c9050223f79b0", "is_disabled": 0, "is_reserved": 0}, {"rental_uris": {"ios": "https://dc.lft.to/lastmile_qr_scan", "android": "https://dc.lft.to/lastmile_qr_scan"}, "lon": -77.05371033333333, "type": "electric_scooter", "fusion_lat": 0.0, "lat": 38.89077183333333, "name": "b0066ca61b5c1dd299db95ee555dd8b4", "fusion_lon": 0.0, "bike_id": "b0066ca61b5c1dd299db95ee555dd8b4", "is_disabled": 0, "is_reserved": 0}, {"rental_uris": {"ios": "https://dc.lft.to/lastmile_qr_scan", "android": "https://dc.lft.to/lastmile_qr_scan"}, "lon": -76.9917715, "type": "electric_scooter", "fusion_lat": 0.0, "lat": 38.90458983333333, "name": "de454b612724a8419258fbbbd37456ce", "fusion_lon": 0.0, "bike_id": "de454b612724a8419258fbbbd37456ce", "is_disabled": 0, "is_reserved": 0}, {"rental_uris": {"ios": "https://dc.lft.to/lastmile_qr_scan", "android": "https://dc.lft.to/lastmile_qr_scan"}, "lon": -77.11219516666667, "type": "electric_bike", "fusion_lat": 0.0, "lat": 38.828765833333335, "name": "60d565c8c3d3427e3573f9b0089bff2b", "fusion_lon": 0.0, "bike_id": "60d565c8c3d3427e3573f9b0089bff2b", "is_disabled": 0, "is_reserved": 0}, {"rental_uris": {"ios": "https://dc.lft.to/lastmile_qr_scan", "android": "https://dc.lft.to/lastmile_qr_scan"}, "lon": -77.03210633333333, "type": "electric_scooter", "fusion_lat": 0.0, "lat": 38.91111, "name": "1a138e2f4d686ba0f224a55c456cc40a", "fusion_lon": 0.0, "bike_id": "1a138e2f4d686ba0f224a55c456cc40a", "is_disabled": 0, "is_reserved": 0}, {"rental_uris": {"ios": "https://dc.lft.to/lastmile_qr_scan", "android": "https://dc.lft.to/lastmile_qr_scan"}, "lon": -77.02793966666667, "type": "electric_scooter", "fusion_lat": 0.0, "lat": 38.896564833333336, "name": "6753cfc37fa258e97a37667d1966a540", "fusion_lon": 0.0, "bike_id": "6753cfc37fa258e97a37667d1966a540", "is_disabled": 0, "is_reserved": 0}, {"rental_uris": {"ios": "https://dc.lft.to/lastmile_qr_scan", "android": "https://dc.lft.to/lastmile_qr_scan"}, "lon": -77.0366785, "type": "electric_scooter", "fusion_lat": 0.0, "lat": 38.92933766666667, "name": "2ad27ad951099c715e8bb5cba33a9c58", "fusion_lon": 0.0, "bike_id": "2ad27ad951099c715e8bb5cba33a9c58", "is_disabled": 0, "is_reserved": 0}, {"rental_uris": {"ios": "https://dc.lft.to/lastmile_qr_scan", "android": "https://dc.lft.to/lastmile_qr_scan"}, "lon": -77.0756385, "type": "electric_scooter", "fusion_lat": 0.0, "lat": 38.92092016666667, "name": "a82c02c8011a4f80af650bf70dbad4f5", "fusion_lon": 0.0, "bike_id": "a82c02c8011a4f80af650bf70dbad4f5", "is_disabled": 0, "is_reserved": 0}, {"rental_uris": {"ios": "https://dc.lft.to/lastmile_qr_scan", "android": "https://dc.lft.to/lastmile_qr_scan"}, "lon": -77.075557, "type": "electric_scooter", "fusion_lat": 0.0, "lat": 38.9143035, "name": "b51e07764f91b7080073d0b0bfdc51bb", "fusion_lon": 0.0, "bike_id": "b51e07764f91b7080073d0b0bfdc51bb", "is_disabled": 0, "is_reserved": 0}, {"rental_uris": {"ios": "https://dc.lft.to/lastmile_qr_scan", "android": "https://dc.lft.to/lastmile_qr_scan"}, "lon": -77.0176605, "type": "electric_scooter", "fusion_lat": 0.0, "lat": 38.8841275, "name": "953a20c803c5980eafa55a84dcd20cf5", "fusion_lon": 0.0, "bike_id": "953a20c803c5980eafa55a84dcd20cf5", "is_disabled": 0, "is_reserved": 0}, {"rental_uris": {"ios": "https://dc.lft.to/lastmile_qr_scan", "android": "https://dc.lft.to/lastmile_qr_scan"}, "lon": -77.0271025, "type": "electric_scooter", "fusion_lat": 0.0, "lat": 38.918184833333335, "name": "2f9e38af36bb7c14e9bf03c655275288", "fusion_lon": 0.0, "bike_id": "2f9e38af36bb7c14e9bf03c655275288", "is_disabled": 0, "is_reserved": 0}, {"rental_uris": {"ios": "https://dc.lft.to/lastmile_qr_scan", "android": "https://dc.lft.to/lastmile_qr_scan"}, "lon": -77.03876133333333, "type": "electric_scooter", "fusion_lat": 0.0, "lat": 38.93160683333333, "name": "9eb2a7decae02bfeb94ec6d5f397acab", "fusion_lon": 0.0, "bike_id": "9eb2a7decae02bfeb94ec6d5f397acab", "is_disabled": 0, "is_reserved": 0}, {"rental_uris": {"ios": "https://dc.lft.to/lastmile_qr_scan", "android": "https://dc.lft.to/lastmile_qr_scan"}, "lon": -77.07330183333333, "type": "electric_scooter", "fusion_lat": 0.0, "lat": 38.92495433333333, "name": "b939b77796d3fe935a6f4c677fdd4041", "fusion_lon": 0.0, "bike_id": "b939b77796d3fe935a6f4c677fdd4041", "is_disabled": 0, "is_reserved": 0}, {"rental_uris": {"ios": "https://dc.lft.to/lastmile_qr_scan", "android": "https://dc.lft.to/lastmile_qr_scan"}, "lon": -77.02228916666667, "type": "electric_scooter", "fusion_lat": 0.0, "lat": 38.8919835, "name": "89481fe8e39af00d43ea4e5cbaf3262b", "fusion_lon": 0.0, "bike_id": "89481fe8e39af00d43ea4e5cbaf3262b", "is_disabled": 0, "is_reserved": 0}, {"rental_uris": {"ios": "https://dc.lft.to/lastmile_qr_scan", "android": "https://dc.lft.to/lastmile_qr_scan"}, "lon": -77.02714733333333, "type": "electric_scooter", "fusion_lat": 0.0, "lat": 38.92485166666667, "name": "e86d73cbc1cff1410f6a506df1a9718b", "fusion_lon": 0.0, "bike_id": "e86d73cbc1cff1410f6a506df1a9718b", "is_disabled": 0, "is_reserved": 0}, {"rental_uris": {"ios": "https://dc.lft.to/lastmile_qr_scan", "android": "https://dc.lft.to/lastmile_qr_scan"}, "lon": -77.0433355, "type": "electric_scooter", "fusion_lat": 0.0, "lat": 38.89226683333333, "name": "10758f89a77e797deba55bdf669154b5", "fusion_lon": 0.0, "bike_id": "10758f89a77e797deba55bdf669154b5", "is_disabled": 0, "is_reserved": 0}, {"rental_uris": {"ios": "https://dc.lft.to/lastmile_qr_scan", "android": "https://dc.lft.to/lastmile_qr_scan"}, "lon": -77.04214183333333, "type": "electric_scooter", "fusion_lat": 0.0, "lat": 38.92095233333333, "name": "11030958fba4af22481c64c93a6c25be", "fusion_lon": 0.0, "bike_id": "11030958fba4af22481c64c93a6c25be", "is_disabled": 0, "is_reserved": 0}, {"rental_uris": {"ios": "https://dc.lft.to/lastmile_qr_scan", "android": "https://dc.lft.to/lastmile_qr_scan"}, "lon": -77.0280675, "type": "electric_scooter", "fusion_lat": 0.0, "lat": 38.904834, "name": "8278fc6e809b035c05b644d1e69d0352", "fusion_lon": 0.0, "bike_id": "8278fc6e809b035c05b644d1e69d0352", "is_disabled": 0, "is_reserved": 0}, {"rental_uris": {"ios": "https://dc.lft.to/lastmile_qr_scan", "android": "https://dc.lft.to/lastmile_qr_scan"}, "lon": -77.11269416666667, "type": "electric_bike", "fusion_lat": 0.0, "lat": 38.85643616666667, "name": "a9fe72584ffb5c61198f70b905c57212", "fusion_lon": 0.0, "bike_id": "a9fe72584ffb5c61198f70b905c57212", "is_disabled": 0, "is_reserved": 0}, {"rental_uris": {"ios": "https://dc.lft.to/lastmile_qr_scan", "android": "https://dc.lft.to/lastmile_qr_scan"}, "lon": -76.9949465, "type": "electric_scooter", "fusion_lat": 0.0, "lat": 38.8624505, "name": "c2c96c1e0248bdca621f1ac49fbd2279", "fusion_lon": 0.0, "bike_id": "c2c96c1e0248bdca621f1ac49fbd2279", "is_disabled": 0, "is_reserved": 0}, {"rental_uris": {"ios": "https://dc.lft.to/lastmile_qr_scan", "android": "https://dc.lft.to/lastmile_qr_scan"}, "lon": -77.039791, "type": "electric_scooter", "fusion_lat": 0.0, "lat": 38.899216333333335, "name": "1861b0598b9eda7995e869cfe5b108c9", "fusion_lon": 0.0, "bike_id": "1861b0598b9eda7995e869cfe5b108c9", "is_disabled": 0, "is_reserved": 0}, {"rental_uris": {"ios": "https://dc.lft.to/lastmile_qr_scan", "android": "https://dc.lft.to/lastmile_qr_scan"}, "lon": -77.03589816666667, "type": "electric_scooter", "fusion_lat": 0.0, "lat": 38.93745416666667, "name": "44962ab9bc0ea672d7cda5db6bd00b60", "fusion_lon": 0.0, "bike_id": "44962ab9bc0ea672d7cda5db6bd00b60", "is_disabled": 0, "is_reserved": 0}, {"rental_uris": {"ios": "https://dc.lft.to/lastmile_qr_scan", "android": "https://dc.lft.to/lastmile_qr_scan"}, "lon": -77.01351216666667, "type": "electric_scooter", "fusion_lat": 0.0, "lat": 38.9193015, "name": "9a87646023839a09c27e89b17de3b091", "fusion_lon": 0.0, "bike_id": "9a87646023839a09c27e89b17de3b091", "is_disabled": 0, "is_reserved": 0}, {"rental_uris": {"ios": "https://dc.lft.to/lastmile_qr_scan", "android": "https://dc.lft.to/lastmile_qr_scan"}, "lon": -76.93174916666666, "type": "electric_scooter", "fusion_lat": 0.0, "lat": 38.8988715, "name": "0c53acd5c00710ccaeaefb8c93ac302f", "fusion_lon": 0.0, "bike_id": "0c53acd5c00710ccaeaefb8c93ac302f", "is_disabled": 0, "is_reserved": 0}, {"rental_uris": {"ios": "https://dc.lft.to/lastmile_qr_scan", "android": "https://dc.lft.to/lastmile_qr_scan"}, "lon": -77.001975, "type": "electric_scooter", "fusion_lat": 0.0, "lat": 38.90039733333333, "name": "cc8a87ffdd350a4866d2138d7894a8a7", "fusion_lon": 0.0, "bike_id": "cc8a87ffdd350a4866d2138d7894a8a7", "is_disabled": 0, "is_reserved": 0}, {"rental_uris": {"ios": "https://dc.lft.to/lastmile_qr_scan", "android": "https://dc.lft.to/lastmile_qr_scan"}, "lon": -77.03537516666667, "type": "electric_scooter", "fusion_lat": 0.0, "lat": 38.92322716666666, "name": "063b8d7c01f92200e07d0cdb6796e0d7", "fusion_lon": 0.0, "bike_id": "063b8d7c01f92200e07d0cdb6796e0d7", "is_disabled": 0, "is_reserved": 0}, {"rental_uris": {"ios": "https://dc.lft.to/lastmile_qr_scan", "android": "https://dc.lft.to/lastmile_qr_scan"}, "lon": -77.04782983333334, "type": "electric_scooter", "fusion_lat": 0.0, "lat": 38.89776583333333, "name": "ebe6f5510c9af86f7cd32ceb9c61d457", "fusion_lon": 0.0, "bike_id": "ebe6f5510c9af86f7cd32ceb9c61d457", "is_disabled": 0, "is_reserved": 0}, {"rental_uris": {"ios": "https://dc.lft.to/lastmile_qr_scan", "android": "https://dc.lft.to/lastmile_qr_scan"}, "lon": -77.03507016666667, "type": "electric_scooter", "fusion_lat": 0.0, "lat": 38.921487166666665, "name": "fe1e0a8ed6e41e25105eb507721f7de6", "fusion_lon": 0.0, "bike_id": "fe1e0a8ed6e41e25105eb507721f7de6", "is_disabled": 0, "is_reserved": 0}, {"rental_uris": {"ios": "https://dc.lft.to/lastmile_qr_scan", "android": "https://dc.lft.to/lastmile_qr_scan"}, "lon": -76.9652515, "type": "electric_scooter", "fusion_lat": 0.0, "lat": 38.876302, "name": "17f1815dba634e93cd06c14d6ac467fd", "fusion_lon": 0.0, "bike_id": "17f1815dba634e93cd06c14d6ac467fd", "is_disabled": 0, "is_reserved": 0}, {"rental_uris": {"ios": "https://dc.lft.to/lastmile_qr_scan", "android": "https://dc.lft.to/lastmile_qr_scan"}, "lon": -77.059594, "type": "electric_scooter", "fusion_lat": 0.0, "lat": 38.911973, "name": "1649bbcdf50e2775e270dd67ca3363f5", "fusion_lon": 0.0, "bike_id": "1649bbcdf50e2775e270dd67ca3363f5", "is_disabled": 0, "is_reserved": 0}, {"rental_uris": {"ios": "https://dc.lft.to/lastmile_qr_scan", "android": "https://dc.lft.to/lastmile_qr_scan"}, "lon": -77.06604083333333, "type": "electric_scooter", "fusion_lat": 0.0, "lat": 38.90540433333334, "name": "2d05a446d3fee227207a50d1b74195cb", "fusion_lon": 0.0, "bike_id": "2d05a446d3fee227207a50d1b74195cb", "is_disabled": 0, "is_reserved": 0}, {"rental_uris": {"ios": "https://dc.lft.to/lastmile_qr_scan", "android": "https://dc.lft.to/lastmile_qr_scan"}, "lon": -77.0270735, "type": "electric_scooter", "fusion_lat": 0.0, "lat": 38.918315666666665, "name": "3e70037215fe91f2947897fb27d128db", "fusion_lon": 0.0, "bike_id": "3e70037215fe91f2947897fb27d128db", "is_disabled": 0, "is_reserved": 0}, {"rental_uris": {"ios": "https://dc.lft.to/lastmile_qr_scan", "android": "https://dc.lft.to/lastmile_qr_scan"}, "lon": -77.01966966666667, "type": "electric_scooter", "fusion_lat": 0.0, "lat": 38.897467, "name": "a7e39b50a758639dca54090c61207c9b", "fusion_lon": 0.0, "bike_id": "a7e39b50a758639dca54090c61207c9b", "is_disabled": 0, "is_reserved": 0}, {"rental_uris": {"ios": "https://dc.lft.to/lastmile_qr_scan", "android": "https://dc.lft.to/lastmile_qr_scan"}, "lon": -77.03773283333334, "type": "electric_scooter", "fusion_lat": 0.0, "lat": 38.91697933333333, "name": "8674f2e3af81ab72ce2fb31b9b269160", "fusion_lon": 0.0, "bike_id": "8674f2e3af81ab72ce2fb31b9b269160", "is_disabled": 0, "is_reserved": 0}, {"rental_uris": {"ios": "https://dc.lft.to/lastmile_qr_scan", "android": "https://dc.lft.to/lastmile_qr_scan"}, "lon": -77.01417633333334, "type": "electric_scooter", "fusion_lat": 0.0, "lat": 38.91564616666667, "name": "287c29237a52c4484487cb934123b965", "fusion_lon": 0.0, "bike_id": "287c29237a52c4484487cb934123b965", "is_disabled": 0, "is_reserved": 0}, {"rental_uris": {"ios": "https://dc.lft.to/lastmile_qr_scan", "android": "https://dc.lft.to/lastmile_qr_scan"}, "lon": -77.00918666666666, "type": "electric_scooter", "fusion_lat": 0.0, "lat": 38.91096916666667, "name": "5f658b3de2bb184d6dc57fda05efebf5", "fusion_lon": 0.0, "bike_id": "5f658b3de2bb184d6dc57fda05efebf5", "is_disabled": 0, "is_reserved": 0}, {"rental_uris": {"ios": "https://dc.lft.to/lastmile_qr_scan", "android": "https://dc.lft.to/lastmile_qr_scan"}, "lon": -77.02372083333333, "type": "electric_scooter", "fusion_lat": 0.0, "lat": 38.895162, "name": "503441493c8bfdd581070628ceb76a2e", "fusion_lon": 0.0, "bike_id": "503441493c8bfdd581070628ceb76a2e", "is_disabled": 0, "is_reserved": 0}, {"rental_uris": {"ios": "https://dc.lft.to/lastmile_qr_scan", "android": "https://dc.lft.to/lastmile_qr_scan"}, "lon": -76.93095433333333, "type": "electric_scooter", "fusion_lat": 0.0, "lat": 38.90145616666667, "name": "673f265f6fd285411735130d3fe2e542", "fusion_lon": 0.0, "bike_id": "673f265f6fd285411735130d3fe2e542", "is_disabled": 0, "is_reserved": 0}, {"rental_uris": {"ios": "https://dc.lft.to/lastmile_qr_scan", "android": "https://dc.lft.to/lastmile_qr_scan"}, "lon": -77.05350566666667, "type": "electric_scooter", "fusion_lat": 0.0, "lat": 38.90269416666667, "name": "20c7a7f95c6c8790fc22829c1198fc2c", "fusion_lon": 0.0, "bike_id": "20c7a7f95c6c8790fc22829c1198fc2c", "is_disabled": 0, "is_reserved": 0}, {"rental_uris": {"ios": "https://dc.lft.to/lastmile_qr_scan", "android": "https://dc.lft.to/lastmile_qr_scan"}, "lon": -77.05008816666667, "type": "electric_scooter", "fusion_lat": 0.0, "lat": 38.90182983333333, "name": "98aeae2ff7b0d6c7ca051e456f7d70e1", "fusion_lon": 0.0, "bike_id": "98aeae2ff7b0d6c7ca051e456f7d70e1", "is_disabled": 0, "is_reserved": 0}, {"rental_uris": {"ios": "https://dc.lft.to/lastmile_qr_scan", "android": "https://dc.lft.to/lastmile_qr_scan"}, "lon": -76.99806066666666, "type": "electric_bike", "fusion_lat": 0.0, "lat": 38.9085845, "name": "707178d7e85abd190b3f09119970a2db", "fusion_lon": 0.0, "bike_id": "707178d7e85abd190b3f09119970a2db", "is_disabled": 0, "is_reserved": 0}, {"rental_uris": {"ios": "https://dc.lft.to/lastmile_qr_scan", "android": "https://dc.lft.to/lastmile_qr_scan"}, "lon": -77.02710016666667, "type": "electric_scooter", "fusion_lat": 0.0, "lat": 38.91820233333333, "name": "85b3034d802043cf2498aaaf79234ef2", "fusion_lon": 0.0, "bike_id": "85b3034d802043cf2498aaaf79234ef2", "is_disabled": 0, "is_reserved": 0}, {"rental_uris": {"ios": "https://dc.lft.to/lastmile_qr_scan", "android": "https://dc.lft.to/lastmile_qr_scan"}, "lon": -77.01587766666667, "type": "electric_scooter", "fusion_lat": 0.0, "lat": 38.91643333333333, "name": "43aae3e85ebb2b02d002c222cf1d1e77", "fusion_lon": 0.0, "bike_id": "43aae3e85ebb2b02d002c222cf1d1e77", "is_disabled": 0, "is_reserved": 0}, {"rental_uris": {"ios": "https://dc.lft.to/lastmile_qr_scan", "android": "https://dc.lft.to/lastmile_qr_scan"}, "lon": -77.03370916666667, "type": "electric_scooter", "fusion_lat": 0.0, "lat": 38.917143, "name": "89557f20527be8bbc17915af66e666e6", "fusion_lon": 0.0, "bike_id": "89557f20527be8bbc17915af66e666e6", "is_disabled": 0, "is_reserved": 0}, {"rental_uris": {"ios": "https://dc.lft.to/lastmile_qr_scan", "android": "https://dc.lft.to/lastmile_qr_scan"}, "lon": -77.03897583333334, "type": "electric_scooter", "fusion_lat": 0.0, "lat": 38.92190933333333, "name": "d6cfaee4acb84a2399bf554a3d04b97c", "fusion_lon": 0.0, "bike_id": "d6cfaee4acb84a2399bf554a3d04b97c", "is_disabled": 0, "is_reserved": 0}, {"rental_uris": {"ios": "https://dc.lft.to/lastmile_qr_scan", "android": "https://dc.lft.to/lastmile_qr_scan"}, "lon": -77.02229566666666, "type": "electric_scooter", "fusion_lat": 0.0, "lat": 38.891948166666666, "name": "15e4912387c758ae4520713fb77650f4", "fusion_lon": 0.0, "bike_id": "15e4912387c758ae4520713fb77650f4", "is_disabled": 0, "is_reserved": 0}, {"rental_uris": {"ios": "https://dc.lft.to/lastmile_qr_scan", "android": "https://dc.lft.to/lastmile_qr_scan"}, "lon": -77.09671266666666, "type": "electric_scooter", "fusion_lat": 0.0, "lat": 38.91767433333333, "name": "f724a4cf5723af811b7361ceddda7b47", "fusion_lon": 0.0, "bike_id": "f724a4cf5723af811b7361ceddda7b47", "is_disabled": 0, "is_reserved": 0}, {"rental_uris": {"ios": "https://dc.lft.to/lastmile_qr_scan", "android": "https://dc.lft.to/lastmile_qr_scan"}, "lon": -77.03223816666667, "type": "electric_scooter", "fusion_lat": 0.0, "lat": 38.90880533333333, "name": "ed9ec1e25df04dab95996403f94c8a77", "fusion_lon": 0.0, "bike_id": "ed9ec1e25df04dab95996403f94c8a77", "is_disabled": 0, "is_reserved": 0}, {"rental_uris": {"ios": "https://dc.lft.to/lastmile_qr_scan", "android": "https://dc.lft.to/lastmile_qr_scan"}, "lon": -76.98882583333334, "type": "electric_scooter", "fusion_lat": 0.0, "lat": 38.866644666666666, "name": "d5a7210b6bd878510f2cc645474f008e", "fusion_lon": 0.0, "bike_id": "d5a7210b6bd878510f2cc645474f008e", "is_disabled": 0, "is_reserved": 0}, {"rental_uris": {"ios": "https://dc.lft.to/lastmile_qr_scan", "android": "https://dc.lft.to/lastmile_qr_scan"}, "lon": -77.04692533333333, "type": "electric_scooter", "fusion_lat": 0.0, "lat": 38.896113, "name": "323410bf9ae6391a8e35e30fdb095abc", "fusion_lon": 0.0, "bike_id": "323410bf9ae6391a8e35e30fdb095abc", "is_disabled": 0, "is_reserved": 0}, {"rental_uris": {"ios": "https://dc.lft.to/lastmile_qr_scan", "android": "https://dc.lft.to/lastmile_qr_scan"}, "lon": -77.031825, "type": "electric_scooter", "fusion_lat": 0.0, "lat": 38.918168, "name": "2a719026b075ae97910f84687ea5b670", "fusion_lon": 0.0, "bike_id": "2a719026b075ae97910f84687ea5b670", "is_disabled": 0, "is_reserved": 0}, {"rental_uris": {"ios": "https://dc.lft.to/lastmile_qr_scan", "android": "https://dc.lft.to/lastmile_qr_scan"}, "lon": -76.97704233333333, "type": "electric_scooter", "fusion_lat": 0.0, "lat": 38.902581833333336, "name": "611e9a2b23d0aa0184fc739590f7dfe0", "fusion_lon": 0.0, "bike_id": "611e9a2b23d0aa0184fc739590f7dfe0", "is_disabled": 0, "is_reserved": 0}, {"rental_uris": {"ios": "https://dc.lft.to/lastmile_qr_scan", "android": "https://dc.lft.to/lastmile_qr_scan"}, "lon": -77.01056333333334, "type": "electric_scooter", "fusion_lat": 0.0, "lat": 38.8758015, "name": "217d7750e71c7534616f3cc859e6e785", "fusion_lon": 0.0, "bike_id": "217d7750e71c7534616f3cc859e6e785", "is_disabled": 0, "is_reserved": 0}, {"rental_uris": {"ios": "https://dc.lft.to/lastmile_qr_scan", "android": "https://dc.lft.to/lastmile_qr_scan"}, "lon": -76.9374685, "type": "electric_scooter", "fusion_lat": 0.0, "lat": 38.912895666666664, "name": "4c4ef6f7c8fffddece51dacee7f3f7ed", "fusion_lon": 0.0, "bike_id": "4c4ef6f7c8fffddece51dacee7f3f7ed", "is_disabled": 0, "is_reserved": 0}, {"rental_uris": {"ios": "https://dc.lft.to/lastmile_qr_scan", "android": "https://dc.lft.to/lastmile_qr_scan"}, "lon": -77.02313816666667, "type": "electric_scooter", "fusion_lat": 0.0, "lat": 38.929982333333335, "name": "7c079d2d2b4484fb78496f447c92cb2e", "fusion_lon": 0.0, "bike_id": "7c079d2d2b4484fb78496f447c92cb2e", "is_disabled": 0, "is_reserved": 0}, {"rental_uris": {"ios": "https://dc.lft.to/lastmile_qr_scan", "android": "https://dc.lft.to/lastmile_qr_scan"}, "lon": -77.03288233333333, "type": "electric_scooter", "fusion_lat": 0.0, "lat": 38.92351883333333, "name": "c6bfaadf91c43b9da6dde26757519b94", "fusion_lon": 0.0, "bike_id": "c6bfaadf91c43b9da6dde26757519b94", "is_disabled": 0, "is_reserved": 0}, {"rental_uris": {"ios": "https://dc.lft.to/lastmile_qr_scan", "android": "https://dc.lft.to/lastmile_qr_scan"}, "lon": -77.03213733333334, "type": "electric_scooter", "fusion_lat": 0.0, "lat": 38.8873625, "name": "b61dcd6ba87fcf237bac5579d8de18ae", "fusion_lon": 0.0, "bike_id": "b61dcd6ba87fcf237bac5579d8de18ae", "is_disabled": 0, "is_reserved": 0}, {"rental_uris": {"ios": "https://dc.lft.to/lastmile_qr_scan", "android": "https://dc.lft.to/lastmile_qr_scan"}, "lon": -76.98838916666666, "type": "electric_scooter", "fusion_lat": 0.0, "lat": 38.9061955, "name": "226f4048e428f5759ebe8130f1fb71fd", "fusion_lon": 0.0, "bike_id": "226f4048e428f5759ebe8130f1fb71fd", "is_disabled": 0, "is_reserved": 0}, {"rental_uris": {"ios": "https://dc.lft.to/lastmile_qr_scan", "android": "https://dc.lft.to/lastmile_qr_scan"}, "lon": -77.029151, "type": "electric_scooter", "fusion_lat": 0.0, "lat": 38.89839466666667, "name": "a4e9fcdcb22cc68e2ffe00de71a780af", "fusion_lon": 0.0, "bike_id": "a4e9fcdcb22cc68e2ffe00de71a780af", "is_disabled": 0, "is_reserved": 0}, {"rental_uris": {"ios": "https://dc.lft.to/lastmile_qr_scan", "android": "https://dc.lft.to/lastmile_qr_scan"}, "lon": -76.94700016666667, "type": "electric_scooter", "fusion_lat": 0.0, "lat": 38.89736116666667, "name": "e11602a6fa6613c2c6b18b216b33d249", "fusion_lon": 0.0, "bike_id": "e11602a6fa6613c2c6b18b216b33d249", "is_disabled": 0, "is_reserved": 0}, {"rental_uris": {"ios": "https://dc.lft.to/lastmile_qr_scan", "android": "https://dc.lft.to/lastmile_qr_scan"}, "lon": -77.0755375, "type": "electric_bike", "fusion_lat": 0.0, "lat": 38.91046466666667, "name": "cdf0bc072314b92d8430b68ce6a00238", "fusion_lon": 0.0, "bike_id": "cdf0bc072314b92d8430b68ce6a00238", "is_disabled": 0, "is_reserved": 0}, {"rental_uris": {"ios": "https://dc.lft.to/lastmile_qr_scan", "android": "https://dc.lft.to/lastmile_qr_scan"}, "lon": -77.00579183333333, "type": "electric_scooter", "fusion_lat": 0.0, "lat": 38.87280883333333, "name": "b1a0aecc7a2abc241cd7c96ce28890a0", "fusion_lon": 0.0, "bike_id": "b1a0aecc7a2abc241cd7c96ce28890a0", "is_disabled": 0, "is_reserved": 0}, {"rental_uris": {"ios": "https://dc.lft.to/lastmile_qr_scan", "android": "https://dc.lft.to/lastmile_qr_scan"}, "lon": -77.04554666666667, "type": "electric_scooter", "fusion_lat": 0.0, "lat": 38.93409466666667, "name": "4152ece3689cc9ce80a758329f000c89", "fusion_lon": 0.0, "bike_id": "4152ece3689cc9ce80a758329f000c89", "is_disabled": 0, "is_reserved": 0}, {"rental_uris": {"ios": "https://dc.lft.to/lastmile_qr_scan", "android": "https://dc.lft.to/lastmile_qr_scan"}, "lon": -76.98839433333333, "type": "electric_bike", "fusion_lat": 0.0, "lat": 38.896114833333336, "name": "594da87a1111043143a28370373a3b64", "fusion_lon": 0.0, "bike_id": "594da87a1111043143a28370373a3b64", "is_disabled": 0, "is_reserved": 0}, {"rental_uris": {"ios": "https://dc.lft.to/lastmile_qr_scan", "android": "https://dc.lft.to/lastmile_qr_scan"}, "lon": -77.0366355, "type": "electric_scooter", "fusion_lat": 0.0, "lat": 38.922353, "name": "969be339f508fc521ac098ff41d256d9", "fusion_lon": 0.0, "bike_id": "969be339f508fc521ac098ff41d256d9", "is_disabled": 0, "is_reserved": 0}, {"rental_uris": {"ios": "https://dc.lft.to/lastmile_qr_scan", "android": "https://dc.lft.to/lastmile_qr_scan"}, "lon": -77.056239, "type": "electric_scooter", "fusion_lat": 0.0, "lat": 38.906103, "name": "c19ed41a3b57ff8d62cfe5ad8c95a0c3", "fusion_lon": 0.0, "bike_id": "c19ed41a3b57ff8d62cfe5ad8c95a0c3", "is_disabled": 0, "is_reserved": 0}, {"rental_uris": {"ios": "https://dc.lft.to/lastmile_qr_scan", "android": "https://dc.lft.to/lastmile_qr_scan"}, "lon": -77.036255, "type": "electric_scooter", "fusion_lat": 0.0, "lat": 38.956146833333335, "name": "e345d60f49bd15bd77c74c31f211fe68", "fusion_lon": 0.0, "bike_id": "e345d60f49bd15bd77c74c31f211fe68", "is_disabled": 0, "is_reserved": 0}, {"rental_uris": {"ios": "https://dc.lft.to/lastmile_qr_scan", "android": "https://dc.lft.to/lastmile_qr_scan"}, "lon": -77.04159866666667, "type": "electric_scooter", "fusion_lat": 0.0, "lat": 38.90026233333333, "name": "8f1cfe88679e0df771f543f70ffb4ecc", "fusion_lon": 0.0, "bike_id": "8f1cfe88679e0df771f543f70ffb4ecc", "is_disabled": 0, "is_reserved": 0}, {"rental_uris": {"ios": "https://dc.lft.to/lastmile_qr_scan", "android": "https://dc.lft.to/lastmile_qr_scan"}, "lon": -76.95746866666667, "type": "electric_scooter", "fusion_lat": 0.0, "lat": 38.8843265, "name": "ba75b4bd50b6efbd927450e8377fcd33", "fusion_lon": 0.0, "bike_id": "ba75b4bd50b6efbd927450e8377fcd33", "is_disabled": 0, "is_reserved": 0}, {"rental_uris": {"ios": "https://dc.lft.to/lastmile_qr_scan", "android": "https://dc.lft.to/lastmile_qr_scan"}, "lon": -77.03406133333333, "type": "electric_scooter", "fusion_lat": 0.0, "lat": 38.922672666666664, "name": "2dcc8165ecc7b3d656234931537c990b", "fusion_lon": 0.0, "bike_id": "2dcc8165ecc7b3d656234931537c990b", "is_disabled": 0, "is_reserved": 0}, {"rental_uris": {"ios": "https://dc.lft.to/lastmile_qr_scan", "android": "https://dc.lft.to/lastmile_qr_scan"}, "lon": -77.05211416666667, "type": "electric_scooter", "fusion_lat": 0.0, "lat": 38.92588683333334, "name": "6fba87b199eb57a66e9419158ee75ef4", "fusion_lon": 0.0, "bike_id": "6fba87b199eb57a66e9419158ee75ef4", "is_disabled": 0, "is_reserved": 0}, {"rental_uris": {"ios": "https://dc.lft.to/lastmile_qr_scan", "android": "https://dc.lft.to/lastmile_qr_scan"}, "lon": -77.12500766666666, "type": "electric_bike", "fusion_lat": 0.0, "lat": 39.02425183333333, "name": "5b6036d9fe9ed045e7b69fb79bc6214a", "fusion_lon": 0.0, "bike_id": "5b6036d9fe9ed045e7b69fb79bc6214a", "is_disabled": 0, "is_reserved": 0}, {"rental_uris": {"ios": "https://dc.lft.to/lastmile_qr_scan", "android": "https://dc.lft.to/lastmile_qr_scan"}, "lon": -77.05142016666667, "type": "electric_scooter", "fusion_lat": 0.0, "lat": 38.90236783333334, "name": "df4de3e3221081fcd14051f5682e7418", "fusion_lon": 0.0, "bike_id": "df4de3e3221081fcd14051f5682e7418", "is_disabled": 0, "is_reserved": 0}, {"rental_uris": {"ios": "https://dc.lft.to/lastmile_qr_scan", "android": "https://dc.lft.to/lastmile_qr_scan"}, "lon": -77.11199666666667, "type": "electric_bike", "fusion_lat": 0.0, "lat": 38.813061833333336, "name": "eefd6b9db948baa3f9925f5358126578", "fusion_lon": 0.0, "bike_id": "eefd6b9db948baa3f9925f5358126578", "is_disabled": 0, "is_reserved": 0}, {"rental_uris": {"ios": "https://dc.lft.to/lastmile_qr_scan", "android": "https://dc.lft.to/lastmile_qr_scan"}, "lon": -77.12260283333333, "type": "electric_bike", "fusion_lat": 0.0, "lat": 38.89191066666667, "name": "f9672154b1fa6ce2e120e40c2fb3735f", "fusion_lon": 0.0, "bike_id": "f9672154b1fa6ce2e120e40c2fb3735f", "is_disabled": 0, "is_reserved": 0}, {"rental_uris": {"ios": "https://dc.lft.to/lastmile_qr_scan", "android": "https://dc.lft.to/lastmile_qr_scan"}, "lon": -77.02412066666666, "type": "electric_scooter", "fusion_lat": 0.0, "lat": 38.892201, "name": "8cef5dc3c7e8cd9ac2b689965934da28", "fusion_lon": 0.0, "bike_id": "8cef5dc3c7e8cd9ac2b689965934da28", "is_disabled": 0, "is_reserved": 0}, {"rental_uris": {"ios": "https://dc.lft.to/lastmile_qr_scan", "android": "https://dc.lft.to/lastmile_qr_scan"}, "lon": -77.0417705, "type": "electric_scooter", "fusion_lat": 0.0, "lat": 38.911547166666665, "name": "d0b7109e041542eb38da1ed1c21abbc7", "fusion_lon": 0.0, "bike_id": "d0b7109e041542eb38da1ed1c21abbc7", "is_disabled": 0, "is_reserved": 0}, {"rental_uris": {"ios": "https://dc.lft.to/lastmile_qr_scan", "android": "https://dc.lft.to/lastmile_qr_scan"}, "lon": -76.935422, "type": "electric_bike", "fusion_lat": 0.0, "lat": 38.95551733333333, "name": "7bb2214109a716185515d7d29bd30538", "fusion_lon": 0.0, "bike_id": "7bb2214109a716185515d7d29bd30538", "is_disabled": 0, "is_reserved": 0}, {"rental_uris": {"ios": "https://dc.lft.to/lastmile_qr_scan", "android": "https://dc.lft.to/lastmile_qr_scan"}, "lon": -77.076845, "type": "electric_bike", "fusion_lat": 0.0, "lat": 38.831985833333334, "name": "64e0b5559899b69fcf792f4047f75e50", "fusion_lon": 0.0, "bike_id": "64e0b5559899b69fcf792f4047f75e50", "is_disabled": 0, "is_reserved": 0}, {"rental_uris": {"ios": "https://dc.lft.to/lastmile_qr_scan", "android": "https://dc.lft.to/lastmile_qr_scan"}, "lon": -77.031845, "type": "electric_scooter", "fusion_lat": 0.0, "lat": 38.918313, "name": "8f0d8243fa4ff207d93c5db3aaa671ec", "fusion_lon": 0.0, "bike_id": "8f0d8243fa4ff207d93c5db3aaa671ec", "is_disabled": 0, "is_reserved": 0}, {"rental_uris": {"ios": "https://dc.lft.to/lastmile_qr_scan", "android": "https://dc.lft.to/lastmile_qr_scan"}, "lon": -77.04378883333334, "type": "electric_scooter", "fusion_lat": 0.0, "lat": 38.9207235, "name": "f4b45be4cdeb9f05a9fdb2e586739504", "fusion_lon": 0.0, "bike_id": "f4b45be4cdeb9f05a9fdb2e586739504", "is_disabled": 0, "is_reserved": 0}, {"rental_uris": {"ios": "https://dc.lft.to/lastmile_qr_scan", "android": "https://dc.lft.to/lastmile_qr_scan"}, "lon": -77.03219383333334, "type": "electric_scooter", "fusion_lat": 0.0, "lat": 38.92589616666667, "name": "a67fd0728406ce259f7096e68a68c7fa", "fusion_lon": 0.0, "bike_id": "a67fd0728406ce259f7096e68a68c7fa", "is_disabled": 0, "is_reserved": 0}, {"rental_uris": {"ios": "https://dc.lft.to/lastmile_qr_scan", "android": "https://dc.lft.to/lastmile_qr_scan"}, "lon": -76.97808333333333, "type": "electric_scooter", "fusion_lat": 0.0, "lat": 38.9067705, "name": "7a8c5e13ed717ce8bf3086c976dad2cc", "fusion_lon": 0.0, "bike_id": "7a8c5e13ed717ce8bf3086c976dad2cc", "is_disabled": 0, "is_reserved": 0}, {"rental_uris": {"ios": "https://dc.lft.to/lastmile_qr_scan", "android": "https://dc.lft.to/lastmile_qr_scan"}, "lon": -77.04386866666667, "type": "electric_scooter", "fusion_lat": 0.0, "lat": 38.916621166666665, "name": "d8c2f7d7902c8cc58a30950cad328ceb", "fusion_lon": 0.0, "bike_id": "d8c2f7d7902c8cc58a30950cad328ceb", "is_disabled": 0, "is_reserved": 0}, {"rental_uris": {"ios": "https://dc.lft.to/lastmile_qr_scan", "android": "https://dc.lft.to/lastmile_qr_scan"}, "lon": -77.03725166666666, "type": "electric_scooter", "fusion_lat": 0.0, "lat": 38.93361566666667, "name": "49aa177a4a3b52d47baa585315e38958", "fusion_lon": 0.0, "bike_id": "49aa177a4a3b52d47baa585315e38958", "is_disabled": 0, "is_reserved": 0}, {"rental_uris": {"ios": "https://dc.lft.to/lastmile_qr_scan", "android": "https://dc.lft.to/lastmile_qr_scan"},