{"data": {"bikes": [{"is_disabled": 0, "fusion_lon": 0.0, "fusion_lat": 0.0, "lat": 38.93466866666667, "type": "electric_scooter", "lon": -77.068773, "bike_id": "4dbcff7825aff21e3b9e47b69ad3936d", "rental_uris": {"android": "https://dc.lft.to/lastmile_qr_scan", "ios": "https://dc.lft.to/lastmile_qr_scan"}, "name": "4dbcff7825aff21e3b9e47b69ad3936d", "is_reserved": 0}, {"is_disabled": 0, "fusion_lon": 0.0, "fusion_lat": 0.0, "lat": 38.9087865, "type": "electric_scooter", "lon": -77.04348016666667, "bike_id": "643dc49a67bfb494096acacde97937a9", "rental_uris": {"android": "https://dc.lft.to/lastmile_qr_scan", "ios": "https://dc.lft.to/lastmile_qr_scan"}, "name": "643dc49a67bfb494096acacde97937a9", "is_reserved": 0}, {"is_disabled": 0, "fusion_lon": 0.0, "fusion_lat": 0.0, "lat": 38.97262, "type": "electric_bike", "lon": -76.99167066666666, "bike_id": "bf00730e437b394b7aec5280f7f5d214", "rental_uris": {"android": "https://dc.lft.to/lastmile_qr_scan", "ios": "https://dc.lft.to/lastmile_qr_scan"}, "name": "bf00730e437b394b7aec5280f7f5d214", "is_reserved": 0}, {"is_disabled": 0, "fusion_lon": 0.0, "fusion_lat": 0.0, "lat": 38.91802766666667, "type": "electric_scooter", "lon": -77.03442066666666, "bike_id": "f6b443f392a82456957d7ba9f07bba78", "rental_uris": {"android": "https://dc.lft.to/lastmile_qr_scan", "ios": "https://dc.lft.to/lastmile_qr_scan"}, "name": "f6b443f392a82456957d7ba9f07bba78", "is_reserved": 0}, {"is_disabled": 0, "fusion_lon": 0.0, "fusion_lat": 0.0, "lat": 38.8972145, "type": "electric_scooter", "lon": -77.01005866666667, "bike_id": "94e3ff49131a6df5164991e7d2457add", "rental_uris": {"android": "https://dc.lft.to/lastmile_qr_scan", "ios": "https://dc.lft.to/lastmile_qr_scan"}, "name": "94e3ff49131a6df5164991e7d2457add", "is_reserved": 0}, {"is_disabled": 0, "fusion_lon": 0.0, "fusion_lat": 0.0, "lat": 38.93223866666666, "type": "electric_scooter", "lon": -76.99483466666666, "bike_id": "8c4130bc7a9adf11c99eefb8dfc03a4a", "rental_uris": {"android": "https://dc.lft.to/lastmile_qr_scan", "ios": "https://dc.lft.to/lastmile_qr_scan"}, "name": "8c4130bc7a9adf11c99eefb8dfc03a4a", "is_reserved": 0}, {"is_disabled": 0, "fusion_lon": 0.0, "fusion_lat": 0.0, "lat": 38.905623166666665, "type": "electric_scooter", "lon": -77.04565316666667, "bike_id": "421bf8eea8dbee9e5b5841622d40f274", "rental_uris": {"android": "https://dc.lft.to/lastmile_qr_scan", "ios": "https://dc.lft.to/lastmile_qr_scan"}, "name": "421bf8eea8dbee9e5b5841622d40f274", "is_reserved": 0}, {"is_disabled": 0, "fusion_lon": 0.0, "fusion_lat": 0.0, "lat": 38.83929233333333, "type": "electric_bike", "lon": -77.07902316666667, "bike_id": "54b77fa10ab16ae0fc1ff2e25b987e79", "rental_uris": {"android": "https://dc.lft.to/lastmile_qr_scan", "ios": "https://dc.lft.to/lastmile_qr_scan"}, "name": "54b77fa10ab16ae0fc1ff2e25b987e79", "is_reserved": 0}, {"is_disabled": 0, "fusion_lon": 0.0, "fusion_lat": 0.0, "lat": 38.81269133333333, "type": "electric_bike", "lon": -77.0617285, "bike_id": "63b993d691011c0edc3ef69eb58f0436", "rental_uris": {"android": "https://dc.lft.to/lastmile_qr_scan", "ios": "https://dc.lft.to/lastmile_qr_scan"}, "name": "63b993d691011c0edc3ef69eb58f0436", "is_reserved": 0}, {"is_disabled": 0, "fusion_lon": 0.0, "fusion_lat": 0.0, "lat": 38.917526333333335, "type": "electric_scooter", "lon": -77.028007, "bike_id": "8551d711cf4af8518c6a6b2c69af3df8", "rental_uris": {"android": "https://dc.lft.to/lastmile_qr_scan", "ios": "https://dc.lft.to/lastmile_qr_scan"}, "name": "8551d711cf4af8518c6a6b2c69af3df8", "is_reserved": 0}, {"is_disabled": 0, "fusion_lon": 0.0, "fusion_lat": 0.0, "lat": 38.878075333333335, "type": "electric_scooter", "lon": -77.01426433333333, "bike_id": "b61c82016875da2e9428aab11d952b65", "rental_uris": {"android": "https://dc.lft.to/lastmile_qr_scan", "ios": "https://dc.lft.to/lastmile_qr_scan"}, "name": "b61c82016875da2e9428aab11d952b65", "is_reserved": 0}, {"is_disabled": 0, "fusion_lon": 0.0, "fusion_lat": 0.0, "lat": 38.92957583333333, "type": "electric_scooter", "lon": -77.02348366666666, "bike_id": "77ed138abb98e61e5cf481149f39ed76", "rental_uris": {"android": "https://dc.lft.to/lastmile_qr_scan", "ios": "https://dc.lft.to/lastmile_qr_scan"}, "name": "77ed138abb98e61e5cf481149f39ed76", "is_reserved": 0}, {"is_disabled": 0, "fusion_lon": 0.0, "fusion_lat": 0.0, "lat": 38.91750416666667, "type": "electric_scooter", "lon": -77.041571, "bike_id": "435ea43c0ec021887d3b5bb4a60f0167", "rental_uris": {"android": "https://dc.lft.to/lastmile_qr_scan", "ios": "https://dc.lft.to/lastmile_qr_scan"}, "name": "435ea43c0ec021887d3b5bb4a60f0167", "is_reserved": 0}, {"is_disabled": 0, "fusion_lon": 0.0, "fusion_lat": 0.0, "lat": 38.91858783333333, "type": "electric_bike", "lon": -76.96089, "bike_id": "4464a540084074f4ab9863f976319647", "rental_uris": {"android": "https://dc.lft.to/lastmile_qr_scan", "ios": "https://dc.lft.to/lastmile_qr_scan"}, "name": "4464a540084074f4ab9863f976319647", "is_reserved": 0}, {"is_disabled": 0, "fusion_lon": 0.0, "fusion_lat": 0.0, "lat": 38.914774666666666, "type": "electric_scooter", "lon": -77.066335, "bike_id": "91e5f451e3e1f6e7f2538ef671cb5664", "rental_uris": {"android": "https://dc.lft.to/lastmile_qr_scan", "ios": "https://dc.lft.to/lastmile_qr_scan"}, "name": "91e5f451e3e1f6e7f2538ef671cb5664", "is_reserved": 0}, {"is_disabled": 0, "fusion_lon": 0.0, "fusion_lat": 0.0, "lat": 38.916975666666666, "type": "electric_scooter", "lon": -77.04301, "bike_id": "340ac9557fa5a841656638036f1eea2d", "rental_uris": {"android": "https://dc.lft.to/lastmile_qr_scan", "ios": "https://dc.lft.to/lastmile_qr_scan"}, "name": "340ac9557fa5a841656638036f1eea2d", "is_reserved": 0}, {"is_disabled": 0, "fusion_lon": 0.0, "fusion_lat": 0.0, "lat": 38.83934333333333, "type": "electric_bike", "lon": -77.0789785, "bike_id": "d2ffe1ea83256503c985f94668dd3e7c", "rental_uris": {"android": "https://dc.lft.to/lastmile_qr_scan", "ios": "https://dc.lft.to/lastmile_qr_scan"}, "name": "d2ffe1ea83256503c985f94668dd3e7c", "is_reserved": 0}, {"is_disabled": 0, "fusion_lon": 0.0, "fusion_lat": 0.0, "lat": 38.9056365, "type": "electric_scooter", "lon": -77.02468483333334, "bike_id": "4e5bc559cb35782937b643554846c9f8", "rental_uris": {"android": "https://dc.lft.to/lastmile_qr_scan", "ios": "https://dc.lft.to/lastmile_qr_scan"}, "name": "4e5bc559cb35782937b643554846c9f8", "is_reserved": 0}, {"is_disabled": 0, "fusion_lon": 0.0, "fusion_lat": 0.0, "lat": 38.92840366666667, "type": "electric_scooter", "lon": -77.0562165, "bike_id": "adc197f9460492c10fe20d8cbb32e749", "rental_uris": {"android": "https://dc.lft.to/lastmile_qr_scan", "ios": "https://dc.lft.to/lastmile_qr_scan"}, "name": "adc197f9460492c10fe20d8cbb32e749", "is_reserved": 0}, {"is_disabled": 0, "fusion_lon": 0.0, "fusion_lat": 0.0, "lat": 38.9119395, "type": "electric_scooter", "lon": -77.03857733333334, "bike_id": "db2b5209b29e7f8dafbb5b626c4e58a0", "rental_uris": {"android": "https://dc.lft.to/lastmile_qr_scan", "ios": "https://dc.lft.to/lastmile_qr_scan"}, "name": "db2b5209b29e7f8dafbb5b626c4e58a0", "is_reserved": 0}, {"is_disabled": 0, "fusion_lon": 0.0, "fusion_lat": 0.0, "lat": 38.914914833333334, "type": "electric_scooter", "lon": -76.98344483333334, "bike_id": "0aded21ffcae635b4868a1a3b95f25ef", "rental_uris": {"android": "https://dc.lft.to/lastmile_qr_scan", "ios": "https://dc.lft.to/lastmile_qr_scan"}, "name": "0aded21ffcae635b4868a1a3b95f25ef", "is_reserved": 0}, {"is_disabled": 0, "fusion_lon": 0.0, "fusion_lat": 0.0, "lat": 38.89565133333333, "type": "electric_scooter", "lon": -77.0229445, "bike_id": "54f4ec84e2f0bcf2566cb8c131764c69", "rental_uris": {"android": "https://dc.lft.to/lastmile_qr_scan", "ios": "https://dc.lft.to/lastmile_qr_scan"}, "name": "54f4ec84e2f0bcf2566cb8c131764c69", "is_reserved": 0}, {"is_disabled": 0, "fusion_lon": 0.0, "fusion_lat": 0.0, "lat": 38.92422583333333, "type": "electric_scooter", "lon": -77.04477066666666, "bike_id": "67932d3be10cb134a1773682875d2d67", "rental_uris": {"android": "https://dc.lft.to/lastmile_qr_scan", "ios": "https://dc.lft.to/lastmile_qr_scan"}, "name": "67932d3be10cb134a1773682875d2d67", "is_reserved": 0}, {"is_disabled": 0, "fusion_lon": 0.0, "fusion_lat": 0.0, "lat": 38.91923333333333, "type": "electric_scooter", "lon": -77.0251855, "bike_id": "2bb963729c0bbefa6eb75ea2af330d14", "rental_uris": {"android": "https://dc.lft.to/lastmile_qr_scan", "ios": "https://dc.lft.to/lastmile_qr_scan"}, "name": "2bb963729c0bbefa6eb75ea2af330d14", "is_reserved": 0}, {"is_disabled": 0, "fusion_lon": 0.0, "fusion_lat": 0.0, "lat": 38.93542133333333, "type": "electric_scooter", "lon": -77.05808566666667, "bike_id": "00f933fe17e0578aabc5528b4d4b8ed1", "rental_uris": {"android": "https://dc.lft.to/lastmile_qr_scan", "ios": "https://dc.lft.to/lastmile_qr_scan"}, "name": "00f933fe17e0578aabc5528b4d4b8ed1", "is_reserved": 0}, {"is_disabled": 0, "fusion_lon": 0.0, "fusion_lat": 0.0, "lat": 38.9449225, "type": "electric_bike", "lon": -76.98660966666667, "bike_id": "727f9d02fd0a70250ce2e9d99ddf7718", "rental_uris": {"android": "https://dc.lft.to/lastmile_qr_scan", "ios": "https://dc.lft.to/lastmile_qr_scan"}, "name": "727f9d02fd0a70250ce2e9d99ddf7718", "is_reserved": 0}, {"is_disabled": 0, "fusion_lon": 0.0, "fusion_lat": 0.0, "lat": 38.89471566666667, "type": "electric_scooter", "lon": -77.02268783333334, "bike_id": "1adad88bfa7c87f56e73300f363a8a98", "rental_uris": {"android": "https://dc.lft.to/lastmile_qr_scan", "ios": "https://dc.lft.to/lastmile_qr_scan"}, "name": "1adad88bfa7c87f56e73300f363a8a98", "is_reserved": 0}, {"is_disabled": 0, "fusion_lon": 0.0, "fusion_lat": 0.0, "lat": 38.931892833333336, "type": "electric_bike", "lon": -77.2293475, "bike_id": "4933c9a5ea77e6e4f926ad23093a990e", "rental_uris": {"android": "https://dc.lft.to/lastmile_qr_scan", "ios": "https://dc.lft.to/lastmile_qr_scan"}, "name": "4933c9a5ea77e6e4f926ad23093a990e", "is_reserved": 0}, {"is_disabled": 0, "fusion_lon": 0.0, "fusion_lat": 0.0, "lat": 38.920558666666665, "type": "electric_scooter", "lon": -76.99873916666667, "bike_id": "47ba2574c0543335fb91c84a63c329c5", "rental_uris": {"android": "https://dc.lft.to/lastmile_qr_scan", "ios": "https://dc.lft.to/lastmile_qr_scan"}, "name": "47ba2574c0543335fb91c84a63c329c5", "is_reserved": 0}, {"is_disabled": 0, "fusion_lon": 0.0, "fusion_lat": 0.0, "lat": 38.868572666666665, "type": "electric_bike", "lon": -76.91655183333333, "bike_id": "88c32edd251252ff4b6a17ba7913cf8e", "rental_uris": {"android": "https://dc.lft.to/lastmile_qr_scan", "ios": "https://dc.lft.to/lastmile_qr_scan"}, "name": "88c32edd251252ff4b6a17ba7913cf8e", "is_reserved": 0}, {"is_disabled": 0, "fusion_lon": 0.0, "fusion_lat": 0.0, "lat": 38.91758316666667, "type": "electric_scooter", "lon": -77.03599766666666, "bike_id": "6b1ebe5fa0ab3da88ad7a2f4c5bba393", "rental_uris": {"android": "https://dc.lft.to/lastmile_qr_scan", "ios": "https://dc.lft.to/lastmile_qr_scan"}, "name": "6b1ebe5fa0ab3da88ad7a2f4c5bba393", "is_reserved": 0}, {"is_disabled": 0, "fusion_lon": 0.0, "fusion_lat": 0.0, "lat": 38.95078783333334, "type": "electric_scooter", "lon": -77.028762, "bike_id": "2e2b58182df876ba80394159676c9cf5", "rental_uris": {"android": "https://dc.lft.to/lastmile_qr_scan", "ios": "https://dc.lft.to/lastmile_qr_scan"}, "name": "2e2b58182df876ba80394159676c9cf5", "is_reserved": 0}, {"is_disabled": 0, "fusion_lon": 0.0, "fusion_lat": 0.0, "lat": 38.99251833333334, "type": "electric_bike", "lon": -77.04994383333333, "bike_id": "d25f3b2418ab356c24ea0063cb49045d", "rental_uris": {"android": "https://dc.lft.to/lastmile_qr_scan", "ios": "https://dc.lft.to/lastmile_qr_scan"}, "name": "d25f3b2418ab356c24ea0063cb49045d", "is_reserved": 0}, {"is_disabled": 0, "fusion_lon": 0.0, "fusion_lat": 0.0, "lat": 38.92285583333334, "type": "electric_scooter", "lon": -77.0296485, "bike_id": "b326a97e1183848c1b764b093c79650c", "rental_uris": {"android": "https://dc.lft.to/lastmile_qr_scan", "ios": "https://dc.lft.to/lastmile_qr_scan"}, "name": "b326a97e1183848c1b764b093c79650c", "is_reserved": 0}, {"is_disabled": 0, "fusion_lon": 0.0, "fusion_lat": 0.0, "lat": 38.951765, "type": "electric_scooter", "lon": -77.03331433333334, "bike_id": "877af2a6a1cc6c0f218766d951e13645", "rental_uris": {"android": "https://dc.lft.to/lastmile_qr_scan", "ios": "https://dc.lft.to/lastmile_qr_scan"}, "name": "877af2a6a1cc6c0f218766d951e13645", "is_reserved": 0}, {"is_disabled": 0, "fusion_lon": 0.0, "fusion_lat": 0.0, "lat": 38.9407605, "type": "electric_scooter", "lon": -77.06144766666667, "bike_id": "df7a61b787049b1f652e046014bbfe00", "rental_uris": {"android": "https://dc.lft.to/lastmile_qr_scan", "ios": "https://dc.lft.to/lastmile_qr_scan"}, "name": "df7a61b787049b1f652e046014bbfe00", "is_reserved": 0}, {"is_disabled": 0, "fusion_lon": 0.0, "fusion_lat": 0.0, "lat": 38.901772, "type": "electric_scooter", "lon": -77.021797, "bike_id": "7707850de9d887e6ebf0feafd2b42f0d", "rental_uris": {"android": "https://dc.lft.to/lastmile_qr_scan", "ios": "https://dc.lft.to/lastmile_qr_scan"}, "name": "7707850de9d887e6ebf0feafd2b42f0d", "is_reserved": 0}, {"is_disabled": 0, "fusion_lon": 0.0, "fusion_lat": 0.0, "lat": 38.91820666666667, "type": "electric_scooter", "lon": -77.0366185, "bike_id": "4292c58197aceb246b95d87b5a0f5762", "rental_uris": {"android": "https://dc.lft.to/lastmile_qr_scan", "ios": "https://dc.lft.to/lastmile_qr_scan"}, "name": "4292c58197aceb246b95d87b5a0f5762", "is_reserved": 0}, {"is_disabled": 0, "fusion_lon": 0.0, "fusion_lat": 0.0, "lat": 38.901276, "type": "electric_scooter", "lon": -77.00316666666667, "bike_id": "8faa866454ce8fadec1bea6f396cf1e5", "rental_uris": {"android": "https://dc.lft.to/lastmile_qr_scan", "ios": "https://dc.lft.to/lastmile_qr_scan"}, "name": "8faa866454ce8fadec1bea6f396cf1e5", "is_reserved": 0}, {"is_disabled": 0, "fusion_lon": 0.0, "fusion_lat": 0.0, "lat": 38.889862666666666, "type": "electric_scooter", "lon": -77.003319, "bike_id": "b9f1b4a216e33af0f58bd71a06e2586c", "rental_uris": {"android": "https://dc.lft.to/lastmile_qr_scan", "ios": "https://dc.lft.to/lastmile_qr_scan"}, "name": "b9f1b4a216e33af0f58bd71a06e2586c", "is_reserved": 0}, {"is_disabled": 0, "fusion_lon": 0.0, "fusion_lat": 0.0, "lat": 38.88736466666667, "type": "electric_scooter", "lon": -77.015117, "bike_id": "e5ba9e6f5a6e74bb81ef41b61f8559a5", "rental_uris": {"android": "https://dc.lft.to/lastmile_qr_scan", "ios": "https://dc.lft.to/lastmile_qr_scan"}, "name": "e5ba9e6f5a6e74bb81ef41b61f8559a5", "is_reserved": 0}, {"is_disabled": 0, "fusion_lon": 0.0, "fusion_lat": 0.0, "lat": 38.88581, "type": "electric_scooter", "lon": -77.0122365, "bike_id": "902b5058f37fadae14092de62cf5c006", "rental_uris": {"android": "https://dc.lft.to/lastmile_qr_scan", "ios": "https://dc.lft.to/lastmile_qr_scan"}, "name": "902b5058f37fadae14092de62cf5c006", "is_reserved": 0}, {"is_disabled": 0, "fusion_lon": 0.0, "fusion_lat": 0.0, "lat": 38.86460566666667, "type": "electric_scooter", "lon": -76.99606666666666, "bike_id": "5d353326e6ac9b4591cda1900ec1c18b", "rental_uris": {"android": "https://dc.lft.to/lastmile_qr_scan", "ios": "https://dc.lft.to/lastmile_qr_scan"}, "name": "5d353326e6ac9b4591cda1900ec1c18b", "is_reserved": 0}, {"is_disabled": 0, "fusion_lon": 0.0, "fusion_lat": 0.0, "lat": 38.9371255, "type": "electric_scooter", "lon": -77.03651766666667, "bike_id": "bce48033de5d1beb65b4c39423f31799", "rental_uris": {"android": "https://dc.lft.to/lastmile_qr_scan", "ios": "https://dc.lft.to/lastmile_qr_scan"}, "name": "bce48033de5d1beb65b4c39423f31799", "is_reserved": 0}, {"is_disabled": 0, "fusion_lon": 0.0, "fusion_lat": 0.0, "lat": 39.09942566666667, "type": "electric_bike", "lon": -77.18786783333333, "bike_id": "782099f310f5904a73dcd7784abd287d", "rental_uris": {"android": "https://dc.lft.to/lastmile_qr_scan", "ios": "https://dc.lft.to/lastmile_qr_scan"}, "name": "782099f310f5904a73dcd7784abd287d", "is_reserved": 0}, {"is_disabled": 0, "fusion_lon": 0.0, "fusion_lat": 0.0, "lat": 38.908221, "type": "electric_scooter", "lon": -77.03341633333334, "bike_id": "ea6429a83e23cff6e766836609998a58", "rental_uris": {"android": "https://dc.lft.to/lastmile_qr_scan", "ios": "https://dc.lft.to/lastmile_qr_scan"}, "name": "ea6429a83e23cff6e766836609998a58", "is_reserved": 0}, {"is_disabled": 0, "fusion_lon": 0.0, "fusion_lat": 0.0, "lat": 38.886118833333335, "type": "electric_scooter", "lon": -76.99497216666667, "bike_id": "3048e3cf1c1b6063d23ebb65a83b9807", "rental_uris": {"android": "https://dc.lft.to/lastmile_qr_scan", "ios": "https://dc.lft.to/lastmile_qr_scan"}, "name": "3048e3cf1c1b6063d23ebb65a83b9807", "is_reserved": 0}, {"is_disabled": 0, "fusion_lon": 0.0, "fusion_lat": 0.0, "lat": 38.83808466666667, "type": "electric_scooter", "lon": -77.00432433333333, "bike_id": "a070160bc12e94e6907457f99dd984d5", "rental_uris": {"android": "https://dc.lft.to/lastmile_qr_scan", "ios": "https://dc.lft.to/lastmile_qr_scan"}, "name": "a070160bc12e94e6907457f99dd984d5", "is_reserved": 0}, {"is_disabled": 0, "fusion_lon": 0.0, "fusion_lat": 0.0, "lat": 38.8976545, "type": "electric_scooter", "lon": -77.028557, "bike_id": "6176b1c660736dbd782ffb24bbb13219", "rental_uris": {"android": "https://dc.lft.to/lastmile_qr_scan", "ios": "https://dc.lft.to/lastmile_qr_scan"}, "name": "6176b1c660736dbd782ffb24bbb13219", "is_reserved": 0}, {"is_disabled": 0, "fusion_lon": 0.0, "fusion_lat": 0.0, "lat": 38.935006666666666, "type": "electric_bike", "lon": -76.94957, "bike_id": "80f0c399a28f51ffc02c0d9202596578", "rental_uris": {"android": "https://dc.lft.to/lastmile_qr_scan", "ios": "https://dc.lft.to/lastmile_qr_scan"}, "name": "80f0c399a28f51ffc02c0d9202596578", "is_reserved": 0}, {"is_disabled": 0, "fusion_lon": 0.0, "fusion_lat": 0.0, "lat": 38.92161433333333, "type": "electric_scooter", "lon": -77.03378833333333, "bike_id": "9eed5c4462be9ee9c37af24def5eb513", "rental_uris": {"android": "https://dc.lft.to/lastmile_qr_scan", "ios": "https://dc.lft.to/lastmile_qr_scan"}, "name": "9eed5c4462be9ee9c37af24def5eb513", "is_reserved": 0}, {"is_disabled": 0, "fusion_lon": 0.0, "fusion_lat": 0.0, "lat": 38.842889666666665, "type": "electric_scooter", "lon": -76.99942683333333, "bike_id": "663ef52b993595a4ed8502d385900c52", "rental_uris": {"android": "https://dc.lft.to/lastmile_qr_scan", "ios": "https://dc.lft.to/lastmile_qr_scan"}, "name": "663ef52b993595a4ed8502d385900c52", "is_reserved": 0}, {"is_disabled": 0, "fusion_lon": 0.0, "fusion_lat": 0.0, "lat": 38.9025855, "type": "electric_scooter", "lon": -77.053576, "bike_id": "9e1fde63fda330ad712f87ec0345352b", "rental_uris": {"android": "https://dc.lft.to/lastmile_qr_scan", "ios": "https://dc.lft.to/lastmile_qr_scan"}, "name": "9e1fde63fda330ad712f87ec0345352b", "is_reserved": 0}, {"is_disabled": 0, "fusion_lon": 0.0, "fusion_lat": 0.0, "lat": 38.89704416666667, "type": "electric_scooter", "lon": -77.02285983333333, "bike_id": "58b74eaee82d1d51d19099c53186d85c", "rental_uris": {"android": "https://dc.lft.to/lastmile_qr_scan", "ios": "https://dc.lft.to/lastmile_qr_scan"}, "name": "58b74eaee82d1d51d19099c53186d85c", "is_reserved": 0}, {"is_disabled": 0, "fusion_lon": 0.0, "fusion_lat": 0.0, "lat": 38.92146816666666, "type": "electric_scooter", "lon": -77.0296165, "bike_id": "8d55557acf2a594606b2c659017b4e5b", "rental_uris": {"android": "https://dc.lft.to/lastmile_qr_scan", "ios": "https://dc.lft.to/lastmile_qr_scan"}, "name": "8d55557acf2a594606b2c659017b4e5b", "is_reserved": 0}, {"is_disabled": 0, "fusion_lon": 0.0, "fusion_lat": 0.0, "lat": 38.933342333333336, "type": "electric_scooter", "lon": -77.041327, "bike_id": "9ee37393ec48744e755171da8d8f8957", "rental_uris": {"android": "https://dc.lft.to/lastmile_qr_scan", "ios": "https://dc.lft.to/lastmile_qr_scan"}, "name": "9ee37393ec48744e755171da8d8f8957", "is_reserved": 0}, {"is_disabled": 0, "fusion_lon": 0.0, "fusion_lat": 0.0, "lat": 38.934135, "type": "electric_scooter", "lon": -77.024479, "bike_id": "e644592f4d622d1f1d51dad5330af0ac", "rental_uris": {"android": "https://dc.lft.to/lastmile_qr_scan", "ios": "https://dc.lft.to/lastmile_qr_scan"}, "name": "e644592f4d622d1f1d51dad5330af0ac", "is_reserved": 0}, {"is_disabled": 0, "fusion_lon": 0.0, "fusion_lat": 0.0, "lat": 38.86736616666666, "type": "electric_scooter", "lon": -76.979358, "bike_id": "6159df5905f5c3db86dc2bf8ccb93715", "rental_uris": {"android": "https://dc.lft.to/lastmile_qr_scan", "ios": "https://dc.lft.to/lastmile_qr_scan"}, "name": "6159df5905f5c3db86dc2bf8ccb93715", "is_reserved": 0}, {"is_disabled": 0, "fusion_lon": 0.0, "fusion_lat": 0.0, "lat": 38.88531833333333, "type": "electric_scooter", "lon": -76.92695266666666, "bike_id": "461629026d5b95d846590fc7ff0a8c2f", "rental_uris": {"android": "https://dc.lft.to/lastmile_qr_scan", "ios": "https://dc.lft.to/lastmile_qr_scan"}, "name": "461629026d5b95d846590fc7ff0a8c2f", "is_reserved": 0}, {"is_disabled": 0, "fusion_lon": 0.0, "fusion_lat": 0.0, "lat": 38.923141, "type": "electric_scooter", "lon": -77.04621566666667, "bike_id": "51e712f381e6d47fff50da10724f724d", "rental_uris": {"android": "https://dc.lft.to/lastmile_qr_scan", "ios": "https://dc.lft.to/lastmile_qr_scan"}, "name": "51e712f381e6d47fff50da10724f724d", "is_reserved": 0}, {"is_disabled": 0, "fusion_lon": 0.0, "fusion_lat": 0.0, "lat": 38.877901666666666, "type": "electric_scooter", "lon": -77.01354966666666, "bike_id": "4a1fdcb1d30a351f6022ec6d7ac1a634", "rental_uris": {"android": "https://dc.lft.to/lastmile_qr_scan", "ios": "https://dc.lft.to/lastmile_qr_scan"}, "name": "4a1fdcb1d30a351f6022ec6d7ac1a634", "is_reserved": 0}, {"is_disabled": 0, "fusion_lon": 0.0, "fusion_lat": 0.0, "lat": 38.924254166666664, "type": "electric_scooter", "lon": -77.035274, "bike_id": "3e9da2462a13e6f5f64e34985bb2d06e", "rental_uris": {"android": "https://dc.lft.to/lastmile_qr_scan", "ios": "https://dc.lft.to/lastmile_qr_scan"}, "name": "3e9da2462a13e6f5f64e34985bb2d06e", "is_reserved": 0}, {"is_disabled": 0, "fusion_lon": 0.0, "fusion_lat": 0.0, "lat": 38.88699966666667, "type": "electric_scooter", "lon": -76.9536085, "bike_id": "996a158c2780ca432e220098ca4049c4", "rental_uris": {"android": "https://dc.lft.to/lastmile_qr_scan", "ios": "https://dc.lft.to/lastmile_qr_scan"}, "name": "996a158c2780ca432e220098ca4049c4", "is_reserved": 0}, {"is_disabled": 0, "fusion_lon": 0.0, "fusion_lat": 0.0, "lat": 38.91729333333333, "type": "electric_scooter", "lon": -77.0228895, "bike_id": "11ab42d663f65dfbc6282400c7d031fb", "rental_uris": {"android": "https://dc.lft.to/lastmile_qr_scan", "ios": "https://dc.lft.to/lastmile_qr_scan"}, "name": "11ab42d663f65dfbc6282400c7d031fb", "is_reserved": 0}, {"is_disabled": 0, "fusion_lon": 0.0, "fusion_lat": 0.0, "lat": 38.918017, "type": "electric_scooter", "lon": -77.034435, "bike_id": "63cdfb54daf032d2ac96c80763bb1a7d", "rental_uris": {"android": "https://dc.lft.to/lastmile_qr_scan", "ios": "https://dc.lft.to/lastmile_qr_scan"}, "name": "63cdfb54daf032d2ac96c80763bb1a7d", "is_reserved": 0}, {"is_disabled": 0, "fusion_lon": 0.0, "fusion_lat": 0.0, "lat": 38.84289416666667, "type": "electric_scooter", "lon": -76.9994545, "bike_id": "2e74d88072a73eebe056ac52eb8656ae", "rental_uris": {"android": "https://dc.lft.to/lastmile_qr_scan", "ios": "https://dc.lft.to/lastmile_qr_scan"}, "name": "2e74d88072a73eebe056ac52eb8656ae", "is_reserved": 0}, {"is_disabled": 0, "fusion_lon": 0.0, "fusion_lat": 0.0, "lat": 38.90834816666667, "type": "electric_scooter", "lon": -76.99699333333334, "bike_id": "113562546f0f26b219075f1282684daa", "rental_uris": {"android": "https://dc.lft.to/lastmile_qr_scan", "ios": "https://dc.lft.to/lastmile_qr_scan"}, "name": "113562546f0f26b219075f1282684daa", "is_reserved": 0}, {"is_disabled": 0, "fusion_lon": 0.0, "fusion_lat": 0.0, "lat": 38.919898333333336, "type": "electric_bike", "lon": -76.97309833333334, "bike_id": "2a95e873deca56c6391f46e6e5956dd9", "rental_uris": {"android": "https://dc.lft.to/lastmile_qr_scan", "ios": "https://dc.lft.to/lastmile_qr_scan"}, "name": "2a95e873deca56c6391f46e6e5956dd9", "is_reserved": 0}, {"is_disabled": 0, "fusion_lon": 0.0, "fusion_lat": 0.0, "lat": 38.881631, "type": "electric_scooter", "lon": -77.01288366666667, "bike_id": "7f3d29f08d2ab488daf62de05a1983c8", "rental_uris": {"android": "https://dc.lft.to/lastmile_qr_scan", "ios": "https://dc.lft.to/lastmile_qr_scan"}, "name": "7f3d29f08d2ab488daf62de05a1983c8", "is_reserved": 0}, {"is_disabled": 0, "fusion_lon": 0.0, "fusion_lat": 0.0, "lat": 38.9102685, "type": "electric_scooter", "lon": -77.00759466666666, "bike_id": "25f8a969d3f8a8f12402d8535ab77602", "rental_uris": {"android": "https://dc.lft.to/lastmile_qr_scan", "ios": "https://dc.lft.to/lastmile_qr_scan"}, "name": "25f8a969d3f8a8f12402d8535ab77602", "is_reserved": 0}, {"is_disabled": 0, "fusion_lon": 0.0, "fusion_lat": 0.0, "lat": 38.89570783333333, "type": "electric_scooter", "lon": -77.02302233333333, "bike_id": "c75e253a04b54d3eb14effed015672af", "rental_uris": {"android": "https://dc.lft.to/lastmile_qr_scan", "ios": "https://dc.lft.to/lastmile_qr_scan"}, "name": "c75e253a04b54d3eb14effed015672af", "is_reserved": 0}, {"is_disabled": 0, "fusion_lon": 0.0, "fusion_lat": 0.0, "lat": 38.90286716666667, "type": "electric_scooter", "lon": -77.0334885, "bike_id": "6511df581645580b3edf30225939ce35", "rental_uris": {"android": "https://dc.lft.to/lastmile_qr_scan", "ios": "https://dc.lft.to/lastmile_qr_scan"}, "name": "6511df581645580b3edf30225939ce35", "is_reserved": 0}, {"is_disabled": 0, "fusion_lon": 0.0, "fusion_lat": 0.0, "lat": 38.899817666666664, "type": "electric_scooter", "lon": -77.02925283333333, "bike_id": "0d1e4c462058a97f3a9ecdb508b3b576", "rental_uris": {"android": "https://dc.lft.to/lastmile_qr_scan", "ios": "https://dc.lft.to/lastmile_qr_scan"}, "name": "0d1e4c462058a97f3a9ecdb508b3b576", "is_reserved": 0}, {"is_disabled": 0, "fusion_lon": 0.0, "fusion_lat": 0.0, "lat": 38.90267466666667, "type": "electric_scooter", "lon": -77.03430116666667, "bike_id": "d32cc891718da870e44a1b38e7f9638a", "rental_uris": {"android": "https://dc.lft.to/lastmile_qr_scan", "ios": "https://dc.lft.to/lastmile_qr_scan"}, "name": "d32cc891718da870e44a1b38e7f9638a", "is_reserved": 0}, {"is_disabled": 0, "fusion_lon": 0.0, "fusion_lat": 0.0, "lat": 38.91591833333333, "type": "electric_bike", "lon": -76.97148016666667, "bike_id": "8e3f22a351a298fd1c6bac4b5001be80", "rental_uris": {"android": "https://dc.lft.to/lastmile_qr_scan", "ios": "https://dc.lft.to/lastmile_qr_scan"}, "name": "8e3f22a351a298fd1c6bac4b5001be80", "is_reserved": 0}, {"is_disabled": 0, "fusion_lon": 0.0, "fusion_lat": 0.0, "lat": 38.899269833333335, "type": "electric_scooter", "lon": -77.02929033333334, "bike_id": "a09f842f04404a8dcc027369b8451fda", "rental_uris": {"android": "https://dc.lft.to/lastmile_qr_scan", "ios": "https://dc.lft.to/lastmile_qr_scan"}, "name": "a09f842f04404a8dcc027369b8451fda", "is_reserved": 0}, {"is_disabled": 0, "fusion_lon": 0.0, "fusion_lat": 0.0, "lat": 38.97537233333333, "type": "electric_bike", "lon": -76.99533816666667, "bike_id": "d3a46e3aaa4b0328f9dbba2551f1c0c5", "rental_uris": {"android": "https://dc.lft.to/lastmile_qr_scan", "ios": "https://dc.lft.to/lastmile_qr_scan"}, "name": "d3a46e3aaa4b0328f9dbba2551f1c0c5", "is_reserved": 0}, {"is_disabled": 0, "fusion_lon": 0.0, "fusion_lat": 0.0, "lat": 38.924604333333335, "type": "electric_scooter", "lon": -77.02964183333333, "bike_id": "19b05c6976a7e75a0281b4da74db9818", "rental_uris": {"android": "https://dc.lft.to/lastmile_qr_scan", "ios": "https://dc.lft.to/lastmile_qr_scan"}, "name": "19b05c6976a7e75a0281b4da74db9818", "is_reserved": 0}, {"is_disabled": 0, "fusion_lon": 0.0, "fusion_lat": 0.0, "lat": 38.935709833333334, "type": "electric_bike", "lon": -77.08206433333334, "bike_id": "2991f8c4fe5ce99b728cbea71f29b9ab", "rental_uris": {"android": "https://dc.lft.to/lastmile_qr_scan", "ios": "https://dc.lft.to/lastmile_qr_scan"}, "name": "2991f8c4fe5ce99b728cbea71f29b9ab", "is_reserved": 0}, {"is_disabled": 0, "fusion_lon": 0.0, "fusion_lat": 0.0, "lat": 38.91117416666667, "type": "electric_scooter", "lon": -77.0223555, "bike_id": "480252cd3592ea49b1f324a8135f5ce0", "rental_uris": {"android": "https://dc.lft.to/lastmile_qr_scan", "ios": "https://dc.lft.to/lastmile_qr_scan"}, "name": "480252cd3592ea49b1f324a8135f5ce0", "is_reserved": 0}, {"is_disabled": 0, "fusion_lon": 0.0, "fusion_lat": 0.0, "lat": 38.9232995, "type": "electric_scooter", "lon": -77.04311133333333, "bike_id": "c2a54811de81d1e7a434e72e878424b7", "rental_uris": {"android": "https://dc.lft.to/lastmile_qr_scan", "ios": "https://dc.lft.to/lastmile_qr_scan"}, "name": "c2a54811de81d1e7a434e72e878424b7", "is_reserved": 0}, {"is_disabled": 0, "fusion_lon": 0.0, "fusion_lat": 0.0, "lat": 38.908282666666665, "type": "electric_scooter", "lon": -76.99683, "bike_id": "660b6bed42d014da720338899c5fe7ed", "rental_uris": {"android": "https://dc.lft.to/lastmile_qr_scan", "ios": "https://dc.lft.to/lastmile_qr_scan"}, "name": "660b6bed42d014da720338899c5fe7ed", "is_reserved": 0}, {"is_disabled": 0, "fusion_lon": 0.0, "fusion_lat": 0.0, "lat": 38.91699333333333, "type": "electric_scooter", "lon": -77.0246, "bike_id": "d87d3ca79c6a7df187e87441d3cf53c4", "rental_uris": {"android": "https://dc.lft.to/lastmile_qr_scan", "ios": "https://dc.lft.to/lastmile_qr_scan"}, "name": "d87d3ca79c6a7df187e87441d3cf53c4", "is_reserved": 0}, {"is_disabled": 0, "fusion_lon": 0.0, "fusion_lat": 0.0, "lat": 38.8691215, "type": "electric_bike", "lon": -77.13177033333334, "bike_id": "ba20d6879758bba71c376830998edbea", "rental_uris": {"android": "https://dc.lft.to/lastmile_qr_scan", "ios": "https://dc.lft.to/lastmile_qr_scan"}, "name": "ba20d6879758bba71c376830998edbea", "is_reserved": 0}, {"is_disabled": 0, "fusion_lon": 0.0, "fusion_lat": 0.0, "lat": 38.93000766666667, "type": "electric_scooter", "lon": -77.02208083333333, "bike_id": "b1b45a5dd96e03aa2a44812d1effab84", "rental_uris": {"android": "https://dc.lft.to/lastmile_qr_scan", "ios": "https://dc.lft.to/lastmile_qr_scan"}, "name": "b1b45a5dd96e03aa2a44812d1effab84", "is_reserved": 0}, {"is_disabled": 0, "fusion_lon": 0.0, "fusion_lat": 0.0, "lat": 38.910331, "type": "electric_scooter", "lon": -77.0137395, "bike_id": "808878b4d2988625600aaa28e5d3c995", "rental_uris": {"android": "https://dc.lft.to/lastmile_qr_scan", "ios": "https://dc.lft.to/lastmile_qr_scan"}, "name": "808878b4d2988625600aaa28e5d3c995", "is_reserved": 0}, {"is_disabled": 0, "fusion_lon": 0.0, "fusion_lat": 0.0, "lat": 38.92251383333333, "type": "electric_scooter", "lon": -77.0314065, "bike_id": "8143e453d7cd1d4d344cc99b107bea3c", "rental_uris": {"android": "https://dc.lft.to/lastmile_qr_scan", "ios": "https://dc.lft.to/lastmile_qr_scan"}, "name": "8143e453d7cd1d4d344cc99b107bea3c", "is_reserved": 0}, {"is_disabled": 0, "fusion_lon": 0.0, "fusion_lat": 0.0, "lat": 38.903616666666665, "type": "electric_scooter", "lon": -77.00223083333333, "bike_id": "a6e73f89ef8295d9cc430f671967b7d8", "rental_uris": {"android": "https://dc.lft.to/lastmile_qr_scan", "ios": "https://dc.lft.to/lastmile_qr_scan"}, "name": "a6e73f89ef8295d9cc430f671967b7d8", "is_reserved": 0}, {"is_disabled": 0, "fusion_lon": 0.0, "fusion_lat": 0.0, "lat": 38.895003333333335, "type": "electric_scooter", "lon": -77.01111, "bike_id": "e92a3510e44a8a9462ec5f0b561ad0d4", "rental_uris": {"android": "https://dc.lft.to/lastmile_qr_scan", "ios": "https://dc.lft.to/lastmile_qr_scan"}, "name": "e92a3510e44a8a9462ec5f0b561ad0d4", "is_reserved": 0}, {"is_disabled": 0, "fusion_lon": 0.0, "fusion_lat": 0.0, "lat": 38.91914083333333, "type": "electric_scooter", "lon": -77.030326, "bike_id": "ca4c6fda29408052feee6b2095abd700", "rental_uris": {"android": "https://dc.lft.to/lastmile_qr_scan", "ios": "https://dc.lft.to/lastmile_qr_scan"}, "name": "ca4c6fda29408052feee6b2095abd700", "is_reserved": 0}, {"is_disabled": 0, "fusion_lon": 0.0, "fusion_lat": 0.0, "lat": 38.9092395, "type": "electric_scooter", "lon": -77.03200666666666, "bike_id": "429317e804bc161470f3c7c83cd2d144", "rental_uris": {"android": "https://dc.lft.to/lastmile_qr_scan", "ios": "https://dc.lft.to/lastmile_qr_scan"}, "name": "429317e804bc161470f3c7c83cd2d144", "is_reserved": 0}, {"is_disabled": 0, "fusion_lon": 0.0, "fusion_lat": 0.0, "lat": 38.949807666666665, "type": "electric_scooter", "lon": -77.027052, "bike_id": "8a8cdfc4d4a1a20b68c337f7015bf987", "rental_uris": {"android": "https://dc.lft.to/lastmile_qr_scan", "ios": "https://dc.lft.to/lastmile_qr_scan"}, "name": "8a8cdfc4d4a1a20b68c337f7015bf987", "is_reserved": 0}, {"is_disabled": 0, "fusion_lon": 0.0, "fusion_lat": 0.0, "lat": 38.8916795, "type": "electric_scooter", "lon": -77.01539083333333, "bike_id": "d7024a38f25e22985e97bbdb023df284", "rental_uris": {"android": "https://dc.lft.to/lastmile_qr_scan", "ios": "https://dc.lft.to/lastmile_qr_scan"}, "name": "d7024a38f25e22985e97bbdb023df284", "is_reserved": 0}, {"is_disabled": 0, "fusion_lon": 0.0, "fusion_lat": 0.0, "lat": 38.8922, "type": "electric_scooter", "lon": -77.02262766666666, "bike_id": "35bd9a51dfb1c236acc7c43124f03608", "rental_uris": {"android": "https://dc.lft.to/lastmile_qr_scan", "ios": "https://dc.lft.to/lastmile_qr_scan"}, "name": "35bd9a51dfb1c236acc7c43124f03608", "is_reserved": 0}, {"is_disabled": 0, "fusion_lon": 0.0, "fusion_lat": 0.0, "lat": 38.88745483333334, "type": "electric_scooter", "lon": -77.01539383333333, "bike_id": "c5e5f4481a043d10f698d4142a22747b", "rental_uris": {"android": "https://dc.lft.to/lastmile_qr_scan", "ios": "https://dc.lft.to/lastmile_qr_scan"}, "name": "c5e5f4481a043d10f698d4142a22747b", "is_reserved": 0}, {"is_disabled": 0, "fusion_lon": 0.0, "fusion_lat": 0.0, "lat": 38.929055166666664, "type": "electric_bike", "lon": -77.037515, "bike_id": "f7f20900be2f97a34bc70ef135567c0a", "rental_uris": {"android": "https://dc.lft.to/lastmile_qr_scan", "ios": "https://dc.lft.to/lastmile_qr_scan"}, "name": "f7f20900be2f97a34bc70ef135567c0a", "is_reserved": 0}, {"is_disabled": 0, "fusion_lon": 0.0, "fusion_lat": 0.0, "lat": 38.89662933333334, "type": "electric_scooter", "lon": -77.0118935, "bike_id": "c90b98d1ff02732a9055d222b097a9ab", "rental_uris": {"android": "https://dc.lft.to/lastmile_qr_scan", "ios": "https://dc.lft.to/lastmile_qr_scan"}, "name": "c90b98d1ff02732a9055d222b097a9ab", "is_reserved": 0}, {"is_disabled": 0, "fusion_lon": 0.0, "fusion_lat": 0.0, "lat": 38.916208166666664, "type": "electric_scooter", "lon": -77.04857933333334, "bike_id": "a958df09aea3c810ac026f917b36610c", "rental_uris": {"android": "https://dc.lft.to/lastmile_qr_scan", "ios": "https://dc.lft.to/lastmile_qr_scan"}, "name": "a958df09aea3c810ac026f917b36610c", "is_reserved": 0}, {"is_disabled": 0, "fusion_lon": 0.0, "fusion_lat": 0.0, "lat": 38.90873583333333, "type": "electric_scooter", "lon": -77.034671, "bike_id": "63e548d90f98b0e0f2b412b99d5a7ec0", "rental_uris": {"android": "https://dc.lft.to/lastmile_qr_scan", "ios": "https://dc.lft.to/lastmile_qr_scan"}, "name": "63e548d90f98b0e0f2b412b99d5a7ec0", "is_reserved": 0}, {"is_disabled": 0, "fusion_lon": 0.0, "fusion_lat": 0.0, "lat": 38.90554016666667, "type": "electric_scooter", "lon": -77.03630766666667, "bike_id": "c231ccd120c7fae09eadda866130c754", "rental_uris": {"android": "https://dc.lft.to/lastmile_qr_scan", "ios": "https://dc.lft.to/lastmile_qr_scan"}, "name": "c231ccd120c7fae09eadda866130c754", "is_reserved": 0}, {"is_disabled": 0, "fusion_lon": 0.0, "fusion_lat": 0.0, "lat": 38.937826666666666, "type": "electric_scooter", "lon": -77.01881533333334, "bike_id": "27b30867cd65cc87b426e3a584d872aa", "rental_uris": {"android": "https://dc.lft.to/lastmile_qr_scan", "ios": "https://dc.lft.to/lastmile_qr_scan"}, "name": "27b30867cd65cc87b426e3a584d872aa", "is_reserved": 0}, {"is_disabled": 0, "fusion_lon": 0.0, "fusion_lat": 0.0, "lat": 38.8923145, "type": "electric_scooter", "lon": -77.0258955, "bike_id": "24b7712407e081ea1fad24fad126460d", "rental_uris": {"android": "https://dc.lft.to/lastmile_qr_scan", "ios": "https://dc.lft.to/lastmile_qr_scan"}, "name": "24b7712407e081ea1fad24fad126460d", "is_reserved": 0}, {"is_disabled": 0, "fusion_lon": 0.0, "fusion_lat": 0.0, "lat": 38.9226195, "type": "electric_scooter", "lon": -77.04128433333334, "bike_id": "733ef8ba7f8b95d386406677688f3dce", "rental_uris": {"android": "https://dc.lft.to/lastmile_qr_scan", "ios": "https://dc.lft.to/lastmile_qr_scan"}, "name": "733ef8ba7f8b95d386406677688f3dce", "is_reserved": 0}, {"is_disabled": 0, "fusion_lon": 0.0, "fusion_lat": 0.0, "lat": 38.9156385, "type": "electric_scooter", "lon": -77.01169566666667, "bike_id": "adce461a12ddd7b52b26322eabbdb77a", "rental_uris": {"android": "https://dc.lft.to/lastmile_qr_scan", "ios": "https://dc.lft.to/lastmile_qr_scan"}, "name": "adce461a12ddd7b52b26322eabbdb77a", "is_reserved": 0}, {"is_disabled": 0, "fusion_lon": 0.0, "fusion_lat": 0.0, "lat": 38.922204, "type": "electric_scooter", "lon": -77.03296, "bike_id": "021a365eb1228d8d80186036254bff4f", "rental_uris": {"android": "https://dc.lft.to/lastmile_qr_scan", "ios": "https://dc.lft.to/lastmile_qr_scan"}, "name": "021a365eb1228d8d80186036254bff4f", "is_reserved": 0}, {"is_disabled": 0, "fusion_lon": 0.0, "fusion_lat": 0.0, "lat": 38.919931166666665, "type": "electric_scooter", "lon": -77.02537016666666, "bike_id": "5217d03b06b11eb105ee12374141f73f", "rental_uris": {"android": "https://dc.lft.to/lastmile_qr_scan", "ios": "https://dc.lft.to/lastmile_qr_scan"}, "name": "5217d03b06b11eb105ee12374141f73f", "is_reserved": 0}, {"is_disabled": 0, "fusion_lon": 0.0, "fusion_lat": 0.0, "lat": 38.92574416666667, "type": "electric_scooter", "lon": -76.99500366666666, "bike_id": "9e7eb6671a03101ed2eba4164322724c", "rental_uris": {"android": "https://dc.lft.to/lastmile_qr_scan", "ios": "https://dc.lft.to/lastmile_qr_scan"}, "name": "9e7eb6671a03101ed2eba4164322724c", "is_reserved": 0}, {"is_disabled": 0, "fusion_lon": 0.0, "fusion_lat": 0.0, "lat": 38.895672, "type": "electric_bike", "lon": -77.127402, "bike_id": "d219c25e8efd6af2b9b6acbc5850ab6e", "rental_uris": {"android": "https://dc.lft.to/lastmile_qr_scan", "ios": "https://dc.lft.to/lastmile_qr_scan"}, "name": "d219c25e8efd6af2b9b6acbc5850ab6e", "is_reserved": 0}, {"is_disabled": 0, "fusion_lon": 0.0, "fusion_lat": 0.0, "lat": 38.90625716666667, "type": "electric_scooter", "lon": -77.02412, "bike_id": "c69b3a45c9455ca4c46c0d5079906085", "rental_uris": {"android": "https://dc.lft.to/lastmile_qr_scan", "ios": "https://dc.lft.to/lastmile_qr_scan"}, "name": "c69b3a45c9455ca4c46c0d5079906085", "is_reserved": 0}, {"is_disabled": 0, "fusion_lon": 0.0, "fusion_lat": 0.0, "lat": 38.905936833333335, "type": "electric_scooter", "lon": -77.05147483333333, "bike_id": "3f6c38cc5d5ca723882a5f0cc696ac29", "rental_uris": {"android": "https://dc.lft.to/lastmile_qr_scan", "ios": "https://dc.lft.to/lastmile_qr_scan"}, "name": "3f6c38cc5d5ca723882a5f0cc696ac29", "is_reserved": 0}, {"is_disabled": 0, "fusion_lon": 0.0, "fusion_lat": 0.0, "lat": 38.90058916666667, "type": "electric_scooter", "lon": -77.00736766666667, "bike_id": "e4f562dc4fc0f656c95344655d60b8c1", "rental_uris": {"android": "https://dc.lft.to/lastmile_qr_scan", "ios": "https://dc.lft.to/lastmile_qr_scan"}, "name": "e4f562dc4fc0f656c95344655d60b8c1", "is_reserved": 0}, {"is_disabled": 0, "fusion_lon": 0.0, "fusion_lat": 0.0, "lat": 38.877732, "type": "electric_scooter", "lon": -77.01431233333334, "bike_id": "864e24fa261759532bceb24b83fdc171", "rental_uris": {"android": "https://dc.lft.to/lastmile_qr_scan", "ios": "https://dc.lft.to/lastmile_qr_scan"}, "name": "864e24fa261759532bceb24b83fdc171", "is_reserved": 0}, {"is_disabled": 0, "fusion_lon": 0.0, "fusion_lat": 0.0, "lat": 38.9118435, "type": "electric_scooter", "lon": -77.04182166666666, "bike_id": "75c4fbacfcf379bacedd95c88bff0074", "rental_uris": {"android": "https://dc.lft.to/lastmile_qr_scan", "ios": "https://dc.lft.to/lastmile_qr_scan"}, "name": "75c4fbacfcf379bacedd95c88bff0074", "is_reserved": 0}, {"is_disabled": 0, "fusion_lon": 0.0, "fusion_lat": 0.0, "lat": 38.937018, "type": "electric_scooter", "lon": -77.06098566666667, "bike_id": "b9d0ea63cb49ec5c9d702495e5c00256", "rental_uris": {"android": "https://dc.lft.to/lastmile_qr_scan", "ios": "https://dc.lft.to/lastmile_qr_scan"}, "name": "b9d0ea63cb49ec5c9d702495e5c00256", "is_reserved": 0}, {"is_disabled": 0, "fusion_lon": 0.0, "fusion_lat": 0.0, "lat": 38.98133333333333, "type": "electric_bike", "lon": -77.007704, "bike_id": "b0d951ce835413f90f25cffda616bd6e", "rental_uris": {"android": "https://dc.lft.to/lastmile_qr_scan", "ios": "https://dc.lft.to/lastmile_qr_scan"}, "name": "b0d951ce835413f90f25cffda616bd6e", "is_reserved": 0}, {"is_disabled": 0, "fusion_lon": 0.0, "fusion_lat": 0.0, "lat": 38.86354683333333, "type": "electric_scooter", "lon": -76.99064733333333, "bike_id": "d30550eff78a7c4a65cf2db7a3bb589c", "rental_uris": {"android": "https://dc.lft.to/lastmile_qr_scan", "ios": "https://dc.lft.to/lastmile_qr_scan"}, "name": "d30550eff78a7c4a65cf2db7a3bb589c", "is_reserved": 0}, {"is_disabled": 0, "fusion_lon": 0.0, "fusion_lat": 0.0, "lat": 38.904641166666664, "type": "electric_scooter", "lon": -77.0485355, "bike_id": "07f03809383b55f1812c5e17536143d3", "rental_uris": {"android": "https://dc.lft.to/lastmile_qr_scan", "ios": "https://dc.lft.to/lastmile_qr_scan"}, "name": "07f03809383b55f1812c5e17536143d3", "is_reserved": 0}, {"is_disabled": 0, "fusion_lon": 0.0, "fusion_lat": 0.0, "lat": 38.9111465, "type": "electric_scooter", "lon": -77.02237733333334, "bike_id": "7776a54d83d028f64a9208fab35a7179", "rental_uris": {"android": "https://dc.lft.to/lastmile_qr_scan", "ios": "https://dc.lft.to/lastmile_qr_scan"}, "name": "7776a54d83d028f64a9208fab35a7179", "is_reserved": 0}, {"is_disabled": 0, "fusion_lon": 0.0, "fusion_lat": 0.0, "lat": 38.91681166666667, "type": "electric_scooter", "lon": -77.03690233333333, "bike_id": "dfad0ab74334f0924d8a85e2140cb5fd", "rental_uris": {"android": "https://dc.lft.to/lastmile_qr_scan", "ios": "https://dc.lft.to/lastmile_qr_scan"}, "name": "dfad0ab74334f0924d8a85e2140cb5fd", "is_reserved": 0}, {"is_disabled": 0, "fusion_lon": 0.0, "fusion_lat": 0.0, "lat": 38.941968833333334, "type": "electric_scooter", "lon": -77.02574216666666, "bike_id": "abf20276a7abf3791419676983d0b24c", "rental_uris": {"android": "https://dc.lft.to/lastmile_qr_scan", "ios": "https://dc.lft.to/lastmile_qr_scan"}, "name": "abf20276a7abf3791419676983d0b24c", "is_reserved": 0}, {"is_disabled": 0, "fusion_lon": 0.0, "fusion_lat": 0.0, "lat": 38.94971983333333, "type": "electric_scooter", "lon": -77.06764266666667, "bike_id": "897f8069f97cacccb6f5bb346bf20b03", "rental_uris": {"android": "https://dc.lft.to/lastmile_qr_scan", "ios": "https://dc.lft.to/lastmile_qr_scan"}, "name": "897f8069f97cacccb6f5bb346bf20b03", "is_reserved": 0}, {"is_disabled": 0, "fusion_lon": 0.0, "fusion_lat": 0.0, "lat": 39.00001533333333, "type": "electric_bike", "lon": -76.91800666666667, "bike_id": "7146335d8e719f18614edd91badd965b", "rental_uris": {"android": "https://dc.lft.to/lastmile_qr_scan", "ios": "https://dc.lft.to/lastmile_qr_scan"}, "name": "7146335d8e719f18614edd91badd965b", "is_reserved": 0}, {"is_disabled": 0, "fusion_lon": 0.0, "fusion_lat": 0.0, "lat": 38.920050833333335, "type": "electric_scooter", "lon": -76.97319683333333, "bike_id": "3f314408e9621b986204387c500cc2a2", "rental_uris": {"android": "https://dc.lft.to/lastmile_qr_scan", "ios": "https://dc.lft.to/lastmile_qr_scan"}, "name": "3f314408e9621b986204387c500cc2a2", "is_reserved": 0}, {"is_disabled": 0, "fusion_lon": 0.0, "fusion_lat": 0.0, "lat": 38.93534233333333, "type": "electric_scooter", "lon": -77.02066883333333, "bike_id": "e79dfbb987867ff481cb121baa67b17a", "rental_uris": {"android": "https://dc.lft.to/lastmile_qr_scan", "ios": "https://dc.lft.to/lastmile_qr_scan"}, "name": "e79dfbb987867ff481cb121baa67b17a", "is_reserved": 0}, {"is_disabled": 0, "fusion_lon": 0.0, "fusion_lat": 0.0, "lat": 38.933267666666666, "type": "electric_scooter", "lon": -77.029303, "bike_id": "d72f33c5a37e3e831546dd7a25859a07", "rental_uris": {"android": "https://dc.lft.to/lastmile_qr_scan", "ios": "https://dc.lft.to/lastmile_qr_scan"}, "name": "d72f33c5a37e3e831546dd7a25859a07", "is_reserved": 0}, {"is_disabled": 0, "fusion_lon": 0.0, "fusion_lat": 0.0, "lat": 38.892224666666664, "type": "electric_scooter", "lon": -77.0171095, "bike_id": "27582912fddc11376d098f77680a82ee", "rental_uris": {"android": "https://dc.lft.to/lastmile_qr_scan", "ios": "https://dc.lft.to/lastmile_qr_scan"}, "name": "27582912fddc11376d098f77680a82ee", "is_reserved": 0}, {"is_disabled": 0, "fusion_lon": 0.0, "fusion_lat": 0.0, "lat": 38.90537483333333, "type": "electric_scooter", "lon": -77.04912333333333, "bike_id": "bef3199abbde69da920f54608b9ffcd7", "rental_uris": {"android": "https://dc.lft.to/lastmile_qr_scan", "ios": "https://dc.lft.to/lastmile_qr_scan"}, "name": "bef3199abbde69da920f54608b9ffcd7", "is_reserved": 0}, {"is_disabled": 0, "fusion_lon": 0.0, "fusion_lat": 0.0, "lat": 38.91728666666667, "type": "electric_scooter", "lon": -77.02386183333333, "bike_id": "7afd8ade8091f392d4338d686788ac39", "rental_uris": {"android": "https://dc.lft.to/lastmile_qr_scan", "ios": "https://dc.lft.to/lastmile_qr_scan"}, "name": "7afd8ade8091f392d4338d686788ac39", "is_reserved": 0}, {"is_disabled": 0, "fusion_lon": 0.0, "fusion_lat": 0.0, "lat": 38.953127, "type": "electric_scooter", "lon": -77.035965, "bike_id": "102de9a35e9e9a130de944bce535c402", "rental_uris": {"android": "https://dc.lft.to/lastmile_qr_scan", "ios": "https://dc.lft.to/lastmile_qr_scan"}, "name": "102de9a35e9e9a130de944bce535c402", "is_reserved": 0}, {"is_disabled": 0, "fusion_lon": 0.0, "fusion_lat": 0.0, "lat": 38.93496783333333, "type": "electric_bike", "lon": -77.07290933333333, "bike_id": "21c234b67d49da1636dc8f1e7f07808b", "rental_uris": {"android": "https://dc.lft.to/lastmile_qr_scan", "ios": "https://dc.lft.to/lastmile_qr_scan"}, "name": "21c234b67d49da1636dc8f1e7f07808b", "is_reserved": 0}, {"is_disabled": 0, "fusion_lon": 0.0, "fusion_lat": 0.0, "lat": 38.94983, "type": "electric_scooter", "lon": -77.02702983333333, "bike_id": "a773ca5f91fd2cc87ab547c359b6a9ae", "rental_uris": {"android": "https://dc.lft.to/lastmile_qr_scan", "ios": "https://dc.lft.to/lastmile_qr_scan"}, "name": "a773ca5f91fd2cc87ab547c359b6a9ae", "is_reserved": 0}, {"is_disabled": 0, "fusion_lon": 0.0, "fusion_lat": 0.0, "lat": 38.8979375, "type": "electric_scooter", "lon": -76.93058116666667, "bike_id": "16d69b827c826da1a95ce7bac60b7b71", "rental_uris": {"android": "https://dc.lft.to/lastmile_qr_scan", "ios": "https://dc.lft.to/lastmile_qr_scan"}, "name": "16d69b827c826da1a95ce7bac60b7b71", "is_reserved": 0}, {"is_disabled": 0, "fusion_lon": 0.0, "fusion_lat": 0.0, "lat": 38.831531, "type": "electric_bike", "lon": -76.9969085, "bike_id": "0b0087f4d7784c16d9bcfd1065480b6f", "rental_uris": {"android": "https://dc.lft.to/lastmile_qr_scan", "ios": "https://dc.lft.to/lastmile_qr_scan"}, "name": "0b0087f4d7784c16d9bcfd1065480b6f", "is_reserved": 0}, {"is_disabled": 0, "fusion_lon": 0.0, "fusion_lat": 0.0, "lat": 38.92415366666667, "type": "electric_scooter", "lon": -77.035529, "bike_id": "8103ac8c6f40a6631f5a9a67ad9873ee", "rental_uris": {"android": "https://dc.lft.to/lastmile_qr_scan", "ios": "https://dc.lft.to/lastmile_qr_scan"}, "name": "8103ac8c6f40a6631f5a9a67ad9873ee", "is_reserved": 0}, {"is_disabled": 0, "fusion_lon": 0.0, "fusion_lat": 0.0, "lat": 38.940762, "type": "electric_scooter", "lon": -77.02903583333334, "bike_id": "ac85355b0624f1b9a34ee3683bdbf7da", "rental_uris": {"android": "https://dc.lft.to/lastmile_qr_scan", "ios": "https://dc.lft.to/lastmile_qr_scan"}, "name": "ac85355b0624f1b9a34ee3683bdbf7da", "is_reserved": 0}, {"is_disabled": 0, "fusion_lon": 0.0, "fusion_lat": 0.0, "lat": 38.899313166666666, "type": "electric_scooter", "lon": -77.03890366666667, "bike_id": "01647097a99a61f8df007e56e85d198f", "rental_uris": {"android": "https://dc.lft.to/lastmile_qr_scan", "ios": "https://dc.lft.to/lastmile_qr_scan"}, "name": "01647097a99a61f8df007e56e85d198f", "is_reserved": 0}, {"is_disabled": 0, "fusion_lon": 0.0, "fusion_lat": 0.0, "lat": 38.914642666666666, "type": "electric_scooter", "lon": -76.98445916666667, "bike_id": "e1bfdd8d1d8142035f762e00761bec3a", "rental_uris": {"android": "https://dc.lft.to/lastmile_qr_scan", "ios": "https://dc.lft.to/lastmile_qr_scan"}, "name": "e1bfdd8d1d8142035f762e00761bec3a", "is_reserved": 0}, {"is_disabled": 0, "fusion_lon": 0.0, "fusion_lat": 0.0, "lat": 38.92568383333333, "type": "electric_scooter", "lon": -77.08064216666666, "bike_id": "fcf421f649e12c727ba28c8073e7bfbc", "rental_uris": {"android": "https://dc.lft.to/lastmile_qr_scan", "ios": "https://dc.lft.to/lastmile_qr_scan"}, "name": "fcf421f649e12c727ba28c8073e7bfbc", "is_reserved": 0}, {"is_disabled": 0, "fusion_lon": 0.0, "fusion_lat": 0.0, "lat": 38.92119666666667, "type": "electric_scooter", "lon": -77.017575, "bike_id": "59c80f68c5ca8842b826ab3f9317f44b", "rental_uris": {"android": "https://dc.lft.to/lastmile_qr_scan", "ios": "https://dc.lft.to/lastmile_qr_scan"}, "name": "59c80f68c5ca8842b826ab3f9317f44b", "is_reserved": 0}, {"is_disabled": 0, "fusion_lon": 0.0, "fusion_lat": 0.0, "lat": 38.87754966666667, "type": "electric_bike", "lon": -76.97996233333333, "bike_id": "a807da23cf98d7305754b381681c28d4", "rental_uris": {"android": "https://dc.lft.to/lastmile_qr_scan", "ios": "https://dc.lft.to/lastmile_qr_scan"}, "name": "a807da23cf98d7305754b381681c28d4", "is_reserved": 0}, {"is_disabled": 0, "fusion_lon": 0.0, "fusion_lat": 0.0, "lat": 38.89532533333333, "type": "electric_scooter", "lon": -77.04841533333334, "bike_id": "41eb3f32a5daaa4fb5196e7cf2de24ea", "rental_uris": {"android": "https://dc.lft.to/lastmile_qr_scan", "ios": "https://dc.lft.to/lastmile_qr_scan"}, "name": "41eb3f32a5daaa4fb5196e7cf2de24ea", "is_reserved": 0}, {"is_disabled": 0, "fusion_lon": 0.0, "fusion_lat": 0.0, "lat": 38.93961083333333, "type": "electric_bike", "lon": -77.360886, "bike_id": "12ef09240ad869deb1981e3114ba12c7", "rental_uris": {"android": "https://dc.lft.to/lastmile_qr_scan", "ios": "https://dc.lft.to/lastmile_qr_scan"}, "name": "12ef09240ad869deb1981e3114ba12c7", "is_reserved": 0}, {"is_disabled": 0, "fusion_lon": 0.0, "fusion_lat": 0.0, "lat": 38.90575466666667, "type": "electric_scooter", "lon": -77.05591183333334, "bike_id": "7907fe8bb41c9994e68c4f92643d5db2", "rental_uris": {"android": "https://dc.lft.to/lastmile_qr_scan", "ios": "https://dc.lft.to/lastmile_qr_scan"}, "name": "7907fe8bb41c9994e68c4f92643d5db2", "is_reserved": 0}, {"is_disabled": 0, "fusion_lon": 0.0, "fusion_lat": 0.0, "lat": 38.92974433333333, "type": "electric_scooter", "lon": -77.0279685, "bike_id": "29a682f6939fc8a5a659124f2d0b1b0a", "rental_uris": {"android": "https://dc.lft.to/lastmile_qr_scan", "ios": "https://dc.lft.to/lastmile_qr_scan"}, "name": "29a682f6939fc8a5a659124f2d0b1b0a", "is_reserved": 0}, {"is_disabled": 0, "fusion_lon": 0.0, "fusion_lat": 0.0, "lat": 38.82867866666667, "type": "electric_bike", "lon": -77.11223683333333, "bike_id": "4c824aa9ccbd750b91d30cd889007ad4", "rental_uris": {"android": "https://dc.lft.to/lastmile_qr_scan", "ios": "https://dc.lft.to/lastmile_qr_scan"}, "name": "4c824aa9ccbd750b91d30cd889007ad4", "is_reserved": 0}, {"is_disabled": 0, "fusion_lon": 0.0, "fusion_lat": 0.0, "lat": 38.91616333333333, "type": "electric_scooter", "lon": -77.0433805, "bike_id": "df9e832ce4705762ffbc3dcc704fa8d7", "rental_uris": {"android": "https://dc.lft.to/lastmile_qr_scan", "ios": "https://dc.lft.to/lastmile_qr_scan"}, "name": "df9e832ce4705762ffbc3dcc704fa8d7", "is_reserved": 0}, {"is_disabled": 0, "fusion_lon": 0.0, "fusion_lat": 0.0, "lat": 38.91702083333333, "type": "electric_scooter", "lon": -77.02840433333333, "bike_id": "d88f6e90da0c59e8b4013211524f07ad", "rental_uris": {"android": "https://dc.lft.to/lastmile_qr_scan", "ios": "https://dc.lft.to/lastmile_qr_scan"}, "name": "d88f6e90da0c59e8b4013211524f07ad", "is_reserved": 0}, {"is_disabled": 0, "fusion_lon": 0.0, "fusion_lat": 0.0, "lat": 38.915493166666664, "type": "electric_scooter", "lon": -77.04623716666667, "bike_id": "d02633138b4a07414b49f27e6d1d27b6", "rental_uris": {"android": "https://dc.lft.to/lastmile_qr_scan", "ios": "https://dc.lft.to/lastmile_qr_scan"}, "name": "d02633138b4a07414b49f27e6d1d27b6", "is_reserved": 0}, {"is_disabled": 0, "fusion_lon": 0.0, "fusion_lat": 0.0, "lat": 38.902581833333336, "type": "electric_scooter", "lon": -77.06102916666667, "bike_id": "13935fdafdfaefba5298b6663bb036f4", "rental_uris": {"android": "https://dc.lft.to/lastmile_qr_scan", "ios": "https://dc.lft.to/lastmile_qr_scan"}, "name": "13935fdafdfaefba5298b6663bb036f4", "is_reserved": 0}, {"is_disabled": 0, "fusion_lon": 0.0, "fusion_lat": 0.0, "lat": 38.93206166666667, "type": "electric_scooter", "lon": -77.0238345, "bike_id": "9ae21813435282592668e6e2c20ff74e", "rental_uris": {"android": "https://dc.lft.to/lastmile_qr_scan", "ios": "https://dc.lft.to/lastmile_qr_scan"}, "name": "9ae21813435282592668e6e2c20ff74e", "is_reserved": 0}, {"is_disabled": 0, "fusion_lon": 0.0, "fusion_lat": 0.0, "lat": 38.915667666666664, "type": "electric_scooter", "lon": -77.032391, "bike_id": "c6c1029e7fce780c4e5fe7181da2fedd", "rental_uris": {"android": "https://dc.lft.to/lastmile_qr_scan", "ios": "https://dc.lft.to/lastmile_qr_scan"}, "name": "c6c1029e7fce780c4e5fe7181da2fedd", "is_reserved": 0}, {"is_disabled": 0, "fusion_lon": 0.0, "fusion_lat": 0.0, "lat": 39.00015233333333, "type": "electric_bike", "lon": -76.87279983333333, "bike_id": "de6d42813779bc3fd75849ee1348bf27", "rental_uris": {"android": "https://dc.lft.to/lastmile_qr_scan", "ios": "https://dc.lft.to/lastmile_qr_scan"}, "name": "de6d42813779bc3fd75849ee1348bf27", "is_reserved": 0}, {"is_disabled": 0, "fusion_lon": 0.0, "fusion_lat": 0.0, "lat": 38.9228575, "type": "electric_scooter", "lon": -77.040314, "bike_id": "cd17da9430c122d535609227b6f03ffc", "rental_uris": {"android": "https://dc.lft.to/lastmile_qr_scan", "ios": "https://dc.lft.to/lastmile_qr_scan"}, "name": "cd17da9430c122d535609227b6f03ffc", "is_reserved": 0}, {"is_disabled": 0, "fusion_lon": 0.0, "fusion_lat": 0.0, "lat": 38.904673, "type": "electric_scooter", "lon": -77.048595, "bike_id": "389ec5153ae1d6b0f60da87f2cf881d3", "rental_uris": {"android": "https://dc.lft.to/lastmile_qr_scan", "ios": "https://dc.lft.to/lastmile_qr_scan"}, "name": "389ec5153ae1d6b0f60da87f2cf881d3", "is_reserved": 0}, {"is_disabled": 0, "fusion_lon": 0.0, "fusion_lat": 0.0, "lat": 38.876750666666666, "type": "electric_bike", "lon": -77.01449716666667, "bike_id": "1a6bec049e0dd51816fdf5433d10a295", "rental_uris": {"android": "https://dc.lft.to/lastmile_qr_scan", "ios": "https://dc.lft.to/lastmile_qr_scan"}, "name": "1a6bec049e0dd51816fdf5433d10a295", "is_reserved": 0}, {"is_disabled": 0, "fusion_lon": 0.0, "fusion_lat": 0.0, "lat": 38.903818333333334, "type": "electric_scooter", "lon": -77.00766616666667, "bike_id": "ed7af79b6d23c2c42bab2333ec390746", "rental_uris": {"android": "https://dc.lft.to/lastmile_qr_scan", "ios": "https://dc.lft.to/lastmile_qr_scan"}, "name": "ed7af79b6d23c2c42bab2333ec390746", "is_reserved": 0}, {"is_disabled": 0, "fusion_lon": 0.0, "fusion_lat": 0.0, "lat": 39.05812566666667, "type": "electric_bike", "lon": -77.12627933333333, "bike_id": "faa13de4d27183eaa35fb41689e780f1", "rental_uris": {"android": "https://dc.lft.to/lastmile_qr_scan", "ios": "https://dc.lft.to/lastmile_qr_scan"}, "name": "faa13de4d27183eaa35fb41689e780f1", "is_reserved": 0}, {"is_disabled": 0, "fusion_lon": 0.0, "fusion_lat": 0.0, "lat": 38.9416365, "type": "electric_bike", "lon": -77.00197583333333, "bike_id": "03ce1969eba0badcaeba733f8ba2cbb2", "rental_uris": {"android": "https://dc.lft.to/lastmile_qr_scan", "ios": "https://dc.lft.to/lastmile_qr_scan"}, "name": "03ce1969eba0badcaeba733f8ba2cbb2", "is_reserved": 0}, {"is_disabled": 0, "fusion_lon": 0.0, "fusion_lat": 0.0, "lat": 38.898625, "type": "electric_scooter", "lon": -77.02911516666667, "bike_id": "e4f0620df7588d10ffe13d29b1cbdade", "rental_uris": {"android": "https://dc.lft.to/lastmile_qr_scan", "ios": "https://dc.lft.to/lastmile_qr_scan"}, "name": "e4f0620df7588d10ffe13d29b1cbdade", "is_reserved": 0}, {"is_disabled": 0, "fusion_lon": 0.0, "fusion_lat": 0.0, "lat": 38.929671166666665, "type": "electric_scooter", "lon": -77.0053905, "bike_id": "726906939fcd460dc40f1e91fd39e47e", "rental_uris": {"android": "https://dc.lft.to/lastmile_qr_scan", "ios": "https://dc.lft.to/lastmile_qr_scan"}, "name": "726906939fcd460dc40f1e91fd39e47e", "is_reserved": 0}, {"is_disabled": 0, "fusion_lon": 0.0, "fusion_lat": 0.0, "lat": 38.907586333333334, "type": "electric_scooter", "lon": -77.03582316666666, "bike_id": "0e03eb3938ed193b81d91085dd06e739", "rental_uris": {"android": "https://dc.lft.to/lastmile_qr_scan", "ios": "https://dc.lft.to/lastmile_qr_scan"}, "name": "0e03eb3938ed193b81d91085dd06e739", "is_reserved": 0}, {"is_disabled": 0, "fusion_lon": 0.0, "fusion_lat": 0.0, "lat": 38.903633166666665, "type": "electric_scooter", "lon": -77.00215116666666, "bike_id": "2bab6d34b1cc233f184f3afa6bfd7cd6", "rental_uris": {"android": "https://dc.lft.to/lastmile_qr_scan", "ios": "https://dc.lft.to/lastmile_qr_scan"}, "name": "2bab6d34b1cc233f184f3afa6bfd7cd6", "is_reserved": 0}, {"is_disabled": 0, "fusion_lon": 0.0, "fusion_lat": 0.0, "lat": 38.910958, "type": "electric_scooter", "lon": -77.03184733333333, "bike_id": "415e2acd61bc662f1e4392420be4f794", "rental_uris": {"android": "https://dc.lft.to/lastmile_qr_scan", "ios": "https://dc.lft.to/lastmile_qr_scan"}, "name": "415e2acd61bc662f1e4392420be4f794", "is_reserved": 0}, {"is_disabled": 0, "fusion_lon": 0.0, "fusion_lat": 0.0, "lat": 38.923472, "type": "electric_bike", "lon": -76.9924425, "bike_id": "6b94741ee66af1c81465982e05c9d86e", "rental_uris": {"android": "https://dc.lft.to/lastmile_qr_scan", "ios": "https://dc.lft.to/lastmile_qr_scan"}, "name": "6b94741ee66af1c81465982e05c9d86e", "is_reserved": 0}, {"is_disabled": 0, "fusion_lon": 0.0, "fusion_lat": 0.0, "lat": 38.88401866666667, "type": "electric_scooter", "lon": -77.0326195, "bike_id": "4328b4ed6fc6692a703f4c818c0a624e", "rental_uris": {"android": "https://dc.lft.to/lastmile_qr_scan", "ios": "https://dc.lft.to/lastmile_qr_scan"}, "name": "4328b4ed6fc6692a703f4c818c0a624e", "is_reserved": 0}, {"is_disabled": 0, "fusion_lon": 0.0, "fusion_lat": 0.0, "lat": 38.8967495, "type": "electric_scooter", "lon": -77.01181716666666, "bike_id": "57e24206e3081ae228bfecdeb0e49c35", "rental_uris": {"android": "https://dc.lft.to/lastmile_qr_scan", "ios": "https://dc.lft.to/lastmile_qr_scan"}, "name": "57e24206e3081ae228bfecdeb0e49c35", "is_reserved": 0}, {"is_disabled": 0, "fusion_lon": 0.0, "fusion_lat": 0.0, "lat": 38.903683666666666, "type": "electric_scooter", "lon": -77.0219495, "bike_id": "39f4b6b6ed2b1271d714a9f7b019645e", "rental_uris": {"android": "https://dc.lft.to/lastmile_qr_scan", "ios": "https://dc.lft.to/lastmile_qr_scan"}, "name": "39f4b6b6ed2b1271d714a9f7b019645e", "is_reserved": 0}, {"is_disabled": 0, "fusion_lon": 0.0, "fusion_lat": 0.0, "lat": 38.99070116666667, "type": "electric_bike", "lon": -77.02378016666667, "bike_id": "66b75541d25a2264490ab879dd7a11e7", "rental_uris": {"android": "https://dc.lft.to/lastmile_qr_scan", "ios": "https://dc.lft.to/lastmile_qr_scan"}, "name": "66b75541d25a2264490ab879dd7a11e7", "is_reserved": 0}, {"is_disabled": 0, "fusion_lon": 0.0, "fusion_lat": 0.0, "lat": 38.91783516666667, "type": "electric_scooter", "lon": -77.04361216666666, "bike_id": "b3de985a67e37d5671250123beb227b0", "rental_uris": {"android": "https://dc.lft.to/lastmile_qr_scan", "ios": "https://dc.lft.to/lastmile_qr_scan"}, "name": "b3de985a67e37d5671250123beb227b0", "is_reserved": 0}, {"is_disabled": 0, "fusion_lon": 0.0, "fusion_lat": 0.0, "lat": 38.8812425, "type": "electric_scooter", "lon": -77.020755, "bike_id": "afb056d05a0001507ffdf7646e898519", "rental_uris": {"android": "https://dc.lft.to/lastmile_qr_scan", "ios": "https://dc.lft.to/lastmile_qr_scan"}, "name": "afb056d05a0001507ffdf7646e898519", "is_reserved": 0}, {"is_disabled": 0, "fusion_lon": 0.0, "fusion_lat": 0.0, "lat": 38.888605, "type": "electric_scooter", "lon": -76.97738566666666, "bike_id": "7bcba03e4931649b443161f7faa4cfe2", "rental_uris": {"android": "https://dc.lft.to/lastmile_qr_scan", "ios": "https://dc.lft.to/lastmile_qr_scan"}, "name": "7bcba03e4931649b443161f7faa4cfe2", "is_reserved": 0}, {"is_disabled": 0, "fusion_lon": 0.0, "fusion_lat": 0.0, "lat": 38.895105, "type": "electric_scooter", "lon": -77.02189366666667, "bike_id": "3d12173679f72cfce0fa2bd308904e79", "rental_uris": {"android": "https://dc.lft.to/lastmile_qr_scan", "ios": "https://dc.lft.to/lastmile_qr_scan"}, "name": "3d12173679f72cfce0fa2bd308904e79", "is_reserved": 0}, {"is_disabled": 0, "fusion_lon": 0.0, "fusion_lat": 0.0, "lat": 38.89756233333333, "type": "electric_scooter", "lon": -77.02189033333333, "bike_id": "cb367db4849d51e0706880b4894609fc", "rental_uris": {"android": "https://dc.lft.to/lastmile_qr_scan", "ios": "https://dc.lft.to/lastmile_qr_scan"}, "name": "cb367db4849d51e0706880b4894609fc", "is_reserved": 0}, {"is_disabled": 0, "fusion_lon": 0.0, "fusion_lat": 0.0, "lat": 38.88739116666667, "type": "electric_scooter", "lon": -77.03213516666666, "bike_id": "c1fcec0a02fe7ab830a288858d6e5532", "rental_uris": {"android": "https://dc.lft.to/lastmile_qr_scan", "ios": "https://dc.lft.to/lastmile_qr_scan"}, "name": "c1fcec0a02fe7ab830a288858d6e5532", "is_reserved": 0}, {"is_disabled": 0, "fusion_lon": 0.0, "fusion_lat": 0.0, "lat": 38.90146133333333, "type": "electric_scooter", "lon": -77.04137166666666, "bike_id": "0a04306ca41f782e8480a9211bb9002d", "rental_uris": {"android": "https://dc.lft.to/lastmile_qr_scan", "ios": "https://dc.lft.to/lastmile_qr_scan"}, "name": "0a04306ca41f782e8480a9211bb9002d", "is_reserved": 0}, {"is_disabled": 0, "fusion_lon": 0.0, "fusion_lat": 0.0, "lat": 38.899664666666666, "type": "electric_scooter", "lon": -77.02190083333333, "bike_id": "ea77fb93fa83e11884e0c5763a6e7a99", "rental_uris": {"android": "https://dc.lft.to/lastmile_qr_scan", "ios": "https://dc.lft.to/lastmile_qr_scan"}, "name": "ea77fb93fa83e11884e0c5763a6e7a99", "is_reserved": 0}, {"is_disabled": 0, "fusion_lon": 0.0, "fusion_lat": 0.0, "lat": 38.831188, "type": "electric_bike", "lon": -77.04321566666667, "bike_id": "a4aa9529aa4c95bf93a4227d311687a8", "rental_uris": {"android": "https://dc.lft.to/lastmile_qr_scan", "ios": "https://dc.lft.to/lastmile_qr_scan"}, "name": "a4aa9529aa4c95bf93a4227d311687a8", "is_reserved": 0}, {"is_disabled": 0, "fusion_lon": 0.0, "fusion_lat": 0.0, "lat": 38.898324333333335, "type": "electric_scooter", "lon": -77.03365166666667, "bike_id": "9edd71b304a6ac47e5fc7394796f9648", "rental_uris": {"android": "https://dc.lft.to/lastmile_qr_scan", "ios": "https://dc.lft.to/lastmile_qr_scan"}, "name": "9edd71b304a6ac47e5fc7394796f9648", "is_reserved": 0}, {"is_disabled": 0, "fusion_lon": 0.0, "fusion_lat": 0.0, "lat": 38.8272715, "type": "electric_bike", "lon": -77.00861383333333, "bike_id": "5f6afee5a7e2650a706b39df33622ccc", "rental_uris": {"android": "https://dc.lft.to/lastmile_qr_scan", "ios": "https://dc.lft.to/lastmile_qr_scan"}, "name": "5f6afee5a7e2650a706b39df33622ccc", "is_reserved": 0}, {"is_disabled": 0, "fusion_lon": 0.0, "fusion_lat": 0.0, "lat": 38.91970366666666, "type": "electric_scooter", "lon": -77.04176766666667, "bike_id": "823438effd3bc08b61a56a8d95ce3ada", "rental_uris": {"android": "https://dc.lft.to/lastmile_qr_scan", "ios": "https://dc.lft.to/lastmile_qr_scan"}, "name": "823438effd3bc08b61a56a8d95ce3ada", "is_reserved": 0}, {"is_disabled": 0, "fusion_lon": 0.0, "fusion_lat": 0.0, "lat": 38.906146666666665, "type": "electric_scooter", "lon": -77.02785, "bike_id": "4c94caa2c1943e10cf8f38959520ce9f", "rental_uris": {"android": "https://dc.lft.to/lastmile_qr_scan", "ios": "https://dc.lft.to/lastmile_qr_scan"}, "name": "4c94caa2c1943e10cf8f38959520ce9f", "is_reserved": 0}, {"is_disabled": 0, "fusion_lon": 0.0, "fusion_lat": 0.0, "lat": 38.90147416666667, "type": "electric_scooter", "lon": -77.0416305, "bike_id": "cb72c14455669a393ed4b0b8c5be8ad8", "rental_uris": {"android": "https://dc.lft.to/lastmile_qr_scan", "ios": "https://dc.lft.to/lastmile_qr_scan"}, "name": "cb72c14455669a393ed4b0b8c5be8ad8", "is_reserved": 0}, {"is_disabled": 0, "fusion_lon": 0.0, "fusion_lat": 0.0, "lat": 38.90569833333333, "type": "electric_scooter", "lon": -77.033668, "bike_id": "c7edb3270472f9006d7a76245517b186", "rental_uris": {"android": "https://dc.lft.to/lastmile_qr_scan", "ios": "https://dc.lft.to/lastmile_qr_scan"}, "name": "c7edb3270472f9006d7a76245517b186", "is_reserved": 0}, {"is_disabled": 0, "fusion_lon": 0.0, "fusion_lat": 0.0, "lat": 38.89523766666667, "type": "electric_scooter", "lon": -77.02841383333333, "bike_id": "32bec16e7391c6c8c2748f5eac8557e1", "rental_uris": {"android": "https://dc.lft.to/lastmile_qr_scan", "ios": "https://dc.lft.to/lastmile_qr_scan"}, "name": "32bec16e7391c6c8c2748f5eac8557e1", "is_reserved": 0}, {"is_disabled": 0, "fusion_lon": 0.0, "fusion_lat": 0.0, "lat": 38.8872185, "type": "electric_scooter", "lon": -76.99631033333333, "bike_id": "26dc8f61260ab23f179f54ba3b44c8a0", "rental_uris": {"android": "https://dc.lft.to/lastmile_qr_scan", "ios": "https://dc.lft.to/lastmile_qr_scan"}, "name": "26dc8f61260ab23f179f54ba3b44c8a0", "is_reserved": 0}, {"is_disabled": 0, "fusion_lon": 0.0, "fusion_lat": 0.0, "lat": 38.8851015, "type": "electric_scooter", "lon": -76.9985575, "bike_id": "2f14f3419736a46211ae90c5e31aad12", "rental_uris": {"android": "https://dc.lft.to/lastmile_qr_scan", "ios": "https://dc.lft.to/lastmile_qr_scan"}, "name": "2f14f3419736a46211ae90c5e31aad12", "is_reserved": 0}, {"is_disabled": 0, "fusion_lon": 0.0, "fusion_lat": 0.0, "lat": 38.98826116666667, "type": "electric_bike", "lon": -76.98752066666667, "bike_id": "fb2891ab7eb539eb21d58004723f3de6", "rental_uris": {"android": "https://dc.lft.to/lastmile_qr_scan", "ios": "https://dc.lft.to/lastmile_qr_scan"}, "name": "fb2891ab7eb539eb21d58004723f3de6", "is_reserved": 0}, {"is_disabled": 0, "fusion_lon": 0.0, "fusion_lat": 0.0, "lat": 38.91540033333333, "type": "electric_scooter", "lon": -77.032055, "bike_id": "e51284ee2083dfdd0278e7b94c53426d", "rental_uris": {"android": "https://dc.lft.to/lastmile_qr_scan", "ios": "https://dc.lft.to/lastmile_qr_scan"}, "name": "e51284ee2083dfdd0278e7b94c53426d", "is_reserved": 0}, {"is_disabled": 0, "fusion_lon": 0.0, "fusion_lat": 0.0, "lat": 38.92030616666667, "type": "electric_scooter", "lon": -77.02583333333334, "bike_id": "80e27e8803e7992a4381e771c132cd31", "rental_uris": {"android": "https://dc.lft.to/lastmile_qr_scan", "ios": "https://dc.lft.to/lastmile_qr_scan"}, "name": "80e27e8803e7992a4381e771c132cd31", "is_reserved": 0}, {"is_disabled": 0, "fusion_lon": 0.0, "fusion_lat": 0.0, "lat": 38.952098, "type": "electric_scooter", "lon": -77.036293, "bike_id": "39b6d0b0c644f1d10959aae07aec621b", "rental_uris": {"android": "https://dc.lft.to/lastmile_qr_scan", "ios": "https://dc.lft.to/lastmile_qr_scan"}, "name": "39b6d0b0c644f1d10959aae07aec621b", "is_reserved": 0}, {"is_disabled": 0, "fusion_lon": 0.0, "fusion_lat": 0.0, "lat": 38.89604383333333, "type": "electric_scooter", "lon": -77.0215895, "bike_id": "e6a2d46d8884050c9dd61cd9c587b8e8", "rental_uris": {"android": "https://dc.lft.to/lastmile_qr_scan", "ios": "https://dc.lft.to/lastmile_qr_scan"}, "name": "e6a2d46d8884050c9dd61cd9c587b8e8", "is_reserved": 0}, {"is_disabled": 0, "fusion_lon": 0.0, "fusion_lat": 0.0, "lat": 38.911085166666666, "type": "electric_scooter", "lon": -77.003713, "bike_id": "ced46969833ed0a227e40d308fab2fe0", "rental_uris": {"android": "https://dc.lft.to/lastmile_qr_scan", "ios": "https://dc.lft.to/lastmile_qr_scan"}, "name": "ced46969833ed0a227e40d308fab2fe0", "is_reserved": 0}, {"is_disabled": 0, "fusion_lon": 0.0, "fusion_lat": 0.0, "lat": 38.852833, "type": "electric_bike", "lon": -76.981524, "bike_id": "94fb12aaf1cfeedb1cbf4cab33e719bb", "rental_uris": {"android": "https://dc.lft.to/lastmile_qr_scan", "ios": "https://dc.lft.to/lastmile_qr_scan"}, "name": "94fb12aaf1cfeedb1cbf4cab33e719bb", "is_reserved": 0}, {"is_disabled": 0, "fusion_lon": 0.0, "fusion_lat": 0.0, "lat": 38.90006616666667, "type": "electric_scooter", "lon": -77.03356066666667, "bike_id": "f466495f4918cd242a247a021029711f", "rental_uris": {"android": "https://dc.lft.to/lastmile_qr_scan", "ios": "https://dc.lft.to/lastmile_qr_scan"}, "name": "f466495f4918cd242a247a021029711f", "is_reserved": 0}, {"is_disabled": 0, "fusion_lon": 0.0, "fusion_lat": 0.0, "lat": 38.916067, "type": "electric_scooter", "lon": -77.03178383333334, "bike_id": "f26c2639c7470a1a9646d7aa18bfa8c3", "rental_uris": {"android": "https://dc.lft.to/lastmile_qr_scan", "ios": "https://dc.lft.to/lastmile_qr_scan"}, "name": "f26c2639c7470a1a9646d7aa18bfa8c3", "is_reserved": 0}, {"is_disabled": 0, "fusion_lon": 0.0, "fusion_lat": 0.0, "lat": 38.857834, "type": "electric_bike", "lon": -76.98743883333333, "bike_id": "15ebc7d0030a623a3e2e22b38654c37b", "rental_uris": {"android": "https://dc.lft.to/lastmile_qr_scan", "ios": "https://dc.lft.to/lastmile_qr_scan"}, "name": "15ebc7d0030a623a3e2e22b38654c37b", "is_reserved": 0}, {"is_disabled": 0, "fusion_lon": 0.0, "fusion_lat": 0.0, "lat": 38.914063, "type": "electric_scooter", "lon": -77.0316985, "bike_id": "79f4f156380f0be79aba393f85451ef6", "rental_uris": {"android": "https://dc.lft.to/lastmile_qr_scan", "ios": "https://dc.lft.to/lastmile_qr_scan"}, "name": "79f4f156380f0be79aba393f85451ef6", "is_reserved": 0}, {"is_disabled": 0, "fusion_lon": 0.0, "fusion_lat": 0.0, "lat": 38.92140716666667, "type": "electric_scooter", "lon": -77.04443666666667, "bike_id": "9ea20332258aa3faf4b32b773a1f5084", "rental_uris": {"android": "https://dc.lft.to/lastmile_qr_scan", "ios": "https://dc.lft.to/lastmile_qr_scan"}, "name": "9ea20332258aa3faf4b32b773a1f5084", "is_reserved": 0}, {"is_disabled": 0, "fusion_lon": 0.0, "fusion_lat": 0.0, "lat": 38.9433335, "type": "electric_bike", "lon": -77.014793, "bike_id": "089a25b3294f7433a7850b2b3deddd5e", "rental_uris": {"android": "https://dc.lft.to/lastmile_qr_scan", "ios": "https://dc.lft.to/lastmile_qr_scan"}, "name": "089a25b3294f7433a7850b2b3deddd5e", "is_reserved": 0}, {"is_disabled": 0, "fusion_lon": 0.0, "fusion_lat": 0.0, "lat": 38.8843715, "type": "electric_scooter", "lon": -77.029635, "bike_id": "5b26b9b538c5b9999fd487ae7c3613f6", "rental_uris": {"android": "https://dc.lft.to/lastmile_qr_scan", "ios": "https://dc.lft.to/lastmile_qr_scan"}, "name": "5b26b9b538c5b9999fd487ae7c3613f6", "is_reserved": 0}, {"is_disabled": 0, "fusion_lon": 0.0, "fusion_lat": 0.0, "lat": 38.89539766666667, "type": "electric_scooter", "lon": -77.0150975, "bike_id": "b1f0587ec5e1a93fa62ea75bafd82ae6", "rental_uris": {"android": "https://dc.lft.to/lastmile_qr_scan", "ios": "https://dc.lft.to/lastmile_qr_scan"}, "name": "b1f0587ec5e1a93fa62ea75bafd82ae6", "is_reserved": 0}, {"is_disabled": 0, "fusion_lon": 0.0, "fusion_lat": 0.0, "lat": 38.90788166666667, "type": "electric_scooter", "lon": -77.02392733333333, "bike_id": "2c18a4808a7e2a49f4c6fc13f2f12763", "rental_uris": {"android": "https://dc.lft.to/lastmile_qr_scan", "ios": "https://dc.lft.to/lastmile_qr_scan"}, "name": "2c18a4808a7e2a49f4c6fc13f2f12763", "is_reserved": 0}, {"is_disabled": 0, "fusion_lon": 0.0, "fusion_lat": 0.0, "lat": 38.916466166666666, "type": "electric_scooter", "lon": -77.02249016666667, "bike_id": "772e520945418b87ea9b0720158c06f2", "rental_uris": {"android": "https://dc.lft.to/lastmile_qr_scan", "ios": "https://dc.lft.to/lastmile_qr_scan"}, "name": "772e520945418b87ea9b0720158c06f2", "is_reserved": 0}, {"is_disabled": 0, "fusion_lon": 0.0, "fusion_lat": 0.0, "lat": 38.911951333333334, "type": "electric_scooter", "lon": -77.03639533333333, "bike_id": "00a3fda2ac66cf8e07dd52307558497f", "rental_uris": {"android": "https://dc.lft.to/lastmile_qr_scan", "ios": "https://dc.lft.to/lastmile_qr_scan"}, "name": "00a3fda2ac66cf8e07dd52307558497f", "is_reserved": 0}, {"is_disabled": 0, "fusion_lon": 0.0, "fusion_lat": 0.0, "lat": 38.8949875, "type": "electric_scooter", "lon": -76.94876533333333, "bike_id": "631a47c84ea8d4f201c0fe6378a41354", "rental_uris": {"android": "https://dc.lft.to/lastmile_qr_scan", "ios": "https://dc.lft.to/lastmile_qr_scan"}, "name": "631a47c84ea8d4f201c0fe6378a41354", "is_reserved": 0}, {"is_disabled": 0, "fusion_lon": 0.0, "fusion_lat": 0.0, "lat": 38.9207, "type": "electric_scooter", "lon": -77.04195483333334, "bike_id": "1c6352bc97ad7769f54c28fecf91e760", "rental_uris": {"android": "https://dc.lft.to/lastmile_qr_scan", "ios": "https://dc.lft.to/lastmile_qr_scan"}, "name": "1c6352bc97ad7769f54c28fecf91e760", "is_reserved": 0}, {"is_disabled": 0, "fusion_lon": 0.0, "fusion_lat": 0.0, "lat": 38.90939766666666, "type": "electric_scooter", "lon": -77.03205416666667, "bike_id": "3f8009e7b1240efd8a099d4a0831bd1b", "rental_uris": {"android": "https://dc.lft.to/lastmile_qr_scan", "ios": "https://dc.lft.to/lastmile_qr_scan"}, "name": "3f8009e7b1240efd8a099d4a0831bd1b", "is_reserved": 0}, {"is_disabled": 0, "fusion_lon": 0.0, "fusion_lat": 0.0, "lat": 38.902505166666664, "type": "electric_scooter", "lon": -77.027112, "bike_id": "237f97acebb9df267bcf1fba30024a4d", "rental_uris": {"android": "https://dc.lft.to/lastmile_qr_scan", "ios": "https://dc.lft.to/lastmile_qr_scan"}, "name": "237f97acebb9df267bcf1fba30024a4d", "is_reserved": 0}, {"is_disabled": 0, "fusion_lon": 0.0, "fusion_lat": 0.0, "lat": 38.91175783333333, "type": "electric_scooter", "lon": -77.02692666666667, "bike_id": "18b823c0580972bf044a1b9656a4a3f6", "rental_uris": {"android": "https://dc.lft.to/lastmile_qr_scan", "ios": "https://dc.lft.to/lastmile_qr_scan"}, "name": "18b823c0580972bf044a1b9656a4a3f6", "is_reserved": 0}, {"is_disabled": 0, "fusion_lon": 0.0, "fusion_lat": 0.0, "lat": 38.892188, "type": "electric_scooter", "lon": -77.04795566666667, "bike_id": "f4c31be37cd39092a8053941cda041fb", "rental_uris": {"android": "https://dc.lft.to/lastmile_qr_scan", "ios": "https://dc.lft.to/lastmile_qr_scan"}, "name": "f4c31be37cd39092a8053941cda041fb", "is_reserved": 0}, {"is_disabled": 0, "fusion_lon": 0.0, "fusion_lat": 0.0, "lat": 38.91422683333333, "type": "electric_scooter", "lon": -77.031837, "bike_id": "4caeee635c5a30786ff2ce76a50ad517", "rental_uris": {"android": "https://dc.lft.to/lastmile_qr_scan", "ios": "https://dc.lft.to/lastmile_qr_scan"}, "name": "4caeee635c5a30786ff2ce76a50ad517", "is_reserved": 0}, {"is_disabled": 0, "fusion_lon": 0.0, "fusion_lat": 0.0, "lat": 38.9155855, "type": "electric_scooter", "lon": -77.010257, "bike_id": "bb179950dc383dbeb17d4a5d47fecc64", "rental_uris": {"android": "https://dc.lft.to/lastmile_qr_scan", "ios": "https://dc.lft.to/lastmile_qr_scan"}, "name": "bb179950dc383dbeb17d4a5d47fecc64", "is_reserved": 0}, {"is_disabled": 0, "fusion_lon": 0.0, "fusion_lat": 0.0, "lat": 38.98507, "type": "electric_bike", "lon": -76.98206183333333, "bike_id": "07943503f56b37fc48c0bc5e22c8419b", "rental_uris": {"android": "https://dc.lft.to/lastmile_qr_scan", "ios": "https://dc.lft.to/lastmile_qr_scan"}, "name": "07943503f56b37fc48c0bc5e22c8419b", "is_reserved": 0}, {"is_disabled": 0, "fusion_lon": 0.0, "fusion_lat": 0.0, "lat": 38.90554383333333, "type": "electric_scooter", "lon": -77.03250883333334, "bike_id": "c7ceb64ae2a92f0460d9919fea8770b8", "rental_uris": {"android": "https://dc.lft.to/lastmile_qr_scan", "ios": "https://dc.lft.to/lastmile_qr_scan"}, "name": "c7ceb64ae2a92f0460d9919fea8770b8", "is_reserved": 0}, {"is_disabled": 0, "fusion_lon": 0.0, "fusion_lat": 0.0, "lat": 38.90011, "type": "electric_scooter", "lon": -77.01193516666666, "bike_id": "3eec193c7fea3014ef45acfe1165304e", "rental_uris": {"android": "https://dc.lft.to/lastmile_qr_scan", "ios": "https://dc.lft.to/lastmile_qr_scan"}, "name": "3eec193c7fea3014ef45acfe1165304e", "is_reserved": 0}, {"is_disabled": 0, "fusion_lon": 0.0, "fusion_lat": 0.0, "lat": 38.91710783333333, "type": "electric_scooter", "lon": -77.04122866666667, "bike_id": "6889460f985668d9f7983e76ccf78fda", "rental_uris": {"android": "https://dc.lft.to/lastmile_qr_scan", "ios": "https://dc.lft.to/lastmile_qr_scan"}, "name": "6889460f985668d9f7983e76ccf78fda", "is_reserved": 0}, {"is_disabled": 0, "fusion_lon": 0.0, "fusion_lat": 0.0, "lat": 38.9091, "type": "electric_scooter", "lon": -77.02300816666667, "bike_id": "16c5367b0370359089a1c66dfe78bc70", "rental_uris": {"android": "https://dc.lft.to/lastmile_qr_scan", "ios": "https://dc.lft.to/lastmile_qr_scan"}, "name": "16c5367b0370359089a1c66dfe78bc70", "is_reserved": 0}, {"is_disabled": 0, "fusion_lon": 0.0, "fusion_lat": 0.0, "lat": 38.90473683333333, "type": "electric_scooter", "lon": -77.025117, "bike_id": "37714144e2466ede133177232918e2a1", "rental_uris": {"android": "https://dc.lft.to/lastmile_qr_scan", "ios": "https://dc.lft.to/lastmile_qr_scan"}, "name": "37714144e2466ede133177232918e2a1", "is_reserved": 0}, {"is_disabled": 0, "fusion_lon": 0.0, "fusion_lat": 0.0, "lat": 38.915577666666664, "type": "electric_scooter", "lon": -77.01198333333333, "bike_id": "2f1739fdc7f8bc123b66f6f5f1680c0f", "rental_uris": {"android": "https://dc.lft.to/lastmile_qr_scan", "ios": "https://dc.lft.to/lastmile_qr_scan"}, "name": "2f1739fdc7f8bc123b66f6f5f1680c0f", "is_reserved": 0}, {"is_disabled": 0, "fusion_lon": 0.0, "fusion_lat": 0.0, "lat": 38.978280833333336, "type": "electric_bike", "lon": -76.928814, "bike_id": "58a663364f01bde8b3fc61f26c511e74", "rental_uris": {"android": "https://dc.lft.to/lastmile_qr_scan", "ios": "https://dc.lft.to/lastmile_qr_scan"}, "name": "58a663364f01bde8b3fc61f26c511e74", "is_reserved": 0}, {"is_disabled": 0, "fusion_lon": 0.0, "fusion_lat": 0.0, "lat": 38.893719, "type": "electric_scooter", "lon": -76.978159, "bike_id": "27bbbdd3df3a2f95c5fa708bd689aa81", "rental_uris": {"android": "https://dc.lft.to/lastmile_qr_scan", "ios": "https://dc.lft.to/lastmile_qr_scan"}, "name": "27bbbdd3df3a2f95c5fa708bd689aa81", "is_reserved": 0}, {"is_disabled": 0, "fusion_lon": 0.0, "fusion_lat": 0.0, "lat": 38.88521883333333, "type": "electric_scooter", "lon": -76.99796316666666, "bike_id": "c93869cf1a7896674fc711979f962913", "rental_uris": {"android": "https://dc.lft.to/lastmile_qr_scan", "ios": "https://dc.lft.to/lastmile_qr_scan"}, "name": "c93869cf1a7896674fc711979f962913", "is_reserved": 0}, {"is_disabled": 0, "fusion_lon": 0.0, "fusion_lat": 0.0, "lat": 38.897301666666664, "type": "electric_scooter", "lon": -77.025016, "bike_id": "e3a35a2e00b4b98453466741308af410", "rental_uris": {"android": "https://dc.lft.to/lastmile_qr_scan", "ios": "https://dc.lft.to/lastmile_qr_scan"}, "name": "e3a35a2e00b4b98453466741308af410", "is_reserved": 0}, {"is_disabled": 0, "fusion_lon": 0.0, "fusion_lat": 0.0, "lat": 38.920201166666665, "type": "electric_scooter", "lon": -77.03191916666667, "bike_id": "4afde5d48922b75a8707853034e3034c", "rental_uris": {"android": "https://dc.lft.to/lastmile_qr_scan", "ios": "https://dc.lft.to/lastmile_qr_scan"}, "name": "4afde5d48922b75a8707853034e3034c", "is_reserved": 0}, {"is_disabled": 0, "fusion_lon": 0.0, "fusion_lat": 0.0, "lat": 38.90704516666667, "type": "electric_scooter", "lon": -77.0630925, "bike_id": "7e77ec4be5c947f9b44db507353eeb48", "rental_uris": {"android": "https://dc.lft.to/lastmile_qr_scan", "ios": "https://dc.lft.to/lastmile_qr_scan"}, "name": "7e77ec4be5c947f9b44db507353eeb48", "is_reserved": 0}, {"is_disabled": 0, "fusion_lon": 0.0, "fusion_lat": 0.0, "lat": 38.9166375, "type": "electric_scooter", "lon": -77.03462133333333, "bike_id": "350f2395211833b11eef27e7dece4d54", "rental_uris": {"android": "https://dc.lft.to/lastmile_qr_scan", "ios": "https://dc.lft.to/lastmile_qr_scan"}, "name": "350f2395211833b11eef27e7dece4d54", "is_reserved": 0}, {"is_disabled": 0, "fusion_lon": 0.0, "fusion_lat": 0.0, "lat": 38.9028125, "type": "electric_scooter", "lon": -77.02429483333333, "bike_id": "0193eb9c128c327c62222feb65f04c4d", "rental_uris": {"android": "https://dc.lft.to/lastmile_qr_scan", "ios": "https://dc.lft.to/lastmile_qr_scan"}, "name": "0193eb9c128c327c62222feb65f04c4d", "is_reserved": 0}, {"is_disabled": 0, "fusion_lon": 0.0, "fusion_lat": 0.0, "lat": 38.893097166666664, "type": "electric_scooter", "lon": -77.0220555, "bike_id": "1e7e417766cec3436cccdb411de83457", "rental_uris": {"android": "https://dc.lft.to/lastmile_qr_scan", "ios": "https://dc.lft.to/lastmile_qr_scan"}, "name": "1e7e417766cec3436cccdb411de83457", "is_reserved": 0}, {"is_disabled": 0, "fusion_lon": 0.0, "fusion_lat": 0.0, "lat": 38.85879, "type": "electric_scooter", "lon": -76.9903725, "bike_id": "27d4403ff6e4d5d51c7e1d80ab4406ff", "rental_uris": {"android": "https://dc.lft.to/lastmile_qr_scan", "ios": "https://dc.lft.to/lastmile_qr_scan"}, "name": "27d4403ff6e4d5d51c7e1d80ab4406ff", "is_reserved": 0}, {"is_disabled": 0, "fusion_lon": 0.0, "fusion_lat": 0.0, "lat": 38.907259333333336, "type": "electric_scooter", "lon": -77.0407665, "bike_id": "224dc79bcad983290559b258f3f9f1b2", "rental_uris": {"android": "https://dc.lft.to/lastmile_qr_scan", "ios": "https://dc.lft.to/lastmile_qr_scan"}, "name": "224dc79bcad983290559b258f3f9f1b2", "is_reserved": 0}, {"is_disabled": 0, "fusion_lon": 0.0, "fusion_lat": 0.0, "lat": 38.905386, "type": "electric_scooter", "lon": -77.06519116666666, "bike_id": "3a931ce2003c8114fd2d9884702fb98a", "rental_uris": {"android": "https://dc.lft.to/lastmile_qr_scan", "ios": "https://dc.lft.to/lastmile_qr_scan"}, "name": "3a931ce2003c8114fd2d9884702fb98a", "is_reserved": 0}, {"is_disabled": 0, "fusion_lon": 0.0, "fusion_lat": 0.0, "lat": 38.956010666666664, "type": "electric_scooter", "lon": -77.00982733333333, "bike_id": "fb196b4dcb14e0d8f097e5761d5d870f", "rental_uris": {"android": "https://dc.lft.to/lastmile_qr_scan", "ios": "https://dc.lft.to/lastmile_qr_scan"}, "name": "fb196b4dcb14e0d8f097e5761d5d870f", "is_reserved": 0}, {"is_disabled": 0, "fusion_lon": 0.0, "fusion_lat": 0.0, "lat": 38.9329965, "type": "electric_scooter", "lon": -77.021408, "bike_id": "aab6292968cf5e5a6a19ff44f59197ca", "rental_uris": {"android": "https://dc.lft.to/lastmile_qr_scan", "ios": "https://dc.lft.to/lastmile_qr_scan"}, "name": "aab6292968cf5e5a6a19ff44f59197ca", "is_reserved": 0}, {"is_disabled": 0, "fusion_lon": 0.0, "fusion_lat": 0.0, "lat": 38.87492733333333, "type": "electric_bike", "lon": -77.04899116666667, "bike_id": "b17524ad71025d14b6bbd724aa544455", "rental_uris": {"android": "https://dc.lft.to/lastmile_qr_scan", "ios": "https://dc.lft.to/lastmile_qr_scan"}, "name": "b17524ad71025d14b6bbd724aa544455", "is_reserved": 0}, {"is_disabled": 0, "fusion_lon": 0.0, "fusion_lat": 0.0, "lat": 38.962128666666665, "type": "electric_scooter", "lon": -77.028059, "bike_id": "41999ca3580440b281fbd15f94f3f1af", "rental_uris": {"android": "https://dc.lft.to/lastmile_qr_scan", "ios": "https://dc.lft.to/lastmile_qr_scan"}, "name": "41999ca3580440b281fbd15f94f3f1af", "is_reserved": 0}, {"is_disabled": 0, "fusion_lon": 0.0, "fusion_lat": 0.0, "lat": 38.92810266666667, "type": "electric_scooter", "lon": -77.014068, "bike_id": "662f369d131c21894a66311c66d6ee5e", "rental_uris": {"android": "https://dc.lft.to/lastmile_qr_scan", "ios": "https://dc.lft.to/lastmile_qr_scan"}, "name": "662f369d131c21894a66311c66d6ee5e", "is_reserved": 0}, {"is_disabled": 0, "fusion_lon": 0.0, "fusion_lat": 0.0, "lat": 38.863519333333336, "type": "electric_scooter", "lon": -76.99065533333334, "bike_id": "e620fc3444143928a24189128ad75836", "rental_uris": {"android": "https://dc.lft.to/lastmile_qr_scan", "ios": "https://dc.lft.to/lastmile_qr_scan"}, "name": "e620fc3444143928a24189128ad75836", "is_reserved": 0}, {"is_disabled": 0, "fusion_lon": 0.0, "fusion_lat": 0.0, "lat": 38.896017, "type": "electric_scooter", "lon": -77.0268085, "bike_id": "3e18d7ce313e37812408f18e001232ef", "rental_uris": {"android": "https://dc.lft.to/lastmile_qr_scan", "ios": "https://dc.lft.to/lastmile_qr_scan"}, "name": "3e18d7ce313e37812408f18e001232ef", "is_reserved": 0}, {"is_disabled": 0, "fusion_lon": 0.0, "fusion_lat": 0.0, "lat": 38.990616333333335, "type": "electric_bike", "lon": -77.10026083333334, "bike_id": "0f67216a65d074ca845137fa8f9037dc", "rental_uris": {"android": "https://dc.lft.to/lastmile_qr_scan", "ios": "https://dc.lft.to/lastmile_qr_scan"}, "name": "0f67216a65d074ca845137fa8f9037dc", "is_reserved": 0}, {"is_disabled": 0, "fusion_lon": 0.0, "fusion_lat": 0.0, "lat": 38.945714833333334, "type": "electric_bike", "lon": -76.9602635, "bike_id": "85e47bae32623e6df9660ce69e12eac0", "rental_uris": {"android": "https://dc.lft.to/lastmile_qr_scan", "ios": "https://dc.lft.to/lastmile_qr_scan"}, "name": "85e47bae32623e6df9660ce69e12eac0", "is_reserved": 0}, {"is_disabled": 0, "fusion_lon": 0.0, "fusion_lat": 0.0, "lat": 38.990898333333334, "type": "electric_bike", "lon": -76.8749545, "bike_id": "086887d67c5740f6e7f671300848f970", "rental_uris": {"android": "https://dc.lft.to/lastmile_qr_scan", "ios": "https://dc.lft.to/lastmile_qr_scan"}, "name": "086887d67c5740f6e7f671300848f970", "is_reserved": 0}, {"is_disabled": 0, "fusion_lon": 0.0, "fusion_lat": 0.0, "lat": 38.92183583333333, "type": "electric_scooter", "lon": -77.02420333333333, "bike_id": "0047878d657805827b0d5c112695b953", "rental_uris": {"android": "https://dc.lft.to/lastmile_qr_scan", "ios": "https://dc.lft.to/lastmile_qr_scan"}, "name": "0047878d657805827b0d5c112695b953", "is_reserved": 0}, {"is_disabled": 0, "fusion_lon": 0.0, "fusion_lat": 0.0, "lat": 38.911882166666665, "type": "electric_scooter", "lon": -77.041541, "bike_id": "78eb8deb8fcb057e6a4a3e1f9e8c3572", "rental_uris": {"android": "https://dc.lft.to/lastmile_qr_scan", "ios": "https://dc.lft.to/lastmile_qr_scan"}, "name": "78eb8deb8fcb057e6a4a3e1f9e8c3572", "is_reserved": 0}, {"is_disabled": 0, "fusion_lon": 0.0, "fusion_lat": 0.0, "lat": 38.908853666666666, "type": "electric_scooter", "lon": -77.04136483333333, "bike_id": "ae30723ddb193f5cda5960409b80b20d", "rental_uris": {"android": "https://dc.lft.to/lastmile_qr_scan", "ios": "https://dc.lft.to/lastmile_qr_scan"}, "name": "ae30723ddb193f5cda5960409b80b20d", "is_reserved": 0}, {"is_disabled": 0, "fusion_lon": 0.0, "fusion_lat": 0.0, "lat": 38.893926, "type": "electric_scooter", "lon": -76.94997066666667, "bike_id": "24603e7e1814a70bbb34c46763b9e04b", "rental_uris": {"android": "https://dc.lft.to/lastmile_qr_scan", "ios": "https://dc.lft.to/lastmile_qr_scan"}, "name": "24603e7e1814a70bbb34c46763b9e04b", "is_reserved": 0}, {"is_disabled": 0, "fusion_lon": 0.0, "fusion_lat": 0.0, "lat": 38.915641, "type": "electric_scooter", "lon": -77.03248133333334, "bike_id": "3a1409349ddda42d42be396f7cb31269", "rental_uris": {"android": "https://dc.lft.to/lastmile_qr_scan", "ios": "https://dc.lft.to/lastmile_qr_scan"}, "name": "3a1409349ddda42d42be396f7cb31269", "is_reserved": 0}, {"is_disabled": 0, "fusion_lon": 0.0, "fusion_lat": 0.0, "lat": 38.91266483333333, "type": "electric_scooter", "lon": -77.03756716666666, "bike_id": "65689ec6a7d753c7f4b87a3590bb82b0", "rental_uris": {"android": "https://dc.lft.to/lastmile_qr_scan", "ios": "https://dc.lft.to/lastmile_qr_scan"}, "name": "65689ec6a7d753c7f4b87a3590bb82b0", "is_reserved": 0}, {"is_disabled": 0, "fusion_lon": 0.0, "fusion_lat": 0.0, "lat": 38.911236, "type": "electric_scooter", "lon": -77.044021, "bike_id": "e80978ca852fe4060e34fe20bf4c0d2d", "rental_uris": {"android": "https://dc.lft.to/lastmile_qr_scan", "ios": "https://dc.lft.to/lastmile_qr_scan"}, "name": "e80978ca852fe4060e34fe20bf4c0d2d", "is_reserved": 0}, {"is_disabled": 0, "fusion_lon": 0.0, "fusion_lat": 0.0, "lat": 38.9193365, "type": "electric_scooter", "lon": -77.0416255, "bike_id": "92a8dddf3beb8bad5a178235ae82dcf3", "rental_uris": {"android": "https://dc.lft.to/lastmile_qr_scan", "ios": "https://dc.lft.to/lastmile_qr_scan"}, "name": "92a8dddf3beb8bad5a178235ae82dcf3", "is_reserved": 0}, {"is_disabled": 0, "fusion_lon": 0.0, "fusion_lat": 0.0, "lat": 38.90062183333333, "type": "electric_scooter", "lon": -77.04879216666667, "bike_id": "ed40b86fe1e85d733a7f976a88a9822b", "rental_uris": {"android": "https://dc.lft.to/lastmile_qr_scan", "ios": "https://dc.lft.to/lastmile_qr_scan"}, "name": "ed40b86fe1e85d733a7f976a88a9822b", "is_reserved": 0}, {"is_disabled": 0, "fusion_lon": 0.0, "fusion_lat": 0.0, "lat": 38.9035835, "type": "electric_scooter", "lon": -77.01741183333333, "bike_id": "fed4cead0865d0843928dee29d16c17c", "rental_uris": {"android": "https://dc.lft.to/lastmile_qr_scan", "ios": "https://dc.lft.to/lastmile_qr_scan"}, "name": "fed4cead0865d0843928dee29d16c17c", "is_reserved": 0}, {"is_disabled": 0, "fusion_lon": 0.0, "fusion_lat": 0.0, "lat": 38.87895416666667, "type": "electric_scooter", "lon": -76.93524166666667, "bike_id": "450c63a7ed27142bdcab3164f0387624", "rental_uris": {"android": "https://dc.lft.to/lastmile_qr_scan", "ios": "https://dc.lft.to/lastmile_qr_scan"}, "name": "450c63a7ed27142bdcab3164f0387624", "is_reserved": 0}, {"is_disabled": 0, "fusion_lon": 0.0, "fusion_lat": 0.0, "lat": 38.974048, "type": "electric_bike", "lon": -77.02500233333333, "bike_id": "a7ed3268247297bc630ef3eb72d6514d", "rental_uris": {"android": "https://dc.lft.to/lastmile_qr_scan", "ios": "https://dc.lft.to/lastmile_qr_scan"}, "name": "a7ed3268247297bc630ef3eb72d6514d", "is_reserved": 0}, {"is_disabled": 0, "fusion_lon": 0.0, "fusion_lat": 0.0, "lat": 38.9068705, "type": "electric_scooter", "lon": -77.026913, "bike_id": "ff2b25f16ceadacf7869ea5f436fb4c5", "rental_uris": {"android": "https://dc.lft.to/lastmile_qr_scan", "ios": "https://dc.lft.to/lastmile_qr_scan"}, "name": "ff2b25f16ceadacf7869ea5f436fb4c5", "is_reserved": 0}, {"is_disabled": 0, "fusion_lon": 0.0, "fusion_lat": 0.0, "lat": 38.892234, "type": "electric_scooter", "lon": -77.04683283333334, "bike_id": "1275988969aca59f65a9ae2cf4e43ec2", "rental_uris": {"android": "https://dc.lft.to/lastmile_qr_scan", "ios": "https://dc.lft.to/lastmile_qr_scan"}, "name": "1275988969aca59f65a9ae2cf4e43ec2", "is_reserved": 0}, {"is_disabled": 0, "fusion_lon": 0.0, "fusion_lat": 0.0, "lat": 38.90060833333333, "type": "electric_scooter", "lon": -76.93382683333333, "bike_id": "e5ae91f977e35b519112af39e465fa8c", "rental_uris": {"android": "https://dc.lft.to/lastmile_qr_scan", "ios": "https://dc.lft.to/lastmile_qr_scan"}, "name": "e5ae91f977e35b519112af39e465fa8c", "is_reserved": 0}, {"is_disabled": 0, "fusion_lon": 0.0, "fusion_lat": 0.0, "lat": 38.9313715, "type": "electric_scooter", "lon": -77.0572705, "bike_id": "cd77d88b1d38db0b6f69fcbcf40c462d", "rental_uris": {"android": "https://dc.lft.to/lastmile_qr_scan", "ios": "https://dc.lft.to/lastmile_qr_scan"}, "name": "cd77d88b1d38db0b6f69fcbcf40c462d", "is_reserved": 0}, {"is_disabled": 0, "fusion_lon": 0.0, "fusion_lat": 0.0, "lat": 39.054575, "type": "electric_bike", "lon": -77.143276, "bike_id": "78d7894c94f75c4f74a9e251f5a31986", "rental_uris": {"android": "https://dc.lft.to/lastmile_qr_scan", "ios": "https://dc.lft.to/lastmile_qr_scan"}, "name": "78d7894c94f75c4f74a9e251f5a31986", "is_reserved": 0}, {"is_disabled": 0, "fusion_lon": 0.0, "fusion_lat": 0.0, "lat": 38.776191, "type": "electric_bike", "lon": -77.08349783333334, "bike_id": "cabe190602a21d7a7bbb62b09d912cf1", "rental_uris": {"android": "https://dc.lft.to/lastmile_qr_scan", "ios": "https://dc.lft.to/lastmile_qr_scan"}, "name": "cabe190602a21d7a7bbb62b09d912cf1", "is_reserved": 0}, {"is_disabled": 0, "fusion_lon": 0.0, "fusion_lat": 0.0, "lat": 38.8968805, "type": "electric_scooter", "lon": -77.00495566666666, "bike_id": "0d860bf14d64337945774f7871ef0320", "rental_uris": {"android": "https://dc.lft.to/lastmile_qr_scan", "ios": "https://dc.lft.to/lastmile_qr_scan"}, "name": "0d860bf14d64337945774f7871ef0320", "is_reserved": 0}, {"is_disabled": 0, "fusion_lon": 0.0, "fusion_lat": 0.0, "lat": 38.9085215, "type": "electric_scooter", "lon": -77.05506966666667, "bike_id": "bb453257fd7015018eef5a902dbc254a", "rental_uris": {"android": "https://dc.lft.to/lastmile_qr_scan", "ios": "https://dc.lft.to/lastmile_qr_scan"}, "name": "bb453257fd7015018eef5a902dbc254a", "is_reserved": 0}, {"is_disabled": 0, "fusion_lon": 0.0, "fusion_lat": 0.0, "lat": 38.905082166666666, "type": "electric_scooter", "lon": -76.98238466666666, "bike_id": "da558ba3820e1aed77cfc837bb264b7c", "rental_uris": {"android": "https://dc.lft.to/lastmile_qr_scan", "ios": "https://dc.lft.to/lastmile_qr_scan"}, "name": "da558ba3820e1aed77cfc837bb264b7c", "is_reserved": 0}, {"is_disabled": 0, "fusion_lon": 0.0, "fusion_lat": 0.0, "lat": 38.8875015, "type": "electric_scooter", "lon": -77.014332, "bike_id": "31c55b21ef301687618570b0edaae8cd", "rental_uris": {"android": "https://dc.lft.to/lastmile_qr_scan", "ios": "https://dc.lft.to/lastmile_qr_scan"}, "name": "31c55b21ef301687618570b0edaae8cd", "is_reserved": 0}, {"is_disabled": 0, "fusion_lon": 0.0, "fusion_lat": 0.0, "lat": 38.89726666666667, "type": "electric_scooter", "lon": -77.04163433333333, "bike_id": "627df210dd0b8e216bd081d3d7005324", "rental_uris": {"android": "https://dc.lft.to/lastmile_qr_scan", "ios": "https://dc.lft.to/lastmile_qr_scan"}, "name": "627df210dd0b8e216bd081d3d7005324", "is_reserved": 0}, {"is_disabled": 0, "fusion_lon": 0.0, "fusion_lat": 0.0, "lat": 38.893869, "type": "electric_scooter", "lon": -76.9499275, "bike_id": "22229f521c61030ccfa0819b85e7d96f", "rental_uris": {"android": "https://dc.lft.to/lastmile_qr_scan", "ios": "https://dc.lft.to/lastmile_qr_scan"}, "name": "22229f521c61030ccfa0819b85e7d96f", "is_reserved": 0}, {"is_disabled": 0, "fusion_lon": 0.0, "fusion_lat": 0.0, "lat": 38.8895565, "type": "electric_scooter", "lon": -76.99140716666666, "bike_id": "0ad628eb5f727b5d26a213ac2119feb4", "rental_uris": {"android": "https://dc.lft.to/lastmile_qr_scan", "ios": "https://dc.lft.to/lastmile_qr_scan"}, "name": "0ad628eb5f727b5d26a213ac2119feb4", "is_reserved": 0}, {"is_disabled": 0, "fusion_lon": 0.0, "fusion_lat": 0.0, "lat": 38.8885175, "type": "electric_bike", "lon": -76.97700766666667, "bike_id": "fd706ed52493cf832198fd4cd6489813", "rental_uris": {"android": "https://dc.lft.to/lastmile_qr_scan", "ios": "https://dc.lft.to/lastmile_qr_scan"}, "name": "fd706ed52493cf832198fd4cd6489813", "is_reserved": 0}, {"is_disabled": 0, "fusion_lon": 0.0, "fusion_lat": 0.0, "lat": 38.9103455, "type": "electric_scooter", "lon": -77.03798833333333, "bike_id": "1b037182c612e7f4740049472265cb3f", "rental_uris": {"android": "https://dc.lft.to/lastmile_qr_scan", "ios": "https://dc.lft.to/lastmile_qr_scan"}, "name": "1b037182c612e7f4740049472265cb3f", "is_reserved": 0}, {"is_disabled": 0, "fusion_lon": 0.0, "fusion_lat": 0.0, "lat": 38.92837166666666, "type": "electric_scooter", "lon": -77.05534966666667, "bike_id": "b76f1673e8b2504709cd075111762df1", "rental_uris": {"android": "https://dc.lft.to/lastmile_qr_scan", "ios": "https://dc.lft.to/lastmile_qr_scan"}, "name": "b76f1673e8b2504709cd075111762df1", "is_reserved": 0}, {"is_disabled": 0, "fusion_lon": 0.0, "fusion_lat": 0.0, "lat": 38.90317366666667, "type": "electric_scooter", "lon": -77.01884333333334, "bike_id": "7dda7f11ae00c1a8b2e3805b95d9701b", "rental_uris": {"android": "https://dc.lft.to/lastmile_qr_scan", "ios": "https://dc.lft.to/lastmile_qr_scan"}, "name": "7dda7f11ae00c1a8b2e3805b95d9701b", "is_reserved": 0}, {"is_disabled": 0, "fusion_lon": 0.0, "fusion_lat": 0.0, "lat": 38.91089733333333, "type": "electric_scooter", "lon": -77.03854716666666, "bike_id": "fae36c1239a2d355c2366e45b62593f6", "rental_uris": {"android": "https://dc.lft.to/lastmile_qr_scan", "ios": "https://dc.lft.to/lastmile_qr_scan"}, "name": "fae36c1239a2d355c2366e45b62593f6", "is_reserved": 0}, {"is_disabled": 0, "fusion_lon": 0.0, "fusion_lat": 0.0, "lat": 38.921034666666664, "type": "electric_scooter", "lon": -77.03048183333334, "bike_id": "3725b57258621732b89f4ee000f8720a", "rental_uris": {"android": "https://dc.lft.to/lastmile_qr_scan", "ios": "https://dc.lft.to/lastmile_qr_scan"}, "name": "3725b57258621732b89f4ee000f8720a", "is_reserved": 0}, {"is_disabled": 0, "fusion_lon": 0.0, "fusion_lat": 0.0, "lat": 38.90824333333333, "type": "electric_scooter", "lon": -77.041595, "bike_id": "cc3eb6a6b3147f082053578703d83a45", "rental_uris": {"android": "https://dc.lft.to/lastmile_qr_scan", "ios": "https://dc.lft.to/lastmile_qr_scan"}, "name": "cc3eb6a6b3147f082053578703d83a45", "is_reserved": 0}, {"is_disabled": 0, "fusion_lon": 0.0, "fusion_lat": 0.0, "lat": 38.931403333333336, "type": "electric_scooter", "lon": -77.03454916666666, "bike_id": "462da9207b02a33a2d5362c91fe008d6", "rental_uris": {"android": "https://dc.lft.to/lastmile_qr_scan", "ios": "https://dc.lft.to/lastmile_qr_scan"}, "name": "462da9207b02a33a2d5362c91fe008d6", "is_reserved": 0}, {"is_disabled": 0, "fusion_lon": 0.0, "fusion_lat": 0.0, "lat": 38.876608833333336, "type": "electric_scooter", "lon": -77.0156685, "bike_id": "fcc10245e54f2bd3e4f5f5096c77f5aa", "rental_uris": {"android": "https://dc.lft.to/lastmile_qr_scan", "ios": "https://dc.lft.to/lastmile_qr_scan"}, "name": "fcc10245e54f2bd3e4f5f5096c77f5aa", "is_reserved": 0}, {"is_disabled": 0, "fusion_lon": 0.0, "fusion_lat": 0.0, "lat": 38.90967966666667, "type": "electric_scooter", "lon": -77.0807285, "bike_id": "5ccde0e014d7512096c5f6108e9467c2", "rental_uris": {"android": "https://dc.lft.to/lastmile_qr_scan", "ios": "https://dc.lft.to/lastmile_qr_scan"}, "name": "5ccde0e014d7512096c5f6108e9467c2", "is_reserved": 0}, {"is_disabled": 0, "fusion_lon": 0.0, "fusion_lat": 0.0, "lat": 38.88232983333333, "type": "electric_bike", "lon": -77.112802, "bike_id": "b1318affa9f5843e1c10c09c1820ce7c", "rental_uris": {"android": "https://dc.lft.to/lastmile_qr_scan", "ios": "https://dc.lft.to/lastmile_qr_scan"}, "name": "b1318affa9f5843e1c10c09c1820ce7c", "is_reserved": 0}, {"is_disabled": 0, "fusion_lon": 0.0, "fusion_lat": 0.0, "lat": 38.9044325, "type": "electric_scooter", "lon": -77.02898516666667, "bike_id": "4069598431e41b47e5878deda9b10913", "rental_uris": {"android": "https://dc.lft.to/lastmile_qr_scan", "ios": "https://dc.lft.to/lastmile_qr_scan"}, "name": "4069598431e41b47e5878deda9b10913", "is_reserved": 0}, {"is_disabled": 0, "fusion_lon": 0.0, "fusion_lat": 0.0, "lat": 38.89825066666667, "type": "electric_scooter", "lon": -76.9465185, "bike_id": "b9dafc33a528872cbbead1e725538d24", "rental_uris": {"android": "https://dc.lft.to/lastmile_qr_scan", "ios": "https://dc.lft.to/lastmile_qr_scan"}, "name": "b9dafc33a528872cbbead1e725538d24", "is_reserved": 0}, {"is_disabled": 0, "fusion_lon": 0.0, "fusion_lat": 0.0, "lat": 38.886551833333336, "type": "electric_scooter", "lon": -77.02825316666667, "bike_id": "a54430c67dcd914a0476112fe9ab9563", "rental_uris": {"android": "https://dc.lft.to/lastmile_qr_scan", "ios": "https://dc.lft.to/lastmile_qr_scan"}, "name": "a54430c67dcd914a0476112fe9ab9563", "is_reserved": 0}, {"is_disabled": 0, "fusion_lon": 0.0, "fusion_lat": 0.0, "lat": 38.931046333333335, "type": "electric_scooter", "lon": -77.03834716666667, "bike_id": "2f250739c2e883181499850e90387227", "rental_uris": {"android": "https://dc.lft.to/lastmile_qr_scan", "ios": "https://dc.lft.to/lastmile_qr_scan"}, "name": "2f250739c2e883181499850e90387227", "is_reserved": 0}, {"is_disabled": 0, "fusion_lon": 0.0, "fusion_lat": 0.0, "lat": 38.90043466666667, "type": "electric_scooter", "lon": -77.00053866666667, "bike_id": "7707ddaf039307e27fb8eea5b35ddcda", "rental_uris": {"android": "https://dc.lft.to/lastmile_qr_scan", "ios": "https://dc.lft.to/lastmile_qr_scan"}, "name": "7707ddaf039307e27fb8eea5b35ddcda", "is_reserved": 0}, {"is_disabled": 0, "fusion_lon": 0.0, "fusion_lat": 0.0, "lat": 38.9531095, "type": "electric_scooter", "lon": -77.03600416666667, "bike_id": "c62882b53426a3c16a29046ebef9ff39", "rental_uris": {"android": "https://dc.lft.to/lastmile_qr_scan", "ios": "https://dc.lft.to/lastmile_qr_scan"}, "name": "c62882b53426a3c16a29046ebef9ff39", "is_reserved": 0},