{"data": {"bikes": [{"bike_id": "8b5aa79adb67d9be807735c95408d1c2", "type": "electric_scooter", "is_disabled": 0, "lat": 38.92054483333333, "rental_uris": {"ios": "https://dc.lft.to/lastmile_qr_scan", "android": "https://dc.lft.to/lastmile_qr_scan"}, "is_reserved": 0, "fusion_lon": 0.0, "fusion_lat": 0.0, "lon": -76.9987535, "name": "8b5aa79adb67d9be807735c95408d1c2"}, {"bike_id": "a3b96b72f230f62af26e18ee32ee9709", "type": "electric_scooter", "is_disabled": 0, "lat": 38.916828333333335, "rental_uris": {"ios": "https://dc.lft.to/lastmile_qr_scan", "android": "https://dc.lft.to/lastmile_qr_scan"}, "is_reserved": 0, "fusion_lon": 0.0, "fusion_lat": 0.0, "lon": -77.03051116666667, "name": "a3b96b72f230f62af26e18ee32ee9709"}, {"bike_id": "8ffdcba8ec295a8ea5836f096424a4b7", "type": "electric_scooter", "is_disabled": 0, "lat": 38.876316, "rental_uris": {"ios": "https://dc.lft.to/lastmile_qr_scan", "android": "https://dc.lft.to/lastmile_qr_scan"}, "is_reserved": 0, "fusion_lon": 0.0, "fusion_lat": 0.0, "lon": -76.9652195, "name": "8ffdcba8ec295a8ea5836f096424a4b7"}, {"bike_id": "e1032afcba2e68dc1b799fd7097924f5", "type": "electric_scooter", "is_disabled": 0, "lat": 38.956193166666665, "rental_uris": {"ios": "https://dc.lft.to/lastmile_qr_scan", "android": "https://dc.lft.to/lastmile_qr_scan"}, "is_reserved": 0, "fusion_lon": 0.0, "fusion_lat": 0.0, "lon": -77.01025216666666, "name": "e1032afcba2e68dc1b799fd7097924f5"}, {"bike_id": "f46e16162285889e78939186738e7e78", "type": "electric_scooter", "is_disabled": 0, "lat": 38.90614216666667, "rental_uris": {"ios": "https://dc.lft.to/lastmile_qr_scan", "android": "https://dc.lft.to/lastmile_qr_scan"}, "is_reserved": 0, "fusion_lon": 0.0, "fusion_lat": 0.0, "lon": -77.04688083333333, "name": "f46e16162285889e78939186738e7e78"}, {"bike_id": "a65aab1e6e38e290e76b4300d2362982", "type": "electric_scooter", "is_disabled": 0, "lat": 38.902391333333334, "rental_uris": {"ios": "https://dc.lft.to/lastmile_qr_scan", "android": "https://dc.lft.to/lastmile_qr_scan"}, "is_reserved": 0, "fusion_lon": 0.0, "fusion_lat": 0.0, "lon": -77.0432645, "name": "a65aab1e6e38e290e76b4300d2362982"}, {"bike_id": "b322c72ae72094c6f5fad8f36e5db997", "type": "electric_scooter", "is_disabled": 0, "lat": 38.93937866666667, "rental_uris": {"ios": "https://dc.lft.to/lastmile_qr_scan", "android": "https://dc.lft.to/lastmile_qr_scan"}, "is_reserved": 0, "fusion_lon": 0.0, "fusion_lat": 0.0, "lon": -77.02000483333333, "name": "b322c72ae72094c6f5fad8f36e5db997"}, {"bike_id": "254087733113bf4107f8f599c3e5e865", "type": "electric_scooter", "is_disabled": 0, "lat": 38.9023235, "rental_uris": {"ios": "https://dc.lft.to/lastmile_qr_scan", "android": "https://dc.lft.to/lastmile_qr_scan"}, "is_reserved": 0, "fusion_lon": 0.0, "fusion_lat": 0.0, "lon": -77.04025083333333, "name": "254087733113bf4107f8f599c3e5e865"}, {"bike_id": "72fc07e4152372fc2957491b42838098", "type": "electric_scooter", "is_disabled": 0, "lat": 38.91684566666667, "rental_uris": {"ios": "https://dc.lft.to/lastmile_qr_scan", "android": "https://dc.lft.to/lastmile_qr_scan"}, "is_reserved": 0, "fusion_lon": 0.0, "fusion_lat": 0.0, "lon": -77.01578733333334, "name": "72fc07e4152372fc2957491b42838098"}, {"bike_id": "d8513963ae8bd8bf106d9f42d8779880", "type": "electric_scooter", "is_disabled": 0, "lat": 38.90910316666667, "rental_uris": {"ios": "https://dc.lft.to/lastmile_qr_scan", "android": "https://dc.lft.to/lastmile_qr_scan"}, "is_reserved": 0, "fusion_lon": 0.0, "fusion_lat": 0.0, "lon": -77.043861, "name": "d8513963ae8bd8bf106d9f42d8779880"}, {"bike_id": "a918774847007b9f1fb8f0b591138666", "type": "electric_scooter", "is_disabled": 0, "lat": 38.902465166666666, "rental_uris": {"ios": "https://dc.lft.to/lastmile_qr_scan", "android": "https://dc.lft.to/lastmile_qr_scan"}, "is_reserved": 0, "fusion_lon": 0.0, "fusion_lat": 0.0, "lon": -77.02813766666667, "name": "a918774847007b9f1fb8f0b591138666"}, {"bike_id": "69d24915d6e53c460fbde8e4dc9b435d", "type": "electric_scooter", "is_disabled": 0, "lat": 38.91759283333333, "rental_uris": {"ios": "https://dc.lft.to/lastmile_qr_scan", "android": "https://dc.lft.to/lastmile_qr_scan"}, "is_reserved": 0, "fusion_lon": 0.0, "fusion_lat": 0.0, "lon": -77.01472616666666, "name": "69d24915d6e53c460fbde8e4dc9b435d"}, {"bike_id": "9feab4c58cf199e957b131e415e1e70c", "type": "electric_scooter", "is_disabled": 0, "lat": 38.897613, "rental_uris": {"ios": "https://dc.lft.to/lastmile_qr_scan", "android": "https://dc.lft.to/lastmile_qr_scan"}, "is_reserved": 0, "fusion_lon": 0.0, "fusion_lat": 0.0, "lon": -77.026789, "name": "9feab4c58cf199e957b131e415e1e70c"}, {"bike_id": "e0f56e26c7a315d1cf380232080841a5", "type": "electric_scooter", "is_disabled": 0, "lat": 38.870833833333336, "rental_uris": {"ios": "https://dc.lft.to/lastmile_qr_scan", "android": "https://dc.lft.to/lastmile_qr_scan"}, "is_reserved": 0, "fusion_lon": 0.0, "fusion_lat": 0.0, "lon": -77.01201683333333, "name": "e0f56e26c7a315d1cf380232080841a5"}, {"bike_id": "f2d2104ac5bb48724423933eb1269f3c", "type": "electric_scooter", "is_disabled": 0, "lat": 38.9116185, "rental_uris": {"ios": "https://dc.lft.to/lastmile_qr_scan", "android": "https://dc.lft.to/lastmile_qr_scan"}, "is_reserved": 0, "fusion_lon": 0.0, "fusion_lat": 0.0, "lon": -77.02003416666666, "name": "f2d2104ac5bb48724423933eb1269f3c"}, {"bike_id": "acd508df22d8c2808da20c779d0d7fa0", "type": "electric_bike", "is_disabled": 0, "lat": 38.897809, "rental_uris": {"ios": "https://dc.lft.to/lastmile_qr_scan", "android": "https://dc.lft.to/lastmile_qr_scan"}, "is_reserved": 0, "fusion_lon": 0.0, "fusion_lat": 0.0, "lon": -76.99078516666667, "name": "acd508df22d8c2808da20c779d0d7fa0"}, {"bike_id": "9ae590f40397187e431d3c67e263aa56", "type": "electric_bike", "is_disabled": 0, "lat": 38.859383333333334, "rental_uris": {"ios": "https://dc.lft.to/lastmile_qr_scan", "android": "https://dc.lft.to/lastmile_qr_scan"}, "is_reserved": 0, "fusion_lon": 0.0, "fusion_lat": 0.0, "lon": -77.11828783333333, "name": "9ae590f40397187e431d3c67e263aa56"}, {"bike_id": "2ef77aead128f828e95ed9afac553fcc", "type": "electric_scooter", "is_disabled": 0, "lat": 38.91547683333334, "rental_uris": {"ios": "https://dc.lft.to/lastmile_qr_scan", "android": "https://dc.lft.to/lastmile_qr_scan"}, "is_reserved": 0, "fusion_lon": 0.0, "fusion_lat": 0.0, "lon": -77.01221816666667, "name": "2ef77aead128f828e95ed9afac553fcc"}, {"bike_id": "d71067272c6b535b4e67c40d4079ac85", "type": "electric_bike", "is_disabled": 0, "lat": 38.82370516666667, "rental_uris": {"ios": "https://dc.lft.to/lastmile_qr_scan", "android": "https://dc.lft.to/lastmile_qr_scan"}, "is_reserved": 0, "fusion_lon": 0.0, "fusion_lat": 0.0, "lon": -77.00215333333334, "name": "d71067272c6b535b4e67c40d4079ac85"}, {"bike_id": "df06203f74382e4e43ba961a853cf765", "type": "electric_scooter", "is_disabled": 0, "lat": 38.96564333333333, "rental_uris": {"ios": "https://dc.lft.to/lastmile_qr_scan", "android": "https://dc.lft.to/lastmile_qr_scan"}, "is_reserved": 0, "fusion_lon": 0.0, "fusion_lat": 0.0, "lon": -77.02021783333333, "name": "df06203f74382e4e43ba961a853cf765"}, {"bike_id": "9b949079573c0bb1d9a47872fa3b53e3", "type": "electric_bike", "is_disabled": 0, "lat": 38.8039415, "rental_uris": {"ios": "https://dc.lft.to/lastmile_qr_scan", "android": "https://dc.lft.to/lastmile_qr_scan"}, "is_reserved": 0, "fusion_lon": 0.0, "fusion_lat": 0.0, "lon": -77.05566433333334, "name": "9b949079573c0bb1d9a47872fa3b53e3"}, {"bike_id": "631dac44839894ace998766b34ecc1e9", "type": "electric_scooter", "is_disabled": 0, "lat": 38.926827333333335, "rental_uris": {"ios": "https://dc.lft.to/lastmile_qr_scan", "android": "https://dc.lft.to/lastmile_qr_scan"}, "is_reserved": 0, "fusion_lon": 0.0, "fusion_lat": 0.0, "lon": -77.01476666666667, "name": "631dac44839894ace998766b34ecc1e9"}, {"bike_id": "5223624b8ead99e69585d0aa14e862df", "type": "electric_scooter", "is_disabled": 0, "lat": 38.891145333333334, "rental_uris": {"ios": "https://dc.lft.to/lastmile_qr_scan", "android": "https://dc.lft.to/lastmile_qr_scan"}, "is_reserved": 0, "fusion_lon": 0.0, "fusion_lat": 0.0, "lon": -77.01504633333333, "name": "5223624b8ead99e69585d0aa14e862df"}, {"bike_id": "37f0860c15270d697a2701efdc62076f", "type": "electric_scooter", "is_disabled": 0, "lat": 38.91954916666667, "rental_uris": {"ios": "https://dc.lft.to/lastmile_qr_scan", "android": "https://dc.lft.to/lastmile_qr_scan"}, "is_reserved": 0, "fusion_lon": 0.0, "fusion_lat": 0.0, "lon": -77.04516083333333, "name": "37f0860c15270d697a2701efdc62076f"}, {"bike_id": "e3ddbd1229a5ae2c6468a249435d89b8", "type": "electric_scooter", "is_disabled": 0, "lat": 38.90877583333334, "rental_uris": {"ios": "https://dc.lft.to/lastmile_qr_scan", "android": "https://dc.lft.to/lastmile_qr_scan"}, "is_reserved": 0, "fusion_lon": 0.0, "fusion_lat": 0.0, "lon": -77.00258516666666, "name": "e3ddbd1229a5ae2c6468a249435d89b8"}, {"bike_id": "670d97ad9809b6a21aa3054039fd6df1", "type": "electric_scooter", "is_disabled": 0, "lat": 38.91591666666667, "rental_uris": {"ios": "https://dc.lft.to/lastmile_qr_scan", "android": "https://dc.lft.to/lastmile_qr_scan"}, "is_reserved": 0, "fusion_lon": 0.0, "fusion_lat": 0.0, "lon": -77.031706, "name": "670d97ad9809b6a21aa3054039fd6df1"}, {"bike_id": "87261d6243028a07303cb0079067ae0e", "type": "electric_scooter", "is_disabled": 0, "lat": 38.877211333333335, "rental_uris": {"ios": "https://dc.lft.to/lastmile_qr_scan", "android": "https://dc.lft.to/lastmile_qr_scan"}, "is_reserved": 0, "fusion_lon": 0.0, "fusion_lat": 0.0, "lon": -77.0059365, "name": "87261d6243028a07303cb0079067ae0e"}, {"bike_id": "de68d65327f83531f66769b119fbeece", "type": "electric_scooter", "is_disabled": 0, "lat": 38.91672116666667, "rental_uris": {"ios": "https://dc.lft.to/lastmile_qr_scan", "android": "https://dc.lft.to/lastmile_qr_scan"}, "is_reserved": 0, "fusion_lon": 0.0, "fusion_lat": 0.0, "lon": -77.038457, "name": "de68d65327f83531f66769b119fbeece"}, {"bike_id": "408f58819d57ab34bc2b9f002d69ad3f", "type": "electric_scooter", "is_disabled": 0, "lat": 38.8844115, "rental_uris": {"ios": "https://dc.lft.to/lastmile_qr_scan", "android": "https://dc.lft.to/lastmile_qr_scan"}, "is_reserved": 0, "fusion_lon": 0.0, "fusion_lat": 0.0, "lon": -76.95754933333333, "name": "408f58819d57ab34bc2b9f002d69ad3f"}, {"bike_id": "88d54c5c84fb946d588ea1c81a6035c7", "type": "electric_scooter", "is_disabled": 0, "lat": 38.908322, "rental_uris": {"ios": "https://dc.lft.to/lastmile_qr_scan", "android": "https://dc.lft.to/lastmile_qr_scan"}, "is_reserved": 0, "fusion_lon": 0.0, "fusion_lat": 0.0, "lon": -77.03343483333333, "name": "88d54c5c84fb946d588ea1c81a6035c7"}, {"bike_id": "69b1cb9154158d0820fcdf2375b3e50a", "type": "electric_scooter", "is_disabled": 0, "lat": 38.90155333333333, "rental_uris": {"ios": "https://dc.lft.to/lastmile_qr_scan", "android": "https://dc.lft.to/lastmile_qr_scan"}, "is_reserved": 0, "fusion_lon": 0.0, "fusion_lat": 0.0, "lon": -77.02973933333334, "name": "69b1cb9154158d0820fcdf2375b3e50a"}, {"bike_id": "1403f103b2ef890dce4693b480c76c09", "type": "electric_scooter", "is_disabled": 0, "lat": 38.882203833333335, "rental_uris": {"ios": "https://dc.lft.to/lastmile_qr_scan", "android": "https://dc.lft.to/lastmile_qr_scan"}, "is_reserved": 0, "fusion_lon": 0.0, "fusion_lat": 0.0, "lon": -77.02906416666667, "name": "1403f103b2ef890dce4693b480c76c09"}, {"bike_id": "5c417b559075e30870d65bf93610b2be", "type": "electric_scooter", "is_disabled": 0, "lat": 38.901568166666664, "rental_uris": {"ios": "https://dc.lft.to/lastmile_qr_scan", "android": "https://dc.lft.to/lastmile_qr_scan"}, "is_reserved": 0, "fusion_lon": 0.0, "fusion_lat": 0.0, "lon": -76.99018183333334, "name": "5c417b559075e30870d65bf93610b2be"}, {"bike_id": "d2f08c61ab2f289434188e9ed5724afa", "type": "electric_scooter", "is_disabled": 0, "lat": 38.93042416666667, "rental_uris": {"ios": "https://dc.lft.to/lastmile_qr_scan", "android": "https://dc.lft.to/lastmile_qr_scan"}, "is_reserved": 0, "fusion_lon": 0.0, "fusion_lat": 0.0, "lon": -77.01825933333333, "name": "d2f08c61ab2f289434188e9ed5724afa"}, {"bike_id": "d80ef8745c628bdb1248645d50f29b71", "type": "electric_bike", "is_disabled": 0, "lat": 38.8651925, "rental_uris": {"ios": "https://dc.lft.to/lastmile_qr_scan", "android": "https://dc.lft.to/lastmile_qr_scan"}, "is_reserved": 0, "fusion_lon": 0.0, "fusion_lat": 0.0, "lon": -77.12936983333333, "name": "d80ef8745c628bdb1248645d50f29b71"}, {"bike_id": "981f95c6b54cffad205a21968813a53c", "type": "electric_scooter", "is_disabled": 0, "lat": 38.89705266666667, "rental_uris": {"ios": "https://dc.lft.to/lastmile_qr_scan", "android": "https://dc.lft.to/lastmile_qr_scan"}, "is_reserved": 0, "fusion_lon": 0.0, "fusion_lat": 0.0, "lon": -76.93000666666667, "name": "981f95c6b54cffad205a21968813a53c"}, {"bike_id": "f4b40c2ae03f37a3ac17b8354e4d3490", "type": "electric_scooter", "is_disabled": 0, "lat": 38.9028245, "rental_uris": {"ios": "https://dc.lft.to/lastmile_qr_scan", "android": "https://dc.lft.to/lastmile_qr_scan"}, "is_reserved": 0, "fusion_lon": 0.0, "fusion_lat": 0.0, "lon": -77.0227395, "name": "f4b40c2ae03f37a3ac17b8354e4d3490"}, {"bike_id": "d6ee0a7fd9d19bc258a9a3e03489ee97", "type": "electric_scooter", "is_disabled": 0, "lat": 38.901895333333336, "rental_uris": {"ios": "https://dc.lft.to/lastmile_qr_scan", "android": "https://dc.lft.to/lastmile_qr_scan"}, "is_reserved": 0, "fusion_lon": 0.0, "fusion_lat": 0.0, "lon": -76.9968125, "name": "d6ee0a7fd9d19bc258a9a3e03489ee97"}, {"bike_id": "b7f3224a0b598d7eb92f5f6ce502650b", "type": "electric_scooter", "is_disabled": 0, "lat": 38.91743233333333, "rental_uris": {"ios": "https://dc.lft.to/lastmile_qr_scan", "android": "https://dc.lft.to/lastmile_qr_scan"}, "is_reserved": 0, "fusion_lon": 0.0, "fusion_lat": 0.0, "lon": -77.02810383333333, "name": "b7f3224a0b598d7eb92f5f6ce502650b"}, {"bike_id": "ade3c687d9c2851432afae70c2331f5c", "type": "electric_scooter", "is_disabled": 0, "lat": 38.866328333333335, "rental_uris": {"ios": "https://dc.lft.to/lastmile_qr_scan", "android": "https://dc.lft.to/lastmile_qr_scan"}, "is_reserved": 0, "fusion_lon": 0.0, "fusion_lat": 0.0, "lon": -76.98711983333334, "name": "ade3c687d9c2851432afae70c2331f5c"}, {"bike_id": "7838b7c8b69dab715b75b3343cc38300", "type": "electric_scooter", "is_disabled": 0, "lat": 38.897620833333335, "rental_uris": {"ios": "https://dc.lft.to/lastmile_qr_scan", "android": "https://dc.lft.to/lastmile_qr_scan"}, "is_reserved": 0, "fusion_lon": 0.0, "fusion_lat": 0.0, "lon": -77.0268135, "name": "7838b7c8b69dab715b75b3343cc38300"}, {"bike_id": "09c29f5d4b594d14b9e1b835986de5d6", "type": "electric_scooter", "is_disabled": 0, "lat": 38.88639883333333, "rental_uris": {"ios": "https://dc.lft.to/lastmile_qr_scan", "android": "https://dc.lft.to/lastmile_qr_scan"}, "is_reserved": 0, "fusion_lon": 0.0, "fusion_lat": 0.0, "lon": -77.0213475, "name": "09c29f5d4b594d14b9e1b835986de5d6"}, {"bike_id": "e74eac7eb935c63abdc38a1cfb1241d5", "type": "electric_scooter", "is_disabled": 0, "lat": 38.90563933333333, "rental_uris": {"ios": "https://dc.lft.to/lastmile_qr_scan", "android": "https://dc.lft.to/lastmile_qr_scan"}, "is_reserved": 0, "fusion_lon": 0.0, "fusion_lat": 0.0, "lon": -77.01635616666667, "name": "e74eac7eb935c63abdc38a1cfb1241d5"}, {"bike_id": "87c328002a2bbf128060afe7ea0f4158", "type": "electric_scooter", "is_disabled": 0, "lat": 38.9336175, "rental_uris": {"ios": "https://dc.lft.to/lastmile_qr_scan", "android": "https://dc.lft.to/lastmile_qr_scan"}, "is_reserved": 0, "fusion_lon": 0.0, "fusion_lat": 0.0, "lon": -77.08855866666667, "name": "87c328002a2bbf128060afe7ea0f4158"}, {"bike_id": "dbcf57d5d474cbef6194f6d82faa1821", "type": "electric_scooter", "is_disabled": 0, "lat": 38.90915233333333, "rental_uris": {"ios": "https://dc.lft.to/lastmile_qr_scan", "android": "https://dc.lft.to/lastmile_qr_scan"}, "is_reserved": 0, "fusion_lon": 0.0, "fusion_lat": 0.0, "lon": -77.01894533333333, "name": "dbcf57d5d474cbef6194f6d82faa1821"}, {"bike_id": "5314310bfb6ee98f97be468fdd928ddb", "type": "electric_scooter", "is_disabled": 0, "lat": 38.90012983333333, "rental_uris": {"ios": "https://dc.lft.to/lastmile_qr_scan", "android": "https://dc.lft.to/lastmile_qr_scan"}, "is_reserved": 0, "fusion_lon": 0.0, "fusion_lat": 0.0, "lon": -77.00697266666667, "name": "5314310bfb6ee98f97be468fdd928ddb"}, {"bike_id": "d8faa78fd0e7f0b6928055f82581ce78", "type": "electric_scooter", "is_disabled": 0, "lat": 38.9720185, "rental_uris": {"ios": "https://dc.lft.to/lastmile_qr_scan", "android": "https://dc.lft.to/lastmile_qr_scan"}, "is_reserved": 0, "fusion_lon": 0.0, "fusion_lat": 0.0, "lon": -77.02653666666667, "name": "d8faa78fd0e7f0b6928055f82581ce78"}, {"bike_id": "33bdc0d6954c21b672d9fc27d11eba01", "type": "electric_scooter", "is_disabled": 0, "lat": 38.90561833333334, "rental_uris": {"ios": "https://dc.lft.to/lastmile_qr_scan", "android": "https://dc.lft.to/lastmile_qr_scan"}, "is_reserved": 0, "fusion_lon": 0.0, "fusion_lat": 0.0, "lon": -77.044201, "name": "33bdc0d6954c21b672d9fc27d11eba01"}, {"bike_id": "bf983e9605350d7cdf6f183f0a31eafd", "type": "electric_scooter", "is_disabled": 0, "lat": 38.90575166666667, "rental_uris": {"ios": "https://dc.lft.to/lastmile_qr_scan", "android": "https://dc.lft.to/lastmile_qr_scan"}, "is_reserved": 0, "fusion_lon": 0.0, "fusion_lat": 0.0, "lon": -77.022163, "name": "bf983e9605350d7cdf6f183f0a31eafd"}, {"bike_id": "6c8996b2e73c7fd1d7d57b48ecbb86eb", "type": "electric_scooter", "is_disabled": 0, "lat": 38.902631166666666, "rental_uris": {"ios": "https://dc.lft.to/lastmile_qr_scan", "android": "https://dc.lft.to/lastmile_qr_scan"}, "is_reserved": 0, "fusion_lon": 0.0, "fusion_lat": 0.0, "lon": -76.9754975, "name": "6c8996b2e73c7fd1d7d57b48ecbb86eb"}, {"bike_id": "62f06cdb62d96064cda5c2834cba2c91", "type": "electric_scooter", "is_disabled": 0, "lat": 38.91519383333333, "rental_uris": {"ios": "https://dc.lft.to/lastmile_qr_scan", "android": "https://dc.lft.to/lastmile_qr_scan"}, "is_reserved": 0, "fusion_lon": 0.0, "fusion_lat": 0.0, "lon": -77.01221766666667, "name": "62f06cdb62d96064cda5c2834cba2c91"}, {"bike_id": "658cdeb0b3e61413a3447f74cb730d0e", "type": "electric_scooter", "is_disabled": 0, "lat": 38.900583, "rental_uris": {"ios": "https://dc.lft.to/lastmile_qr_scan", "android": "https://dc.lft.to/lastmile_qr_scan"}, "is_reserved": 0, "fusion_lon": 0.0, "fusion_lat": 0.0, "lon": -77.0364475, "name": "658cdeb0b3e61413a3447f74cb730d0e"}, {"bike_id": "246d50887274acbd137a59587cbe160e", "type": "electric_scooter", "is_disabled": 0, "lat": 38.90969666666667, "rental_uris": {"ios": "https://dc.lft.to/lastmile_qr_scan", "android": "https://dc.lft.to/lastmile_qr_scan"}, "is_reserved": 0, "fusion_lon": 0.0, "fusion_lat": 0.0, "lon": -77.03817116666667, "name": "246d50887274acbd137a59587cbe160e"}, {"bike_id": "3b50466e6cbc42af09eda5079597ee8f", "type": "electric_scooter", "is_disabled": 0, "lat": 38.892755, "rental_uris": {"ios": "https://dc.lft.to/lastmile_qr_scan", "android": "https://dc.lft.to/lastmile_qr_scan"}, "is_reserved": 0, "fusion_lon": 0.0, "fusion_lat": 0.0, "lon": -77.0487595, "name": "3b50466e6cbc42af09eda5079597ee8f"}, {"bike_id": "7aa425836f7a48db47de8ebde29e657e", "type": "electric_scooter", "is_disabled": 0, "lat": 38.9036215, "rental_uris": {"ios": "https://dc.lft.to/lastmile_qr_scan", "android": "https://dc.lft.to/lastmile_qr_scan"}, "is_reserved": 0, "fusion_lon": 0.0, "fusion_lat": 0.0, "lon": -77.038204, "name": "7aa425836f7a48db47de8ebde29e657e"}, {"bike_id": "a7e425caab8e7dcc790b08d6b2b829b5", "type": "electric_scooter", "is_disabled": 0, "lat": 38.91711683333333, "rental_uris": {"ios": "https://dc.lft.to/lastmile_qr_scan", "android": "https://dc.lft.to/lastmile_qr_scan"}, "is_reserved": 0, "fusion_lon": 0.0, "fusion_lat": 0.0, "lon": -77.04614166666667, "name": "a7e425caab8e7dcc790b08d6b2b829b5"}, {"bike_id": "9869755a81298e7889b9fb9c46fffeba", "type": "electric_scooter", "is_disabled": 0, "lat": 38.9210225, "rental_uris": {"ios": "https://dc.lft.to/lastmile_qr_scan", "android": "https://dc.lft.to/lastmile_qr_scan"}, "is_reserved": 0, "fusion_lon": 0.0, "fusion_lat": 0.0, "lon": -77.02521283333333, "name": "9869755a81298e7889b9fb9c46fffeba"}, {"bike_id": "387335f85b5bcb6d414b62f36098075c", "type": "electric_scooter", "is_disabled": 0, "lat": 38.940165666666665, "rental_uris": {"ios": "https://dc.lft.to/lastmile_qr_scan", "android": "https://dc.lft.to/lastmile_qr_scan"}, "is_reserved": 0, "fusion_lon": 0.0, "fusion_lat": 0.0, "lon": -77.02751983333333, "name": "387335f85b5bcb6d414b62f36098075c"}, {"bike_id": "2b44bdfc712d04301a96005d0ae7e539", "type": "electric_bike", "is_disabled": 0, "lat": 39.0399325, "rental_uris": {"ios": "https://dc.lft.to/lastmile_qr_scan", "android": "https://dc.lft.to/lastmile_qr_scan"}, "is_reserved": 0, "fusion_lon": 0.0, "fusion_lat": 0.0, "lon": -76.9992585, "name": "2b44bdfc712d04301a96005d0ae7e539"}, {"bike_id": "f8a4c59cbf03a21d473067e419227a83", "type": "electric_scooter", "is_disabled": 0, "lat": 38.922238, "rental_uris": {"ios": "https://dc.lft.to/lastmile_qr_scan", "android": "https://dc.lft.to/lastmile_qr_scan"}, "is_reserved": 0, "fusion_lon": 0.0, "fusion_lat": 0.0, "lon": -77.03458133333334, "name": "f8a4c59cbf03a21d473067e419227a83"}, {"bike_id": "2ace9c2f75f0ab7ab79b91228bc361f2", "type": "electric_bike", "is_disabled": 0, "lat": 38.889312833333335, "rental_uris": {"ios": "https://dc.lft.to/lastmile_qr_scan", "android": "https://dc.lft.to/lastmile_qr_scan"}, "is_reserved": 0, "fusion_lon": 0.0, "fusion_lat": 0.0, "lon": -76.9917285, "name": "2ace9c2f75f0ab7ab79b91228bc361f2"}, {"bike_id": "775ffa47e80252ee27e093833d82412d", "type": "electric_scooter", "is_disabled": 0, "lat": 38.92884866666667, "rental_uris": {"ios": "https://dc.lft.to/lastmile_qr_scan", "android": "https://dc.lft.to/lastmile_qr_scan"}, "is_reserved": 0, "fusion_lon": 0.0, "fusion_lat": 0.0, "lon": -77.03300416666667, "name": "775ffa47e80252ee27e093833d82412d"}, {"bike_id": "aa57398e7e64857246f656db6c103e49", "type": "electric_scooter", "is_disabled": 0, "lat": 38.88191233333333, "rental_uris": {"ios": "https://dc.lft.to/lastmile_qr_scan", "android": "https://dc.lft.to/lastmile_qr_scan"}, "is_reserved": 0, "fusion_lon": 0.0, "fusion_lat": 0.0, "lon": -77.0281275, "name": "aa57398e7e64857246f656db6c103e49"}, {"bike_id": "f4d1ad69b7a8358de96aeef92ada4526", "type": "electric_scooter", "is_disabled": 0, "lat": 38.902009666666665, "rental_uris": {"ios": "https://dc.lft.to/lastmile_qr_scan", "android": "https://dc.lft.to/lastmile_qr_scan"}, "is_reserved": 0, "fusion_lon": 0.0, "fusion_lat": 0.0, "lon": -76.988392, "name": "f4d1ad69b7a8358de96aeef92ada4526"}, {"bike_id": "300a7f5011dd7b29a9181ae7969e25b9", "type": "electric_scooter", "is_disabled": 0, "lat": 38.905274666666664, "rental_uris": {"ios": "https://dc.lft.to/lastmile_qr_scan", "android": "https://dc.lft.to/lastmile_qr_scan"}, "is_reserved": 0, "fusion_lon": 0.0, "fusion_lat": 0.0, "lon": -77.05019783333333, "name": "300a7f5011dd7b29a9181ae7969e25b9"}, {"bike_id": "cf8acf93a173b45919ef44dd48e4a2ca", "type": "electric_bike", "is_disabled": 0, "lat": 39.034082166666664, "rental_uris": {"ios": "https://dc.lft.to/lastmile_qr_scan", "android": "https://dc.lft.to/lastmile_qr_scan"}, "is_reserved": 0, "fusion_lon": 0.0, "fusion_lat": 0.0, "lon": -77.04164533333334, "name": "cf8acf93a173b45919ef44dd48e4a2ca"}, {"bike_id": "35aa8e94918b0137b7cb5b3838950bf7", "type": "electric_scooter", "is_disabled": 0, "lat": 38.905994, "rental_uris": {"ios": "https://dc.lft.to/lastmile_qr_scan", "android": "https://dc.lft.to/lastmile_qr_scan"}, "is_reserved": 0, "fusion_lon": 0.0, "fusion_lat": 0.0, "lon": -77.04113216666667, "name": "35aa8e94918b0137b7cb5b3838950bf7"}, {"bike_id": "b5362e33cc1ac19a924ed85cb31855d6", "type": "electric_scooter", "is_disabled": 0, "lat": 38.919306666666664, "rental_uris": {"ios": "https://dc.lft.to/lastmile_qr_scan", "android": "https://dc.lft.to/lastmile_qr_scan"}, "is_reserved": 0, "fusion_lon": 0.0, "fusion_lat": 0.0, "lon": -77.03178266666667, "name": "b5362e33cc1ac19a924ed85cb31855d6"}, {"bike_id": "3af7cadb1ccbe61b19fdb2bf11c20876", "type": "electric_scooter", "is_disabled": 0, "lat": 38.903080333333335, "rental_uris": {"ios": "https://dc.lft.to/lastmile_qr_scan", "android": "https://dc.lft.to/lastmile_qr_scan"}, "is_reserved": 0, "fusion_lon": 0.0, "fusion_lat": 0.0, "lon": -77.050549, "name": "3af7cadb1ccbe61b19fdb2bf11c20876"}, {"bike_id": "d2b54831a165a9846d14d11812ed057b", "type": "electric_scooter", "is_disabled": 0, "lat": 38.92343416666667, "rental_uris": {"ios": "https://dc.lft.to/lastmile_qr_scan", "android": "https://dc.lft.to/lastmile_qr_scan"}, "is_reserved": 0, "fusion_lon": 0.0, "fusion_lat": 0.0, "lon": -77.05093766666667, "name": "d2b54831a165a9846d14d11812ed057b"}, {"bike_id": "67acb0fa296e9c3a6396a29d4cd8bd31", "type": "electric_scooter", "is_disabled": 0, "lat": 38.8974115, "rental_uris": {"ios": "https://dc.lft.to/lastmile_qr_scan", "android": "https://dc.lft.to/lastmile_qr_scan"}, "is_reserved": 0, "fusion_lon": 0.0, "fusion_lat": 0.0, "lon": -76.94724216666667, "name": "67acb0fa296e9c3a6396a29d4cd8bd31"}, {"bike_id": "0fefd3d658de17d01b310d983e35bb89", "type": "electric_scooter", "is_disabled": 0, "lat": 38.915524166666664, "rental_uris": {"ios": "https://dc.lft.to/lastmile_qr_scan", "android": "https://dc.lft.to/lastmile_qr_scan"}, "is_reserved": 0, "fusion_lon": 0.0, "fusion_lat": 0.0, "lon": -77.02557133333333, "name": "0fefd3d658de17d01b310d983e35bb89"}, {"bike_id": "626e259de6597027febd16f00d1349b9", "type": "electric_scooter", "is_disabled": 0, "lat": 38.91972666666667, "rental_uris": {"ios": "https://dc.lft.to/lastmile_qr_scan", "android": "https://dc.lft.to/lastmile_qr_scan"}, "is_reserved": 0, "fusion_lon": 0.0, "fusion_lat": 0.0, "lon": -77.03942766666667, "name": "626e259de6597027febd16f00d1349b9"}, {"bike_id": "a1ef1651ff2b6fa752884abf26609de7", "type": "electric_scooter", "is_disabled": 0, "lat": 38.8757675, "rental_uris": {"ios": "https://dc.lft.to/lastmile_qr_scan", "android": "https://dc.lft.to/lastmile_qr_scan"}, "is_reserved": 0, "fusion_lon": 0.0, "fusion_lat": 0.0, "lon": -77.01274033333333, "name": "a1ef1651ff2b6fa752884abf26609de7"}, {"bike_id": "3c82c6c375ae67fdf1d058ccb956edb0", "type": "electric_scooter", "is_disabled": 0, "lat": 38.93025433333333, "rental_uris": {"ios": "https://dc.lft.to/lastmile_qr_scan", "android": "https://dc.lft.to/lastmile_qr_scan"}, "is_reserved": 0, "fusion_lon": 0.0, "fusion_lat": 0.0, "lon": -77.02081683333333, "name": "3c82c6c375ae67fdf1d058ccb956edb0"}, {"bike_id": "fd1ff3be44b78d90feee56a520486e2b", "type": "electric_bike", "is_disabled": 0, "lat": 38.9568915, "rental_uris": {"ios": "https://dc.lft.to/lastmile_qr_scan", "android": "https://dc.lft.to/lastmile_qr_scan"}, "is_reserved": 0, "fusion_lon": 0.0, "fusion_lat": 0.0, "lon": -77.0223175, "name": "fd1ff3be44b78d90feee56a520486e2b"}, {"bike_id": "5b6ee525fa69df0e8891ce314ebe1bcd", "type": "electric_scooter", "is_disabled": 0, "lat": 38.9168595, "rental_uris": {"ios": "https://dc.lft.to/lastmile_qr_scan", "android": "https://dc.lft.to/lastmile_qr_scan"}, "is_reserved": 0, "fusion_lon": 0.0, "fusion_lat": 0.0, "lon": -77.02353033333333, "name": "5b6ee525fa69df0e8891ce314ebe1bcd"}, {"bike_id": "258fd921f3490a7600727f2c9cb33b77", "type": "electric_scooter", "is_disabled": 0, "lat": 38.92064766666667, "rental_uris": {"ios": "https://dc.lft.to/lastmile_qr_scan", "android": "https://dc.lft.to/lastmile_qr_scan"}, "is_reserved": 0, "fusion_lon": 0.0, "fusion_lat": 0.0, "lon": -77.03460033333333, "name": "258fd921f3490a7600727f2c9cb33b77"}, {"bike_id": "3cf2443df3d97ef92a48fdb368254f90", "type": "electric_scooter", "is_disabled": 0, "lat": 38.89669983333334, "rental_uris": {"ios": "https://dc.lft.to/lastmile_qr_scan", "android": "https://dc.lft.to/lastmile_qr_scan"}, "is_reserved": 0, "fusion_lon": 0.0, "fusion_lat": 0.0, "lon": -76.98816, "name": "3cf2443df3d97ef92a48fdb368254f90"}, {"bike_id": "d346f699636fd7dc5adb479f98bfea23", "type": "electric_scooter", "is_disabled": 0, "lat": 38.910627166666664, "rental_uris": {"ios": "https://dc.lft.to/lastmile_qr_scan", "android": "https://dc.lft.to/lastmile_qr_scan"}, "is_reserved": 0, "fusion_lon": 0.0, "fusion_lat": 0.0, "lon": -77.05285883333333, "name": "d346f699636fd7dc5adb479f98bfea23"}, {"bike_id": "416e7afa144ecaaae41876c48de82890", "type": "electric_scooter", "is_disabled": 0, "lat": 38.9082595, "rental_uris": {"ios": "https://dc.lft.to/lastmile_qr_scan", "android": "https://dc.lft.to/lastmile_qr_scan"}, "is_reserved": 0, "fusion_lon": 0.0, "fusion_lat": 0.0, "lon": -77.03663, "name": "416e7afa144ecaaae41876c48de82890"}, {"bike_id": "7c619cb0fad4d1aa77f51f0a7dfaaaf5", "type": "electric_scooter", "is_disabled": 0, "lat": 38.917171, "rental_uris": {"ios": "https://dc.lft.to/lastmile_qr_scan", "android": "https://dc.lft.to/lastmile_qr_scan"}, "is_reserved": 0, "fusion_lon": 0.0, "fusion_lat": 0.0, "lon": -77.046077, "name": "7c619cb0fad4d1aa77f51f0a7dfaaaf5"}, {"bike_id": "4b9a7ac734b95268867291b4f7548bad", "type": "electric_scooter", "is_disabled": 0, "lat": 38.89202183333333, "rental_uris": {"ios": "https://dc.lft.to/lastmile_qr_scan", "android": "https://dc.lft.to/lastmile_qr_scan"}, "is_reserved": 0, "fusion_lon": 0.0, "fusion_lat": 0.0, "lon": -77.002304, "name": "4b9a7ac734b95268867291b4f7548bad"}, {"bike_id": "168edc651236f2460636d2988f1acfe3", "type": "electric_scooter", "is_disabled": 0, "lat": 38.877891, "rental_uris": {"ios": "https://dc.lft.to/lastmile_qr_scan", "android": "https://dc.lft.to/lastmile_qr_scan"}, "is_reserved": 0, "fusion_lon": 0.0, "fusion_lat": 0.0, "lon": -77.0174205, "name": "168edc651236f2460636d2988f1acfe3"}, {"bike_id": "68c988d8e6271a24938bfce374f12472", "type": "electric_scooter", "is_disabled": 0, "lat": 38.96603983333333, "rental_uris": {"ios": "https://dc.lft.to/lastmile_qr_scan", "android": "https://dc.lft.to/lastmile_qr_scan"}, "is_reserved": 0, "fusion_lon": 0.0, "fusion_lat": 0.0, "lon": -77.0197865, "name": "68c988d8e6271a24938bfce374f12472"}, {"bike_id": "9fc99d278ab57d70e5ff5cbbe4fcd97f", "type": "electric_scooter", "is_disabled": 0, "lat": 38.91920283333333, "rental_uris": {"ios": "https://dc.lft.to/lastmile_qr_scan", "android": "https://dc.lft.to/lastmile_qr_scan"}, "is_reserved": 0, "fusion_lon": 0.0, "fusion_lat": 0.0, "lon": -77.02456783333334, "name": "9fc99d278ab57d70e5ff5cbbe4fcd97f"}, {"bike_id": "2e59ea72d7b0d126a1a5ab9d2f64645f", "type": "electric_scooter", "is_disabled": 0, "lat": 38.907929333333335, "rental_uris": {"ios": "https://dc.lft.to/lastmile_qr_scan", "android": "https://dc.lft.to/lastmile_qr_scan"}, "is_reserved": 0, "fusion_lon": 0.0, "fusion_lat": 0.0, "lon": -77.01853433333333, "name": "2e59ea72d7b0d126a1a5ab9d2f64645f"}, {"bike_id": "06f6245b0d032bf97ed59e389e41a63c", "type": "electric_bike", "is_disabled": 0, "lat": 38.916368166666665, "rental_uris": {"ios": "https://dc.lft.to/lastmile_qr_scan", "android": "https://dc.lft.to/lastmile_qr_scan"}, "is_reserved": 0, "fusion_lon": 0.0, "fusion_lat": 0.0, "lon": -76.97160283333334, "name": "06f6245b0d032bf97ed59e389e41a63c"}, {"bike_id": "8a91dc1c412a0f3142560ddb9709b89c", "type": "electric_scooter", "is_disabled": 0, "lat": 38.85707216666667, "rental_uris": {"ios": "https://dc.lft.to/lastmile_qr_scan", "android": "https://dc.lft.to/lastmile_qr_scan"}, "is_reserved": 0, "fusion_lon": 0.0, "fusion_lat": 0.0, "lon": -76.98961333333334, "name": "8a91dc1c412a0f3142560ddb9709b89c"}, {"bike_id": "2a2292ea7781159c97975d89b0b59494", "type": "electric_bike", "is_disabled": 0, "lat": 38.81986783333333, "rental_uris": {"ios": "https://dc.lft.to/lastmile_qr_scan", "android": "https://dc.lft.to/lastmile_qr_scan"}, "is_reserved": 0, "fusion_lon": 0.0, "fusion_lat": 0.0, "lon": -76.99813583333334, "name": "2a2292ea7781159c97975d89b0b59494"}, {"bike_id": "dc125df8cbde0b13dd3ea5f5c931a559", "type": "electric_scooter", "is_disabled": 0, "lat": 38.90061216666667, "rental_uris": {"ios": "https://dc.lft.to/lastmile_qr_scan", "android": "https://dc.lft.to/lastmile_qr_scan"}, "is_reserved": 0, "fusion_lon": 0.0, "fusion_lat": 0.0, "lon": -76.93473233333333, "name": "dc125df8cbde0b13dd3ea5f5c931a559"}, {"bike_id": "6152157d412c7afc11d8f65f9123fc22", "type": "electric_scooter", "is_disabled": 0, "lat": 38.8712225, "rental_uris": {"ios": "https://dc.lft.to/lastmile_qr_scan", "android": "https://dc.lft.to/lastmile_qr_scan"}, "is_reserved": 0, "fusion_lon": 0.0, "fusion_lat": 0.0, "lon": -76.9824115, "name": "6152157d412c7afc11d8f65f9123fc22"}, {"bike_id": "3917543abd2537d136d0ffb782b20b7b", "type": "electric_scooter", "is_disabled": 0, "lat": 38.90580966666667, "rental_uris": {"ios": "https://dc.lft.to/lastmile_qr_scan", "android": "https://dc.lft.to/lastmile_qr_scan"}, "is_reserved": 0, "fusion_lon": 0.0, "fusion_lat": 0.0, "lon": -77.04358683333334, "name": "3917543abd2537d136d0ffb782b20b7b"}, {"bike_id": "e3b6f2128434f03a5fe84d42af167dba", "type": "electric_scooter", "is_disabled": 0, "lat": 38.9041995, "rental_uris": {"ios": "https://dc.lft.to/lastmile_qr_scan", "android": "https://dc.lft.to/lastmile_qr_scan"}, "is_reserved": 0, "fusion_lon": 0.0, "fusion_lat": 0.0, "lon": -77.04871583333333, "name": "e3b6f2128434f03a5fe84d42af167dba"}, {"bike_id": "dd932d5a8f8f5d46dbf4c8cda1509af5", "type": "electric_scooter", "is_disabled": 0, "lat": 38.905680333333336, "rental_uris": {"ios": "https://dc.lft.to/lastmile_qr_scan", "android": "https://dc.lft.to/lastmile_qr_scan"}, "is_reserved": 0, "fusion_lon": 0.0, "fusion_lat": 0.0, "lon": -77.00576733333334, "name": "dd932d5a8f8f5d46dbf4c8cda1509af5"}, {"bike_id": "796e19520859a39799e4bcf6c70190fd", "type": "electric_scooter", "is_disabled": 0, "lat": 38.911194333333334, "rental_uris": {"ios": "https://dc.lft.to/lastmile_qr_scan", "android": "https://dc.lft.to/lastmile_qr_scan"}, "is_reserved": 0, "fusion_lon": 0.0, "fusion_lat": 0.0, "lon": -77.024177, "name": "796e19520859a39799e4bcf6c70190fd"}, {"bike_id": "1d92019be122d70f1f25bfe1f9a105b2", "type": "electric_scooter", "is_disabled": 0, "lat": 38.932093333333334, "rental_uris": {"ios": "https://dc.lft.to/lastmile_qr_scan", "android": "https://dc.lft.to/lastmile_qr_scan"}, "is_reserved": 0, "fusion_lon": 0.0, "fusion_lat": 0.0, "lon": -77.03671216666666, "name": "1d92019be122d70f1f25bfe1f9a105b2"}, {"bike_id": "3bd84098d32e4f14199c688bbea89d93", "type": "electric_bike", "is_disabled": 0, "lat": 39.05791383333333, "rental_uris": {"ios": "https://dc.lft.to/lastmile_qr_scan", "android": "https://dc.lft.to/lastmile_qr_scan"}, "is_reserved": 0, "fusion_lon": 0.0, "fusion_lat": 0.0, "lon": -77.150211, "name": "3bd84098d32e4f14199c688bbea89d93"}, {"bike_id": "1fc6791430a249ed9dfb57cd75a84fae", "type": "electric_scooter", "is_disabled": 0, "lat": 38.874227, "rental_uris": {"ios": "https://dc.lft.to/lastmile_qr_scan", "android": "https://dc.lft.to/lastmile_qr_scan"}, "is_reserved": 0, "fusion_lon": 0.0, "fusion_lat": 0.0, "lon": -76.96904133333334, "name": "1fc6791430a249ed9dfb57cd75a84fae"}, {"bike_id": "4f9ef05beb8f0350794d87fbe032849e", "type": "electric_scooter", "is_disabled": 0, "lat": 38.91576166666667, "rental_uris": {"ios": "https://dc.lft.to/lastmile_qr_scan", "android": "https://dc.lft.to/lastmile_qr_scan"}, "is_reserved": 0, "fusion_lon": 0.0, "fusion_lat": 0.0, "lon": -77.02052616666667, "name": "4f9ef05beb8f0350794d87fbe032849e"}, {"bike_id": "e3d536952f40924191846cd6bdab09e1", "type": "electric_scooter", "is_disabled": 0, "lat": 38.902382, "rental_uris": {"ios": "https://dc.lft.to/lastmile_qr_scan", "android": "https://dc.lft.to/lastmile_qr_scan"}, "is_reserved": 0, "fusion_lon": 0.0, "fusion_lat": 0.0, "lon": -77.043269, "name": "e3d536952f40924191846cd6bdab09e1"}, {"bike_id": "299ab189302efc80e9b46e9643ae2e60", "type": "electric_scooter", "is_disabled": 0, "lat": 38.9164345, "rental_uris": {"ios": "https://dc.lft.to/lastmile_qr_scan", "android": "https://dc.lft.to/lastmile_qr_scan"}, "is_reserved": 0, "fusion_lon": 0.0, "fusion_lat": 0.0, "lon": -77.02278316666667, "name": "299ab189302efc80e9b46e9643ae2e60"}, {"bike_id": "9b9cf8964dae307c9dfcbeee81c9f18d", "type": "electric_scooter", "is_disabled": 0, "lat": 38.90672716666667, "rental_uris": {"ios": "https://dc.lft.to/lastmile_qr_scan", "android": "https://dc.lft.to/lastmile_qr_scan"}, "is_reserved": 0, "fusion_lon": 0.0, "fusion_lat": 0.0, "lon": -77.04186933333334, "name": "9b9cf8964dae307c9dfcbeee81c9f18d"}, {"bike_id": "68464d0f379ce25552b8d8a1258746d1", "type": "electric_scooter", "is_disabled": 0, "lat": 38.91003716666667, "rental_uris": {"ios": "https://dc.lft.to/lastmile_qr_scan", "android": "https://dc.lft.to/lastmile_qr_scan"}, "is_reserved": 0, "fusion_lon": 0.0, "fusion_lat": 0.0, "lon": -77.04003966666667, "name": "68464d0f379ce25552b8d8a1258746d1"}, {"bike_id": "2aaca98166b3c23ccee39004305d7d67", "type": "electric_scooter", "is_disabled": 0, "lat": 38.94271033333333, "rental_uris": {"ios": "https://dc.lft.to/lastmile_qr_scan", "android": "https://dc.lft.to/lastmile_qr_scan"}, "is_reserved": 0, "fusion_lon": 0.0, "fusion_lat": 0.0, "lon": -77.032566, "name": "2aaca98166b3c23ccee39004305d7d67"}, {"bike_id": "ac05c9999b2d5987fe4604920e86fe8a", "type": "electric_scooter", "is_disabled": 0, "lat": 38.8997945, "rental_uris": {"ios": "https://dc.lft.to/lastmile_qr_scan", "android": "https://dc.lft.to/lastmile_qr_scan"}, "is_reserved": 0, "fusion_lon": 0.0, "fusion_lat": 0.0, "lon": -77.0261315, "name": "ac05c9999b2d5987fe4604920e86fe8a"}, {"bike_id": "647fd355890187fa08e33651e71155dc", "type": "electric_scooter", "is_disabled": 0, "lat": 38.92479516666667, "rental_uris": {"ios": "https://dc.lft.to/lastmile_qr_scan", "android": "https://dc.lft.to/lastmile_qr_scan"}, "is_reserved": 0, "fusion_lon": 0.0, "fusion_lat": 0.0, "lon": -77.0283235, "name": "647fd355890187fa08e33651e71155dc"}, {"bike_id": "a1e0fa7987d619d780c5cf9c3b294671", "type": "electric_scooter", "is_disabled": 0, "lat": 38.91439716666667, "rental_uris": {"ios": "https://dc.lft.to/lastmile_qr_scan", "android": "https://dc.lft.to/lastmile_qr_scan"}, "is_reserved": 0, "fusion_lon": 0.0, "fusion_lat": 0.0, "lon": -77.02286016666666, "name": "a1e0fa7987d619d780c5cf9c3b294671"}, {"bike_id": "2c2d4a682d73f3e42b1d27914a27bdb4", "type": "electric_scooter", "is_disabled": 0, "lat": 38.87864533333333, "rental_uris": {"ios": "https://dc.lft.to/lastmile_qr_scan", "android": "https://dc.lft.to/lastmile_qr_scan"}, "is_reserved": 0, "fusion_lon": 0.0, "fusion_lat": 0.0, "lon": -76.9698255, "name": "2c2d4a682d73f3e42b1d27914a27bdb4"}, {"bike_id": "dc1fa0714e7f1dbd7830dc25ed80b0c3", "type": "electric_scooter", "is_disabled": 0, "lat": 38.8531955, "rental_uris": {"ios": "https://dc.lft.to/lastmile_qr_scan", "android": "https://dc.lft.to/lastmile_qr_scan"}, "is_reserved": 0, "fusion_lon": 0.0, "fusion_lat": 0.0, "lon": -76.98010133333334, "name": "dc1fa0714e7f1dbd7830dc25ed80b0c3"}, {"bike_id": "f75783ed02ba9b5cf477d6c38a49c658", "type": "electric_scooter", "is_disabled": 0, "lat": 38.888505, "rental_uris": {"ios": "https://dc.lft.to/lastmile_qr_scan", "android": "https://dc.lft.to/lastmile_qr_scan"}, "is_reserved": 0, "fusion_lon": 0.0, "fusion_lat": 0.0, "lon": -76.92676133333333, "name": "f75783ed02ba9b5cf477d6c38a49c658"}, {"bike_id": "4df892e77bd91eeede82e8269ed63220", "type": "electric_scooter", "is_disabled": 0, "lat": 38.866876, "rental_uris": {"ios": "https://dc.lft.to/lastmile_qr_scan", "android": "https://dc.lft.to/lastmile_qr_scan"}, "is_reserved": 0, "fusion_lon": 0.0, "fusion_lat": 0.0, "lon": -76.985887, "name": "4df892e77bd91eeede82e8269ed63220"}, {"bike_id": "aeeef462e9b482192b88bee3b3eade4d", "type": "electric_scooter", "is_disabled": 0, "lat": 38.9076125, "rental_uris": {"ios": "https://dc.lft.to/lastmile_qr_scan", "android": "https://dc.lft.to/lastmile_qr_scan"}, "is_reserved": 0, "fusion_lon": 0.0, "fusion_lat": 0.0, "lon": -77.03573966666667, "name": "aeeef462e9b482192b88bee3b3eade4d"}, {"bike_id": "664f2cce16b9e2899b3e033b1e2208ab", "type": "electric_scooter", "is_disabled": 0, "lat": 38.904859333333334, "rental_uris": {"ios": "https://dc.lft.to/lastmile_qr_scan", "android": "https://dc.lft.to/lastmile_qr_scan"}, "is_reserved": 0, "fusion_lon": 0.0, "fusion_lat": 0.0, "lon": -77.02706283333333, "name": "664f2cce16b9e2899b3e033b1e2208ab"}, {"bike_id": "af67b6d5d30a603156073e844f6f01b5", "type": "electric_scooter", "is_disabled": 0, "lat": 38.91563466666667, "rental_uris": {"ios": "https://dc.lft.to/lastmile_qr_scan", "android": "https://dc.lft.to/lastmile_qr_scan"}, "is_reserved": 0, "fusion_lon": 0.0, "fusion_lat": 0.0, "lon": -77.04474333333333, "name": "af67b6d5d30a603156073e844f6f01b5"}, {"bike_id": "0190b0c49e33bd8c7648273dd6697dd2", "type": "electric_scooter", "is_disabled": 0, "lat": 38.917296666666665, "rental_uris": {"ios": "https://dc.lft.to/lastmile_qr_scan", "android": "https://dc.lft.to/lastmile_qr_scan"}, "is_reserved": 0, "fusion_lon": 0.0, "fusion_lat": 0.0, "lon": -77.03665266666667, "name": "0190b0c49e33bd8c7648273dd6697dd2"}, {"bike_id": "bf89d93d35c21173a8c36d1889577e13", "type": "electric_bike", "is_disabled": 0, "lat": 38.897446, "rental_uris": {"ios": "https://dc.lft.to/lastmile_qr_scan", "android": "https://dc.lft.to/lastmile_qr_scan"}, "is_reserved": 0, "fusion_lon": 0.0, "fusion_lat": 0.0, "lon": -76.92045516666667, "name": "bf89d93d35c21173a8c36d1889577e13"}, {"bike_id": "6c5691af949686502763dd70fdfcb520", "type": "electric_scooter", "is_disabled": 0, "lat": 38.897208, "rental_uris": {"ios": "https://dc.lft.to/lastmile_qr_scan", "android": "https://dc.lft.to/lastmile_qr_scan"}, "is_reserved": 0, "fusion_lon": 0.0, "fusion_lat": 0.0, "lon": -77.024502, "name": "6c5691af949686502763dd70fdfcb520"}, {"bike_id": "6a3ddd1ef2c3e823cb3b5474561424b8", "type": "electric_scooter", "is_disabled": 0, "lat": 38.92792083333333, "rental_uris": {"ios": "https://dc.lft.to/lastmile_qr_scan", "android": "https://dc.lft.to/lastmile_qr_scan"}, "is_reserved": 0, "fusion_lon": 0.0, "fusion_lat": 0.0, "lon": -77.04327266666667, "name": "6a3ddd1ef2c3e823cb3b5474561424b8"}, {"bike_id": "332691070d06a8772e087736c5414408", "type": "electric_scooter", "is_disabled": 0, "lat": 38.96417366666667, "rental_uris": {"ios": "https://dc.lft.to/lastmile_qr_scan", "android": "https://dc.lft.to/lastmile_qr_scan"}, "is_reserved": 0, "fusion_lon": 0.0, "fusion_lat": 0.0, "lon": -77.024268, "name": "332691070d06a8772e087736c5414408"}, {"bike_id": "e9300bc8571781629b0a8cf5e1c00b18", "type": "electric_scooter", "is_disabled": 0, "lat": 38.89847283333334, "rental_uris": {"ios": "https://dc.lft.to/lastmile_qr_scan", "android": "https://dc.lft.to/lastmile_qr_scan"}, "is_reserved": 0, "fusion_lon": 0.0, "fusion_lat": 0.0, "lon": -77.046546, "name": "e9300bc8571781629b0a8cf5e1c00b18"}, {"bike_id": "6645d00f03685e24de74a5ffcb52f38c", "type": "electric_scooter", "is_disabled": 0, "lat": 38.9182465, "rental_uris": {"ios": "https://dc.lft.to/lastmile_qr_scan", "android": "https://dc.lft.to/lastmile_qr_scan"}, "is_reserved": 0, "fusion_lon": 0.0, "fusion_lat": 0.0, "lon": -77.04944133333333, "name": "6645d00f03685e24de74a5ffcb52f38c"}, {"bike_id": "b2c6cdc5dbd361524a8258ca79ce1c7a", "type": "electric_scooter", "is_disabled": 0, "lat": 38.92196883333333, "rental_uris": {"ios": "https://dc.lft.to/lastmile_qr_scan", "android": "https://dc.lft.to/lastmile_qr_scan"}, "is_reserved": 0, "fusion_lon": 0.0, "fusion_lat": 0.0, "lon": -77.01971933333333, "name": "b2c6cdc5dbd361524a8258ca79ce1c7a"}, {"bike_id": "38ac1a8702a00d24dfca2d4913728ad5", "type": "electric_scooter", "is_disabled": 0, "lat": 38.92222566666667, "rental_uris": {"ios": "https://dc.lft.to/lastmile_qr_scan", "android": "https://dc.lft.to/lastmile_qr_scan"}, "is_reserved": 0, "fusion_lon": 0.0, "fusion_lat": 0.0, "lon": -77.03285433333333, "name": "38ac1a8702a00d24dfca2d4913728ad5"}, {"bike_id": "97992ad200701b1133199d1b077652d6", "type": "electric_scooter", "is_disabled": 0, "lat": 38.924610666666666, "rental_uris": {"ios": "https://dc.lft.to/lastmile_qr_scan", "android": "https://dc.lft.to/lastmile_qr_scan"}, "is_reserved": 0, "fusion_lon": 0.0, "fusion_lat": 0.0, "lon": -77.04200166666666, "name": "97992ad200701b1133199d1b077652d6"}, {"bike_id": "99947e34a11c1acbf95a4aaef2040195", "type": "electric_scooter", "is_disabled": 0, "lat": 38.928626, "rental_uris": {"ios": "https://dc.lft.to/lastmile_qr_scan", "android": "https://dc.lft.to/lastmile_qr_scan"}, "is_reserved": 0, "fusion_lon": 0.0, "fusion_lat": 0.0, "lon": -77.0370605, "name": "99947e34a11c1acbf95a4aaef2040195"}, {"bike_id": "56ec3db92378106407d88362f7597c38", "type": "electric_scooter", "is_disabled": 0, "lat": 38.9493425, "rental_uris": {"ios": "https://dc.lft.to/lastmile_qr_scan", "android": "https://dc.lft.to/lastmile_qr_scan"}, "is_reserved": 0, "fusion_lon": 0.0, "fusion_lat": 0.0, "lon": -77.0653105, "name": "56ec3db92378106407d88362f7597c38"}, {"bike_id": "83cdef601f42833618ee52b72004ac0c", "type": "electric_scooter", "is_disabled": 0, "lat": 38.9254925, "rental_uris": {"ios": "https://dc.lft.to/lastmile_qr_scan", "android": "https://dc.lft.to/lastmile_qr_scan"}, "is_reserved": 0, "fusion_lon": 0.0, "fusion_lat": 0.0, "lon": -77.033505, "name": "83cdef601f42833618ee52b72004ac0c"}, {"bike_id": "f0a4fd83c84eabda4a18c9598ab9d0a6", "type": "electric_scooter", "is_disabled": 0, "lat": 38.908418, "rental_uris": {"ios": "https://dc.lft.to/lastmile_qr_scan", "android": "https://dc.lft.to/lastmile_qr_scan"}, "is_reserved": 0, "fusion_lon": 0.0, "fusion_lat": 0.0, "lon": -77.03337216666667, "name": "f0a4fd83c84eabda4a18c9598ab9d0a6"}, {"bike_id": "d8f35f3da00b041c75c70133b126d0bc", "type": "electric_scooter", "is_disabled": 0, "lat": 38.895024166666666, "rental_uris": {"ios": "https://dc.lft.to/lastmile_qr_scan", "android": "https://dc.lft.to/lastmile_qr_scan"}, "is_reserved": 0, "fusion_lon": 0.0, "fusion_lat": 0.0, "lon": -76.934772, "name": "d8f35f3da00b041c75c70133b126d0bc"}, {"bike_id": "23af00411ff3af2252037aaacb2a5c89", "type": "electric_bike", "is_disabled": 0, "lat": 38.94263633333333, "rental_uris": {"ios": "https://dc.lft.to/lastmile_qr_scan", "android": "https://dc.lft.to/lastmile_qr_scan"}, "is_reserved": 0, "fusion_lon": 0.0, "fusion_lat": 0.0, "lon": -76.99074383333334, "name": "23af00411ff3af2252037aaacb2a5c89"}, {"bike_id": "82c3ce9051547e5c582f233ba86e17dd", "type": "electric_bike", "is_disabled": 0, "lat": 38.848353333333336, "rental_uris": {"ios": "https://dc.lft.to/lastmile_qr_scan", "android": "https://dc.lft.to/lastmile_qr_scan"}, "is_reserved": 0, "fusion_lon": 0.0, "fusion_lat": 0.0, "lon": -77.079225, "name": "82c3ce9051547e5c582f233ba86e17dd"}, {"bike_id": "582b6e435bec6e39b9c7908ab834a72b", "type": "electric_scooter", "is_disabled": 0, "lat": 38.911949166666666, "rental_uris": {"ios": "https://dc.lft.to/lastmile_qr_scan", "android": "https://dc.lft.to/lastmile_qr_scan"}, "is_reserved": 0, "fusion_lon": 0.0, "fusion_lat": 0.0, "lon": -77.04221416666667, "name": "582b6e435bec6e39b9c7908ab834a72b"}, {"bike_id": "098507ffce1a4c6c440c8c62e6af42de", "type": "electric_scooter", "is_disabled": 0, "lat": 38.866943166666665, "rental_uris": {"ios": "https://dc.lft.to/lastmile_qr_scan", "android": "https://dc.lft.to/lastmile_qr_scan"}, "is_reserved": 0, "fusion_lon": 0.0, "fusion_lat": 0.0, "lon": -76.98559966666667, "name": "098507ffce1a4c6c440c8c62e6af42de"}, {"bike_id": "96743e7e975e75b8965f6f79c16af4f9", "type": "electric_scooter", "is_disabled": 0, "lat": 38.951168, "rental_uris": {"ios": "https://dc.lft.to/lastmile_qr_scan", "android": "https://dc.lft.to/lastmile_qr_scan"}, "is_reserved": 0, "fusion_lon": 0.0, "fusion_lat": 0.0, "lon": -77.014311, "name": "96743e7e975e75b8965f6f79c16af4f9"}, {"bike_id": "199a5d267804bb5e8f921a1924f922e0", "type": "electric_scooter", "is_disabled": 0, "lat": 38.9352, "rental_uris": {"ios": "https://dc.lft.to/lastmile_qr_scan", "android": "https://dc.lft.to/lastmile_qr_scan"}, "is_reserved": 0, "fusion_lon": 0.0, "fusion_lat": 0.0, "lon": -77.03668983333333, "name": "199a5d267804bb5e8f921a1924f922e0"}, {"bike_id": "4a0260ff91b2c62bad129c6adcda4bc2", "type": "electric_scooter", "is_disabled": 0, "lat": 38.9192395, "rental_uris": {"ios": "https://dc.lft.to/lastmile_qr_scan", "android": "https://dc.lft.to/lastmile_qr_scan"}, "is_reserved": 0, "fusion_lon": 0.0, "fusion_lat": 0.0, "lon": -77.03424066666666, "name": "4a0260ff91b2c62bad129c6adcda4bc2"}, {"bike_id": "57a2ca5f8061dc73f98a527ce78c107d", "type": "electric_scooter", "is_disabled": 0, "lat": 38.888624166666666, "rental_uris": {"ios": "https://dc.lft.to/lastmile_qr_scan", "android": "https://dc.lft.to/lastmile_qr_scan"}, "is_reserved": 0, "fusion_lon": 0.0, "fusion_lat": 0.0, "lon": -76.991448, "name": "57a2ca5f8061dc73f98a527ce78c107d"}, {"bike_id": "5fecbd304452a74bd0f2dfe2bf8f3f36", "type": "electric_bike", "is_disabled": 0, "lat": 38.82180616666667, "rental_uris": {"ios": "https://dc.lft.to/lastmile_qr_scan", "android": "https://dc.lft.to/lastmile_qr_scan"}, "is_reserved": 0, "fusion_lon": 0.0, "fusion_lat": 0.0, "lon": -76.99507933333334, "name": "5fecbd304452a74bd0f2dfe2bf8f3f36"}, {"bike_id": "6988f57b4adc75c2c0c1bc8ebae83639", "type": "electric_bike", "is_disabled": 0, "lat": 39.043096, "rental_uris": {"ios": "https://dc.lft.to/lastmile_qr_scan", "android": "https://dc.lft.to/lastmile_qr_scan"}, "is_reserved": 0, "fusion_lon": 0.0, "fusion_lat": 0.0, "lon": -77.0516005, "name": "6988f57b4adc75c2c0c1bc8ebae83639"}, {"bike_id": "00eb92a5d58bbb75eceb62a7d89f3e54", "type": "electric_scooter", "is_disabled": 0, "lat": 38.92062983333334, "rental_uris": {"ios": "https://dc.lft.to/lastmile_qr_scan", "android": "https://dc.lft.to/lastmile_qr_scan"}, "is_reserved": 0, "fusion_lon": 0.0, "fusion_lat": 0.0, "lon": -77.02420866666667, "name": "00eb92a5d58bbb75eceb62a7d89f3e54"}, {"bike_id": "ebb7ff6a8254f3dfd29776cf466bbf26", "type": "electric_scooter", "is_disabled": 0, "lat": 38.9203595, "rental_uris": {"ios": "https://dc.lft.to/lastmile_qr_scan", "android": "https://dc.lft.to/lastmile_qr_scan"}, "is_reserved": 0, "fusion_lon": 0.0, "fusion_lat": 0.0, "lon": -77.04080016666667, "name": "ebb7ff6a8254f3dfd29776cf466bbf26"}, {"bike_id": "22642819da1e1000bce8eb30c039e225", "type": "electric_scooter", "is_disabled": 0, "lat": 38.871623666666665, "rental_uris": {"ios": "https://dc.lft.to/lastmile_qr_scan", "android": "https://dc.lft.to/lastmile_qr_scan"}, "is_reserved": 0, "fusion_lon": 0.0, "fusion_lat": 0.0, "lon": -77.01350483333333, "name": "22642819da1e1000bce8eb30c039e225"}, {"bike_id": "fc107bc65336030aee1d4ba0c62cbb01", "type": "electric_scooter", "is_disabled": 0, "lat": 38.89359, "rental_uris": {"ios": "https://dc.lft.to/lastmile_qr_scan", "android": "https://dc.lft.to/lastmile_qr_scan"}, "is_reserved": 0, "fusion_lon": 0.0, "fusion_lat": 0.0, "lon": -76.94930933333333, "name": "fc107bc65336030aee1d4ba0c62cbb01"}, {"bike_id": "1100b3e55009ff8881fe8f402b49cf1d", "type": "electric_scooter", "is_disabled": 0, "lat": 38.92668166666667, "rental_uris": {"ios": "https://dc.lft.to/lastmile_qr_scan", "android": "https://dc.lft.to/lastmile_qr_scan"}, "is_reserved": 0, "fusion_lon": 0.0, "fusion_lat": 0.0, "lon": -77.03026, "name": "1100b3e55009ff8881fe8f402b49cf1d"}, {"bike_id": "fbd1c2bd950c20741ac9c5fde91b6f05", "type": "electric_scooter", "is_disabled": 0, "lat": 38.90411116666667, "rental_uris": {"ios": "https://dc.lft.to/lastmile_qr_scan", "android": "https://dc.lft.to/lastmile_qr_scan"}, "is_reserved": 0, "fusion_lon": 0.0, "fusion_lat": 0.0, "lon": -77.048732, "name": "fbd1c2bd950c20741ac9c5fde91b6f05"}, {"bike_id": "f276ee85e847983f14aec4ab6c8cf447", "type": "electric_scooter", "is_disabled": 0, "lat": 38.928023833333334, "rental_uris": {"ios": "https://dc.lft.to/lastmile_qr_scan", "android": "https://dc.lft.to/lastmile_qr_scan"}, "is_reserved": 0, "fusion_lon": 0.0, "fusion_lat": 0.0, "lon": -77.03200216666667, "name": "f276ee85e847983f14aec4ab6c8cf447"}, {"bike_id": "211e2ca9a921762f8a1a21efdb8715e4", "type": "electric_scooter", "is_disabled": 0, "lat": 38.90560983333334, "rental_uris": {"ios": "https://dc.lft.to/lastmile_qr_scan", "android": "https://dc.lft.to/lastmile_qr_scan"}, "is_reserved": 0, "fusion_lon": 0.0, "fusion_lat": 0.0, "lon": -77.06523633333333, "name": "211e2ca9a921762f8a1a21efdb8715e4"}, {"bike_id": "a340420b0b58584f92da88237dda4655", "type": "electric_scooter", "is_disabled": 0, "lat": 38.87844666666667, "rental_uris": {"ios": "https://dc.lft.to/lastmile_qr_scan", "android": "https://dc.lft.to/lastmile_qr_scan"}, "is_reserved": 0, "fusion_lon": 0.0, "fusion_lat": 0.0, "lon": -76.98624333333333, "name": "a340420b0b58584f92da88237dda4655"}, {"bike_id": "36441eb46acfee53e816dbcb3d49c1a2", "type": "electric_scooter", "is_disabled": 0, "lat": 38.903701, "rental_uris": {"ios": "https://dc.lft.to/lastmile_qr_scan", "android": "https://dc.lft.to/lastmile_qr_scan"}, "is_reserved": 0, "fusion_lon": 0.0, "fusion_lat": 0.0, "lon": -76.99937116666666, "name": "36441eb46acfee53e816dbcb3d49c1a2"}, {"bike_id": "8cb547772df2abf9e565c1575424c239", "type": "electric_scooter", "is_disabled": 0, "lat": 38.932931333333336, "rental_uris": {"ios": "https://dc.lft.to/lastmile_qr_scan", "android": "https://dc.lft.to/lastmile_qr_scan"}, "is_reserved": 0, "fusion_lon": 0.0, "fusion_lat": 0.0, "lon": -77.035408, "name": "8cb547772df2abf9e565c1575424c239"}, {"bike_id": "bc1a9426212e425325128815a36c32a8", "type": "electric_scooter", "is_disabled": 0, "lat": 38.88937583333333, "rental_uris": {"ios": "https://dc.lft.to/lastmile_qr_scan", "android": "https://dc.lft.to/lastmile_qr_scan"}, "is_reserved": 0, "fusion_lon": 0.0, "fusion_lat": 0.0, "lon": -76.93576883333333, "name": "bc1a9426212e425325128815a36c32a8"}, {"bike_id": "6936d8f9bfadad1e1dfc3d30dfb49c1d", "type": "electric_scooter", "is_disabled": 0, "lat": 38.906104, "rental_uris": {"ios": "https://dc.lft.to/lastmile_qr_scan", "android": "https://dc.lft.to/lastmile_qr_scan"}, "is_reserved": 0, "fusion_lon": 0.0, "fusion_lat": 0.0, "lon": -77.04105016666666, "name": "6936d8f9bfadad1e1dfc3d30dfb49c1d"}, {"bike_id": "f3de562dbb7a1d0f6c5783749e716e6b", "type": "electric_scooter", "is_disabled": 0, "lat": 38.88037966666667, "rental_uris": {"ios": "https://dc.lft.to/lastmile_qr_scan", "android": "https://dc.lft.to/lastmile_qr_scan"}, "is_reserved": 0, "fusion_lon": 0.0, "fusion_lat": 0.0, "lon": -77.0054255, "name": "f3de562dbb7a1d0f6c5783749e716e6b"}, {"bike_id": "6371e8ea48ec9139e92a80490a8ab8c7", "type": "electric_scooter", "is_disabled": 0, "lat": 38.918201333333336, "rental_uris": {"ios": "https://dc.lft.to/lastmile_qr_scan", "android": "https://dc.lft.to/lastmile_qr_scan"}, "is_reserved": 0, "fusion_lon": 0.0, "fusion_lat": 0.0, "lon": -77.02501883333333, "name": "6371e8ea48ec9139e92a80490a8ab8c7"}, {"bike_id": "5f84d5beb057c3fc14550f1eddbe07f3", "type": "electric_scooter", "is_disabled": 0, "lat": 38.84647733333333, "rental_uris": {"ios": "https://dc.lft.to/lastmile_qr_scan", "android": "https://dc.lft.to/lastmile_qr_scan"}, "is_reserved": 0, "fusion_lon": 0.0, "fusion_lat": 0.0, "lon": -76.991283, "name": "5f84d5beb057c3fc14550f1eddbe07f3"}, {"bike_id": "affec91f67adc67fb524c529d4350e78", "type": "electric_scooter", "is_disabled": 0, "lat": 38.86379983333333, "rental_uris": {"ios": "https://dc.lft.to/lastmile_qr_scan", "android": "https://dc.lft.to/lastmile_qr_scan"}, "is_reserved": 0, "fusion_lon": 0.0, "fusion_lat": 0.0, "lon": -76.9905845, "name": "affec91f67adc67fb524c529d4350e78"}, {"bike_id": "839891fb47fc8df404ba39b35edcb44e", "type": "electric_scooter", "is_disabled": 0, "lat": 38.91073466666667, "rental_uris": {"ios": "https://dc.lft.to/lastmile_qr_scan", "android": "https://dc.lft.to/lastmile_qr_scan"}, "is_reserved": 0, "fusion_lon": 0.0, "fusion_lat": 0.0, "lon": -77.027207, "name": "839891fb47fc8df404ba39b35edcb44e"}, {"bike_id": "8c0b3d6f2d9b90ac56534afb8c819880", "type": "electric_scooter", "is_disabled": 0, "lat": 38.86682166666667, "rental_uris": {"ios": "https://dc.lft.to/lastmile_qr_scan", "android": "https://dc.lft.to/lastmile_qr_scan"}, "is_reserved": 0, "fusion_lon": 0.0, "fusion_lat": 0.0, "lon": -76.98553366666667, "name": "8c0b3d6f2d9b90ac56534afb8c819880"}, {"bike_id": "e9d7da70773d5363e4e3475b0f37b608", "type": "electric_scooter", "is_disabled": 0, "lat": 38.906010333333334, "rental_uris": {"ios": "https://dc.lft.to/lastmile_qr_scan", "android": "https://dc.lft.to/lastmile_qr_scan"}, "is_reserved": 0, "fusion_lon": 0.0, "fusion_lat": 0.0, "lon": -77.07358966666666, "name": "e9d7da70773d5363e4e3475b0f37b608"}, {"bike_id": "c2cf532117c9b39ebe4c1fc5d3353697", "type": "electric_scooter", "is_disabled": 0, "lat": 38.92195483333333, "rental_uris": {"ios": "https://dc.lft.to/lastmile_qr_scan", "android": "https://dc.lft.to/lastmile_qr_scan"}, "is_reserved": 0, "fusion_lon": 0.0, "fusion_lat": 0.0, "lon": -77.04702833333333, "name": "c2cf532117c9b39ebe4c1fc5d3353697"}, {"bike_id": "e3bfae0a58531f6b7f10db57128c5ba1", "type": "electric_scooter", "is_disabled": 0, "lat": 38.92334533333333, "rental_uris": {"ios": "https://dc.lft.to/lastmile_qr_scan", "android": "https://dc.lft.to/lastmile_qr_scan"}, "is_reserved": 0, "fusion_lon": 0.0, "fusion_lat": 0.0, "lon": -77.03619366666666, "name": "e3bfae0a58531f6b7f10db57128c5ba1"}, {"bike_id": "228ebe1e4fc7af12d79294d61f4f5fd3", "type": "electric_scooter", "is_disabled": 0, "lat": 38.92476, "rental_uris": {"ios": "https://dc.lft.to/lastmile_qr_scan", "android": "https://dc.lft.to/lastmile_qr_scan"}, "is_reserved": 0, "fusion_lon": 0.0, "fusion_lat": 0.0, "lon": -77.028353, "name": "228ebe1e4fc7af12d79294d61f4f5fd3"}, {"bike_id": "cdfb74d73593573617fe2a5368ac173b", "type": "electric_scooter", "is_disabled": 0, "lat": 38.9049745, "rental_uris": {"ios": "https://dc.lft.to/lastmile_qr_scan", "android": "https://dc.lft.to/lastmile_qr_scan"}, "is_reserved": 0, "fusion_lon": 0.0, "fusion_lat": 0.0, "lon": -76.94959716666666, "name": "cdfb74d73593573617fe2a5368ac173b"}, {"bike_id": "c1fc582094054ac30e88594171609bca", "type": "electric_scooter", "is_disabled": 0, "lat": 38.922146, "rental_uris": {"ios": "https://dc.lft.to/lastmile_qr_scan", "android": "https://dc.lft.to/lastmile_qr_scan"}, "is_reserved": 0, "fusion_lon": 0.0, "fusion_lat": 0.0, "lon": -77.03661083333333, "name": "c1fc582094054ac30e88594171609bca"}, {"bike_id": "c8257ab6498df26c6da13530e6eb52c4", "type": "electric_scooter", "is_disabled": 0, "lat": 38.91116933333333, "rental_uris": {"ios": "https://dc.lft.to/lastmile_qr_scan", "android": "https://dc.lft.to/lastmile_qr_scan"}, "is_reserved": 0, "fusion_lon": 0.0, "fusion_lat": 0.0, "lon": -77.011496, "name": "c8257ab6498df26c6da13530e6eb52c4"}, {"bike_id": "df297bf481cd66c9101f13b34e1631b7", "type": "electric_scooter", "is_disabled": 0, "lat": 38.942031166666666, "rental_uris": {"ios": "https://dc.lft.to/lastmile_qr_scan", "android": "https://dc.lft.to/lastmile_qr_scan"}, "is_reserved": 0, "fusion_lon": 0.0, "fusion_lat": 0.0, "lon": -77.025908, "name": "df297bf481cd66c9101f13b34e1631b7"}, {"bike_id": "5642d1cae6e524106c46e41160ff5d50", "type": "electric_scooter", "is_disabled": 0, "lat": 38.908182, "rental_uris": {"ios": "https://dc.lft.to/lastmile_qr_scan", "android": "https://dc.lft.to/lastmile_qr_scan"}, "is_reserved": 0, "fusion_lon": 0.0, "fusion_lat": 0.0, "lon": -77.04296866666667, "name": "5642d1cae6e524106c46e41160ff5d50"}, {"bike_id": "10a822c4abf6242bc8148fc791e03e98", "type": "electric_scooter", "is_disabled": 0, "lat": 38.9056555, "rental_uris": {"ios": "https://dc.lft.to/lastmile_qr_scan", "android": "https://dc.lft.to/lastmile_qr_scan"}, "is_reserved": 0, "fusion_lon": 0.0, "fusion_lat": 0.0, "lon": -77.04561416666667, "name": "10a822c4abf6242bc8148fc791e03e98"}, {"bike_id": "e591e095a33274e7cd072b6374652c48", "type": "electric_scooter", "is_disabled": 0, "lat": 38.9050675, "rental_uris": {"ios": "https://dc.lft.to/lastmile_qr_scan", "android": "https://dc.lft.to/lastmile_qr_scan"}, "is_reserved": 0, "fusion_lon": 0.0, "fusion_lat": 0.0, "lon": -77.06915, "name": "e591e095a33274e7cd072b6374652c48"}, {"bike_id": "9b092d81e9d2a3ac1dace49af8d55fcb", "type": "electric_scooter", "is_disabled": 0, "lat": 38.882701, "rental_uris": {"ios": "https://dc.lft.to/lastmile_qr_scan", "android": "https://dc.lft.to/lastmile_qr_scan"}, "is_reserved": 0, "fusion_lon": 0.0, "fusion_lat": 0.0, "lon": -76.99359366666667, "name": "9b092d81e9d2a3ac1dace49af8d55fcb"}, {"bike_id": "cb1e6345304472c50029448a600c391e", "type": "electric_scooter", "is_disabled": 0, "lat": 38.892329333333336, "rental_uris": {"ios": "https://dc.lft.to/lastmile_qr_scan", "android": "https://dc.lft.to/lastmile_qr_scan"}, "is_reserved": 0, "fusion_lon": 0.0, "fusion_lat": 0.0, "lon": -77.050014, "name": "cb1e6345304472c50029448a600c391e"}, {"bike_id": "3182de85f46ad2bdecb60d3508b1f824", "type": "electric_scooter", "is_disabled": 0, "lat": 38.88045266666666, "rental_uris": {"ios": "https://dc.lft.to/lastmile_qr_scan", "android": "https://dc.lft.to/lastmile_qr_scan"}, "is_reserved": 0, "fusion_lon": 0.0, "fusion_lat": 0.0, "lon": -77.00532983333333, "name": "3182de85f46ad2bdecb60d3508b1f824"}, {"bike_id": "1ad3e201fe646a06027b4f6da92e7c9f", "type": "electric_scooter", "is_disabled": 0, "lat": 38.9131895, "rental_uris": {"ios": "https://dc.lft.to/lastmile_qr_scan", "android": "https://dc.lft.to/lastmile_qr_scan"}, "is_reserved": 0, "fusion_lon": 0.0, "fusion_lat": 0.0, "lon": -77.03658383333334, "name": "1ad3e201fe646a06027b4f6da92e7c9f"}, {"bike_id": "91100b95f30ea7ec91295739aa64a660", "type": "electric_scooter", "is_disabled": 0, "lat": 38.93068066666667, "rental_uris": {"ios": "https://dc.lft.to/lastmile_qr_scan", "android": "https://dc.lft.to/lastmile_qr_scan"}, "is_reserved": 0, "fusion_lon": 0.0, "fusion_lat": 0.0, "lon": -77.01990883333333, "name": "91100b95f30ea7ec91295739aa64a660"}, {"bike_id": "e88fd550ee7f282656f19ce8cb0d913c", "type": "electric_scooter", "is_disabled": 0, "lat": 38.906594, "rental_uris": {"ios": "https://dc.lft.to/lastmile_qr_scan", "android": "https://dc.lft.to/lastmile_qr_scan"}, "is_reserved": 0, "fusion_lon": 0.0, "fusion_lat": 0.0, "lon": -77.0294215, "name": "e88fd550ee7f282656f19ce8cb0d913c"}, {"bike_id": "778e5de1bf90017abbe516784ce82872", "type": "electric_scooter", "is_disabled": 0, "lat": 38.90126933333333, "rental_uris": {"ios": "https://dc.lft.to/lastmile_qr_scan", "android": "https://dc.lft.to/lastmile_qr_scan"}, "is_reserved": 0, "fusion_lon": 0.0, "fusion_lat": 0.0, "lon": -77.0181625, "name": "778e5de1bf90017abbe516784ce82872"}, {"bike_id": "f13f3164873f0c83093ada34f089db4c", "type": "electric_scooter", "is_disabled": 0, "lat": 38.91508016666667, "rental_uris": {"ios": "https://dc.lft.to/lastmile_qr_scan", "android": "https://dc.lft.to/lastmile_qr_scan"}, "is_reserved": 0, "fusion_lon": 0.0, "fusion_lat": 0.0, "lon": -77.0177725, "name": "f13f3164873f0c83093ada34f089db4c"}, {"bike_id": "daf2361915dfe4203b656924ae6251ce", "type": "electric_bike", "is_disabled": 0, "lat": 38.86342466666667, "rental_uris": {"ios": "https://dc.lft.to/lastmile_qr_scan", "android": "https://dc.lft.to/lastmile_qr_scan"}, "is_reserved": 0, "fusion_lon": 0.0, "fusion_lat": 0.0, "lon": -76.98729716666666, "name": "daf2361915dfe4203b656924ae6251ce"}, {"bike_id": "25beac034033dd94c7f5dba5d9615fd0", "type": "electric_scooter", "is_disabled": 0, "lat": 38.9218195, "rental_uris": {"ios": "https://dc.lft.to/lastmile_qr_scan", "android": "https://dc.lft.to/lastmile_qr_scan"}, "is_reserved": 0, "fusion_lon": 0.0, "fusion_lat": 0.0, "lon": -76.997947, "name": "25beac034033dd94c7f5dba5d9615fd0"}, {"bike_id": "88c0c552caf22e86cbe78710225afeec", "type": "electric_bike", "is_disabled": 0, "lat": 38.863700333333334, "rental_uris": {"ios": "https://dc.lft.to/lastmile_qr_scan", "android": "https://dc.lft.to/lastmile_qr_scan"}, "is_reserved": 0, "fusion_lon": 0.0, "fusion_lat": 0.0, "lon": -76.97014466666667, "name": "88c0c552caf22e86cbe78710225afeec"}, {"bike_id": "6b9695ba5ad3d9adf8943c0a7888018f", "type": "electric_scooter", "is_disabled": 0, "lat": 38.909698666666664, "rental_uris": {"ios": "https://dc.lft.to/lastmile_qr_scan", "android": "https://dc.lft.to/lastmile_qr_scan"}, "is_reserved": 0, "fusion_lon": 0.0, "fusion_lat": 0.0, "lon": -77.01424816666666, "name": "6b9695ba5ad3d9adf8943c0a7888018f"}, {"bike_id": "238a3ccc4f4104d98d29a28b1bd9fc80", "type": "electric_scooter", "is_disabled": 0, "lat": 38.85892716666667, "rental_uris": {"ios": "https://dc.lft.to/lastmile_qr_scan", "android": "https://dc.lft.to/lastmile_qr_scan"}, "is_reserved": 0, "fusion_lon": 0.0, "fusion_lat": 0.0, "lon": -76.99727016666667, "name": "238a3ccc4f4104d98d29a28b1bd9fc80"}, {"bike_id": "b5c5d4b2df6a6b7a1fe0504511454b47", "type": "electric_scooter", "is_disabled": 0, "lat": 38.87816016666667, "rental_uris": {"ios": "https://dc.lft.to/lastmile_qr_scan", "android": "https://dc.lft.to/lastmile_qr_scan"}, "is_reserved": 0, "fusion_lon": 0.0, "fusion_lat": 0.0, "lon": -76.9717155, "name": "b5c5d4b2df6a6b7a1fe0504511454b47"}, {"bike_id": "591e73b6b49e80a8f82c1c3bbe9d643c", "type": "electric_scooter", "is_disabled": 0, "lat": 38.881538166666665, "rental_uris": {"ios": "https://dc.lft.to/lastmile_qr_scan", "android": "https://dc.lft.to/lastmile_qr_scan"}, "is_reserved": 0, "fusion_lon": 0.0, "fusion_lat": 0.0, "lon": -77.027417, "name": "591e73b6b49e80a8f82c1c3bbe9d643c"}, {"bike_id": "fbdb23cedcda2388f189933b779d7e64", "type": "electric_scooter", "is_disabled": 0, "lat": 38.9377085, "rental_uris": {"ios": "https://dc.lft.to/lastmile_qr_scan", "android": "https://dc.lft.to/lastmile_qr_scan"}, "is_reserved": 0, "fusion_lon": 0.0, "fusion_lat": 0.0, "lon": -77.019701, "name": "fbdb23cedcda2388f189933b779d7e64"}, {"bike_id": "efa2990bc66f22bded852dedb78ed965", "type": "electric_scooter", "is_disabled": 0, "lat": 38.901636833333335, "rental_uris": {"ios": "https://dc.lft.to/lastmile_qr_scan", "android": "https://dc.lft.to/lastmile_qr_scan"}, "is_reserved": 0, "fusion_lon": 0.0, "fusion_lat": 0.0, "lon": -77.02533516666666, "name": "efa2990bc66f22bded852dedb78ed965"}, {"bike_id": "239e70123e9cb4b1755cc085eef5ff62", "type": "electric_scooter", "is_disabled": 0, "lat": 38.899849333333336, "rental_uris": {"ios": "https://dc.lft.to/lastmile_qr_scan", "android": "https://dc.lft.to/lastmile_qr_scan"}, "is_reserved": 0, "fusion_lon": 0.0, "fusion_lat": 0.0, "lon": -76.95000533333334, "name": "239e70123e9cb4b1755cc085eef5ff62"}, {"bike_id": "4666cc33d87f8c967f5a1e9f691752bd", "type": "electric_scooter", "is_disabled": 0, "lat": 38.90670766666667, "rental_uris": {"ios": "https://dc.lft.to/lastmile_qr_scan", "android": "https://dc.lft.to/lastmile_qr_scan"}, "is_reserved": 0, "fusion_lon": 0.0, "fusion_lat": 0.0, "lon": -77.061209, "name": "4666cc33d87f8c967f5a1e9f691752bd"}, {"bike_id": "85c4c362fcec6435c7baa7d5414ba0d4", "type": "electric_scooter", "is_disabled": 0, "lat": 38.920573, "rental_uris": {"ios": "https://dc.lft.to/lastmile_qr_scan", "android": "https://dc.lft.to/lastmile_qr_scan"}, "is_reserved": 0, "fusion_lon": 0.0, "fusion_lat": 0.0, "lon": -77.02421733333334, "name": "85c4c362fcec6435c7baa7d5414ba0d4"}, {"bike_id": "42bb427dae865680d5a2d56f57e03996", "type": "electric_scooter", "is_disabled": 0, "lat": 38.8828495, "rental_uris": {"ios": "https://dc.lft.to/lastmile_qr_scan", "android": "https://dc.lft.to/lastmile_qr_scan"}, "is_reserved": 0, "fusion_lon": 0.0, "fusion_lat": 0.0, "lon": -76.9877835, "name": "42bb427dae865680d5a2d56f57e03996"}, {"bike_id": "0996a2fda1d35161a54fda188a962111", "type": "electric_bike", "is_disabled": 0, "lat": 38.923761, "rental_uris": {"ios": "https://dc.lft.to/lastmile_qr_scan", "android": "https://dc.lft.to/lastmile_qr_scan"}, "is_reserved": 0, "fusion_lon": 0.0, "fusion_lat": 0.0, "lon": -77.00214533333333, "name": "0996a2fda1d35161a54fda188a962111"}, {"bike_id": "3f4630d52944bd866368177ad74814c1", "type": "electric_scooter", "is_disabled": 0, "lat": 38.916818166666665, "rental_uris": {"ios": "https://dc.lft.to/lastmile_qr_scan", "android": "https://dc.lft.to/lastmile_qr_scan"}, "is_reserved": 0, "fusion_lon": 0.0, "fusion_lat": 0.0, "lon": -77.02969066666667, "name": "3f4630d52944bd866368177ad74814c1"}, {"bike_id": "73eae47fe9ab8e22d6083943300cce90", "type": "electric_scooter", "is_disabled": 0, "lat": 38.958561333333336, "rental_uris": {"ios": "https://dc.lft.to/lastmile_qr_scan", "android": "https://dc.lft.to/lastmile_qr_scan"}, "is_reserved": 0, "fusion_lon": 0.0, "fusion_lat": 0.0, "lon": -77.02795383333333, "name": "73eae47fe9ab8e22d6083943300cce90"}, {"bike_id": "e3fa54eec1e2390a9c7f7a63b747f596", "type": "electric_scooter", "is_disabled": 0, "lat": 38.936088166666664, "rental_uris": {"ios": "https://dc.lft.to/lastmile_qr_scan", "android": "https://dc.lft.to/lastmile_qr_scan"}, "is_reserved": 0, "fusion_lon": 0.0, "fusion_lat": 0.0, "lon": -77.05584583333334, "name": "e3fa54eec1e2390a9c7f7a63b747f596"}, {"bike_id": "f5a234020b8e868097ecc0be59651b7d", "type": "electric_scooter", "is_disabled": 0, "lat": 38.9150785, "rental_uris": {"ios": "https://dc.lft.to/lastmile_qr_scan", "android": "https://dc.lft.to/lastmile_qr_scan"}, "is_reserved": 0, "fusion_lon": 0.0, "fusion_lat": 0.0, "lon": -77.02177916666666, "name": "f5a234020b8e868097ecc0be59651b7d"}, {"bike_id": "82909dc38673a9747a64915d7b3dd93f", "type": "electric_scooter", "is_disabled": 0, "lat": 38.90806383333333, "rental_uris": {"ios": "https://dc.lft.to/lastmile_qr_scan", "android": "https://dc.lft.to/lastmile_qr_scan"}, "is_reserved": 0, "fusion_lon": 0.0, "fusion_lat": 0.0, "lon": -77.03048966666667, "name": "82909dc38673a9747a64915d7b3dd93f"}, {"bike_id": "38dbea7852192de06fac17a486fb28df", "type": "electric_scooter", "is_disabled": 0, "lat": 38.930936, "rental_uris": {"ios": "https://dc.lft.to/lastmile_qr_scan", "android": "https://dc.lft.to/lastmile_qr_scan"}, "is_reserved": 0, "fusion_lon": 0.0, "fusion_lat": 0.0, "lon": -77.03732333333333, "name": "38dbea7852192de06fac17a486fb28df"}, {"bike_id": "7a5cc270eb3b8f11853e18799c11de6c", "type": "electric_scooter", "is_disabled": 0, "lat": 38.928143666666664, "rental_uris": {"ios": "https://dc.lft.to/lastmile_qr_scan", "android": "https://dc.lft.to/lastmile_qr_scan"}, "is_reserved": 0, "fusion_lon": 0.0, "fusion_lat": 0.0, "lon": -77.02811666666666, "name": "7a5cc270eb3b8f11853e18799c11de6c"}, {"bike_id": "17a323f7719d3dc75277fdf2340412e3", "type": "electric_scooter", "is_disabled": 0, "lat": 38.951914333333335, "rental_uris": {"ios": "https://dc.lft.to/lastmile_qr_scan", "android": "https://dc.lft.to/lastmile_qr_scan"}, "is_reserved": 0, "fusion_lon": 0.0, "fusion_lat": 0.0, "lon": -77.02609583333333, "name": "17a323f7719d3dc75277fdf2340412e3"}, {"bike_id": "3554186db74e47b0707a80df35bd085b", "type": "electric_scooter", "is_disabled": 0, "lat": 38.899123, "rental_uris": {"ios": "https://dc.lft.to/lastmile_qr_scan", "android": "https://dc.lft.to/lastmile_qr_scan"}, "is_reserved": 0, "fusion_lon": 0.0, "fusion_lat": 0.0, "lon": -76.93367683333334, "name": "3554186db74e47b0707a80df35bd085b"}, {"bike_id": "ebf9803e2bb185abd6b40d02a92c51f2", "type": "electric_scooter", "is_disabled": 0, "lat": 38.908094, "rental_uris": {"ios": "https://dc.lft.to/lastmile_qr_scan", "android": "https://dc.lft.to/lastmile_qr_scan"}, "is_reserved": 0, "fusion_lon": 0.0, "fusion_lat": 0.0, "lon": -77.036561, "name": "ebf9803e2bb185abd6b40d02a92c51f2"}, {"bike_id": "31df1ee231e47d0bce86d1ed73b62fb7", "type": "electric_scooter", "is_disabled": 0, "lat": 38.8936165, "rental_uris": {"ios": "https://dc.lft.to/lastmile_qr_scan", "android": "https://dc.lft.to/lastmile_qr_scan"}, "is_reserved": 0, "fusion_lon": 0.0, "fusion_lat": 0.0, "lon": -76.928822, "name": "31df1ee231e47d0bce86d1ed73b62fb7"}, {"bike_id": "e05ce8b7e8f949303e03ad0ca92b53d4", "type": "electric_scooter", "is_disabled": 0, "lat": 38.914335333333334, "rental_uris": {"ios": "https://dc.lft.to/lastmile_qr_scan", "android": "https://dc.lft.to/lastmile_qr_scan"}, "is_reserved": 0, "fusion_lon": 0.0, "fusion_lat": 0.0, "lon": -77.0318305, "name": "e05ce8b7e8f949303e03ad0ca92b53d4"}, {"bike_id": "8b5be5c088fd6d6e6823afced0b22062", "type": "electric_scooter", "is_disabled": 0, "lat": 38.895311666666665, "rental_uris": {"ios": "https://dc.lft.to/lastmile_qr_scan", "android": "https://dc.lft.to/lastmile_qr_scan"}, "is_reserved": 0, "fusion_lon": 0.0, "fusion_lat": 0.0, "lon": -76.94890183333334, "name": "8b5be5c088fd6d6e6823afced0b22062"}, {"bike_id": "14abd4e4d24ab00ec4145022ce13ece9", "type": "electric_scooter", "is_disabled": 0, "lat": 38.887708833333335, "rental_uris": {"ios": "https://dc.lft.to/lastmile_qr_scan", "android": "https://dc.lft.to/lastmile_qr_scan"}, "is_reserved": 0, "fusion_lon": 0.0, "fusion_lat": 0.0, "lon": -77.00037516666667, "name": "14abd4e4d24ab00ec4145022ce13ece9"}, {"bike_id": "e883b1a1727fa41e40a8e6be4a30718c", "type": "electric_scooter", "is_disabled": 0, "lat": 38.902433333333335, "rental_uris": {"ios": "https://dc.lft.to/lastmile_qr_scan", "android": "https://dc.lft.to/lastmile_qr_scan"}, "is_reserved": 0, "fusion_lon": 0.0, "fusion_lat": 0.0, "lon": -77.00200166666667, "name": "e883b1a1727fa41e40a8e6be4a30718c"}, {"bike_id": "bd60445feaf3eecba434fe1d50683845", "type": "electric_scooter", "is_disabled": 0, "lat": 38.909612, "rental_uris": {"ios": "https://dc.lft.to/lastmile_qr_scan", "android": "https://dc.lft.to/lastmile_qr_scan"}, "is_reserved": 0, "fusion_lon": 0.0, "fusion_lat": 0.0, "lon": -77.02379683333334, "name": "bd60445feaf3eecba434fe1d50683845"}, {"bike_id": "080cdc88c95162d6bdbe5759ab2586a4", "type": "electric_scooter", "is_disabled": 0, "lat": 38.941432166666665, "rental_uris": {"ios": "https://dc.lft.to/lastmile_qr_scan", "android": "https://dc.lft.to/lastmile_qr_scan"}, "is_reserved": 0, "fusion_lon": 0.0, "fusion_lat": 0.0, "lon": -77.023251, "name": "080cdc88c95162d6bdbe5759ab2586a4"}, {"bike_id": "121835bde115e12e0cce962d7e96d7db", "type": "electric_scooter", "is_disabled": 0, "lat": 38.866494, "rental_uris": {"ios": "https://dc.lft.to/lastmile_qr_scan", "android": "https://dc.lft.to/lastmile_qr_scan"}, "is_reserved": 0, "fusion_lon": 0.0, "fusion_lat": 0.0, "lon": -76.9882025, "name": "121835bde115e12e0cce962d7e96d7db"}, {"bike_id": "818cade2b46106b1b433940d616a2d19", "type": "electric_scooter", "is_disabled": 0, "lat": 38.927517333333334, "rental_uris": {"ios": "https://dc.lft.to/lastmile_qr_scan", "android": "https://dc.lft.to/lastmile_qr_scan"}, "is_reserved": 0, "fusion_lon": 0.0, "fusion_lat": 0.0, "lon": -77.02542, "name": "818cade2b46106b1b433940d616a2d19"}, {"bike_id": "db194283d3bf60ff63afa3497eb3d613", "type": "electric_bike", "is_disabled": 0, "lat": 38.9377595, "rental_uris": {"ios": "https://dc.lft.to/lastmile_qr_scan", "android": "https://dc.lft.to/lastmile_qr_scan"}, "is_reserved": 0, "fusion_lon": 0.0, "fusion_lat": 0.0, "lon": -77.01879083333333, "name": "db194283d3bf60ff63afa3497eb3d613"}, {"bike_id": "fb79875ec3efb03b1ea0396094014a4a", "type": "electric_scooter", "is_disabled": 0, "lat": 38.866853666666664, "rental_uris": {"ios": "https://dc.lft.to/lastmile_qr_scan", "android": "https://dc.lft.to/lastmile_qr_scan"}, "is_reserved": 0, "fusion_lon": 0.0, "fusion_lat": 0.0, "lon": -76.9858725, "name": "fb79875ec3efb03b1ea0396094014a4a"}, {"bike_id": "0321199ba36a3493c0ece385887e395c", "type": "electric_scooter", "is_disabled": 0, "lat": 38.93458033333334, "rental_uris": {"ios": "https://dc.lft.to/lastmile_qr_scan", "android": "https://dc.lft.to/lastmile_qr_scan"}, "is_reserved": 0, "fusion_lon": 0.0, "fusion_lat": 0.0, "lon": -77.027618, "name": "0321199ba36a3493c0ece385887e395c"}, {"bike_id": "bbb382023035652914d47cd9dd5ee172", "type": "electric_bike", "is_disabled": 0, "lat": 38.983739666666665, "rental_uris": {"ios": "https://dc.lft.to/lastmile_qr_scan", "android": "https://dc.lft.to/lastmile_qr_scan"}, "is_reserved": 0, "fusion_lon": 0.0, "fusion_lat": 0.0, "lon": -76.97215033333333, "name": "bbb382023035652914d47cd9dd5ee172"}, {"bike_id": "9dcac74f9222f8b266734d6aaf82a2c0", "type": "electric_scooter", "is_disabled": 0, "lat": 38.962098166666664, "rental_uris": {"ios": "https://dc.lft.to/lastmile_qr_scan", "android": "https://dc.lft.to/lastmile_qr_scan"}, "is_reserved": 0, "fusion_lon": 0.0, "fusion_lat": 0.0, "lon": -77.0223215, "name": "9dcac74f9222f8b266734d6aaf82a2c0"}, {"bike_id": "efcb7864552c8e5c47771c5764abb81b", "type": "electric_scooter", "is_disabled": 0, "lat": 38.92228033333333, "rental_uris": {"ios": "https://dc.lft.to/lastmile_qr_scan", "android": "https://dc.lft.to/lastmile_qr_scan"}, "is_reserved": 0, "fusion_lon": 0.0, "fusion_lat": 0.0, "lon": -77.02433416666666, "name": "efcb7864552c8e5c47771c5764abb81b"}, {"bike_id": "4601caeca63151f7c7d265cbea7914f3", "type": "electric_scooter", "is_disabled": 0, "lat": 38.864804, "rental_uris": {"ios": "https://dc.lft.to/lastmile_qr_scan", "android": "https://dc.lft.to/lastmile_qr_scan"}, "is_reserved": 0, "fusion_lon": 0.0, "fusion_lat": 0.0, "lon": -77.00008016666666, "name": "4601caeca63151f7c7d265cbea7914f3"}, {"bike_id": "5033b49d7518e6f3ddeed46e9caabb58", "type": "electric_bike", "is_disabled": 0, "lat": 38.836113, "rental_uris": {"ios": "https://dc.lft.to/lastmile_qr_scan", "android": "https://dc.lft.to/lastmile_qr_scan"}, "is_reserved": 0, "fusion_lon": 0.0, "fusion_lat": 0.0, "lon": -77.00382966666666, "name": "5033b49d7518e6f3ddeed46e9caabb58"}, {"bike_id": "c6e3b6f77bb66f036aaad18c21461ba8", "type": "electric_scooter", "is_disabled": 0, "lat": 38.939546, "rental_uris": {"ios": "https://dc.lft.to/lastmile_qr_scan", "android": "https://dc.lft.to/lastmile_qr_scan"}, "is_reserved": 0, "fusion_lon": 0.0, "fusion_lat": 0.0, "lon": -77.07245583333334, "name": "c6e3b6f77bb66f036aaad18c21461ba8"}, {"bike_id": "0497ef73dcd1e14e40d7058549a859ab", "type": "electric_scooter", "is_disabled": 0, "lat": 38.91469266666667, "rental_uris": {"ios": "https://dc.lft.to/lastmile_qr_scan", "android": "https://dc.lft.to/lastmile_qr_scan"}, "is_reserved": 0, "fusion_lon": 0.0, "fusion_lat": 0.0, "lon": -77.002105, "name": "0497ef73dcd1e14e40d7058549a859ab"}, {"bike_id": "cee3a4675156aed4a00a028e501234b8", "type": "electric_scooter", "is_disabled": 0, "lat": 38.9112165, "rental_uris": {"ios": "https://dc.lft.to/lastmile_qr_scan", "android": "https://dc.lft.to/lastmile_qr_scan"}, "is_reserved": 0, "fusion_lon": 0.0, "fusion_lat": 0.0, "lon": -77.045216, "name": "cee3a4675156aed4a00a028e501234b8"}, {"bike_id": "d214219a91364f83a06140869b878e74", "type": "electric_scooter", "is_disabled": 0, "lat": 38.922785, "rental_uris": {"ios": "https://dc.lft.to/lastmile_qr_scan", "android": "https://dc.lft.to/lastmile_qr_scan"}, "is_reserved": 0, "fusion_lon": 0.0, "fusion_lat": 0.0, "lon": -77.03662383333334, "name": "d214219a91364f83a06140869b878e74"}, {"bike_id": "58573c6f7eb5f1234994d47dbe73eda1", "type": "electric_scooter", "is_disabled": 0, "lat": 38.91337216666667, "rental_uris": {"ios": "https://dc.lft.to/lastmile_qr_scan", "android": "https://dc.lft.to/lastmile_qr_scan"}, "is_reserved": 0, "fusion_lon": 0.0, "fusion_lat": 0.0, "lon": -77.03984933333334, "name": "58573c6f7eb5f1234994d47dbe73eda1"}, {"bike_id": "402d0fc475233e36b490c3dad2af0034", "type": "electric_scooter", "is_disabled": 0, "lat": 38.90104816666667, "rental_uris": {"ios": "https://dc.lft.to/lastmile_qr_scan", "android": "https://dc.lft.to/lastmile_qr_scan"}, "is_reserved": 0, "fusion_lon": 0.0, "fusion_lat": 0.0, "lon": -77.03826766666667, "name": "402d0fc475233e36b490c3dad2af0034"}, {"bike_id": "27f909888f833a7a31a7fcb178ee29fc", "type": "electric_scooter", "is_disabled": 0, "lat": 38.8432095, "rental_uris": {"ios": "https://dc.lft.to/lastmile_qr_scan", "android": "https://dc.lft.to/lastmile_qr_scan"}, "is_reserved": 0, "fusion_lon": 0.0, "fusion_lat": 0.0, "lon": -76.9993045, "name": "27f909888f833a7a31a7fcb178ee29fc"}, {"bike_id": "fb5cdfc851be230e96a823baec4d523b", "type": "electric_scooter", "is_disabled": 0, "lat": 38.919837666666666, "rental_uris": {"ios": "https://dc.lft.to/lastmile_qr_scan", "android": "https://dc.lft.to/lastmile_qr_scan"}, "is_reserved": 0, "fusion_lon": 0.0, "fusion_lat": 0.0, "lon": -77.01790533333333, "name": "fb5cdfc851be230e96a823baec4d523b"}, {"bike_id": "17d21cfe7482f7c568a48d7c4218b779", "type": "electric_scooter", "is_disabled": 0, "lat": 38.912676, "rental_uris": {"ios": "https://dc.lft.to/lastmile_qr_scan", "android": "https://dc.lft.to/lastmile_qr_scan"}, "is_reserved": 0, "fusion_lon": 0.0, "fusion_lat": 0.0, "lon": -77.06792483333334, "name": "17d21cfe7482f7c568a48d7c4218b779"}, {"bike_id": "5e39d14c9e3487ee0d81a8827a8bff3c", "type": "electric_bike", "is_disabled": 0, "lat": 38.895703833333336, "rental_uris": {"ios": "https://dc.lft.to/lastmile_qr_scan", "android": "https://dc.lft.to/lastmile_qr_scan"}, "is_reserved": 0, "fusion_lon": 0.0, "fusion_lat": 0.0, "lon": -77.12735766666667, "name": "5e39d14c9e3487ee0d81a8827a8bff3c"}, {"bike_id": "debbdc3d9b3d69f327b6828b613e617e", "type": "electric_scooter", "is_disabled": 0, "lat": 38.91710283333333, "rental_uris": {"ios": "https://dc.lft.to/lastmile_qr_scan", "android": "https://dc.lft.to/lastmile_qr_scan"}, "is_reserved": 0, "fusion_lon": 0.0, "fusion_lat": 0.0, "lon": -77.02681166666666, "name": "debbdc3d9b3d69f327b6828b613e617e"}, {"bike_id": "762c6e1498fc053f92bccca1568ff001", "type": "electric_scooter", "is_disabled": 0, "lat": 38.973716333333336, "rental_uris": {"ios": "https://dc.lft.to/lastmile_qr_scan", "android": "https://dc.lft.to/lastmile_qr_scan"}, "is_reserved": 0, "fusion_lon": 0.0, "fusion_lat": 0.0, "lon": -77.01861066666666, "name": "762c6e1498fc053f92bccca1568ff001"}, {"bike_id": "b03cbf5583a4e9b1ea7dcaa5e11367bc", "type": "electric_scooter", "is_disabled": 0, "lat": 38.939669333333335, "rental_uris": {"ios": "https://dc.lft.to/lastmile_qr_scan", "android": "https://dc.lft.to/lastmile_qr_scan"}, "is_reserved": 0, "fusion_lon": 0.0, "fusion_lat": 0.0, "lon": -77.0375445, "name": "b03cbf5583a4e9b1ea7dcaa5e11367bc"}, {"bike_id": "153e1f6f7086d060cc2a5d18912b7ec6", "type": "electric_bike", "is_disabled": 0, "lat": 38.995348, "rental_uris": {"ios": "https://dc.lft.to/lastmile_qr_scan", "android": "https://dc.lft.to/lastmile_qr_scan"}, "is_reserved": 0, "fusion_lon": 0.0, "fusion_lat": 0.0, "lon": -77.06947866666667, "name": "153e1f6f7086d060cc2a5d18912b7ec6"}, {"bike_id": "2bca3663a774a94bae3ed722b0c6809d", "type": "electric_scooter", "is_disabled": 0, "lat": 38.904189333333335, "rental_uris": {"ios": "https://dc.lft.to/lastmile_qr_scan", "android": "https://dc.lft.to/lastmile_qr_scan"}, "is_reserved": 0, "fusion_lon": 0.0, "fusion_lat": 0.0, "lon": -77.06885066666666, "name": "2bca3663a774a94bae3ed722b0c6809d"}, {"bike_id": "60ccebc5f7a7dd9c2ecd29bece666848", "type": "electric_scooter", "is_disabled": 0, "lat": 38.86890366666667, "rental_uris": {"ios": "https://dc.lft.to/lastmile_qr_scan", "android": "https://dc.lft.to/lastmile_qr_scan"}, "is_reserved": 0, "fusion_lon": 0.0, "fusion_lat": 0.0, "lon": -76.9830965, "name": "60ccebc5f7a7dd9c2ecd29bece666848"}, {"bike_id": "98554b538dad8fde719ae1d1e0c1430e", "type": "electric_scooter", "is_disabled": 0, "lat": 38.90350883333333, "rental_uris": {"ios": "https://dc.lft.to/lastmile_qr_scan", "android": "https://dc.lft.to/lastmile_qr_scan"}, "is_reserved": 0, "fusion_lon": 0.0, "fusion_lat": 0.0, "lon": -77.03641033333334, "name": "98554b538dad8fde719ae1d1e0c1430e"}, {"bike_id": "6c5c145d2a8b1923338bce707377a0ef", "type": "electric_scooter", "is_disabled": 0, "lat": 38.87648083333333, "rental_uris": {"ios": "https://dc.lft.to/lastmile_qr_scan", "android": "https://dc.lft.to/lastmile_qr_scan"}, "is_reserved": 0, "fusion_lon": 0.0, "fusion_lat": 0.0, "lon": -76.96503066666666, "name": "6c5c145d2a8b1923338bce707377a0ef"}, {"bike_id": "996373ae8953f45909ea9e25c4f54890", "type": "electric_scooter", "is_disabled": 0, "lat": 38.89753616666667, "rental_uris": {"ios": "https://dc.lft.to/lastmile_qr_scan", "android": "https://dc.lft.to/lastmile_qr_scan"}, "is_reserved": 0, "fusion_lon": 0.0, "fusion_lat": 0.0, "lon": -77.02911083333333, "name": "996373ae8953f45909ea9e25c4f54890"}, {"bike_id": "b8815a1c61735fa2d6f0932c96bd2300", "type": "electric_scooter", "is_disabled": 0, "lat": 38.96568383333333, "rental_uris": {"ios": "https://dc.lft.to/lastmile_qr_scan", "android": "https://dc.lft.to/lastmile_qr_scan"}, "is_reserved": 0, "fusion_lon": 0.0, "fusion_lat": 0.0, "lon": -77.02777416666666, "name": "b8815a1c61735fa2d6f0932c96bd2300"}, {"bike_id": "50f095ed9aabc6f6c213163e79330d7e", "type": "electric_scooter", "is_disabled": 0, "lat": 38.905174833333334, "rental_uris": {"ios": "https://dc.lft.to/lastmile_qr_scan", "android": "https://dc.lft.to/lastmile_qr_scan"}, "is_reserved": 0, "fusion_lon": 0.0, "fusion_lat": 0.0, "lon": -77.068802, "name": "50f095ed9aabc6f6c213163e79330d7e"}, {"bike_id": "d5e79f0a360995dd73b38c075df660c2", "type": "electric_scooter", "is_disabled": 0, "lat": 38.87938366666667, "rental_uris": {"ios": "https://dc.lft.to/lastmile_qr_scan", "android": "https://dc.lft.to/lastmile_qr_scan"}, "is_reserved": 0, "fusion_lon": 0.0, "fusion_lat": 0.0, "lon": -77.01640566666667, "name": "d5e79f0a360995dd73b38c075df660c2"}, {"bike_id": "79591860fcd1c7238ac212925b23f31e", "type": "electric_scooter", "is_disabled": 0, "lat": 38.925684, "rental_uris": {"ios": "https://dc.lft.to/lastmile_qr_scan", "android": "https://dc.lft.to/lastmile_qr_scan"}, "is_reserved": 0, "fusion_lon": 0.0, "fusion_lat": 0.0, "lon": -77.02710266666666, "name": "79591860fcd1c7238ac212925b23f31e"}, {"bike_id": "78a34f9027e580688e9467903ee9217e", "type": "electric_bike", "is_disabled": 0, "lat": 38.908764, "rental_uris": {"ios": "https://dc.lft.to/lastmile_qr_scan", "android": "https://dc.lft.to/lastmile_qr_scan"}, "is_reserved": 0, "fusion_lon": 0.0, "fusion_lat": 0.0, "lon": -76.99130733333334, "name": "78a34f9027e580688e9467903ee9217e"}, {"bike_id": "6534754860dfc3340528a28c88ba7611", "type": "electric_scooter", "is_disabled": 0, "lat": 38.922431833333334, "rental_uris": {"ios": "https://dc.lft.to/lastmile_qr_scan", "android": "https://dc.lft.to/lastmile_qr_scan"}, "is_reserved": 0, "fusion_lon": 0.0, "fusion_lat": 0.0, "lon": -77.073106, "name": "6534754860dfc3340528a28c88ba7611"}, {"bike_id": "1f011c5a2b77c6784832d56c8f5d1549", "type": "electric_scooter", "is_disabled": 0, "lat": 38.9311075, "rental_uris": {"ios": "https://dc.lft.to/lastmile_qr_scan", "android": "https://dc.lft.to/lastmile_qr_scan"}, "is_reserved": 0, "fusion_lon": 0.0, "fusion_lat": 0.0, "lon": -77.03460966666667, "name": "1f011c5a2b77c6784832d56c8f5d1549"}, {"bike_id": "593ed8fe12220826276427c88931edb4", "type": "electric_scooter", "is_disabled": 0, "lat": 38.87820033333333, "rental_uris": {"ios": "https://dc.lft.to/lastmile_qr_scan", "android": "https://dc.lft.to/lastmile_qr_scan"}, "is_reserved": 0, "fusion_lon": 0.0, "fusion_lat": 0.0, "lon": -77.0224245, "name": "593ed8fe12220826276427c88931edb4"}, {"bike_id": "bfba4fb42a2ee9ed44377cdeef472340", "type": "electric_scooter", "is_disabled": 0, "lat": 38.9213375, "rental_uris": {"ios": "https://dc.lft.to/lastmile_qr_scan", "android": "https://dc.lft.to/lastmile_qr_scan"}, "is_reserved": 0, "fusion_lon": 0.0, "fusion_lat": 0.0, "lon": -77.04128183333333, "name": "bfba4fb42a2ee9ed44377cdeef472340"}, {"bike_id": "2bca6b5ba3ea15a246a8f60bc2db9c4f", "type": "electric_scooter", "is_disabled": 0, "lat": 38.876514666666665, "rental_uris": {"ios": "https://dc.lft.to/lastmile_qr_scan", "android": "https://dc.lft.to/lastmile_qr_scan"}, "is_reserved": 0, "fusion_lon": 0.0, "fusion_lat": 0.0, "lon": -76.96507083333333, "name": "2bca6b5ba3ea15a246a8f60bc2db9c4f"}, {"bike_id": "de25f90e9793b8ebbf7e928165591654", "type": "electric_scooter", "is_disabled": 0, "lat": 38.925016666666664, "rental_uris": {"ios": "https://dc.lft.to/lastmile_qr_scan", "android": "https://dc.lft.to/lastmile_qr_scan"}, "is_reserved": 0, "fusion_lon": 0.0, "fusion_lat": 0.0, "lon": -77.03789983333333, "name": "de25f90e9793b8ebbf7e928165591654"}, {"bike_id": "20f7891ecf44e9f80b033fd407729ad7", "type": "electric_scooter", "is_disabled": 0, "lat": 38.920660833333336, "rental_uris": {"ios": "https://dc.lft.to/lastmile_qr_scan", "android": "https://dc.lft.to/lastmile_qr_scan"}, "is_reserved": 0, "fusion_lon": 0.0, "fusion_lat": 0.0, "lon": -77.02366333333333, "name": "20f7891ecf44e9f80b033fd407729ad7"}, {"bike_id": "06a20af25723d81a31ffbb9f5c99f98e", "type": "electric_scooter", "is_disabled": 0, "lat": 38.920367666666664, "rental_uris": {"ios": "https://dc.lft.to/lastmile_qr_scan", "android": "https://dc.lft.to/lastmile_qr_scan"}, "is_reserved": 0, "fusion_lon": 0.0, "fusion_lat": 0.0, "lon": -77.02368266666667, "name": "06a20af25723d81a31ffbb9f5c99f98e"}, {"bike_id": "6e596797efd460721f6256ab4eb967a6", "type": "electric_scooter", "is_disabled": 0, "lat": 38.93477333333333, "rental_uris": {"ios": "https://dc.lft.to/lastmile_qr_scan", "android": "https://dc.lft.to/lastmile_qr_scan"}, "is_reserved": 0, "fusion_lon": 0.0, "fusion_lat": 0.0, "lon": -77.07281616666667, "name": "6e596797efd460721f6256ab4eb967a6"}, {"bike_id": "0b3e772bcf17b6491f7b19251a754cf2", "type": "electric_scooter", "is_disabled": 0, "lat": 38.9138815, "rental_uris": {"ios": "https://dc.lft.to/lastmile_qr_scan", "android": "https://dc.lft.to/lastmile_qr_scan"}, "is_reserved": 0, "fusion_lon": 0.0, "fusion_lat": 0.0, "lon": -77.01698266666666, "name": "0b3e772bcf17b6491f7b19251a754cf2"}, {"bike_id": "de76e385efd9b3c13b774e8f6105a902", "type": "electric_bike", "is_disabled": 0, "lat": 38.8647965, "rental_uris": {"ios": "https://dc.lft.to/lastmile_qr_scan", "android": "https://dc.lft.to/lastmile_qr_scan"}, "is_reserved": 0, "fusion_lon": 0.0, "fusion_lat": 0.0, "lon": -76.97743516666667, "name": "de76e385efd9b3c13b774e8f6105a902"}, {"bike_id": "8b9ca6e3107a5c69fb8e0878b4e77d66", "type": "electric_scooter", "is_disabled": 0, "lat": 38.939827333333334, "rental_uris": {"ios": "https://dc.lft.to/lastmile_qr_scan", "android": "https://dc.lft.to/lastmile_qr_scan"}, "is_reserved": 0, "fusion_lon": 0.0, "fusion_lat": 0.0, "lon": -77.02868933333333, "name": "8b9ca6e3107a5c69fb8e0878b4e77d66"}, {"bike_id": "a4e43a8d01733f2918c8da43490e834c", "type": "electric_scooter", "is_disabled": 0, "lat": 38.89293333333333, "rental_uris": {"ios": "https://dc.lft.to/lastmile_qr_scan", "android": "https://dc.lft.to/lastmile_qr_scan"}, "is_reserved": 0, "fusion_lon": 0.0, "fusion_lat": 0.0, "lon": -77.02027766666667, "name": "a4e43a8d01733f2918c8da43490e834c"}, {"bike_id": "8179215ad6af9043948dbf6ced4210c5", "type": "electric_bike", "is_disabled": 0, "lat": 38.93505483333333, "rental_uris": {"ios": "https://dc.lft.to/lastmile_qr_scan", "android": "https://dc.lft.to/lastmile_qr_scan"}, "is_reserved": 0, "fusion_lon": 0.0, "fusion_lat": 0.0, "lon": -77.03638083333334, "name": "8179215ad6af9043948dbf6ced4210c5"}, {"bike_id": "5c834e9ba2a82bcedef5f3bd751ddebc", "type": "electric_scooter", "is_disabled": 0, "lat": 38.870698833333336, "rental_uris": {"ios": "https://dc.lft.to/lastmile_qr_scan", "android": "https://dc.lft.to/lastmile_qr_scan"}, "is_reserved": 0, "fusion_lon": 0.0, "fusion_lat": 0.0, "lon": -76.98128066666666, "name": "5c834e9ba2a82bcedef5f3bd751ddebc"}, {"bike_id": "9cb027ce6265f6201b7966c3772791fd", "type": "electric_scooter", "is_disabled": 0, "lat": 38.92327933333333, "rental_uris": {"ios": "https://dc.lft.to/lastmile_qr_scan", "android": "https://dc.lft.to/lastmile_qr_scan"}, "is_reserved": 0, "fusion_lon": 0.0, "fusion_lat": 0.0, "lon": -77.00052466666666, "name": "9cb027ce6265f6201b7966c3772791fd"}, {"bike_id": "2aa64b7483b8d8237b9b4fd972af65c5", "type": "electric_bike", "is_disabled": 0, "lat": 38.95961066666667, "rental_uris": {"ios": "https://dc.lft.to/lastmile_qr_scan", "android": "https://dc.lft.to/lastmile_qr_scan"}, "is_reserved": 0, "fusion_lon": 0.0, "fusion_lat": 0.0, "lon": -76.9816955, "name": "2aa64b7483b8d8237b9b4fd972af65c5"}, {"bike_id": "8705db31c4f638bc1aa0a22675ee1f3c", "type": "electric_scooter", "is_disabled": 0, "lat": 38.91727983333333, "rental_uris": {"ios": "https://dc.lft.to/lastmile_qr_scan", "android": "https://dc.lft.to/lastmile_qr_scan"}, "is_reserved": 0, "fusion_lon": 0.0, "fusion_lat": 0.0, "lon": -77.008157, "name": "8705db31c4f638bc1aa0a22675ee1f3c"}, {"bike_id": "b737cca99f8e47fae22c19136baaa78c", "type": "electric_scooter", "is_disabled": 0, "lat": 38.942067, "rental_uris": {"ios": "https://dc.lft.to/lastmile_qr_scan", "android": "https://dc.lft.to/lastmile_qr_scan"}, "is_reserved": 0, "fusion_lon": 0.0, "fusion_lat": 0.0, "lon": -77.02538183333333, "name": "b737cca99f8e47fae22c19136baaa78c"}, {"bike_id": "d0509455cb2ccc4cf544d5e177c4953c", "type": "electric_scooter", "is_disabled": 0, "lat": 38.9248445, "rental_uris": {"ios": "https://dc.lft.to/lastmile_qr_scan", "android": "https://dc.lft.to/lastmile_qr_scan"}, "is_reserved": 0, "fusion_lon": 0.0, "fusion_lat": 0.0, "lon": -77.0295905, "name": "d0509455cb2ccc4cf544d5e177c4953c"}, {"bike_id": "34c00189e49f1fe0fc0c959f3e407676", "type": "electric_scooter", "is_disabled": 0, "lat": 38.85813133333333, "rental_uris": {"ios": "https://dc.lft.to/lastmile_qr_scan", "android": "https://dc.lft.to/lastmile_qr_scan"}, "is_reserved": 0, "fusion_lon": 0.0, "fusion_lat": 0.0, "lon": -76.98924666666667, "name": "34c00189e49f1fe0fc0c959f3e407676"}, {"bike_id": "89f3f5bffeb1dad854ef238f8251ce59", "type": "electric_scooter", "is_disabled": 0, "lat": 38.91692116666667, "rental_uris": {"ios": "https://dc.lft.to/lastmile_qr_scan", "android": "https://dc.lft.to/lastmile_qr_scan"}, "is_reserved": 0, "fusion_lon": 0.0, "fusion_lat": 0.0, "lon": -77.028895, "name": "89f3f5bffeb1dad854ef238f8251ce59"}, {"bike_id": "c904aba98315a940567d0aba663d50c3", "type": "electric_scooter", "is_disabled": 0, "lat": 38.91419766666667, "rental_uris": {"ios": "https://dc.lft.to/lastmile_qr_scan", "android": "https://dc.lft.to/lastmile_qr_scan"}, "is_reserved": 0, "fusion_lon": 0.0, "fusion_lat": 0.0, "lon": -77.039569, "name": "c904aba98315a940567d0aba663d50c3"}, {"bike_id": "5e491d4ed01d80ff44e6e401ab8fb0b5", "type": "electric_scooter", "is_disabled": 0, "lat": 38.89968666666667, "rental_uris": {"ios": "https://dc.lft.to/lastmile_qr_scan", "android": "https://dc.lft.to/lastmile_qr_scan"}, "is_reserved": 0, "fusion_lon": 0.0, "fusion_lat": 0.0, "lon": -76.9830245, "name": "5e491d4ed01d80ff44e6e401ab8fb0b5"}, {"bike_id": "cd735466ec2eca25473868be1a6bafc2", "type": "electric_scooter", "is_disabled": 0, "lat": 38.86630433333333, "rental_uris": {"ios": "https://dc.lft.to/lastmile_qr_scan", "android": "https://dc.lft.to/lastmile_qr_scan"}, "is_reserved": 0, "fusion_lon": 0.0, "fusion_lat": 0.0, "lon": -76.98713416666666, "name": "cd735466ec2eca25473868be1a6bafc2"}, {"bike_id": "e2636f1af74610fdda2bfe30e726ea83", "type": "electric_scooter", "is_disabled": 0, "lat": 38.907886166666664, "rental_uris": {"ios": "https://dc.lft.to/lastmile_qr_scan", "android": "https://dc.lft.to/lastmile_qr_scan"}, "is_reserved": 0, "fusion_lon": 0.0, "fusion_lat": 0.0, "lon": -76.99442483333333, "name": "e2636f1af74610fdda2bfe30e726ea83"}, {"bike_id": "e37a04725f45c65b2c7322ec166b7892", "type": "electric_bike", "is_disabled": 0, "lat": 38.80756066666667, "rental_uris": {"ios": "https://dc.lft.to/lastmile_qr_scan", "android": "https://dc.lft.to/lastmile_qr_scan"}, "is_reserved": 0, "fusion_lon": 0.0, "fusion_lat": 0.0, "lon": -77.09453583333334, "name": "e37a04725f45c65b2c7322ec166b7892"}, {"bike_id": "d95583b953d90aa2dab998c35b878d42", "type": "electric_scooter", "is_disabled": 0, "lat": 38.8949105, "rental_uris": {"ios": "https://dc.lft.to/lastmile_qr_scan", "android": "https://dc.lft.to/lastmile_qr_scan"}, "is_reserved": 0, "fusion_lon": 0.0, "fusion_lat": 0.0, "lon": -76.98784533333334, "name": "d95583b953d90aa2dab998c35b878d42"}, {"bike_id": "0d8b00295347876cf6c76e5e8d2b9940", "type": "electric_scooter", "is_disabled": 0, "lat": 38.939013833333334, "rental_uris": {"ios": "https://dc.lft.to/lastmile_qr_scan", "android": "https://dc.lft.to/lastmile_qr_scan"}, "is_reserved": 0, "fusion_lon": 0.0, "fusion_lat": 0.0, "lon": -77.033415, "name": "0d8b00295347876cf6c76e5e8d2b9940"}, {"bike_id": "827a9d6701e5cf147e816f1b9a6251ae", "type": "electric_scooter", "is_disabled": 0, "lat": 38.9089755, "rental_uris": {"ios": "https://dc.lft.to/lastmile_qr_scan", "android": "https://dc.lft.to/lastmile_qr_scan"}, "is_reserved": 0, "fusion_lon": 0.0, "fusion_lat": 0.0, "lon": -77.00319016666667, "name": "827a9d6701e5cf147e816f1b9a6251ae"}, {"bike_id": "34c0ec64cbb8916e96968da22bb8eeed", "type": "electric_scooter", "is_disabled": 0, "lat": 38.914256333333334, "rental_uris": {"ios": "https://dc.lft.to/lastmile_qr_scan", "android": "https://dc.lft.to/lastmile_qr_scan"}, "is_reserved": 0, "fusion_lon": 0.0, "fusion_lat": 0.0, "lon": -77.02302166666666, "name": "34c0ec64cbb8916e96968da22bb8eeed"}, {"bike_id": "2543964e69df75f5326ae750150b7869", "type": "electric_scooter", "is_disabled": 0, "lat": 38.917706333333335, "rental_uris": {"ios": "https://dc.lft.to/lastmile_qr_scan", "android": "https://dc.lft.to/lastmile_qr_scan"}, "is_reserved": 0, "fusion_lon": 0.0, "fusion_lat": 0.0, "lon": -77.04770883333333, "name": "2543964e69df75f5326ae750150b7869"}, {"bike_id": "b69f70e6bec6cfb41f8a2498ff5c0235", "type": "electric_scooter", "is_disabled": 0, "lat": 38.91351216666666, "rental_uris": {"ios": "https://dc.lft.to/lastmile_qr_scan", "android": "https://dc.lft.to/lastmile_qr_scan"}, "is_reserved": 0, "fusion_lon": 0.0, "fusion_lat": 0.0, "lon": -77.02565116666666, "name": "b69f70e6bec6cfb41f8a2498ff5c0235"}, {"bike_id": "7768c409dde86cbef3fd1014a9446c47", "type": "electric_scooter", "is_disabled": 0, "lat": 38.90898133333334, "rental_uris": {"ios": "https://dc.lft.to/lastmile_qr_scan", "android": "https://dc.lft.to/lastmile_qr_scan"}, "is_reserved": 0, "fusion_lon": 0.0, "fusion_lat": 0.0, "lon": -77.04404483333333, "name": "7768c409dde86cbef3fd1014a9446c47"}, {"bike_id": "a0332c5021dba459d133a75f5cee36aa", "type": "electric_scooter", "is_disabled": 0, "lat": 38.908265666666665, "rental_uris": {"ios": "https://dc.lft.to/lastmile_qr_scan", "android": "https://dc.lft.to/lastmile_qr_scan"}, "is_reserved": 0, "fusion_lon": 0.0, "fusion_lat": 0.0, "lon": -77.04297816666667, "name": "a0332c5021dba459d133a75f5cee36aa"}, {"bike_id": "c37547662cb493f7952175a5077b2e96", "type": "electric_scooter", "is_disabled": 0, "lat": 38.91554516666667, "rental_uris": {"ios": "https://dc.lft.to/lastmile_qr_scan", "android": "https://dc.lft.to/lastmile_qr_scan"}, "is_reserved": 0, "fusion_lon": 0.0, "fusion_lat": 0.0, "lon": -77.02561883333334, "name": "c37547662cb493f7952175a5077b2e96"}, {"bike_id": "3ed3c0c373358ae684c2153da21814d6", "type": "electric_scooter", "is_disabled": 0, "lat": 38.92696883333333, "rental_uris": {"ios": "https://dc.lft.to/lastmile_qr_scan", "android": "https://dc.lft.to/lastmile_qr_scan"}, "is_reserved": 0, "fusion_lon": 0.0, "fusion_lat": 0.0, "lon": -77.02084333333333, "name": "3ed3c0c373358ae684c2153da21814d6"}, {"bike_id": "590e89ff29543f4409ab31def3d60de8", "type": "electric_scooter", "is_disabled": 0, "lat": 38.93739933333333, "rental_uris": {"ios": "https://dc.lft.to/lastmile_qr_scan", "android": "https://dc.lft.to/lastmile_qr_scan"}, "is_reserved": 0, "fusion_lon": 0.0, "fusion_lat": 0.0, "lon": -77.02409133333333, "name": "590e89ff29543f4409ab31def3d60de8"}, {"bike_id": "638d74d44cb20befa4e5ec9608be293c", "type": "electric_scooter", "is_disabled": 0, "lat": 38.9140055, "rental_uris": {"ios": "https://dc.lft.to/lastmile_qr_scan", "android": "https://dc.lft.to/lastmile_qr_scan"}, "is_reserved": 0, "fusion_lon": 0.0, "fusion_lat": 0.0, "lon": -77.01794733333334, "name": "638d74d44cb20befa4e5ec9608be293c"},