{"data": {"bikes": [{"name": "dd8b78c2981ae7900b54f2454fb88d9a", "lon": -77.1009235, "lat": 38.95962316666667, "type": "electric_bike", "fusion_lon": 0.0, "is_reserved": 0, "bike_id": "dd8b78c2981ae7900b54f2454fb88d9a", "fusion_lat": 0.0, "is_disabled": 0, "rental_uris": {"ios": "https://dc.lft.to/lastmile_qr_scan", "android": "https://dc.lft.to/lastmile_qr_scan"}}, {"name": "0d1666cf232f3a50169b12a1c3db2e2d", "lon": -77.0165065, "lat": 38.88116616666667, "type": "electric_scooter", "fusion_lon": 0.0, "is_reserved": 0, "bike_id": "0d1666cf232f3a50169b12a1c3db2e2d", "fusion_lat": 0.0, "is_disabled": 0, "rental_uris": {"ios": "https://dc.lft.to/lastmile_qr_scan", "android": "https://dc.lft.to/lastmile_qr_scan"}}, {"name": "13acb100b68c149e873c2aa83137ee95", "lon": -77.02725066666666, "lat": 38.940873333333336, "type": "electric_scooter", "fusion_lon": 0.0, "is_reserved": 0, "bike_id": "13acb100b68c149e873c2aa83137ee95", "fusion_lat": 0.0, "is_disabled": 0, "rental_uris": {"ios": "https://dc.lft.to/lastmile_qr_scan", "android": "https://dc.lft.to/lastmile_qr_scan"}}, {"name": "1bf14564480bcdad5ee2201823f6e060", "lon": -77.03786, "lat": 38.9247555, "type": "electric_scooter", "fusion_lon": 0.0, "is_reserved": 0, "bike_id": "1bf14564480bcdad5ee2201823f6e060", "fusion_lat": 0.0, "is_disabled": 0, "rental_uris": {"ios": "https://dc.lft.to/lastmile_qr_scan", "android": "https://dc.lft.to/lastmile_qr_scan"}}, {"name": "048e74a07ca711124ad54b2edc820b25", "lon": -77.04999283333333, "lat": 38.892309833333336, "type": "electric_scooter", "fusion_lon": 0.0, "is_reserved": 0, "bike_id": "048e74a07ca711124ad54b2edc820b25", "fusion_lat": 0.0, "is_disabled": 0, "rental_uris": {"ios": "https://dc.lft.to/lastmile_qr_scan", "android": "https://dc.lft.to/lastmile_qr_scan"}}, {"name": "182668152f060cec6c4f6fee6d3e43b9", "lon": -77.039402, "lat": 38.9140925, "type": "electric_scooter", "fusion_lon": 0.0, "is_reserved": 0, "bike_id": "182668152f060cec6c4f6fee6d3e43b9", "fusion_lat": 0.0, "is_disabled": 0, "rental_uris": {"ios": "https://dc.lft.to/lastmile_qr_scan", "android": "https://dc.lft.to/lastmile_qr_scan"}}, {"name": "32f209106ea9c607206cc9115888ea20", "lon": -77.0316125, "lat": 38.911904, "type": "electric_scooter", "fusion_lon": 0.0, "is_reserved": 0, "bike_id": "32f209106ea9c607206cc9115888ea20", "fusion_lat": 0.0, "is_disabled": 0, "rental_uris": {"ios": "https://dc.lft.to/lastmile_qr_scan", "android": "https://dc.lft.to/lastmile_qr_scan"}}, {"name": "526eb4e18599ed090f6f7cc588db8882", "lon": -77.02043983333333, "lat": 38.915552, "type": "electric_scooter", "fusion_lon": 0.0, "is_reserved": 0, "bike_id": "526eb4e18599ed090f6f7cc588db8882", "fusion_lat": 0.0, "is_disabled": 0, "rental_uris": {"ios": "https://dc.lft.to/lastmile_qr_scan", "android": "https://dc.lft.to/lastmile_qr_scan"}}, {"name": "998dada15babff04a9cf78ab472b6cd2", "lon": -77.0341065, "lat": 38.920428666666666, "type": "electric_scooter", "fusion_lon": 0.0, "is_reserved": 0, "bike_id": "998dada15babff04a9cf78ab472b6cd2", "fusion_lat": 0.0, "is_disabled": 0, "rental_uris": {"ios": "https://dc.lft.to/lastmile_qr_scan", "android": "https://dc.lft.to/lastmile_qr_scan"}}, {"name": "9fce20b5e61912a871c2b220b2a788af", "lon": -77.0321405, "lat": 38.9361195, "type": "electric_scooter", "fusion_lon": 0.0, "is_reserved": 0, "bike_id": "9fce20b5e61912a871c2b220b2a788af", "fusion_lat": 0.0, "is_disabled": 0, "rental_uris": {"ios": "https://dc.lft.to/lastmile_qr_scan", "android": "https://dc.lft.to/lastmile_qr_scan"}}, {"name": "c846cb0a7cf345bc7ea7ee982bf1a636", "lon": -76.9501655, "lat": 38.8938755, "type": "electric_scooter", "fusion_lon": 0.0, "is_reserved": 0, "bike_id": "c846cb0a7cf345bc7ea7ee982bf1a636", "fusion_lat": 0.0, "is_disabled": 0, "rental_uris": {"ios": "https://dc.lft.to/lastmile_qr_scan", "android": "https://dc.lft.to/lastmile_qr_scan"}}, {"name": "8ffda95cc4911c5a620be02a0411d0ee", "lon": -77.03601133333333, "lat": 38.92800666666667, "type": "electric_scooter", "fusion_lon": 0.0, "is_reserved": 0, "bike_id": "8ffda95cc4911c5a620be02a0411d0ee", "fusion_lat": 0.0, "is_disabled": 0, "rental_uris": {"ios": "https://dc.lft.to/lastmile_qr_scan", "android": "https://dc.lft.to/lastmile_qr_scan"}}, {"name": "672d3f54d73031225430583caedad073", "lon": -77.03264816666666, "lat": 38.9162995, "type": "electric_scooter", "fusion_lon": 0.0, "is_reserved": 0, "bike_id": "672d3f54d73031225430583caedad073", "fusion_lat": 0.0, "is_disabled": 0, "rental_uris": {"ios": "https://dc.lft.to/lastmile_qr_scan", "android": "https://dc.lft.to/lastmile_qr_scan"}}, {"name": "c7bf3ae50991fbdf2382ac49eb1c9df7", "lon": -77.02471583333333, "lat": 38.92076433333333, "type": "electric_scooter", "fusion_lon": 0.0, "is_reserved": 0, "bike_id": "c7bf3ae50991fbdf2382ac49eb1c9df7", "fusion_lat": 0.0, "is_disabled": 0, "rental_uris": {"ios": "https://dc.lft.to/lastmile_qr_scan", "android": "https://dc.lft.to/lastmile_qr_scan"}}, {"name": "aadee4a1a0c97bc4dc2534a884172d07", "lon": -77.02711683333334, "lat": 38.92459316666667, "type": "electric_scooter", "fusion_lon": 0.0, "is_reserved": 0, "bike_id": "aadee4a1a0c97bc4dc2534a884172d07", "fusion_lat": 0.0, "is_disabled": 0, "rental_uris": {"ios": "https://dc.lft.to/lastmile_qr_scan", "android": "https://dc.lft.to/lastmile_qr_scan"}}, {"name": "9c0ee10aff57463d4960ef1d01b28fa5", "lon": -77.03461533333333, "lat": 38.920569666666665, "type": "electric_scooter", "fusion_lon": 0.0, "is_reserved": 0, "bike_id": "9c0ee10aff57463d4960ef1d01b28fa5", "fusion_lat": 0.0, "is_disabled": 0, "rental_uris": {"ios": "https://dc.lft.to/lastmile_qr_scan", "android": "https://dc.lft.to/lastmile_qr_scan"}}, {"name": "4180e49cabb20c389e150dc9ae2e4487", "lon": -77.057597, "lat": 38.92485816666667, "type": "electric_bike", "fusion_lon": 0.0, "is_reserved": 0, "bike_id": "4180e49cabb20c389e150dc9ae2e4487", "fusion_lat": 0.0, "is_disabled": 0, "rental_uris": {"ios": "https://dc.lft.to/lastmile_qr_scan", "android": "https://dc.lft.to/lastmile_qr_scan"}}, {"name": "36e6999a07c526bd53445be5eb11e7ff", "lon": -76.98826066666666, "lat": 38.900363666666664, "type": "electric_scooter", "fusion_lon": 0.0, "is_reserved": 0, "bike_id": "36e6999a07c526bd53445be5eb11e7ff", "fusion_lat": 0.0, "is_disabled": 0, "rental_uris": {"ios": "https://dc.lft.to/lastmile_qr_scan", "android": "https://dc.lft.to/lastmile_qr_scan"}}, {"name": "78cd3b0afbfd4eb86cdb04f5e3469df2", "lon": -77.041216, "lat": 38.9231605, "type": "electric_scooter", "fusion_lon": 0.0, "is_reserved": 0, "bike_id": "78cd3b0afbfd4eb86cdb04f5e3469df2", "fusion_lat": 0.0, "is_disabled": 0, "rental_uris": {"ios": "https://dc.lft.to/lastmile_qr_scan", "android": "https://dc.lft.to/lastmile_qr_scan"}}, {"name": "c99d4f52af7c3277a364f948b7d1d197", "lon": -77.03440666666667, "lat": 38.90973483333333, "type": "electric_scooter", "fusion_lon": 0.0, "is_reserved": 0, "bike_id": "c99d4f52af7c3277a364f948b7d1d197", "fusion_lat": 0.0, "is_disabled": 0, "rental_uris": {"ios": "https://dc.lft.to/lastmile_qr_scan", "android": "https://dc.lft.to/lastmile_qr_scan"}}, {"name": "a34f424d23fdd06a3647f4babb59b8a4", "lon": -77.03797333333333, "lat": 38.91543933333333, "type": "electric_scooter", "fusion_lon": 0.0, "is_reserved": 0, "bike_id": "a34f424d23fdd06a3647f4babb59b8a4", "fusion_lat": 0.0, "is_disabled": 0, "rental_uris": {"ios": "https://dc.lft.to/lastmile_qr_scan", "android": "https://dc.lft.to/lastmile_qr_scan"}}, {"name": "ac5f08ccea925a6774f3ffeed082153a", "lon": -77.0005065, "lat": 38.876600333333336, "type": "electric_scooter", "fusion_lon": 0.0, "is_reserved": 0, "bike_id": "ac5f08ccea925a6774f3ffeed082153a", "fusion_lat": 0.0, "is_disabled": 0, "rental_uris": {"ios": "https://dc.lft.to/lastmile_qr_scan", "android": "https://dc.lft.to/lastmile_qr_scan"}}, {"name": "b87ca62670bdad2d1af73a66a04deb26", "lon": -76.949409, "lat": 38.89510216666667, "type": "electric_scooter", "fusion_lon": 0.0, "is_reserved": 0, "bike_id": "b87ca62670bdad2d1af73a66a04deb26", "fusion_lat": 0.0, "is_disabled": 0, "rental_uris": {"ios": "https://dc.lft.to/lastmile_qr_scan", "android": "https://dc.lft.to/lastmile_qr_scan"}}, {"name": "e38f36efa5a8f3a46895c01ca79fd3fa", "lon": -77.0718805, "lat": 38.95953933333333, "type": "electric_scooter", "fusion_lon": 0.0, "is_reserved": 0, "bike_id": "e38f36efa5a8f3a46895c01ca79fd3fa", "fusion_lat": 0.0, "is_disabled": 0, "rental_uris": {"ios": "https://dc.lft.to/lastmile_qr_scan", "android": "https://dc.lft.to/lastmile_qr_scan"}}, {"name": "e7e29ae589c8093045b0b99726b92df6", "lon": -77.0151115, "lat": 38.91052066666666, "type": "electric_scooter", "fusion_lon": 0.0, "is_reserved": 0, "bike_id": "e7e29ae589c8093045b0b99726b92df6", "fusion_lat": 0.0, "is_disabled": 0, "rental_uris": {"ios": "https://dc.lft.to/lastmile_qr_scan", "android": "https://dc.lft.to/lastmile_qr_scan"}}, {"name": "1c2aa805c858cbd3b3542252876c4503", "lon": -77.038642, "lat": 38.9171125, "type": "electric_scooter", "fusion_lon": 0.0, "is_reserved": 0, "bike_id": "1c2aa805c858cbd3b3542252876c4503", "fusion_lat": 0.0, "is_disabled": 0, "rental_uris": {"ios": "https://dc.lft.to/lastmile_qr_scan", "android": "https://dc.lft.to/lastmile_qr_scan"}}, {"name": "0847504f617d73fcdf8312e2ced573a0", "lon": -77.04138983333333, "lat": 38.92275466666667, "type": "electric_scooter", "fusion_lon": 0.0, "is_reserved": 0, "bike_id": "0847504f617d73fcdf8312e2ced573a0", "fusion_lat": 0.0, "is_disabled": 0, "rental_uris": {"ios": "https://dc.lft.to/lastmile_qr_scan", "android": "https://dc.lft.to/lastmile_qr_scan"}}, {"name": "be410b23ccdfaec6cc1b52ebcda759ba", "lon": -77.0262215, "lat": 38.90567466666667, "type": "electric_scooter", "fusion_lon": 0.0, "is_reserved": 0, "bike_id": "be410b23ccdfaec6cc1b52ebcda759ba", "fusion_lat": 0.0, "is_disabled": 0, "rental_uris": {"ios": "https://dc.lft.to/lastmile_qr_scan", "android": "https://dc.lft.to/lastmile_qr_scan"}}, {"name": "f234bb9fd098897a2e6907f682d9707b", "lon": -77.00890566666666, "lat": 38.903518, "type": "electric_scooter", "fusion_lon": 0.0, "is_reserved": 0, "bike_id": "f234bb9fd098897a2e6907f682d9707b", "fusion_lat": 0.0, "is_disabled": 0, "rental_uris": {"ios": "https://dc.lft.to/lastmile_qr_scan", "android": "https://dc.lft.to/lastmile_qr_scan"}}, {"name": "258768d9c187c973d2f533d2960737da", "lon": -77.03895033333333, "lat": 38.9083555, "type": "electric_scooter", "fusion_lon": 0.0, "is_reserved": 0, "bike_id": "258768d9c187c973d2f533d2960737da", "fusion_lat": 0.0, "is_disabled": 0, "rental_uris": {"ios": "https://dc.lft.to/lastmile_qr_scan", "android": "https://dc.lft.to/lastmile_qr_scan"}}, {"name": "caf609913e8cc7d5ce1edaf04c4fae23", "lon": -76.95988033333333, "lat": 38.8698395, "type": "electric_bike", "fusion_lon": 0.0, "is_reserved": 0, "bike_id": "caf609913e8cc7d5ce1edaf04c4fae23", "fusion_lat": 0.0, "is_disabled": 0, "rental_uris": {"ios": "https://dc.lft.to/lastmile_qr_scan", "android": "https://dc.lft.to/lastmile_qr_scan"}}, {"name": "2f1c16d51bac3e224cf94819939b68c5", "lon": -76.99599, "lat": 38.8568915, "type": "electric_scooter", "fusion_lon": 0.0, "is_reserved": 0, "bike_id": "2f1c16d51bac3e224cf94819939b68c5", "fusion_lat": 0.0, "is_disabled": 0, "rental_uris": {"ios": "https://dc.lft.to/lastmile_qr_scan", "android": "https://dc.lft.to/lastmile_qr_scan"}}, {"name": "79de12059ba8888f6ee8a60bf5e0266d", "lon": -77.031828, "lat": 38.913542666666665, "type": "electric_scooter", "fusion_lon": 0.0, "is_reserved": 0, "bike_id": "79de12059ba8888f6ee8a60bf5e0266d", "fusion_lat": 0.0, "is_disabled": 0, "rental_uris": {"ios": "https://dc.lft.to/lastmile_qr_scan", "android": "https://dc.lft.to/lastmile_qr_scan"}}, {"name": "67085e206cfd8d8db2c0c48961ad2cd7", "lon": -77.00830866666666, "lat": 38.8291115, "type": "electric_bike", "fusion_lon": 0.0, "is_reserved": 0, "bike_id": "67085e206cfd8d8db2c0c48961ad2cd7", "fusion_lat": 0.0, "is_disabled": 0, "rental_uris": {"ios": "https://dc.lft.to/lastmile_qr_scan", "android": "https://dc.lft.to/lastmile_qr_scan"}}, {"name": "993ef8dcbb86b0c8bf45deeefd393faf", "lon": -77.09485816666667, "lat": 39.030533166666665, "type": "electric_bike", "fusion_lon": 0.0, "is_reserved": 0, "bike_id": "993ef8dcbb86b0c8bf45deeefd393faf", "fusion_lat": 0.0, "is_disabled": 0, "rental_uris": {"ios": "https://dc.lft.to/lastmile_qr_scan", "android": "https://dc.lft.to/lastmile_qr_scan"}}, {"name": "137710d9a400a690d76f14cdda217e60", "lon": -77.04879733333334, "lat": 38.91558766666667, "type": "electric_scooter", "fusion_lon": 0.0, "is_reserved": 0, "bike_id": "137710d9a400a690d76f14cdda217e60", "fusion_lat": 0.0, "is_disabled": 0, "rental_uris": {"ios": "https://dc.lft.to/lastmile_qr_scan", "android": "https://dc.lft.to/lastmile_qr_scan"}}, {"name": "778f47810077249935c9339812df7b35", "lon": -77.02333316666666, "lat": 38.9248045, "type": "electric_scooter", "fusion_lon": 0.0, "is_reserved": 0, "bike_id": "778f47810077249935c9339812df7b35", "fusion_lat": 0.0, "is_disabled": 0, "rental_uris": {"ios": "https://dc.lft.to/lastmile_qr_scan", "android": "https://dc.lft.to/lastmile_qr_scan"}}, {"name": "168d7561cdba3061ac63e933e8cdf4e7", "lon": -76.988314, "lat": 38.90039783333334, "type": "electric_scooter", "fusion_lon": 0.0, "is_reserved": 0, "bike_id": "168d7561cdba3061ac63e933e8cdf4e7", "fusion_lat": 0.0, "is_disabled": 0, "rental_uris": {"ios": "https://dc.lft.to/lastmile_qr_scan", "android": "https://dc.lft.to/lastmile_qr_scan"}}, {"name": "3a16f685759b69a1bf480fe28fe049ff", "lon": -76.97429066666666, "lat": 38.904463166666666, "type": "electric_scooter", "fusion_lon": 0.0, "is_reserved": 0, "bike_id": "3a16f685759b69a1bf480fe28fe049ff", "fusion_lat": 0.0, "is_disabled": 0, "rental_uris": {"ios": "https://dc.lft.to/lastmile_qr_scan", "android": "https://dc.lft.to/lastmile_qr_scan"}}, {"name": "10507d2a52451377f85c797af88999f0", "lon": -77.02691316666667, "lat": 38.908764, "type": "electric_scooter", "fusion_lon": 0.0, "is_reserved": 0, "bike_id": "10507d2a52451377f85c797af88999f0", "fusion_lat": 0.0, "is_disabled": 0, "rental_uris": {"ios": "https://dc.lft.to/lastmile_qr_scan", "android": "https://dc.lft.to/lastmile_qr_scan"}}, {"name": "40cfbe7f001c0e133b68198579959d26", "lon": -77.00534866666666, "lat": 38.91553116666667, "type": "electric_scooter", "fusion_lon": 0.0, "is_reserved": 0, "bike_id": "40cfbe7f001c0e133b68198579959d26", "fusion_lat": 0.0, "is_disabled": 0, "rental_uris": {"ios": "https://dc.lft.to/lastmile_qr_scan", "android": "https://dc.lft.to/lastmile_qr_scan"}}, {"name": "335e30aef78ac12f4138ecf9d9aea183", "lon": -77.02717566666666, "lat": 38.918204333333335, "type": "electric_scooter", "fusion_lon": 0.0, "is_reserved": 0, "bike_id": "335e30aef78ac12f4138ecf9d9aea183", "fusion_lat": 0.0, "is_disabled": 0, "rental_uris": {"ios": "https://dc.lft.to/lastmile_qr_scan", "android": "https://dc.lft.to/lastmile_qr_scan"}}, {"name": "9d6aa203e3958f2afd7acd1e500dbd19", "lon": -77.0109795, "lat": 38.873021333333334, "type": "electric_bike", "fusion_lon": 0.0, "is_reserved": 0, "bike_id": "9d6aa203e3958f2afd7acd1e500dbd19", "fusion_lat": 0.0, "is_disabled": 0, "rental_uris": {"ios": "https://dc.lft.to/lastmile_qr_scan", "android": "https://dc.lft.to/lastmile_qr_scan"}}, {"name": "9a41d39867f435fc8e931ded38bbe1a5", "lon": -77.03721883333333, "lat": 38.916969333333334, "type": "electric_scooter", "fusion_lon": 0.0, "is_reserved": 0, "bike_id": "9a41d39867f435fc8e931ded38bbe1a5", "fusion_lat": 0.0, "is_disabled": 0, "rental_uris": {"ios": "https://dc.lft.to/lastmile_qr_scan", "android": "https://dc.lft.to/lastmile_qr_scan"}}, {"name": "cffc3f33373faa638c9686a9ba78fac0", "lon": -77.02896466666667, "lat": 39.0375275, "type": "electric_scooter", "fusion_lon": 0.0, "is_reserved": 0, "bike_id": "cffc3f33373faa638c9686a9ba78fac0", "fusion_lat": 0.0, "is_disabled": 0, "rental_uris": {"ios": "https://dc.lft.to/lastmile_qr_scan", "android": "https://dc.lft.to/lastmile_qr_scan"}}, {"name": "699463b1e0a2dca628812d84f4c8847e", "lon": -76.9748005, "lat": 38.90351783333333, "type": "electric_scooter", "fusion_lon": 0.0, "is_reserved": 0, "bike_id": "699463b1e0a2dca628812d84f4c8847e", "fusion_lat": 0.0, "is_disabled": 0, "rental_uris": {"ios": "https://dc.lft.to/lastmile_qr_scan", "android": "https://dc.lft.to/lastmile_qr_scan"}}, {"name": "753ebfa104451cb81deb52b403ff9acb", "lon": -77.02085066666666, "lat": 38.875814, "type": "electric_scooter", "fusion_lon": 0.0, "is_reserved": 0, "bike_id": "753ebfa104451cb81deb52b403ff9acb", "fusion_lat": 0.0, "is_disabled": 0, "rental_uris": {"ios": "https://dc.lft.to/lastmile_qr_scan", "android": "https://dc.lft.to/lastmile_qr_scan"}}, {"name": "0516088aa241f5d4e26a7a81208fff17", "lon": -76.9986685, "lat": 38.9003085, "type": "electric_scooter", "fusion_lon": 0.0, "is_reserved": 0, "bike_id": "0516088aa241f5d4e26a7a81208fff17", "fusion_lat": 0.0, "is_disabled": 0, "rental_uris": {"ios": "https://dc.lft.to/lastmile_qr_scan", "android": "https://dc.lft.to/lastmile_qr_scan"}}, {"name": "b9f4906905f56a16b8595d1af512a26d", "lon": -77.05811083333333, "lat": 38.93510666666667, "type": "electric_scooter", "fusion_lon": 0.0, "is_reserved": 0, "bike_id": "b9f4906905f56a16b8595d1af512a26d", "fusion_lat": 0.0, "is_disabled": 0, "rental_uris": {"ios": "https://dc.lft.to/lastmile_qr_scan", "android": "https://dc.lft.to/lastmile_qr_scan"}}, {"name": "cf45219c0b787831ade4f7feab33edc5", "lon": -77.01186216666666, "lat": 38.900276, "type": "electric_scooter", "fusion_lon": 0.0, "is_reserved": 0, "bike_id": "cf45219c0b787831ade4f7feab33edc5", "fusion_lat": 0.0, "is_disabled": 0, "rental_uris": {"ios": "https://dc.lft.to/lastmile_qr_scan", "android": "https://dc.lft.to/lastmile_qr_scan"}}, {"name": "5de15e7e7d8d6fb9f43fd98eb00a0786", "lon": -77.01508633333333, "lat": 38.8863385, "type": "electric_scooter", "fusion_lon": 0.0, "is_reserved": 0, "bike_id": "5de15e7e7d8d6fb9f43fd98eb00a0786", "fusion_lat": 0.0, "is_disabled": 0, "rental_uris": {"ios": "https://dc.lft.to/lastmile_qr_scan", "android": "https://dc.lft.to/lastmile_qr_scan"}}, {"name": "a5ba48c96beb8c7519426fdb30c3fb50", "lon": -77.0166645, "lat": 38.881244, "type": "electric_scooter", "fusion_lon": 0.0, "is_reserved": 0, "bike_id": "a5ba48c96beb8c7519426fdb30c3fb50", "fusion_lat": 0.0, "is_disabled": 0, "rental_uris": {"ios": "https://dc.lft.to/lastmile_qr_scan", "android": "https://dc.lft.to/lastmile_qr_scan"}}, {"name": "4002575ccc2fe32c3f54d408cbe5ad6d", "lon": -77.02180283333334, "lat": 38.934726166666664, "type": "electric_scooter", "fusion_lon": 0.0, "is_reserved": 0, "bike_id": "4002575ccc2fe32c3f54d408cbe5ad6d", "fusion_lat": 0.0, "is_disabled": 0, "rental_uris": {"ios": "https://dc.lft.to/lastmile_qr_scan", "android": "https://dc.lft.to/lastmile_qr_scan"}}, {"name": "5d444c3999f0dd9de2175cdd6c5482bf", "lon": -77.0283095, "lat": 38.95086166666667, "type": "electric_scooter", "fusion_lon": 0.0, "is_reserved": 0, "bike_id": "5d444c3999f0dd9de2175cdd6c5482bf", "fusion_lat": 0.0, "is_disabled": 0, "rental_uris": {"ios": "https://dc.lft.to/lastmile_qr_scan", "android": "https://dc.lft.to/lastmile_qr_scan"}}, {"name": "3ae3781f4cb2ce11eb99eef0ba65ace9", "lon": -77.0385875, "lat": 38.907826, "type": "electric_scooter", "fusion_lon": 0.0, "is_reserved": 0, "bike_id": "3ae3781f4cb2ce11eb99eef0ba65ace9", "fusion_lat": 0.0, "is_disabled": 0, "rental_uris": {"ios": "https://dc.lft.to/lastmile_qr_scan", "android": "https://dc.lft.to/lastmile_qr_scan"}}, {"name": "feaa7992e567eefc445f25d27d4b50be", "lon": -77.04753983333333, "lat": 38.905419333333334, "type": "electric_scooter", "fusion_lon": 0.0, "is_reserved": 0, "bike_id": "feaa7992e567eefc445f25d27d4b50be", "fusion_lat": 0.0, "is_disabled": 0, "rental_uris": {"ios": "https://dc.lft.to/lastmile_qr_scan", "android": "https://dc.lft.to/lastmile_qr_scan"}}, {"name": "1e9f10b3da4bec487d3cb204455b1a91", "lon": -77.050926, "lat": 38.81332333333334, "type": "electric_bike", "fusion_lon": 0.0, "is_reserved": 0, "bike_id": "1e9f10b3da4bec487d3cb204455b1a91", "fusion_lat": 0.0, "is_disabled": 0, "rental_uris": {"ios": "https://dc.lft.to/lastmile_qr_scan", "android": "https://dc.lft.to/lastmile_qr_scan"}}, {"name": "e7467bbff4660117fb26492275fc02fe", "lon": -77.07357983333333, "lat": 38.9305, "type": "electric_bike", "fusion_lon": 0.0, "is_reserved": 0, "bike_id": "e7467bbff4660117fb26492275fc02fe", "fusion_lat": 0.0, "is_disabled": 0, "rental_uris": {"ios": "https://dc.lft.to/lastmile_qr_scan", "android": "https://dc.lft.to/lastmile_qr_scan"}}, {"name": "c2a161044842c22c71728c270e0a1974", "lon": -77.03182066666666, "lat": 38.91352333333333, "type": "electric_scooter", "fusion_lon": 0.0, "is_reserved": 0, "bike_id": "c2a161044842c22c71728c270e0a1974", "fusion_lat": 0.0, "is_disabled": 0, "rental_uris": {"ios": "https://dc.lft.to/lastmile_qr_scan", "android": "https://dc.lft.to/lastmile_qr_scan"}}, {"name": "6f4407051e71e28b2944128a96ed12fc", "lon": -77.022081, "lat": 38.9101105, "type": "electric_scooter", "fusion_lon": 0.0, "is_reserved": 0, "bike_id": "6f4407051e71e28b2944128a96ed12fc", "fusion_lat": 0.0, "is_disabled": 0, "rental_uris": {"ios": "https://dc.lft.to/lastmile_qr_scan", "android": "https://dc.lft.to/lastmile_qr_scan"}}, {"name": "26585bdb1fa76caa37088316f77ee72e", "lon": -77.024941, "lat": 38.90633583333333, "type": "electric_scooter", "fusion_lon": 0.0, "is_reserved": 0, "bike_id": "26585bdb1fa76caa37088316f77ee72e", "fusion_lat": 0.0, "is_disabled": 0, "rental_uris": {"ios": "https://dc.lft.to/lastmile_qr_scan", "android": "https://dc.lft.to/lastmile_qr_scan"}}, {"name": "d30adbfe184ccbb2b9fedcebe8f01a75", "lon": -77.11598, "lat": 39.074956666666665, "type": "electric_bike", "fusion_lon": 0.0, "is_reserved": 0, "bike_id": "d30adbfe184ccbb2b9fedcebe8f01a75", "fusion_lat": 0.0, "is_disabled": 0, "rental_uris": {"ios": "https://dc.lft.to/lastmile_qr_scan", "android": "https://dc.lft.to/lastmile_qr_scan"}}, {"name": "9457c825c3684c22b9d59c598d2c4d31", "lon": -76.99773283333333, "lat": 38.9091145, "type": "electric_scooter", "fusion_lon": 0.0, "is_reserved": 0, "bike_id": "9457c825c3684c22b9d59c598d2c4d31", "fusion_lat": 0.0, "is_disabled": 0, "rental_uris": {"ios": "https://dc.lft.to/lastmile_qr_scan", "android": "https://dc.lft.to/lastmile_qr_scan"}}, {"name": "73c17dc86b94728ea0b43bbb95c06be8", "lon": -77.02392316666666, "lat": 38.89635483333333, "type": "electric_scooter", "fusion_lon": 0.0, "is_reserved": 0, "bike_id": "73c17dc86b94728ea0b43bbb95c06be8", "fusion_lat": 0.0, "is_disabled": 0, "rental_uris": {"ios": "https://dc.lft.to/lastmile_qr_scan", "android": "https://dc.lft.to/lastmile_qr_scan"}}, {"name": "2483496aaa80c6efb58a32919e7dcd54", "lon": -77.03636316666666, "lat": 38.923457666666664, "type": "electric_scooter", "fusion_lon": 0.0, "is_reserved": 0, "bike_id": "2483496aaa80c6efb58a32919e7dcd54", "fusion_lat": 0.0, "is_disabled": 0, "rental_uris": {"ios": "https://dc.lft.to/lastmile_qr_scan", "android": "https://dc.lft.to/lastmile_qr_scan"}}, {"name": "74e29e3ff5e1be30112d2a5237b67300", "lon": -77.0298235, "lat": 38.93449916666667, "type": "electric_scooter", "fusion_lon": 0.0, "is_reserved": 0, "bike_id": "74e29e3ff5e1be30112d2a5237b67300", "fusion_lat": 0.0, "is_disabled": 0, "rental_uris": {"ios": "https://dc.lft.to/lastmile_qr_scan", "android": "https://dc.lft.to/lastmile_qr_scan"}}, {"name": "1257455fa5870a988793df76f65e2d3d", "lon": -77.03443933333334, "lat": 38.9309665, "type": "electric_scooter", "fusion_lon": 0.0, "is_reserved": 0, "bike_id": "1257455fa5870a988793df76f65e2d3d", "fusion_lat": 0.0, "is_disabled": 0, "rental_uris": {"ios": "https://dc.lft.to/lastmile_qr_scan", "android": "https://dc.lft.to/lastmile_qr_scan"}}, {"name": "07e6eb33d8a92946613509237d375ad4", "lon": -77.06417733333333, "lat": 38.9455805, "type": "electric_scooter", "fusion_lon": 0.0, "is_reserved": 0, "bike_id": "07e6eb33d8a92946613509237d375ad4", "fusion_lat": 0.0, "is_disabled": 0, "rental_uris": {"ios": "https://dc.lft.to/lastmile_qr_scan", "android": "https://dc.lft.to/lastmile_qr_scan"}}, {"name": "4d48f65a9b197cfb86c5fe96f1916d3b", "lon": -77.04929233333333, "lat": 38.81349216666667, "type": "electric_bike", "fusion_lon": 0.0, "is_reserved": 0, "bike_id": "4d48f65a9b197cfb86c5fe96f1916d3b", "fusion_lat": 0.0, "is_disabled": 0, "rental_uris": {"ios": "https://dc.lft.to/lastmile_qr_scan", "android": "https://dc.lft.to/lastmile_qr_scan"}}, {"name": "c00641ef6917a7e01cde5e3c3c35e690", "lon": -77.04493383333333, "lat": 38.9132945, "type": "electric_scooter", "fusion_lon": 0.0, "is_reserved": 0, "bike_id": "c00641ef6917a7e01cde5e3c3c35e690", "fusion_lat": 0.0, "is_disabled": 0, "rental_uris": {"ios": "https://dc.lft.to/lastmile_qr_scan", "android": "https://dc.lft.to/lastmile_qr_scan"}}, {"name": "c3265f569b6f464b1c041841e513f0c6", "lon": -77.01852383333333, "lat": 38.90382666666667, "type": "electric_scooter", "fusion_lon": 0.0, "is_reserved": 0, "bike_id": "c3265f569b6f464b1c041841e513f0c6", "fusion_lat": 0.0, "is_disabled": 0, "rental_uris": {"ios": "https://dc.lft.to/lastmile_qr_scan", "android": "https://dc.lft.to/lastmile_qr_scan"}}, {"name": "82f1e9fdd640814bf5d5808c9f3eaf5c", "lon": -77.0173325, "lat": 38.8727495, "type": "electric_scooter", "fusion_lon": 0.0, "is_reserved": 0, "bike_id": "82f1e9fdd640814bf5d5808c9f3eaf5c", "fusion_lat": 0.0, "is_disabled": 0, "rental_uris": {"ios": "https://dc.lft.to/lastmile_qr_scan", "android": "https://dc.lft.to/lastmile_qr_scan"}}, {"name": "6dec0efc0c7e2c08b89cda41effe2e08", "lon": -77.02451383333333, "lat": 38.9180985, "type": "electric_scooter", "fusion_lon": 0.0, "is_reserved": 0, "bike_id": "6dec0efc0c7e2c08b89cda41effe2e08", "fusion_lat": 0.0, "is_disabled": 0, "rental_uris": {"ios": "https://dc.lft.to/lastmile_qr_scan", "android": "https://dc.lft.to/lastmile_qr_scan"}}, {"name": "011e49f9541d28270ad3d4f95ed359e4", "lon": -77.05119933333333, "lat": 38.92366083333334, "type": "electric_scooter", "fusion_lon": 0.0, "is_reserved": 0, "bike_id": "011e49f9541d28270ad3d4f95ed359e4", "fusion_lat": 0.0, "is_disabled": 0, "rental_uris": {"ios": "https://dc.lft.to/lastmile_qr_scan", "android": "https://dc.lft.to/lastmile_qr_scan"}}, {"name": "195b422352caf69a0745b4b2f6975288", "lon": -77.01761133333333, "lat": 38.8772545, "type": "electric_scooter", "fusion_lon": 0.0, "is_reserved": 0, "bike_id": "195b422352caf69a0745b4b2f6975288", "fusion_lat": 0.0, "is_disabled": 0, "rental_uris": {"ios": "https://dc.lft.to/lastmile_qr_scan", "android": "https://dc.lft.to/lastmile_qr_scan"}}, {"name": "245db8f3a7277b189e405973cb097aa4", "lon": -77.01758, "lat": 38.875072, "type": "electric_scooter", "fusion_lon": 0.0, "is_reserved": 0, "bike_id": "245db8f3a7277b189e405973cb097aa4", "fusion_lat": 0.0, "is_disabled": 0, "rental_uris": {"ios": "https://dc.lft.to/lastmile_qr_scan", "android": "https://dc.lft.to/lastmile_qr_scan"}}, {"name": "a4c1eedcd9a1c3d3b02a422bc136e52d", "lon": -77.00197266666666, "lat": 38.9024465, "type": "electric_scooter", "fusion_lon": 0.0, "is_reserved": 0, "bike_id": "a4c1eedcd9a1c3d3b02a422bc136e52d", "fusion_lat": 0.0, "is_disabled": 0, "rental_uris": {"ios": "https://dc.lft.to/lastmile_qr_scan", "android": "https://dc.lft.to/lastmile_qr_scan"}}, {"name": "388d6b42b11b4a80b194e36d3251cfaf", "lon": -77.0882485, "lat": 38.909749, "type": "electric_bike", "fusion_lon": 0.0, "is_reserved": 0, "bike_id": "388d6b42b11b4a80b194e36d3251cfaf", "fusion_lat": 0.0, "is_disabled": 0, "rental_uris": {"ios": "https://dc.lft.to/lastmile_qr_scan", "android": "https://dc.lft.to/lastmile_qr_scan"}}, {"name": "65fe14b62fca64b56f102eb2be028354", "lon": -77.02292983333334, "lat": 38.91682483333334, "type": "electric_scooter", "fusion_lon": 0.0, "is_reserved": 0, "bike_id": "65fe14b62fca64b56f102eb2be028354", "fusion_lat": 0.0, "is_disabled": 0, "rental_uris": {"ios": "https://dc.lft.to/lastmile_qr_scan", "android": "https://dc.lft.to/lastmile_qr_scan"}}, {"name": "605a0772ab7286778bdbf5a713627482", "lon": -77.03788883333333, "lat": 38.92507533333333, "type": "electric_scooter", "fusion_lon": 0.0, "is_reserved": 0, "bike_id": "605a0772ab7286778bdbf5a713627482", "fusion_lat": 0.0, "is_disabled": 0, "rental_uris": {"ios": "https://dc.lft.to/lastmile_qr_scan", "android": "https://dc.lft.to/lastmile_qr_scan"}}, {"name": "e9d9559c5355601d126b28f18019a2d7", "lon": -77.0532435, "lat": 38.927996, "type": "electric_scooter", "fusion_lon": 0.0, "is_reserved": 0, "bike_id": "e9d9559c5355601d126b28f18019a2d7", "fusion_lat": 0.0, "is_disabled": 0, "rental_uris": {"ios": "https://dc.lft.to/lastmile_qr_scan", "android": "https://dc.lft.to/lastmile_qr_scan"}}, {"name": "687b670e7687d2531525c727c4594c0d", "lon": -76.9723975, "lat": 38.85455566666667, "type": "electric_bike", "fusion_lon": 0.0, "is_reserved": 0, "bike_id": "687b670e7687d2531525c727c4594c0d", "fusion_lat": 0.0, "is_disabled": 0, "rental_uris": {"ios": "https://dc.lft.to/lastmile_qr_scan", "android": "https://dc.lft.to/lastmile_qr_scan"}}, {"name": "931fcd253ac6cc790ab8eacfe03a307b", "lon": -77.00775966666667, "lat": 38.926700833333335, "type": "electric_scooter", "fusion_lon": 0.0, "is_reserved": 0, "bike_id": "931fcd253ac6cc790ab8eacfe03a307b", "fusion_lat": 0.0, "is_disabled": 0, "rental_uris": {"ios": "https://dc.lft.to/lastmile_qr_scan", "android": "https://dc.lft.to/lastmile_qr_scan"}}, {"name": "9dcd9627f0a52ef73957247f10984d21", "lon": -76.98523116666667, "lat": 38.86653866666666, "type": "electric_scooter", "fusion_lon": 0.0, "is_reserved": 0, "bike_id": "9dcd9627f0a52ef73957247f10984d21", "fusion_lat": 0.0, "is_disabled": 0, "rental_uris": {"ios": "https://dc.lft.to/lastmile_qr_scan", "android": "https://dc.lft.to/lastmile_qr_scan"}}, {"name": "c536a6742b765ec0227ce8939e5605d4", "lon": -77.01453, "lat": 38.917789666666664, "type": "electric_scooter", "fusion_lon": 0.0, "is_reserved": 0, "bike_id": "c536a6742b765ec0227ce8939e5605d4", "fusion_lat": 0.0, "is_disabled": 0, "rental_uris": {"ios": "https://dc.lft.to/lastmile_qr_scan", "android": "https://dc.lft.to/lastmile_qr_scan"}}, {"name": "42aab5197e7149d54f1dc6a1cc0c555f", "lon": -77.03431683333334, "lat": 38.966178166666666, "type": "electric_bike", "fusion_lon": 0.0, "is_reserved": 0, "bike_id": "42aab5197e7149d54f1dc6a1cc0c555f", "fusion_lat": 0.0, "is_disabled": 0, "rental_uris": {"ios": "https://dc.lft.to/lastmile_qr_scan", "android": "https://dc.lft.to/lastmile_qr_scan"}}, {"name": "35e9ba0ae436aff122051c08c509423a", "lon": -77.03515883333333, "lat": 38.921558166666664, "type": "electric_scooter", "fusion_lon": 0.0, "is_reserved": 0, "bike_id": "35e9ba0ae436aff122051c08c509423a", "fusion_lat": 0.0, "is_disabled": 0, "rental_uris": {"ios": "https://dc.lft.to/lastmile_qr_scan", "android": "https://dc.lft.to/lastmile_qr_scan"}}, {"name": "297968f59419ba9ce6de6fd6483f9468", "lon": -77.025496, "lat": 38.9422505, "type": "electric_scooter", "fusion_lon": 0.0, "is_reserved": 0, "bike_id": "297968f59419ba9ce6de6fd6483f9468", "fusion_lat": 0.0, "is_disabled": 0, "rental_uris": {"ios": "https://dc.lft.to/lastmile_qr_scan", "android": "https://dc.lft.to/lastmile_qr_scan"}}, {"name": "b9f0ce01d90b6e0e5db1961d815a7b0a", "lon": -77.04351333333334, "lat": 38.90491383333333, "type": "electric_scooter", "fusion_lon": 0.0, "is_reserved": 0, "bike_id": "b9f0ce01d90b6e0e5db1961d815a7b0a", "fusion_lat": 0.0, "is_disabled": 0, "rental_uris": {"ios": "https://dc.lft.to/lastmile_qr_scan", "android": "https://dc.lft.to/lastmile_qr_scan"}}, {"name": "4420a4b5ab2277287e1e6a1d3969876e", "lon": -77.0236965, "lat": 38.9022335, "type": "electric_scooter", "fusion_lon": 0.0, "is_reserved": 0, "bike_id": "4420a4b5ab2277287e1e6a1d3969876e", "fusion_lat": 0.0, "is_disabled": 0, "rental_uris": {"ios": "https://dc.lft.to/lastmile_qr_scan", "android": "https://dc.lft.to/lastmile_qr_scan"}}, {"name": "e990c69e0a2f65aab8baaaa7c7900abb", "lon": -77.02686416666667, "lat": 38.89620033333333, "type": "electric_scooter", "fusion_lon": 0.0, "is_reserved": 0, "bike_id": "e990c69e0a2f65aab8baaaa7c7900abb", "fusion_lat": 0.0, "is_disabled": 0, "rental_uris": {"ios": "https://dc.lft.to/lastmile_qr_scan", "android": "https://dc.lft.to/lastmile_qr_scan"}}, {"name": "3392bdf29531452938d15e8630bf7fc6", "lon": -76.99066966666666, "lat": 38.904219166666664, "type": "electric_scooter", "fusion_lon": 0.0, "is_reserved": 0, "bike_id": "3392bdf29531452938d15e8630bf7fc6", "fusion_lat": 0.0, "is_disabled": 0, "rental_uris": {"ios": "https://dc.lft.to/lastmile_qr_scan", "android": "https://dc.lft.to/lastmile_qr_scan"}}, {"name": "c2a660c740b7dbc9f891f28f38a2813a", "lon": -77.0253045, "lat": 38.909660333333335, "type": "electric_scooter", "fusion_lon": 0.0, "is_reserved": 0, "bike_id": "c2a660c740b7dbc9f891f28f38a2813a", "fusion_lat": 0.0, "is_disabled": 0, "rental_uris": {"ios": "https://dc.lft.to/lastmile_qr_scan", "android": "https://dc.lft.to/lastmile_qr_scan"}}, {"name": "1c0ea54ee84bc5aa444b41b15ab086c0", "lon": -77.05887383333334, "lat": 38.9182425, "type": "electric_scooter", "fusion_lon": 0.0, "is_reserved": 0, "bike_id": "1c0ea54ee84bc5aa444b41b15ab086c0", "fusion_lat": 0.0, "is_disabled": 0, "rental_uris": {"ios": "https://dc.lft.to/lastmile_qr_scan", "android": "https://dc.lft.to/lastmile_qr_scan"}}, {"name": "cf4ba3b39ac55d31a9ad23216e123173", "lon": -76.93339066666667, "lat": 38.888157666666665, "type": "electric_scooter", "fusion_lon": 0.0, "is_reserved": 0, "bike_id": "cf4ba3b39ac55d31a9ad23216e123173", "fusion_lat": 0.0, "is_disabled": 0, "rental_uris": {"ios": "https://dc.lft.to/lastmile_qr_scan", "android": "https://dc.lft.to/lastmile_qr_scan"}}, {"name": "c10ed0274ae9dc719387d911e48aee5b", "lon": -77.0401275, "lat": 38.9219835, "type": "electric_scooter", "fusion_lon": 0.0, "is_reserved": 0, "bike_id": "c10ed0274ae9dc719387d911e48aee5b", "fusion_lat": 0.0, "is_disabled": 0, "rental_uris": {"ios": "https://dc.lft.to/lastmile_qr_scan", "android": "https://dc.lft.to/lastmile_qr_scan"}}, {"name": "fea0474388029f8ee08029a9976affb5", "lon": -76.98402616666667, "lat": 38.8670135, "type": "electric_scooter", "fusion_lon": 0.0, "is_reserved": 0, "bike_id": "fea0474388029f8ee08029a9976affb5", "fusion_lat": 0.0, "is_disabled": 0, "rental_uris": {"ios": "https://dc.lft.to/lastmile_qr_scan", "android": "https://dc.lft.to/lastmile_qr_scan"}}, {"name": "52a6eb8576162b4c208139415f50682c", "lon": -77.02215, "lat": 38.905750166666664, "type": "electric_scooter", "fusion_lon": 0.0, "is_reserved": 0, "bike_id": "52a6eb8576162b4c208139415f50682c", "fusion_lat": 0.0, "is_disabled": 0, "rental_uris": {"ios": "https://dc.lft.to/lastmile_qr_scan", "android": "https://dc.lft.to/lastmile_qr_scan"}}, {"name": "1a25d75797e2b6e02c9f6227ed36d56c", "lon": -77.05004433333333, "lat": 38.892298, "type": "electric_scooter", "fusion_lon": 0.0, "is_reserved": 0, "bike_id": "1a25d75797e2b6e02c9f6227ed36d56c", "fusion_lat": 0.0, "is_disabled": 0, "rental_uris": {"ios": "https://dc.lft.to/lastmile_qr_scan", "android": "https://dc.lft.to/lastmile_qr_scan"}}, {"name": "b3eae95b595c4df563ba43e9a2ddb869", "lon": -77.012436, "lat": 38.9154705, "type": "electric_scooter", "fusion_lon": 0.0, "is_reserved": 0, "bike_id": "b3eae95b595c4df563ba43e9a2ddb869", "fusion_lat": 0.0, "is_disabled": 0, "rental_uris": {"ios": "https://dc.lft.to/lastmile_qr_scan", "android": "https://dc.lft.to/lastmile_qr_scan"}}, {"name": "f80e23d8e145f2ef7709a78b4272fbc0", "lon": -77.03244916666667, "lat": 38.915574166666666, "type": "electric_scooter", "fusion_lon": 0.0, "is_reserved": 0, "bike_id": "f80e23d8e145f2ef7709a78b4272fbc0", "fusion_lat": 0.0, "is_disabled": 0, "rental_uris": {"ios": "https://dc.lft.to/lastmile_qr_scan", "android": "https://dc.lft.to/lastmile_qr_scan"}}, {"name": "2272739967fd40b5618524e5ef83bf89", "lon": -77.07811966666667, "lat": 38.924588666666665, "type": "electric_scooter", "fusion_lon": 0.0, "is_reserved": 0, "bike_id": "2272739967fd40b5618524e5ef83bf89", "fusion_lat": 0.0, "is_disabled": 0, "rental_uris": {"ios": "https://dc.lft.to/lastmile_qr_scan", "android": "https://dc.lft.to/lastmile_qr_scan"}}, {"name": "64df7ab144d33c3211abd53c20aac614", "lon": -77.04132183333333, "lat": 38.902607833333334, "type": "electric_scooter", "fusion_lon": 0.0, "is_reserved": 0, "bike_id": "64df7ab144d33c3211abd53c20aac614", "fusion_lat": 0.0, "is_disabled": 0, "rental_uris": {"ios": "https://dc.lft.to/lastmile_qr_scan", "android": "https://dc.lft.to/lastmile_qr_scan"}}, {"name": "56259586320c007a6648ee001aa33b0a", "lon": -77.12960733333334, "lat": 38.85218666666667, "type": "electric_bike", "fusion_lon": 0.0, "is_reserved": 0, "bike_id": "56259586320c007a6648ee001aa33b0a", "fusion_lat": 0.0, "is_disabled": 0, "rental_uris": {"ios": "https://dc.lft.to/lastmile_qr_scan", "android": "https://dc.lft.to/lastmile_qr_scan"}}, {"name": "2e88a4700325e2806d368c0447a54690", "lon": -77.02799216666666, "lat": 38.960711333333336, "type": "electric_scooter", "fusion_lon": 0.0, "is_reserved": 0, "bike_id": "2e88a4700325e2806d368c0447a54690", "fusion_lat": 0.0, "is_disabled": 0, "rental_uris": {"ios": "https://dc.lft.to/lastmile_qr_scan", "android": "https://dc.lft.to/lastmile_qr_scan"}}, {"name": "7615b9dd948b44270c755d03ecbc89e4", "lon": -77.0257005, "lat": 38.90418316666667, "type": "electric_scooter", "fusion_lon": 0.0, "is_reserved": 0, "bike_id": "7615b9dd948b44270c755d03ecbc89e4", "fusion_lat": 0.0, "is_disabled": 0, "rental_uris": {"ios": "https://dc.lft.to/lastmile_qr_scan", "android": "https://dc.lft.to/lastmile_qr_scan"}}, {"name": "7bfbbb43c450218c4a15bdf4cd264559", "lon": -77.08934983333333, "lat": 38.862636333333334, "type": "electric_bike", "fusion_lon": 0.0, "is_reserved": 0, "bike_id": "7bfbbb43c450218c4a15bdf4cd264559", "fusion_lat": 0.0, "is_disabled": 0, "rental_uris": {"ios": "https://dc.lft.to/lastmile_qr_scan", "android": "https://dc.lft.to/lastmile_qr_scan"}}, {"name": "3f41d36278747da8bf0caf699e8916c1", "lon": -77.0375655, "lat": 38.929097166666665, "type": "electric_scooter", "fusion_lon": 0.0, "is_reserved": 0, "bike_id": "3f41d36278747da8bf0caf699e8916c1", "fusion_lat": 0.0, "is_disabled": 0, "rental_uris": {"ios": "https://dc.lft.to/lastmile_qr_scan", "android": "https://dc.lft.to/lastmile_qr_scan"}}, {"name": "a9c5b3e6eed460432686ecd93437b51a", "lon": -77.03732166666667, "lat": 38.927101, "type": "electric_bike", "fusion_lon": 0.0, "is_reserved": 0, "bike_id": "a9c5b3e6eed460432686ecd93437b51a", "fusion_lat": 0.0, "is_disabled": 0, "rental_uris": {"ios": "https://dc.lft.to/lastmile_qr_scan", "android": "https://dc.lft.to/lastmile_qr_scan"}}, {"name": "dae69e10e2f4d0b943c9ade1b3790911", "lon": -76.9836655, "lat": 38.91552566666667, "type": "electric_scooter", "fusion_lon": 0.0, "is_reserved": 0, "bike_id": "dae69e10e2f4d0b943c9ade1b3790911", "fusion_lat": 0.0, "is_disabled": 0, "rental_uris": {"ios": "https://dc.lft.to/lastmile_qr_scan", "android": "https://dc.lft.to/lastmile_qr_scan"}}, {"name": "2c721b3c4e1df790e4c1e490ff68a96a", "lon": -77.00756116666666, "lat": 38.92678433333333, "type": "electric_scooter", "fusion_lon": 0.0, "is_reserved": 0, "bike_id": "2c721b3c4e1df790e4c1e490ff68a96a", "fusion_lat": 0.0, "is_disabled": 0, "rental_uris": {"ios": "https://dc.lft.to/lastmile_qr_scan", "android": "https://dc.lft.to/lastmile_qr_scan"}}, {"name": "9e134966436ae274eca9cf9ecf2b3410", "lon": -77.011971, "lat": 38.895280666666665, "type": "electric_scooter", "fusion_lon": 0.0, "is_reserved": 0, "bike_id": "9e134966436ae274eca9cf9ecf2b3410", "fusion_lat": 0.0, "is_disabled": 0, "rental_uris": {"ios": "https://dc.lft.to/lastmile_qr_scan", "android": "https://dc.lft.to/lastmile_qr_scan"}}, {"name": "bdcee471ef0a9e709512672b36252317", "lon": -77.00587166666666, "lat": 38.90571633333333, "type": "electric_scooter", "fusion_lon": 0.0, "is_reserved": 0, "bike_id": "bdcee471ef0a9e709512672b36252317", "fusion_lat": 0.0, "is_disabled": 0, "rental_uris": {"ios": "https://dc.lft.to/lastmile_qr_scan", "android": "https://dc.lft.to/lastmile_qr_scan"}}, {"name": "7203e260c6a5c8f2da691737ccc34af9", "lon": -76.99695266666667, "lat": 38.90833166666667, "type": "electric_scooter", "fusion_lon": 0.0, "is_reserved": 0, "bike_id": "7203e260c6a5c8f2da691737ccc34af9", "fusion_lat": 0.0, "is_disabled": 0, "rental_uris": {"ios": "https://dc.lft.to/lastmile_qr_scan", "android": "https://dc.lft.to/lastmile_qr_scan"}}, {"name": "2fadc7c162cab55e1394ffdd05a51d8b", "lon": -77.053079, "lat": 38.8985255, "type": "electric_scooter", "fusion_lon": 0.0, "is_reserved": 0, "bike_id": "2fadc7c162cab55e1394ffdd05a51d8b", "fusion_lat": 0.0, "is_disabled": 0, "rental_uris": {"ios": "https://dc.lft.to/lastmile_qr_scan", "android": "https://dc.lft.to/lastmile_qr_scan"}}, {"name": "31e2ed051f8699aa9d88d95e10251132", "lon": -77.027959, "lat": 38.930839, "type": "electric_scooter", "fusion_lon": 0.0, "is_reserved": 0, "bike_id": "31e2ed051f8699aa9d88d95e10251132", "fusion_lat": 0.0, "is_disabled": 0, "rental_uris": {"ios": "https://dc.lft.to/lastmile_qr_scan", "android": "https://dc.lft.to/lastmile_qr_scan"}}, {"name": "954432133df69a6da174aa694ffdb9c1", "lon": -77.0438865, "lat": 38.92034733333333, "type": "electric_scooter", "fusion_lon": 0.0, "is_reserved": 0, "bike_id": "954432133df69a6da174aa694ffdb9c1", "fusion_lat": 0.0, "is_disabled": 0, "rental_uris": {"ios": "https://dc.lft.to/lastmile_qr_scan", "android": "https://dc.lft.to/lastmile_qr_scan"}}, {"name": "1f832a82699992d3a7d605b6d6807cc1", "lon": -77.043521, "lat": 38.89855133333333, "type": "electric_scooter", "fusion_lon": 0.0, "is_reserved": 0, "bike_id": "1f832a82699992d3a7d605b6d6807cc1", "fusion_lat": 0.0, "is_disabled": 0, "rental_uris": {"ios": "https://dc.lft.to/lastmile_qr_scan", "android": "https://dc.lft.to/lastmile_qr_scan"}}, {"name": "12911c0569f137fc22c54df05873f37d", "lon": -76.9961075, "lat": 38.901933, "type": "electric_bike", "fusion_lon": 0.0, "is_reserved": 0, "bike_id": "12911c0569f137fc22c54df05873f37d", "fusion_lat": 0.0, "is_disabled": 0, "rental_uris": {"ios": "https://dc.lft.to/lastmile_qr_scan", "android": "https://dc.lft.to/lastmile_qr_scan"}}, {"name": "2d6c51a1f06b432360982ceb7b3550ee", "lon": -77.00816033333334, "lat": 38.94800383333333, "type": "electric_bike", "fusion_lon": 0.0, "is_reserved": 0, "bike_id": "2d6c51a1f06b432360982ceb7b3550ee", "fusion_lat": 0.0, "is_disabled": 0, "rental_uris": {"ios": "https://dc.lft.to/lastmile_qr_scan", "android": "https://dc.lft.to/lastmile_qr_scan"}}, {"name": "6789d3d95c9772cff8205818e7426ab2", "lon": -77.04341866666667, "lat": 38.90775433333334, "type": "electric_scooter", "fusion_lon": 0.0, "is_reserved": 0, "bike_id": "6789d3d95c9772cff8205818e7426ab2", "fusion_lat": 0.0, "is_disabled": 0, "rental_uris": {"ios": "https://dc.lft.to/lastmile_qr_scan", "android": "https://dc.lft.to/lastmile_qr_scan"}}, {"name": "affb7a0bc5ee9b50a39345e895760205", "lon": -77.0119715, "lat": 38.86411233333333, "type": "electric_scooter", "fusion_lon": 0.0, "is_reserved": 0, "bike_id": "affb7a0bc5ee9b50a39345e895760205", "fusion_lat": 0.0, "is_disabled": 0, "rental_uris": {"ios": "https://dc.lft.to/lastmile_qr_scan", "android": "https://dc.lft.to/lastmile_qr_scan"}}, {"name": "c893e8a9d76977c1f1fed25ee283347d", "lon": -77.02511433333333, "lat": 38.9207355, "type": "electric_scooter", "fusion_lon": 0.0, "is_reserved": 0, "bike_id": "c893e8a9d76977c1f1fed25ee283347d", "fusion_lat": 0.0, "is_disabled": 0, "rental_uris": {"ios": "https://dc.lft.to/lastmile_qr_scan", "android": "https://dc.lft.to/lastmile_qr_scan"}}, {"name": "90a1efa411a4178259e16e32500582c1", "lon": -77.02224366666667, "lat": 38.95690833333333, "type": "electric_bike", "fusion_lon": 0.0, "is_reserved": 0, "bike_id": "90a1efa411a4178259e16e32500582c1", "fusion_lat": 0.0, "is_disabled": 0, "rental_uris": {"ios": "https://dc.lft.to/lastmile_qr_scan", "android": "https://dc.lft.to/lastmile_qr_scan"}}, {"name": "7882ca015498f72da78189311e9acd14", "lon": -77.04596816666667, "lat": 38.916968, "type": "electric_scooter", "fusion_lon": 0.0, "is_reserved": 0, "bike_id": "7882ca015498f72da78189311e9acd14", "fusion_lat": 0.0, "is_disabled": 0, "rental_uris": {"ios": "https://dc.lft.to/lastmile_qr_scan", "android": "https://dc.lft.to/lastmile_qr_scan"}}, {"name": "914ed584f0c3e1fe58698f014579f579", "lon": -77.03262816666667, "lat": 38.916233, "type": "electric_scooter", "fusion_lon": 0.0, "is_reserved": 0, "bike_id": "914ed584f0c3e1fe58698f014579f579", "fusion_lat": 0.0, "is_disabled": 0, "rental_uris": {"ios": "https://dc.lft.to/lastmile_qr_scan", "android": "https://dc.lft.to/lastmile_qr_scan"}}, {"name": "356f8e6e126b8374b8b452c8941d973e", "lon": -77.04497533333333, "lat": 38.91940483333333, "type": "electric_scooter", "fusion_lon": 0.0, "is_reserved": 0, "bike_id": "356f8e6e126b8374b8b452c8941d973e", "fusion_lat": 0.0, "is_disabled": 0, "rental_uris": {"ios": "https://dc.lft.to/lastmile_qr_scan", "android": "https://dc.lft.to/lastmile_qr_scan"}}, {"name": "7af4fd6ac204f8cbb0491be12607ba27", "lon": -77.011095, "lat": 38.90352133333333, "type": "electric_scooter", "fusion_lon": 0.0, "is_reserved": 0, "bike_id": "7af4fd6ac204f8cbb0491be12607ba27", "fusion_lat": 0.0, "is_disabled": 0, "rental_uris": {"ios": "https://dc.lft.to/lastmile_qr_scan", "android": "https://dc.lft.to/lastmile_qr_scan"}}, {"name": "ed717079fda7f7ecaf64aa6cb60a71a2", "lon": -77.09257366666667, "lat": 38.941572, "type": "electric_scooter", "fusion_lon": 0.0, "is_reserved": 0, "bike_id": "ed717079fda7f7ecaf64aa6cb60a71a2", "fusion_lat": 0.0, "is_disabled": 0, "rental_uris": {"ios": "https://dc.lft.to/lastmile_qr_scan", "android": "https://dc.lft.to/lastmile_qr_scan"}}, {"name": "662c1908cd0ac94ba9ffc5f533747b19", "lon": -77.031222, "lat": 38.915639666666664, "type": "electric_scooter", "fusion_lon": 0.0, "is_reserved": 0, "bike_id": "662c1908cd0ac94ba9ffc5f533747b19", "fusion_lat": 0.0, "is_disabled": 0, "rental_uris": {"ios": "https://dc.lft.to/lastmile_qr_scan", "android": "https://dc.lft.to/lastmile_qr_scan"}}, {"name": "725bacd8ee5d128ef8b015476603521e", "lon": -77.02691383333334, "lat": 38.902423166666665, "type": "electric_scooter", "fusion_lon": 0.0, "is_reserved": 0, "bike_id": "725bacd8ee5d128ef8b015476603521e", "fusion_lat": 0.0, "is_disabled": 0, "rental_uris": {"ios": "https://dc.lft.to/lastmile_qr_scan", "android": "https://dc.lft.to/lastmile_qr_scan"}}, {"name": "5e8f4ddc7fcfe3a03221b182bbae23aa", "lon": -76.97591966666667, "lat": 38.8403435, "type": "electric_bike", "fusion_lon": 0.0, "is_reserved": 0, "bike_id": "5e8f4ddc7fcfe3a03221b182bbae23aa", "fusion_lat": 0.0, "is_disabled": 0, "rental_uris": {"ios": "https://dc.lft.to/lastmile_qr_scan", "android": "https://dc.lft.to/lastmile_qr_scan"}}, {"name": "fa9e85b73572b54251fa178d1c662d0f", "lon": -77.037347, "lat": 38.93576916666667, "type": "electric_scooter", "fusion_lon": 0.0, "is_reserved": 0, "bike_id": "fa9e85b73572b54251fa178d1c662d0f", "fusion_lat": 0.0, "is_disabled": 0, "rental_uris": {"ios": "https://dc.lft.to/lastmile_qr_scan", "android": "https://dc.lft.to/lastmile_qr_scan"}}, {"name": "d5f027cb103179acd302895ce534c43f", "lon": -77.04908933333333, "lat": 38.900665833333335, "type": "electric_scooter", "fusion_lon": 0.0, "is_reserved": 0, "bike_id": "d5f027cb103179acd302895ce534c43f", "fusion_lat": 0.0, "is_disabled": 0, "rental_uris": {"ios": "https://dc.lft.to/lastmile_qr_scan", "android": "https://dc.lft.to/lastmile_qr_scan"}}, {"name": "b1016a6b36e148ca1a011526fcb5c64b", "lon": -77.04944316666666, "lat": 38.909753333333335, "type": "electric_scooter", "fusion_lon": 0.0, "is_reserved": 0, "bike_id": "b1016a6b36e148ca1a011526fcb5c64b", "fusion_lat": 0.0, "is_disabled": 0, "rental_uris": {"ios": "https://dc.lft.to/lastmile_qr_scan", "android": "https://dc.lft.to/lastmile_qr_scan"}}, {"name": "103384fc70d9f1e84ed79fddde40c710", "lon": -77.0050385, "lat": 38.91688166666667, "type": "electric_scooter", "fusion_lon": 0.0, "is_reserved": 0, "bike_id": "103384fc70d9f1e84ed79fddde40c710", "fusion_lat": 0.0, "is_disabled": 0, "rental_uris": {"ios": "https://dc.lft.to/lastmile_qr_scan", "android": "https://dc.lft.to/lastmile_qr_scan"}}, {"name": "afa536a5a1da58de4fc1b56894f85125", "lon": -77.04341716666667, "lat": 38.91785183333333, "type": "electric_scooter", "fusion_lon": 0.0, "is_reserved": 0, "bike_id": "afa536a5a1da58de4fc1b56894f85125", "fusion_lat": 0.0, "is_disabled": 0, "rental_uris": {"ios": "https://dc.lft.to/lastmile_qr_scan", "android": "https://dc.lft.to/lastmile_qr_scan"}}, {"name": "69e85b36352af052d8e2973402a48471", "lon": -77.012316, "lat": 38.931076833333336, "type": "electric_scooter", "fusion_lon": 0.0, "is_reserved": 0, "bike_id": "69e85b36352af052d8e2973402a48471", "fusion_lat": 0.0, "is_disabled": 0, "rental_uris": {"ios": "https://dc.lft.to/lastmile_qr_scan", "android": "https://dc.lft.to/lastmile_qr_scan"}}, {"name": "77e0c6460613d1d7ef870ff9d0f4c02f", "lon": -76.997769, "lat": 38.844300833333335, "type": "electric_scooter", "fusion_lon": 0.0, "is_reserved": 0, "bike_id": "77e0c6460613d1d7ef870ff9d0f4c02f", "fusion_lat": 0.0, "is_disabled": 0, "rental_uris": {"ios": "https://dc.lft.to/lastmile_qr_scan", "android": "https://dc.lft.to/lastmile_qr_scan"}}, {"name": "56237080802247b93043f4947caf3456", "lon": -77.02089333333333, "lat": 38.92139, "type": "electric_scooter", "fusion_lon": 0.0, "is_reserved": 0, "bike_id": "56237080802247b93043f4947caf3456", "fusion_lat": 0.0, "is_disabled": 0, "rental_uris": {"ios": "https://dc.lft.to/lastmile_qr_scan", "android": "https://dc.lft.to/lastmile_qr_scan"}}, {"name": "442320464297bbb44ac9693b371e450a", "lon": -77.03736833333333, "lat": 38.929122666666665, "type": "electric_scooter", "fusion_lon": 0.0, "is_reserved": 0, "bike_id": "442320464297bbb44ac9693b371e450a", "fusion_lat": 0.0, "is_disabled": 0, "rental_uris": {"ios": "https://dc.lft.to/lastmile_qr_scan", "android": "https://dc.lft.to/lastmile_qr_scan"}}, {"name": "de71bba897e4739cf3adf30659084546", "lon": -76.94379833333333, "lat": 38.89326966666667, "type": "electric_scooter", "fusion_lon": 0.0, "is_reserved": 0, "bike_id": "de71bba897e4739cf3adf30659084546", "fusion_lat": 0.0, "is_disabled": 0, "rental_uris": {"ios": "https://dc.lft.to/lastmile_qr_scan", "android": "https://dc.lft.to/lastmile_qr_scan"}}, {"name": "e65fb7edbbde7bd921400099769632ac", "lon": -76.974423, "lat": 38.904474666666665, "type": "electric_scooter", "fusion_lon": 0.0, "is_reserved": 0, "bike_id": "e65fb7edbbde7bd921400099769632ac", "fusion_lat": 0.0, "is_disabled": 0, "rental_uris": {"ios": "https://dc.lft.to/lastmile_qr_scan", "android": "https://dc.lft.to/lastmile_qr_scan"}}, {"name": "7015ef997327bb26086911dbe5962637", "lon": -77.07309133333334, "lat": 38.864823, "type": "electric_bike", "fusion_lon": 0.0, "is_reserved": 0, "bike_id": "7015ef997327bb26086911dbe5962637", "fusion_lat": 0.0, "is_disabled": 0, "rental_uris": {"ios": "https://dc.lft.to/lastmile_qr_scan", "android": "https://dc.lft.to/lastmile_qr_scan"}}, {"name": "a35b55887c12d574fb1e8f5c2990ae1e", "lon": -76.94960466666667, "lat": 38.89439316666667, "type": "electric_scooter", "fusion_lon": 0.0, "is_reserved": 0, "bike_id": "a35b55887c12d574fb1e8f5c2990ae1e", "fusion_lat": 0.0, "is_disabled": 0, "rental_uris": {"ios": "https://dc.lft.to/lastmile_qr_scan", "android": "https://dc.lft.to/lastmile_qr_scan"}}, {"name": "04f9a10c9d59d0de9391cf573a256da1", "lon": -76.97833566666667, "lat": 38.8437735, "type": "electric_bike", "fusion_lon": 0.0, "is_reserved": 0, "bike_id": "04f9a10c9d59d0de9391cf573a256da1", "fusion_lat": 0.0, "is_disabled": 0, "rental_uris": {"ios": "https://dc.lft.to/lastmile_qr_scan", "android": "https://dc.lft.to/lastmile_qr_scan"}}, {"name": "99fc645bcee1773fbd970bfef5aeb21d", "lon": -76.93753383333333, "lat": 38.89043566666667, "type": "electric_scooter", "fusion_lon": 0.0, "is_reserved": 0, "bike_id": "99fc645bcee1773fbd970bfef5aeb21d", "fusion_lat": 0.0, "is_disabled": 0, "rental_uris": {"ios": "https://dc.lft.to/lastmile_qr_scan", "android": "https://dc.lft.to/lastmile_qr_scan"}}, {"name": "8bb92f6192db22c153b1cb08236c3d00", "lon": -77.0079115, "lat": 38.90744483333334, "type": "electric_scooter", "fusion_lon": 0.0, "is_reserved": 0, "bike_id": "8bb92f6192db22c153b1cb08236c3d00", "fusion_lat": 0.0, "is_disabled": 0, "rental_uris": {"ios": "https://dc.lft.to/lastmile_qr_scan", "android": "https://dc.lft.to/lastmile_qr_scan"}}, {"name": "6a69baa3f462277dc9411e9c694487a1", "lon": -77.0322285, "lat": 38.896823499999996, "type": "electric_scooter", "fusion_lon": 0.0, "is_reserved": 0, "bike_id": "6a69baa3f462277dc9411e9c694487a1", "fusion_lat": 0.0, "is_disabled": 0, "rental_uris": {"ios": "https://dc.lft.to/lastmile_qr_scan", "android": "https://dc.lft.to/lastmile_qr_scan"}}, {"name": "28b2b58d41380bc5cf7b83e1c40ef044", "lon": -76.99881716666667, "lat": 38.90130116666667, "type": "electric_scooter", "fusion_lon": 0.0, "is_reserved": 0, "bike_id": "28b2b58d41380bc5cf7b83e1c40ef044", "fusion_lat": 0.0, "is_disabled": 0, "rental_uris": {"ios": "https://dc.lft.to/lastmile_qr_scan", "android": "https://dc.lft.to/lastmile_qr_scan"}}, {"name": "10e6b34e3d990f4d6e2762846ecff236", "lon": -77.02512483333334, "lat": 38.90420016666667, "type": "electric_scooter", "fusion_lon": 0.0, "is_reserved": 0, "bike_id": "10e6b34e3d990f4d6e2762846ecff236", "fusion_lat": 0.0, "is_disabled": 0, "rental_uris": {"ios": "https://dc.lft.to/lastmile_qr_scan", "android": "https://dc.lft.to/lastmile_qr_scan"}}, {"name": "215f43d02ca74aae67afd3e8e1ede3f1", "lon": -77.03395183333333, "lat": 38.9191655, "type": "electric_scooter", "fusion_lon": 0.0, "is_reserved": 0, "bike_id": "215f43d02ca74aae67afd3e8e1ede3f1", "fusion_lat": 0.0, "is_disabled": 0, "rental_uris": {"ios": "https://dc.lft.to/lastmile_qr_scan", "android": "https://dc.lft.to/lastmile_qr_scan"}}, {"name": "3ff7fa75308e2b84a9a4ebd458198471", "lon": -77.03845966666667, "lat": 38.91217183333333, "type": "electric_scooter", "fusion_lon": 0.0, "is_reserved": 0, "bike_id": "3ff7fa75308e2b84a9a4ebd458198471", "fusion_lat": 0.0, "is_disabled": 0, "rental_uris": {"ios": "https://dc.lft.to/lastmile_qr_scan", "android": "https://dc.lft.to/lastmile_qr_scan"}}, {"name": "234eddf8980d70e0786c17a69de7f7ed", "lon": -77.0386225, "lat": 38.91044183333333, "type": "electric_scooter", "fusion_lon": 0.0, "is_reserved": 0, "bike_id": "234eddf8980d70e0786c17a69de7f7ed", "fusion_lat": 0.0, "is_disabled": 0, "rental_uris": {"ios": "https://dc.lft.to/lastmile_qr_scan", "android": "https://dc.lft.to/lastmile_qr_scan"}}, {"name": "c2e46e8651756f1ac4bd1d7223d089c6", "lon": -77.05037116666666, "lat": 38.9235775, "type": "electric_scooter", "fusion_lon": 0.0, "is_reserved": 0, "bike_id": "c2e46e8651756f1ac4bd1d7223d089c6", "fusion_lat": 0.0, "is_disabled": 0, "rental_uris": {"ios": "https://dc.lft.to/lastmile_qr_scan", "android": "https://dc.lft.to/lastmile_qr_scan"}}, {"name": "41db3fd94f9f8d73895e55a65792fcef", "lon": -77.0250465, "lat": 38.920822, "type": "electric_scooter", "fusion_lon": 0.0, "is_reserved": 0, "bike_id": "41db3fd94f9f8d73895e55a65792fcef", "fusion_lat": 0.0, "is_disabled": 0, "rental_uris": {"ios": "https://dc.lft.to/lastmile_qr_scan", "android": "https://dc.lft.to/lastmile_qr_scan"}}, {"name": "dc29bf1b40d2e8e9804e4b392882f221", "lon": -77.01746583333333, "lat": 38.91718783333334, "type": "electric_scooter", "fusion_lon": 0.0, "is_reserved": 0, "bike_id": "dc29bf1b40d2e8e9804e4b392882f221", "fusion_lat": 0.0, "is_disabled": 0, "rental_uris": {"ios": "https://dc.lft.to/lastmile_qr_scan", "android": "https://dc.lft.to/lastmile_qr_scan"}}, {"name": "a46966cead2d2a9d2b5e1297df7a65e5", "lon": -76.9828645, "lat": 38.89987333333333, "type": "electric_scooter", "fusion_lon": 0.0, "is_reserved": 0, "bike_id": "a46966cead2d2a9d2b5e1297df7a65e5", "fusion_lat": 0.0, "is_disabled": 0, "rental_uris": {"ios": "https://dc.lft.to/lastmile_qr_scan", "android": "https://dc.lft.to/lastmile_qr_scan"}}, {"name": "b47bd27338759e7da97e682c693f062a", "lon": -77.05234433333334, "lat": 38.92465633333333, "type": "electric_scooter", "fusion_lon": 0.0, "is_reserved": 0, "bike_id": "b47bd27338759e7da97e682c693f062a", "fusion_lat": 0.0, "is_disabled": 0, "rental_uris": {"ios": "https://dc.lft.to/lastmile_qr_scan", "android": "https://dc.lft.to/lastmile_qr_scan"}}, {"name": "d0672fdbf2b84e01588328c8c7547572", "lon": -77.08587966666667, "lat": 38.908677833333336, "type": "electric_scooter", "fusion_lon": 0.0, "is_reserved": 0, "bike_id": "d0672fdbf2b84e01588328c8c7547572", "fusion_lat": 0.0, "is_disabled": 0, "rental_uris": {"ios": "https://dc.lft.to/lastmile_qr_scan", "android": "https://dc.lft.to/lastmile_qr_scan"}}, {"name": "5daa1454978c2f9ddde20bc88e7a8792", "lon": -77.03380266666667, "lat": 38.91047316666667, "type": "electric_scooter", "fusion_lon": 0.0, "is_reserved": 0, "bike_id": "5daa1454978c2f9ddde20bc88e7a8792", "fusion_lat": 0.0, "is_disabled": 0, "rental_uris": {"ios": "https://dc.lft.to/lastmile_qr_scan", "android": "https://dc.lft.to/lastmile_qr_scan"}}, {"name": "b3fdce6ff3eeabe029f1b0f8143bd602", "lon": -76.99950383333334, "lat": 38.84298116666667, "type": "electric_scooter", "fusion_lon": 0.0, "is_reserved": 0, "bike_id": "b3fdce6ff3eeabe029f1b0f8143bd602", "fusion_lat": 0.0, "is_disabled": 0, "rental_uris": {"ios": "https://dc.lft.to/lastmile_qr_scan", "android": "https://dc.lft.to/lastmile_qr_scan"}}, {"name": "6e75b07169b40be9f6a8f0202b7a2318", "lon": -77.04334283333333, "lat": 38.8952355, "type": "electric_scooter", "fusion_lon": 0.0, "is_reserved": 0, "bike_id": "6e75b07169b40be9f6a8f0202b7a2318", "fusion_lat": 0.0, "is_disabled": 0, "rental_uris": {"ios": "https://dc.lft.to/lastmile_qr_scan", "android": "https://dc.lft.to/lastmile_qr_scan"}}, {"name": "f20f928e589be7c34bd847aaf1bb8ecc", "lon": -76.950179, "lat": 38.8938855, "type": "electric_scooter", "fusion_lon": 0.0, "is_reserved": 0, "bike_id": "f20f928e589be7c34bd847aaf1bb8ecc", "fusion_lat": 0.0, "is_disabled": 0, "rental_uris": {"ios": "https://dc.lft.to/lastmile_qr_scan", "android": "https://dc.lft.to/lastmile_qr_scan"}}, {"name": "a308cd5343df224af5580649c00b4f74", "lon": -76.98540116666666, "lat": 38.90955616666667, "type": "electric_scooter", "fusion_lon": 0.0, "is_reserved": 0, "bike_id": "a308cd5343df224af5580649c00b4f74", "fusion_lat": 0.0, "is_disabled": 0, "rental_uris": {"ios": "https://dc.lft.to/lastmile_qr_scan", "android": "https://dc.lft.to/lastmile_qr_scan"}}, {"name": "f4ae2e4aa7d1b3de850669075b4b391b", "lon": -77.03348466666667, "lat": 38.88628533333333, "type": "electric_scooter", "fusion_lon": 0.0, "is_reserved": 0, "bike_id": "f4ae2e4aa7d1b3de850669075b4b391b", "fusion_lat": 0.0, "is_disabled": 0, "rental_uris": {"ios": "https://dc.lft.to/lastmile_qr_scan", "android": "https://dc.lft.to/lastmile_qr_scan"}}, {"name": "235d6fe020cbe5666562d8c7557ece02", "lon": -77.02732016666667, "lat": 38.92765683333333, "type": "electric_scooter", "fusion_lon": 0.0, "is_reserved": 0, "bike_id": "235d6fe020cbe5666562d8c7557ece02", "fusion_lat": 0.0, "is_disabled": 0, "rental_uris": {"ios": "https://dc.lft.to/lastmile_qr_scan", "android": "https://dc.lft.to/lastmile_qr_scan"}}, {"name": "f2d5db98dc047d677b087f610b267fc2", "lon": -77.02498216666666, "lat": 38.919794833333334, "type": "electric_scooter", "fusion_lon": 0.0, "is_reserved": 0, "bike_id": "f2d5db98dc047d677b087f610b267fc2", "fusion_lat": 0.0, "is_disabled": 0, "rental_uris": {"ios": "https://dc.lft.to/lastmile_qr_scan", "android": "https://dc.lft.to/lastmile_qr_scan"}}, {"name": "0dec8076ce11b41c5f4305e2b43fcc3d", "lon": -77.02427883333333, "lat": 38.95626, "type": "electric_scooter", "fusion_lon": 0.0, "is_reserved": 0, "bike_id": "0dec8076ce11b41c5f4305e2b43fcc3d", "fusion_lat": 0.0, "is_disabled": 0, "rental_uris": {"ios": "https://dc.lft.to/lastmile_qr_scan", "android": "https://dc.lft.to/lastmile_qr_scan"}}, {"name": "434c48149d3e66788c4795c3665b4aa8", "lon": -76.96466166666667, "lat": 38.934485, "type": "electric_scooter", "fusion_lon": 0.0, "is_reserved": 0, "bike_id": "434c48149d3e66788c4795c3665b4aa8", "fusion_lat": 0.0, "is_disabled": 0, "rental_uris": {"ios": "https://dc.lft.to/lastmile_qr_scan", "android": "https://dc.lft.to/lastmile_qr_scan"}}, {"name": "e3eb337c5c4057b2b10f898234b0e429", "lon": -77.023726, "lat": 38.87927, "type": "electric_scooter", "fusion_lon": 0.0, "is_reserved": 0, "bike_id": "e3eb337c5c4057b2b10f898234b0e429", "fusion_lat": 0.0, "is_disabled": 0, "rental_uris": {"ios": "https://dc.lft.to/lastmile_qr_scan", "android": "https://dc.lft.to/lastmile_qr_scan"}}, {"name": "7427d4a0f78976ad3db3ac2fa9f23bc9", "lon": -77.02215583333333, "lat": 38.90571683333334, "type": "electric_scooter", "fusion_lon": 0.0, "is_reserved": 0, "bike_id": "7427d4a0f78976ad3db3ac2fa9f23bc9", "fusion_lat": 0.0, "is_disabled": 0, "rental_uris": {"ios": "https://dc.lft.to/lastmile_qr_scan", "android": "https://dc.lft.to/lastmile_qr_scan"}}, {"name": "1844cd9df19c1ba9967f8c197eae0683", "lon": -77.02533283333334, "lat": 38.942607, "type": "electric_scooter", "fusion_lon": 0.0, "is_reserved": 0, "bike_id": "1844cd9df19c1ba9967f8c197eae0683", "fusion_lat": 0.0, "is_disabled": 0, "rental_uris": {"ios": "https://dc.lft.to/lastmile_qr_scan", "android": "https://dc.lft.to/lastmile_qr_scan"}}, {"name": "55c964ae52f1ebf20d226b829df2f558", "lon": -77.036605, "lat": 38.9039035, "type": "electric_scooter", "fusion_lon": 0.0, "is_reserved": 0, "bike_id": "55c964ae52f1ebf20d226b829df2f558", "fusion_lat": 0.0, "is_disabled": 0, "rental_uris": {"ios": "https://dc.lft.to/lastmile_qr_scan", "android": "https://dc.lft.to/lastmile_qr_scan"}}, {"name": "a19cda6066d2a002dfcff37124de4972", "lon": -77.02886266666667, "lat": 38.91335133333333, "type": "electric_scooter", "fusion_lon": 0.0, "is_reserved": 0, "bike_id": "a19cda6066d2a002dfcff37124de4972", "fusion_lat": 0.0, "is_disabled": 0, "rental_uris": {"ios": "https://dc.lft.to/lastmile_qr_scan", "android": "https://dc.lft.to/lastmile_qr_scan"}}, {"name": "249ec933c590320a5a8f4bbe6101865f", "lon": -77.03344416666667, "lat": 38.92061316666667, "type": "electric_scooter", "fusion_lon": 0.0, "is_reserved": 0, "bike_id": "249ec933c590320a5a8f4bbe6101865f", "fusion_lat": 0.0, "is_disabled": 0, "rental_uris": {"ios": "https://dc.lft.to/lastmile_qr_scan", "android": "https://dc.lft.to/lastmile_qr_scan"}}, {"name": "5da54731908f46a91bf263f63489c603", "lon": -76.983592, "lat": 38.89609883333333, "type": "electric_bike", "fusion_lon": 0.0, "is_reserved": 0, "bike_id": "5da54731908f46a91bf263f63489c603", "fusion_lat": 0.0, "is_disabled": 0, "rental_uris": {"ios": "https://dc.lft.to/lastmile_qr_scan", "android": "https://dc.lft.to/lastmile_qr_scan"}}, {"name": "693ed221c2bea8f075f047006f9abef1", "lon": -76.96061833333333, "lat": 38.88407516666667, "type": "electric_bike", "fusion_lon": 0.0, "is_reserved": 0, "bike_id": "693ed221c2bea8f075f047006f9abef1", "fusion_lat": 0.0, "is_disabled": 0, "rental_uris": {"ios": "https://dc.lft.to/lastmile_qr_scan", "android": "https://dc.lft.to/lastmile_qr_scan"}}, {"name": "41522e78d4b4f493418325ae1741c8ed", "lon": -77.05816216666666, "lat": 38.935626, "type": "electric_scooter", "fusion_lon": 0.0, "is_reserved": 0, "bike_id": "41522e78d4b4f493418325ae1741c8ed", "fusion_lat": 0.0, "is_disabled": 0, "rental_uris": {"ios": "https://dc.lft.to/lastmile_qr_scan", "android": "https://dc.lft.to/lastmile_qr_scan"}}, {"name": "c82d2107a62bfacef65776c8961632d3", "lon": -77.07726016666666, "lat": 38.94360566666667, "type": "electric_bike", "fusion_lon": 0.0, "is_reserved": 0, "bike_id": "c82d2107a62bfacef65776c8961632d3", "fusion_lat": 0.0, "is_disabled": 0, "rental_uris": {"ios": "https://dc.lft.to/lastmile_qr_scan", "android": "https://dc.lft.to/lastmile_qr_scan"}}, {"name": "9ee5ce67f93f3afbaf16c7d2270999b4", "lon": -76.93752133333334, "lat": 38.89046883333334, "type": "electric_scooter", "fusion_lon": 0.0, "is_reserved": 0, "bike_id": "9ee5ce67f93f3afbaf16c7d2270999b4", "fusion_lat": 0.0, "is_disabled": 0, "rental_uris": {"ios": "https://dc.lft.to/lastmile_qr_scan", "android": "https://dc.lft.to/lastmile_qr_scan"}}, {"name": "4237514118aa07e7bba29a6fc84aef2b", "lon": -77.02296316666667, "lat": 38.927582, "type": "electric_scooter", "fusion_lon": 0.0, "is_reserved": 0, "bike_id": "4237514118aa07e7bba29a6fc84aef2b", "fusion_lat": 0.0, "is_disabled": 0, "rental_uris": {"ios": "https://dc.lft.to/lastmile_qr_scan", "android": "https://dc.lft.to/lastmile_qr_scan"}}, {"name": "df3d83311c07edc58554307e627ecbcb", "lon": -77.02169433333333, "lat": 38.905590333333336, "type": "electric_scooter", "fusion_lon": 0.0, "is_reserved": 0, "bike_id": "df3d83311c07edc58554307e627ecbcb", "fusion_lat": 0.0, "is_disabled": 0, "rental_uris": {"ios": "https://dc.lft.to/lastmile_qr_scan", "android": "https://dc.lft.to/lastmile_qr_scan"}}, {"name": "1d4441290df4f636f13db9dcd989499f", "lon": -77.02795816666666, "lat": 38.9308275, "type": "electric_scooter", "fusion_lon": 0.0, "is_reserved": 0, "bike_id": "1d4441290df4f636f13db9dcd989499f", "fusion_lat": 0.0, "is_disabled": 0, "rental_uris": {"ios": "https://dc.lft.to/lastmile_qr_scan", "android": "https://dc.lft.to/lastmile_qr_scan"}}, {"name": "a756829a034e0169901e7b42abbdfa6b", "lon": -76.99517066666667, "lat": 38.883740833333334, "type": "electric_scooter", "fusion_lon": 0.0, "is_reserved": 0, "bike_id": "a756829a034e0169901e7b42abbdfa6b", "fusion_lat": 0.0, "is_disabled": 0, "rental_uris": {"ios": "https://dc.lft.to/lastmile_qr_scan", "android": "https://dc.lft.to/lastmile_qr_scan"}}, {"name": "500dbf3f2e0c1df601d24cdf8f7121a3", "lon": -76.993331, "lat": 38.87142566666667, "type": "electric_scooter", "fusion_lon": 0.0, "is_reserved": 0, "bike_id": "500dbf3f2e0c1df601d24cdf8f7121a3", "fusion_lat": 0.0, "is_disabled": 0, "rental_uris": {"ios": "https://dc.lft.to/lastmile_qr_scan", "android": "https://dc.lft.to/lastmile_qr_scan"}}, {"name": "1f5ab6de7bc93e43b8cc1b3304f7bd7d", "lon": -76.94803766666666, "lat": 38.893929, "type": "electric_bike", "fusion_lon": 0.0, "is_reserved": 0, "bike_id": "1f5ab6de7bc93e43b8cc1b3304f7bd7d", "fusion_lat": 0.0, "is_disabled": 0, "rental_uris": {"ios": "https://dc.lft.to/lastmile_qr_scan", "android": "https://dc.lft.to/lastmile_qr_scan"}}, {"name": "d56634c88822919cd7b754fdba83b0a1", "lon": -77.01696916666667, "lat": 38.975009666666665, "type": "electric_scooter", "fusion_lon": 0.0, "is_reserved": 0, "bike_id": "d56634c88822919cd7b754fdba83b0a1", "fusion_lat": 0.0, "is_disabled": 0, "rental_uris": {"ios": "https://dc.lft.to/lastmile_qr_scan", "android": "https://dc.lft.to/lastmile_qr_scan"}}, {"name": "f905432aa4006ecd2725934018237b2a", "lon": -76.988637, "lat": 38.95481083333333, "type": "electric_bike", "fusion_lon": 0.0, "is_reserved": 0, "bike_id": "f905432aa4006ecd2725934018237b2a", "fusion_lat": 0.0, "is_disabled": 0, "rental_uris": {"ios": "https://dc.lft.to/lastmile_qr_scan", "android": "https://dc.lft.to/lastmile_qr_scan"}}, {"name": "90949e54f6383ba9398df2e5030ccb3e", "lon": -77.02605366666667, "lat": 38.931419, "type": "electric_scooter", "fusion_lon": 0.0, "is_reserved": 0, "bike_id": "90949e54f6383ba9398df2e5030ccb3e", "fusion_lat": 0.0, "is_disabled": 0, "rental_uris": {"ios": "https://dc.lft.to/lastmile_qr_scan", "android": "https://dc.lft.to/lastmile_qr_scan"}}, {"name": "2cdbad0cb0bd511f537c2bd220245f98", "lon": -77.03214866666667, "lat": 38.917977, "type": "electric_scooter", "fusion_lon": 0.0, "is_reserved": 0, "bike_id": "2cdbad0cb0bd511f537c2bd220245f98", "fusion_lat": 0.0, "is_disabled": 0, "rental_uris": {"ios": "https://dc.lft.to/lastmile_qr_scan", "android": "https://dc.lft.to/lastmile_qr_scan"}}, {"name": "5138fc10580a7cf6c277226bc6d35c34", "lon": -77.04152783333333, "lat": 38.919163166666664, "type": "electric_scooter", "fusion_lon": 0.0, "is_reserved": 0, "bike_id": "5138fc10580a7cf6c277226bc6d35c34", "fusion_lat": 0.0, "is_disabled": 0, "rental_uris": {"ios": "https://dc.lft.to/lastmile_qr_scan", "android": "https://dc.lft.to/lastmile_qr_scan"}}, {"name": "210bf69c3517d138710a23cb19d7c150", "lon": -76.99778, "lat": 38.84429883333333, "type": "electric_scooter", "fusion_lon": 0.0, "is_reserved": 0, "bike_id": "210bf69c3517d138710a23cb19d7c150", "fusion_lat": 0.0, "is_disabled": 0, "rental_uris": {"ios": "https://dc.lft.to/lastmile_qr_scan", "android": "https://dc.lft.to/lastmile_qr_scan"}}, {"name": "ffc5c868e5dde9e815cbbe89f2297afa", "lon": -76.957599, "lat": 38.88432366666667, "type": "electric_scooter", "fusion_lon": 0.0, "is_reserved": 0, "bike_id": "ffc5c868e5dde9e815cbbe89f2297afa", "fusion_lat": 0.0, "is_disabled": 0, "rental_uris": {"ios": "https://dc.lft.to/lastmile_qr_scan", "android": "https://dc.lft.to/lastmile_qr_scan"}}, {"name": "ff479eb40913ea8bcf90714f8bea0f6b", "lon": -77.03120783333334, "lat": 38.91566866666667, "type": "electric_scooter", "fusion_lon": 0.0, "is_reserved": 0, "bike_id": "ff479eb40913ea8bcf90714f8bea0f6b", "fusion_lat": 0.0, "is_disabled": 0, "rental_uris": {"ios": "https://dc.lft.to/lastmile_qr_scan", "android": "https://dc.lft.to/lastmile_qr_scan"}}, {"name": "e634eb2e0189b99a7b6817b275f388be", "lon": -77.03280416666666, "lat": 38.932517, "type": "electric_scooter", "fusion_lon": 0.0, "is_reserved": 0, "bike_id": "e634eb2e0189b99a7b6817b275f388be", "fusion_lat": 0.0, "is_disabled": 0, "rental_uris": {"ios": "https://dc.lft.to/lastmile_qr_scan", "android": "https://dc.lft.to/lastmile_qr_scan"}}, {"name": "14afadb868b9bcf405296957fc0e5029", "lon": -77.05095933333334, "lat": 38.901744, "type": "electric_scooter", "fusion_lon": 0.0, "is_reserved": 0, "bike_id": "14afadb868b9bcf405296957fc0e5029", "fusion_lat": 0.0, "is_disabled": 0, "rental_uris": {"ios": "https://dc.lft.to/lastmile_qr_scan", "android": "https://dc.lft.to/lastmile_qr_scan"}}, {"name": "7e04ebf05550ee46e83c2241e19955fa", "lon": -77.029144, "lat": 38.933302833333336, "type": "electric_scooter", "fusion_lon": 0.0, "is_reserved": 0, "bike_id": "7e04ebf05550ee46e83c2241e19955fa", "fusion_lat": 0.0, "is_disabled": 0, "rental_uris": {"ios": "https://dc.lft.to/lastmile_qr_scan", "android": "https://dc.lft.to/lastmile_qr_scan"}}, {"name": "805e8a63415406c26cdb3c282600a886", "lon": -77.011859, "lat": 38.903148, "type": "electric_scooter", "fusion_lon": 0.0, "is_reserved": 0, "bike_id": "805e8a63415406c26cdb3c282600a886", "fusion_lat": 0.0, "is_disabled": 0, "rental_uris": {"ios": "https://dc.lft.to/lastmile_qr_scan", "android": "https://dc.lft.to/lastmile_qr_scan"}}, {"name": "0477b35560b098b4ab92a895b6c90595", "lon": -77.023218, "lat": 38.930612333333336, "type": "electric_scooter", "fusion_lon": 0.0, "is_reserved": 0, "bike_id": "0477b35560b098b4ab92a895b6c90595", "fusion_lat": 0.0, "is_disabled": 0, "rental_uris": {"ios": "https://dc.lft.to/lastmile_qr_scan", "android": "https://dc.lft.to/lastmile_qr_scan"}}, {"name": "4e1e226336f190571f73f7385c040cf4", "lon": -77.1060495, "lat": 38.92899116666667, "type": "electric_bike", "fusion_lon": 0.0, "is_reserved": 0, "bike_id": "4e1e226336f190571f73f7385c040cf4", "fusion_lat": 0.0, "is_disabled": 0, "rental_uris": {"ios": "https://dc.lft.to/lastmile_qr_scan", "android": "https://dc.lft.to/lastmile_qr_scan"}}, {"name": "33cf130b3c9a0b85ff92b658a32ffe49", "lon": -77.02919783333333, "lat": 38.929779, "type": "electric_scooter", "fusion_lon": 0.0, "is_reserved": 0, "bike_id": "33cf130b3c9a0b85ff92b658a32ffe49", "fusion_lat": 0.0, "is_disabled": 0, "rental_uris": {"ios": "https://dc.lft.to/lastmile_qr_scan", "android": "https://dc.lft.to/lastmile_qr_scan"}}, {"name": "f17e1b8aac0a9ee9e903cedab5c11ce7", "lon": -76.98876983333334, "lat": 38.890398166666664, "type": "electric_scooter", "fusion_lon": 0.0, "is_reserved": 0, "bike_id": "f17e1b8aac0a9ee9e903cedab5c11ce7", "fusion_lat": 0.0, "is_disabled": 0, "rental_uris": {"ios": "https://dc.lft.to/lastmile_qr_scan", "android": "https://dc.lft.to/lastmile_qr_scan"}}, {"name": "511546b8896528aa4c15d81c4d69cc9f", "lon": -77.048615, "lat": 38.9152665, "type": "electric_scooter", "fusion_lon": 0.0, "is_reserved": 0, "bike_id": "511546b8896528aa4c15d81c4d69cc9f", "fusion_lat": 0.0, "is_disabled": 0, "rental_uris": {"ios": "https://dc.lft.to/lastmile_qr_scan", "android": "https://dc.lft.to/lastmile_qr_scan"}}, {"name": "ec3a4e2f689b6c91e13bcec1d7323708", "lon": -77.0077545, "lat": 38.90572783333333, "type": "electric_scooter", "fusion_lon": 0.0, "is_reserved": 0, "bike_id": "ec3a4e2f689b6c91e13bcec1d7323708", "fusion_lat": 0.0, "is_disabled": 0, "rental_uris": {"ios": "https://dc.lft.to/lastmile_qr_scan", "android": "https://dc.lft.to/lastmile_qr_scan"}}, {"name": "96acf9a06affa0ca77df4618776035ea", "lon": -77.06407183333333, "lat": 38.840596166666664, "type": "electric_bike", "fusion_lon": 0.0, "is_reserved": 0, "bike_id": "96acf9a06affa0ca77df4618776035ea", "fusion_lat": 0.0, "is_disabled": 0, "rental_uris": {"ios": "https://dc.lft.to/lastmile_qr_scan", "android": "https://dc.lft.to/lastmile_qr_scan"}}, {"name": "997ca3e2f0125d319ca2ed32b4dba4b4", "lon": -76.9882555, "lat": 38.900388666666665, "type": "electric_scooter", "fusion_lon": 0.0, "is_reserved": 0, "bike_id": "997ca3e2f0125d319ca2ed32b4dba4b4", "fusion_lat": 0.0, "is_disabled": 0, "rental_uris": {"ios": "https://dc.lft.to/lastmile_qr_scan", "android": "https://dc.lft.to/lastmile_qr_scan"}}, {"name": "aff26cc7e3615f82ebf6fb04c5a6f5db", "lon": -76.9566625, "lat": 38.89413716666667, "type": "electric_scooter", "fusion_lon": 0.0, "is_reserved": 0, "bike_id": "aff26cc7e3615f82ebf6fb04c5a6f5db", "fusion_lat": 0.0, "is_disabled": 0, "rental_uris": {"ios": "https://dc.lft.to/lastmile_qr_scan", "android": "https://dc.lft.to/lastmile_qr_scan"}}, {"name": "a1200063e51f9fbfb634f4b8b2cec3ea", "lon": -76.9605825, "lat": 38.884028666666666, "type": "electric_bike", "fusion_lon": 0.0, "is_reserved": 0, "bike_id": "a1200063e51f9fbfb634f4b8b2cec3ea", "fusion_lat": 0.0, "is_disabled": 0, "rental_uris": {"ios": "https://dc.lft.to/lastmile_qr_scan", "android": "https://dc.lft.to/lastmile_qr_scan"}}, {"name": "f884e5727e628ef91edf7dfae48efbb5", "lon": -77.02297333333334, "lat": 38.894983333333336, "type": "electric_scooter", "fusion_lon": 0.0, "is_reserved": 0, "bike_id": "f884e5727e628ef91edf7dfae48efbb5", "fusion_lat": 0.0, "is_disabled": 0, "rental_uris": {"ios": "https://dc.lft.to/lastmile_qr_scan", "android": "https://dc.lft.to/lastmile_qr_scan"}}, {"name": "5f48ca54c80ae7c430a44e5dcfee7b2a", "lon": -77.00586666666666, "lat": 38.90572233333333, "type": "electric_scooter", "fusion_lon": 0.0, "is_reserved": 0, "bike_id": "5f48ca54c80ae7c430a44e5dcfee7b2a", "fusion_lat": 0.0, "is_disabled": 0, "rental_uris": {"ios": "https://dc.lft.to/lastmile_qr_scan", "android": "https://dc.lft.to/lastmile_qr_scan"}}, {"name": "7895126bd809577b734fadd466b9a0ed", "lon": -76.9677685, "lat": 38.8592615, "type": "electric_scooter", "fusion_lon": 0.0, "is_reserved": 0, "bike_id": "7895126bd809577b734fadd466b9a0ed", "fusion_lat": 0.0, "is_disabled": 0, "rental_uris": {"ios": "https://dc.lft.to/lastmile_qr_scan", "android": "https://dc.lft.to/lastmile_qr_scan"}}, {"name": "253e00dba5e530352abc2c7312466ac5", "lon": -77.02799583333334, "lat": 38.960766666666665, "type": "electric_scooter", "fusion_lon": 0.0, "is_reserved": 0, "bike_id": "253e00dba5e530352abc2c7312466ac5", "fusion_lat": 0.0, "is_disabled": 0, "rental_uris": {"ios": "https://dc.lft.to/lastmile_qr_scan", "android": "https://dc.lft.to/lastmile_qr_scan"}}, {"name": "aa0fa9f92b30590a75ea763eeefba63a", "lon": -77.07234733333334, "lat": 38.940065833333335, "type": "electric_scooter", "fusion_lon": 0.0, "is_reserved": 0, "bike_id": "aa0fa9f92b30590a75ea763eeefba63a", "fusion_lat": 0.0, "is_disabled": 0, "rental_uris": {"ios": "https://dc.lft.to/lastmile_qr_scan", "android": "https://dc.lft.to/lastmile_qr_scan"}}, {"name": "4f419e2b6b0ba0528c6347e2b5506591", "lon": -76.996119, "lat": 38.8856335, "type": "electric_scooter", "fusion_lon": 0.0, "is_reserved": 0, "bike_id": "4f419e2b6b0ba0528c6347e2b5506591", "fusion_lat": 0.0, "is_disabled": 0, "rental_uris": {"ios": "https://dc.lft.to/lastmile_qr_scan", "android": "https://dc.lft.to/lastmile_qr_scan"}}, {"name": "43ec5666bae89ed672cdf049ea5c34a2", "lon": -77.0019785, "lat": 38.9002245, "type": "electric_scooter", "fusion_lon": 0.0, "is_reserved": 0, "bike_id": "43ec5666bae89ed672cdf049ea5c34a2", "fusion_lat": 0.0, "is_disabled": 0, "rental_uris": {"ios": "https://dc.lft.to/lastmile_qr_scan", "android": "https://dc.lft.to/lastmile_qr_scan"}}, {"name": "fe6827e75938852713ca4da588bd9be4", "lon": -76.9811775, "lat": 38.914681333333334, "type": "electric_scooter", "fusion_lon": 0.0, "is_reserved": 0, "bike_id": "fe6827e75938852713ca4da588bd9be4", "fusion_lat": 0.0, "is_disabled": 0, "rental_uris": {"ios": "https://dc.lft.to/lastmile_qr_scan", "android": "https://dc.lft.to/lastmile_qr_scan"}}, {"name": "44ee327dd926b19c9a48c54f7ec44281", "lon": -77.029634, "lat": 38.923916166666665, "type": "electric_scooter", "fusion_lon": 0.0, "is_reserved": 0, "bike_id": "44ee327dd926b19c9a48c54f7ec44281", "fusion_lat": 0.0, "is_disabled": 0, "rental_uris": {"ios": "https://dc.lft.to/lastmile_qr_scan", "android": "https://dc.lft.to/lastmile_qr_scan"}}, {"name": "6c64d93aba40990fb8572265ff70c8d3", "lon": -76.9837865, "lat": 38.86124266666667, "type": "electric_scooter", "fusion_lon": 0.0, "is_reserved": 0, "bike_id": "6c64d93aba40990fb8572265ff70c8d3", "fusion_lat": 0.0, "is_disabled": 0, "rental_uris": {"ios": "https://dc.lft.to/lastmile_qr_scan", "android": "https://dc.lft.to/lastmile_qr_scan"}}, {"name": "cedd83b2a0bed1215988b22e5b1f01ad", "lon": -77.0230065, "lat": 38.9178905, "type": "electric_scooter", "fusion_lon": 0.0, "is_reserved": 0, "bike_id": "cedd83b2a0bed1215988b22e5b1f01ad", "fusion_lat": 0.0, "is_disabled": 0, "rental_uris": {"ios": "https://dc.lft.to/lastmile_qr_scan", "android": "https://dc.lft.to/lastmile_qr_scan"}}, {"name": "fc806d6b72c6e9a5161d3c25d2f8d611", "lon": -77.01797916666666, "lat": 38.876747, "type": "electric_scooter", "fusion_lon": 0.0, "is_reserved": 0, "bike_id": "fc806d6b72c6e9a5161d3c25d2f8d611", "fusion_lat": 0.0, "is_disabled": 0, "rental_uris": {"ios": "https://dc.lft.to/lastmile_qr_scan", "android": "https://dc.lft.to/lastmile_qr_scan"}}, {"name": "12de69c1be3a8cfac1b62a375cf91ec5", "lon": -77.01847416666666, "lat": 38.90398616666667, "type": "electric_scooter", "fusion_lon": 0.0, "is_reserved": 0, "bike_id": "12de69c1be3a8cfac1b62a375cf91ec5", "fusion_lat": 0.0, "is_disabled": 0, "rental_uris": {"ios": "https://dc.lft.to/lastmile_qr_scan", "android": "https://dc.lft.to/lastmile_qr_scan"}}, {"name": "12994705f7f2d1a982532ed5bbd82813", "lon": -77.0316815, "lat": 38.91263683333333, "type": "electric_scooter", "fusion_lon": 0.0, "is_reserved": 0, "bike_id": "12994705f7f2d1a982532ed5bbd82813", "fusion_lat": 0.0, "is_disabled": 0, "rental_uris": {"ios": "https://dc.lft.to/lastmile_qr_scan", "android": "https://dc.lft.to/lastmile_qr_scan"}}, {"name": "6ec54f63bb48cabb3bc5777c65f8e74b", "lon": -77.01759433333334, "lat": 38.9027185, "type": "electric_scooter", "fusion_lon": 0.0, "is_reserved": 0, "bike_id": "6ec54f63bb48cabb3bc5777c65f8e74b", "fusion_lat": 0.0, "is_disabled": 0, "rental_uris": {"ios": "https://dc.lft.to/lastmile_qr_scan", "android": "https://dc.lft.to/lastmile_qr_scan"}}, {"name": "fa706ffb9e102a4bb30a1a7cea85ffdd", "lon": -76.976689, "lat": 38.898608833333334, "type": "electric_scooter", "fusion_lon": 0.0, "is_reserved": 0, "bike_id": "fa706ffb9e102a4bb30a1a7cea85ffdd", "fusion_lat": 0.0, "is_disabled": 0, "rental_uris": {"ios": "https://dc.lft.to/lastmile_qr_scan", "android": "https://dc.lft.to/lastmile_qr_scan"}}, {"name": "ffda147ebd7b8d511dfdaede82739b2b", "lon": -77.02673583333333, "lat": 38.92781816666667, "type": "electric_scooter", "fusion_lon": 0.0, "is_reserved": 0, "bike_id": "ffda147ebd7b8d511dfdaede82739b2b", "fusion_lat": 0.0, "is_disabled": 0, "rental_uris": {"ios": "https://dc.lft.to/lastmile_qr_scan", "android": "https://dc.lft.to/lastmile_qr_scan"}}, {"name": "7833cb3ed589ba8ae6fc16a0f4f15561", "lon": -77.039469, "lat": 38.91561766666667, "type": "electric_scooter", "fusion_lon": 0.0, "is_reserved": 0, "bike_id": "7833cb3ed589ba8ae6fc16a0f4f15561", "fusion_lat": 0.0, "is_disabled": 0, "rental_uris": {"ios": "https://dc.lft.to/lastmile_qr_scan", "android": "https://dc.lft.to/lastmile_qr_scan"}}, {"name": "5c299772111b029e655d7b1c3f7bcdac", "lon": -77.03412616666667, "lat": 38.92314483333333, "type": "electric_scooter", "fusion_lon": 0.0, "is_reserved": 0, "bike_id": "5c299772111b029e655d7b1c3f7bcdac", "fusion_lat": 0.0, "is_disabled": 0, "rental_uris": {"ios": "https://dc.lft.to/lastmile_qr_scan", "android": "https://dc.lft.to/lastmile_qr_scan"}}, {"name": "02c21237683bc1175634dedff9fad357", "lon": -77.026134, "lat": 38.90132166666667, "type": "electric_scooter", "fusion_lon": 0.0, "is_reserved": 0, "bike_id": "02c21237683bc1175634dedff9fad357", "fusion_lat": 0.0, "is_disabled": 0, "rental_uris": {"ios": "https://dc.lft.to/lastmile_qr_scan", "android": "https://dc.lft.to/lastmile_qr_scan"}}, {"name": "3a3de98bafc3236f9770ea6bfceb5d66", "lon": -76.99386916666667, "lat": 38.89731533333333, "type": "electric_scooter", "fusion_lon": 0.0, "is_reserved": 0, "bike_id": "3a3de98bafc3236f9770ea6bfceb5d66", "fusion_lat": 0.0, "is_disabled": 0, "rental_uris": {"ios": "https://dc.lft.to/lastmile_qr_scan", "android": "https://dc.lft.to/lastmile_qr_scan"}}, {"name": "a3c9d6aef33ff4d900331ddc3d35af6d", "lon": -77.02966666666667, "lat": 38.923299, "type": "electric_scooter", "fusion_lon": 0.0, "is_reserved": 0, "bike_id": "a3c9d6aef33ff4d900331ddc3d35af6d", "fusion_lat": 0.0, "is_disabled": 0, "rental_uris": {"ios": "https://dc.lft.to/lastmile_qr_scan", "android": "https://dc.lft.to/lastmile_qr_scan"}}, {"name": "083d0508298b7360fb6766a7bed3bf39", "lon": -76.96264233333333, "lat": 38.88245533333333, "type": "electric_bike", "fusion_lon": 0.0, "is_reserved": 0, "bike_id": "083d0508298b7360fb6766a7bed3bf39", "fusion_lat": 0.0, "is_disabled": 0, "rental_uris": {"ios": "https://dc.lft.to/lastmile_qr_scan", "android": "https://dc.lft.to/lastmile_qr_scan"}}, {"name": "7eb1e4ceebf9e92a0a39fce6308dc9f5", "lon": -77.1033, "lat": 38.8741635, "type": "electric_bike", "fusion_lon": 0.0, "is_reserved": 0, "bike_id": "7eb1e4ceebf9e92a0a39fce6308dc9f5", "fusion_lat": 0.0, "is_disabled": 0, "rental_uris": {"ios": "https://dc.lft.to/lastmile_qr_scan", "android": "https://dc.lft.to/lastmile_qr_scan"}}, {"name": "03dd5efaba25605c9b5a25ed785b7ee9", "lon": -76.99945583333333, "lat": 38.84293233333333, "type": "electric_scooter", "fusion_lon": 0.0, "is_reserved": 0, "bike_id": "03dd5efaba25605c9b5a25ed785b7ee9", "fusion_lat": 0.0, "is_disabled": 0, "rental_uris": {"ios": "https://dc.lft.to/lastmile_qr_scan", "android": "https://dc.lft.to/lastmile_qr_scan"}}, {"name": "ab25076dbe77bfd243314a4dc83b4754", "lon": -77.016111, "lat": 38.89509183333333, "type": "electric_scooter", "fusion_lon": 0.0, "is_reserved": 0, "bike_id": "ab25076dbe77bfd243314a4dc83b4754", "fusion_lat": 0.0, "is_disabled": 0, "rental_uris": {"ios": "https://dc.lft.to/lastmile_qr_scan", "android": "https://dc.lft.to/lastmile_qr_scan"}}, {"name": "935eef751e463616997b9ba9de4a0931", "lon": -77.03205866666667, "lat": 38.90821733333333, "type": "electric_scooter", "fusion_lon": 0.0, "is_reserved": 0, "bike_id": "935eef751e463616997b9ba9de4a0931", "fusion_lat": 0.0, "is_disabled": 0, "rental_uris": {"ios": "https://dc.lft.to/lastmile_qr_scan", "android": "https://dc.lft.to/lastmile_qr_scan"}}, {"name": "0b1cdf370a15566a69e0d78f702699d6", "lon": -77.03076616666667, "lat": 38.91761833333333, "type": "electric_scooter", "fusion_lon": 0.0, "is_reserved": 0, "bike_id": "0b1cdf370a15566a69e0d78f702699d6", "fusion_lat": 0.0, "is_disabled": 0, "rental_uris": {"ios": "https://dc.lft.to/lastmile_qr_scan", "android": "https://dc.lft.to/lastmile_qr_scan"}}, {"name": "3debceb4e1f47114a54db038f968baf5", "lon": -77.02197983333333, "lat": 38.90160083333333, "type": "electric_scooter", "fusion_lon": 0.0, "is_reserved": 0, "bike_id": "3debceb4e1f47114a54db038f968baf5", "fusion_lat": 0.0, "is_disabled": 0, "rental_uris": {"ios": "https://dc.lft.to/lastmile_qr_scan", "android": "https://dc.lft.to/lastmile_qr_scan"}}, {"name": "9412b47f3c9f91f614197c620b2bf71f", "lon": -77.0425015, "lat": 38.920675333333335, "type": "electric_scooter", "fusion_lon": 0.0, "is_reserved": 0, "bike_id": "9412b47f3c9f91f614197c620b2bf71f", "fusion_lat": 0.0, "is_disabled": 0, "rental_uris": {"ios": "https://dc.lft.to/lastmile_qr_scan", "android": "https://dc.lft.to/lastmile_qr_scan"}}, {"name": "63821f304e42085feeb340db01af07ce", "lon": -77.03162516666667, "lat": 38.9995105, "type": "electric_bike", "fusion_lon": 0.0, "is_reserved": 0, "bike_id": "63821f304e42085feeb340db01af07ce", "fusion_lat": 0.0, "is_disabled": 0, "rental_uris": {"ios": "https://dc.lft.to/lastmile_qr_scan", "android": "https://dc.lft.to/lastmile_qr_scan"}}, {"name": "6e90971132a08b93f8b6db3f9c967af1", "lon": -77.041372, "lat": 38.914100166666664, "type": "electric_scooter", "fusion_lon": 0.0, "is_reserved": 0, "bike_id": "6e90971132a08b93f8b6db3f9c967af1", "fusion_lat": 0.0, "is_disabled": 0, "rental_uris": {"ios": "https://dc.lft.to/lastmile_qr_scan", "android": "https://dc.lft.to/lastmile_qr_scan"}}, {"name": "4c172d28446ab6f2bee41ec77476c1c0", "lon": -77.0013745, "lat": 38.92553083333333, "type": "electric_bike", "fusion_lon": 0.0, "is_reserved": 0, "bike_id": "4c172d28446ab6f2bee41ec77476c1c0", "fusion_lat": 0.0, "is_disabled": 0, "rental_uris": {"ios": "https://dc.lft.to/lastmile_qr_scan", "android": "https://dc.lft.to/lastmile_qr_scan"}}, {"name": "e3877d518faea69193d1d860f32f3b34", "lon": -77.02878916666667, "lat": 38.92820483333333, "type": "electric_scooter", "fusion_lon": 0.0, "is_reserved": 0, "bike_id": "e3877d518faea69193d1d860f32f3b34", "fusion_lat": 0.0, "is_disabled": 0, "rental_uris": {"ios": "https://dc.lft.to/lastmile_qr_scan", "android": "https://dc.lft.to/lastmile_qr_scan"}}, {"name": "9dd8cde44641af45f81b8d3a0ad65cf3", "lon": -77.03289233333334, "lat": 38.920574333333334, "type": "electric_scooter", "fusion_lon": 0.0, "is_reserved": 0, "bike_id": "9dd8cde44641af45f81b8d3a0ad65cf3", "fusion_lat": 0.0, "is_disabled": 0, "rental_uris": {"ios": "https://dc.lft.to/lastmile_qr_scan", "android": "https://dc.lft.to/lastmile_qr_scan"}}, {"name": "8ffc6f347d5b47d580d535ac08560e24", "lon": -77.04124633333333, "lat": 38.93407083333334, "type": "electric_scooter", "fusion_lon": 0.0, "is_reserved": 0, "bike_id": "8ffc6f347d5b47d580d535ac08560e24", "fusion_lat": 0.0, "is_disabled": 0, "rental_uris": {"ios": "https://dc.lft.to/lastmile_qr_scan", "android": "https://dc.lft.to/lastmile_qr_scan"}}, {"name": "ce0e09c9c0ddfa37eb55c992b728bad4", "lon": -77.0366395, "lat": 38.9124815, "type": "electric_scooter", "fusion_lon": 0.0, "is_reserved": 0, "bike_id": "ce0e09c9c0ddfa37eb55c992b728bad4", "fusion_lat": 0.0, "is_disabled": 0, "rental_uris": {"ios": "https://dc.lft.to/lastmile_qr_scan", "android": "https://dc.lft.to/lastmile_qr_scan"}}, {"name": "d5722bc528d0fad185b2dbdaebe0736e", "lon": -77.022873, "lat": 38.909920666666665, "type": "electric_scooter", "fusion_lon": 0.0, "is_reserved": 0, "bike_id": "d5722bc528d0fad185b2dbdaebe0736e", "fusion_lat": 0.0, "is_disabled": 0, "rental_uris": {"ios": "https://dc.lft.to/lastmile_qr_scan", "android": "https://dc.lft.to/lastmile_qr_scan"}}, {"name": "1caf67d911a4adb229e9eefa55cf667a", "lon": -77.0415415, "lat": 38.918322333333336, "type": "electric_scooter", "fusion_lon": 0.0, "is_reserved": 0, "bike_id": "1caf67d911a4adb229e9eefa55cf667a", "fusion_lat": 0.0, "is_disabled": 0, "rental_uris": {"ios": "https://dc.lft.to/lastmile_qr_scan", "android": "https://dc.lft.to/lastmile_qr_scan"}}, {"name": "3ab1d2a5e609e636d0996aaae44b4a77", "lon": -77.04174833333333, "lat": 38.918367, "type": "electric_scooter", "fusion_lon": 0.0, "is_reserved": 0, "bike_id": "3ab1d2a5e609e636d0996aaae44b4a77", "fusion_lat": 0.0, "is_disabled": 0, "rental_uris": {"ios": "https://dc.lft.to/lastmile_qr_scan", "android": "https://dc.lft.to/lastmile_qr_scan"}}, {"name": "e833517c55010f4fa81fa7f48bc63c13", "lon": -76.99855716666667, "lat": 38.88099, "type": "electric_scooter", "fusion_lon": 0.0, "is_reserved": 0, "bike_id": "e833517c55010f4fa81fa7f48bc63c13", "fusion_lat": 0.0, "is_disabled": 0, "rental_uris": {"ios": "https://dc.lft.to/lastmile_qr_scan", "android": "https://dc.lft.to/lastmile_qr_scan"}}, {"name": "70126b3f143411a91f330fd4de495ba8", "lon": -77.03835283333333, "lat": 38.907208, "type": "electric_scooter", "fusion_lon": 0.0, "is_reserved": 0, "bike_id": "70126b3f143411a91f330fd4de495ba8", "fusion_lat": 0.0, "is_disabled": 0, "rental_uris": {"ios": "https://dc.lft.to/lastmile_qr_scan", "android": "https://dc.lft.to/lastmile_qr_scan"}}, {"name": "0ff694a692039b783b6429deeb12a81c", "lon": -77.04329633333333, "lat": 38.892266, "type": "electric_scooter", "fusion_lon": 0.0, "is_reserved": 0, "bike_id": "0ff694a692039b783b6429deeb12a81c", "fusion_lat": 0.0, "is_disabled": 0, "rental_uris": {"ios": "https://dc.lft.to/lastmile_qr_scan", "android": "https://dc.lft.to/lastmile_qr_scan"}}, {"name": "21ad7b48a5e36a7c748652b6f845764a", "lon": -77.03452166666666, "lat": 38.921468, "type": "electric_scooter", "fusion_lon": 0.0, "is_reserved": 0, "bike_id": "21ad7b48a5e36a7c748652b6f845764a", "fusion_lat": 0.0, "is_disabled": 0, "rental_uris": {"ios": "https://dc.lft.to/lastmile_qr_scan", "android": "https://dc.lft.to/lastmile_qr_scan"}}, {"name": "57c88bbb8fb5e1f2c2e5ee9985564d33", "lon": -77.03326816666667, "lat": 38.921558166666664, "type": "electric_scooter", "fusion_lon": 0.0, "is_reserved": 0, "bike_id": "57c88bbb8fb5e1f2c2e5ee9985564d33", "fusion_lat": 0.0, "is_disabled": 0, "rental_uris": {"ios": "https://dc.lft.to/lastmile_qr_scan", "android": "https://dc.lft.to/lastmile_qr_scan"}}, {"name": "56e3ef70b53028eb97f48e468ba48817", "lon": -76.98690216666667, "lat": 38.862540833333334, "type": "electric_scooter", "fusion_lon": 0.0, "is_reserved": 0, "bike_id": "56e3ef70b53028eb97f48e468ba48817", "fusion_lat": 0.0, "is_disabled": 0, "rental_uris": {"ios": "https://dc.lft.to/lastmile_qr_scan", "android": "https://dc.lft.to/lastmile_qr_scan"}}, {"name": "454832f38962d8ba7aa808d451120ddf", "lon": -77.02280483333334, "lat": 38.90965933333333, "type": "electric_scooter", "fusion_lon": 0.0, "is_reserved": 0, "bike_id": "454832f38962d8ba7aa808d451120ddf", "fusion_lat": 0.0, "is_disabled": 0, "rental_uris": {"ios": "https://dc.lft.to/lastmile_qr_scan", "android": "https://dc.lft.to/lastmile_qr_scan"}}, {"name": "52c70a0fbe67c11bf62248e21412ea33", "lon": -77.002091, "lat": 38.8954225, "type": "electric_scooter", "fusion_lon": 0.0, "is_reserved": 0, "bike_id": "52c70a0fbe67c11bf62248e21412ea33", "fusion_lat": 0.0, "is_disabled": 0, "rental_uris": {"ios": "https://dc.lft.to/lastmile_qr_scan", "android": "https://dc.lft.to/lastmile_qr_scan"}}, {"name": "1de0146d227e6bc5bc7c12888d9d089e", "lon": -77.00320816666667, "lat": 38.90782033333333, "type": "electric_bike", "fusion_lon": 0.0, "is_reserved": 0, "bike_id": "1de0146d227e6bc5bc7c12888d9d089e", "fusion_lat": 0.0, "is_disabled": 0, "rental_uris": {"ios": "https://dc.lft.to/lastmile_qr_scan", "android": "https://dc.lft.to/lastmile_qr_scan"}}, {"name": "719e59b39b73a183ddf45af11f3bc5b4", "lon": -77.05861283333333, "lat": 38.936092333333335, "type": "electric_scooter", "fusion_lon": 0.0, "is_reserved": 0, "bike_id": "719e59b39b73a183ddf45af11f3bc5b4", "fusion_lat": 0.0, "is_disabled": 0, "rental_uris": {"ios": "https://dc.lft.to/lastmile_qr_scan", "android": "https://dc.lft.to/lastmile_qr_scan"}}, {"name": "771be99cdcb1507bb4226f5e272b8083", "lon": -76.9936295, "lat": 38.92837983333333, "type": "electric_scooter", "fusion_lon": 0.0, "is_reserved": 0, "bike_id": "771be99cdcb1507bb4226f5e272b8083", "fusion_lat": 0.0, "is_disabled": 0, "rental_uris": {"ios": "https://dc.lft.to/lastmile_qr_scan", "android": "https://dc.lft.to/lastmile_qr_scan"}}, {"name": "d57ab6079be6de3892d7642dc82adf40", "lon": -77.02979716666667, "lat": 38.92195866666667, "type": "electric_scooter", "fusion_lon": 0.0, "is_reserved": 0, "bike_id": "d57ab6079be6de3892d7642dc82adf40", "fusion_lat": 0.0, "is_disabled": 0, "rental_uris": {"ios": "https://dc.lft.to/lastmile_qr_scan", "android": "https://dc.lft.to/lastmile_qr_scan"}}, {"name": "b962f1bc4a1e418c40d150094b12f885", "lon": -77.02980166666667, "lat": 38.937007666666666, "type": "electric_bike", "fusion_lon": 0.0, "is_reserved": 0, "bike_id": "b962f1bc4a1e418c40d150094b12f885", "fusion_lat": 0.0, "is_disabled": 0, "rental_uris": {"ios": "https://dc.lft.to/lastmile_qr_scan", "android": "https://dc.lft.to/lastmile_qr_scan"}}, {"name": "25c32ef239220a1343fd80eeeab7cc16", "lon": -76.97160216666667, "lat": 38.85470266666667, "type": "electric_scooter", "fusion_lon": 0.0, "is_reserved": 0, "bike_id": "25c32ef239220a1343fd80eeeab7cc16", "fusion_lat": 0.0, "is_disabled": 0, "rental_uris": {"ios": "https://dc.lft.to/lastmile_qr_scan", "android": "https://dc.lft.to/lastmile_qr_scan"}}, {"name": "1689c943259f9503e1c1ff3970e6a51c", "lon": -77.018641, "lat": 38.9737025, "type": "electric_scooter", "fusion_lon": 0.0, "is_reserved": 0, "bike_id": "1689c943259f9503e1c1ff3970e6a51c", "fusion_lat": 0.0, "is_disabled": 0, "rental_uris": {"ios": "https://dc.lft.to/lastmile_qr_scan", "android": "https://dc.lft.to/lastmile_qr_scan"}}, {"name": "f6ca5faf7e65c7949c4496ddbfb1a240", "lon": -77.07332916666667, "lat": 38.926127, "type": "electric_scooter", "fusion_lon": 0.0, "is_reserved": 0, "bike_id": "f6ca5faf7e65c7949c4496ddbfb1a240", "fusion_lat": 0.0, "is_disabled": 0, "rental_uris": {"ios": "https://dc.lft.to/lastmile_qr_scan", "android": "https://dc.lft.to/lastmile_qr_scan"}}, {"name": "db37a5f524b37644c97391f022ba6257", "lon": -77.02492666666667, "lat": 38.93759716666667, "type": "electric_scooter", "fusion_lon": 0.0, "is_reserved": 0, "bike_id": "db37a5f524b37644c97391f022ba6257", "fusion_lat": 0.0, "is_disabled": 0, "rental_uris": {"ios": "https://dc.lft.to/lastmile_qr_scan", "android": "https://dc.lft.to/lastmile_qr_scan"}}, {"name": "ab392c0d97ef173c0e63ee8ce6c2731f", "lon": -77.02185666666666, "lat": 38.915012, "type": "electric_scooter", "fusion_lon": 0.0, "is_reserved": 0, "bike_id": "ab392c0d97ef173c0e63ee8ce6c2731f", "fusion_lat": 0.0, "is_disabled": 0, "rental_uris": {"ios": "https://dc.lft.to/lastmile_qr_scan", "android": "https://dc.lft.to/lastmile_qr_scan"}}, {"name": "c2b540d4d0ae606dc1e8def238e16cd4", "lon": -77.05142833333333, "lat": 38.9057995, "type": "electric_scooter", "fusion_lon": 0.0, "is_reserved": 0, "bike_id": "c2b540d4d0ae606dc1e8def238e16cd4", "fusion_lat": 0.0, "is_disabled": 0, "rental_uris": {"ios": "https://dc.lft.to/lastmile_qr_scan", "android": "https://dc.lft.to/lastmile_qr_scan"}}, {"name": "fc925c6a6bf757ba62ddace323979f3f", "lon": -77.03257316666667, "lat": 38.94275833333333, "type": "electric_scooter", "fusion_lon": 0.0, "is_reserved": 0, "bike_id": "fc925c6a6bf757ba62ddace323979f3f", "fusion_lat": 0.0, "is_disabled": 0, "rental_uris": {"ios": "https://dc.lft.to/lastmile_qr_scan", "android": "https://dc.lft.to/lastmile_qr_scan"}}, {"name": "59b94ab3dc77895ac36919d59b7ba299", "lon": -77.0522165, "lat": 38.924804333333334, "type": "electric_scooter", "fusion_lon": 0.0, "is_reserved": 0, "bike_id": "59b94ab3dc77895ac36919d59b7ba299", "fusion_lat": 0.0, "is_disabled": 0, "rental_uris": {"ios": "https://dc.lft.to/lastmile_qr_scan", "android": "https://dc.lft.to/lastmile_qr_scan"}}, {"name": "3aedd6e26e89d9acb78b996893b8e6a4", "lon": -76.99379583333334, "lat": 38.97185566666667, "type": "electric_bike", "fusion_lon": 0.0, "is_reserved": 0, "bike_id": "3aedd6e26e89d9acb78b996893b8e6a4", "fusion_lat": 0.0, "is_disabled": 0, "rental_uris": {"ios": "https://dc.lft.to/lastmile_qr_scan", "android": "https://dc.lft.to/lastmile_qr_scan"}}, {"name": "d36ab7e42857480429cc2386b04221ae", "lon": -77.0237165, "lat": 38.94504933333333, "type": "electric_bike", "fusion_lon": 0.0, "is_reserved": 0, "bike_id": "d36ab7e42857480429cc2386b04221ae", "fusion_lat": 0.0, "is_disabled": 0, "rental_uris": {"ios": "https://dc.lft.to/lastmile_qr_scan", "android": "https://dc.lft.to/lastmile_qr_scan"}}, {"name": "b71422657efd926989f7495b13018926", "lon": -77.041797, "lat": 38.915560166666666, "type": "electric_scooter", "fusion_lon": 0.0, "is_reserved": 0, "bike_id": "b71422657efd926989f7495b13018926", "fusion_lat": 0.0, "is_disabled": 0, "rental_uris": {"ios": "https://dc.lft.to/lastmile_qr_scan", "android": "https://dc.lft.to/lastmile_qr_scan"}}, {"name": "56bd825119a8ce8a42f100000fbb138b", "lon": -77.06171966666666, "lat": 38.902713, "type": "electric_scooter", "fusion_lon": 0.0, "is_reserved": 0, "bike_id": "56bd825119a8ce8a42f100000fbb138b", "fusion_lat": 0.0, "is_disabled": 0, "rental_uris": {"ios": "https://dc.lft.to/lastmile_qr_scan", "android": "https://dc.lft.to/lastmile_qr_scan"}}, {"name": "c30860d7f445d35c3fbc6d6604925cd0", "lon": -77.02313316666667, "lat": 38.91836216666667, "type": "electric_scooter", "fusion_lon": 0.0, "is_reserved": 0, "bike_id": "c30860d7f445d35c3fbc6d6604925cd0", "fusion_lat": 0.0, "is_disabled": 0, "rental_uris": {"ios": "https://dc.lft.to/lastmile_qr_scan", "android": "https://dc.lft.to/lastmile_qr_scan"}}, {"name": "2def0c9fe687d6f7572d58b45865e092", "lon": -77.00586383333334, "lat": 38.905759333333336, "type": "electric_scooter", "fusion_lon": 0.0, "is_reserved": 0, "bike_id": "2def0c9fe687d6f7572d58b45865e092", "fusion_lat": 0.0, "is_disabled": 0, "rental_uris": {"ios": "https://dc.lft.to/lastmile_qr_scan", "android": "https://dc.lft.to/lastmile_qr_scan"}}, {"name": "8232db0cbe9a37375a584285469c62a7", "lon": -77.02705483333334, "lat": 38.93118416666667, "type": "electric_bike", "fusion_lon": 0.0, "is_reserved": 0, "bike_id": "8232db0cbe9a37375a584285469c62a7", "fusion_lat": 0.0, "is_disabled": 0, "rental_uris": {"ios": "https://dc.lft.to/lastmile_qr_scan", "android": "https://dc.lft.to/lastmile_qr_scan"}}, {"name": "5c720989310dac9cea6102d5c5a93c46", "lon": -77.00659766666666, "lat": 38.9446705, "type": "electric_scooter", "fusion_lon": 0.0, "is_reserved": 0, "bike_id": "5c720989310dac9cea6102d5c5a93c46", "fusion_lat": 0.0, "is_disabled": 0, "rental_uris": {"ios": "https://dc.lft.to/lastmile_qr_scan", "android": "https://dc.lft.to/lastmile_qr_scan"}}, {"name": "7256c67a4c721c5ff1cc8b6e60269586", "lon": -77.052297, "lat": 38.91060616666667, "type": "electric_scooter", "fusion_lon": 0.0, "is_reserved": 0, "bike_id": "7256c67a4c721c5ff1cc8b6e60269586", "fusion_lat": 0.0, "is_disabled": 0, "rental_uris": {"ios": "https://dc.lft.to/lastmile_qr_scan", "android": "https://dc.lft.to/lastmile_qr_scan"}}, {"name": "23d3f610f628b1e2ae5d94f6d41f421f", "lon": -77.06334433333333, "lat": 38.944227833333336, "type": "electric_scooter", "fusion_lon": 0.0, "is_reserved": 0, "bike_id": "23d3f610f628b1e2ae5d94f6d41f421f", "fusion_lat": 0.0, "is_disabled": 0, "rental_uris": {"ios": "https://dc.lft.to/lastmile_qr_scan", "android": "https://dc.lft.to/lastmile_qr_scan"}}, {"name": "fb45de1f0ccaba959d731eb6a90c910f", "lon": -77.02485433333334, "lat": 38.930969, "type": "electric_scooter", "fusion_lon": 0.0, "is_reserved": 0, "bike_id": "fb45de1f0ccaba959d731eb6a90c910f", "fusion_lat": 0.0, "is_disabled": 0, "rental_uris": {"ios": "https://dc.lft.to/lastmile_qr_scan", "android": "https://dc.lft.to/lastmile_qr_scan"}}, {"name": "989ee64f583422dcb4b9db15af19014d", "lon": -77.11709633333334, "lat": 38.86746, "type": "electric_bike", "fusion_lon": 0.0, "is_reserved": 0, "bike_id": "989ee64f583422dcb4b9db15af19014d", "fusion_lat": 0.0, "is_disabled": 0, "rental_uris": {"ios": "https://dc.lft.to/lastmile_qr_scan", "android": "https://dc.lft.to/lastmile_qr_scan"}}, {"name": "23840ad9232f757700128a21d9789115", "lon": -77.00206733333333, "lat": 38.81941416666667, "type": "electric_bike", "fusion_lon": 0.0, "is_reserved": 0, "bike_id": "23840ad9232f757700128a21d9789115", "fusion_lat": 0.0, "is_disabled": 0, "rental_uris": {"ios": "https://dc.lft.to/lastmile_qr_scan", "android": "https://dc.lft.to/lastmile_qr_scan"}},