{"data": {"bikes": [{"is_disabled": 0, "is_reserved": 0, "fusion_lat": 0.0, "lat": 38.903961333333335, "fusion_lon": 0.0, "rental_uris": {"ios": "https://dc.lft.to/lastmile_qr_scan", "android": "https://dc.lft.to/lastmile_qr_scan"}, "lon": -77.01646316666667, "bike_id": "03ecccca131a2d14a5b2a490a9b83dcf", "type": "electric_scooter", "name": "03ecccca131a2d14a5b2a490a9b83dcf"}, {"is_disabled": 0, "is_reserved": 0, "fusion_lat": 0.0, "lat": 38.9224185, "fusion_lon": 0.0, "rental_uris": {"ios": "https://dc.lft.to/lastmile_qr_scan", "android": "https://dc.lft.to/lastmile_qr_scan"}, "lon": -77.046375, "bike_id": "6fcf02d251b0a088ee4c0169289d6414", "type": "electric_scooter", "name": "6fcf02d251b0a088ee4c0169289d6414"}, {"is_disabled": 0, "is_reserved": 0, "fusion_lat": 0.0, "lat": 38.82216416666667, "fusion_lon": 0.0, "rental_uris": {"ios": "https://dc.lft.to/lastmile_qr_scan", "android": "https://dc.lft.to/lastmile_qr_scan"}, "lon": -76.97700366666666, "bike_id": "f312a6cdbae9b982f4fe4e6bbed34b34", "type": "electric_bike", "name": "f312a6cdbae9b982f4fe4e6bbed34b34"}, {"is_disabled": 0, "is_reserved": 0, "fusion_lat": 0.0, "lat": 38.91470983333333, "fusion_lon": 0.0, "rental_uris": {"ios": "https://dc.lft.to/lastmile_qr_scan", "android": "https://dc.lft.to/lastmile_qr_scan"}, "lon": -77.00198166666667, "bike_id": "9c09f267f4eb04c829c5a0121d9d669d", "type": "electric_scooter", "name": "9c09f267f4eb04c829c5a0121d9d669d"}, {"is_disabled": 0, "is_reserved": 0, "fusion_lat": 0.0, "lat": 38.9062055, "fusion_lon": 0.0, "rental_uris": {"ios": "https://dc.lft.to/lastmile_qr_scan", "android": "https://dc.lft.to/lastmile_qr_scan"}, "lon": -77.041342, "bike_id": "0b7fbfcc95bea2712c40d89a68bc57f2", "type": "electric_scooter", "name": "0b7fbfcc95bea2712c40d89a68bc57f2"}, {"is_disabled": 0, "is_reserved": 0, "fusion_lat": 0.0, "lat": 38.91403066666667, "fusion_lon": 0.0, "rental_uris": {"ios": "https://dc.lft.to/lastmile_qr_scan", "android": "https://dc.lft.to/lastmile_qr_scan"}, "lon": -77.01072433333333, "bike_id": "1ffe21149abe9e72aa9cc15192a02f7a", "type": "electric_scooter", "name": "1ffe21149abe9e72aa9cc15192a02f7a"}, {"is_disabled": 0, "is_reserved": 0, "fusion_lat": 0.0, "lat": 38.9053685, "fusion_lon": 0.0, "rental_uris": {"ios": "https://dc.lft.to/lastmile_qr_scan", "android": "https://dc.lft.to/lastmile_qr_scan"}, "lon": -77.04851616666667, "bike_id": "e53f8c8c83d53c63f97e993c052b5fbe", "type": "electric_scooter", "name": "e53f8c8c83d53c63f97e993c052b5fbe"}, {"is_disabled": 0, "is_reserved": 0, "fusion_lat": 0.0, "lat": 38.92804016666667, "fusion_lon": 0.0, "rental_uris": {"ios": "https://dc.lft.to/lastmile_qr_scan", "android": "https://dc.lft.to/lastmile_qr_scan"}, "lon": -76.97610283333333, "bike_id": "1dd9d4ae8fb54cf73e4fd8ea3521700e", "type": "electric_scooter", "name": "1dd9d4ae8fb54cf73e4fd8ea3521700e"}, {"is_disabled": 0, "is_reserved": 0, "fusion_lat": 0.0, "lat": 38.967781333333335, "fusion_lon": 0.0, "rental_uris": {"ios": "https://dc.lft.to/lastmile_qr_scan", "android": "https://dc.lft.to/lastmile_qr_scan"}, "lon": -76.996513, "bike_id": "0a8587513f143f9a01bac89daa2153f9", "type": "electric_bike", "name": "0a8587513f143f9a01bac89daa2153f9"}, {"is_disabled": 0, "is_reserved": 0, "fusion_lat": 0.0, "lat": 38.90505816666666, "fusion_lon": 0.0, "rental_uris": {"ios": "https://dc.lft.to/lastmile_qr_scan", "android": "https://dc.lft.to/lastmile_qr_scan"}, "lon": -77.06125033333333, "bike_id": "0a10fbdd29ad24c98b0e27cc475fecaf", "type": "electric_scooter", "name": "0a10fbdd29ad24c98b0e27cc475fecaf"}, {"is_disabled": 0, "is_reserved": 0, "fusion_lat": 0.0, "lat": 38.911109, "fusion_lon": 0.0, "rental_uris": {"ios": "https://dc.lft.to/lastmile_qr_scan", "android": "https://dc.lft.to/lastmile_qr_scan"}, "lon": -76.997395, "bike_id": "81d0222ebcb75fd306fc036a7ae3cadf", "type": "electric_scooter", "name": "81d0222ebcb75fd306fc036a7ae3cadf"}, {"is_disabled": 0, "is_reserved": 0, "fusion_lat": 0.0, "lat": 38.928148, "fusion_lon": 0.0, "rental_uris": {"ios": "https://dc.lft.to/lastmile_qr_scan", "android": "https://dc.lft.to/lastmile_qr_scan"}, "lon": -77.04351383333334, "bike_id": "266150ac554f94ed1b3dfcf0394f75a4", "type": "electric_scooter", "name": "266150ac554f94ed1b3dfcf0394f75a4"}, {"is_disabled": 0, "is_reserved": 0, "fusion_lat": 0.0, "lat": 38.85060566666667, "fusion_lon": 0.0, "rental_uris": {"ios": "https://dc.lft.to/lastmile_qr_scan", "android": "https://dc.lft.to/lastmile_qr_scan"}, "lon": -76.95824866666666, "bike_id": "bacade521df32f86cc90b409a620abf9", "type": "electric_bike", "name": "bacade521df32f86cc90b409a620abf9"}, {"is_disabled": 0, "is_reserved": 0, "fusion_lat": 0.0, "lat": 38.902468999999996, "fusion_lon": 0.0, "rental_uris": {"ios": "https://dc.lft.to/lastmile_qr_scan", "android": "https://dc.lft.to/lastmile_qr_scan"}, "lon": -77.0077805, "bike_id": "23dc64bd1845c8ca5a7414d736377fd7", "type": "electric_scooter", "name": "23dc64bd1845c8ca5a7414d736377fd7"}, {"is_disabled": 0, "is_reserved": 0, "fusion_lat": 0.0, "lat": 38.860822, "fusion_lon": 0.0, "rental_uris": {"ios": "https://dc.lft.to/lastmile_qr_scan", "android": "https://dc.lft.to/lastmile_qr_scan"}, "lon": -76.983766, "bike_id": "ea738a8b693b004c9749429809ca7aa0", "type": "electric_scooter", "name": "ea738a8b693b004c9749429809ca7aa0"}, {"is_disabled": 0, "is_reserved": 0, "fusion_lat": 0.0, "lat": 38.9210665, "fusion_lon": 0.0, "rental_uris": {"ios": "https://dc.lft.to/lastmile_qr_scan", "android": "https://dc.lft.to/lastmile_qr_scan"}, "lon": -77.04169766666666, "bike_id": "13d59b41e8bd5f7c816f3f394d99f3db", "type": "electric_scooter", "name": "13d59b41e8bd5f7c816f3f394d99f3db"}, {"is_disabled": 0, "is_reserved": 0, "fusion_lat": 0.0, "lat": 38.885769833333335, "fusion_lon": 0.0, "rental_uris": {"ios": "https://dc.lft.to/lastmile_qr_scan", "android": "https://dc.lft.to/lastmile_qr_scan"}, "lon": -77.01213966666667, "bike_id": "ae790131309333f1f07e5e8dc3f4ec26", "type": "electric_scooter", "name": "ae790131309333f1f07e5e8dc3f4ec26"}, {"is_disabled": 0, "is_reserved": 0, "fusion_lat": 0.0, "lat": 38.93243783333333, "fusion_lon": 0.0, "rental_uris": {"ios": "https://dc.lft.to/lastmile_qr_scan", "android": "https://dc.lft.to/lastmile_qr_scan"}, "lon": -76.99704133333333, "bike_id": "d611187c29af96a8de8f5b945b516a1d", "type": "electric_scooter", "name": "d611187c29af96a8de8f5b945b516a1d"}, {"is_disabled": 0, "is_reserved": 0, "fusion_lat": 0.0, "lat": 38.91057216666667, "fusion_lon": 0.0, "rental_uris": {"ios": "https://dc.lft.to/lastmile_qr_scan", "android": "https://dc.lft.to/lastmile_qr_scan"}, "lon": -77.02304333333333, "bike_id": "54aa40d7400509db96b1980b72ee1412", "type": "electric_scooter", "name": "54aa40d7400509db96b1980b72ee1412"}, {"is_disabled": 0, "is_reserved": 0, "fusion_lat": 0.0, "lat": 38.93192583333333, "fusion_lon": 0.0, "rental_uris": {"ios": "https://dc.lft.to/lastmile_qr_scan", "android": "https://dc.lft.to/lastmile_qr_scan"}, "lon": -77.03452966666667, "bike_id": "228770a58b701e6b899cab0fc83b77f8", "type": "electric_scooter", "name": "228770a58b701e6b899cab0fc83b77f8"}, {"is_disabled": 0, "is_reserved": 0, "fusion_lat": 0.0, "lat": 38.91777716666667, "fusion_lon": 0.0, "rental_uris": {"ios": "https://dc.lft.to/lastmile_qr_scan", "android": "https://dc.lft.to/lastmile_qr_scan"}, "lon": -77.03200383333333, "bike_id": "a112aaf7b9afb41a9613b0e3911ba97c", "type": "electric_scooter", "name": "a112aaf7b9afb41a9613b0e3911ba97c"}, {"is_disabled": 0, "is_reserved": 0, "fusion_lat": 0.0, "lat": 38.876315, "fusion_lon": 0.0, "rental_uris": {"ios": "https://dc.lft.to/lastmile_qr_scan", "android": "https://dc.lft.to/lastmile_qr_scan"}, "lon": -77.00957116666666, "bike_id": "708550a96fbeb58b6d42008d5141562c", "type": "electric_scooter", "name": "708550a96fbeb58b6d42008d5141562c"}, {"is_disabled": 0, "is_reserved": 0, "fusion_lat": 0.0, "lat": 38.89107933333333, "fusion_lon": 0.0, "rental_uris": {"ios": "https://dc.lft.to/lastmile_qr_scan", "android": "https://dc.lft.to/lastmile_qr_scan"}, "lon": -77.01438316666666, "bike_id": "a876a302de35f5445f6be5a7dd35be0c", "type": "electric_scooter", "name": "a876a302de35f5445f6be5a7dd35be0c"}, {"is_disabled": 0, "is_reserved": 0, "fusion_lat": 0.0, "lat": 38.91196083333333, "fusion_lon": 0.0, "rental_uris": {"ios": "https://dc.lft.to/lastmile_qr_scan", "android": "https://dc.lft.to/lastmile_qr_scan"}, "lon": -77.0018205, "bike_id": "2bb1f526b66973b08995b95cc83f6e8b", "type": "electric_scooter", "name": "2bb1f526b66973b08995b95cc83f6e8b"}, {"is_disabled": 0, "is_reserved": 0, "fusion_lat": 0.0, "lat": 38.935541666666666, "fusion_lon": 0.0, "rental_uris": {"ios": "https://dc.lft.to/lastmile_qr_scan", "android": "https://dc.lft.to/lastmile_qr_scan"}, "lon": -77.021331, "bike_id": "0827093357d0413cf4bd54e19651b196", "type": "electric_scooter", "name": "0827093357d0413cf4bd54e19651b196"}, {"is_disabled": 0, "is_reserved": 0, "fusion_lat": 0.0, "lat": 38.88625366666667, "fusion_lon": 0.0, "rental_uris": {"ios": "https://dc.lft.to/lastmile_qr_scan", "android": "https://dc.lft.to/lastmile_qr_scan"}, "lon": -77.02845566666667, "bike_id": "c45837094c5673c810383908ca049c38", "type": "electric_scooter", "name": "c45837094c5673c810383908ca049c38"}, {"is_disabled": 0, "is_reserved": 0, "fusion_lat": 0.0, "lat": 38.9233495, "fusion_lon": 0.0, "rental_uris": {"ios": "https://dc.lft.to/lastmile_qr_scan", "android": "https://dc.lft.to/lastmile_qr_scan"}, "lon": -76.98488216666667, "bike_id": "b39e4d2f4221427551beb6957d07af6c", "type": "electric_scooter", "name": "b39e4d2f4221427551beb6957d07af6c"}, {"is_disabled": 0, "is_reserved": 0, "fusion_lat": 0.0, "lat": 38.879212, "fusion_lon": 0.0, "rental_uris": {"ios": "https://dc.lft.to/lastmile_qr_scan", "android": "https://dc.lft.to/lastmile_qr_scan"}, "lon": -77.00868533333333, "bike_id": "87af829f3767c07ad7b3c2305a840c2f", "type": "electric_scooter", "name": "87af829f3767c07ad7b3c2305a840c2f"}, {"is_disabled": 0, "is_reserved": 0, "fusion_lat": 0.0, "lat": 38.868169333333334, "fusion_lon": 0.0, "rental_uris": {"ios": "https://dc.lft.to/lastmile_qr_scan", "android": "https://dc.lft.to/lastmile_qr_scan"}, "lon": -76.98029433333333, "bike_id": "660e0100d81f1385f4663ff90f22a85a", "type": "electric_bike", "name": "660e0100d81f1385f4663ff90f22a85a"}, {"is_disabled": 0, "is_reserved": 0, "fusion_lat": 0.0, "lat": 38.94734566666666, "fusion_lon": 0.0, "rental_uris": {"ios": "https://dc.lft.to/lastmile_qr_scan", "android": "https://dc.lft.to/lastmile_qr_scan"}, "lon": -77.0194255, "bike_id": "640a05c80b0fca95cd85a22e828521e8", "type": "electric_scooter", "name": "640a05c80b0fca95cd85a22e828521e8"}, {"is_disabled": 0, "is_reserved": 0, "fusion_lat": 0.0, "lat": 38.87063633333333, "fusion_lon": 0.0, "rental_uris": {"ios": "https://dc.lft.to/lastmile_qr_scan", "android": "https://dc.lft.to/lastmile_qr_scan"}, "lon": -77.11029233333333, "bike_id": "5d55da39fc17674cfa99a2b845ec9fff", "type": "electric_bike", "name": "5d55da39fc17674cfa99a2b845ec9fff"}, {"is_disabled": 0, "is_reserved": 0, "fusion_lat": 0.0, "lat": 38.8966485, "fusion_lon": 0.0, "rental_uris": {"ios": "https://dc.lft.to/lastmile_qr_scan", "android": "https://dc.lft.to/lastmile_qr_scan"}, "lon": -76.932069, "bike_id": "0aeb82f2e6b2adadaa10d2e5b564ccd0", "type": "electric_scooter", "name": "0aeb82f2e6b2adadaa10d2e5b564ccd0"}, {"is_disabled": 0, "is_reserved": 0, "fusion_lat": 0.0, "lat": 38.93112983333333, "fusion_lon": 0.0, "rental_uris": {"ios": "https://dc.lft.to/lastmile_qr_scan", "android": "https://dc.lft.to/lastmile_qr_scan"}, "lon": -77.03843383333333, "bike_id": "8b13aa48591682508c9960014f356979", "type": "electric_scooter", "name": "8b13aa48591682508c9960014f356979"}, {"is_disabled": 0, "is_reserved": 0, "fusion_lat": 0.0, "lat": 38.898386, "fusion_lon": 0.0, "rental_uris": {"ios": "https://dc.lft.to/lastmile_qr_scan", "android": "https://dc.lft.to/lastmile_qr_scan"}, "lon": -77.03351, "bike_id": "7ecee682713f39f6d01e856cbba53be2", "type": "electric_scooter", "name": "7ecee682713f39f6d01e856cbba53be2"}, {"is_disabled": 0, "is_reserved": 0, "fusion_lat": 0.0, "lat": 38.882980833333335, "fusion_lon": 0.0, "rental_uris": {"ios": "https://dc.lft.to/lastmile_qr_scan", "android": "https://dc.lft.to/lastmile_qr_scan"}, "lon": -76.98612233333333, "bike_id": "407d8f9b67e0f63f911b7a2a0a33df0d", "type": "electric_scooter", "name": "407d8f9b67e0f63f911b7a2a0a33df0d"}, {"is_disabled": 0, "is_reserved": 0, "fusion_lat": 0.0, "lat": 38.919238666666665, "fusion_lon": 0.0, "rental_uris": {"ios": "https://dc.lft.to/lastmile_qr_scan", "android": "https://dc.lft.to/lastmile_qr_scan"}, "lon": -77.027136, "bike_id": "3db456bdce6794452277ce4da07b12e1", "type": "electric_scooter", "name": "3db456bdce6794452277ce4da07b12e1"}, {"is_disabled": 0, "is_reserved": 0, "fusion_lat": 0.0, "lat": 38.93674, "fusion_lon": 0.0, "rental_uris": {"ios": "https://dc.lft.to/lastmile_qr_scan", "android": "https://dc.lft.to/lastmile_qr_scan"}, "lon": -77.035913, "bike_id": "1ae3f22332e6913598ed7ebf2b1ff857", "type": "electric_scooter", "name": "1ae3f22332e6913598ed7ebf2b1ff857"}, {"is_disabled": 0, "is_reserved": 0, "fusion_lat": 0.0, "lat": 38.907212333333334, "fusion_lon": 0.0, "rental_uris": {"ios": "https://dc.lft.to/lastmile_qr_scan", "android": "https://dc.lft.to/lastmile_qr_scan"}, "lon": -76.998103, "bike_id": "63198c26cadcfd7493ee5c46e6f6fe24", "type": "electric_scooter", "name": "63198c26cadcfd7493ee5c46e6f6fe24"}, {"is_disabled": 0, "is_reserved": 0, "fusion_lat": 0.0, "lat": 38.89490633333333, "fusion_lon": 0.0, "rental_uris": {"ios": "https://dc.lft.to/lastmile_qr_scan", "android": "https://dc.lft.to/lastmile_qr_scan"}, "lon": -77.02287516666667, "bike_id": "815879b3b04757200912addc63625c6a", "type": "electric_scooter", "name": "815879b3b04757200912addc63625c6a"}, {"is_disabled": 0, "is_reserved": 0, "fusion_lat": 0.0, "lat": 38.933352666666664, "fusion_lon": 0.0, "rental_uris": {"ios": "https://dc.lft.to/lastmile_qr_scan", "android": "https://dc.lft.to/lastmile_qr_scan"}, "lon": -77.03988816666667, "bike_id": "fe272c8bb6b193df2878f87b5cd50801", "type": "electric_bike", "name": "fe272c8bb6b193df2878f87b5cd50801"}, {"is_disabled": 0, "is_reserved": 0, "fusion_lat": 0.0, "lat": 38.80521433333333, "fusion_lon": 0.0, "rental_uris": {"ios": "https://dc.lft.to/lastmile_qr_scan", "android": "https://dc.lft.to/lastmile_qr_scan"}, "lon": -77.04340616666667, "bike_id": "baf71f4cbace7ee3ddb930c08751eef4", "type": "electric_bike", "name": "baf71f4cbace7ee3ddb930c08751eef4"}, {"is_disabled": 0, "is_reserved": 0, "fusion_lat": 0.0, "lat": 38.922195333333335, "fusion_lon": 0.0, "rental_uris": {"ios": "https://dc.lft.to/lastmile_qr_scan", "android": "https://dc.lft.to/lastmile_qr_scan"}, "lon": -77.038994, "bike_id": "9dc1b41a189e2491fb58f0136d87d4c4", "type": "electric_scooter", "name": "9dc1b41a189e2491fb58f0136d87d4c4"}, {"is_disabled": 0, "is_reserved": 0, "fusion_lat": 0.0, "lat": 38.897461666666665, "fusion_lon": 0.0, "rental_uris": {"ios": "https://dc.lft.to/lastmile_qr_scan", "android": "https://dc.lft.to/lastmile_qr_scan"}, "lon": -77.01762416666666, "bike_id": "94b485809c0fd8ddda8b08a128b4a7cb", "type": "electric_scooter", "name": "94b485809c0fd8ddda8b08a128b4a7cb"}, {"is_disabled": 0, "is_reserved": 0, "fusion_lat": 0.0, "lat": 38.86493333333333, "fusion_lon": 0.0, "rental_uris": {"ios": "https://dc.lft.to/lastmile_qr_scan", "android": "https://dc.lft.to/lastmile_qr_scan"}, "lon": -76.96986483333333, "bike_id": "bbfdb8b48ee180d4af495b72e1fb9fe6", "type": "electric_bike", "name": "bbfdb8b48ee180d4af495b72e1fb9fe6"}, {"is_disabled": 0, "is_reserved": 0, "fusion_lat": 0.0, "lat": 38.9147325, "fusion_lon": 0.0, "rental_uris": {"ios": "https://dc.lft.to/lastmile_qr_scan", "android": "https://dc.lft.to/lastmile_qr_scan"}, "lon": -77.032028, "bike_id": "7d07db343cd4198b3b7fadce66771e28", "type": "electric_scooter", "name": "7d07db343cd4198b3b7fadce66771e28"}, {"is_disabled": 0, "is_reserved": 0, "fusion_lat": 0.0, "lat": 38.929013166666664, "fusion_lon": 0.0, "rental_uris": {"ios": "https://dc.lft.to/lastmile_qr_scan", "android": "https://dc.lft.to/lastmile_qr_scan"}, "lon": -77.05456383333333, "bike_id": "0435da9c4624601e5222664a5cac4091", "type": "electric_scooter", "name": "0435da9c4624601e5222664a5cac4091"}, {"is_disabled": 0, "is_reserved": 0, "fusion_lat": 0.0, "lat": 38.878946666666664, "fusion_lon": 0.0, "rental_uris": {"ios": "https://dc.lft.to/lastmile_qr_scan", "android": "https://dc.lft.to/lastmile_qr_scan"}, "lon": -76.93529266666667, "bike_id": "b66125044e3d65e741e311027ab68f19", "type": "electric_scooter", "name": "b66125044e3d65e741e311027ab68f19"}, {"is_disabled": 0, "is_reserved": 0, "fusion_lat": 0.0, "lat": 38.929704666666666, "fusion_lon": 0.0, "rental_uris": {"ios": "https://dc.lft.to/lastmile_qr_scan", "android": "https://dc.lft.to/lastmile_qr_scan"}, "lon": -77.03934166666667, "bike_id": "b05f58103e7593b9fcac6c53d21ebda9", "type": "electric_scooter", "name": "b05f58103e7593b9fcac6c53d21ebda9"}, {"is_disabled": 0, "is_reserved": 0, "fusion_lat": 0.0, "lat": 38.91965316666667, "fusion_lon": 0.0, "rental_uris": {"ios": "https://dc.lft.to/lastmile_qr_scan", "android": "https://dc.lft.to/lastmile_qr_scan"}, "lon": -77.02300316666667, "bike_id": "99b9cbb71a310012daa339c16f3a08ab", "type": "electric_scooter", "name": "99b9cbb71a310012daa339c16f3a08ab"}, {"is_disabled": 0, "is_reserved": 0, "fusion_lat": 0.0, "lat": 38.90038166666667, "fusion_lon": 0.0, "rental_uris": {"ios": "https://dc.lft.to/lastmile_qr_scan", "android": "https://dc.lft.to/lastmile_qr_scan"}, "lon": -77.003666, "bike_id": "8f25f638c080310bda9a2d623984b38f", "type": "electric_scooter", "name": "8f25f638c080310bda9a2d623984b38f"}, {"is_disabled": 0, "is_reserved": 0, "fusion_lat": 0.0, "lat": 38.8729465, "fusion_lon": 0.0, "rental_uris": {"ios": "https://dc.lft.to/lastmile_qr_scan", "android": "https://dc.lft.to/lastmile_qr_scan"}, "lon": -77.0099, "bike_id": "338db10f0af308271c6a831244a44d25", "type": "electric_scooter", "name": "338db10f0af308271c6a831244a44d25"}, {"is_disabled": 0, "is_reserved": 0, "fusion_lat": 0.0, "lat": 38.926703, "fusion_lon": 0.0, "rental_uris": {"ios": "https://dc.lft.to/lastmile_qr_scan", "android": "https://dc.lft.to/lastmile_qr_scan"}, "lon": -77.03028, "bike_id": "31f3b1553159732d13bdfaa48302607b", "type": "electric_scooter", "name": "31f3b1553159732d13bdfaa48302607b"}, {"is_disabled": 0, "is_reserved": 0, "fusion_lat": 0.0, "lat": 38.935233333333336, "fusion_lon": 0.0, "rental_uris": {"ios": "https://dc.lft.to/lastmile_qr_scan", "android": "https://dc.lft.to/lastmile_qr_scan"}, "lon": -77.02840666666667, "bike_id": "4f8ce167e878e8833a6f009eeb580eba", "type": "electric_scooter", "name": "4f8ce167e878e8833a6f009eeb580eba"}, {"is_disabled": 0, "is_reserved": 0, "fusion_lat": 0.0, "lat": 38.91206116666667, "fusion_lon": 0.0, "rental_uris": {"ios": "https://dc.lft.to/lastmile_qr_scan", "android": "https://dc.lft.to/lastmile_qr_scan"}, "lon": -77.00087316666666, "bike_id": "8bbed23f740d86e03982c6725bafdf5e", "type": "electric_scooter", "name": "8bbed23f740d86e03982c6725bafdf5e"}, {"is_disabled": 0, "is_reserved": 0, "fusion_lat": 0.0, "lat": 39.00532283333333, "fusion_lon": 0.0, "rental_uris": {"ios": "https://dc.lft.to/lastmile_qr_scan", "android": "https://dc.lft.to/lastmile_qr_scan"}, "lon": -77.10400533333333, "bike_id": "db4f41b02f9feea32049ff3ff1a1d890", "type": "electric_bike", "name": "db4f41b02f9feea32049ff3ff1a1d890"}, {"is_disabled": 0, "is_reserved": 0, "fusion_lat": 0.0, "lat": 38.88523033333333, "fusion_lon": 0.0, "rental_uris": {"ios": "https://dc.lft.to/lastmile_qr_scan", "android": "https://dc.lft.to/lastmile_qr_scan"}, "lon": -76.99626, "bike_id": "0e68dc8155492aa01626ed7d567f1aee", "type": "electric_scooter", "name": "0e68dc8155492aa01626ed7d567f1aee"}, {"is_disabled": 0, "is_reserved": 0, "fusion_lat": 0.0, "lat": 38.90768116666667, "fusion_lon": 0.0, "rental_uris": {"ios": "https://dc.lft.to/lastmile_qr_scan", "android": "https://dc.lft.to/lastmile_qr_scan"}, "lon": -77.04506433333333, "bike_id": "7eee4a02fec9f9f1664a5bc4999ba414", "type": "electric_scooter", "name": "7eee4a02fec9f9f1664a5bc4999ba414"}, {"is_disabled": 0, "is_reserved": 0, "fusion_lat": 0.0, "lat": 38.87738566666667, "fusion_lon": 0.0, "rental_uris": {"ios": "https://dc.lft.to/lastmile_qr_scan", "android": "https://dc.lft.to/lastmile_qr_scan"}, "lon": -77.14874433333334, "bike_id": "faf1b5b1acc394aa4c7dfe89ce9a62ea", "type": "electric_bike", "name": "faf1b5b1acc394aa4c7dfe89ce9a62ea"}, {"is_disabled": 0, "is_reserved": 0, "fusion_lat": 0.0, "lat": 38.881055833333335, "fusion_lon": 0.0, "rental_uris": {"ios": "https://dc.lft.to/lastmile_qr_scan", "android": "https://dc.lft.to/lastmile_qr_scan"}, "lon": -77.01234266666667, "bike_id": "e928c4861e6338a7712fc0667e1578e6", "type": "electric_scooter", "name": "e928c4861e6338a7712fc0667e1578e6"}, {"is_disabled": 0, "is_reserved": 0, "fusion_lat": 0.0, "lat": 38.942265666666664, "fusion_lon": 0.0, "rental_uris": {"ios": "https://dc.lft.to/lastmile_qr_scan", "android": "https://dc.lft.to/lastmile_qr_scan"}, "lon": -77.01435283333333, "bike_id": "8421e825c27e480dd28ee6640dd50484", "type": "electric_scooter", "name": "8421e825c27e480dd28ee6640dd50484"}, {"is_disabled": 0, "is_reserved": 0, "fusion_lat": 0.0, "lat": 38.90432966666667, "fusion_lon": 0.0, "rental_uris": {"ios": "https://dc.lft.to/lastmile_qr_scan", "android": "https://dc.lft.to/lastmile_qr_scan"}, "lon": -76.97224933333334, "bike_id": "cc4798fbf327c3c51bce0a845fc62331", "type": "electric_bike", "name": "cc4798fbf327c3c51bce0a845fc62331"}, {"is_disabled": 0, "is_reserved": 0, "fusion_lat": 0.0, "lat": 38.904302, "fusion_lon": 0.0, "rental_uris": {"ios": "https://dc.lft.to/lastmile_qr_scan", "android": "https://dc.lft.to/lastmile_qr_scan"}, "lon": -77.0284885, "bike_id": "2ff504ba4f4c147c32febcedabaeb0f1", "type": "electric_scooter", "name": "2ff504ba4f4c147c32febcedabaeb0f1"}, {"is_disabled": 0, "is_reserved": 0, "fusion_lat": 0.0, "lat": 38.832967833333335, "fusion_lon": 0.0, "rental_uris": {"ios": "https://dc.lft.to/lastmile_qr_scan", "android": "https://dc.lft.to/lastmile_qr_scan"}, "lon": -77.08410716666667, "bike_id": "9f95dd4d1318585b097b0298ffaee852", "type": "electric_bike", "name": "9f95dd4d1318585b097b0298ffaee852"}, {"is_disabled": 0, "is_reserved": 0, "fusion_lat": 0.0, "lat": 38.9364075, "fusion_lon": 0.0, "rental_uris": {"ios": "https://dc.lft.to/lastmile_qr_scan", "android": "https://dc.lft.to/lastmile_qr_scan"}, "lon": -77.03692533333333, "bike_id": "423d95d58920b1432f4fb5132fd989fc", "type": "electric_scooter", "name": "423d95d58920b1432f4fb5132fd989fc"}, {"is_disabled": 0, "is_reserved": 0, "fusion_lat": 0.0, "lat": 38.898486166666665, "fusion_lon": 0.0, "rental_uris": {"ios": "https://dc.lft.to/lastmile_qr_scan", "android": "https://dc.lft.to/lastmile_qr_scan"}, "lon": -76.92752333333334, "bike_id": "dc728e5271870039588d5a0654b5de95", "type": "electric_scooter", "name": "dc728e5271870039588d5a0654b5de95"}, {"is_disabled": 0, "is_reserved": 0, "fusion_lat": 0.0, "lat": 38.890547166666664, "fusion_lon": 0.0, "rental_uris": {"ios": "https://dc.lft.to/lastmile_qr_scan", "android": "https://dc.lft.to/lastmile_qr_scan"}, "lon": -77.02666633333334, "bike_id": "f337b7d29e8fcb53e402c0f7c32bdf22", "type": "electric_bike", "name": "f337b7d29e8fcb53e402c0f7c32bdf22"}, {"is_disabled": 0, "is_reserved": 0, "fusion_lat": 0.0, "lat": 38.931113333333336, "fusion_lon": 0.0, "rental_uris": {"ios": "https://dc.lft.to/lastmile_qr_scan", "android": "https://dc.lft.to/lastmile_qr_scan"}, "lon": -77.02136266666666, "bike_id": "61e09e5ba3409a4b49c3c8486f43e4bc", "type": "electric_scooter", "name": "61e09e5ba3409a4b49c3c8486f43e4bc"}, {"is_disabled": 0, "is_reserved": 0, "fusion_lat": 0.0, "lat": 38.918774166666665, "fusion_lon": 0.0, "rental_uris": {"ios": "https://dc.lft.to/lastmile_qr_scan", "android": "https://dc.lft.to/lastmile_qr_scan"}, "lon": -77.03662933333334, "bike_id": "e870d4d9307d31f217cdad86d155893a", "type": "electric_scooter", "name": "e870d4d9307d31f217cdad86d155893a"}, {"is_disabled": 0, "is_reserved": 0, "fusion_lat": 0.0, "lat": 38.9072295, "fusion_lon": 0.0, "rental_uris": {"ios": "https://dc.lft.to/lastmile_qr_scan", "android": "https://dc.lft.to/lastmile_qr_scan"}, "lon": -77.0464115, "bike_id": "08f3161662d1d53fe1fbdcc5b656a50a", "type": "electric_scooter", "name": "08f3161662d1d53fe1fbdcc5b656a50a"}, {"is_disabled": 0, "is_reserved": 0, "fusion_lat": 0.0, "lat": 38.96553433333333, "fusion_lon": 0.0, "rental_uris": {"ios": "https://dc.lft.to/lastmile_qr_scan", "android": "https://dc.lft.to/lastmile_qr_scan"}, "lon": -77.0163115, "bike_id": "650eaecbd1785899bf80b93f614c06ea", "type": "electric_bike", "name": "650eaecbd1785899bf80b93f614c06ea"}, {"is_disabled": 0, "is_reserved": 0, "fusion_lat": 0.0, "lat": 38.90845866666667, "fusion_lon": 0.0, "rental_uris": {"ios": "https://dc.lft.to/lastmile_qr_scan", "android": "https://dc.lft.to/lastmile_qr_scan"}, "lon": -76.9344675, "bike_id": "b323c2849fc5401c43b49c8aa4ed0b93", "type": "electric_scooter", "name": "b323c2849fc5401c43b49c8aa4ed0b93"}, {"is_disabled": 0, "is_reserved": 0, "fusion_lat": 0.0, "lat": 38.88115833333333, "fusion_lon": 0.0, "rental_uris": {"ios": "https://dc.lft.to/lastmile_qr_scan", "android": "https://dc.lft.to/lastmile_qr_scan"}, "lon": -76.992805, "bike_id": "391261e1f7207e7e53a7daafb6e4fe35", "type": "electric_scooter", "name": "391261e1f7207e7e53a7daafb6e4fe35"}, {"is_disabled": 0, "is_reserved": 0, "fusion_lat": 0.0, "lat": 38.94492, "fusion_lon": 0.0, "rental_uris": {"ios": "https://dc.lft.to/lastmile_qr_scan", "android": "https://dc.lft.to/lastmile_qr_scan"}, "lon": -77.007381, "bike_id": "c60111bee8ada8d960dcc610de398832", "type": "electric_bike", "name": "c60111bee8ada8d960dcc610de398832"}, {"is_disabled": 0, "is_reserved": 0, "fusion_lat": 0.0, "lat": 38.87835833333333, "fusion_lon": 0.0, "rental_uris": {"ios": "https://dc.lft.to/lastmile_qr_scan", "android": "https://dc.lft.to/lastmile_qr_scan"}, "lon": -77.00545083333333, "bike_id": "7e3975f2d74fc59d4b9a03f6cccb6565", "type": "electric_scooter", "name": "7e3975f2d74fc59d4b9a03f6cccb6565"}, {"is_disabled": 0, "is_reserved": 0, "fusion_lat": 0.0, "lat": 38.9150375, "fusion_lon": 0.0, "rental_uris": {"ios": "https://dc.lft.to/lastmile_qr_scan", "android": "https://dc.lft.to/lastmile_qr_scan"}, "lon": -77.009237, "bike_id": "02f1d55a4989a885466c3344fb9440bb", "type": "electric_scooter", "name": "02f1d55a4989a885466c3344fb9440bb"}, {"is_disabled": 0, "is_reserved": 0, "fusion_lat": 0.0, "lat": 38.80522233333333, "fusion_lon": 0.0, "rental_uris": {"ios": "https://dc.lft.to/lastmile_qr_scan", "android": "https://dc.lft.to/lastmile_qr_scan"}, "lon": -77.04340633333334, "bike_id": "1004379fc42f5c2885cbe7b06a07ad73", "type": "electric_bike", "name": "1004379fc42f5c2885cbe7b06a07ad73"}, {"is_disabled": 0, "is_reserved": 0, "fusion_lat": 0.0, "lat": 38.903299, "fusion_lon": 0.0, "rental_uris": {"ios": "https://dc.lft.to/lastmile_qr_scan", "android": "https://dc.lft.to/lastmile_qr_scan"}, "lon": -77.01966933333334, "bike_id": "980d04770649f8000bd1d490b2d37946", "type": "electric_scooter", "name": "980d04770649f8000bd1d490b2d37946"}, {"is_disabled": 0, "is_reserved": 0, "fusion_lat": 0.0, "lat": 38.967974166666664, "fusion_lon": 0.0, "rental_uris": {"ios": "https://dc.lft.to/lastmile_qr_scan", "android": "https://dc.lft.to/lastmile_qr_scan"}, "lon": -77.024306, "bike_id": "a01cc33379c1997878b9e2225ca45f91", "type": "electric_scooter", "name": "a01cc33379c1997878b9e2225ca45f91"}, {"is_disabled": 0, "is_reserved": 0, "fusion_lat": 0.0, "lat": 38.9085235, "fusion_lon": 0.0, "rental_uris": {"ios": "https://dc.lft.to/lastmile_qr_scan", "android": "https://dc.lft.to/lastmile_qr_scan"}, "lon": -77.00409166666667, "bike_id": "2844172c6d80b3c3d3c8205d8953acc5", "type": "electric_scooter", "name": "2844172c6d80b3c3d3c8205d8953acc5"}, {"is_disabled": 0, "is_reserved": 0, "fusion_lat": 0.0, "lat": 38.9083525, "fusion_lon": 0.0, "rental_uris": {"ios": "https://dc.lft.to/lastmile_qr_scan", "android": "https://dc.lft.to/lastmile_qr_scan"}, "lon": -77.00100016666667, "bike_id": "fb9791595229d5243ab4ac3674da5c12", "type": "electric_scooter", "name": "fb9791595229d5243ab4ac3674da5c12"}, {"is_disabled": 0, "is_reserved": 0, "fusion_lat": 0.0, "lat": 38.8844785, "fusion_lon": 0.0, "rental_uris": {"ios": "https://dc.lft.to/lastmile_qr_scan", "android": "https://dc.lft.to/lastmile_qr_scan"}, "lon": -77.00899516666666, "bike_id": "77b73a6c9f7f2b1e1f8bc3e458ae8880", "type": "electric_scooter", "name": "77b73a6c9f7f2b1e1f8bc3e458ae8880"}, {"is_disabled": 0, "is_reserved": 0, "fusion_lat": 0.0, "lat": 38.8839125, "fusion_lon": 0.0, "rental_uris": {"ios": "https://dc.lft.to/lastmile_qr_scan", "android": "https://dc.lft.to/lastmile_qr_scan"}, "lon": -76.930441, "bike_id": "1fbf963ab256aa015eece15ffe66f321", "type": "electric_scooter", "name": "1fbf963ab256aa015eece15ffe66f321"}, {"is_disabled": 0, "is_reserved": 0, "fusion_lat": 0.0, "lat": 38.88376783333333, "fusion_lon": 0.0, "rental_uris": {"ios": "https://dc.lft.to/lastmile_qr_scan", "android": "https://dc.lft.to/lastmile_qr_scan"}, "lon": -76.9237125, "bike_id": "a1100e5f176af7070ad68adc555c0a80", "type": "electric_bike", "name": "a1100e5f176af7070ad68adc555c0a80"}, {"is_disabled": 0, "is_reserved": 0, "fusion_lat": 0.0, "lat": 38.859029666666665, "fusion_lon": 0.0, "rental_uris": {"ios": "https://dc.lft.to/lastmile_qr_scan", "android": "https://dc.lft.to/lastmile_qr_scan"}, "lon": -77.09554916666667, "bike_id": "afa645e29e1b9a6abb7b8ead024231e0", "type": "electric_bike", "name": "afa645e29e1b9a6abb7b8ead024231e0"}, {"is_disabled": 0, "is_reserved": 0, "fusion_lat": 0.0, "lat": 38.9570405, "fusion_lon": 0.0, "rental_uris": {"ios": "https://dc.lft.to/lastmile_qr_scan", "android": "https://dc.lft.to/lastmile_qr_scan"}, "lon": -77.359704, "bike_id": "b9fdf5c34f4750891b2ba789c35f9ecf", "type": "electric_bike", "name": "b9fdf5c34f4750891b2ba789c35f9ecf"}, {"is_disabled": 0, "is_reserved": 0, "fusion_lat": 0.0, "lat": 39.084311166666666, "fusion_lon": 0.0, "rental_uris": {"ios": "https://dc.lft.to/lastmile_qr_scan", "android": "https://dc.lft.to/lastmile_qr_scan"}, "lon": -76.95137833333334, "bike_id": "c03d74e886b19930b766471332832dd6", "type": "electric_bike", "name": "c03d74e886b19930b766471332832dd6"}, {"is_disabled": 0, "is_reserved": 0, "fusion_lat": 0.0, "lat": 38.9209915, "fusion_lon": 0.0, "rental_uris": {"ios": "https://dc.lft.to/lastmile_qr_scan", "android": "https://dc.lft.to/lastmile_qr_scan"}, "lon": -77.0394625, "bike_id": "aae620fc664492ffd76b173b5fe2dcfa", "type": "electric_scooter", "name": "aae620fc664492ffd76b173b5fe2dcfa"}, {"is_disabled": 0, "is_reserved": 0, "fusion_lat": 0.0, "lat": 38.90039566666667, "fusion_lon": 0.0, "rental_uris": {"ios": "https://dc.lft.to/lastmile_qr_scan", "android": "https://dc.lft.to/lastmile_qr_scan"}, "lon": -77.00629566666667, "bike_id": "42adefe48764334c6f80d45d00dfa9b4", "type": "electric_scooter", "name": "42adefe48764334c6f80d45d00dfa9b4"}, {"is_disabled": 0, "is_reserved": 0, "fusion_lat": 0.0, "lat": 38.927227, "fusion_lon": 0.0, "rental_uris": {"ios": "https://dc.lft.to/lastmile_qr_scan", "android": "https://dc.lft.to/lastmile_qr_scan"}, "lon": -77.02311066666667, "bike_id": "01f90cf2d9aa1e707bf911b32a6d7222", "type": "electric_scooter", "name": "01f90cf2d9aa1e707bf911b32a6d7222"}, {"is_disabled": 0, "is_reserved": 0, "fusion_lat": 0.0, "lat": 38.93737316666667, "fusion_lon": 0.0, "rental_uris": {"ios": "https://dc.lft.to/lastmile_qr_scan", "android": "https://dc.lft.to/lastmile_qr_scan"}, "lon": -77.07361916666666, "bike_id": "23c34ac92c4dbceb8e05ba8b723e3472", "type": "electric_scooter", "name": "23c34ac92c4dbceb8e05ba8b723e3472"}, {"is_disabled": 0, "is_reserved": 0, "fusion_lat": 0.0, "lat": 38.896746666666665, "fusion_lon": 0.0, "rental_uris": {"ios": "https://dc.lft.to/lastmile_qr_scan", "android": "https://dc.lft.to/lastmile_qr_scan"}, "lon": -77.048891, "bike_id": "17c8fe7b06a159b0b0aabbfaaa9e3085", "type": "electric_scooter", "name": "17c8fe7b06a159b0b0aabbfaaa9e3085"}, {"is_disabled": 0, "is_reserved": 0, "fusion_lat": 0.0, "lat": 39.00645566666667, "fusion_lon": 0.0, "rental_uris": {"ios": "https://dc.lft.to/lastmile_qr_scan", "android": "https://dc.lft.to/lastmile_qr_scan"}, "lon": -76.90026183333333, "bike_id": "79fa184401865bcea29a8742490e366f", "type": "electric_bike", "name": "79fa184401865bcea29a8742490e366f"}, {"is_disabled": 0, "is_reserved": 0, "fusion_lat": 0.0, "lat": 38.90686616666667, "fusion_lon": 0.0, "rental_uris": {"ios": "https://dc.lft.to/lastmile_qr_scan", "android": "https://dc.lft.to/lastmile_qr_scan"}, "lon": -77.062899, "bike_id": "81756d7ea50bffc93fac1e1a1579b37a", "type": "electric_scooter", "name": "81756d7ea50bffc93fac1e1a1579b37a"}, {"is_disabled": 0, "is_reserved": 0, "fusion_lat": 0.0, "lat": 38.90651966666667, "fusion_lon": 0.0, "rental_uris": {"ios": "https://dc.lft.to/lastmile_qr_scan", "android": "https://dc.lft.to/lastmile_qr_scan"}, "lon": -77.04553283333334, "bike_id": "11038909cea66852c759f72882843ba4", "type": "electric_scooter", "name": "11038909cea66852c759f72882843ba4"}, {"is_disabled": 0, "is_reserved": 0, "fusion_lat": 0.0, "lat": 38.9014845, "fusion_lon": 0.0, "rental_uris": {"ios": "https://dc.lft.to/lastmile_qr_scan", "android": "https://dc.lft.to/lastmile_qr_scan"}, "lon": -76.929842, "bike_id": "f563110f64d521fbb177ab2d63d3c0b0", "type": "electric_scooter", "name": "f563110f64d521fbb177ab2d63d3c0b0"}, {"is_disabled": 0, "is_reserved": 0, "fusion_lat": 0.0, "lat": 38.8524365, "fusion_lon": 0.0, "rental_uris": {"ios": "https://dc.lft.to/lastmile_qr_scan", "android": "https://dc.lft.to/lastmile_qr_scan"}, "lon": -77.11411666666666, "bike_id": "587484f227e053b6173ee25b73687529", "type": "electric_bike", "name": "587484f227e053b6173ee25b73687529"}, {"is_disabled": 0, "is_reserved": 0, "fusion_lat": 0.0, "lat": 38.914130666666665, "fusion_lon": 0.0, "rental_uris": {"ios": "https://dc.lft.to/lastmile_qr_scan", "android": "https://dc.lft.to/lastmile_qr_scan"}, "lon": -77.02424183333333, "bike_id": "7d1030b3efc1673716d2c73dfd1ccf0b", "type": "electric_scooter", "name": "7d1030b3efc1673716d2c73dfd1ccf0b"}, {"is_disabled": 0, "is_reserved": 0, "fusion_lat": 0.0, "lat": 38.894957166666664, "fusion_lon": 0.0, "rental_uris": {"ios": "https://dc.lft.to/lastmile_qr_scan", "android": "https://dc.lft.to/lastmile_qr_scan"}, "lon": -77.02277, "bike_id": "98e435616a6ccb137c9a9b2b2dc9652b", "type": "electric_scooter", "name": "98e435616a6ccb137c9a9b2b2dc9652b"}, {"is_disabled": 0, "is_reserved": 0, "fusion_lat": 0.0, "lat": 38.910441666666664, "fusion_lon": 0.0, "rental_uris": {"ios": "https://dc.lft.to/lastmile_qr_scan", "android": "https://dc.lft.to/lastmile_qr_scan"}, "lon": -76.998108, "bike_id": "0e3ee1bab94f04bd9791c2a2a5fc9fb1", "type": "electric_scooter", "name": "0e3ee1bab94f04bd9791c2a2a5fc9fb1"}, {"is_disabled": 0, "is_reserved": 0, "fusion_lat": 0.0, "lat": 38.92314916666667, "fusion_lon": 0.0, "rental_uris": {"ios": "https://dc.lft.to/lastmile_qr_scan", "android": "https://dc.lft.to/lastmile_qr_scan"}, "lon": -77.02902516666667, "bike_id": "e103f8189d9b8fc2d72d5435572af015", "type": "electric_scooter", "name": "e103f8189d9b8fc2d72d5435572af015"}, {"is_disabled": 0, "is_reserved": 0, "fusion_lat": 0.0, "lat": 38.952139, "fusion_lon": 0.0, "rental_uris": {"ios": "https://dc.lft.to/lastmile_qr_scan", "android": "https://dc.lft.to/lastmile_qr_scan"}, "lon": -77.08866116666667, "bike_id": "dbb4ed6b45b95992dd9803ad984b4fb5", "type": "electric_scooter", "name": "dbb4ed6b45b95992dd9803ad984b4fb5"}, {"is_disabled": 0, "is_reserved": 0, "fusion_lat": 0.0, "lat": 38.9257365, "fusion_lon": 0.0, "rental_uris": {"ios": "https://dc.lft.to/lastmile_qr_scan", "android": "https://dc.lft.to/lastmile_qr_scan"}, "lon": -77.0313795, "bike_id": "3601e9a46e8778634b86af7ce47b3091", "type": "electric_scooter", "name": "3601e9a46e8778634b86af7ce47b3091"}, {"is_disabled": 0, "is_reserved": 0, "fusion_lat": 0.0, "lat": 38.9432865, "fusion_lon": 0.0, "rental_uris": {"ios": "https://dc.lft.to/lastmile_qr_scan", "android": "https://dc.lft.to/lastmile_qr_scan"}, "lon": -77.01555533333334, "bike_id": "259e363d973012037c94556dcd59618d", "type": "electric_scooter", "name": "259e363d973012037c94556dcd59618d"}, {"is_disabled": 0, "is_reserved": 0, "fusion_lat": 0.0, "lat": 38.89229316666667, "fusion_lon": 0.0, "rental_uris": {"ios": "https://dc.lft.to/lastmile_qr_scan", "android": "https://dc.lft.to/lastmile_qr_scan"}, "lon": -77.03237, "bike_id": "2c0eff25db5edb814098bb7e73f2fc3b", "type": "electric_scooter", "name": "2c0eff25db5edb814098bb7e73f2fc3b"}, {"is_disabled": 0, "is_reserved": 0, "fusion_lat": 0.0, "lat": 38.842733333333335, "fusion_lon": 0.0, "rental_uris": {"ios": "https://dc.lft.to/lastmile_qr_scan", "android": "https://dc.lft.to/lastmile_qr_scan"}, "lon": -76.988432, "bike_id": "cd5eab1ad4cdf9fbcfce947c35d7c023", "type": "electric_scooter", "name": "cd5eab1ad4cdf9fbcfce947c35d7c023"}, {"is_disabled": 0, "is_reserved": 0, "fusion_lat": 0.0, "lat": 38.882959166666666, "fusion_lon": 0.0, "rental_uris": {"ios": "https://dc.lft.to/lastmile_qr_scan", "android": "https://dc.lft.to/lastmile_qr_scan"}, "lon": -76.93488466666666, "bike_id": "d8330237fd17e55d73a193d862e335b8", "type": "electric_scooter", "name": "d8330237fd17e55d73a193d862e335b8"}, {"is_disabled": 0, "is_reserved": 0, "fusion_lat": 0.0, "lat": 38.91997883333333, "fusion_lon": 0.0, "rental_uris": {"ios": "https://dc.lft.to/lastmile_qr_scan", "android": "https://dc.lft.to/lastmile_qr_scan"}, "lon": -77.03226866666667, "bike_id": "0440110948ff5d8d81cd2ef2d9a4b134", "type": "electric_scooter", "name": "0440110948ff5d8d81cd2ef2d9a4b134"}, {"is_disabled": 0, "is_reserved": 0, "fusion_lat": 0.0, "lat": 38.907288333333334, "fusion_lon": 0.0, "rental_uris": {"ios": "https://dc.lft.to/lastmile_qr_scan", "android": "https://dc.lft.to/lastmile_qr_scan"}, "lon": -77.02320433333334, "bike_id": "c9bc4f0f7a19ce1344e8693e75aadc5f", "type": "electric_scooter", "name": "c9bc4f0f7a19ce1344e8693e75aadc5f"}, {"is_disabled": 0, "is_reserved": 0, "fusion_lat": 0.0, "lat": 38.885167833333334, "fusion_lon": 0.0, "rental_uris": {"ios": "https://dc.lft.to/lastmile_qr_scan", "android": "https://dc.lft.to/lastmile_qr_scan"}, "lon": -77.02822283333333, "bike_id": "1bfa14af6350f84649b31070b5732779", "type": "electric_scooter", "name": "1bfa14af6350f84649b31070b5732779"}, {"is_disabled": 0, "is_reserved": 0, "fusion_lat": 0.0, "lat": 38.91608216666667, "fusion_lon": 0.0, "rental_uris": {"ios": "https://dc.lft.to/lastmile_qr_scan", "android": "https://dc.lft.to/lastmile_qr_scan"}, "lon": -77.03857716666667, "bike_id": "f8db069ec22dc959cbb096aaada8c23e", "type": "electric_scooter", "name": "f8db069ec22dc959cbb096aaada8c23e"}, {"is_disabled": 0, "is_reserved": 0, "fusion_lat": 0.0, "lat": 38.93026783333333, "fusion_lon": 0.0, "rental_uris": {"ios": "https://dc.lft.to/lastmile_qr_scan", "android": "https://dc.lft.to/lastmile_qr_scan"}, "lon": -77.06073616666667, "bike_id": "907e347297005ea88bdcd005e56d0d87", "type": "electric_scooter", "name": "907e347297005ea88bdcd005e56d0d87"}, {"is_disabled": 0, "is_reserved": 0, "fusion_lat": 0.0, "lat": 38.8757955, "fusion_lon": 0.0, "rental_uris": {"ios": "https://dc.lft.to/lastmile_qr_scan", "android": "https://dc.lft.to/lastmile_qr_scan"}, "lon": -77.234098, "bike_id": "2eeccfaf1d04faefb99f808a92b61dab", "type": "electric_bike", "name": "2eeccfaf1d04faefb99f808a92b61dab"}, {"is_disabled": 0, "is_reserved": 0, "fusion_lat": 0.0, "lat": 38.91440766666667, "fusion_lon": 0.0, "rental_uris": {"ios": "https://dc.lft.to/lastmile_qr_scan", "android": "https://dc.lft.to/lastmile_qr_scan"}, "lon": -77.02292316666667, "bike_id": "c82395b37a79da8e2374575a61065aaf", "type": "electric_scooter", "name": "c82395b37a79da8e2374575a61065aaf"}, {"is_disabled": 0, "is_reserved": 0, "fusion_lat": 0.0, "lat": 38.88499066666667, "fusion_lon": 0.0, "rental_uris": {"ios": "https://dc.lft.to/lastmile_qr_scan", "android": "https://dc.lft.to/lastmile_qr_scan"}, "lon": -77.02197833333334, "bike_id": "8ca850e0796177fb390457a3a85a00da", "type": "electric_scooter", "name": "8ca850e0796177fb390457a3a85a00da"}, {"is_disabled": 0, "is_reserved": 0, "fusion_lat": 0.0, "lat": 38.880372666666666, "fusion_lon": 0.0, "rental_uris": {"ios": "https://dc.lft.to/lastmile_qr_scan", "android": "https://dc.lft.to/lastmile_qr_scan"}, "lon": -76.92724816666667, "bike_id": "50efedb5a49b05f7c750c4371c19588d", "type": "electric_scooter", "name": "50efedb5a49b05f7c750c4371c19588d"}, {"is_disabled": 0, "is_reserved": 0, "fusion_lat": 0.0, "lat": 38.87631533333333, "fusion_lon": 0.0, "rental_uris": {"ios": "https://dc.lft.to/lastmile_qr_scan", "android": "https://dc.lft.to/lastmile_qr_scan"}, "lon": -77.0095525, "bike_id": "71f74f2532013eb7e7f148a3995691dd", "type": "electric_scooter", "name": "71f74f2532013eb7e7f148a3995691dd"}, {"is_disabled": 0, "is_reserved": 0, "fusion_lat": 0.0, "lat": 38.87069116666667, "fusion_lon": 0.0, "rental_uris": {"ios": "https://dc.lft.to/lastmile_qr_scan", "android": "https://dc.lft.to/lastmile_qr_scan"}, "lon": -76.98127366666667, "bike_id": "8e1d8ea322159be60e579f161905c8a8", "type": "electric_scooter", "name": "8e1d8ea322159be60e579f161905c8a8"}, {"is_disabled": 0, "is_reserved": 0, "fusion_lat": 0.0, "lat": 39.01063383333333, "fusion_lon": 0.0, "rental_uris": {"ios": "https://dc.lft.to/lastmile_qr_scan", "android": "https://dc.lft.to/lastmile_qr_scan"}, "lon": -76.9224275, "bike_id": "e52b95eeb8d968acee702ce5ed1e9ed9", "type": "electric_bike", "name": "e52b95eeb8d968acee702ce5ed1e9ed9"}, {"is_disabled": 0, "is_reserved": 0, "fusion_lat": 0.0, "lat": 38.923145, "fusion_lon": 0.0, "rental_uris": {"ios": "https://dc.lft.to/lastmile_qr_scan", "android": "https://dc.lft.to/lastmile_qr_scan"}, "lon": -77.03914033333334, "bike_id": "6952a10ebf376b06756575da2b73a481", "type": "electric_scooter", "name": "6952a10ebf376b06756575da2b73a481"}, {"is_disabled": 0, "is_reserved": 0, "fusion_lat": 0.0, "lat": 38.917882666666664, "fusion_lon": 0.0, "rental_uris": {"ios": "https://dc.lft.to/lastmile_qr_scan", "android": "https://dc.lft.to/lastmile_qr_scan"}, "lon": -77.03209933333333, "bike_id": "0ba563782630e6cc495838c0bab1ca22", "type": "electric_scooter", "name": "0ba563782630e6cc495838c0bab1ca22"}, {"is_disabled": 0, "is_reserved": 0, "fusion_lat": 0.0, "lat": 38.882747, "fusion_lon": 0.0, "rental_uris": {"ios": "https://dc.lft.to/lastmile_qr_scan", "android": "https://dc.lft.to/lastmile_qr_scan"}, "lon": -77.00651933333333, "bike_id": "8cbfb06f739a0732875c955475cf5e06", "type": "electric_scooter", "name": "8cbfb06f739a0732875c955475cf5e06"}, {"is_disabled": 0, "is_reserved": 0, "fusion_lat": 0.0, "lat": 38.981443666666664, "fusion_lon": 0.0, "rental_uris": {"ios": "https://dc.lft.to/lastmile_qr_scan", "android": "https://dc.lft.to/lastmile_qr_scan"}, "lon": -77.007745, "bike_id": "efac327a8f24757f4303099f5f825d01", "type": "electric_bike", "name": "efac327a8f24757f4303099f5f825d01"}, {"is_disabled": 0, "is_reserved": 0, "fusion_lat": 0.0, "lat": 38.901491666666665, "fusion_lon": 0.0, "rental_uris": {"ios": "https://dc.lft.to/lastmile_qr_scan", "android": "https://dc.lft.to/lastmile_qr_scan"}, "lon": -76.98560833333333, "bike_id": "d34ee8bafca86359b3f86ca677a8f665", "type": "electric_scooter", "name": "d34ee8bafca86359b3f86ca677a8f665"}, {"is_disabled": 0, "is_reserved": 0, "fusion_lat": 0.0, "lat": 38.87844333333334, "fusion_lon": 0.0, "rental_uris": {"ios": "https://dc.lft.to/lastmile_qr_scan", "android": "https://dc.lft.to/lastmile_qr_scan"}, "lon": -76.931305, "bike_id": "d36a93ffcff12519f5dea35c64e02d84", "type": "electric_scooter", "name": "d36a93ffcff12519f5dea35c64e02d84"}, {"is_disabled": 0, "is_reserved": 0, "fusion_lat": 0.0, "lat": 38.9126255, "fusion_lon": 0.0, "rental_uris": {"ios": "https://dc.lft.to/lastmile_qr_scan", "android": "https://dc.lft.to/lastmile_qr_scan"}, "lon": -77.005106, "bike_id": "d6fd28f4abb3d4c5ec6c07485dc8d37e", "type": "electric_scooter", "name": "d6fd28f4abb3d4c5ec6c07485dc8d37e"}, {"is_disabled": 0, "is_reserved": 0, "fusion_lat": 0.0, "lat": 38.8830715, "fusion_lon": 0.0, "rental_uris": {"ios": "https://dc.lft.to/lastmile_qr_scan", "android": "https://dc.lft.to/lastmile_qr_scan"}, "lon": -77.02563716666667, "bike_id": "820e8b075f965c081cef4c2ca4a7b61a", "type": "electric_scooter", "name": "820e8b075f965c081cef4c2ca4a7b61a"}, {"is_disabled": 0, "is_reserved": 0, "fusion_lat": 0.0, "lat": 38.911054666666665, "fusion_lon": 0.0, "rental_uris": {"ios": "https://dc.lft.to/lastmile_qr_scan", "android": "https://dc.lft.to/lastmile_qr_scan"}, "lon": -77.0403635, "bike_id": "fe80ad377e4d0a88876c69ee14dfde6f", "type": "electric_scooter", "name": "fe80ad377e4d0a88876c69ee14dfde6f"}, {"is_disabled": 0, "is_reserved": 0, "fusion_lat": 0.0, "lat": 38.933824666666666, "fusion_lon": 0.0, "rental_uris": {"ios": "https://dc.lft.to/lastmile_qr_scan", "android": "https://dc.lft.to/lastmile_qr_scan"}, "lon": -77.02726683333333, "bike_id": "66e8d1b0cf0eaef64f288e4ecb9f6d02", "type": "electric_scooter", "name": "66e8d1b0cf0eaef64f288e4ecb9f6d02"}, {"is_disabled": 0, "is_reserved": 0, "fusion_lat": 0.0, "lat": 38.906121166666665, "fusion_lon": 0.0, "rental_uris": {"ios": "https://dc.lft.to/lastmile_qr_scan", "android": "https://dc.lft.to/lastmile_qr_scan"}, "lon": -77.056555, "bike_id": "23d11f4ee83e8f8e11a5bb0771c3e505", "type": "electric_scooter", "name": "23d11f4ee83e8f8e11a5bb0771c3e505"}, {"is_disabled": 0, "is_reserved": 0, "fusion_lat": 0.0, "lat": 38.906113, "fusion_lon": 0.0, "rental_uris": {"ios": "https://dc.lft.to/lastmile_qr_scan", "android": "https://dc.lft.to/lastmile_qr_scan"}, "lon": -77.1286835, "bike_id": "410624a3143ce741e024b7b0bbedaf24", "type": "electric_bike", "name": "410624a3143ce741e024b7b0bbedaf24"}, {"is_disabled": 0, "is_reserved": 0, "fusion_lat": 0.0, "lat": 38.940810666666664, "fusion_lon": 0.0, "rental_uris": {"ios": "https://dc.lft.to/lastmile_qr_scan", "android": "https://dc.lft.to/lastmile_qr_scan"}, "lon": -77.00155283333334, "bike_id": "3eae55d48a147abad7ade2e666e57f2d", "type": "electric_bike", "name": "3eae55d48a147abad7ade2e666e57f2d"}, {"is_disabled": 0, "is_reserved": 0, "fusion_lat": 0.0, "lat": 38.934419166666665, "fusion_lon": 0.0, "rental_uris": {"ios": "https://dc.lft.to/lastmile_qr_scan", "android": "https://dc.lft.to/lastmile_qr_scan"}, "lon": -77.029846, "bike_id": "f0a4119322ffc1d91aa25d271d103d55", "type": "electric_scooter", "name": "f0a4119322ffc1d91aa25d271d103d55"}, {"is_disabled": 0, "is_reserved": 0, "fusion_lat": 0.0, "lat": 38.900386, "fusion_lon": 0.0, "rental_uris": {"ios": "https://dc.lft.to/lastmile_qr_scan", "android": "https://dc.lft.to/lastmile_qr_scan"}, "lon": -77.00377333333333, "bike_id": "b1cc3601bd4b4ef43f8531a3572bbf92", "type": "electric_scooter", "name": "b1cc3601bd4b4ef43f8531a3572bbf92"}, {"is_disabled": 0, "is_reserved": 0, "fusion_lat": 0.0, "lat": 38.90264066666667, "fusion_lon": 0.0, "rental_uris": {"ios": "https://dc.lft.to/lastmile_qr_scan", "android": "https://dc.lft.to/lastmile_qr_scan"}, "lon": -77.01158283333334, "bike_id": "f8ca4acb031c1a6a89354c61c9a626ab", "type": "electric_scooter", "name": "f8ca4acb031c1a6a89354c61c9a626ab"}, {"is_disabled": 0, "is_reserved": 0, "fusion_lat": 0.0, "lat": 38.933623, "fusion_lon": 0.0, "rental_uris": {"ios": "https://dc.lft.to/lastmile_qr_scan", "android": "https://dc.lft.to/lastmile_qr_scan"}, "lon": -77.02647133333333, "bike_id": "513a41023a6ba29f40f524bd78e69bcf", "type": "electric_scooter", "name": "513a41023a6ba29f40f524bd78e69bcf"}, {"is_disabled": 0, "is_reserved": 0, "fusion_lat": 0.0, "lat": 38.919718, "fusion_lon": 0.0, "rental_uris": {"ios": "https://dc.lft.to/lastmile_qr_scan", "android": "https://dc.lft.to/lastmile_qr_scan"}, "lon": -77.002108, "bike_id": "028a652590f3a4ffe862e6f1086022b4", "type": "electric_scooter", "name": "028a652590f3a4ffe862e6f1086022b4"}, {"is_disabled": 0, "is_reserved": 0, "fusion_lat": 0.0, "lat": 38.92109416666667, "fusion_lon": 0.0, "rental_uris": {"ios": "https://dc.lft.to/lastmile_qr_scan", "android": "https://dc.lft.to/lastmile_qr_scan"}, "lon": -77.04694133333334, "bike_id": "6b618985e1c0c3fea80a359034557811", "type": "electric_scooter", "name": "6b618985e1c0c3fea80a359034557811"}, {"is_disabled": 0, "is_reserved": 0, "fusion_lat": 0.0, "lat": 38.91704816666667, "fusion_lon": 0.0, "rental_uris": {"ios": "https://dc.lft.to/lastmile_qr_scan", "android": "https://dc.lft.to/lastmile_qr_scan"}, "lon": -77.02869733333333, "bike_id": "1acc939a6c52f010d71e0a9a8d984a18", "type": "electric_scooter", "name": "1acc939a6c52f010d71e0a9a8d984a18"}, {"is_disabled": 0, "is_reserved": 0, "fusion_lat": 0.0, "lat": 38.928923833333336, "fusion_lon": 0.0, "rental_uris": {"ios": "https://dc.lft.to/lastmile_qr_scan", "android": "https://dc.lft.to/lastmile_qr_scan"}, "lon": -77.01937633333333, "bike_id": "1f30fa06d343fd54008a0eb481498a94", "type": "electric_scooter", "name": "1f30fa06d343fd54008a0eb481498a94"}, {"is_disabled": 0, "is_reserved": 0, "fusion_lat": 0.0, "lat": 38.9535745, "fusion_lon": 0.0, "rental_uris": {"ios": "https://dc.lft.to/lastmile_qr_scan", "android": "https://dc.lft.to/lastmile_qr_scan"}, "lon": -76.98089566666667, "bike_id": "c354dcf011ace69092894f45b6d56574", "type": "electric_bike", "name": "c354dcf011ace69092894f45b6d56574"}, {"is_disabled": 0, "is_reserved": 0, "fusion_lat": 0.0, "lat": 38.9285295, "fusion_lon": 0.0, "rental_uris": {"ios": "https://dc.lft.to/lastmile_qr_scan", "android": "https://dc.lft.to/lastmile_qr_scan"}, "lon": -77.037369, "bike_id": "8dd637ac0248b3743018c49ef5f3dc48", "type": "electric_scooter", "name": "8dd637ac0248b3743018c49ef5f3dc48"}, {"is_disabled": 0, "is_reserved": 0, "fusion_lat": 0.0, "lat": 38.9365675, "fusion_lon": 0.0, "rental_uris": {"ios": "https://dc.lft.to/lastmile_qr_scan", "android": "https://dc.lft.to/lastmile_qr_scan"}, "lon": -77.06607533333333, "bike_id": "b1f572bf33a4bff2a655259163174b15", "type": "electric_scooter", "name": "b1f572bf33a4bff2a655259163174b15"}, {"is_disabled": 0, "is_reserved": 0, "fusion_lat": 0.0, "lat": 38.894966, "fusion_lon": 0.0, "rental_uris": {"ios": "https://dc.lft.to/lastmile_qr_scan", "android": "https://dc.lft.to/lastmile_qr_scan"}, "lon": -77.0229365, "bike_id": "9a9bbfcd7c66ca5f0a4ab040f61fb63c", "type": "electric_scooter", "name": "9a9bbfcd7c66ca5f0a4ab040f61fb63c"}, {"is_disabled": 0, "is_reserved": 0, "fusion_lat": 0.0, "lat": 38.87697266666667, "fusion_lon": 0.0, "rental_uris": {"ios": "https://dc.lft.to/lastmile_qr_scan", "android": "https://dc.lft.to/lastmile_qr_scan"}, "lon": -76.99625383333333, "bike_id": "f2e4174db35f2a4b7a1d53369575698f", "type": "electric_scooter", "name": "f2e4174db35f2a4b7a1d53369575698f"}, {"is_disabled": 0, "is_reserved": 0, "fusion_lat": 0.0, "lat": 38.84468416666667, "fusion_lon": 0.0, "rental_uris": {"ios": "https://dc.lft.to/lastmile_qr_scan", "android": "https://dc.lft.to/lastmile_qr_scan"}, "lon": -76.995955, "bike_id": "e39b4306fed91da73ef73ff2ba23cac7", "type": "electric_bike", "name": "e39b4306fed91da73ef73ff2ba23cac7"}, {"is_disabled": 0, "is_reserved": 0, "fusion_lat": 0.0, "lat": 38.9224175, "fusion_lon": 0.0, "rental_uris": {"ios": "https://dc.lft.to/lastmile_qr_scan", "android": "https://dc.lft.to/lastmile_qr_scan"}, "lon": -77.0366475, "bike_id": "f32b1cfe57b525e2343286ebf0f28623", "type": "electric_scooter", "name": "f32b1cfe57b525e2343286ebf0f28623"}, {"is_disabled": 0, "is_reserved": 0, "fusion_lat": 0.0, "lat": 38.938618, "fusion_lon": 0.0, "rental_uris": {"ios": "https://dc.lft.to/lastmile_qr_scan", "android": "https://dc.lft.to/lastmile_qr_scan"}, "lon": -77.03044616666666, "bike_id": "7e83cbf9103f3f2d395faff5c0e212fc", "type": "electric_scooter", "name": "7e83cbf9103f3f2d395faff5c0e212fc"}, {"is_disabled": 0, "is_reserved": 0, "fusion_lat": 0.0, "lat": 38.94724166666666, "fusion_lon": 0.0, "rental_uris": {"ios": "https://dc.lft.to/lastmile_qr_scan", "android": "https://dc.lft.to/lastmile_qr_scan"}, "lon": -77.02625266666666, "bike_id": "37bb80314998d9d921bb23335dc67abd", "type": "electric_scooter", "name": "37bb80314998d9d921bb23335dc67abd"}, {"is_disabled": 0, "is_reserved": 0, "fusion_lat": 0.0, "lat": 38.874441166666664, "fusion_lon": 0.0, "rental_uris": {"ios": "https://dc.lft.to/lastmile_qr_scan", "android": "https://dc.lft.to/lastmile_qr_scan"}, "lon": -77.0027565, "bike_id": "99a5f06f5d9215377b1a5ea5f93c4e77", "type": "electric_scooter", "name": "99a5f06f5d9215377b1a5ea5f93c4e77"}, {"is_disabled": 0, "is_reserved": 0, "fusion_lat": 0.0, "lat": 38.931140166666665, "fusion_lon": 0.0, "rental_uris": {"ios": "https://dc.lft.to/lastmile_qr_scan", "android": "https://dc.lft.to/lastmile_qr_scan"}, "lon": -77.03029783333334, "bike_id": "3ac0102bd80bd4e6faeca8c9561a2e26", "type": "electric_scooter", "name": "3ac0102bd80bd4e6faeca8c9561a2e26"}, {"is_disabled": 0, "is_reserved": 0, "fusion_lat": 0.0, "lat": 38.892289, "fusion_lon": 0.0, "rental_uris": {"ios": "https://dc.lft.to/lastmile_qr_scan", "android": "https://dc.lft.to/lastmile_qr_scan"}, "lon": -77.05005933333334, "bike_id": "4356370e827e41cce888b34ad1d6d7f1", "type": "electric_scooter", "name": "4356370e827e41cce888b34ad1d6d7f1"}, {"is_disabled": 0, "is_reserved": 0, "fusion_lat": 0.0, "lat": 38.925770666666665, "fusion_lon": 0.0, "rental_uris": {"ios": "https://dc.lft.to/lastmile_qr_scan", "android": "https://dc.lft.to/lastmile_qr_scan"}, "lon": -76.99492216666667, "bike_id": "5f8c2f0659d5db7c5d83f83ede7f3f81", "type": "electric_scooter", "name": "5f8c2f0659d5db7c5d83f83ede7f3f81"}, {"is_disabled": 0, "is_reserved": 0, "fusion_lat": 0.0, "lat": 38.916772333333334, "fusion_lon": 0.0, "rental_uris": {"ios": "https://dc.lft.to/lastmile_qr_scan", "android": "https://dc.lft.to/lastmile_qr_scan"}, "lon": -77.09576366666667, "bike_id": "fd56e20f7f0f6484c7c91c03f2311ee7", "type": "electric_scooter", "name": "fd56e20f7f0f6484c7c91c03f2311ee7"}, {"is_disabled": 0, "is_reserved": 0, "fusion_lat": 0.0, "lat": 38.920357333333335, "fusion_lon": 0.0, "rental_uris": {"ios": "https://dc.lft.to/lastmile_qr_scan", "android": "https://dc.lft.to/lastmile_qr_scan"}, "lon": -76.97957866666667, "bike_id": "d8e266b3aa95c7b705257788416535ea", "type": "electric_bike", "name": "d8e266b3aa95c7b705257788416535ea"}, {"is_disabled": 0, "is_reserved": 0, "fusion_lat": 0.0, "lat": 38.939775, "fusion_lon": 0.0, "rental_uris": {"ios": "https://dc.lft.to/lastmile_qr_scan", "android": "https://dc.lft.to/lastmile_qr_scan"}, "lon": -77.03434233333333, "bike_id": "9607abcce7dbc181e879c054ab56e826", "type": "electric_scooter", "name": "9607abcce7dbc181e879c054ab56e826"}, {"is_disabled": 0, "is_reserved": 0, "fusion_lat": 0.0, "lat": 38.926815500000004, "fusion_lon": 0.0, "rental_uris": {"ios": "https://dc.lft.to/lastmile_qr_scan", "android": "https://dc.lft.to/lastmile_qr_scan"}, "lon": -77.03798366666666, "bike_id": "e81282f4701a3894fd709d169d81b486", "type": "electric_scooter", "name": "e81282f4701a3894fd709d169d81b486"}, {"is_disabled": 0, "is_reserved": 0, "fusion_lat": 0.0, "lat": 39.003816, "fusion_lon": 0.0, "rental_uris": {"ios": "https://dc.lft.to/lastmile_qr_scan", "android": "https://dc.lft.to/lastmile_qr_scan"}, "lon": -77.012896, "bike_id": "38f76f2ae55db6e9d38fb90666255327", "type": "electric_bike", "name": "38f76f2ae55db6e9d38fb90666255327"}, {"is_disabled": 0, "is_reserved": 0, "fusion_lat": 0.0, "lat": 38.9133145, "fusion_lon": 0.0, "rental_uris": {"ios": "https://dc.lft.to/lastmile_qr_scan", "android": "https://dc.lft.to/lastmile_qr_scan"}, "lon": -77.04332633333334, "bike_id": "5c8e61a2649a82daa445730b8207a8e5", "type": "electric_scooter", "name": "5c8e61a2649a82daa445730b8207a8e5"}, {"is_disabled": 0, "is_reserved": 0, "fusion_lat": 0.0, "lat": 38.91939416666666, "fusion_lon": 0.0, "rental_uris": {"ios": "https://dc.lft.to/lastmile_qr_scan", "android": "https://dc.lft.to/lastmile_qr_scan"}, "lon": -77.0448955, "bike_id": "7e4968c38e566bfdd57ea4a512843c51", "type": "electric_scooter", "name": "7e4968c38e566bfdd57ea4a512843c51"}, {"is_disabled": 0, "is_reserved": 0, "fusion_lat": 0.0, "lat": 38.91335016666667, "fusion_lon": 0.0, "rental_uris": {"ios": "https://dc.lft.to/lastmile_qr_scan", "android": "https://dc.lft.to/lastmile_qr_scan"}, "lon": -77.01656, "bike_id": "acc5145adfa705c80fe1ebb55fac604b", "type": "electric_scooter", "name": "acc5145adfa705c80fe1ebb55fac604b"}, {"is_disabled": 0, "is_reserved": 0, "fusion_lat": 0.0, "lat": 38.9163, "fusion_lon": 0.0, "rental_uris": {"ios": "https://dc.lft.to/lastmile_qr_scan", "android": "https://dc.lft.to/lastmile_qr_scan"}, "lon": -77.00854383333333, "bike_id": "8bb529185bdf11b359c6e2b1cb0514e9", "type": "electric_scooter", "name": "8bb529185bdf11b359c6e2b1cb0514e9"}, {"is_disabled": 0, "is_reserved": 0, "fusion_lat": 0.0, "lat": 38.906508333333335, "fusion_lon": 0.0, "rental_uris": {"ios": "https://dc.lft.to/lastmile_qr_scan", "android": "https://dc.lft.to/lastmile_qr_scan"}, "lon": -77.01128216666666, "bike_id": "ba09666c8ede22edef1b69420a8f0489", "type": "electric_scooter", "name": "ba09666c8ede22edef1b69420a8f0489"}, {"is_disabled": 0, "is_reserved": 0, "fusion_lat": 0.0, "lat": 38.936573, "fusion_lon": 0.0, "rental_uris": {"ios": "https://dc.lft.to/lastmile_qr_scan", "android": "https://dc.lft.to/lastmile_qr_scan"}, "lon": -77.06606566666666, "bike_id": "12ac1a1dbc5d5f0e403046273ad8efe6", "type": "electric_scooter", "name": "12ac1a1dbc5d5f0e403046273ad8efe6"}, {"is_disabled": 0, "is_reserved": 0, "fusion_lat": 0.0, "lat": 38.9254965, "fusion_lon": 0.0, "rental_uris": {"ios": "https://dc.lft.to/lastmile_qr_scan", "android": "https://dc.lft.to/lastmile_qr_scan"}, "lon": -77.00322716666666, "bike_id": "13e99a4088cfb255242f14d78ed2a4d0", "type": "electric_scooter", "name": "13e99a4088cfb255242f14d78ed2a4d0"}, {"is_disabled": 0, "is_reserved": 0, "fusion_lat": 0.0, "lat": 38.93062783333333, "fusion_lon": 0.0, "rental_uris": {"ios": "https://dc.lft.to/lastmile_qr_scan", "android": "https://dc.lft.to/lastmile_qr_scan"}, "lon": -77.04030266666666, "bike_id": "e0965597d0ea77c6aead3a1340489636", "type": "electric_scooter", "name": "e0965597d0ea77c6aead3a1340489636"}, {"is_disabled": 0, "is_reserved": 0, "fusion_lat": 0.0, "lat": 38.89772416666667, "fusion_lon": 0.0, "rental_uris": {"ios": "https://dc.lft.to/lastmile_qr_scan", "android": "https://dc.lft.to/lastmile_qr_scan"}, "lon": -77.02700616666667, "bike_id": "de6136c7d8d55b6d28515aacd5c4a8d6", "type": "electric_scooter", "name": "de6136c7d8d55b6d28515aacd5c4a8d6"}, {"is_disabled": 0, "is_reserved": 0, "fusion_lat": 0.0, "lat": 38.8778065, "fusion_lon": 0.0, "rental_uris": {"ios": "https://dc.lft.to/lastmile_qr_scan", "android": "https://dc.lft.to/lastmile_qr_scan"}, "lon": -77.0012665, "bike_id": "3ec56e671d6ab24c41aa9b0e2e37ecbd", "type": "electric_scooter", "name": "3ec56e671d6ab24c41aa9b0e2e37ecbd"}, {"is_disabled": 0, "is_reserved": 0, "fusion_lat": 0.0, "lat": 38.931195333333335, "fusion_lon": 0.0, "rental_uris": {"ios": "https://dc.lft.to/lastmile_qr_scan", "android": "https://dc.lft.to/lastmile_qr_scan"}, "lon": -77.020712, "bike_id": "bb492169245ffa52ab7d69331c3640a0", "type": "electric_scooter", "name": "bb492169245ffa52ab7d69331c3640a0"}, {"is_disabled": 0, "is_reserved": 0, "fusion_lat": 0.0, "lat": 38.9284715, "fusion_lon": 0.0, "rental_uris": {"ios": "https://dc.lft.to/lastmile_qr_scan", "android": "https://dc.lft.to/lastmile_qr_scan"}, "lon": -77.035932, "bike_id": "e0bb36fa700c63603989472c8b3d60d7", "type": "electric_scooter", "name": "e0bb36fa700c63603989472c8b3d60d7"}, {"is_disabled": 0, "is_reserved": 0, "fusion_lat": 0.0, "lat": 38.941361666666666, "fusion_lon": 0.0, "rental_uris": {"ios": "https://dc.lft.to/lastmile_qr_scan", "android": "https://dc.lft.to/lastmile_qr_scan"}, "lon": -77.02319816666666, "bike_id": "73d799b378a87234cce11cb106688ae2", "type": "electric_scooter", "name": "73d799b378a87234cce11cb106688ae2"}, {"is_disabled": 0, "is_reserved": 0, "fusion_lat": 0.0, "lat": 38.922322666666666, "fusion_lon": 0.0, "rental_uris": {"ios": "https://dc.lft.to/lastmile_qr_scan", "android": "https://dc.lft.to/lastmile_qr_scan"}, "lon": -76.97533683333333, "bike_id": "06c9139e9fe071b901a9ce2db96e7f03", "type": "electric_scooter", "name": "06c9139e9fe071b901a9ce2db96e7f03"}, {"is_disabled": 0, "is_reserved": 0, "fusion_lat": 0.0, "lat": 38.924867666666664, "fusion_lon": 0.0, "rental_uris": {"ios": "https://dc.lft.to/lastmile_qr_scan", "android": "https://dc.lft.to/lastmile_qr_scan"}, "lon": -77.02661633333334, "bike_id": "16d09f6d9476f2c7b725898939619b2e", "type": "electric_scooter", "name": "16d09f6d9476f2c7b725898939619b2e"}, {"is_disabled": 0, "is_reserved": 0, "fusion_lat": 0.0, "lat": 38.922107833333335, "fusion_lon": 0.0, "rental_uris": {"ios": "https://dc.lft.to/lastmile_qr_scan", "android": "https://dc.lft.to/lastmile_qr_scan"}, "lon": -77.037763, "bike_id": "940bb08cd55c7b72ccd258565ba03d8e", "type": "electric_scooter", "name": "940bb08cd55c7b72ccd258565ba03d8e"}, {"is_disabled": 0, "is_reserved": 0, "fusion_lat": 0.0, "lat": 38.92815916666667, "fusion_lon": 0.0, "rental_uris": {"ios": "https://dc.lft.to/lastmile_qr_scan", "android": "https://dc.lft.to/lastmile_qr_scan"}, "lon": -77.043612, "bike_id": "140cbfb76801fc601763a994c01fa990", "type": "electric_scooter", "name": "140cbfb76801fc601763a994c01fa990"}, {"is_disabled": 0, "is_reserved": 0, "fusion_lat": 0.0, "lat": 38.9352985, "fusion_lon": 0.0, "rental_uris": {"ios": "https://dc.lft.to/lastmile_qr_scan", "android": "https://dc.lft.to/lastmile_qr_scan"}, "lon": -77.02349733333334, "bike_id": "247f1850ed281eed4295bb6ef658132b", "type": "electric_scooter", "name": "247f1850ed281eed4295bb6ef658132b"}, {"is_disabled": 0, "is_reserved": 0, "fusion_lat": 0.0, "lat": 38.90077616666667, "fusion_lon": 0.0, "rental_uris": {"ios": "https://dc.lft.to/lastmile_qr_scan", "android": "https://dc.lft.to/lastmile_qr_scan"}, "lon": -77.01872533333334, "bike_id": "cac6320d1c854f7651da2d5d63fdf1c6", "type": "electric_scooter", "name": "cac6320d1c854f7651da2d5d63fdf1c6"}, {"is_disabled": 0, "is_reserved": 0, "fusion_lat": 0.0, "lat": 38.96531383333333, "fusion_lon": 0.0, "rental_uris": {"ios": "https://dc.lft.to/lastmile_qr_scan", "android": "https://dc.lft.to/lastmile_qr_scan"}, "lon": -77.0341565, "bike_id": "9e715860c88b3a77cceb30ac21977135", "type": "electric_bike", "name": "9e715860c88b3a77cceb30ac21977135"}, {"is_disabled": 0, "is_reserved": 0, "fusion_lat": 0.0, "lat": 38.893636, "fusion_lon": 0.0, "rental_uris": {"ios": "https://dc.lft.to/lastmile_qr_scan", "android": "https://dc.lft.to/lastmile_qr_scan"}, "lon": -76.9410905, "bike_id": "fb7edc964222b8091a2261266e40b0dd", "type": "electric_scooter", "name": "fb7edc964222b8091a2261266e40b0dd"}, {"is_disabled": 0, "is_reserved": 0, "fusion_lat": 0.0, "lat": 38.931014, "fusion_lon": 0.0, "rental_uris": {"ios": "https://dc.lft.to/lastmile_qr_scan", "android": "https://dc.lft.to/lastmile_qr_scan"}, "lon": -77.026648, "bike_id": "bf01d7854e753a76cc55c31bc807b80f", "type": "electric_scooter", "name": "bf01d7854e753a76cc55c31bc807b80f"}, {"is_disabled": 0, "is_reserved": 0, "fusion_lat": 0.0, "lat": 38.8717225, "fusion_lon": 0.0, "rental_uris": {"ios": "https://dc.lft.to/lastmile_qr_scan", "android": "https://dc.lft.to/lastmile_qr_scan"}, "lon": -77.233919, "bike_id": "0d646180c8e66d20842257db09575582", "type": "electric_bike", "name": "0d646180c8e66d20842257db09575582"}, {"is_disabled": 0, "is_reserved": 0, "fusion_lat": 0.0, "lat": 38.86665766666667, "fusion_lon": 0.0, "rental_uris": {"ios": "https://dc.lft.to/lastmile_qr_scan", "android": "https://dc.lft.to/lastmile_qr_scan"}, "lon": -77.01078066666666, "bike_id": "953fb253e8eba2c6ffc960a189e94de9", "type": "electric_scooter", "name": "953fb253e8eba2c6ffc960a189e94de9"}, {"is_disabled": 0, "is_reserved": 0, "fusion_lat": 0.0, "lat": 38.88523383333333, "fusion_lon": 0.0, "rental_uris": {"ios": "https://dc.lft.to/lastmile_qr_scan", "android": "https://dc.lft.to/lastmile_qr_scan"}, "lon": -76.99797916666667, "bike_id": "75bf925aa5345306db0d0ca3ac3c7a50", "type": "electric_scooter", "name": "75bf925aa5345306db0d0ca3ac3c7a50"}, {"is_disabled": 0, "is_reserved": 0, "fusion_lat": 0.0, "lat": 38.896715, "fusion_lon": 0.0, "rental_uris": {"ios": "https://dc.lft.to/lastmile_qr_scan", "android": "https://dc.lft.to/lastmile_qr_scan"}, "lon": -77.04889533333333, "bike_id": "961021f1a68fc0566fcef9a2a9a25821", "type": "electric_scooter", "name": "961021f1a68fc0566fcef9a2a9a25821"}, {"is_disabled": 0, "is_reserved": 0, "fusion_lat": 0.0, "lat": 38.80739233333333, "fusion_lon": 0.0, "rental_uris": {"ios": "https://dc.lft.to/lastmile_qr_scan", "android": "https://dc.lft.to/lastmile_qr_scan"}, "lon": -77.09686983333333, "bike_id": "fdf69f60d83d47248a6759507c89ab33", "type": "electric_bike", "name": "fdf69f60d83d47248a6759507c89ab33"}, {"is_disabled": 0, "is_reserved": 0, "fusion_lat": 0.0, "lat": 38.900297333333334, "fusion_lon": 0.0, "rental_uris": {"ios": "https://dc.lft.to/lastmile_qr_scan", "android": "https://dc.lft.to/lastmile_qr_scan"}, "lon": -77.03374166666667, "bike_id": "19eb51e2687babd2d7d142a028db3722", "type": "electric_scooter", "name": "19eb51e2687babd2d7d142a028db3722"}, {"is_disabled": 0, "is_reserved": 0, "fusion_lat": 0.0, "lat": 38.919121833333335, "fusion_lon": 0.0, "rental_uris": {"ios": "https://dc.lft.to/lastmile_qr_scan", "android": "https://dc.lft.to/lastmile_qr_scan"}, "lon": -77.03312266666667, "bike_id": "1578e3d71e69626c18dbcc57c4f94a50", "type": "electric_scooter", "name": "1578e3d71e69626c18dbcc57c4f94a50"}, {"is_disabled": 0, "is_reserved": 0, "fusion_lat": 0.0, "lat": 38.93518133333333, "fusion_lon": 0.0, "rental_uris": {"ios": "https://dc.lft.to/lastmile_qr_scan", "android": "https://dc.lft.to/lastmile_qr_scan"}, "lon": -77.02527266666667, "bike_id": "0d3e6ebd46eadeac1dc3d2932338baa1", "type": "electric_scooter", "name": "0d3e6ebd46eadeac1dc3d2932338baa1"}, {"is_disabled": 0, "is_reserved": 0, "fusion_lat": 0.0, "lat": 38.90724316666667, "fusion_lon": 0.0, "rental_uris": {"ios": "https://dc.lft.to/lastmile_qr_scan", "android": "https://dc.lft.to/lastmile_qr_scan"}, "lon": -77.02544283333333, "bike_id": "9762d550738c1ff58eb447f74d0eb804", "type": "electric_scooter", "name": "9762d550738c1ff58eb447f74d0eb804"}, {"is_disabled": 0, "is_reserved": 0, "fusion_lat": 0.0, "lat": 38.9003515, "fusion_lon": 0.0, "rental_uris": {"ios": "https://dc.lft.to/lastmile_qr_scan", "android": "https://dc.lft.to/lastmile_qr_scan"}, "lon": -77.011309, "bike_id": "6c27242fc821939c71e72c1fdcc1abec", "type": "electric_scooter", "name": "6c27242fc821939c71e72c1fdcc1abec"}, {"is_disabled": 0, "is_reserved": 0, "fusion_lat": 0.0, "lat": 38.901697666666664, "fusion_lon": 0.0, "rental_uris": {"ios": "https://dc.lft.to/lastmile_qr_scan", "android": "https://dc.lft.to/lastmile_qr_scan"}, "lon": -77.04870966666667, "bike_id": "7fa844355615e06e9307e68e3d0f5bc5", "type": "electric_scooter", "name": "7fa844355615e06e9307e68e3d0f5bc5"}, {"is_disabled": 0, "is_reserved": 0, "fusion_lat": 0.0, "lat": 38.99997416666667, "fusion_lon": 0.0, "rental_uris": {"ios": "https://dc.lft.to/lastmile_qr_scan", "android": "https://dc.lft.to/lastmile_qr_scan"}, "lon": -76.91803433333334, "bike_id": "434b41def88ac2fd9f8f0b72aef5b636", "type": "electric_bike", "name": "434b41def88ac2fd9f8f0b72aef5b636"}, {"is_disabled": 0, "is_reserved": 0, "fusion_lat": 0.0, "lat": 38.9524125, "fusion_lon": 0.0, "rental_uris": {"ios": "https://dc.lft.to/lastmile_qr_scan", "android": "https://dc.lft.to/lastmile_qr_scan"}, "lon": -76.97955266666666, "bike_id": "f18e02bdd05d623a1872fd71e56caed2", "type": "electric_bike", "name": "f18e02bdd05d623a1872fd71e56caed2"}, {"is_disabled": 0, "is_reserved": 0, "fusion_lat": 0.0, "lat": 38.925413166666665, "fusion_lon": 0.0, "rental_uris": {"ios": "https://dc.lft.to/lastmile_qr_scan", "android": "https://dc.lft.to/lastmile_qr_scan"}, "lon": -77.03240883333333, "bike_id": "9693033fc6de9e5e5cc7dfcc7230d6c8", "type": "electric_scooter", "name": "9693033fc6de9e5e5cc7dfcc7230d6c8"}, {"is_disabled": 0, "is_reserved": 0, "fusion_lat": 0.0, "lat": 38.91745483333333, "fusion_lon": 0.0, "rental_uris": {"ios": "https://dc.lft.to/lastmile_qr_scan", "android": "https://dc.lft.to/lastmile_qr_scan"}, "lon": -77.0230605, "bike_id": "3d030478e0a0e1c2ab5f4e9b7eaa3827", "type": "electric_scooter", "name": "3d030478e0a0e1c2ab5f4e9b7eaa3827"}, {"is_disabled": 0, "is_reserved": 0, "fusion_lat": 0.0, "lat": 38.89699983333333, "fusion_lon": 0.0, "rental_uris": {"ios": "https://dc.lft.to/lastmile_qr_scan", "android": "https://dc.lft.to/lastmile_qr_scan"}, "lon": -77.043492, "bike_id": "56561bb750f8091868ac5f81bb6435cf", "type": "electric_scooter", "name": "56561bb750f8091868ac5f81bb6435cf"}, {"is_disabled": 0, "is_reserved": 0, "fusion_lat": 0.0, "lat": 38.90639483333333, "fusion_lon": 0.0, "rental_uris": {"ios": "https://dc.lft.to/lastmile_qr_scan", "android": "https://dc.lft.to/lastmile_qr_scan"}, "lon": -77.06900533333334, "bike_id": "aa1a7ac4b87904688ab32d541241fcc5", "type": "electric_scooter", "name": "aa1a7ac4b87904688ab32d541241fcc5"}, {"is_disabled": 0, "is_reserved": 0, "fusion_lat": 0.0, "lat": 38.95781066666667, "fusion_lon": 0.0, "rental_uris": {"ios": "https://dc.lft.to/lastmile_qr_scan", "android": "https://dc.lft.to/lastmile_qr_scan"}, "lon": -77.024636, "bike_id": "cd5f78910a3f1f0b2df865c221ac7541", "type": "electric_scooter", "name": "cd5f78910a3f1f0b2df865c221ac7541"}, {"is_disabled": 0, "is_reserved": 0, "fusion_lat": 0.0, "lat": 38.91119066666667, "fusion_lon": 0.0, "rental_uris": {"ios": "https://dc.lft.to/lastmile_qr_scan", "android": "https://dc.lft.to/lastmile_qr_scan"}, "lon": -77.01113166666667, "bike_id": "b556d2f8f1e1c19a94c644d635e81813", "type": "electric_scooter", "name": "b556d2f8f1e1c19a94c644d635e81813"}, {"is_disabled": 0, "is_reserved": 0, "fusion_lat": 0.0, "lat": 38.923182, "fusion_lon": 0.0, "rental_uris": {"ios": "https://dc.lft.to/lastmile_qr_scan", "android": "https://dc.lft.to/lastmile_qr_scan"}, "lon": -77.0451225, "bike_id": "68b2963631895a6608c8f4fd1068c46f", "type": "electric_scooter", "name": "68b2963631895a6608c8f4fd1068c46f"}, {"is_disabled": 0, "is_reserved": 0, "fusion_lat": 0.0, "lat": 38.8942385, "fusion_lon": 0.0, "rental_uris": {"ios": "https://dc.lft.to/lastmile_qr_scan", "android": "https://dc.lft.to/lastmile_qr_scan"}, "lon": -77.0559595, "bike_id": "c20cd339ccba55deb95db1d6c99f317a", "type": "electric_scooter", "name": "c20cd339ccba55deb95db1d6c99f317a"}, {"is_disabled": 0, "is_reserved": 0, "fusion_lat": 0.0, "lat": 38.917073333333335, "fusion_lon": 0.0, "rental_uris": {"ios": "https://dc.lft.to/lastmile_qr_scan", "android": "https://dc.lft.to/lastmile_qr_scan"}, "lon": -77.00514466666667, "bike_id": "eccba0d977fb423d76dd843bbc38e808", "type": "electric_scooter", "name": "eccba0d977fb423d76dd843bbc38e808"}, {"is_disabled": 0, "is_reserved": 0, "fusion_lat": 0.0, "lat": 38.90711683333333, "fusion_lon": 0.0, "rental_uris": {"ios": "https://dc.lft.to/lastmile_qr_scan", "android": "https://dc.lft.to/lastmile_qr_scan"}, "lon": -77.02983083333334, "bike_id": "963285e1ddd329fc4bcb708ced326a91", "type": "electric_scooter", "name": "963285e1ddd329fc4bcb708ced326a91"}, {"is_disabled": 0, "is_reserved": 0, "fusion_lat": 0.0, "lat": 38.91662866666667, "fusion_lon": 0.0, "rental_uris": {"ios": "https://dc.lft.to/lastmile_qr_scan", "android": "https://dc.lft.to/lastmile_qr_scan"}, "lon": -77.0004345, "bike_id": "ca04b33d28205f7fc519884e646474e6", "type": "electric_scooter", "name": "ca04b33d28205f7fc519884e646474e6"}, {"is_disabled": 0, "is_reserved": 0, "fusion_lat": 0.0, "lat": 38.9223535, "fusion_lon": 0.0, "rental_uris": {"ios": "https://dc.lft.to/lastmile_qr_scan", "android": "https://dc.lft.to/lastmile_qr_scan"}, "lon": -77.0230135, "bike_id": "be7c2803f81dc831c22c8bb6797ab07d", "type": "electric_scooter", "name": "be7c2803f81dc831c22c8bb6797ab07d"}, {"is_disabled": 0, "is_reserved": 0, "fusion_lat": 0.0, "lat": 38.909203833333336, "fusion_lon": 0.0, "rental_uris": {"ios": "https://dc.lft.to/lastmile_qr_scan", "android": "https://dc.lft.to/lastmile_qr_scan"}, "lon": -77.04578733333334, "bike_id": "d7b0378ab44f1db9520b73ec77f909fd", "type": "electric_scooter", "name": "d7b0378ab44f1db9520b73ec77f909fd"}, {"is_disabled": 0, "is_reserved": 0, "fusion_lat": 0.0, "lat": 38.89206133333333, "fusion_lon": 0.0, "rental_uris": {"ios": "https://dc.lft.to/lastmile_qr_scan", "android": "https://dc.lft.to/lastmile_qr_scan"}, "lon": -76.92923016666667, "bike_id": "2c2b04b6c322888a2f633baf56632d91", "type": "electric_scooter", "name": "2c2b04b6c322888a2f633baf56632d91"}, {"is_disabled": 0, "is_reserved": 0, "fusion_lat": 0.0, "lat": 38.899311166666664, "fusion_lon": 0.0, "rental_uris": {"ios": "https://dc.lft.to/lastmile_qr_scan", "android": "https://dc.lft.to/lastmile_qr_scan"}, "lon": -77.00167483333334, "bike_id": "7826162c3c3aa8540f59800ed75e74d1", "type": "electric_bike", "name": "7826162c3c3aa8540f59800ed75e74d1"}, {"is_disabled": 0, "is_reserved": 0, "fusion_lat": 0.0, "lat": 38.89394766666667, "fusion_lon": 0.0, "rental_uris": {"ios": "https://dc.lft.to/lastmile_qr_scan", "android": "https://dc.lft.to/lastmile_qr_scan"}, "lon": -77.0237055, "bike_id": "df027535d5a6d06c24f18c5594a082eb", "type": "electric_scooter", "name": "df027535d5a6d06c24f18c5594a082eb"}, {"is_disabled": 0, "is_reserved": 0, "fusion_lat": 0.0, "lat": 38.90840983333333, "fusion_lon": 0.0, "rental_uris": {"ios": "https://dc.lft.to/lastmile_qr_scan", "android": "https://dc.lft.to/lastmile_qr_scan"}, "lon": -77.00100516666667, "bike_id": "f8b4346ffa14b0db9f28d926afa187cd", "type": "electric_scooter", "name": "f8b4346ffa14b0db9f28d926afa187cd"}, {"is_disabled": 0, "is_reserved": 0, "fusion_lat": 0.0, "lat": 38.91001383333333, "fusion_lon": 0.0, "rental_uris": {"ios": "https://dc.lft.to/lastmile_qr_scan", "android": "https://dc.lft.to/lastmile_qr_scan"}, "lon": -76.98611933333333, "bike_id": "8cab2ee5b2f872580a5688fa25177b53", "type": "electric_scooter", "name": "8cab2ee5b2f872580a5688fa25177b53"}, {"is_disabled": 0, "is_reserved": 0, "fusion_lat": 0.0, "lat": 38.9373905, "fusion_lon": 0.0, "rental_uris": {"ios": "https://dc.lft.to/lastmile_qr_scan", "android": "https://dc.lft.to/lastmile_qr_scan"}, "lon": -77.0344095, "bike_id": "5a4ba4a42893dcbe0907df19303e0b39", "type": "electric_scooter", "name": "5a4ba4a42893dcbe0907df19303e0b39"}, {"is_disabled": 0, "is_reserved": 0, "fusion_lat": 0.0, "lat": 38.917874, "fusion_lon": 0.0, "rental_uris": {"ios": "https://dc.lft.to/lastmile_qr_scan", "android": "https://dc.lft.to/lastmile_qr_scan"}, "lon": -77.0319855, "bike_id": "f4d64e5753d4c3e90091356ca01f3016", "type": "electric_scooter", "name": "f4d64e5753d4c3e90091356ca01f3016"}, {"is_disabled": 0, "is_reserved": 0, "fusion_lat": 0.0, "lat": 38.848106666666666, "fusion_lon": 0.0, "rental_uris": {"ios": "https://dc.lft.to/lastmile_qr_scan", "android": "https://dc.lft.to/lastmile_qr_scan"}, "lon": -77.08416516666666, "bike_id": "223a5a3f8b7e9ff37522688a893ae5ea", "type": "electric_bike", "name": "223a5a3f8b7e9ff37522688a893ae5ea"}, {"is_disabled": 0, "is_reserved": 0, "fusion_lat": 0.0, "lat": 38.924735166666665, "fusion_lon": 0.0, "rental_uris": {"ios": "https://dc.lft.to/lastmile_qr_scan", "android": "https://dc.lft.to/lastmile_qr_scan"}, "lon": -77.03752716666666, "bike_id": "c06cd72649d87102fd596aeaa491f4fc", "type": "electric_scooter", "name": "c06cd72649d87102fd596aeaa491f4fc"}, {"is_disabled": 0, "is_reserved": 0, "fusion_lat": 0.0, "lat": 38.93468383333333, "fusion_lon": 0.0, "rental_uris": {"ios": "https://dc.lft.to/lastmile_qr_scan", "android": "https://dc.lft.to/lastmile_qr_scan"}, "lon": -77.02406633333334, "bike_id": "65df59d3ff2f707780159a69042f8dbd", "type": "electric_scooter", "name": "65df59d3ff2f707780159a69042f8dbd"}, {"is_disabled": 0, "is_reserved": 0, "fusion_lat": 0.0, "lat": 38.904437333333334, "fusion_lon": 0.0, "rental_uris": {"ios": "https://dc.lft.to/lastmile_qr_scan", "android": "https://dc.lft.to/lastmile_qr_scan"}, "lon": -77.0484075, "bike_id": "0f52025cb99a9b245f6303a3bc16363f", "type": "electric_scooter", "name": "0f52025cb99a9b245f6303a3bc16363f"}, {"is_disabled": 0, "is_reserved": 0, "fusion_lat": 0.0, "lat": 38.928825, "fusion_lon": 0.0, "rental_uris": {"ios": "https://dc.lft.to/lastmile_qr_scan", "android": "https://dc.lft.to/lastmile_qr_scan"}, "lon": -77.0342045, "bike_id": "62d1598f2bc5d48e5b52ad556851418f", "type": "electric_scooter", "name": "62d1598f2bc5d48e5b52ad556851418f"}, {"is_disabled": 0, "is_reserved": 0, "fusion_lat": 0.0, "lat": 38.9289625, "fusion_lon": 0.0, "rental_uris": {"ios": "https://dc.lft.to/lastmile_qr_scan", "android": "https://dc.lft.to/lastmile_qr_scan"}, "lon": -77.03763383333333, "bike_id": "b4a30798142a127fbc9ba4515dd5f712", "type": "electric_scooter", "name": "b4a30798142a127fbc9ba4515dd5f712"}, {"is_disabled": 0, "is_reserved": 0, "fusion_lat": 0.0, "lat": 38.94975633333333, "fusion_lon": 0.0, "rental_uris": {"ios": "https://dc.lft.to/lastmile_qr_scan", "android": "https://dc.lft.to/lastmile_qr_scan"}, "lon": -77.02446733333333, "bike_id": "874a2a0984fa29b6fe9c5d58035297f7", "type": "electric_scooter", "name": "874a2a0984fa29b6fe9c5d58035297f7"}, {"is_disabled": 0, "is_reserved": 0, "fusion_lat": 0.0, "lat": 38.9118165, "fusion_lon": 0.0, "rental_uris": {"ios": "https://dc.lft.to/lastmile_qr_scan", "android": "https://dc.lft.to/lastmile_qr_scan"}, "lon": -77.00184833333333, "bike_id": "6f71f1ad2e9f3e4cd106492c4dea577b", "type": "electric_scooter", "name": "6f71f1ad2e9f3e4cd106492c4dea577b"}, {"is_disabled": 0, "is_reserved": 0, "fusion_lat": 0.0, "lat": 38.94918716666667, "fusion_lon": 0.0, "rental_uris": {"ios": "https://dc.lft.to/lastmile_qr_scan", "android": "https://dc.lft.to/lastmile_qr_scan"}, "lon": -77.00800183333334, "bike_id": "bd581cd647117ee6644e29f2f1a842b5", "type": "electric_bike", "name": "bd581cd647117ee6644e29f2f1a842b5"}, {"is_disabled": 0, "is_reserved": 0, "fusion_lat": 0.0, "lat": 38.881319, "fusion_lon": 0.0, "rental_uris": {"ios": "https://dc.lft.to/lastmile_qr_scan", "android": "https://dc.lft.to/lastmile_qr_scan"}, "lon": -77.02267816666667, "bike_id": "9a3e56d136d7bc23c9b12edfa178fb90", "type": "electric_scooter", "name": "9a3e56d136d7bc23c9b12edfa178fb90"}, {"is_disabled": 0, "is_reserved": 0, "fusion_lat": 0.0, "lat": 38.88448666666667, "fusion_lon": 0.0, "rental_uris": {"ios": "https://dc.lft.to/lastmile_qr_scan", "android": "https://dc.lft.to/lastmile_qr_scan"}, "lon": -76.9509595, "bike_id": "c81086a0527885e311d96fc3e038f846", "type": "electric_scooter", "name": "c81086a0527885e311d96fc3e038f846"}, {"is_disabled": 0, "is_reserved": 0, "fusion_lat": 0.0, "lat": 38.81331333333333, "fusion_lon": 0.0, "rental_uris": {"ios": "https://dc.lft.to/lastmile_qr_scan", "android": "https://dc.lft.to/lastmile_qr_scan"}, "lon": -77.0508995, "bike_id": "772d9e013e0f97073a6ceb0b966d0075", "type": "electric_bike", "name": "772d9e013e0f97073a6ceb0b966d0075"}, {"is_disabled": 0, "is_reserved": 0, "fusion_lat": 0.0, "lat": 38.898397833333334, "fusion_lon": 0.0, "rental_uris": {"ios": "https://dc.lft.to/lastmile_qr_scan", "android": "https://dc.lft.to/lastmile_qr_scan"}, "lon": -77.02853083333333, "bike_id": "a9091df5326a7009841332fb854dc725", "type": "electric_scooter", "name": "a9091df5326a7009841332fb854dc725"}, {"is_disabled": 0, "is_reserved": 0, "fusion_lat": 0.0, "lat": 38.903432333333335, "fusion_lon": 0.0, "rental_uris": {"ios": "https://dc.lft.to/lastmile_qr_scan", "android": "https://dc.lft.to/lastmile_qr_scan"}, "lon": -76.974877, "bike_id": "53798548ded798a193a97fcefc21220c", "type": "electric_scooter", "name": "53798548ded798a193a97fcefc21220c"}, {"is_disabled": 0, "is_reserved": 0, "fusion_lat": 0.0, "lat": 38.90304966666667, "fusion_lon": 0.0, "rental_uris": {"ios": "https://dc.lft.to/lastmile_qr_scan", "android": "https://dc.lft.to/lastmile_qr_scan"}, "lon": -77.0215625, "bike_id": "cce4739125b064cb1f0f63af3e4a94f8", "type": "electric_scooter", "name": "cce4739125b064cb1f0f63af3e4a94f8"}, {"is_disabled": 0, "is_reserved": 0, "fusion_lat": 0.0, "lat": 38.91694066666667, "fusion_lon": 0.0, "rental_uris": {"ios": "https://dc.lft.to/lastmile_qr_scan", "android": "https://dc.lft.to/lastmile_qr_scan"}, "lon": -77.02571733333333, "bike_id": "c619a4b2fa8cf1d8a843c51a035aa7f8", "type": "electric_scooter", "name": "c619a4b2fa8cf1d8a843c51a035aa7f8"}, {"is_disabled": 0, "is_reserved": 0, "fusion_lat": 0.0, "lat": 38.93937616666667, "fusion_lon": 0.0, "rental_uris": {"ios": "https://dc.lft.to/lastmile_qr_scan", "android": "https://dc.lft.to/lastmile_qr_scan"}, "lon": -77.02586633333334, "bike_id": "a76c32b89d93e5b40c1e6d4cfbdb62e1", "type": "electric_scooter", "name": "a76c32b89d93e5b40c1e6d4cfbdb62e1"}, {"is_disabled": 0, "is_reserved": 0, "fusion_lat": 0.0, "lat": 38.926483833333336, "fusion_lon": 0.0, "rental_uris": {"ios": "https://dc.lft.to/lastmile_qr_scan", "android": "https://dc.lft.to/lastmile_qr_scan"}, "lon": -77.09023583333334, "bike_id": "4dd90a1e0dda4ff1b8b9d4bed512340e", "type": "electric_bike", "name": "4dd90a1e0dda4ff1b8b9d4bed512340e"}, {"is_disabled": 0, "is_reserved": 0, "fusion_lat": 0.0, "lat": 38.905785, "fusion_lon": 0.0, "rental_uris": {"ios": "https://dc.lft.to/lastmile_qr_scan", "android": "https://dc.lft.to/lastmile_qr_scan"}, "lon": -77.0087535, "bike_id": "cef5f51a3a8d63b06e3fc86682c9a306", "type": "electric_scooter", "name": "cef5f51a3a8d63b06e3fc86682c9a306"}, {"is_disabled": 0, "is_reserved": 0, "fusion_lat": 0.0, "lat": 38.97156283333333, "fusion_lon": 0.0, "rental_uris": {"ios": "https://dc.lft.to/lastmile_qr_scan", "android": "https://dc.lft.to/lastmile_qr_scan"}, "lon": -76.98361983333334, "bike_id": "83fbc397fdb6cce09ec4c095ff841683", "type": "electric_bike", "name": "83fbc397fdb6cce09ec4c095ff841683"}, {"is_disabled": 0, "is_reserved": 0, "fusion_lat": 0.0, "lat": 38.89489616666667, "fusion_lon": 0.0, "rental_uris": {"ios": "https://dc.lft.to/lastmile_qr_scan", "android": "https://dc.lft.to/lastmile_qr_scan"}, "lon": -77.0098365, "bike_id": "0481d75f0132d0d3642b51c355e17fab", "type": "electric_scooter", "name": "0481d75f0132d0d3642b51c355e17fab"}, {"is_disabled": 0, "is_reserved": 0, "fusion_lat": 0.0, "lat": 38.93525733333333, "fusion_lon": 0.0, "rental_uris": {"ios": "https://dc.lft.to/lastmile_qr_scan", "android": "https://dc.lft.to/lastmile_qr_scan"}, "lon": -77.02962533333333, "bike_id": "5c1e891938b1c38ea0d40e28ad3b2f3f", "type": "electric_scooter", "name": "5c1e891938b1c38ea0d40e28ad3b2f3f"}, {"is_disabled": 0, "is_reserved": 0, "fusion_lat": 0.0, "lat": 38.930614, "fusion_lon": 0.0, "rental_uris": {"ios": "https://dc.lft.to/lastmile_qr_scan", "android": "https://dc.lft.to/lastmile_qr_scan"}, "lon": -76.973288, "bike_id": "a155477d936d6231470b8b7094257795", "type": "electric_scooter", "name": "a155477d936d6231470b8b7094257795"}, {"is_disabled": 0, "is_reserved": 0, "fusion_lat": 0.0, "lat": 38.890839166666666, "fusion_lon": 0.0, "rental_uris": {"ios": "https://dc.lft.to/lastmile_qr_scan", "android": "https://dc.lft.to/lastmile_qr_scan"}, "lon": -76.954689, "bike_id": "c6de03f6dfffc52285d23705a6459f8e", "type": "electric_bike", "name": "c6de03f6dfffc52285d23705a6459f8e"}, {"is_disabled": 0, "is_reserved": 0, "fusion_lat": 0.0, "lat": 38.95636433333333, "fusion_lon": 0.0, "rental_uris": {"ios": "https://dc.lft.to/lastmile_qr_scan", "android": "https://dc.lft.to/lastmile_qr_scan"}, "lon": -77.03632783333333, "bike_id": "7f2b9f77badf2a25d7c9a62c4dd1e2b4", "type": "electric_scooter", "name": "7f2b9f77badf2a25d7c9a62c4dd1e2b4"}, {"is_disabled": 0, "is_reserved": 0, "fusion_lat": 0.0, "lat": 38.93344333333334, "fusion_lon": 0.0, "rental_uris": {"ios": "https://dc.lft.to/lastmile_qr_scan", "android": "https://dc.lft.to/lastmile_qr_scan"}, "lon": -77.019347, "bike_id": "1437fa6d0c199f633e97c11d35b13f10", "type": "electric_scooter", "name": "1437fa6d0c199f633e97c11d35b13f10"}, {"is_disabled": 0, "is_reserved": 0, "fusion_lat": 0.0, "lat": 38.91734316666667, "fusion_lon": 0.0, "rental_uris": {"ios": "https://dc.lft.to/lastmile_qr_scan", "android": "https://dc.lft.to/lastmile_qr_scan"}, "lon": -77.02602716666667, "bike_id": "544af02b32f08ddd2b1bdb1336c15e61", "type": "electric_scooter", "name": "544af02b32f08ddd2b1bdb1336c15e61"}, {"is_disabled": 0, "is_reserved": 0, "fusion_lat": 0.0, "lat": 38.9273955, "fusion_lon": 0.0, "rental_uris": {"ios": "https://dc.lft.to/lastmile_qr_scan", "android": "https://dc.lft.to/lastmile_qr_scan"}, "lon": -77.02269033333333, "bike_id": "2eda8e5671a5710b7d50e0850589e871", "type": "electric_scooter", "name": "2eda8e5671a5710b7d50e0850589e871"}, {"is_disabled": 0, "is_reserved": 0, "fusion_lat": 0.0, "lat": 38.906050666666665, "fusion_lon": 0.0, "rental_uris": {"ios": "https://dc.lft.to/lastmile_qr_scan", "android": "https://dc.lft.to/lastmile_qr_scan"}, "lon": -77.02108866666667, "bike_id": "a932aae14faf7e4711fcecf18c0817e4", "type": "electric_scooter", "name": "a932aae14faf7e4711fcecf18c0817e4"}, {"is_disabled": 0, "is_reserved": 0, "fusion_lat": 0.0, "lat": 38.9259365, "fusion_lon": 0.0, "rental_uris": {"ios": "https://dc.lft.to/lastmile_qr_scan", "android": "https://dc.lft.to/lastmile_qr_scan"}, "lon": -77.024982, "bike_id": "698b83fdc85ffbf0a91719755ae6a72e", "type": "electric_scooter", "name": "698b83fdc85ffbf0a91719755ae6a72e"}, {"is_disabled": 0, "is_reserved": 0, "fusion_lat": 0.0, "lat": 38.878542833333334, "fusion_lon": 0.0, "rental_uris": {"ios": "https://dc.lft.to/lastmile_qr_scan", "android": "https://dc.lft.to/lastmile_qr_scan"}, "lon": -77.0075, "bike_id": "85cb265a4fb6712fe6d6296ac9b2e184", "type": "electric_scooter", "name": "85cb265a4fb6712fe6d6296ac9b2e184"}, {"is_disabled": 0, "is_reserved": 0, "fusion_lat": 0.0, "lat": 38.8485895, "fusion_lon": 0.0, "rental_uris": {"ios": "https://dc.lft.to/lastmile_qr_scan", "android": "https://dc.lft.to/lastmile_qr_scan"}, "lon": -77.06829516666667, "bike_id": "b49ae358ea036cafe9dd56fa0089a72a", "type": "electric_bike", "name": "b49ae358ea036cafe9dd56fa0089a72a"}, {"is_disabled": 0, "is_reserved": 0, "fusion_lat": 0.0, "lat": 38.908420166666666, "fusion_lon": 0.0, "rental_uris": {"ios": "https://dc.lft.to/lastmile_qr_scan", "android": "https://dc.lft.to/lastmile_qr_scan"}, "lon": -77.058086, "bike_id": "da03294a101919a5a5d39a588517c929", "type": "electric_scooter", "name": "da03294a101919a5a5d39a588517c929"}, {"is_disabled": 0, "is_reserved": 0, "fusion_lat": 0.0, "lat": 38.901284, "fusion_lon": 0.0, "rental_uris": {"ios": "https://dc.lft.to/lastmile_qr_scan", "android": "https://dc.lft.to/lastmile_qr_scan"}, "lon": -77.033524, "bike_id": "64bf096f7c284630780fdf0e4c5c3788", "type": "electric_scooter", "name": "64bf096f7c284630780fdf0e4c5c3788"}, {"is_disabled": 0, "is_reserved": 0, "fusion_lat": 0.0, "lat": 38.90650466666666, "fusion_lon": 0.0, "rental_uris": {"ios": "https://dc.lft.to/lastmile_qr_scan", "android": "https://dc.lft.to/lastmile_qr_scan"}, "lon": -77.04884433333334, "bike_id": "026151dc9b805def939d1315042c6994", "type": "electric_scooter", "name": "026151dc9b805def939d1315042c6994"}, {"is_disabled": 0, "is_reserved": 0, "fusion_lat": 0.0, "lat": 38.8791435, "fusion_lon": 0.0, "rental_uris": {"ios": "https://dc.lft.to/lastmile_qr_scan", "android": "https://dc.lft.to/lastmile_qr_scan"}, "lon": -77.00790933333333, "bike_id": "682816bf6d2f359669e018d7b11f7c96", "type": "electric_scooter", "name": "682816bf6d2f359669e018d7b11f7c96"}, {"is_disabled": 0, "is_reserved": 0, "fusion_lat": 0.0, "lat": 38.866072833333334, "fusion_lon": 0.0, "rental_uris": {"ios": "https://dc.lft.to/lastmile_qr_scan", "android": "https://dc.lft.to/lastmile_qr_scan"}, "lon": -76.98989583333334, "bike_id": "40e4a11ab967c544930b231ac87132ef", "type": "electric_bike", "name": "40e4a11ab967c544930b231ac87132ef"}, {"is_disabled": 0, "is_reserved": 0, "fusion_lat": 0.0, "lat": 38.89534416666667, "fusion_lon": 0.0, "rental_uris": {"ios": "https://dc.lft.to/lastmile_qr_scan", "android": "https://dc.lft.to/lastmile_qr_scan"}, "lon": -77.02170766666667, "bike_id": "c5ed99cf1ac7fb38a22f23e1bae70bd5", "type": "electric_scooter", "name": "c5ed99cf1ac7fb38a22f23e1bae70bd5"}, {"is_disabled": 0, "is_reserved": 0, "fusion_lat": 0.0, "lat": 38.9165305, "fusion_lon": 0.0, "rental_uris": {"ios": "https://dc.lft.to/lastmile_qr_scan", "android": "https://dc.lft.to/lastmile_qr_scan"}, "lon": -77.00952133333334, "bike_id": "7e937a0d31f5d641fd282c8762c16e89", "type": "electric_scooter", "name": "7e937a0d31f5d641fd282c8762c16e89"}, {"is_disabled": 0, "is_reserved": 0, "fusion_lat": 0.0, "lat": 38.99099733333333, "fusion_lon": 0.0, "rental_uris": {"ios": "https://dc.lft.to/lastmile_qr_scan", "android": "https://dc.lft.to/lastmile_qr_scan"}, "lon": -76.99377166666666, "bike_id": "6b90b7097b2cee3300202afca6ddc0f0", "type": "electric_bike", "name": "6b90b7097b2cee3300202afca6ddc0f0"}, {"is_disabled": 0, "is_reserved": 0, "fusion_lat": 0.0, "lat": 38.950065333333335, "fusion_lon": 0.0, "rental_uris": {"ios": "https://dc.lft.to/lastmile_qr_scan", "android": "https://dc.lft.to/lastmile_qr_scan"}, "lon": -77.0802285, "bike_id": "98052508d558923d420dffd37a0f7dad", "type": "electric_scooter", "name": "98052508d558923d420dffd37a0f7dad"}, {"is_disabled": 0, "is_reserved": 0, "fusion_lat": 0.0, "lat": 38.897405166666665, "fusion_lon": 0.0, "rental_uris": {"ios": "https://dc.lft.to/lastmile_qr_scan", "android": "https://dc.lft.to/lastmile_qr_scan"}, "lon": -77.0464435, "bike_id": "96b717218226b0ba3afdfcf25bc4b65d", "type": "electric_scooter", "name": "96b717218226b0ba3afdfcf25bc4b65d"}, {"is_disabled": 0, "is_reserved": 0, "fusion_lat": 0.0, "lat": 38.87874383333333, "fusion_lon": 0.0, "rental_uris": {"ios": "https://dc.lft.to/lastmile_qr_scan", "android": "https://dc.lft.to/lastmile_qr_scan"}, "lon": -77.02293983333334, "bike_id": "cbc9ac7c63027cd6404c76c25410ec3a", "type": "electric_scooter", "name": "cbc9ac7c63027cd6404c76c25410ec3a"}, {"is_disabled": 0, "is_reserved": 0, "fusion_lat": 0.0, "lat": 38.919988833333335, "fusion_lon": 0.0, "rental_uris": {"ios": "https://dc.lft.to/lastmile_qr_scan", "android": "https://dc.lft.to/lastmile_qr_scan"}, "lon": -77.03221866666667, "bike_id": "e74556189ce93b64383f18c65f04b026", "type": "electric_scooter", "name": "e74556189ce93b64383f18c65f04b026"}, {"is_disabled": 0, "is_reserved": 0, "fusion_lat": 0.0, "lat": 38.94271833333333, "fusion_lon": 0.0, "rental_uris": {"ios": "https://dc.lft.to/lastmile_qr_scan", "android": "https://dc.lft.to/lastmile_qr_scan"}, "lon": -77.02937566666667, "bike_id": "bf57761accb163f63f9721484f20c79a", "type": "electric_scooter", "name": "bf57761accb163f63f9721484f20c79a"}, {"is_disabled": 0, "is_reserved": 0, "fusion_lat": 0.0, "lat": 38.902352, "fusion_lon": 0.0, "rental_uris": {"ios": "https://dc.lft.to/lastmile_qr_scan", "android": "https://dc.lft.to/lastmile_qr_scan"}, "lon": -77.01501916666666, "bike_id": "6429ee227c0ad9765200e0c0a786c507", "type": "electric_scooter", "name": "6429ee227c0ad9765200e0c0a786c507"}, {"is_disabled": 0, "is_reserved": 0, "fusion_lat": 0.0, "lat": 38.827602, "fusion_lon": 0.0, "rental_uris": {"ios": "https://dc.lft.to/lastmile_qr_scan", "android": "https://dc.lft.to/lastmile_qr_scan"}, "lon": -77.05032533333333, "bike_id": "be88d065d97dbda643044f5374fb66db", "type": "electric_bike", "name": "be88d065d97dbda643044f5374fb66db"}, {"is_disabled": 0, "is_reserved": 0, "fusion_lat": 0.0, "lat": 38.892228333333335, "fusion_lon": 0.0, "rental_uris": {"ios": "https://dc.lft.to/lastmile_qr_scan", "android": "https://dc.lft.to/lastmile_qr_scan"}, "lon": -77.03338133333334, "bike_id": "8bae222ba299a2afc3e565e8881b812e", "type": "electric_scooter", "name": "8bae222ba299a2afc3e565e8881b812e"}, {"is_disabled": 0, "is_reserved": 0, "fusion_lat": 0.0, "lat": 38.9043825, "fusion_lon": 0.0, "rental_uris": {"ios": "https://dc.lft.to/lastmile_qr_scan", "android": "https://dc.lft.to/lastmile_qr_scan"}, "lon": -77.03120483333333, "bike_id": "ade4529d60e34052b40ca7cb9ad3c9d8", "type": "electric_scooter", "name": "ade4529d60e34052b40ca7cb9ad3c9d8"}, {"is_disabled": 0, "is_reserved": 0, "fusion_lat": 0.0, "lat": 38.88443516666667, "fusion_lon": 0.0, "rental_uris": {"ios": "https://dc.lft.to/lastmile_qr_scan", "android": "https://dc.lft.to/lastmile_qr_scan"}, "lon": -77.02515416666667, "bike_id": "b182dc02999c357d2b17d62e5dfa2a78", "type": "electric_scooter", "name": "b182dc02999c357d2b17d62e5dfa2a78"}, {"is_disabled": 0, "is_reserved": 0, "fusion_lat": 0.0, "lat": 38.9058875, "fusion_lon": 0.0, "rental_uris": {"ios": "https://dc.lft.to/lastmile_qr_scan", "android": "https://dc.lft.to/lastmile_qr_scan"}, "lon": -77.00704066666667, "bike_id": "f90e5d6ec30ab200286dbc4a3fd6d875", "type": "electric_scooter", "name": "f90e5d6ec30ab200286dbc4a3fd6d875"}, {"is_disabled": 0, "is_reserved": 0, "fusion_lat": 0.0, "lat": 38.967987666666666, "fusion_lon": 0.0, "rental_uris": {"ios": "https://dc.lft.to/lastmile_qr_scan", "android": "https://dc.lft.to/lastmile_qr_scan"}, "lon": -77.02560983333333, "bike_id": "521b1a9f0c665c0e49f05baaea185bbc", "type": "electric_scooter", "name": "521b1a9f0c665c0e49f05baaea185bbc"}, {"is_disabled": 0, "is_reserved": 0, "fusion_lat": 0.0, "lat": 38.92211983333333, "fusion_lon": 0.0, "rental_uris": {"ios": "https://dc.lft.to/lastmile_qr_scan", "android": "https://dc.lft.to/lastmile_qr_scan"}, "lon": -77.07437366666667, "bike_id": "88f5e4244b4f5ecb06c2ead5dd4ce7f7", "type": "electric_scooter", "name": "88f5e4244b4f5ecb06c2ead5dd4ce7f7"}, {"is_disabled": 0, "is_reserved": 0, "fusion_lat": 0.0, "lat": 38.905986166666665, "fusion_lon": 0.0, "rental_uris": {"ios": "https://dc.lft.to/lastmile_qr_scan", "android": "https://dc.lft.to/lastmile_qr_scan"}, "lon": -77.016177, "bike_id": "c99d89c8df67b5be35a50fab147b691a", "type": "electric_scooter", "name": "c99d89c8df67b5be35a50fab147b691a"}, {"is_disabled": 0, "is_reserved": 0, "fusion_lat": 0.0, "lat": 38.90215766666667, "fusion_lon": 0.0, "rental_uris": {"ios": "https://dc.lft.to/lastmile_qr_scan", "android": "https://dc.lft.to/lastmile_qr_scan"}, "lon": -76.94731383333334, "bike_id": "f925c95103fe9da7daff365049f5d1cd", "type": "electric_scooter", "name": "f925c95103fe9da7daff365049f5d1cd"}, {"is_disabled": 0, "is_reserved": 0, "fusion_lat": 0.0, "lat": 38.921316, "fusion_lon": 0.0, "rental_uris": {"ios": "https://dc.lft.to/lastmile_qr_scan", "android": "https://dc.lft.to/lastmile_qr_scan"}, "lon": -77.04563583333334, "bike_id": "67d4a6455208b945d3a2f320e9e46958", "type": "electric_scooter", "name": "67d4a6455208b945d3a2f320e9e46958"}, {"is_disabled": 0, "is_reserved": 0, "fusion_lat": 0.0, "lat": 38.91763616666667, "fusion_lon": 0.0, "rental_uris": {"ios": "https://dc.lft.to/lastmile_qr_scan", "android": "https://dc.lft.to/lastmile_qr_scan"}, "lon": -77.04763283333334, "bike_id": "bb10c018701fc9c90ff9c64fde114cdc", "type": "electric_scooter", "name": "bb10c018701fc9c90ff9c64fde114cdc"}, {"is_disabled": 0, "is_reserved": 0, "fusion_lat": 0.0, "lat": 38.923499166666666, "fusion_lon": 0.0, "rental_uris": {"ios": "https://dc.lft.to/lastmile_qr_scan", "android": "https://dc.lft.to/lastmile_qr_scan"}, "lon": -77.02444866666667, "bike_id": "269ee23776f272fd197e57ed3670ec1a", "type": "electric_scooter", "name": "269ee23776f272fd197e57ed3670ec1a"}, {"is_disabled": 0, "is_reserved": 0, "fusion_lat": 0.0, "lat": 38.918208, "fusion_lon": 0.0, "rental_uris": {"ios": "https://dc.lft.to/lastmile_qr_scan", "android": "https://dc.lft.to/lastmile_qr_scan"}, "lon": -77.01211183333334, "bike_id": "5d90ad29d3bbaf16a95dd5bf5acaacc1", "type": "electric_scooter", "name": "5d90ad29d3bbaf16a95dd5bf5acaacc1"}, {"is_disabled": 0, "is_reserved": 0, "fusion_lat": 0.0, "lat": 38.884411166666666, "fusion_lon": 0.0, "rental_uris": {"ios": "https://dc.lft.to/lastmile_qr_scan", "android": "https://dc.lft.to/lastmile_qr_scan"}, "lon": -77.030204, "bike_id": "307205a02c0988480051a160627fde06", "type": "electric_scooter", "name": "307205a02c0988480051a160627fde06"}, {"is_disabled": 0, "is_reserved": 0, "fusion_lat": 0.0, "lat": 38.92904683333333, "fusion_lon": 0.0, "rental_uris": {"ios": "https://dc.lft.to/lastmile_qr_scan", "android": "https://dc.lft.to/lastmile_qr_scan"}, "lon": -77.05986133333333, "bike_id": "b6477b8821c64dbd3dbd84fd7542e4ab", "type": "electric_scooter", "name": "b6477b8821c64dbd3dbd84fd7542e4ab"}, {"is_disabled": 0, "is_reserved": 0, "fusion_lat": 0.0, "lat": 38.907164333333334, "fusion_lon": 0.0, "rental_uris": {"ios": "https://dc.lft.to/lastmile_qr_scan", "android": "https://dc.lft.to/lastmile_qr_scan"}, "lon": -77.02558683333334, "bike_id": "3a1302750105f82f27ee48532d4cb5f2", "type": "electric_scooter", "name": "3a1302750105f82f27ee48532d4cb5f2"}, {"is_disabled": 0, "is_reserved": 0, "fusion_lat": 0.0, "lat": 38.92679166666667, "fusion_lon": 0.0, "rental_uris": {"ios": "https://dc.lft.to/lastmile_qr_scan", "android": "https://dc.lft.to/lastmile_qr_scan"}, "lon": -77.03199133333334, "bike_id": "d4b0de3ae4d788807de0786887f4f85e", "type": "electric_scooter", "name": "d4b0de3ae4d788807de0786887f4f85e"}, {"is_disabled": 0, "is_reserved": 0, "fusion_lat": 0.0, "lat": 38.90647583333333, "fusion_lon": 0.0, "rental_uris": {"ios": "https://dc.lft.to/lastmile_qr_scan", "android": "https://dc.lft.to/lastmile_qr_scan"}, "lon": -77.04880566666667, "bike_id": "dbcde3d30f596c0cb37ab4b8d9236a8f", "type": "electric_scooter", "name": "dbcde3d30f596c0cb37ab4b8d9236a8f"}, {"is_disabled": 0, "is_reserved": 0, "fusion_lat": 0.0, "lat": 38.93352683333333, "fusion_lon": 0.0, "rental_uris": {"ios": "https://dc.lft.to/lastmile_qr_scan", "android": "https://dc.lft.to/lastmile_qr_scan"}, "lon": -77.03419716666667, "bike_id": "c765f7c259a6c3000bebf7ff27ca1aa5", "type": "electric_scooter", "name": "c765f7c259a6c3000bebf7ff27ca1aa5"}, {"is_disabled": 0, "is_reserved": 0, "fusion_lat": 0.0, "lat": 38.894231166666664, "fusion_lon": 0.0, "rental_uris": {"ios": "https://dc.lft.to/lastmile_qr_scan", "android": "https://dc.lft.to/lastmile_qr_scan"}, "lon": -77.01078666666666, "bike_id": "dc7df9c40f61419d218fc989c182e837", "type": "electric_scooter", "name": "dc7df9c40f61419d218fc989c182e837"}, {"is_disabled": 0, "is_reserved": 0, "fusion_lat": 0.0, "lat": 38.910513333333334, "fusion_lon": 0.0, "rental_uris": {"ios": "https://dc.lft.to/lastmile_qr_scan", "android": "https://dc.lft.to/lastmile_qr_scan"}, "lon": -77.02201283333333, "bike_id": "208f2fd05e2ef96c61d5f97fce7ddc62", "type": "electric_scooter", "name": "208f2fd05e2ef96c61d5f97fce7ddc62"}, {"is_disabled": 0, "is_reserved": 0, "fusion_lat": 0.0, "lat": 38.92036383333333, "fusion_lon": 0.0, "rental_uris": {"ios": "https://dc.lft.to/lastmile_qr_scan", "android": "https://dc.lft.to/lastmile_qr_scan"}, "lon": -77.02362883333333, "bike_id": "2745a173a57171640f4c55e51e1556c7", "type": "electric_scooter", "name": "2745a173a57171640f4c55e51e1556c7"}, {"is_disabled": 0, "is_reserved": 0, "fusion_lat": 0.0, "lat": 38.90006483333333, "fusion_lon": 0.0, "rental_uris": {"ios": "https://dc.lft.to/lastmile_qr_scan", "android": "https://dc.lft.to/lastmile_qr_scan"}, "lon": -76.979869, "bike_id": "25851c686988778a05792c6c8418a83e", "type": "electric_scooter", "name": "25851c686988778a05792c6c8418a83e"}, {"is_disabled": 0, "is_reserved": 0, "fusion_lat": 0.0, "lat": 38.879198333333335, "fusion_lon": 0.0, "rental_uris": {"ios": "https://dc.lft.to/lastmile_qr_scan", "android": "https://dc.lft.to/lastmile_qr_scan"}, "lon": -77.01377783333334, "bike_id": "deaa32b160c4f49a83f883b769038ed9", "type": "electric_scooter", "name": "deaa32b160c4f49a83f883b769038ed9"}, {"is_disabled": 0, "is_reserved": 0, "fusion_lat": 0.0, "lat": 38.922396, "fusion_lon": 0.0, "rental_uris": {"ios": "https://dc.lft.to/lastmile_qr_scan", "android": "https://dc.lft.to/lastmile_qr_scan"},