{"data": {"bikes": [{"lon": -77.03933966666666, "rental_uris": {"android": "https://dc.lft.to/lastmile_qr_scan", "ios": "https://dc.lft.to/lastmile_qr_scan"}, "fusion_lon": 0.0, "is_reserved": 0, "is_disabled": 0, "fusion_lat": 0.0, "type": "electric_scooter", "name": "f0a0c7aa82ba0562944a321c7057c58e", "lat": 38.90159366666666, "bike_id": "f0a0c7aa82ba0562944a321c7057c58e"}, {"lon": -77.00071533333333, "rental_uris": {"android": "https://dc.lft.to/lastmile_qr_scan", "ios": "https://dc.lft.to/lastmile_qr_scan"}, "fusion_lon": 0.0, "is_reserved": 0, "is_disabled": 0, "fusion_lat": 0.0, "type": "electric_scooter", "name": "2d7ef9eb555c52cf7c6b726326f97dee", "lat": 38.923914833333335, "bike_id": "2d7ef9eb555c52cf7c6b726326f97dee"}, {"lon": -77.03286316666667, "rental_uris": {"android": "https://dc.lft.to/lastmile_qr_scan", "ios": "https://dc.lft.to/lastmile_qr_scan"}, "fusion_lon": 0.0, "is_reserved": 0, "is_disabled": 0, "fusion_lat": 0.0, "type": "electric_scooter", "name": "438886f73e3fe7d2f55771ddee06f4e3", "lat": 38.937971, "bike_id": "438886f73e3fe7d2f55771ddee06f4e3"}, {"lon": -77.0415095, "rental_uris": {"android": "https://dc.lft.to/lastmile_qr_scan", "ios": "https://dc.lft.to/lastmile_qr_scan"}, "fusion_lon": 0.0, "is_reserved": 0, "is_disabled": 0, "fusion_lat": 0.0, "type": "electric_scooter", "name": "303126265592a4b8759a378b05bd457f", "lat": 38.90683083333333, "bike_id": "303126265592a4b8759a378b05bd457f"}, {"lon": -77.00478683333333, "rental_uris": {"android": "https://dc.lft.to/lastmile_qr_scan", "ios": "https://dc.lft.to/lastmile_qr_scan"}, "fusion_lon": 0.0, "is_reserved": 0, "is_disabled": 0, "fusion_lat": 0.0, "type": "electric_scooter", "name": "eefedd4f799b018167e28c05718a7115", "lat": 38.8851095, "bike_id": "eefedd4f799b018167e28c05718a7115"}, {"lon": -77.013715, "rental_uris": {"android": "https://dc.lft.to/lastmile_qr_scan", "ios": "https://dc.lft.to/lastmile_qr_scan"}, "fusion_lon": 0.0, "is_reserved": 0, "is_disabled": 0, "fusion_lat": 0.0, "type": "electric_scooter", "name": "44d2c8baadd34b3fa49bab42b9687a58", "lat": 38.9287455, "bike_id": "44d2c8baadd34b3fa49bab42b9687a58"}, {"lon": -77.003686, "rental_uris": {"android": "https://dc.lft.to/lastmile_qr_scan", "ios": "https://dc.lft.to/lastmile_qr_scan"}, "fusion_lon": 0.0, "is_reserved": 0, "is_disabled": 0, "fusion_lat": 0.0, "type": "electric_scooter", "name": "27e72476185e7dde7767b5e4c7d405a3", "lat": 38.8963335, "bike_id": "27e72476185e7dde7767b5e4c7d405a3"}, {"lon": -77.02996933333333, "rental_uris": {"android": "https://dc.lft.to/lastmile_qr_scan", "ios": "https://dc.lft.to/lastmile_qr_scan"}, "fusion_lon": 0.0, "is_reserved": 0, "is_disabled": 0, "fusion_lat": 0.0, "type": "electric_scooter", "name": "eab0643bb6d8893219bc6efec51a8bfe", "lat": 38.90013783333333, "bike_id": "eab0643bb6d8893219bc6efec51a8bfe"}, {"lon": -77.0428145, "rental_uris": {"android": "https://dc.lft.to/lastmile_qr_scan", "ios": "https://dc.lft.to/lastmile_qr_scan"}, "fusion_lon": 0.0, "is_reserved": 0, "is_disabled": 0, "fusion_lat": 0.0, "type": "electric_scooter", "name": "0c694cdb0d863187749516d2fdca5512", "lat": 38.934207, "bike_id": "0c694cdb0d863187749516d2fdca5512"}, {"lon": -77.03671116666666, "rental_uris": {"android": "https://dc.lft.to/lastmile_qr_scan", "ios": "https://dc.lft.to/lastmile_qr_scan"}, "fusion_lon": 0.0, "is_reserved": 0, "is_disabled": 0, "fusion_lat": 0.0, "type": "electric_scooter", "name": "709517646373fbd8f27c483370c3105f", "lat": 38.918162, "bike_id": "709517646373fbd8f27c483370c3105f"}, {"lon": -77.00288233333333, "rental_uris": {"android": "https://dc.lft.to/lastmile_qr_scan", "ios": "https://dc.lft.to/lastmile_qr_scan"}, "fusion_lon": 0.0, "is_reserved": 0, "is_disabled": 0, "fusion_lat": 0.0, "type": "electric_scooter", "name": "070271f872489ab4b003914d7147ca9c", "lat": 38.920252833333336, "bike_id": "070271f872489ab4b003914d7147ca9c"}, {"lon": -77.04373816666667, "rental_uris": {"android": "https://dc.lft.to/lastmile_qr_scan", "ios": "https://dc.lft.to/lastmile_qr_scan"}, "fusion_lon": 0.0, "is_reserved": 0, "is_disabled": 0, "fusion_lat": 0.0, "type": "electric_scooter", "name": "62cfd9523fbb8e3444eebf83802f4787", "lat": 38.90392583333333, "bike_id": "62cfd9523fbb8e3444eebf83802f4787"}, {"lon": -77.05782766666667, "rental_uris": {"android": "https://dc.lft.to/lastmile_qr_scan", "ios": "https://dc.lft.to/lastmile_qr_scan"}, "fusion_lon": 0.0, "is_reserved": 0, "is_disabled": 0, "fusion_lat": 0.0, "type": "electric_scooter", "name": "e8c5486904989618eaef135272e4e486", "lat": 38.905070333333335, "bike_id": "e8c5486904989618eaef135272e4e486"}, {"lon": -76.95098033333333, "rental_uris": {"android": "https://dc.lft.to/lastmile_qr_scan", "ios": "https://dc.lft.to/lastmile_qr_scan"}, "fusion_lon": 0.0, "is_reserved": 0, "is_disabled": 0, "fusion_lat": 0.0, "type": "electric_scooter", "name": "5a4b5627aae8d31b74dc65018e939e57", "lat": 38.88447083333333, "bike_id": "5a4b5627aae8d31b74dc65018e939e57"}, {"lon": -76.97800416666666, "rental_uris": {"android": "https://dc.lft.to/lastmile_qr_scan", "ios": "https://dc.lft.to/lastmile_qr_scan"}, "fusion_lon": 0.0, "is_reserved": 0, "is_disabled": 0, "fusion_lat": 0.0, "type": "electric_scooter", "name": "a6a26b351417ce2ee5586d894c1f0b8f", "lat": 38.906326, "bike_id": "a6a26b351417ce2ee5586d894c1f0b8f"}, {"lon": -76.9816225, "rental_uris": {"android": "https://dc.lft.to/lastmile_qr_scan", "ios": "https://dc.lft.to/lastmile_qr_scan"}, "fusion_lon": 0.0, "is_reserved": 0, "is_disabled": 0, "fusion_lat": 0.0, "type": "electric_scooter", "name": "454ee04119729c357400a1146f8c1a72", "lat": 38.898376999999996, "bike_id": "454ee04119729c357400a1146f8c1a72"}, {"lon": -77.03674683333334, "rental_uris": {"android": "https://dc.lft.to/lastmile_qr_scan", "ios": "https://dc.lft.to/lastmile_qr_scan"}, "fusion_lon": 0.0, "is_reserved": 0, "is_disabled": 0, "fusion_lat": 0.0, "type": "electric_scooter", "name": "92f01ab0eeebfc8bec62a80c21326e4e", "lat": 38.900316833333335, "bike_id": "92f01ab0eeebfc8bec62a80c21326e4e"}, {"lon": -77.03351833333333, "rental_uris": {"android": "https://dc.lft.to/lastmile_qr_scan", "ios": "https://dc.lft.to/lastmile_qr_scan"}, "fusion_lon": 0.0, "is_reserved": 0, "is_disabled": 0, "fusion_lat": 0.0, "type": "electric_scooter", "name": "79f889d386d478ec6c2d5d5051a7dcc2", "lat": 38.89242516666667, "bike_id": "79f889d386d478ec6c2d5d5051a7dcc2"}, {"lon": -77.04887016666666, "rental_uris": {"android": "https://dc.lft.to/lastmile_qr_scan", "ios": "https://dc.lft.to/lastmile_qr_scan"}, "fusion_lon": 0.0, "is_reserved": 0, "is_disabled": 0, "fusion_lat": 0.0, "type": "electric_scooter", "name": "5b3eb8316c183e94c9437f3a1f4bee55", "lat": 38.898838166666664, "bike_id": "5b3eb8316c183e94c9437f3a1f4bee55"}, {"lon": -77.00120833333334, "rental_uris": {"android": "https://dc.lft.to/lastmile_qr_scan", "ios": "https://dc.lft.to/lastmile_qr_scan"}, "fusion_lon": 0.0, "is_reserved": 0, "is_disabled": 0, "fusion_lat": 0.0, "type": "electric_scooter", "name": "be78eb7b445dc00bc6ec544f66c53347", "lat": 38.9076515, "bike_id": "be78eb7b445dc00bc6ec544f66c53347"}, {"lon": -77.02849766666667, "rental_uris": {"android": "https://dc.lft.to/lastmile_qr_scan", "ios": "https://dc.lft.to/lastmile_qr_scan"}, "fusion_lon": 0.0, "is_reserved": 0, "is_disabled": 0, "fusion_lat": 0.0, "type": "electric_scooter", "name": "abd99d9596330505836ea072f152943d", "lat": 38.935838833333335, "bike_id": "abd99d9596330505836ea072f152943d"}, {"lon": -77.06082316666667, "rental_uris": {"android": "https://dc.lft.to/lastmile_qr_scan", "ios": "https://dc.lft.to/lastmile_qr_scan"}, "fusion_lon": 0.0, "is_reserved": 0, "is_disabled": 0, "fusion_lat": 0.0, "type": "electric_scooter", "name": "cfb30e5ea2cb0141588ebe092d83dc54", "lat": 38.90238683333333, "bike_id": "cfb30e5ea2cb0141588ebe092d83dc54"}, {"lon": -77.0382355, "rental_uris": {"android": "https://dc.lft.to/lastmile_qr_scan", "ios": "https://dc.lft.to/lastmile_qr_scan"}, "fusion_lon": 0.0, "is_reserved": 0, "is_disabled": 0, "fusion_lat": 0.0, "type": "electric_scooter", "name": "e6086bbf54e89d62ce82ac44e8e9b530", "lat": 38.90042183333333, "bike_id": "e6086bbf54e89d62ce82ac44e8e9b530"}, {"lon": -77.04150916666667, "rental_uris": {"android": "https://dc.lft.to/lastmile_qr_scan", "ios": "https://dc.lft.to/lastmile_qr_scan"}, "fusion_lon": 0.0, "is_reserved": 0, "is_disabled": 0, "fusion_lat": 0.0, "type": "electric_scooter", "name": "416eb5b2209b28dd1bfb4fbf92c82a00", "lat": 38.92334783333333, "bike_id": "416eb5b2209b28dd1bfb4fbf92c82a00"}, {"lon": -77.0290035, "rental_uris": {"android": "https://dc.lft.to/lastmile_qr_scan", "ios": "https://dc.lft.to/lastmile_qr_scan"}, "fusion_lon": 0.0, "is_reserved": 0, "is_disabled": 0, "fusion_lat": 0.0, "type": "electric_scooter", "name": "4f495a5f92ed72f884016384f846d0e0", "lat": 38.916919666666665, "bike_id": "4f495a5f92ed72f884016384f846d0e0"}, {"lon": -77.03705566666666, "rental_uris": {"android": "https://dc.lft.to/lastmile_qr_scan", "ios": "https://dc.lft.to/lastmile_qr_scan"}, "fusion_lon": 0.0, "is_reserved": 0, "is_disabled": 0, "fusion_lat": 0.0, "type": "electric_scooter", "name": "4b66678429d088a7a4c9c5061ee1fe16", "lat": 38.926462666666666, "bike_id": "4b66678429d088a7a4c9c5061ee1fe16"}, {"lon": -77.02883533333333, "rental_uris": {"android": "https://dc.lft.to/lastmile_qr_scan", "ios": "https://dc.lft.to/lastmile_qr_scan"}, "fusion_lon": 0.0, "is_reserved": 0, "is_disabled": 0, "fusion_lat": 0.0, "type": "electric_scooter", "name": "de970a00c403ec2b481da97035f8e61b", "lat": 38.96077233333333, "bike_id": "de970a00c403ec2b481da97035f8e61b"}, {"lon": -77.07064666666666, "rental_uris": {"android": "https://dc.lft.to/lastmile_qr_scan", "ios": "https://dc.lft.to/lastmile_qr_scan"}, "fusion_lon": 0.0, "is_reserved": 0, "is_disabled": 0, "fusion_lat": 0.0, "type": "electric_bike", "name": "afb2c6ec3eedc6f291e7eb0c9c8691bd", "lat": 38.90591666666667, "bike_id": "afb2c6ec3eedc6f291e7eb0c9c8691bd"}, {"lon": -77.021548, "rental_uris": {"android": "https://dc.lft.to/lastmile_qr_scan", "ios": "https://dc.lft.to/lastmile_qr_scan"}, "fusion_lon": 0.0, "is_reserved": 0, "is_disabled": 0, "fusion_lat": 0.0, "type": "electric_scooter", "name": "50e6c90effc2fa87f5ea5d65a7dcef12", "lat": 38.926033, "bike_id": "50e6c90effc2fa87f5ea5d65a7dcef12"}, {"lon": -76.99533533333333, "rental_uris": {"android": "https://dc.lft.to/lastmile_qr_scan", "ios": "https://dc.lft.to/lastmile_qr_scan"}, "fusion_lon": 0.0, "is_reserved": 0, "is_disabled": 0, "fusion_lat": 0.0, "type": "electric_scooter", "name": "3e589f31829f2931fcba6caf7a498023", "lat": 38.862661833333334, "bike_id": "3e589f31829f2931fcba6caf7a498023"}, {"lon": -77.02493016666666, "rental_uris": {"android": "https://dc.lft.to/lastmile_qr_scan", "ios": "https://dc.lft.to/lastmile_qr_scan"}, "fusion_lon": 0.0, "is_reserved": 0, "is_disabled": 0, "fusion_lat": 0.0, "type": "electric_scooter", "name": "24dad3266836652d40ed88979500a2e8", "lat": 38.93895216666667, "bike_id": "24dad3266836652d40ed88979500a2e8"}, {"lon": -77.04337666666666, "rental_uris": {"android": "https://dc.lft.to/lastmile_qr_scan", "ios": "https://dc.lft.to/lastmile_qr_scan"}, "fusion_lon": 0.0, "is_reserved": 0, "is_disabled": 0, "fusion_lat": 0.0, "type": "electric_scooter", "name": "aa1c1e14fac41ed0583148ffc08511d7", "lat": 38.892219, "bike_id": "aa1c1e14fac41ed0583148ffc08511d7"}, {"lon": -76.90742333333333, "rental_uris": {"android": "https://dc.lft.to/lastmile_qr_scan", "ios": "https://dc.lft.to/lastmile_qr_scan"}, "fusion_lon": 0.0, "is_reserved": 0, "is_disabled": 0, "fusion_lat": 0.0, "type": "electric_bike", "name": "3c957d7123b5dc742a217bf8fb370afa", "lat": 38.896185833333334, "bike_id": "3c957d7123b5dc742a217bf8fb370afa"}, {"lon": -77.00197083333333, "rental_uris": {"android": "https://dc.lft.to/lastmile_qr_scan", "ios": "https://dc.lft.to/lastmile_qr_scan"}, "fusion_lon": 0.0, "is_reserved": 0, "is_disabled": 0, "fusion_lat": 0.0, "type": "electric_scooter", "name": "435d9963a417bdd09b411fb925f2d091", "lat": 38.9116085, "bike_id": "435d9963a417bdd09b411fb925f2d091"}, {"lon": -77.00727866666666, "rental_uris": {"android": "https://dc.lft.to/lastmile_qr_scan", "ios": "https://dc.lft.to/lastmile_qr_scan"}, "fusion_lon": 0.0, "is_reserved": 0, "is_disabled": 0, "fusion_lat": 0.0, "type": "electric_scooter", "name": "110e1c28a391eb7c249dbfeac89f8f2c", "lat": 38.87847266666667, "bike_id": "110e1c28a391eb7c249dbfeac89f8f2c"}, {"lon": -77.000722, "rental_uris": {"android": "https://dc.lft.to/lastmile_qr_scan", "ios": "https://dc.lft.to/lastmile_qr_scan"}, "fusion_lon": 0.0, "is_reserved": 0, "is_disabled": 0, "fusion_lat": 0.0, "type": "electric_scooter", "name": "a860622bfd78d14716fed202fbdc463b", "lat": 38.876880666666665, "bike_id": "a860622bfd78d14716fed202fbdc463b"}, {"lon": -77.04006916666667, "rental_uris": {"android": "https://dc.lft.to/lastmile_qr_scan", "ios": "https://dc.lft.to/lastmile_qr_scan"}, "fusion_lon": 0.0, "is_reserved": 0, "is_disabled": 0, "fusion_lat": 0.0, "type": "electric_scooter", "name": "7a24b5ad9aec7039ef4011ee31dea4f2", "lat": 38.93430333333333, "bike_id": "7a24b5ad9aec7039ef4011ee31dea4f2"}, {"lon": -77.06525933333333, "rental_uris": {"android": "https://dc.lft.to/lastmile_qr_scan", "ios": "https://dc.lft.to/lastmile_qr_scan"}, "fusion_lon": 0.0, "is_reserved": 0, "is_disabled": 0, "fusion_lat": 0.0, "type": "electric_scooter", "name": "270d7d715b02fe3b96d2e88e081fe6cc", "lat": 38.924164833333336, "bike_id": "270d7d715b02fe3b96d2e88e081fe6cc"}, {"lon": -77.01226016666666, "rental_uris": {"android": "https://dc.lft.to/lastmile_qr_scan", "ios": "https://dc.lft.to/lastmile_qr_scan"}, "fusion_lon": 0.0, "is_reserved": 0, "is_disabled": 0, "fusion_lat": 0.0, "type": "electric_scooter", "name": "a3f97977f1829e114ab53ed77eb2ffed", "lat": 38.92034233333333, "bike_id": "a3f97977f1829e114ab53ed77eb2ffed"}, {"lon": -77.01945866666667, "rental_uris": {"android": "https://dc.lft.to/lastmile_qr_scan", "ios": "https://dc.lft.to/lastmile_qr_scan"}, "fusion_lon": 0.0, "is_reserved": 0, "is_disabled": 0, "fusion_lat": 0.0, "type": "electric_scooter", "name": "0554d4b714b8c8f30a25352bbd3d5ff6", "lat": 38.92421316666667, "bike_id": "0554d4b714b8c8f30a25352bbd3d5ff6"}, {"lon": -77.05166666666666, "rental_uris": {"android": "https://dc.lft.to/lastmile_qr_scan", "ios": "https://dc.lft.to/lastmile_qr_scan"}, "fusion_lon": 0.0, "is_reserved": 0, "is_disabled": 0, "fusion_lat": 0.0, "type": "electric_bike", "name": "3848b57eaa9bdec5d22054e16af5aa5e", "lat": 39.03718383333333, "bike_id": "3848b57eaa9bdec5d22054e16af5aa5e"}, {"lon": -77.0712125, "rental_uris": {"android": "https://dc.lft.to/lastmile_qr_scan", "ios": "https://dc.lft.to/lastmile_qr_scan"}, "fusion_lon": 0.0, "is_reserved": 0, "is_disabled": 0, "fusion_lat": 0.0, "type": "electric_scooter", "name": "edf3bcf4d33b42024c0f13368a4fd79c", "lat": 38.9197165, "bike_id": "edf3bcf4d33b42024c0f13368a4fd79c"}, {"lon": -77.04238566666666, "rental_uris": {"android": "https://dc.lft.to/lastmile_qr_scan", "ios": "https://dc.lft.to/lastmile_qr_scan"}, "fusion_lon": 0.0, "is_reserved": 0, "is_disabled": 0, "fusion_lat": 0.0, "type": "electric_scooter", "name": "fd8f4c0db0ff2b6f0ca5663820b7f975", "lat": 38.911826833333336, "bike_id": "fd8f4c0db0ff2b6f0ca5663820b7f975"}, {"lon": -77.03929316666667, "rental_uris": {"android": "https://dc.lft.to/lastmile_qr_scan", "ios": "https://dc.lft.to/lastmile_qr_scan"}, "fusion_lon": 0.0, "is_reserved": 0, "is_disabled": 0, "fusion_lat": 0.0, "type": "electric_scooter", "name": "56b6af3784c48f1f1ddbf780d0ec000c", "lat": 38.918058333333335, "bike_id": "56b6af3784c48f1f1ddbf780d0ec000c"}, {"lon": -76.9777545, "rental_uris": {"android": "https://dc.lft.to/lastmile_qr_scan", "ios": "https://dc.lft.to/lastmile_qr_scan"}, "fusion_lon": 0.0, "is_reserved": 0, "is_disabled": 0, "fusion_lat": 0.0, "type": "electric_bike", "name": "0427a2df78128d9ec8eebb9afd75f546", "lat": 38.8572605, "bike_id": "0427a2df78128d9ec8eebb9afd75f546"}, {"lon": -77.0221425, "rental_uris": {"android": "https://dc.lft.to/lastmile_qr_scan", "ios": "https://dc.lft.to/lastmile_qr_scan"}, "fusion_lon": 0.0, "is_reserved": 0, "is_disabled": 0, "fusion_lat": 0.0, "type": "electric_scooter", "name": "efe70df15b366dec8edfd06b6d70e1ec", "lat": 38.90358366666667, "bike_id": "efe70df15b366dec8edfd06b6d70e1ec"}, {"lon": -77.03872816666667, "rental_uris": {"android": "https://dc.lft.to/lastmile_qr_scan", "ios": "https://dc.lft.to/lastmile_qr_scan"}, "fusion_lon": 0.0, "is_reserved": 0, "is_disabled": 0, "fusion_lat": 0.0, "type": "electric_scooter", "name": "76464692f70720599efe12a13110e383", "lat": 38.90365083333333, "bike_id": "76464692f70720599efe12a13110e383"}, {"lon": -77.06740716666667, "rental_uris": {"android": "https://dc.lft.to/lastmile_qr_scan", "ios": "https://dc.lft.to/lastmile_qr_scan"}, "fusion_lon": 0.0, "is_reserved": 0, "is_disabled": 0, "fusion_lat": 0.0, "type": "electric_scooter", "name": "08d965b2bfdccf33e5c07ace8a33d36d", "lat": 38.905075, "bike_id": "08d965b2bfdccf33e5c07ace8a33d36d"}, {"lon": -77.01396233333334, "rental_uris": {"android": "https://dc.lft.to/lastmile_qr_scan", "ios": "https://dc.lft.to/lastmile_qr_scan"}, "fusion_lon": 0.0, "is_reserved": 0, "is_disabled": 0, "fusion_lat": 0.0, "type": "electric_scooter", "name": "5c51509e0c409bff560f0a76a9999a51", "lat": 38.974695, "bike_id": "5c51509e0c409bff560f0a76a9999a51"}, {"lon": -77.03206316666666, "rental_uris": {"android": "https://dc.lft.to/lastmile_qr_scan", "ios": "https://dc.lft.to/lastmile_qr_scan"}, "fusion_lon": 0.0, "is_reserved": 0, "is_disabled": 0, "fusion_lat": 0.0, "type": "electric_scooter", "name": "f541e787a2894ec3446f6626838e70f1", "lat": 38.925830166666664, "bike_id": "f541e787a2894ec3446f6626838e70f1"}, {"lon": -77.048289, "rental_uris": {"android": "https://dc.lft.to/lastmile_qr_scan", "ios": "https://dc.lft.to/lastmile_qr_scan"}, "fusion_lon": 0.0, "is_reserved": 0, "is_disabled": 0, "fusion_lat": 0.0, "type": "electric_scooter", "name": "8d628a2316e7a19a0488c99fe963947a", "lat": 38.90953283333333, "bike_id": "8d628a2316e7a19a0488c99fe963947a"}, {"lon": -77.02334083333334, "rental_uris": {"android": "https://dc.lft.to/lastmile_qr_scan", "ios": "https://dc.lft.to/lastmile_qr_scan"}, "fusion_lon": 0.0, "is_reserved": 0, "is_disabled": 0, "fusion_lat": 0.0, "type": "electric_scooter", "name": "4d94ef5ed7b42ef623cea547651c5fea", "lat": 38.9128315, "bike_id": "4d94ef5ed7b42ef623cea547651c5fea"}, {"lon": -76.91719083333334, "rental_uris": {"android": "https://dc.lft.to/lastmile_qr_scan", "ios": "https://dc.lft.to/lastmile_qr_scan"}, "fusion_lon": 0.0, "is_reserved": 0, "is_disabled": 0, "fusion_lat": 0.0, "type": "electric_bike", "name": "af4809b9725157ecb367e966676f1b18", "lat": 38.880274166666666, "bike_id": "af4809b9725157ecb367e966676f1b18"}, {"lon": -77.05044966666667, "rental_uris": {"android": "https://dc.lft.to/lastmile_qr_scan", "ios": "https://dc.lft.to/lastmile_qr_scan"}, "fusion_lon": 0.0, "is_reserved": 0, "is_disabled": 0, "fusion_lat": 0.0, "type": "electric_scooter", "name": "146c0f4aadd12e53ea6da4c73d64485b", "lat": 38.92362166666667, "bike_id": "146c0f4aadd12e53ea6da4c73d64485b"}, {"lon": -76.99159733333333, "rental_uris": {"android": "https://dc.lft.to/lastmile_qr_scan", "ios": "https://dc.lft.to/lastmile_qr_scan"}, "fusion_lon": 0.0, "is_reserved": 0, "is_disabled": 0, "fusion_lat": 0.0, "type": "electric_scooter", "name": "0ea17a8cf67e822aa1cec8b645b75fe4", "lat": 38.89775216666666, "bike_id": "0ea17a8cf67e822aa1cec8b645b75fe4"}, {"lon": -77.04713816666667, "rental_uris": {"android": "https://dc.lft.to/lastmile_qr_scan", "ios": "https://dc.lft.to/lastmile_qr_scan"}, "fusion_lon": 0.0, "is_reserved": 0, "is_disabled": 0, "fusion_lat": 0.0, "type": "electric_bike", "name": "df61e1e031739b77c4d8eb2451158a2f", "lat": 39.024014333333334, "bike_id": "df61e1e031739b77c4d8eb2451158a2f"}, {"lon": -77.04035066666667, "rental_uris": {"android": "https://dc.lft.to/lastmile_qr_scan", "ios": "https://dc.lft.to/lastmile_qr_scan"}, "fusion_lon": 0.0, "is_reserved": 0, "is_disabled": 0, "fusion_lat": 0.0, "type": "electric_scooter", "name": "cf063cdcccea55450bf0e8d1c3410f94", "lat": 38.89896133333333, "bike_id": "cf063cdcccea55450bf0e8d1c3410f94"}, {"lon": -77.039083, "rental_uris": {"android": "https://dc.lft.to/lastmile_qr_scan", "ios": "https://dc.lft.to/lastmile_qr_scan"}, "fusion_lon": 0.0, "is_reserved": 0, "is_disabled": 0, "fusion_lat": 0.0, "type": "electric_scooter", "name": "a961dfa4d2a8380181aea5ee2a76f37a", "lat": 38.916949333333335, "bike_id": "a961dfa4d2a8380181aea5ee2a76f37a"}, {"lon": -77.0282475, "rental_uris": {"android": "https://dc.lft.to/lastmile_qr_scan", "ios": "https://dc.lft.to/lastmile_qr_scan"}, "fusion_lon": 0.0, "is_reserved": 0, "is_disabled": 0, "fusion_lat": 0.0, "type": "electric_scooter", "name": "fb6b212d7b054db2a7e498cc32cb77b0", "lat": 38.92970316666667, "bike_id": "fb6b212d7b054db2a7e498cc32cb77b0"}, {"lon": -77.011438, "rental_uris": {"android": "https://dc.lft.to/lastmile_qr_scan", "ios": "https://dc.lft.to/lastmile_qr_scan"}, "fusion_lon": 0.0, "is_reserved": 0, "is_disabled": 0, "fusion_lat": 0.0, "type": "electric_scooter", "name": "ed0be4f23b7662a304ed0c8b98b0f385", "lat": 38.8833385, "bike_id": "ed0be4f23b7662a304ed0c8b98b0f385"}, {"lon": -77.04016166666666, "rental_uris": {"android": "https://dc.lft.to/lastmile_qr_scan", "ios": "https://dc.lft.to/lastmile_qr_scan"}, "fusion_lon": 0.0, "is_reserved": 0, "is_disabled": 0, "fusion_lat": 0.0, "type": "electric_scooter", "name": "dd1327744b0b7c9f21dd402d851cca5a", "lat": 38.9032415, "bike_id": "dd1327744b0b7c9f21dd402d851cca5a"}, {"lon": -77.04745766666667, "rental_uris": {"android": "https://dc.lft.to/lastmile_qr_scan", "ios": "https://dc.lft.to/lastmile_qr_scan"}, "fusion_lon": 0.0, "is_reserved": 0, "is_disabled": 0, "fusion_lat": 0.0, "type": "electric_scooter", "name": "831870aa52736e7a35bf9c5b52ce396a", "lat": 38.90519883333333, "bike_id": "831870aa52736e7a35bf9c5b52ce396a"}, {"lon": -76.98986516666666, "rental_uris": {"android": "https://dc.lft.to/lastmile_qr_scan", "ios": "https://dc.lft.to/lastmile_qr_scan"}, "fusion_lon": 0.0, "is_reserved": 0, "is_disabled": 0, "fusion_lat": 0.0, "type": "electric_scooter", "name": "81c7c39ce34bcb3153e146b9ad25a7be", "lat": 38.924420833333336, "bike_id": "81c7c39ce34bcb3153e146b9ad25a7be"}, {"lon": -77.01759266666667, "rental_uris": {"android": "https://dc.lft.to/lastmile_qr_scan", "ios": "https://dc.lft.to/lastmile_qr_scan"}, "fusion_lon": 0.0, "is_reserved": 0, "is_disabled": 0, "fusion_lat": 0.0, "type": "electric_scooter", "name": "4a5db65a247f7daacd8d522339ed0327", "lat": 38.877236, "bike_id": "4a5db65a247f7daacd8d522339ed0327"}, {"lon": -77.05270166666666, "rental_uris": {"android": "https://dc.lft.to/lastmile_qr_scan", "ios": "https://dc.lft.to/lastmile_qr_scan"}, "fusion_lon": 0.0, "is_reserved": 0, "is_disabled": 0, "fusion_lat": 0.0, "type": "electric_scooter", "name": "df93c7e265eb4f200c64812f1ac80548", "lat": 38.927591166666666, "bike_id": "df93c7e265eb4f200c64812f1ac80548"}, {"lon": -76.99815833333334, "rental_uris": {"android": "https://dc.lft.to/lastmile_qr_scan", "ios": "https://dc.lft.to/lastmile_qr_scan"}, "fusion_lon": 0.0, "is_reserved": 0, "is_disabled": 0, "fusion_lat": 0.0, "type": "electric_bike", "name": "6c97eec5deb3c1e37f5b04a363539051", "lat": 38.81979416666667, "bike_id": "6c97eec5deb3c1e37f5b04a363539051"}, {"lon": -76.92660066666667, "rental_uris": {"android": "https://dc.lft.to/lastmile_qr_scan", "ios": "https://dc.lft.to/lastmile_qr_scan"}, "fusion_lon": 0.0, "is_reserved": 0, "is_disabled": 0, "fusion_lat": 0.0, "type": "electric_scooter", "name": "1bbc4b39ad849851bfb5521f04c64bdb", "lat": 38.89176283333333, "bike_id": "1bbc4b39ad849851bfb5521f04c64bdb"}, {"lon": -77.03635316666667, "rental_uris": {"android": "https://dc.lft.to/lastmile_qr_scan", "ios": "https://dc.lft.to/lastmile_qr_scan"}, "fusion_lon": 0.0, "is_reserved": 0, "is_disabled": 0, "fusion_lat": 0.0, "type": "electric_scooter", "name": "dfb85a175fceaeaae07666c93f4b1450", "lat": 38.916199, "bike_id": "dfb85a175fceaeaae07666c93f4b1450"}, {"lon": -77.01227266666666, "rental_uris": {"android": "https://dc.lft.to/lastmile_qr_scan", "ios": "https://dc.lft.to/lastmile_qr_scan"}, "fusion_lon": 0.0, "is_reserved": 0, "is_disabled": 0, "fusion_lat": 0.0, "type": "electric_scooter", "name": "82ec95471f794d36e9c813e693f64c5f", "lat": 38.898222833333335, "bike_id": "82ec95471f794d36e9c813e693f64c5f"}, {"lon": -77.02259133333334, "rental_uris": {"android": "https://dc.lft.to/lastmile_qr_scan", "ios": "https://dc.lft.to/lastmile_qr_scan"}, "fusion_lon": 0.0, "is_reserved": 0, "is_disabled": 0, "fusion_lat": 0.0, "type": "electric_scooter", "name": "dcb1f72e400defb998fe0c3755daa32c", "lat": 38.92507283333333, "bike_id": "dcb1f72e400defb998fe0c3755daa32c"}, {"lon": -77.04328366666667, "rental_uris": {"android": "https://dc.lft.to/lastmile_qr_scan", "ios": "https://dc.lft.to/lastmile_qr_scan"}, "fusion_lon": 0.0, "is_reserved": 0, "is_disabled": 0, "fusion_lat": 0.0, "type": "electric_scooter", "name": "c1adfec231910bf540af9b057ec90b4b", "lat": 38.89220916666667, "bike_id": "c1adfec231910bf540af9b057ec90b4b"}, {"lon": -76.98775266666667, "rental_uris": {"android": "https://dc.lft.to/lastmile_qr_scan", "ios": "https://dc.lft.to/lastmile_qr_scan"}, "fusion_lon": 0.0, "is_reserved": 0, "is_disabled": 0, "fusion_lat": 0.0, "type": "electric_scooter", "name": "be9a46b77fbe541d439a7414f226ff95", "lat": 38.91201183333333, "bike_id": "be9a46b77fbe541d439a7414f226ff95"}, {"lon": -77.0503865, "rental_uris": {"android": "https://dc.lft.to/lastmile_qr_scan", "ios": "https://dc.lft.to/lastmile_qr_scan"}, "fusion_lon": 0.0, "is_reserved": 0, "is_disabled": 0, "fusion_lat": 0.0, "type": "electric_scooter", "name": "ae7c548ecbd3d130dfad747fab556537", "lat": 38.92519133333333, "bike_id": "ae7c548ecbd3d130dfad747fab556537"}, {"lon": -77.04347433333334, "rental_uris": {"android": "https://dc.lft.to/lastmile_qr_scan", "ios": "https://dc.lft.to/lastmile_qr_scan"}, "fusion_lon": 0.0, "is_reserved": 0, "is_disabled": 0, "fusion_lat": 0.0, "type": "electric_scooter", "name": "816d6af7756644f2f94b9663d589e7d7", "lat": 38.908077666666664, "bike_id": "816d6af7756644f2f94b9663d589e7d7"}, {"lon": -77.047626, "rental_uris": {"android": "https://dc.lft.to/lastmile_qr_scan", "ios": "https://dc.lft.to/lastmile_qr_scan"}, "fusion_lon": 0.0, "is_reserved": 0, "is_disabled": 0, "fusion_lat": 0.0, "type": "electric_scooter", "name": "fdd843faf3adb8a01675635ef1234869", "lat": 38.895833, "bike_id": "fdd843faf3adb8a01675635ef1234869"}, {"lon": -77.03285583333333, "rental_uris": {"android": "https://dc.lft.to/lastmile_qr_scan", "ios": "https://dc.lft.to/lastmile_qr_scan"}, "fusion_lon": 0.0, "is_reserved": 0, "is_disabled": 0, "fusion_lat": 0.0, "type": "electric_scooter", "name": "6bdaf9e16ea722a2665e194cad120d2c", "lat": 38.932533, "bike_id": "6bdaf9e16ea722a2665e194cad120d2c"}, {"lon": -77.03187033333333, "rental_uris": {"android": "https://dc.lft.to/lastmile_qr_scan", "ios": "https://dc.lft.to/lastmile_qr_scan"}, "fusion_lon": 0.0, "is_reserved": 0, "is_disabled": 0, "fusion_lat": 0.0, "type": "electric_scooter", "name": "d3da80f560778c69625b63331c72027e", "lat": 38.90039616666667, "bike_id": "d3da80f560778c69625b63331c72027e"}, {"lon": -77.0055705, "rental_uris": {"android": "https://dc.lft.to/lastmile_qr_scan", "ios": "https://dc.lft.to/lastmile_qr_scan"}, "fusion_lon": 0.0, "is_reserved": 0, "is_disabled": 0, "fusion_lat": 0.0, "type": "electric_scooter", "name": "1327427d5c3678f4a7fd003933487394", "lat": 38.8802975, "bike_id": "1327427d5c3678f4a7fd003933487394"}, {"lon": -77.03775466666667, "rental_uris": {"android": "https://dc.lft.to/lastmile_qr_scan", "ios": "https://dc.lft.to/lastmile_qr_scan"}, "fusion_lon": 0.0, "is_reserved": 0, "is_disabled": 0, "fusion_lat": 0.0, "type": "electric_scooter", "name": "5024663bc9f722229ecc19241949a561", "lat": 38.91686583333333, "bike_id": "5024663bc9f722229ecc19241949a561"}, {"lon": -77.0465305, "rental_uris": {"android": "https://dc.lft.to/lastmile_qr_scan", "ios": "https://dc.lft.to/lastmile_qr_scan"}, "fusion_lon": 0.0, "is_reserved": 0, "is_disabled": 0, "fusion_lat": 0.0, "type": "electric_scooter", "name": "8614225693cf916e3739a600bb27fc96", "lat": 38.892288666666666, "bike_id": "8614225693cf916e3739a600bb27fc96"}, {"lon": -77.0460045, "rental_uris": {"android": "https://dc.lft.to/lastmile_qr_scan", "ios": "https://dc.lft.to/lastmile_qr_scan"}, "fusion_lon": 0.0, "is_reserved": 0, "is_disabled": 0, "fusion_lat": 0.0, "type": "electric_scooter", "name": "a4290556d2d13a5df9caa1e2a0ef15fa", "lat": 38.902747, "bike_id": "a4290556d2d13a5df9caa1e2a0ef15fa"}, {"lon": -77.01800016666667, "rental_uris": {"android": "https://dc.lft.to/lastmile_qr_scan", "ios": "https://dc.lft.to/lastmile_qr_scan"}, "fusion_lon": 0.0, "is_reserved": 0, "is_disabled": 0, "fusion_lat": 0.0, "type": "electric_scooter", "name": "c17138260bf13c5c1484a56f9918ec52", "lat": 38.9013895, "bike_id": "c17138260bf13c5c1484a56f9918ec52"}, {"lon": -77.04022233333333, "rental_uris": {"android": "https://dc.lft.to/lastmile_qr_scan", "ios": "https://dc.lft.to/lastmile_qr_scan"}, "fusion_lon": 0.0, "is_reserved": 0, "is_disabled": 0, "fusion_lat": 0.0, "type": "electric_bike", "name": "ed51ec8b3805e231606ee7b0c9d04b16", "lat": 38.92367433333333, "bike_id": "ed51ec8b3805e231606ee7b0c9d04b16"}, {"lon": -77.03284833333333, "rental_uris": {"android": "https://dc.lft.to/lastmile_qr_scan", "ios": "https://dc.lft.to/lastmile_qr_scan"}, "fusion_lon": 0.0, "is_reserved": 0, "is_disabled": 0, "fusion_lat": 0.0, "type": "electric_scooter", "name": "112d8ecec389d865f8bf60a2d59c3d38", "lat": 38.937644666666664, "bike_id": "112d8ecec389d865f8bf60a2d59c3d38"}, {"lon": -77.07038816666666, "rental_uris": {"android": "https://dc.lft.to/lastmile_qr_scan", "ios": "https://dc.lft.to/lastmile_qr_scan"}, "fusion_lon": 0.0, "is_reserved": 0, "is_disabled": 0, "fusion_lat": 0.0, "type": "electric_scooter", "name": "4f505b7c2ed869c9a280904f46eaf61d", "lat": 38.907641166666664, "bike_id": "4f505b7c2ed869c9a280904f46eaf61d"}, {"lon": -77.04870516666666, "rental_uris": {"android": "https://dc.lft.to/lastmile_qr_scan", "ios": "https://dc.lft.to/lastmile_qr_scan"}, "fusion_lon": 0.0, "is_reserved": 0, "is_disabled": 0, "fusion_lat": 0.0, "type": "electric_scooter", "name": "69d52f5e98d74735cdda13b022e86312", "lat": 38.89223333333333, "bike_id": "69d52f5e98d74735cdda13b022e86312"}, {"lon": -77.04462616666666, "rental_uris": {"android": "https://dc.lft.to/lastmile_qr_scan", "ios": "https://dc.lft.to/lastmile_qr_scan"}, "fusion_lon": 0.0, "is_reserved": 0, "is_disabled": 0, "fusion_lat": 0.0, "type": "electric_scooter", "name": "0a1f5b03af1b25d0368f2a579111bec9", "lat": 38.90137933333333, "bike_id": "0a1f5b03af1b25d0368f2a579111bec9"}, {"lon": -76.99828966666666, "rental_uris": {"android": "https://dc.lft.to/lastmile_qr_scan", "ios": "https://dc.lft.to/lastmile_qr_scan"}, "fusion_lon": 0.0, "is_reserved": 0, "is_disabled": 0, "fusion_lat": 0.0, "type": "electric_scooter", "name": "32dd23e805d123672e47e5b21e3618ff", "lat": 38.885332, "bike_id": "32dd23e805d123672e47e5b21e3618ff"}, {"lon": -76.96705566666667, "rental_uris": {"android": "https://dc.lft.to/lastmile_qr_scan", "ios": "https://dc.lft.to/lastmile_qr_scan"}, "fusion_lon": 0.0, "is_reserved": 0, "is_disabled": 0, "fusion_lat": 0.0, "type": "electric_scooter", "name": "54955f146486591a485188dbe85a3964", "lat": 38.86016016666667, "bike_id": "54955f146486591a485188dbe85a3964"}, {"lon": -77.02742833333333, "rental_uris": {"android": "https://dc.lft.to/lastmile_qr_scan", "ios": "https://dc.lft.to/lastmile_qr_scan"}, "fusion_lon": 0.0, "is_reserved": 0, "is_disabled": 0, "fusion_lat": 0.0, "type": "electric_scooter", "name": "df3edee9be0290fc427a8fd73f48f70d", "lat": 38.897688, "bike_id": "df3edee9be0290fc427a8fd73f48f70d"}, {"lon": -77.04546933333333, "rental_uris": {"android": "https://dc.lft.to/lastmile_qr_scan", "ios": "https://dc.lft.to/lastmile_qr_scan"}, "fusion_lon": 0.0, "is_reserved": 0, "is_disabled": 0, "fusion_lat": 0.0, "type": "electric_scooter", "name": "0a178cb930b2f2f0e53765d0b5e680c1", "lat": 38.91102766666667, "bike_id": "0a178cb930b2f2f0e53765d0b5e680c1"}, {"lon": -77.0318885, "rental_uris": {"android": "https://dc.lft.to/lastmile_qr_scan", "ios": "https://dc.lft.to/lastmile_qr_scan"}, "fusion_lon": 0.0, "is_reserved": 0, "is_disabled": 0, "fusion_lat": 0.0, "type": "electric_scooter", "name": "fc3ac2a39ccba697aaeaed300af51101", "lat": 38.9094865, "bike_id": "fc3ac2a39ccba697aaeaed300af51101"}, {"lon": -77.05038566666667, "rental_uris": {"android": "https://dc.lft.to/lastmile_qr_scan", "ios": "https://dc.lft.to/lastmile_qr_scan"}, "fusion_lon": 0.0, "is_reserved": 0, "is_disabled": 0, "fusion_lat": 0.0, "type": "electric_scooter", "name": "dd92a2db646f03a19ffa9a9cd48ae558", "lat": 38.90625983333334, "bike_id": "dd92a2db646f03a19ffa9a9cd48ae558"}, {"lon": -77.02786783333333, "rental_uris": {"android": "https://dc.lft.to/lastmile_qr_scan", "ios": "https://dc.lft.to/lastmile_qr_scan"}, "fusion_lon": 0.0, "is_reserved": 0, "is_disabled": 0, "fusion_lat": 0.0, "type": "electric_scooter", "name": "dc7469fa037dba46943bc30996f60d5f", "lat": 38.97350083333333, "bike_id": "dc7469fa037dba46943bc30996f60d5f"}, {"lon": -77.02373316666667, "rental_uris": {"android": "https://dc.lft.to/lastmile_qr_scan", "ios": "https://dc.lft.to/lastmile_qr_scan"}, "fusion_lon": 0.0, "is_reserved": 0, "is_disabled": 0, "fusion_lat": 0.0, "type": "electric_scooter", "name": "7f58abacc7504e372ff9ec59f0c23294", "lat": 38.901969666666666, "bike_id": "7f58abacc7504e372ff9ec59f0c23294"}, {"lon": -77.019669, "rental_uris": {"android": "https://dc.lft.to/lastmile_qr_scan", "ios": "https://dc.lft.to/lastmile_qr_scan"}, "fusion_lon": 0.0, "is_reserved": 0, "is_disabled": 0, "fusion_lat": 0.0, "type": "electric_scooter", "name": "398df97ba69f1e02598a1f952cb3428d", "lat": 38.919055666666665, "bike_id": "398df97ba69f1e02598a1f952cb3428d"}, {"lon": -77.03223466666667, "rental_uris": {"android": "https://dc.lft.to/lastmile_qr_scan", "ios": "https://dc.lft.to/lastmile_qr_scan"}, "fusion_lon": 0.0, "is_reserved": 0, "is_disabled": 0, "fusion_lat": 0.0, "type": "electric_scooter", "name": "08acb91e99578220eeb73931aa59d7a3", "lat": 38.909630666666665, "bike_id": "08acb91e99578220eeb73931aa59d7a3"}, {"lon": -77.03832183333333, "rental_uris": {"android": "https://dc.lft.to/lastmile_qr_scan", "ios": "https://dc.lft.to/lastmile_qr_scan"}, "fusion_lon": 0.0, "is_reserved": 0, "is_disabled": 0, "fusion_lat": 0.0, "type": "electric_scooter", "name": "a133f7221b19f1ca31eb0942f149da81", "lat": 38.94503, "bike_id": "a133f7221b19f1ca31eb0942f149da81"}, {"lon": -77.036637, "rental_uris": {"android": "https://dc.lft.to/lastmile_qr_scan", "ios": "https://dc.lft.to/lastmile_qr_scan"}, "fusion_lon": 0.0, "is_reserved": 0, "is_disabled": 0, "fusion_lat": 0.0, "type": "electric_scooter", "name": "372af1a6937e35f73292cb6e64ae1b05", "lat": 38.9320605, "bike_id": "372af1a6937e35f73292cb6e64ae1b05"}, {"lon": -77.00151316666667, "rental_uris": {"android": "https://dc.lft.to/lastmile_qr_scan", "ios": "https://dc.lft.to/lastmile_qr_scan"}, "fusion_lon": 0.0, "is_reserved": 0, "is_disabled": 0, "fusion_lat": 0.0, "type": "electric_scooter", "name": "13225c02f975af4fe443be22cc547df2", "lat": 38.91076266666666, "bike_id": "13225c02f975af4fe443be22cc547df2"}, {"lon": -77.02375883333333, "rental_uris": {"android": "https://dc.lft.to/lastmile_qr_scan", "ios": "https://dc.lft.to/lastmile_qr_scan"}, "fusion_lon": 0.0, "is_reserved": 0, "is_disabled": 0, "fusion_lat": 0.0, "type": "electric_scooter", "name": "5803206bf6d5e0e1391477521dfd8309", "lat": 38.892192, "bike_id": "5803206bf6d5e0e1391477521dfd8309"}, {"lon": -77.02545516666666, "rental_uris": {"android": "https://dc.lft.to/lastmile_qr_scan", "ios": "https://dc.lft.to/lastmile_qr_scan"}, "fusion_lon": 0.0, "is_reserved": 0, "is_disabled": 0, "fusion_lat": 0.0, "type": "electric_scooter", "name": "eecc85c77f24e6d614fbb14bd83857cb", "lat": 38.906374166666666, "bike_id": "eecc85c77f24e6d614fbb14bd83857cb"}, {"lon": -77.0635485, "rental_uris": {"android": "https://dc.lft.to/lastmile_qr_scan", "ios": "https://dc.lft.to/lastmile_qr_scan"}, "fusion_lon": 0.0, "is_reserved": 0, "is_disabled": 0, "fusion_lat": 0.0, "type": "electric_scooter", "name": "8bc88326f182854af9d457e1137124d5", "lat": 38.94453816666667, "bike_id": "8bc88326f182854af9d457e1137124d5"}, {"lon": -77.03946366666666, "rental_uris": {"android": "https://dc.lft.to/lastmile_qr_scan", "ios": "https://dc.lft.to/lastmile_qr_scan"}, "fusion_lon": 0.0, "is_reserved": 0, "is_disabled": 0, "fusion_lat": 0.0, "type": "electric_scooter", "name": "8cce66dde6e214453933b0306daad3d9", "lat": 38.91606683333333, "bike_id": "8cce66dde6e214453933b0306daad3d9"}, {"lon": -77.03223916666667, "rental_uris": {"android": "https://dc.lft.to/lastmile_qr_scan", "ios": "https://dc.lft.to/lastmile_qr_scan"}, "fusion_lon": 0.0, "is_reserved": 0, "is_disabled": 0, "fusion_lat": 0.0, "type": "electric_scooter", "name": "0725158cd8c36143a5f0e1bce2921b4d", "lat": 38.91701183333333, "bike_id": "0725158cd8c36143a5f0e1bce2921b4d"}, {"lon": -77.05173616666667, "rental_uris": {"android": "https://dc.lft.to/lastmile_qr_scan", "ios": "https://dc.lft.to/lastmile_qr_scan"}, "fusion_lon": 0.0, "is_reserved": 0, "is_disabled": 0, "fusion_lat": 0.0, "type": "electric_scooter", "name": "5e80813be70032b508a70f8c858260c9", "lat": 38.924306, "bike_id": "5e80813be70032b508a70f8c858260c9"}, {"lon": -77.073365, "rental_uris": {"android": "https://dc.lft.to/lastmile_qr_scan", "ios": "https://dc.lft.to/lastmile_qr_scan"}, "fusion_lon": 0.0, "is_reserved": 0, "is_disabled": 0, "fusion_lat": 0.0, "type": "electric_scooter", "name": "61cd6da8ec876aaebddcbaaaf628bd5f", "lat": 38.922549333333336, "bike_id": "61cd6da8ec876aaebddcbaaaf628bd5f"}, {"lon": -77.239579, "rental_uris": {"android": "https://dc.lft.to/lastmile_qr_scan", "ios": "https://dc.lft.to/lastmile_qr_scan"}, "fusion_lon": 0.0, "is_reserved": 0, "is_disabled": 0, "fusion_lat": 0.0, "type": "electric_bike", "name": "1a28b33fb653c0746c7fdc098fae4937", "lat": 38.92477566666667, "bike_id": "1a28b33fb653c0746c7fdc098fae4937"}, {"lon": -76.99410116666667, "rental_uris": {"android": "https://dc.lft.to/lastmile_qr_scan", "ios": "https://dc.lft.to/lastmile_qr_scan"}, "fusion_lon": 0.0, "is_reserved": 0, "is_disabled": 0, "fusion_lat": 0.0, "type": "electric_scooter", "name": "278633e7be91ea4920d32a28498a64d8", "lat": 38.877843666666664, "bike_id": "278633e7be91ea4920d32a28498a64d8"}, {"lon": -77.03858716666667, "rental_uris": {"android": "https://dc.lft.to/lastmile_qr_scan", "ios": "https://dc.lft.to/lastmile_qr_scan"}, "fusion_lon": 0.0, "is_reserved": 0, "is_disabled": 0, "fusion_lat": 0.0, "type": "electric_scooter", "name": "1e2c625a7241539acc6357bade1ff7f4", "lat": 38.915418, "bike_id": "1e2c625a7241539acc6357bade1ff7f4"}, {"lon": -77.02843033333333, "rental_uris": {"android": "https://dc.lft.to/lastmile_qr_scan", "ios": "https://dc.lft.to/lastmile_qr_scan"}, "fusion_lon": 0.0, "is_reserved": 0, "is_disabled": 0, "fusion_lat": 0.0, "type": "electric_bike", "name": "d0c3ae62a99ef3ba538f5e0222dc355a", "lat": 38.9213895, "bike_id": "d0c3ae62a99ef3ba538f5e0222dc355a"}, {"lon": -77.081962, "rental_uris": {"android": "https://dc.lft.to/lastmile_qr_scan", "ios": "https://dc.lft.to/lastmile_qr_scan"}, "fusion_lon": 0.0, "is_reserved": 0, "is_disabled": 0, "fusion_lat": 0.0, "type": "electric_bike", "name": "9204cb06a434a86175fa13f97acbf215", "lat": 38.9220545, "bike_id": "9204cb06a434a86175fa13f97acbf215"}, {"lon": -77.02419416666666, "rental_uris": {"android": "https://dc.lft.to/lastmile_qr_scan", "ios": "https://dc.lft.to/lastmile_qr_scan"}, "fusion_lon": 0.0, "is_reserved": 0, "is_disabled": 0, "fusion_lat": 0.0, "type": "electric_scooter", "name": "eac2df8584274405811ec7857d833e2d", "lat": 38.900321166666664, "bike_id": "eac2df8584274405811ec7857d833e2d"}, {"lon": -77.02416733333334, "rental_uris": {"android": "https://dc.lft.to/lastmile_qr_scan", "ios": "https://dc.lft.to/lastmile_qr_scan"}, "fusion_lon": 0.0, "is_reserved": 0, "is_disabled": 0, "fusion_lat": 0.0, "type": "electric_scooter", "name": "a6da08da4c8b8e108319d19f7eeaf4dc", "lat": 38.906111833333334, "bike_id": "a6da08da4c8b8e108319d19f7eeaf4dc"}, {"lon": -77.02190283333333, "rental_uris": {"android": "https://dc.lft.to/lastmile_qr_scan", "ios": "https://dc.lft.to/lastmile_qr_scan"}, "fusion_lon": 0.0, "is_reserved": 0, "is_disabled": 0, "fusion_lat": 0.0, "type": "electric_scooter", "name": "3efc4f10ee64271f7f6af077e142509f", "lat": 38.9148015, "bike_id": "3efc4f10ee64271f7f6af077e142509f"}, {"lon": -77.02417566666666, "rental_uris": {"android": "https://dc.lft.to/lastmile_qr_scan", "ios": "https://dc.lft.to/lastmile_qr_scan"}, "fusion_lon": 0.0, "is_reserved": 0, "is_disabled": 0, "fusion_lat": 0.0, "type": "electric_scooter", "name": "68e7f1b7272983f293238f3431234f55", "lat": 38.89217166666667, "bike_id": "68e7f1b7272983f293238f3431234f55"}, {"lon": -77.003897, "rental_uris": {"android": "https://dc.lft.to/lastmile_qr_scan", "ios": "https://dc.lft.to/lastmile_qr_scan"}, "fusion_lon": 0.0, "is_reserved": 0, "is_disabled": 0, "fusion_lat": 0.0, "type": "electric_scooter", "name": "e7038bf11ed270108e7a6c5c8f414e1f", "lat": 38.87638533333333, "bike_id": "e7038bf11ed270108e7a6c5c8f414e1f"}, {"lon": -77.0404065, "rental_uris": {"android": "https://dc.lft.to/lastmile_qr_scan", "ios": "https://dc.lft.to/lastmile_qr_scan"}, "fusion_lon": 0.0, "is_reserved": 0, "is_disabled": 0, "fusion_lat": 0.0, "type": "electric_scooter", "name": "7b8ae42142dc3079734697f501b6ad18", "lat": 38.9245185, "bike_id": "7b8ae42142dc3079734697f501b6ad18"}, {"lon": -77.02972933333334, "rental_uris": {"android": "https://dc.lft.to/lastmile_qr_scan", "ios": "https://dc.lft.to/lastmile_qr_scan"}, "fusion_lon": 0.0, "is_reserved": 0, "is_disabled": 0, "fusion_lat": 0.0, "type": "electric_scooter", "name": "5fae2f68eee176c3b7b8bd9bd3208400", "lat": 38.9064525, "bike_id": "5fae2f68eee176c3b7b8bd9bd3208400"}, {"lon": -77.02556533333333, "rental_uris": {"android": "https://dc.lft.to/lastmile_qr_scan", "ios": "https://dc.lft.to/lastmile_qr_scan"}, "fusion_lon": 0.0, "is_reserved": 0, "is_disabled": 0, "fusion_lat": 0.0, "type": "electric_scooter", "name": "2e6c9c7a31b5b7899be2d16062beb97f", "lat": 38.924718166666665, "bike_id": "2e6c9c7a31b5b7899be2d16062beb97f"}, {"lon": -77.04359933333333, "rental_uris": {"android": "https://dc.lft.to/lastmile_qr_scan", "ios": "https://dc.lft.to/lastmile_qr_scan"}, "fusion_lon": 0.0, "is_reserved": 0, "is_disabled": 0, "fusion_lat": 0.0, "type": "electric_scooter", "name": "7ecf693124f15199009e0b7450623ac2", "lat": 38.91049133333333, "bike_id": "7ecf693124f15199009e0b7450623ac2"}, {"lon": -77.03049266666666, "rental_uris": {"android": "https://dc.lft.to/lastmile_qr_scan", "ios": "https://dc.lft.to/lastmile_qr_scan"}, "fusion_lon": 0.0, "is_reserved": 0, "is_disabled": 0, "fusion_lat": 0.0, "type": "electric_scooter", "name": "ba46e524ba7b11bfe8ef16356e874c9f", "lat": 38.92297816666667, "bike_id": "ba46e524ba7b11bfe8ef16356e874c9f"}, {"lon": -77.028292, "rental_uris": {"android": "https://dc.lft.to/lastmile_qr_scan", "ios": "https://dc.lft.to/lastmile_qr_scan"}, "fusion_lon": 0.0, "is_reserved": 0, "is_disabled": 0, "fusion_lat": 0.0, "type": "electric_scooter", "name": "204b17702a4cd4888c43ddc3db5d87ae", "lat": 38.89788733333334, "bike_id": "204b17702a4cd4888c43ddc3db5d87ae"}, {"lon": -77.02667283333334, "rental_uris": {"android": "https://dc.lft.to/lastmile_qr_scan", "ios": "https://dc.lft.to/lastmile_qr_scan"}, "fusion_lon": 0.0, "is_reserved": 0, "is_disabled": 0, "fusion_lat": 0.0, "type": "electric_scooter", "name": "e3046d8882f39a548dc4ec84c553e502", "lat": 38.921760166666665, "bike_id": "e3046d8882f39a548dc4ec84c553e502"}, {"lon": -76.95759816666667, "rental_uris": {"android": "https://dc.lft.to/lastmile_qr_scan", "ios": "https://dc.lft.to/lastmile_qr_scan"}, "fusion_lon": 0.0, "is_reserved": 0, "is_disabled": 0, "fusion_lat": 0.0, "type": "electric_scooter", "name": "76d6b8d832aa108d2369d5288b42ded7", "lat": 38.895971833333334, "bike_id": "76d6b8d832aa108d2369d5288b42ded7"}, {"lon": -77.03249783333334, "rental_uris": {"android": "https://dc.lft.to/lastmile_qr_scan", "ios": "https://dc.lft.to/lastmile_qr_scan"}, "fusion_lon": 0.0, "is_reserved": 0, "is_disabled": 0, "fusion_lat": 0.0, "type": "electric_scooter", "name": "7b6aceba49a6051c542119fad3ae7a5e", "lat": 38.931373, "bike_id": "7b6aceba49a6051c542119fad3ae7a5e"}, {"lon": -77.0367535, "rental_uris": {"android": "https://dc.lft.to/lastmile_qr_scan", "ios": "https://dc.lft.to/lastmile_qr_scan"}, "fusion_lon": 0.0, "is_reserved": 0, "is_disabled": 0, "fusion_lat": 0.0, "type": "electric_scooter", "name": "94e0792be966de727deeaa0c612e0208", "lat": 38.916526, "bike_id": "94e0792be966de727deeaa0c612e0208"}, {"lon": -77.03758666666667, "rental_uris": {"android": "https://dc.lft.to/lastmile_qr_scan", "ios": "https://dc.lft.to/lastmile_qr_scan"}, "fusion_lon": 0.0, "is_reserved": 0, "is_disabled": 0, "fusion_lat": 0.0, "type": "electric_scooter", "name": "c1820e69cfcc99042298d38264bac3b5", "lat": 38.915539833333334, "bike_id": "c1820e69cfcc99042298d38264bac3b5"}, {"lon": -77.04177233333333, "rental_uris": {"android": "https://dc.lft.to/lastmile_qr_scan", "ios": "https://dc.lft.to/lastmile_qr_scan"}, "fusion_lon": 0.0, "is_reserved": 0, "is_disabled": 0, "fusion_lat": 0.0, "type": "electric_scooter", "name": "255d6a586db5f29b41c2b4de98a3f16d", "lat": 38.91656366666667, "bike_id": "255d6a586db5f29b41c2b4de98a3f16d"}, {"lon": -77.04896583333333, "rental_uris": {"android": "https://dc.lft.to/lastmile_qr_scan", "ios": "https://dc.lft.to/lastmile_qr_scan"}, "fusion_lon": 0.0, "is_reserved": 0, "is_disabled": 0, "fusion_lat": 0.0, "type": "electric_scooter", "name": "a4bcbf6a1a3203c79e3bb4bcf2509ef7", "lat": 38.89226333333333, "bike_id": "a4bcbf6a1a3203c79e3bb4bcf2509ef7"}, {"lon": -77.04112733333334, "rental_uris": {"android": "https://dc.lft.to/lastmile_qr_scan", "ios": "https://dc.lft.to/lastmile_qr_scan"}, "fusion_lon": 0.0, "is_reserved": 0, "is_disabled": 0, "fusion_lat": 0.0, "type": "electric_scooter", "name": "1c5dff8681f233a19e098727f800876c", "lat": 38.916974333333336, "bike_id": "1c5dff8681f233a19e098727f800876c"}, {"lon": -77.009246, "rental_uris": {"android": "https://dc.lft.to/lastmile_qr_scan", "ios": "https://dc.lft.to/lastmile_qr_scan"}, "fusion_lon": 0.0, "is_reserved": 0, "is_disabled": 0, "fusion_lat": 0.0, "type": "electric_scooter", "name": "0d3142031945dfc7bfbcee9ee1c35bab", "lat": 38.907631333333335, "bike_id": "0d3142031945dfc7bfbcee9ee1c35bab"}, {"lon": -77.03393666666666, "rental_uris": {"android": "https://dc.lft.to/lastmile_qr_scan", "ios": "https://dc.lft.to/lastmile_qr_scan"}, "fusion_lon": 0.0, "is_reserved": 0, "is_disabled": 0, "fusion_lat": 0.0, "type": "electric_scooter", "name": "f7f679350c7d2af3e3af31a187c1eaf1", "lat": 38.938483166666664, "bike_id": "f7f679350c7d2af3e3af31a187c1eaf1"}, {"lon": -76.9872225, "rental_uris": {"android": "https://dc.lft.to/lastmile_qr_scan", "ios": "https://dc.lft.to/lastmile_qr_scan"}, "fusion_lon": 0.0, "is_reserved": 0, "is_disabled": 0, "fusion_lat": 0.0, "type": "electric_bike", "name": "f6cb44b05e59a347503c766baf0bb229", "lat": 38.86329416666667, "bike_id": "f6cb44b05e59a347503c766baf0bb229"}, {"lon": -77.23662866666666, "rental_uris": {"android": "https://dc.lft.to/lastmile_qr_scan", "ios": "https://dc.lft.to/lastmile_qr_scan"}, "fusion_lon": 0.0, "is_reserved": 0, "is_disabled": 0, "fusion_lat": 0.0, "type": "electric_bike", "name": "aaf05c4f7d27249f6a82333c4d5d465e", "lat": 38.92113716666667, "bike_id": "aaf05c4f7d27249f6a82333c4d5d465e"}, {"lon": -77.05315683333333, "rental_uris": {"android": "https://dc.lft.to/lastmile_qr_scan", "ios": "https://dc.lft.to/lastmile_qr_scan"}, "fusion_lon": 0.0, "is_reserved": 0, "is_disabled": 0, "fusion_lat": 0.0, "type": "electric_scooter", "name": "b36b204830325a5b0448c406d2ceae7d", "lat": 38.902701, "bike_id": "b36b204830325a5b0448c406d2ceae7d"}, {"lon": -77.00571833333333, "rental_uris": {"android": "https://dc.lft.to/lastmile_qr_scan", "ios": "https://dc.lft.to/lastmile_qr_scan"}, "fusion_lon": 0.0, "is_reserved": 0, "is_disabled": 0, "fusion_lat": 0.0, "type": "electric_scooter", "name": "4d36bc96edb4dd9b66e476aa6efdc703", "lat": 38.918168, "bike_id": "4d36bc96edb4dd9b66e476aa6efdc703"}, {"lon": -77.02755183333333, "rental_uris": {"android": "https://dc.lft.to/lastmile_qr_scan", "ios": "https://dc.lft.to/lastmile_qr_scan"}, "fusion_lon": 0.0, "is_reserved": 0, "is_disabled": 0, "fusion_lat": 0.0, "type": "electric_scooter", "name": "3028e6dd9f459e0d95dbdfd2a62bfdb4", "lat": 38.88154333333333, "bike_id": "3028e6dd9f459e0d95dbdfd2a62bfdb4"}, {"lon": -77.02891716666667, "rental_uris": {"android": "https://dc.lft.to/lastmile_qr_scan", "ios": "https://dc.lft.to/lastmile_qr_scan"}, "fusion_lon": 0.0, "is_reserved": 0, "is_disabled": 0, "fusion_lat": 0.0, "type": "electric_scooter", "name": "0c3ed583d6402bb06ba7096c6be94f4e", "lat": 38.916983333333334, "bike_id": "0c3ed583d6402bb06ba7096c6be94f4e"}, {"lon": -77.0475095, "rental_uris": {"android": "https://dc.lft.to/lastmile_qr_scan", "ios": "https://dc.lft.to/lastmile_qr_scan"}, "fusion_lon": 0.0, "is_reserved": 0, "is_disabled": 0, "fusion_lat": 0.0, "type": "electric_scooter", "name": "b672766f3cd7c8ecb4fa44833b64f395", "lat": 38.9023205, "bike_id": "b672766f3cd7c8ecb4fa44833b64f395"}, {"lon": -77.08760833333334, "rental_uris": {"android": "https://dc.lft.to/lastmile_qr_scan", "ios": "https://dc.lft.to/lastmile_qr_scan"}, "fusion_lon": 0.0, "is_reserved": 0, "is_disabled": 0, "fusion_lat": 0.0, "type": "electric_scooter", "name": "907ce2712d0c96fff76f6c522db1fe6a", "lat": 38.935586666666666, "bike_id": "907ce2712d0c96fff76f6c522db1fe6a"}, {"lon": -76.9422735, "rental_uris": {"android": "https://dc.lft.to/lastmile_qr_scan", "ios": "https://dc.lft.to/lastmile_qr_scan"}, "fusion_lon": 0.0, "is_reserved": 0, "is_disabled": 0, "fusion_lat": 0.0, "type": "electric_scooter", "name": "ab021ed502b758d9918d3c85ed5cb504", "lat": 38.88450483333333, "bike_id": "ab021ed502b758d9918d3c85ed5cb504"}, {"lon": -77.04704066666666, "rental_uris": {"android": "https://dc.lft.to/lastmile_qr_scan", "ios": "https://dc.lft.to/lastmile_qr_scan"}, "fusion_lon": 0.0, "is_reserved": 0, "is_disabled": 0, "fusion_lat": 0.0, "type": "electric_scooter", "name": "a2c3f6aeb415a41ab75e9fce0e11bab2", "lat": 38.921966833333336, "bike_id": "a2c3f6aeb415a41ab75e9fce0e11bab2"}, {"lon": -77.0520305, "rental_uris": {"android": "https://dc.lft.to/lastmile_qr_scan", "ios": "https://dc.lft.to/lastmile_qr_scan"}, "fusion_lon": 0.0, "is_reserved": 0, "is_disabled": 0, "fusion_lat": 0.0, "type": "electric_scooter", "name": "601c78ef01c7f000c176cbffa3c78daf", "lat": 38.924783833333336, "bike_id": "601c78ef01c7f000c176cbffa3c78daf"}, {"lon": -77.0053645, "rental_uris": {"android": "https://dc.lft.to/lastmile_qr_scan", "ios": "https://dc.lft.to/lastmile_qr_scan"}, "fusion_lon": 0.0, "is_reserved": 0, "is_disabled": 0, "fusion_lat": 0.0, "type": "electric_scooter", "name": "67d19c0c5036a996a86ce4195d2ba7fe", "lat": 38.875440833333336, "bike_id": "67d19c0c5036a996a86ce4195d2ba7fe"}, {"lon": -77.04495583333333, "rental_uris": {"android": "https://dc.lft.to/lastmile_qr_scan", "ios": "https://dc.lft.to/lastmile_qr_scan"}, "fusion_lon": 0.0, "is_reserved": 0, "is_disabled": 0, "fusion_lat": 0.0, "type": "electric_scooter", "name": "2ea4814f2533527d04f638ea4e526dc9", "lat": 38.903915166666664, "bike_id": "2ea4814f2533527d04f638ea4e526dc9"}, {"lon": -77.0517675, "rental_uris": {"android": "https://dc.lft.to/lastmile_qr_scan", "ios": "https://dc.lft.to/lastmile_qr_scan"}, "fusion_lon": 0.0, "is_reserved": 0, "is_disabled": 0, "fusion_lat": 0.0, "type": "electric_scooter", "name": "f602d1b953fd338e1d36713afebf0025", "lat": 38.923427, "bike_id": "f602d1b953fd338e1d36713afebf0025"}, {"lon": -77.03995983333333, "rental_uris": {"android": "https://dc.lft.to/lastmile_qr_scan", "ios": "https://dc.lft.to/lastmile_qr_scan"}, "fusion_lon": 0.0, "is_reserved": 0, "is_disabled": 0, "fusion_lat": 0.0, "type": "electric_scooter", "name": "469861859379b945a6874be406be6c0f", "lat": 38.92445983333333, "bike_id": "469861859379b945a6874be406be6c0f"}, {"lon": -77.04366516666667, "rental_uris": {"android": "https://dc.lft.to/lastmile_qr_scan", "ios": "https://dc.lft.to/lastmile_qr_scan"}, "fusion_lon": 0.0, "is_reserved": 0, "is_disabled": 0, "fusion_lat": 0.0, "type": "electric_scooter", "name": "1581b9129a72fa9edd3d9a10cef7aad9", "lat": 38.9038355, "bike_id": "1581b9129a72fa9edd3d9a10cef7aad9"}, {"lon": -77.0766495, "rental_uris": {"android": "https://dc.lft.to/lastmile_qr_scan", "ios": "https://dc.lft.to/lastmile_qr_scan"}, "fusion_lon": 0.0, "is_reserved": 0, "is_disabled": 0, "fusion_lat": 0.0, "type": "electric_bike", "name": "647a823c3c56d84c2440d93bf9aa8629", "lat": 38.80978233333333, "bike_id": "647a823c3c56d84c2440d93bf9aa8629"}, {"lon": -77.03208983333333, "rental_uris": {"android": "https://dc.lft.to/lastmile_qr_scan", "ios": "https://dc.lft.to/lastmile_qr_scan"}, "fusion_lon": 0.0, "is_reserved": 0, "is_disabled": 0, "fusion_lat": 0.0, "type": "electric_scooter", "name": "c0217a6146ff9b8186304cd77cb28560", "lat": 38.9191405, "bike_id": "c0217a6146ff9b8186304cd77cb28560"}, {"lon": -77.04339383333334, "rental_uris": {"android": "https://dc.lft.to/lastmile_qr_scan", "ios": "https://dc.lft.to/lastmile_qr_scan"}, "fusion_lon": 0.0, "is_reserved": 0, "is_disabled": 0, "fusion_lat": 0.0, "type": "electric_scooter", "name": "38ca6fc63a247da440afa5ae99d6f40a", "lat": 38.903639166666665, "bike_id": "38ca6fc63a247da440afa5ae99d6f40a"}, {"lon": -77.02577166666667, "rental_uris": {"android": "https://dc.lft.to/lastmile_qr_scan", "ios": "https://dc.lft.to/lastmile_qr_scan"}, "fusion_lon": 0.0, "is_reserved": 0, "is_disabled": 0, "fusion_lat": 0.0, "type": "electric_scooter", "name": "ca6baea8835b3101d0ff4199da9a3df3", "lat": 38.920415, "bike_id": "ca6baea8835b3101d0ff4199da9a3df3"}, {"lon": -76.98403933333333, "rental_uris": {"android": "https://dc.lft.to/lastmile_qr_scan", "ios": "https://dc.lft.to/lastmile_qr_scan"}, "fusion_lon": 0.0, "is_reserved": 0, "is_disabled": 0, "fusion_lat": 0.0, "type": "electric_scooter", "name": "7e0727b7068060c33d546b19baa31758", "lat": 38.92483133333333, "bike_id": "7e0727b7068060c33d546b19baa31758"}, {"lon": -77.007243, "rental_uris": {"android": "https://dc.lft.to/lastmile_qr_scan", "ios": "https://dc.lft.to/lastmile_qr_scan"}, "fusion_lon": 0.0, "is_reserved": 0, "is_disabled": 0, "fusion_lat": 0.0, "type": "electric_scooter", "name": "a511e3d2a10db96ee16fb9faa9a53777", "lat": 38.9047585, "bike_id": "a511e3d2a10db96ee16fb9faa9a53777"}, {"lon": -77.053399, "rental_uris": {"android": "https://dc.lft.to/lastmile_qr_scan", "ios": "https://dc.lft.to/lastmile_qr_scan"}, "fusion_lon": 0.0, "is_reserved": 0, "is_disabled": 0, "fusion_lat": 0.0, "type": "electric_scooter", "name": "42550f6ab8b853dcff4789a99efc2771", "lat": 38.89879616666666, "bike_id": "42550f6ab8b853dcff4789a99efc2771"}, {"lon": -77.04495616666667, "rental_uris": {"android": "https://dc.lft.to/lastmile_qr_scan", "ios": "https://dc.lft.to/lastmile_qr_scan"}, "fusion_lon": 0.0, "is_reserved": 0, "is_disabled": 0, "fusion_lat": 0.0, "type": "electric_scooter", "name": "9b44dcf70f5372b6e64f75f761ba4dd5", "lat": 38.89944783333333, "bike_id": "9b44dcf70f5372b6e64f75f761ba4dd5"}, {"lon": -77.061702, "rental_uris": {"android": "https://dc.lft.to/lastmile_qr_scan", "ios": "https://dc.lft.to/lastmile_qr_scan"}, "fusion_lon": 0.0, "is_reserved": 0, "is_disabled": 0, "fusion_lat": 0.0, "type": "electric_scooter", "name": "05a20429f1038dda94b11d10f4a0ac20", "lat": 38.9431145, "bike_id": "05a20429f1038dda94b11d10f4a0ac20"}, {"lon": -76.97222433333333, "rental_uris": {"android": "https://dc.lft.to/lastmile_qr_scan", "ios": "https://dc.lft.to/lastmile_qr_scan"}, "fusion_lon": 0.0, "is_reserved": 0, "is_disabled": 0, "fusion_lat": 0.0, "type": "electric_bike", "name": "912051ea43adc18d07d1d6968a89d561", "lat": 38.90033, "bike_id": "912051ea43adc18d07d1d6968a89d561"}, {"lon": -77.04029516666667, "rental_uris": {"android": "https://dc.lft.to/lastmile_qr_scan", "ios": "https://dc.lft.to/lastmile_qr_scan"}, "fusion_lon": 0.0, "is_reserved": 0, "is_disabled": 0, "fusion_lat": 0.0, "type": "electric_scooter", "name": "cbc52bbdba86cf291fd322e94b62b7ae", "lat": 38.90159033333333, "bike_id": "cbc52bbdba86cf291fd322e94b62b7ae"}, {"lon": -76.96505833333333, "rental_uris": {"android": "https://dc.lft.to/lastmile_qr_scan", "ios": "https://dc.lft.to/lastmile_qr_scan"}, "fusion_lon": 0.0, "is_reserved": 0, "is_disabled": 0, "fusion_lat": 0.0, "type": "electric_scooter", "name": "3fdce9d05cc3c3672ab05fb96f1e0a4c", "lat": 38.87642966666667, "bike_id": "3fdce9d05cc3c3672ab05fb96f1e0a4c"}, {"lon": -77.05149416666667, "rental_uris": {"android": "https://dc.lft.to/lastmile_qr_scan", "ios": "https://dc.lft.to/lastmile_qr_scan"}, "fusion_lon": 0.0, "is_reserved": 0, "is_disabled": 0, "fusion_lat": 0.0, "type": "electric_scooter", "name": "7b5694172bafd1d7a1897d24d44fe066", "lat": 38.90645133333334, "bike_id": "7b5694172bafd1d7a1897d24d44fe066"}, {"lon": -77.0381125, "rental_uris": {"android": "https://dc.lft.to/lastmile_qr_scan", "ios": "https://dc.lft.to/lastmile_qr_scan"}, "fusion_lon": 0.0, "is_reserved": 0, "is_disabled": 0, "fusion_lat": 0.0, "type": "electric_scooter", "name": "b4c4c8ed3b59b16375571498fc7b59bb", "lat": 38.90690766666667, "bike_id": "b4c4c8ed3b59b16375571498fc7b59bb"}, {"lon": -77.02259483333333, "rental_uris": {"android": "https://dc.lft.to/lastmile_qr_scan", "ios": "https://dc.lft.to/lastmile_qr_scan"}, "fusion_lon": 0.0, "is_reserved": 0, "is_disabled": 0, "fusion_lat": 0.0, "type": "electric_scooter", "name": "56c9b3d2442efb1c52f6dbcfd5e04674", "lat": 38.92891483333333, "bike_id": "56c9b3d2442efb1c52f6dbcfd5e04674"}, {"lon": -77.03164083333333, "rental_uris": {"android": "https://dc.lft.to/lastmile_qr_scan", "ios": "https://dc.lft.to/lastmile_qr_scan"}, "fusion_lon": 0.0, "is_reserved": 0, "is_disabled": 0, "fusion_lat": 0.0, "type": "electric_scooter", "name": "57671c457c78177a7778fc3fe1eaca19", "lat": 38.892212, "bike_id": "57671c457c78177a7778fc3fe1eaca19"}, {"lon": -77.0467995, "rental_uris": {"android": "https://dc.lft.to/lastmile_qr_scan", "ios": "https://dc.lft.to/lastmile_qr_scan"}, "fusion_lon": 0.0, "is_reserved": 0, "is_disabled": 0, "fusion_lat": 0.0, "type": "electric_scooter", "name": "c1e210762972ce97d1a03c4abaa00351", "lat": 38.895019833333336, "bike_id": "c1e210762972ce97d1a03c4abaa00351"}, {"lon": -77.05158216666666, "rental_uris": {"android": "https://dc.lft.to/lastmile_qr_scan", "ios": "https://dc.lft.to/lastmile_qr_scan"}, "fusion_lon": 0.0, "is_reserved": 0, "is_disabled": 0, "fusion_lat": 0.0, "type": "electric_bike", "name": "298320c2abb9b8b5ed37205b7c7a530d", "lat": 39.03706716666667, "bike_id": "298320c2abb9b8b5ed37205b7c7a530d"}, {"lon": -76.97524366666667, "rental_uris": {"android": "https://dc.lft.to/lastmile_qr_scan", "ios": "https://dc.lft.to/lastmile_qr_scan"}, "fusion_lon": 0.0, "is_reserved": 0, "is_disabled": 0, "fusion_lat": 0.0, "type": "electric_bike", "name": "2867a7983ef210b40870d950311189ce", "lat": 38.840038166666666, "bike_id": "2867a7983ef210b40870d950311189ce"}, {"lon": -77.033323, "rental_uris": {"android": "https://dc.lft.to/lastmile_qr_scan", "ios": "https://dc.lft.to/lastmile_qr_scan"}, "fusion_lon": 0.0, "is_reserved": 0, "is_disabled": 0, "fusion_lat": 0.0, "type": "electric_scooter", "name": "01c528cd09aa2e9a9c85c135cffb4a05", "lat": 38.9287485, "bike_id": "01c528cd09aa2e9a9c85c135cffb4a05"}, {"lon": -77.0379445, "rental_uris": {"android": "https://dc.lft.to/lastmile_qr_scan", "ios": "https://dc.lft.to/lastmile_qr_scan"}, "fusion_lon": 0.0, "is_reserved": 0, "is_disabled": 0, "fusion_lat": 0.0, "type": "electric_scooter", "name": "3232db47e17f62d14dd81899399aa053", "lat": 38.902334333333336, "bike_id": "3232db47e17f62d14dd81899399aa053"}, {"lon": -76.9807315, "rental_uris": {"android": "https://dc.lft.to/lastmile_qr_scan", "ios": "https://dc.lft.to/lastmile_qr_scan"}, "fusion_lon": 0.0, "is_reserved": 0, "is_disabled": 0, "fusion_lat": 0.0, "type": "electric_scooter", "name": "91f42ad5ac12a39d89b0ff104f56570c", "lat": 38.88016366666667, "bike_id": "91f42ad5ac12a39d89b0ff104f56570c"}, {"lon": -77.03115783333334, "rental_uris": {"android": "https://dc.lft.to/lastmile_qr_scan", "ios": "https://dc.lft.to/lastmile_qr_scan"}, "fusion_lon": 0.0, "is_reserved": 0, "is_disabled": 0, "fusion_lat": 0.0, "type": "electric_scooter", "name": "1b9a69f983b2fec60ce17b05e38c0874", "lat": 38.92025566666667, "bike_id": "1b9a69f983b2fec60ce17b05e38c0874"}, {"lon": -77.0207395, "rental_uris": {"android": "https://dc.lft.to/lastmile_qr_scan", "ios": "https://dc.lft.to/lastmile_qr_scan"}, "fusion_lon": 0.0, "is_reserved": 0, "is_disabled": 0, "fusion_lat": 0.0, "type": "electric_scooter", "name": "2aa40261995c432cab562d1e8e80ba7f", "lat": 38.921162333333335, "bike_id": "2aa40261995c432cab562d1e8e80ba7f"}, {"lon": -77.03704633333334, "rental_uris": {"android": "https://dc.lft.to/lastmile_qr_scan", "ios": "https://dc.lft.to/lastmile_qr_scan"}, "fusion_lon": 0.0, "is_reserved": 0, "is_disabled": 0, "fusion_lat": 0.0, "type": "electric_scooter", "name": "38cdefe11805f877b9959b2193358d0f", "lat": 38.926406666666665, "bike_id": "38cdefe11805f877b9959b2193358d0f"}, {"lon": -77.04507616666666, "rental_uris": {"android": "https://dc.lft.to/lastmile_qr_scan", "ios": "https://dc.lft.to/lastmile_qr_scan"}, "fusion_lon": 0.0, "is_reserved": 0, "is_disabled": 0, "fusion_lat": 0.0, "type": "electric_scooter", "name": "dae53978f501e6004ecde9b27067a171", "lat": 38.89909016666667, "bike_id": "dae53978f501e6004ecde9b27067a171"}, {"lon": -77.04133566666667, "rental_uris": {"android": "https://dc.lft.to/lastmile_qr_scan", "ios": "https://dc.lft.to/lastmile_qr_scan"}, "fusion_lon": 0.0, "is_reserved": 0, "is_disabled": 0, "fusion_lat": 0.0, "type": "electric_scooter", "name": "a83153408740544cca40da384c025147", "lat": 38.934664, "bike_id": "a83153408740544cca40da384c025147"}, {"lon": -77.022561, "rental_uris": {"android": "https://dc.lft.to/lastmile_qr_scan", "ios": "https://dc.lft.to/lastmile_qr_scan"}, "fusion_lon": 0.0, "is_reserved": 0, "is_disabled": 0, "fusion_lat": 0.0, "type": "electric_scooter", "name": "aaeda8909db9a2cef6578eb25e27bfc8", "lat": 38.9251475, "bike_id": "aaeda8909db9a2cef6578eb25e27bfc8"}, {"lon": -77.063804, "rental_uris": {"android": "https://dc.lft.to/lastmile_qr_scan", "ios": "https://dc.lft.to/lastmile_qr_scan"}, "fusion_lon": 0.0, "is_reserved": 0, "is_disabled": 0, "fusion_lat": 0.0, "type": "electric_scooter", "name": "db076f6b9d934766050addb2b1ff9f7c", "lat": 38.905081333333335, "bike_id": "db076f6b9d934766050addb2b1ff9f7c"}, {"lon": -77.0466495, "rental_uris": {"android": "https://dc.lft.to/lastmile_qr_scan", "ios": "https://dc.lft.to/lastmile_qr_scan"}, "fusion_lon": 0.0, "is_reserved": 0, "is_disabled": 0, "fusion_lat": 0.0, "type": "electric_scooter", "name": "a4e85b5fe23390e7170bc4bae5c0fb63", "lat": 38.9135945, "bike_id": "a4e85b5fe23390e7170bc4bae5c0fb63"}, {"lon": -77.02802883333334, "rental_uris": {"android": "https://dc.lft.to/lastmile_qr_scan", "ios": "https://dc.lft.to/lastmile_qr_scan"}, "fusion_lon": 0.0, "is_reserved": 0, "is_disabled": 0, "fusion_lat": 0.0, "type": "electric_scooter", "name": "5ae2c35403bcb120fecfab91b90e5f57", "lat": 38.932930166666665, "bike_id": "5ae2c35403bcb120fecfab91b90e5f57"}, {"lon": -77.04866, "rental_uris": {"android": "https://dc.lft.to/lastmile_qr_scan", "ios": "https://dc.lft.to/lastmile_qr_scan"}, "fusion_lon": 0.0, "is_reserved": 0, "is_disabled": 0, "fusion_lat": 0.0, "type": "electric_scooter", "name": "22541365fd9da133482406086dd3d1be", "lat": 38.892222833333335, "bike_id": "22541365fd9da133482406086dd3d1be"}, {"lon": -77.01763816666667, "rental_uris": {"android": "https://dc.lft.to/lastmile_qr_scan", "ios": "https://dc.lft.to/lastmile_qr_scan"}, "fusion_lon": 0.0, "is_reserved": 0, "is_disabled": 0, "fusion_lat": 0.0, "type": "electric_scooter", "name": "e2a267906b3037242f9fdd903c620086", "lat": 38.877241166666664, "bike_id": "e2a267906b3037242f9fdd903c620086"}, {"lon": -76.96566416666667, "rental_uris": {"android": "https://dc.lft.to/lastmile_qr_scan", "ios": "https://dc.lft.to/lastmile_qr_scan"}, "fusion_lon": 0.0, "is_reserved": 0, "is_disabled": 0, "fusion_lat": 0.0, "type": "electric_scooter", "name": "3d749de7936eeeae3e2a29a5dc0034de", "lat": 38.87084733333333, "bike_id": "3d749de7936eeeae3e2a29a5dc0034de"}, {"lon": -77.04487466666667, "rental_uris": {"android": "https://dc.lft.to/lastmile_qr_scan", "ios": "https://dc.lft.to/lastmile_qr_scan"}, "fusion_lon": 0.0, "is_reserved": 0, "is_disabled": 0, "fusion_lat": 0.0, "type": "electric_scooter", "name": "fa984c53739b62e6a2278cba1e799e96", "lat": 38.911184, "bike_id": "fa984c53739b62e6a2278cba1e799e96"}, {"lon": -77.02155616666667, "rental_uris": {"android": "https://dc.lft.to/lastmile_qr_scan", "ios": "https://dc.lft.to/lastmile_qr_scan"}, "fusion_lon": 0.0, "is_reserved": 0, "is_disabled": 0, "fusion_lat": 0.0, "type": "electric_scooter", "name": "30f6252f930661a20d2d373b7ade5b84", "lat": 38.92460616666666, "bike_id": "30f6252f930661a20d2d373b7ade5b84"}, {"lon": -77.03773883333334, "rental_uris": {"android": "https://dc.lft.to/lastmile_qr_scan", "ios": "https://dc.lft.to/lastmile_qr_scan"}, "fusion_lon": 0.0, "is_reserved": 0, "is_disabled": 0, "fusion_lat": 0.0, "type": "electric_scooter", "name": "02b687a0b83c82fe15a9302ea342a5e5", "lat": 38.916904333333335, "bike_id": "02b687a0b83c82fe15a9302ea342a5e5"}, {"lon": -77.04201883333333, "rental_uris": {"android": "https://dc.lft.to/lastmile_qr_scan", "ios": "https://dc.lft.to/lastmile_qr_scan"}, "fusion_lon": 0.0, "is_reserved": 0, "is_disabled": 0, "fusion_lat": 0.0, "type": "electric_scooter", "name": "57b96ee323e7958d5c0facc67817513d", "lat": 38.92717183333333, "bike_id": "57b96ee323e7958d5c0facc67817513d"}, {"lon": -77.073506, "rental_uris": {"android": "https://dc.lft.to/lastmile_qr_scan", "ios": "https://dc.lft.to/lastmile_qr_scan"}, "fusion_lon": 0.0, "is_reserved": 0, "is_disabled": 0, "fusion_lat": 0.0, "type": "electric_scooter", "name": "185debf39b118d6b1dad0d09dded1076", "lat": 38.93474283333333, "bike_id": "185debf39b118d6b1dad0d09dded1076"}, {"lon": -77.03473383333333, "rental_uris": {"android": "https://dc.lft.to/lastmile_qr_scan", "ios": "https://dc.lft.to/lastmile_qr_scan"}, "fusion_lon": 0.0, "is_reserved": 0, "is_disabled": 0, "fusion_lat": 0.0, "type": "electric_scooter", "name": "c16201f1ae0239ec866a1f3655fe6a50", "lat": 38.9170305, "bike_id": "c16201f1ae0239ec866a1f3655fe6a50"}, {"lon": -76.9835635, "rental_uris": {"android": "https://dc.lft.to/lastmile_qr_scan", "ios": "https://dc.lft.to/lastmile_qr_scan"}, "fusion_lon": 0.0, "is_reserved": 0, "is_disabled": 0, "fusion_lat": 0.0, "type": "electric_scooter", "name": "d2505cbab72a5700fdc8a1bae64f7e1c", "lat": 38.887308833333336, "bike_id": "d2505cbab72a5700fdc8a1bae64f7e1c"}, {"lon": -77.03802483333334, "rental_uris": {"android": "https://dc.lft.to/lastmile_qr_scan", "ios": "https://dc.lft.to/lastmile_qr_scan"}, "fusion_lon": 0.0, "is_reserved": 0, "is_disabled": 0, "fusion_lat": 0.0, "type": "electric_scooter", "name": "ee0b78f8681f004e7451e3f7626bccd6", "lat": 38.9118955, "bike_id": "ee0b78f8681f004e7451e3f7626bccd6"}, {"lon": -76.98668783333333, "rental_uris": {"android": "https://dc.lft.to/lastmile_qr_scan", "ios": "https://dc.lft.to/lastmile_qr_scan"}, "fusion_lon": 0.0, "is_reserved": 0, "is_disabled": 0, "fusion_lat": 0.0, "type": "electric_scooter", "name": "422f5e28efd879bef12b24aa6ad22ca3", "lat": 38.90682616666667, "bike_id": "422f5e28efd879bef12b24aa6ad22ca3"}, {"lon": -77.02384133333334, "rental_uris": {"android": "https://dc.lft.to/lastmile_qr_scan", "ios": "https://dc.lft.to/lastmile_qr_scan"}, "fusion_lon": 0.0, "is_reserved": 0, "is_disabled": 0, "fusion_lat": 0.0, "type": "electric_scooter", "name": "9a320e396c5bf112f764ecde7447499f", "lat": 38.88737, "bike_id": "9a320e396c5bf112f764ecde7447499f"}, {"lon": -77.03841733333333, "rental_uris": {"android": "https://dc.lft.to/lastmile_qr_scan", "ios": "https://dc.lft.to/lastmile_qr_scan"}, "fusion_lon": 0.0, "is_reserved": 0, "is_disabled": 0, "fusion_lat": 0.0, "type": "electric_scooter", "name": "96e5b86a3d62ac54eca71f63f9f380e7", "lat": 38.941916666666664, "bike_id": "96e5b86a3d62ac54eca71f63f9f380e7"}, {"lon": -77.02046366666667, "rental_uris": {"android": "https://dc.lft.to/lastmile_qr_scan", "ios": "https://dc.lft.to/lastmile_qr_scan"}, "fusion_lon": 0.0, "is_reserved": 0, "is_disabled": 0, "fusion_lat": 0.0, "type": "electric_scooter", "name": "5a812e22079177fc36f13cd215880d7c", "lat": 38.91904666666667, "bike_id": "5a812e22079177fc36f13cd215880d7c"}, {"lon": -77.04909166666667, "rental_uris": {"android": "https://dc.lft.to/lastmile_qr_scan", "ios": "https://dc.lft.to/lastmile_qr_scan"}, "fusion_lon": 0.0, "is_reserved": 0, "is_disabled": 0, "fusion_lat": 0.0, "type": "electric_scooter", "name": "9e6027024d6fb892283fe9c539ace510", "lat": 38.897289, "bike_id": "9e6027024d6fb892283fe9c539ace510"}, {"lon": -77.04472983333334, "rental_uris": {"android": "https://dc.lft.to/lastmile_qr_scan", "ios": "https://dc.lft.to/lastmile_qr_scan"}, "fusion_lon": 0.0, "is_reserved": 0, "is_disabled": 0, "fusion_lat": 0.0, "type": "electric_scooter", "name": "62d3bb56cc783783e227507f73b696db", "lat": 38.892191, "bike_id": "62d3bb56cc783783e227507f73b696db"}, {"lon": -77.04178033333334, "rental_uris": {"android": "https://dc.lft.to/lastmile_qr_scan", "ios": "https://dc.lft.to/lastmile_qr_scan"}, "fusion_lon": 0.0, "is_reserved": 0, "is_disabled": 0, "fusion_lat": 0.0, "type": "electric_scooter", "name": "d0fad3efac8460169a9fb8a01386bc00", "lat": 38.901427, "bike_id": "d0fad3efac8460169a9fb8a01386bc00"}, {"lon": -77.08141833333333, "rental_uris": {"android": "https://dc.lft.to/lastmile_qr_scan", "ios": "https://dc.lft.to/lastmile_qr_scan"}, "fusion_lon": 0.0, "is_reserved": 0, "is_disabled": 0, "fusion_lat": 0.0, "type": "electric_bike", "name": "154d8fb505316e9c4dd3961d629c8dd9", "lat": 38.82296816666667, "bike_id": "154d8fb505316e9c4dd3961d629c8dd9"}, {"lon": -77.0468845, "rental_uris": {"android": "https://dc.lft.to/lastmile_qr_scan", "ios": "https://dc.lft.to/lastmile_qr_scan"}, "fusion_lon": 0.0, "is_reserved": 0, "is_disabled": 0, "fusion_lat": 0.0, "type": "electric_scooter", "name": "557023e9748abca8119f73dccdc03365", "lat": 38.90029166666667, "bike_id": "557023e9748abca8119f73dccdc03365"}, {"lon": -77.04510383333333, "rental_uris": {"android": "https://dc.lft.to/lastmile_qr_scan", "ios": "https://dc.lft.to/lastmile_qr_scan"}, "fusion_lon": 0.0, "is_reserved": 0, "is_disabled": 0, "fusion_lat": 0.0, "type": "electric_scooter", "name": "806c7cf11819ce5f04ca283806aa1197", "lat": 38.899443166666664, "bike_id": "806c7cf11819ce5f04ca283806aa1197"}, {"lon": -77.06939966666667, "rental_uris": {"android": "https://dc.lft.to/lastmile_qr_scan", "ios": "https://dc.lft.to/lastmile_qr_scan"}, "fusion_lon": 0.0, "is_reserved": 0, "is_disabled": 0, "fusion_lat": 0.0, "type": "electric_scooter", "name": "f63fa16a156a41bb135bec8a9496de2a", "lat": 38.91743833333334, "bike_id": "f63fa16a156a41bb135bec8a9496de2a"}, {"lon": -77.02600216666667, "rental_uris": {"android": "https://dc.lft.to/lastmile_qr_scan", "ios": "https://dc.lft.to/lastmile_qr_scan"}, "fusion_lon": 0.0, "is_reserved": 0, "is_disabled": 0, "fusion_lat": 0.0, "type": "electric_scooter", "name": "65d1736052fa94b35873c07d87e496d2", "lat": 38.916852666666664, "bike_id": "65d1736052fa94b35873c07d87e496d2"}, {"lon": -77.02480766666666, "rental_uris": {"android": "https://dc.lft.to/lastmile_qr_scan", "ios": "https://dc.lft.to/lastmile_qr_scan"}, "fusion_lon": 0.0, "is_reserved": 0, "is_disabled": 0, "fusion_lat": 0.0, "type": "electric_scooter", "name": "d9a2addea564562c307a7b2a84b504c9", "lat": 38.923992, "bike_id": "d9a2addea564562c307a7b2a84b504c9"}, {"lon": -77.04550783333333, "rental_uris": {"android": "https://dc.lft.to/lastmile_qr_scan", "ios": "https://dc.lft.to/lastmile_qr_scan"}, "fusion_lon": 0.0, "is_reserved": 0, "is_disabled": 0, "fusion_lat": 0.0, "type": "electric_scooter", "name": "ce396ef77753e339716d80e787ae4bf2", "lat": 38.91270566666667, "bike_id": "ce396ef77753e339716d80e787ae4bf2"}, {"lon": -77.04701183333333, "rental_uris": {"android": "https://dc.lft.to/lastmile_qr_scan", "ios": "https://dc.lft.to/lastmile_qr_scan"}, "fusion_lon": 0.0, "is_reserved": 0, "is_disabled": 0, "fusion_lat": 0.0, "type": "electric_scooter", "name": "9da3a7a2bc80a1311b1fc83801d134f3", "lat": 38.92112233333334, "bike_id": "9da3a7a2bc80a1311b1fc83801d134f3"}, {"lon": -77.02300383333333, "rental_uris": {"android": "https://dc.lft.to/lastmile_qr_scan", "ios": "https://dc.lft.to/lastmile_qr_scan"}, "fusion_lon": 0.0, "is_reserved": 0, "is_disabled": 0, "fusion_lat": 0.0, "type": "electric_bike", "name": "0659f30d2c8396d27566001b0b5a0f52", "lat": 38.966748, "bike_id": "0659f30d2c8396d27566001b0b5a0f52"}, {"lon": -77.03541483333333, "rental_uris": {"android": "https://dc.lft.to/lastmile_qr_scan", "ios": "https://dc.lft.to/lastmile_qr_scan"}, "fusion_lon": 0.0, "is_reserved": 0, "is_disabled": 0, "fusion_lat": 0.0, "type": "electric_scooter", "name": "1381b6542e76b16638c5114575bac1b7", "lat": 38.923354333333336, "bike_id": "1381b6542e76b16638c5114575bac1b7"}, {"lon": -77.06284933333333, "rental_uris": {"android": "https://dc.lft.to/lastmile_qr_scan", "ios": "https://dc.lft.to/lastmile_qr_scan"}, "fusion_lon": 0.0, "is_reserved": 0, "is_disabled": 0, "fusion_lat": 0.0, "type": "electric_scooter", "name": "ff9bf27f658b9077abd2737230ee3c3e", "lat": 38.91240633333334, "bike_id": "ff9bf27f658b9077abd2737230ee3c3e"}, {"lon": -77.00868483333333, "rental_uris": {"android": "https://dc.lft.to/lastmile_qr_scan", "ios": "https://dc.lft.to/lastmile_qr_scan"}, "fusion_lon": 0.0, "is_reserved": 0, "is_disabled": 0, "fusion_lat": 0.0, "type": "electric_scooter", "name": "f02d4400471bf21e7ea4a3d9d7da5bf4", "lat": 38.906313, "bike_id": "f02d4400471bf21e7ea4a3d9d7da5bf4"}, {"lon": -77.04191666666667, "rental_uris": {"android": "https://dc.lft.to/lastmile_qr_scan", "ios": "https://dc.lft.to/lastmile_qr_scan"}, "fusion_lon": 0.0, "is_reserved": 0, "is_disabled": 0, "fusion_lat": 0.0, "type": "electric_scooter", "name": "b2ef1b5893e4dd8115b1a8f5d98b9dab", "lat": 38.922106166666666, "bike_id": "b2ef1b5893e4dd8115b1a8f5d98b9dab"}, {"lon": -77.0212245, "rental_uris": {"android": "https://dc.lft.to/lastmile_qr_scan", "ios": "https://dc.lft.to/lastmile_qr_scan"}, "fusion_lon": 0.0, "is_reserved": 0, "is_disabled": 0, "fusion_lat": 0.0, "type": "electric_scooter", "name": "51864bd5bfdc8713b4b44e6ea1042c11", "lat": 38.92672183333333, "bike_id": "51864bd5bfdc8713b4b44e6ea1042c11"}, {"lon": -77.04371833333333, "rental_uris": {"android": "https://dc.lft.to/lastmile_qr_scan", "ios": "https://dc.lft.to/lastmile_qr_scan"}, "fusion_lon": 0.0, "is_reserved": 0, "is_disabled": 0, "fusion_lat": 0.0, "type": "electric_scooter", "name": "74dfde2b7a10249ed79c182a4ed4c924", "lat": 38.910546, "bike_id": "74dfde2b7a10249ed79c182a4ed4c924"}, {"lon": -77.0190345, "rental_uris": {"android": "https://dc.lft.to/lastmile_qr_scan", "ios": "https://dc.lft.to/lastmile_qr_scan"}, "fusion_lon": 0.0, "is_reserved": 0, "is_disabled": 0, "fusion_lat": 0.0, "type": "electric_scooter", "name": "6e7f63d090edb0f6c66a98a3d39c396e", "lat": 38.91915633333333, "bike_id": "6e7f63d090edb0f6c66a98a3d39c396e"}, {"lon": -77.04703433333333, "rental_uris": {"android": "https://dc.lft.to/lastmile_qr_scan", "ios": "https://dc.lft.to/lastmile_qr_scan"}, "fusion_lon": 0.0, "is_reserved": 0, "is_disabled": 0, "fusion_lat": 0.0, "type": "electric_scooter", "name": "ca3a748e90b8d667acd11a4c7345220a", "lat": 38.92142666666667, "bike_id": "ca3a748e90b8d667acd11a4c7345220a"}, {"lon": -77.03291883333333, "rental_uris": {"android": "https://dc.lft.to/lastmile_qr_scan", "ios": "https://dc.lft.to/lastmile_qr_scan"}, "fusion_lon": 0.0, "is_reserved": 0, "is_disabled": 0, "fusion_lat": 0.0, "type": "electric_scooter", "name": "c3875859485e4c4ab83b3eabad126cd4", "lat": 38.937584333333334, "bike_id": "c3875859485e4c4ab83b3eabad126cd4"}, {"lon": -77.04500883333333, "rental_uris": {"android": "https://dc.lft.to/lastmile_qr_scan", "ios": "https://dc.lft.to/lastmile_qr_scan"}, "fusion_lon": 0.0, "is_reserved": 0, "is_disabled": 0, "fusion_lat": 0.0, "type": "electric_scooter", "name": "23db8cdf741e252e8c20c9ddb9494640", "lat": 38.90371533333333, "bike_id": "23db8cdf741e252e8c20c9ddb9494640"}, {"lon": -76.976663, "rental_uris": {"android": "https://dc.lft.to/lastmile_qr_scan", "ios": "https://dc.lft.to/lastmile_qr_scan"}, "fusion_lon": 0.0, "is_reserved": 0, "is_disabled": 0, "fusion_lat": 0.0, "type": "electric_scooter", "name": "7c7fc4ff27e3dfccf92055dfc6cc9221", "lat": 38.84054583333333, "bike_id": "7c7fc4ff27e3dfccf92055dfc6cc9221"}, {"lon": -77.072438, "rental_uris": {"android": "https://dc.lft.to/lastmile_qr_scan", "ios": "https://dc.lft.to/lastmile_qr_scan"}, "fusion_lon": 0.0, "is_reserved": 0, "is_disabled": 0, "fusion_lat": 0.0, "type": "electric_scooter", "name": "3bfa02fd47073b14b82dd5b0f8aefebb", "lat": 38.90786266666667, "bike_id": "3bfa02fd47073b14b82dd5b0f8aefebb"}, {"lon": -77.00030833333334, "rental_uris": {"android": "https://dc.lft.to/lastmile_qr_scan", "ios": "https://dc.lft.to/lastmile_qr_scan"}, "fusion_lon": 0.0, "is_reserved": 0, "is_disabled": 0, "fusion_lat": 0.0, "type": "electric_scooter", "name": "634bac8def9379b60c4f1ff4e9241bd3", "lat": 38.87485316666667, "bike_id": "634bac8def9379b60c4f1ff4e9241bd3"}, {"lon": -77.0252715, "rental_uris": {"android": "https://dc.lft.to/lastmile_qr_scan", "ios": "https://dc.lft.to/lastmile_qr_scan"}, "fusion_lon": 0.0, "is_reserved": 0, "is_disabled": 0, "fusion_lat": 0.0, "type": "electric_scooter", "name": "2feaffca1292da374216a512a624d61c", "lat": 38.921031, "bike_id": "2feaffca1292da374216a512a624d61c"}, {"lon": -77.018311, "rental_uris": {"android": "https://dc.lft.to/lastmile_qr_scan", "ios": "https://dc.lft.to/lastmile_qr_scan"}, "fusion_lon": 0.0, "is_reserved": 0, "is_disabled": 0, "fusion_lat": 0.0, "type": "electric_scooter", "name": "5bd8b42240d51124304261a14e79b5fd", "lat": 38.92236116666667, "bike_id": "5bd8b42240d51124304261a14e79b5fd"}, {"lon": -77.03432883333333, "rental_uris": {"android": "https://dc.lft.to/lastmile_qr_scan", "ios": "https://dc.lft.to/lastmile_qr_scan"}, "fusion_lon": 0.0, "is_reserved": 0, "is_disabled": 0, "fusion_lat": 0.0, "type": "electric_scooter", "name": "98ff1f25553a1d149a7e801b30df8e31", "lat": 38.918098666666666, "bike_id": "98ff1f25553a1d149a7e801b30df8e31"}, {"lon": -77.00915316666666, "rental_uris": {"android": "https://dc.lft.to/lastmile_qr_scan", "ios": "https://dc.lft.to/lastmile_qr_scan"}, "fusion_lon": 0.0, "is_reserved": 0, "is_disabled": 0, "fusion_lat": 0.0, "type": "electric_scooter", "name": "11c644fa932f257c3a044636475ed7cf", "lat": 38.876407666666665, "bike_id": "11c644fa932f257c3a044636475ed7cf"}, {"lon": -77.02692533333334, "rental_uris": {"android": "https://dc.lft.to/lastmile_qr_scan", "ios": "https://dc.lft.to/lastmile_qr_scan"}, "fusion_lon": 0.0, "is_reserved": 0, "is_disabled": 0, "fusion_lat": 0.0, "type": "electric_scooter", "name": "a1f6a10ba477f91514ac7c5f5899cf1f", "lat": 38.90956166666667, "bike_id": "a1f6a10ba477f91514ac7c5f5899cf1f"}, {"lon": -76.999503, "rental_uris": {"android": "https://dc.lft.to/lastmile_qr_scan", "ios": "https://dc.lft.to/lastmile_qr_scan"}, "fusion_lon": 0.0, "is_reserved": 0, "is_disabled": 0, "fusion_lat": 0.0, "type": "electric_scooter", "name": "dbc7638a65d9f1400874e28742e3d9ac", "lat": 38.92350533333333, "bike_id": "dbc7638a65d9f1400874e28742e3d9ac"}, {"lon": -77.02300883333334, "rental_uris": {"android": "https://dc.lft.to/lastmile_qr_scan", "ios": "https://dc.lft.to/lastmile_qr_scan"}, "fusion_lon": 0.0, "is_reserved": 0, "is_disabled": 0, "fusion_lat": 0.0, "type": "electric_scooter", "name": "abdb9bd2f01bdafdff3dad6ce2f18801", "lat": 38.916146, "bike_id": "abdb9bd2f01bdafdff3dad6ce2f18801"}, {"lon": -77.01356666666666, "rental_uris": {"android": "https://dc.lft.to/lastmile_qr_scan", "ios": "https://dc.lft.to/lastmile_qr_scan"}, "fusion_lon": 0.0, "is_reserved": 0, "is_disabled": 0, "fusion_lat": 0.0, "type": "electric_scooter", "name": "b1ddce9d67a1378d59d9a9205ca73bd4", "lat": 38.94211416666667, "bike_id": "b1ddce9d67a1378d59d9a9205ca73bd4"}, {"lon": -77.01075916666667, "rental_uris": {"android": "https://dc.lft.to/lastmile_qr_scan", "ios": "https://dc.lft.to/lastmile_qr_scan"}, "fusion_lon": 0.0, "is_reserved": 0, "is_disabled": 0, "fusion_lat": 0.0, "type": "electric_scooter", "name": "56e748c646dcabe44d1b42f3cfc50f7e", "lat": 38.89443083333333, "bike_id": "56e748c646dcabe44d1b42f3cfc50f7e"}, {"lon": -77.005376, "rental_uris": {"android": "https://dc.lft.to/lastmile_qr_scan", "ios": "https://dc.lft.to/lastmile_qr_scan"}, "fusion_lon": 0.0, "is_reserved": 0, "is_disabled": 0, "fusion_lat": 0.0, "type": "electric_scooter", "name": "fc99edfe7ef65328afe0fade7db6c6ba", "lat": 38.87544466666667, "bike_id": "fc99edfe7ef65328afe0fade7db6c6ba"}, {"lon": -77.05173083333334, "rental_uris": {"android": "https://dc.lft.to/lastmile_qr_scan", "ios": "https://dc.lft.to/lastmile_qr_scan"}, "fusion_lon": 0.0, "is_reserved": 0, "is_disabled": 0, "fusion_lat": 0.0, "type": "electric_scooter", "name": "ed974d1e4a4d605aa15ae8d8f70d756b", "lat": 38.92339916666667, "bike_id": "ed974d1e4a4d605aa15ae8d8f70d756b"}, {"lon": -77.03463833333333, "rental_uris": {"android": "https://dc.lft.to/lastmile_qr_scan", "ios": "https://dc.lft.to/lastmile_qr_scan"}, "fusion_lon": 0.0, "is_reserved": 0, "is_disabled": 0, "fusion_lat": 0.0, "type": "electric_scooter", "name": "a02cbb206b9df4b5319606bab434a700", "lat": 38.903794833333336, "bike_id": "a02cbb206b9df4b5319606bab434a700"}, {"lon": -77.000621, "rental_uris": {"android": "https://dc.lft.to/lastmile_qr_scan", "ios": "https://dc.lft.to/lastmile_qr_scan"}, "fusion_lon": 0.0, "is_reserved": 0, "is_disabled": 0, "fusion_lat": 0.0, "type": "electric_scooter", "name": "d52a4cb3474d52f99272afca72bd9563", "lat": 38.87373766666666, "bike_id": "d52a4cb3474d52f99272afca72bd9563"}, {"lon": -77.0216255, "rental_uris": {"android": "https://dc.lft.to/lastmile_qr_scan", "ios": "https://dc.lft.to/lastmile_qr_scan"}, "fusion_lon": 0.0, "is_reserved": 0, "is_disabled": 0, "fusion_lat": 0.0, "type": "electric_scooter", "name": "25cf53d13d5dc99d50594185ddd6216b", "lat": 38.9261145, "bike_id": "25cf53d13d5dc99d50594185ddd6216b"}, {"lon": -77.02116916666667, "rental_uris": {"android": "https://dc.lft.to/lastmile_qr_scan", "ios": "https://dc.lft.to/lastmile_qr_scan"}, "fusion_lon": 0.0, "is_reserved": 0, "is_disabled": 0, "fusion_lat": 0.0, "type": "electric_scooter", "name": "e54529fd85b726fa3659df5b9b8eb9b3", "lat": 38.91556033333333, "bike_id": "e54529fd85b726fa3659df5b9b8eb9b3"}, {"lon": -77.01128466666667, "rental_uris": {"android": "https://dc.lft.to/lastmile_qr_scan", "ios": "https://dc.lft.to/lastmile_qr_scan"}, "fusion_lon": 0.0, "is_reserved": 0, "is_disabled": 0, "fusion_lat": 0.0, "type": "electric_scooter", "name": "e7daea84ffdcaf888b03adecd5160e6f", "lat": 38.89546683333333, "bike_id": "e7daea84ffdcaf888b03adecd5160e6f"}, {"lon": -77.0028995, "rental_uris": {"android": "https://dc.lft.to/lastmile_qr_scan", "ios": "https://dc.lft.to/lastmile_qr_scan"}, "fusion_lon": 0.0, "is_reserved": 0, "is_disabled": 0, "fusion_lat": 0.0, "type": "electric_scooter", "name": "30db687f2ca12cc70db5fe82b176a132", "lat": 38.8919965, "bike_id": "30db687f2ca12cc70db5fe82b176a132"}, {"lon": -77.04472833333334, "rental_uris": {"android": "https://dc.lft.to/lastmile_qr_scan", "ios": "https://dc.lft.to/lastmile_qr_scan"}, "fusion_lon": 0.0, "is_reserved": 0, "is_disabled": 0, "fusion_lat": 0.0, "type": "electric_scooter", "name": "a60d49113931d59cf9983974bf02aa2e", "lat": 38.892213166666664, "bike_id": "a60d49113931d59cf9983974bf02aa2e"}, {"lon": -77.000643, "rental_uris": {"android": "https://dc.lft.to/lastmile_qr_scan", "ios": "https://dc.lft.to/lastmile_qr_scan"}, "fusion_lon": 0.0, "is_reserved": 0, "is_disabled": 0, "fusion_lat": 0.0, "type": "electric_scooter", "name": "6b697416cc00dfd41cd3b29c54718d3e", "lat": 38.8942935, "bike_id": "6b697416cc00dfd41cd3b29c54718d3e"}, {"lon": -77.03258933333333, "rental_uris": {"android": "https://dc.lft.to/lastmile_qr_scan", "ios": "https://dc.lft.to/lastmile_qr_scan"}, "fusion_lon": 0.0, "is_reserved": 0, "is_disabled": 0, "fusion_lat": 0.0, "type": "electric_scooter", "name": "4b4f8e6e431538f883e6c7c65830d6ca", "lat": 38.92844933333333, "bike_id": "4b4f8e6e431538f883e6c7c65830d6ca"}, {"lon": -77.016057, "rental_uris": {"android": "https://dc.lft.to/lastmile_qr_scan", "ios": "https://dc.lft.to/lastmile_qr_scan"}, "fusion_lon": 0.0, "is_reserved": 0, "is_disabled": 0, "fusion_lat": 0.0, "type": "electric_scooter", "name": "0851c542625af968d88bf8853c4ae731", "lat": 38.92049983333333, "bike_id": "0851c542625af968d88bf8853c4ae731"}, {"lon": -77.04907433333334, "rental_uris": {"android": "https://dc.lft.to/lastmile_qr_scan", "ios": "https://dc.lft.to/lastmile_qr_scan"}, "fusion_lon": 0.0, "is_reserved": 0, "is_disabled": 0, "fusion_lat": 0.0, "type": "electric_scooter", "name": "3fd5e266b982d1d12793bfa19258730d", "lat": 38.89835683333333, "bike_id": "3fd5e266b982d1d12793bfa19258730d"}, {"lon": -76.97801916666667, "rental_uris": {"android": "https://dc.lft.to/lastmile_qr_scan", "ios": "https://dc.lft.to/lastmile_qr_scan"}, "fusion_lon": 0.0, "is_reserved": 0, "is_disabled": 0, "fusion_lat": 0.0, "type": "electric_scooter", "name": "f0a77e3492a04012c766ce526594d262", "lat": 38.903129666666665, "bike_id": "f0a77e3492a04012c766ce526594d262"}, {"lon": -77.08305416666667, "rental_uris": {"android": "https://dc.lft.to/lastmile_qr_scan", "ios": "https://dc.lft.to/lastmile_qr_scan"}, "fusion_lon": 0.0, "is_reserved": 0, "is_disabled": 0, "fusion_lat": 0.0, "type": "electric_scooter", "name": "415ed852f56df060569cd1f7fd8351bc", "lat": 38.9539465, "bike_id": "415ed852f56df060569cd1f7fd8351bc"}, {"lon": -77.00348, "rental_uris": {"android": "https://dc.lft.to/lastmile_qr_scan", "ios": "https://dc.lft.to/lastmile_qr_scan"}, "fusion_lon": 0.0, "is_reserved": 0, "is_disabled": 0, "fusion_lat": 0.0, "type": "electric_scooter", "name": "a5a0824544c1fc55a0d0b3751cf4fb05", "lat": 38.895331666666664, "bike_id": "a5a0824544c1fc55a0d0b3751cf4fb05"}, {"lon": -77.23411083333333, "rental_uris": {"android": "https://dc.lft.to/lastmile_qr_scan", "ios": "https://dc.lft.to/lastmile_qr_scan"}, "fusion_lon": 0.0, "is_reserved": 0, "is_disabled": 0, "fusion_lat": 0.0, "type": "electric_bike", "name": "5a1e5e27961eafb795d970f904397a3c", "lat": 38.87579783333334, "bike_id": "5a1e5e27961eafb795d970f904397a3c"}, {"lon": -77.00319233333333, "rental_uris": {"android": "https://dc.lft.to/lastmile_qr_scan", "ios": "https://dc.lft.to/lastmile_qr_scan"}, "fusion_lon": 0.0, "is_reserved": 0, "is_disabled": 0, "fusion_lat": 0.0, "type": "electric_scooter", "name": "bbfd2af843f664c34f9dd152c9a7e2fa", "lat": 38.90838016666667, "bike_id": "bbfd2af843f664c34f9dd152c9a7e2fa"}, {"lon": -77.04823883333333, "rental_uris": {"android": "https://dc.lft.to/lastmile_qr_scan", "ios": "https://dc.lft.to/lastmile_qr_scan"}, "fusion_lon": 0.0, "is_reserved": 0, "is_disabled": 0, "fusion_lat": 0.0, "type": "electric_scooter", "name": "1b4f29d8201757a692b5467a96278fe8", "lat": 38.905226, "bike_id": "1b4f29d8201757a692b5467a96278fe8"}, {"lon": -77.03275666666667, "rental_uris": {"android": "https://dc.lft.to/lastmile_qr_scan", "ios": "https://dc.lft.to/lastmile_qr_scan"}, "fusion_lon": 0.0, "is_reserved": 0, "is_disabled": 0, "fusion_lat": 0.0, "type": "electric_scooter", "name": "74a020c859201ae37810218bcb3f822a", "lat": 38.932563, "bike_id": "74a020c859201ae37810218bcb3f822a"}, {"lon": -77.0469725, "rental_uris": {"android": "https://dc.lft.to/lastmile_qr_scan", "ios": "https://dc.lft.to/lastmile_qr_scan"}, "fusion_lon": 0.0, "is_reserved": 0, "is_disabled": 0, "fusion_lat": 0.0, "type": "electric_scooter", "name": "941c0383039bd49ae9ad2f39c0700703", "lat": 38.92100966666667, "bike_id": "941c0383039bd49ae9ad2f39c0700703"}, {"lon": -77.03662716666666, "rental_uris": {"android": "https://dc.lft.to/lastmile_qr_scan", "ios": "https://dc.lft.to/lastmile_qr_scan"}, "fusion_lon": 0.0, "is_reserved": 0, "is_disabled": 0, "fusion_lat": 0.0, "type": "electric_scooter", "name": "35d1212b86c3c219ac362cc7eacd3c76", "lat": 38.916684333333336, "bike_id": "35d1212b86c3c219ac362cc7eacd3c76"}, {"lon": -77.026146, "rental_uris": {"android": "https://dc.lft.to/lastmile_qr_scan", "ios": "https://dc.lft.to/lastmile_qr_scan"}, "fusion_lon": 0.0, "is_reserved": 0, "is_disabled": 0, "fusion_lat": 0.0, "type": "electric_scooter", "name": "4a8103e45f950fde53bfde59bfe88b29", "lat": 38.9172195, "bike_id": "4a8103e45f950fde53bfde59bfe88b29"}, {"lon": -76.99672033333333, "rental_uris": {"android": "https://dc.lft.to/lastmile_qr_scan", "ios": "https://dc.lft.to/lastmile_qr_scan"}, "fusion_lon": 0.0, "is_reserved": 0, "is_disabled": 0, "fusion_lat": 0.0, "type": "electric_scooter", "name": "636a6b25fee75283d82fb7ca6296b3a1", "lat": 38.85652783333333, "bike_id": "636a6b25fee75283d82fb7ca6296b3a1"}, {"lon": -77.05524383333334, "rental_uris": {"android": "https://dc.lft.to/lastmile_qr_scan", "ios": "https://dc.lft.to/lastmile_qr_scan"}, "fusion_lon": 0.0, "is_reserved": 0, "is_disabled": 0, "fusion_lat": 0.0, "type": "electric_scooter", "name": "0c6e7ea7d86dd07d16635dc452b5632a", "lat": 38.897298666666664, "bike_id": "0c6e7ea7d86dd07d16635dc452b5632a"}, {"lon": -77.09060416666667, "rental_uris": {"android": "https://dc.lft.to/lastmile_qr_scan", "ios": "https://dc.lft.to/lastmile_qr_scan"}, "fusion_lon": 0.0, "is_reserved": 0, "is_disabled": 0, "fusion_lat": 0.0, "type": "electric_scooter", "name": "ab375f94b83d35f547736f49bec8b871", "lat": 38.93445966666667, "bike_id": "ab375f94b83d35f547736f49bec8b871"}, {"lon": -77.041549, "rental_uris": {"android": "https://dc.lft.to/lastmile_qr_scan", "ios": "https://dc.lft.to/lastmile_qr_scan"}, "fusion_lon": 0.0, "is_reserved": 0, "is_disabled": 0, "fusion_lat": 0.0, "type": "electric_scooter", "name": "b920fb5b91daadb5a3b6c1cb01e986df", "lat": 38.9171605, "bike_id": "b920fb5b91daadb5a3b6c1cb01e986df"}, {"lon": -77.041275, "rental_uris": {"android": "https://dc.lft.to/lastmile_qr_scan", "ios": "https://dc.lft.to/lastmile_qr_scan"}, "fusion_lon": 0.0, "is_reserved": 0, "is_disabled": 0, "fusion_lat": 0.0, "type": "electric_scooter", "name": "866f70e5065322985ffd1b93939a8e91", "lat": 38.899576, "bike_id": "866f70e5065322985ffd1b93939a8e91"}, {"lon": -77.033259, "rental_uris": {"android": "https://dc.lft.to/lastmile_qr_scan", "ios": "https://dc.lft.to/lastmile_qr_scan"}, "fusion_lon": 0.0, "is_reserved": 0, "is_disabled": 0, "fusion_lat": 0.0, "type": "electric_scooter", "name": "6742f4843bed4da25ef9fa549ee29bd9", "lat": 38.896541166666665, "bike_id": "6742f4843bed4da25ef9fa549ee29bd9"}, {"lon": -76.9852235, "rental_uris": {"android": "https://dc.lft.to/lastmile_qr_scan", "ios": "https://dc.lft.to/lastmile_qr_scan"}, "fusion_lon": 0.0, "is_reserved": 0, "is_disabled": 0, "fusion_lat": 0.0, "type": "electric_bike", "name": "353b120f293cd29a266fb62dd2b1ec4c", "lat": 38.86890966666667, "bike_id": "353b120f293cd29a266fb62dd2b1ec4c"}, {"lon": -77.0466945, "rental_uris": {"android": "https://dc.lft.to/lastmile_qr_scan", "ios": "https://dc.lft.to/lastmile_qr_scan"}, "fusion_lon": 0.0, "is_reserved": 0, "is_disabled": 0, "fusion_lat": 0.0, "type": "electric_scooter", "name": "d3147e26123bba07d9e6ba9bfcfc2910", "lat": 38.89628016666666, "bike_id": "d3147e26123bba07d9e6ba9bfcfc2910"}, {"lon": -77.08071116666666, "rental_uris": {"android": "https://dc.lft.to/lastmile_qr_scan", "ios": "https://dc.lft.to/lastmile_qr_scan"}, "fusion_lon": 0.0, "is_reserved": 0, "is_disabled": 0, "fusion_lat": 0.0, "type": "electric_bike", "name": "6d318194299110341fd96b74f5d1d2ed", "lat": 39.052515, "bike_id": "6d318194299110341fd96b74f5d1d2ed"}, {"lon": -76.9855505, "rental_uris": {"android": "https://dc.lft.to/lastmile_qr_scan", "ios": "https://dc.lft.to/lastmile_qr_scan"}, "fusion_lon": 0.0, "is_reserved": 0, "is_disabled": 0, "fusion_lat": 0.0, "type": "electric_scooter", "name": "75b562dfb54fef5a8556daf330d63e8a", "lat": 38.89973166666667, "bike_id": "75b562dfb54fef5a8556daf330d63e8a"}, {"lon": -77.02787966666666, "rental_uris": {"android": "https://dc.lft.to/lastmile_qr_scan", "ios": "https://dc.lft.to/lastmile_qr_scan"}, "fusion_lon": 0.0, "is_reserved": 0, "is_disabled": 0, "fusion_lat": 0.0, "type": "electric_scooter", "name": "18f1a724fc1b455cb53c98d90dcb2f0d", "lat": 38.930588, "bike_id": "18f1a724fc1b455cb53c98d90dcb2f0d"}, {"lon": -77.02101633333334, "rental_uris": {"android": "https://dc.lft.to/lastmile_qr_scan", "ios": "https://dc.lft.to/lastmile_qr_scan"}, "fusion_lon": 0.0, "is_reserved": 0, "is_disabled": 0, "fusion_lat": 0.0, "type": "electric_scooter", "name": "4c94605c095d2e65890d4b4c82858662", "lat": 38.914137833333335, "bike_id": "4c94605c095d2e65890d4b4c82858662"}, {"lon": -76.996413, "rental_uris": {"android": "https://dc.lft.to/lastmile_qr_scan", "ios": "https://dc.lft.to/lastmile_qr_scan"}, "fusion_lon": 0.0, "is_reserved": 0, "is_disabled": 0, "fusion_lat": 0.0, "type": "electric_scooter", "name": "b669871eea83f462b6ae3b8de7303058", "lat": 38.90043266666667, "bike_id": "b669871eea83f462b6ae3b8de7303058"}, {"lon": -77.03604116666666, "rental_uris": {"android": "https://dc.lft.to/lastmile_qr_scan", "ios": "https://dc.lft.to/lastmile_qr_scan"}, "fusion_lon": 0.0, "is_reserved": 0, "is_disabled": 0, "fusion_lat": 0.0, "type": "electric_scooter", "name": "b45d0c1fdb46cc99b7b36232075f2d8f", "lat": 38.917016333333336, "bike_id": "b45d0c1fdb46cc99b7b36232075f2d8f"}, {"lon": -77.03416266666666, "rental_uris": {"android": "https://dc.lft.to/lastmile_qr_scan", "ios": "https://dc.lft.to/lastmile_qr_scan"}, "fusion_lon": 0.0, "is_reserved": 0, "is_disabled": 0, "fusion_lat": 0.0, "type": "electric_scooter", "name": "bdf297b26628f68357055a88f8724c70", "lat": 38.93542516666667, "bike_id": "bdf297b26628f68357055a88f8724c70"}, {"lon": -77.0400365, "rental_uris": {"android": "https://dc.lft.to/lastmile_qr_scan", "ios": "https://dc.lft.to/lastmile_qr_scan"}, "fusion_lon": 0.0, "is_reserved": 0, "is_disabled": 0, "fusion_lat": 0.0, "type": "electric_scooter", "name": "7c39202055a8bf43503649d79c1c1e43", "lat": 38.934240333333335, "bike_id": "7c39202055a8bf43503649d79c1c1e43"}, {"lon": -77.0485025, "rental_uris": {"android": "https://dc.lft.to/lastmile_qr_scan", "ios": "https://dc.lft.to/lastmile_qr_scan"}, "fusion_lon": 0.0, "is_reserved": 0, "is_disabled": 0, "fusion_lat": 0.0, "type": "electric_scooter", "name": "136979fc67594394b263ad43a41d75d8", "lat": 38.91962916666667, "bike_id": "136979fc67594394b263ad43a41d75d8"}, {"lon": -76.9375855, "rental_uris": {"android": "https://dc.lft.to/lastmile_qr_scan", "ios": "https://dc.lft.to/lastmile_qr_scan"}, "fusion_lon": 0.0, "is_reserved": 0, "is_disabled": 0, "fusion_lat": 0.0, "type": "electric_scooter", "name": "e71a548989f088bb60e576b82b21925c", "lat": 38.890074166666665, "bike_id": "e71a548989f088bb60e576b82b21925c"}, {"lon": -76.99483416666666, "rental_uris": {"android": "https://dc.lft.to/lastmile_qr_scan", "ios": "https://dc.lft.to/lastmile_qr_scan"}, "fusion_lon": 0.0, "is_reserved": 0, "is_disabled": 0, "fusion_lat": 0.0, "type": "electric_scooter", "name": "25ff7e742a9e902f0a88f1dda830366c", "lat": 38.905509333333335, "bike_id": "25ff7e742a9e902f0a88f1dda830366c"}, {"lon": -77.024026, "rental_uris": {"android": "https://dc.lft.to/lastmile_qr_scan", "ios": "https://dc.lft.to/lastmile_qr_scan"}, "fusion_lon": 0.0, "is_reserved": 0, "is_disabled": 0, "fusion_lat": 0.0, "type": "electric_scooter", "name": "006c45628a248dd2a712736edcd7f535", "lat": 38.90188066666666, "bike_id": "006c45628a248dd2a712736edcd7f535"}, {"lon": -77.07557116666666, "rental_uris": {"android": "https://dc.lft.to/lastmile_qr_scan", "ios": "https://dc.lft.to/lastmile_qr_scan"}, "fusion_lon": 0.0, "is_reserved": 0, "is_disabled": 0, "fusion_lat": 0.0, "type": "electric_scooter", "name": "ef3052e67e8c2d2cc49880b41a4a9f9f", "lat": 38.920891833333336, "bike_id": "ef3052e67e8c2d2cc49880b41a4a9f9f"}, {"lon": -77.02657016666667, "rental_uris": {"android": "https://dc.lft.to/lastmile_qr_scan", "ios": "https://dc.lft.to/lastmile_qr_scan"}, "fusion_lon": 0.0, "is_reserved": 0, "is_disabled": 0, "fusion_lat": 0.0, "type": "electric_scooter", "name": "4df007909c28abff7e3825aba4dc3009", "lat": 38.89223633333334, "bike_id": "4df007909c28abff7e3825aba4dc3009"}, {"lon": -76.98064516666666, "rental_uris": {"android": "https://dc.lft.to/lastmile_qr_scan", "ios": "https://dc.lft.to/lastmile_qr_scan"}, "fusion_lon": 0.0, "is_reserved": 0, "is_disabled": 0, "fusion_lat": 0.0, "type": "electric_scooter", "name": "11807445e9804ea6306def915706e870", "lat": 38.88492383333333, "bike_id": "11807445e9804ea6306def915706e870"}, {"lon": -77.022073, "rental_uris": {"android": "https://dc.lft.to/lastmile_qr_scan", "ios": "https://dc.lft.to/lastmile_qr_scan"}, "fusion_lon": 0.0, "is_reserved": 0, "is_disabled": 0, "fusion_lat": 0.0, "type": "electric_scooter", "name": "88374af0edecb46d203af15893d9723c", "lat": 38.881780666666664, "bike_id": "88374af0edecb46d203af15893d9723c"}, {"lon": -76.94198883333334, "rental_uris": {"android": "https://dc.lft.to/lastmile_qr_scan", "ios": "https://dc.lft.to/lastmile_qr_scan"}, "fusion_lon": 0.0, "is_reserved": 0, "is_disabled": 0, "fusion_lat": 0.0, "type": "electric_scooter", "name": "0629ffb7f3e4fef03b68d280c5253b4d", "lat": 38.90224633333333, "bike_id": "0629ffb7f3e4fef03b68d280c5253b4d"}, {"lon": -77.00086666666667, "rental_uris": {"android": "https://dc.lft.to/lastmile_qr_scan", "ios": "https://dc.lft.to/lastmile_qr_scan"}, "fusion_lon": 0.0, "is_reserved": 0, "is_disabled": 0, "fusion_lat": 0.0, "type": "electric_scooter", "name": "78212575270ab4ed63d42f0293ff8ec8", "lat": 38.87595966666667, "bike_id": "78212575270ab4ed63d42f0293ff8ec8"}, {"lon": -76.98357783333333, "rental_uris": {"android": "https://dc.lft.to/lastmile_qr_scan", "ios": "https://dc.lft.to/lastmile_qr_scan"}, "fusion_lon": 0.0, "is_reserved": 0, "is_disabled": 0, "fusion_lat": 0.0, "type": "electric_scooter", "name": "16b6f0263fc1aaefab8cb6775630bad8", "lat": 38.8872585, "bike_id": "16b6f0263fc1aaefab8cb6775630bad8"}, {"lon": -77.01232116666667, "rental_uris": {"android": "https://dc.lft.to/lastmile_qr_scan", "ios": "https://dc.lft.to/lastmile_qr_scan"}, "fusion_lon": 0.0, "is_reserved": 0, "is_disabled": 0, "fusion_lat": 0.0, "type": "electric_bike", "name": "3c9671352600ab6a2b2c621aa660f119", "lat": 38.95084266666667, "bike_id": "3c9671352600ab6a2b2c621aa660f119"}, {"lon": -77.043069, "rental_uris": {"android": "https://dc.lft.to/lastmile_qr_scan", "ios": "https://dc.lft.to/lastmile_qr_scan"}, "fusion_lon": 0.0, "is_reserved": 0, "is_disabled": 0, "fusion_lat": 0.0, "type": "electric_scooter", "name": "420d293bb1c7a33f6f71ea698ba8fbe1", "lat": 38.90563, "bike_id": "420d293bb1c7a33f6f71ea698ba8fbe1"}, {"lon": -77.0034005, "rental_uris": {"android": "https://dc.lft.to/lastmile_qr_scan", "ios": "https://dc.lft.to/lastmile_qr_scan"},