{"data": {"bikes": [{"is_disabled": 0, "fusion_lon": 0.0, "fusion_lat": 0.0, "lat": 38.91709933333333, "type": "electric_scooter", "lon": -77.02892133333333, "bike_id": "22c1b5730b3ee53fee21e0ab0d2790e4", "rental_uris": {"android": "https://dc.lft.to/lastmile_qr_scan", "ios": "https://dc.lft.to/lastmile_qr_scan"}, "name": "22c1b5730b3ee53fee21e0ab0d2790e4", "is_reserved": 0}, {"is_disabled": 0, "fusion_lon": 0.0, "fusion_lat": 0.0, "lat": 38.850661333333335, "type": "electric_bike", "lon": -76.97333966666666, "bike_id": "2bfadcc74cbded58f9c767414a875d3d", "rental_uris": {"android": "https://dc.lft.to/lastmile_qr_scan", "ios": "https://dc.lft.to/lastmile_qr_scan"}, "name": "2bfadcc74cbded58f9c767414a875d3d", "is_reserved": 0}, {"is_disabled": 0, "fusion_lon": 0.0, "fusion_lat": 0.0, "lat": 38.920199, "type": "electric_bike", "lon": -76.97302166666667, "bike_id": "b6b698541313b9c2ed1abbe92139380e", "rental_uris": {"android": "https://dc.lft.to/lastmile_qr_scan", "ios": "https://dc.lft.to/lastmile_qr_scan"}, "name": "b6b698541313b9c2ed1abbe92139380e", "is_reserved": 0}, {"is_disabled": 0, "fusion_lon": 0.0, "fusion_lat": 0.0, "lat": 38.923348, "type": "electric_scooter", "lon": -77.0430585, "bike_id": "2f02b276445f5fb36d5644c2da8115d9", "rental_uris": {"android": "https://dc.lft.to/lastmile_qr_scan", "ios": "https://dc.lft.to/lastmile_qr_scan"}, "name": "2f02b276445f5fb36d5644c2da8115d9", "is_reserved": 0}, {"is_disabled": 0, "fusion_lon": 0.0, "fusion_lat": 0.0, "lat": 38.90031366666667, "type": "electric_scooter", "lon": -77.04678133333333, "bike_id": "adcd6b58403b32bb9f2e859a863ae0f1", "rental_uris": {"android": "https://dc.lft.to/lastmile_qr_scan", "ios": "https://dc.lft.to/lastmile_qr_scan"}, "name": "adcd6b58403b32bb9f2e859a863ae0f1", "is_reserved": 0}, {"is_disabled": 0, "fusion_lon": 0.0, "fusion_lat": 0.0, "lat": 38.910278, "type": "electric_scooter", "lon": -77.03842283333333, "bike_id": "a738134e78672f4b1f24cc5525d11fc6", "rental_uris": {"android": "https://dc.lft.to/lastmile_qr_scan", "ios": "https://dc.lft.to/lastmile_qr_scan"}, "name": "a738134e78672f4b1f24cc5525d11fc6", "is_reserved": 0}, {"is_disabled": 0, "fusion_lon": 0.0, "fusion_lat": 0.0, "lat": 38.881626833333335, "type": "electric_scooter", "lon": -77.00907183333334, "bike_id": "f8fb93a73ed0ed76b265e68e1f7ff749", "rental_uris": {"android": "https://dc.lft.to/lastmile_qr_scan", "ios": "https://dc.lft.to/lastmile_qr_scan"}, "name": "f8fb93a73ed0ed76b265e68e1f7ff749", "is_reserved": 0}, {"is_disabled": 0, "fusion_lon": 0.0, "fusion_lat": 0.0, "lat": 38.859705, "type": "electric_scooter", "lon": -76.98430166666667, "bike_id": "413b981bd86b889bfb0b6e51a89ad2b2", "rental_uris": {"android": "https://dc.lft.to/lastmile_qr_scan", "ios": "https://dc.lft.to/lastmile_qr_scan"}, "name": "413b981bd86b889bfb0b6e51a89ad2b2", "is_reserved": 0}, {"is_disabled": 0, "fusion_lon": 0.0, "fusion_lat": 0.0, "lat": 38.902483, "type": "electric_scooter", "lon": -77.03463516666666, "bike_id": "61388bbae4156dc7a78b2b0c906c2f5e", "rental_uris": {"android": "https://dc.lft.to/lastmile_qr_scan", "ios": "https://dc.lft.to/lastmile_qr_scan"}, "name": "61388bbae4156dc7a78b2b0c906c2f5e", "is_reserved": 0}, {"is_disabled": 0, "fusion_lon": 0.0, "fusion_lat": 0.0, "lat": 38.921702333333336, "type": "electric_scooter", "lon": -77.01204966666667, "bike_id": "13716027a114dca81264c02d577e9dcd", "rental_uris": {"android": "https://dc.lft.to/lastmile_qr_scan", "ios": "https://dc.lft.to/lastmile_qr_scan"}, "name": "13716027a114dca81264c02d577e9dcd", "is_reserved": 0}, {"is_disabled": 0, "fusion_lon": 0.0, "fusion_lat": 0.0, "lat": 38.902610333333335, "type": "electric_scooter", "lon": -77.018561, "bike_id": "e1f2a11c8263c6dab85a0740367ed01b", "rental_uris": {"android": "https://dc.lft.to/lastmile_qr_scan", "ios": "https://dc.lft.to/lastmile_qr_scan"}, "name": "e1f2a11c8263c6dab85a0740367ed01b", "is_reserved": 0}, {"is_disabled": 0, "fusion_lon": 0.0, "fusion_lat": 0.0, "lat": 38.92797383333333, "type": "electric_scooter", "lon": -77.0229665, "bike_id": "31b4d06d3918577420bc5268116c0f1c", "rental_uris": {"android": "https://dc.lft.to/lastmile_qr_scan", "ios": "https://dc.lft.to/lastmile_qr_scan"}, "name": "31b4d06d3918577420bc5268116c0f1c", "is_reserved": 0}, {"is_disabled": 0, "fusion_lon": 0.0, "fusion_lat": 0.0, "lat": 38.92738383333333, "type": "electric_bike", "lon": -76.9936785, "bike_id": "d88db89ab61f860f38224b5e426d7b7a", "rental_uris": {"android": "https://dc.lft.to/lastmile_qr_scan", "ios": "https://dc.lft.to/lastmile_qr_scan"}, "name": "d88db89ab61f860f38224b5e426d7b7a", "is_reserved": 0}, {"is_disabled": 0, "fusion_lon": 0.0, "fusion_lat": 0.0, "lat": 38.939072, "type": "electric_scooter", "lon": -77.032664, "bike_id": "4632c4e687b470f91bdba5d22a231bdf", "rental_uris": {"android": "https://dc.lft.to/lastmile_qr_scan", "ios": "https://dc.lft.to/lastmile_qr_scan"}, "name": "4632c4e687b470f91bdba5d22a231bdf", "is_reserved": 0}, {"is_disabled": 0, "fusion_lon": 0.0, "fusion_lat": 0.0, "lat": 38.84431633333333, "type": "electric_scooter", "lon": -76.9981195, "bike_id": "1daf4f2a660012e22f21f211aceeaef4", "rental_uris": {"android": "https://dc.lft.to/lastmile_qr_scan", "ios": "https://dc.lft.to/lastmile_qr_scan"}, "name": "1daf4f2a660012e22f21f211aceeaef4", "is_reserved": 0}, {"is_disabled": 0, "fusion_lon": 0.0, "fusion_lat": 0.0, "lat": 38.9341125, "type": "electric_scooter", "lon": -77.04268866666666, "bike_id": "f9d27623b05462c81683db5b31eafcc0", "rental_uris": {"android": "https://dc.lft.to/lastmile_qr_scan", "ios": "https://dc.lft.to/lastmile_qr_scan"}, "name": "f9d27623b05462c81683db5b31eafcc0", "is_reserved": 0}, {"is_disabled": 0, "fusion_lon": 0.0, "fusion_lat": 0.0, "lat": 38.9004935, "type": "electric_scooter", "lon": -77.00068933333333, "bike_id": "c3baf91ca196d5c31bbecb23021a3732", "rental_uris": {"android": "https://dc.lft.to/lastmile_qr_scan", "ios": "https://dc.lft.to/lastmile_qr_scan"}, "name": "c3baf91ca196d5c31bbecb23021a3732", "is_reserved": 0}, {"is_disabled": 0, "fusion_lon": 0.0, "fusion_lat": 0.0, "lat": 38.903354, "type": "electric_scooter", "lon": -77.02147733333334, "bike_id": "5ca87e6d6f0d4b88dd3b2cc41c4d4ec0", "rental_uris": {"android": "https://dc.lft.to/lastmile_qr_scan", "ios": "https://dc.lft.to/lastmile_qr_scan"}, "name": "5ca87e6d6f0d4b88dd3b2cc41c4d4ec0", "is_reserved": 0}, {"is_disabled": 0, "fusion_lon": 0.0, "fusion_lat": 0.0, "lat": 38.897157666666665, "type": "electric_scooter", "lon": -77.03964983333333, "bike_id": "5b6148278012c6f0adcd33f47ccbd34c", "rental_uris": {"android": "https://dc.lft.to/lastmile_qr_scan", "ios": "https://dc.lft.to/lastmile_qr_scan"}, "name": "5b6148278012c6f0adcd33f47ccbd34c", "is_reserved": 0}, {"is_disabled": 0, "fusion_lon": 0.0, "fusion_lat": 0.0, "lat": 38.918116, "type": "electric_bike", "lon": -77.10185933333334, "bike_id": "4781321048430ba133cc63f919d8ab98", "rental_uris": {"android": "https://dc.lft.to/lastmile_qr_scan", "ios": "https://dc.lft.to/lastmile_qr_scan"}, "name": "4781321048430ba133cc63f919d8ab98", "is_reserved": 0}, {"is_disabled": 0, "fusion_lon": 0.0, "fusion_lat": 0.0, "lat": 38.91004483333333, "type": "electric_scooter", "lon": -77.02093183333334, "bike_id": "e9e3927bcfdedb6c6c58f174d1927d05", "rental_uris": {"android": "https://dc.lft.to/lastmile_qr_scan", "ios": "https://dc.lft.to/lastmile_qr_scan"}, "name": "e9e3927bcfdedb6c6c58f174d1927d05", "is_reserved": 0}, {"is_disabled": 0, "fusion_lon": 0.0, "fusion_lat": 0.0, "lat": 38.905864666666666, "type": "electric_scooter", "lon": -77.00427666666667, "bike_id": "d98252fca49c9655f3fe249857fa5fbf", "rental_uris": {"android": "https://dc.lft.to/lastmile_qr_scan", "ios": "https://dc.lft.to/lastmile_qr_scan"}, "name": "d98252fca49c9655f3fe249857fa5fbf", "is_reserved": 0}, {"is_disabled": 0, "fusion_lon": 0.0, "fusion_lat": 0.0, "lat": 38.920904166666666, "type": "electric_scooter", "lon": -77.0259635, "bike_id": "206e59b285201c1e26697f9099c9ee27", "rental_uris": {"android": "https://dc.lft.to/lastmile_qr_scan", "ios": "https://dc.lft.to/lastmile_qr_scan"}, "name": "206e59b285201c1e26697f9099c9ee27", "is_reserved": 0}, {"is_disabled": 0, "fusion_lon": 0.0, "fusion_lat": 0.0, "lat": 38.915538, "type": "electric_bike", "lon": -76.9836445, "bike_id": "5b9e3afc43b5c15ccb0247c8c1ab6b1f", "rental_uris": {"android": "https://dc.lft.to/lastmile_qr_scan", "ios": "https://dc.lft.to/lastmile_qr_scan"}, "name": "5b9e3afc43b5c15ccb0247c8c1ab6b1f", "is_reserved": 0}, {"is_disabled": 0, "fusion_lon": 0.0, "fusion_lat": 0.0, "lat": 38.88448616666667, "type": "electric_scooter", "lon": -76.95097633333333, "bike_id": "a2622c168fe950b2cc986c1aa60e2356", "rental_uris": {"android": "https://dc.lft.to/lastmile_qr_scan", "ios": "https://dc.lft.to/lastmile_qr_scan"}, "name": "a2622c168fe950b2cc986c1aa60e2356", "is_reserved": 0}, {"is_disabled": 0, "fusion_lon": 0.0, "fusion_lat": 0.0, "lat": 38.897863666666666, "type": "electric_scooter", "lon": -77.04754766666667, "bike_id": "8c558d6bf66260e2aab7fdd1de7de464", "rental_uris": {"android": "https://dc.lft.to/lastmile_qr_scan", "ios": "https://dc.lft.to/lastmile_qr_scan"}, "name": "8c558d6bf66260e2aab7fdd1de7de464", "is_reserved": 0}, {"is_disabled": 0, "fusion_lon": 0.0, "fusion_lat": 0.0, "lat": 38.88982583333333, "type": "electric_scooter", "lon": -77.0024845, "bike_id": "bac6d15ba577e349278f25d4f5b9216d", "rental_uris": {"android": "https://dc.lft.to/lastmile_qr_scan", "ios": "https://dc.lft.to/lastmile_qr_scan"}, "name": "bac6d15ba577e349278f25d4f5b9216d", "is_reserved": 0}, {"is_disabled": 0, "fusion_lon": 0.0, "fusion_lat": 0.0, "lat": 38.8867755, "type": "electric_scooter", "lon": -77.001773, "bike_id": "a589d74a07fbc891b37cd9c7d55350d0", "rental_uris": {"android": "https://dc.lft.to/lastmile_qr_scan", "ios": "https://dc.lft.to/lastmile_qr_scan"}, "name": "a589d74a07fbc891b37cd9c7d55350d0", "is_reserved": 0}, {"is_disabled": 0, "fusion_lon": 0.0, "fusion_lat": 0.0, "lat": 38.906364333333336, "type": "electric_scooter", "lon": -76.98566866666667, "bike_id": "5da967d0d50d58d9dfb89fd3711d78af", "rental_uris": {"android": "https://dc.lft.to/lastmile_qr_scan", "ios": "https://dc.lft.to/lastmile_qr_scan"}, "name": "5da967d0d50d58d9dfb89fd3711d78af", "is_reserved": 0}, {"is_disabled": 0, "fusion_lon": 0.0, "fusion_lat": 0.0, "lat": 39.026854, "type": "electric_bike", "lon": -77.12597716666667, "bike_id": "14f3121ac5a5960838f419912559258c", "rental_uris": {"android": "https://dc.lft.to/lastmile_qr_scan", "ios": "https://dc.lft.to/lastmile_qr_scan"}, "name": "14f3121ac5a5960838f419912559258c", "is_reserved": 0}, {"is_disabled": 0, "fusion_lon": 0.0, "fusion_lat": 0.0, "lat": 38.919023333333335, "type": "electric_scooter", "lon": -77.02394666666666, "bike_id": "fe12ac15cfb54a5fb79d174076821d18", "rental_uris": {"android": "https://dc.lft.to/lastmile_qr_scan", "ios": "https://dc.lft.to/lastmile_qr_scan"}, "name": "fe12ac15cfb54a5fb79d174076821d18", "is_reserved": 0}, {"is_disabled": 0, "fusion_lon": 0.0, "fusion_lat": 0.0, "lat": 38.9141095, "type": "electric_scooter", "lon": -77.0221795, "bike_id": "abc5bc2c87bfe4e29f8efe3ba749c0be", "rental_uris": {"android": "https://dc.lft.to/lastmile_qr_scan", "ios": "https://dc.lft.to/lastmile_qr_scan"}, "name": "abc5bc2c87bfe4e29f8efe3ba749c0be", "is_reserved": 0}, {"is_disabled": 0, "fusion_lon": 0.0, "fusion_lat": 0.0, "lat": 38.90587766666667, "type": "electric_scooter", "lon": -77.0706345, "bike_id": "0fd81d0b6c694c9f2a38ff306b6387a4", "rental_uris": {"android": "https://dc.lft.to/lastmile_qr_scan", "ios": "https://dc.lft.to/lastmile_qr_scan"}, "name": "0fd81d0b6c694c9f2a38ff306b6387a4", "is_reserved": 0}, {"is_disabled": 0, "fusion_lon": 0.0, "fusion_lat": 0.0, "lat": 38.91716183333333, "type": "electric_scooter", "lon": -77.0981415, "bike_id": "7c5933b827afff057a9232df8219101c", "rental_uris": {"android": "https://dc.lft.to/lastmile_qr_scan", "ios": "https://dc.lft.to/lastmile_qr_scan"}, "name": "7c5933b827afff057a9232df8219101c", "is_reserved": 0}, {"is_disabled": 0, "fusion_lon": 0.0, "fusion_lat": 0.0, "lat": 38.91111516666667, "type": "electric_scooter", "lon": -77.03832566666667, "bike_id": "906b9e7f04034ef0aae617b5f947efe8", "rental_uris": {"android": "https://dc.lft.to/lastmile_qr_scan", "ios": "https://dc.lft.to/lastmile_qr_scan"}, "name": "906b9e7f04034ef0aae617b5f947efe8", "is_reserved": 0}, {"is_disabled": 0, "fusion_lon": 0.0, "fusion_lat": 0.0, "lat": 38.917116166666666, "type": "electric_scooter", "lon": -77.02609866666667, "bike_id": "8a2637faab165901791607894a6e5be7", "rental_uris": {"android": "https://dc.lft.to/lastmile_qr_scan", "ios": "https://dc.lft.to/lastmile_qr_scan"}, "name": "8a2637faab165901791607894a6e5be7", "is_reserved": 0}, {"is_disabled": 0, "fusion_lon": 0.0, "fusion_lat": 0.0, "lat": 38.893063833333336, "type": "electric_scooter", "lon": -77.0220935, "bike_id": "8291ac5ec834e636e8e78ec5e7e313a6", "rental_uris": {"android": "https://dc.lft.to/lastmile_qr_scan", "ios": "https://dc.lft.to/lastmile_qr_scan"}, "name": "8291ac5ec834e636e8e78ec5e7e313a6", "is_reserved": 0}, {"is_disabled": 0, "fusion_lon": 0.0, "fusion_lat": 0.0, "lat": 38.923692, "type": "electric_scooter", "lon": -77.0517335, "bike_id": "0377544f7ea0479d21eb4607b3c1c589", "rental_uris": {"android": "https://dc.lft.to/lastmile_qr_scan", "ios": "https://dc.lft.to/lastmile_qr_scan"}, "name": "0377544f7ea0479d21eb4607b3c1c589", "is_reserved": 0}, {"is_disabled": 0, "fusion_lon": 0.0, "fusion_lat": 0.0, "lat": 38.94046616666667, "type": "electric_scooter", "lon": -77.02897116666666, "bike_id": "c1a714a43c0a04985c12aa983eb9ea70", "rental_uris": {"android": "https://dc.lft.to/lastmile_qr_scan", "ios": "https://dc.lft.to/lastmile_qr_scan"}, "name": "c1a714a43c0a04985c12aa983eb9ea70", "is_reserved": 0}, {"is_disabled": 0, "fusion_lon": 0.0, "fusion_lat": 0.0, "lat": 38.90243666666667, "type": "electric_scooter", "lon": -76.98970583333333, "bike_id": "2185d980708ac8fc81302ec13823e55b", "rental_uris": {"android": "https://dc.lft.to/lastmile_qr_scan", "ios": "https://dc.lft.to/lastmile_qr_scan"}, "name": "2185d980708ac8fc81302ec13823e55b", "is_reserved": 0}, {"is_disabled": 0, "fusion_lon": 0.0, "fusion_lat": 0.0, "lat": 38.89926366666667, "type": "electric_bike", "lon": -77.00361633333333, "bike_id": "3ad96f6ff5ec6bcde8398558083f79fa", "rental_uris": {"android": "https://dc.lft.to/lastmile_qr_scan", "ios": "https://dc.lft.to/lastmile_qr_scan"}, "name": "3ad96f6ff5ec6bcde8398558083f79fa", "is_reserved": 0}, {"is_disabled": 0, "fusion_lon": 0.0, "fusion_lat": 0.0, "lat": 38.887967833333335, "type": "electric_bike", "lon": -76.929973, "bike_id": "6cccdcac7e69c0fe8ec64c889ad32906", "rental_uris": {"android": "https://dc.lft.to/lastmile_qr_scan", "ios": "https://dc.lft.to/lastmile_qr_scan"}, "name": "6cccdcac7e69c0fe8ec64c889ad32906", "is_reserved": 0}, {"is_disabled": 0, "fusion_lon": 0.0, "fusion_lat": 0.0, "lat": 38.9057565, "type": "electric_scooter", "lon": -76.98754016666666, "bike_id": "0b0cf3d88f69246042ca69cc42cd12d9", "rental_uris": {"android": "https://dc.lft.to/lastmile_qr_scan", "ios": "https://dc.lft.to/lastmile_qr_scan"}, "name": "0b0cf3d88f69246042ca69cc42cd12d9", "is_reserved": 0}, {"is_disabled": 0, "fusion_lon": 0.0, "fusion_lat": 0.0, "lat": 38.92240283333334, "type": "electric_scooter", "lon": -77.029883, "bike_id": "7081cb811800737432e2b817980b076b", "rental_uris": {"android": "https://dc.lft.to/lastmile_qr_scan", "ios": "https://dc.lft.to/lastmile_qr_scan"}, "name": "7081cb811800737432e2b817980b076b", "is_reserved": 0}, {"is_disabled": 0, "fusion_lon": 0.0, "fusion_lat": 0.0, "lat": 38.9102645, "type": "electric_scooter", "lon": -77.04791, "bike_id": "584ec0bf6569c51e56c244c59aeca8b1", "rental_uris": {"android": "https://dc.lft.to/lastmile_qr_scan", "ios": "https://dc.lft.to/lastmile_qr_scan"}, "name": "584ec0bf6569c51e56c244c59aeca8b1", "is_reserved": 0}, {"is_disabled": 0, "fusion_lon": 0.0, "fusion_lat": 0.0, "lat": 38.898351166666664, "type": "electric_scooter", "lon": -76.98071533333334, "bike_id": "19119fde68058219a3368f60b01e42b0", "rental_uris": {"android": "https://dc.lft.to/lastmile_qr_scan", "ios": "https://dc.lft.to/lastmile_qr_scan"}, "name": "19119fde68058219a3368f60b01e42b0", "is_reserved": 0}, {"is_disabled": 0, "fusion_lon": 0.0, "fusion_lat": 0.0, "lat": 38.82745033333333, "type": "electric_bike", "lon": -77.0085235, "bike_id": "43f2c9edd59396a72593db3f324c27aa", "rental_uris": {"android": "https://dc.lft.to/lastmile_qr_scan", "ios": "https://dc.lft.to/lastmile_qr_scan"}, "name": "43f2c9edd59396a72593db3f324c27aa", "is_reserved": 0}, {"is_disabled": 0, "fusion_lon": 0.0, "fusion_lat": 0.0, "lat": 38.8937115, "type": "electric_scooter", "lon": -76.94999666666666, "bike_id": "652ea6c8c8e8d4eea9106b9ffbf646a3", "rental_uris": {"android": "https://dc.lft.to/lastmile_qr_scan", "ios": "https://dc.lft.to/lastmile_qr_scan"}, "name": "652ea6c8c8e8d4eea9106b9ffbf646a3", "is_reserved": 0}, {"is_disabled": 0, "fusion_lon": 0.0, "fusion_lat": 0.0, "lat": 38.944873666666666, "type": "electric_scooter", "lon": -77.06386366666666, "bike_id": "e327ec3e7411ed6ad850fd07e6b056f4", "rental_uris": {"android": "https://dc.lft.to/lastmile_qr_scan", "ios": "https://dc.lft.to/lastmile_qr_scan"}, "name": "e327ec3e7411ed6ad850fd07e6b056f4", "is_reserved": 0}, {"is_disabled": 0, "fusion_lon": 0.0, "fusion_lat": 0.0, "lat": 38.93906416666667, "type": "electric_scooter", "lon": -77.03263316666667, "bike_id": "f59f203c4fb7e1d1b835516fee57acd1", "rental_uris": {"android": "https://dc.lft.to/lastmile_qr_scan", "ios": "https://dc.lft.to/lastmile_qr_scan"}, "name": "f59f203c4fb7e1d1b835516fee57acd1", "is_reserved": 0}, {"is_disabled": 0, "fusion_lon": 0.0, "fusion_lat": 0.0, "lat": 38.9161435, "type": "electric_scooter", "lon": -77.00925116666667, "bike_id": "2a9bea85c3b52a1bfd23a8d93310e0ab", "rental_uris": {"android": "https://dc.lft.to/lastmile_qr_scan", "ios": "https://dc.lft.to/lastmile_qr_scan"}, "name": "2a9bea85c3b52a1bfd23a8d93310e0ab", "is_reserved": 0}, {"is_disabled": 0, "fusion_lon": 0.0, "fusion_lat": 0.0, "lat": 38.845973666666666, "type": "electric_bike", "lon": -76.96884016666667, "bike_id": "1f294b553e476e9431b0181dcc682752", "rental_uris": {"android": "https://dc.lft.to/lastmile_qr_scan", "ios": "https://dc.lft.to/lastmile_qr_scan"}, "name": "1f294b553e476e9431b0181dcc682752", "is_reserved": 0}, {"is_disabled": 0, "fusion_lon": 0.0, "fusion_lat": 0.0, "lat": 38.89907733333333, "type": "electric_scooter", "lon": -76.93390816666667, "bike_id": "c0ab8fd3a09408939ed04580acce3a81", "rental_uris": {"android": "https://dc.lft.to/lastmile_qr_scan", "ios": "https://dc.lft.to/lastmile_qr_scan"}, "name": "c0ab8fd3a09408939ed04580acce3a81", "is_reserved": 0}, {"is_disabled": 0, "fusion_lon": 0.0, "fusion_lat": 0.0, "lat": 38.88385816666667, "type": "electric_bike", "lon": -77.03064816666667, "bike_id": "724258c530cf3704b0644ba480dcb070", "rental_uris": {"android": "https://dc.lft.to/lastmile_qr_scan", "ios": "https://dc.lft.to/lastmile_qr_scan"}, "name": "724258c530cf3704b0644ba480dcb070", "is_reserved": 0}, {"is_disabled": 0, "fusion_lon": 0.0, "fusion_lat": 0.0, "lat": 38.915364333333336, "type": "electric_scooter", "lon": -77.02197883333334, "bike_id": "e8388b20a59a636803d3f3c6007c8ec5", "rental_uris": {"android": "https://dc.lft.to/lastmile_qr_scan", "ios": "https://dc.lft.to/lastmile_qr_scan"}, "name": "e8388b20a59a636803d3f3c6007c8ec5", "is_reserved": 0}, {"is_disabled": 0, "fusion_lon": 0.0, "fusion_lat": 0.0, "lat": 38.95967066666667, "type": "electric_scooter", "lon": -77.02111333333333, "bike_id": "b860005d1ec3be4565f450c1f14db52c", "rental_uris": {"android": "https://dc.lft.to/lastmile_qr_scan", "ios": "https://dc.lft.to/lastmile_qr_scan"}, "name": "b860005d1ec3be4565f450c1f14db52c", "is_reserved": 0}, {"is_disabled": 0, "fusion_lon": 0.0, "fusion_lat": 0.0, "lat": 38.89499133333333, "type": "electric_scooter", "lon": -77.01612, "bike_id": "296f4f3c38fbecf30ee380e717287735", "rental_uris": {"android": "https://dc.lft.to/lastmile_qr_scan", "ios": "https://dc.lft.to/lastmile_qr_scan"}, "name": "296f4f3c38fbecf30ee380e717287735", "is_reserved": 0}, {"is_disabled": 0, "fusion_lon": 0.0, "fusion_lat": 0.0, "lat": 38.935609166666666, "type": "electric_scooter", "lon": -77.08196666666667, "bike_id": "0a5161ac11e016f4b74ca2ea2db34a4c", "rental_uris": {"android": "https://dc.lft.to/lastmile_qr_scan", "ios": "https://dc.lft.to/lastmile_qr_scan"}, "name": "0a5161ac11e016f4b74ca2ea2db34a4c", "is_reserved": 0}, {"is_disabled": 0, "fusion_lon": 0.0, "fusion_lat": 0.0, "lat": 38.880688166666665, "type": "electric_scooter", "lon": -76.995001, "bike_id": "e59995f957005fe94ba009aa9fcaeb18", "rental_uris": {"android": "https://dc.lft.to/lastmile_qr_scan", "ios": "https://dc.lft.to/lastmile_qr_scan"}, "name": "e59995f957005fe94ba009aa9fcaeb18", "is_reserved": 0}, {"is_disabled": 0, "fusion_lon": 0.0, "fusion_lat": 0.0, "lat": 38.87754366666667, "type": "electric_scooter", "lon": -77.00576716666667, "bike_id": "03acb6dfb98b2442331f4c8cef26153d", "rental_uris": {"android": "https://dc.lft.to/lastmile_qr_scan", "ios": "https://dc.lft.to/lastmile_qr_scan"}, "name": "03acb6dfb98b2442331f4c8cef26153d", "is_reserved": 0}, {"is_disabled": 0, "fusion_lon": 0.0, "fusion_lat": 0.0, "lat": 38.95375333333333, "type": "electric_scooter", "lon": -77.02560616666666, "bike_id": "1b834001286a8a99f958e76ca51463a6", "rental_uris": {"android": "https://dc.lft.to/lastmile_qr_scan", "ios": "https://dc.lft.to/lastmile_qr_scan"}, "name": "1b834001286a8a99f958e76ca51463a6", "is_reserved": 0}, {"is_disabled": 0, "fusion_lon": 0.0, "fusion_lat": 0.0, "lat": 38.879816166666664, "type": "electric_bike", "lon": -76.91600916666667, "bike_id": "c53630435b7d2f827bd665491d0ba476", "rental_uris": {"android": "https://dc.lft.to/lastmile_qr_scan", "ios": "https://dc.lft.to/lastmile_qr_scan"}, "name": "c53630435b7d2f827bd665491d0ba476", "is_reserved": 0}, {"is_disabled": 0, "fusion_lon": 0.0, "fusion_lat": 0.0, "lat": 38.93366866666667, "type": "electric_scooter", "lon": -77.05740783333333, "bike_id": "dedd65d9a8e1cd9152314194c1bee5a4", "rental_uris": {"android": "https://dc.lft.to/lastmile_qr_scan", "ios": "https://dc.lft.to/lastmile_qr_scan"}, "name": "dedd65d9a8e1cd9152314194c1bee5a4", "is_reserved": 0}, {"is_disabled": 0, "fusion_lon": 0.0, "fusion_lat": 0.0, "lat": 38.85835933333333, "type": "electric_bike", "lon": -76.9928445, "bike_id": "e4220837004444cdd0077a6ed63fd266", "rental_uris": {"android": "https://dc.lft.to/lastmile_qr_scan", "ios": "https://dc.lft.to/lastmile_qr_scan"}, "name": "e4220837004444cdd0077a6ed63fd266", "is_reserved": 0}, {"is_disabled": 0, "fusion_lon": 0.0, "fusion_lat": 0.0, "lat": 38.935440666666665, "type": "electric_scooter", "lon": -77.05866533333334, "bike_id": "73f7891f0a3085d6793094e379ded15e", "rental_uris": {"android": "https://dc.lft.to/lastmile_qr_scan", "ios": "https://dc.lft.to/lastmile_qr_scan"}, "name": "73f7891f0a3085d6793094e379ded15e", "is_reserved": 0}, {"is_disabled": 0, "fusion_lon": 0.0, "fusion_lat": 0.0, "lat": 38.921057166666664, "type": "electric_scooter", "lon": -77.04365, "bike_id": "cc8af28e3f6b09b44027caedf6d96bc5", "rental_uris": {"android": "https://dc.lft.to/lastmile_qr_scan", "ios": "https://dc.lft.to/lastmile_qr_scan"}, "name": "cc8af28e3f6b09b44027caedf6d96bc5", "is_reserved": 0}, {"is_disabled": 0, "fusion_lon": 0.0, "fusion_lat": 0.0, "lat": 38.902622666666666, "type": "electric_scooter", "lon": -77.03458766666667, "bike_id": "79088215e1641d4addf119abb5210c2c", "rental_uris": {"android": "https://dc.lft.to/lastmile_qr_scan", "ios": "https://dc.lft.to/lastmile_qr_scan"}, "name": "79088215e1641d4addf119abb5210c2c", "is_reserved": 0}, {"is_disabled": 0, "fusion_lon": 0.0, "fusion_lat": 0.0, "lat": 38.96644533333333, "type": "electric_bike", "lon": -76.93024683333333, "bike_id": "4ae45bf600468246e869f08d4dbeabc2", "rental_uris": {"android": "https://dc.lft.to/lastmile_qr_scan", "ios": "https://dc.lft.to/lastmile_qr_scan"}, "name": "4ae45bf600468246e869f08d4dbeabc2", "is_reserved": 0}, {"is_disabled": 0, "fusion_lon": 0.0, "fusion_lat": 0.0, "lat": 38.91153166666667, "type": "electric_scooter", "lon": -77.08790933333333, "bike_id": "122e0d65f5aebdf8ea6e5b8af9cd6784", "rental_uris": {"android": "https://dc.lft.to/lastmile_qr_scan", "ios": "https://dc.lft.to/lastmile_qr_scan"}, "name": "122e0d65f5aebdf8ea6e5b8af9cd6784", "is_reserved": 0}, {"is_disabled": 0, "fusion_lon": 0.0, "fusion_lat": 0.0, "lat": 38.919057, "type": "electric_scooter", "lon": -77.023844, "bike_id": "36ed061adf078cbaa0c2d9a714f97acd", "rental_uris": {"android": "https://dc.lft.to/lastmile_qr_scan", "ios": "https://dc.lft.to/lastmile_qr_scan"}, "name": "36ed061adf078cbaa0c2d9a714f97acd", "is_reserved": 0}, {"is_disabled": 0, "fusion_lon": 0.0, "fusion_lat": 0.0, "lat": 38.93816283333334, "type": "electric_scooter", "lon": -76.99050483333333, "bike_id": "54e29c8710dcb0bfc2a0a4acab36abb6", "rental_uris": {"android": "https://dc.lft.to/lastmile_qr_scan", "ios": "https://dc.lft.to/lastmile_qr_scan"}, "name": "54e29c8710dcb0bfc2a0a4acab36abb6", "is_reserved": 0}, {"is_disabled": 0, "fusion_lon": 0.0, "fusion_lat": 0.0, "lat": 38.96498583333333, "type": "electric_scooter", "lon": -77.02483166666667, "bike_id": "5ae918e9f5f33fb115e9086fa34c4693", "rental_uris": {"android": "https://dc.lft.to/lastmile_qr_scan", "ios": "https://dc.lft.to/lastmile_qr_scan"}, "name": "5ae918e9f5f33fb115e9086fa34c4693", "is_reserved": 0}, {"is_disabled": 0, "fusion_lon": 0.0, "fusion_lat": 0.0, "lat": 38.892338, "type": "electric_scooter", "lon": -77.05000616666666, "bike_id": "5aa14f3dc1b7baf464785dfefc1c4174", "rental_uris": {"android": "https://dc.lft.to/lastmile_qr_scan", "ios": "https://dc.lft.to/lastmile_qr_scan"}, "name": "5aa14f3dc1b7baf464785dfefc1c4174", "is_reserved": 0}, {"is_disabled": 0, "fusion_lon": 0.0, "fusion_lat": 0.0, "lat": 38.91729933333333, "type": "electric_scooter", "lon": -77.03208783333334, "bike_id": "449daa61344ce37a9f18301c91a87c2d", "rental_uris": {"android": "https://dc.lft.to/lastmile_qr_scan", "ios": "https://dc.lft.to/lastmile_qr_scan"}, "name": "449daa61344ce37a9f18301c91a87c2d", "is_reserved": 0}, {"is_disabled": 0, "fusion_lon": 0.0, "fusion_lat": 0.0, "lat": 38.915896333333336, "type": "electric_scooter", "lon": -77.0163835, "bike_id": "5d7df491b59ece77d440fd0191bb22c0", "rental_uris": {"android": "https://dc.lft.to/lastmile_qr_scan", "ios": "https://dc.lft.to/lastmile_qr_scan"}, "name": "5d7df491b59ece77d440fd0191bb22c0", "is_reserved": 0}, {"is_disabled": 0, "fusion_lon": 0.0, "fusion_lat": 0.0, "lat": 38.911119166666666, "type": "electric_scooter", "lon": -76.99770816666667, "bike_id": "02c04143310a128bc9b4dc0067b79468", "rental_uris": {"android": "https://dc.lft.to/lastmile_qr_scan", "ios": "https://dc.lft.to/lastmile_qr_scan"}, "name": "02c04143310a128bc9b4dc0067b79468", "is_reserved": 0}, {"is_disabled": 0, "fusion_lon": 0.0, "fusion_lat": 0.0, "lat": 38.90371916666667, "type": "electric_scooter", "lon": -77.04343466666667, "bike_id": "0246874ee6a8e7dc5f69850ea63aa582", "rental_uris": {"android": "https://dc.lft.to/lastmile_qr_scan", "ios": "https://dc.lft.to/lastmile_qr_scan"}, "name": "0246874ee6a8e7dc5f69850ea63aa582", "is_reserved": 0}, {"is_disabled": 0, "fusion_lon": 0.0, "fusion_lat": 0.0, "lat": 38.877856, "type": "electric_bike", "lon": -76.98031666666667, "bike_id": "d2fa8583aa7acede90680f0e9181dfa1", "rental_uris": {"android": "https://dc.lft.to/lastmile_qr_scan", "ios": "https://dc.lft.to/lastmile_qr_scan"}, "name": "d2fa8583aa7acede90680f0e9181dfa1", "is_reserved": 0}, {"is_disabled": 0, "fusion_lon": 0.0, "fusion_lat": 0.0, "lat": 38.906176333333335, "type": "electric_scooter", "lon": -77.043628, "bike_id": "4873f411131165b6bafaceda3c850e38", "rental_uris": {"android": "https://dc.lft.to/lastmile_qr_scan", "ios": "https://dc.lft.to/lastmile_qr_scan"}, "name": "4873f411131165b6bafaceda3c850e38", "is_reserved": 0}, {"is_disabled": 0, "fusion_lon": 0.0, "fusion_lat": 0.0, "lat": 38.916227666666664, "type": "electric_scooter", "lon": -77.02391683333333, "bike_id": "1fa3dc9b71f42c70de699577965c8d62", "rental_uris": {"android": "https://dc.lft.to/lastmile_qr_scan", "ios": "https://dc.lft.to/lastmile_qr_scan"}, "name": "1fa3dc9b71f42c70de699577965c8d62", "is_reserved": 0}, {"is_disabled": 0, "fusion_lon": 0.0, "fusion_lat": 0.0, "lat": 38.900138166666665, "type": "electric_scooter", "lon": -77.03313166666666, "bike_id": "8c5cac243b843d24f1eb765392ba5e79", "rental_uris": {"android": "https://dc.lft.to/lastmile_qr_scan", "ios": "https://dc.lft.to/lastmile_qr_scan"}, "name": "8c5cac243b843d24f1eb765392ba5e79", "is_reserved": 0}, {"is_disabled": 0, "fusion_lon": 0.0, "fusion_lat": 0.0, "lat": 38.88456716666666, "type": "electric_scooter", "lon": -77.0217185, "bike_id": "f94aa3d0ef5f803b9e6bf959cf7e954e", "rental_uris": {"android": "https://dc.lft.to/lastmile_qr_scan", "ios": "https://dc.lft.to/lastmile_qr_scan"}, "name": "f94aa3d0ef5f803b9e6bf959cf7e954e", "is_reserved": 0}, {"is_disabled": 0, "fusion_lon": 0.0, "fusion_lat": 0.0, "lat": 38.91269716666667, "type": "electric_scooter", "lon": -77.03142483333333, "bike_id": "c4f5a74816add48f40403aa29716e0cc", "rental_uris": {"android": "https://dc.lft.to/lastmile_qr_scan", "ios": "https://dc.lft.to/lastmile_qr_scan"}, "name": "c4f5a74816add48f40403aa29716e0cc", "is_reserved": 0}, {"is_disabled": 0, "fusion_lon": 0.0, "fusion_lat": 0.0, "lat": 38.917135333333334, "type": "electric_scooter", "lon": -77.031928, "bike_id": "b11c80d2d39a56f3346f0418335adabc", "rental_uris": {"android": "https://dc.lft.to/lastmile_qr_scan", "ios": "https://dc.lft.to/lastmile_qr_scan"}, "name": "b11c80d2d39a56f3346f0418335adabc", "is_reserved": 0}, {"is_disabled": 0, "fusion_lon": 0.0, "fusion_lat": 0.0, "lat": 38.93190933333333, "type": "electric_bike", "lon": -77.22937616666667, "bike_id": "1ccb3ea187870de93e691ac1790a626e", "rental_uris": {"android": "https://dc.lft.to/lastmile_qr_scan", "ios": "https://dc.lft.to/lastmile_qr_scan"}, "name": "1ccb3ea187870de93e691ac1790a626e", "is_reserved": 0}, {"is_disabled": 0, "fusion_lon": 0.0, "fusion_lat": 0.0, "lat": 38.89663816666667, "type": "electric_scooter", "lon": -77.02707983333333, "bike_id": "70e1e7a5649f66fa29e1e2f6d7e917bb", "rental_uris": {"android": "https://dc.lft.to/lastmile_qr_scan", "ios": "https://dc.lft.to/lastmile_qr_scan"}, "name": "70e1e7a5649f66fa29e1e2f6d7e917bb", "is_reserved": 0}, {"is_disabled": 0, "fusion_lon": 0.0, "fusion_lat": 0.0, "lat": 38.99254116666667, "type": "electric_bike", "lon": -77.0499855, "bike_id": "4daf73ddd24c065e1ccc1affdceb7548", "rental_uris": {"android": "https://dc.lft.to/lastmile_qr_scan", "ios": "https://dc.lft.to/lastmile_qr_scan"}, "name": "4daf73ddd24c065e1ccc1affdceb7548", "is_reserved": 0}, {"is_disabled": 0, "fusion_lon": 0.0, "fusion_lat": 0.0, "lat": 38.9134505, "type": "electric_scooter", "lon": -77.04004983333333, "bike_id": "7aa62c569f9603e14a98dc5e02770a6e", "rental_uris": {"android": "https://dc.lft.to/lastmile_qr_scan", "ios": "https://dc.lft.to/lastmile_qr_scan"}, "name": "7aa62c569f9603e14a98dc5e02770a6e", "is_reserved": 0}, {"is_disabled": 0, "fusion_lon": 0.0, "fusion_lat": 0.0, "lat": 38.95077366666666, "type": "electric_scooter", "lon": -77.02877433333333, "bike_id": "061decaaf1e6a4915c13bb2798237ee6", "rental_uris": {"android": "https://dc.lft.to/lastmile_qr_scan", "ios": "https://dc.lft.to/lastmile_qr_scan"}, "name": "061decaaf1e6a4915c13bb2798237ee6", "is_reserved": 0}, {"is_disabled": 0, "fusion_lon": 0.0, "fusion_lat": 0.0, "lat": 38.9050975, "type": "electric_scooter", "lon": -77.048236, "bike_id": "bc89dcaa108a3b803e56fe319a7b122a", "rental_uris": {"android": "https://dc.lft.to/lastmile_qr_scan", "ios": "https://dc.lft.to/lastmile_qr_scan"}, "name": "bc89dcaa108a3b803e56fe319a7b122a", "is_reserved": 0}, {"is_disabled": 0, "fusion_lon": 0.0, "fusion_lat": 0.0, "lat": 38.918836166666665, "type": "electric_scooter", "lon": -77.0159865, "bike_id": "fab6cdf88b01b10b0c2ac7e2d6538bce", "rental_uris": {"android": "https://dc.lft.to/lastmile_qr_scan", "ios": "https://dc.lft.to/lastmile_qr_scan"}, "name": "fab6cdf88b01b10b0c2ac7e2d6538bce", "is_reserved": 0}, {"is_disabled": 0, "fusion_lon": 0.0, "fusion_lat": 0.0, "lat": 38.91752916666667, "type": "electric_scooter", "lon": -77.0359945, "bike_id": "a49e20ff2bddb60baf3014e765924c19", "rental_uris": {"android": "https://dc.lft.to/lastmile_qr_scan", "ios": "https://dc.lft.to/lastmile_qr_scan"}, "name": "a49e20ff2bddb60baf3014e765924c19", "is_reserved": 0}, {"is_disabled": 0, "fusion_lon": 0.0, "fusion_lat": 0.0, "lat": 38.896211666666666, "type": "electric_scooter", "lon": -76.9563925, "bike_id": "003bb13b98f9e793e6f79d5e283fb0f0", "rental_uris": {"android": "https://dc.lft.to/lastmile_qr_scan", "ios": "https://dc.lft.to/lastmile_qr_scan"}, "name": "003bb13b98f9e793e6f79d5e283fb0f0", "is_reserved": 0}, {"is_disabled": 0, "fusion_lon": 0.0, "fusion_lat": 0.0, "lat": 39.006554333333334, "type": "electric_bike", "lon": -76.900282, "bike_id": "0d91f12aa9affee6325dbd8fd0e4d917", "rental_uris": {"android": "https://dc.lft.to/lastmile_qr_scan", "ios": "https://dc.lft.to/lastmile_qr_scan"}, "name": "0d91f12aa9affee6325dbd8fd0e4d917", "is_reserved": 0}, {"is_disabled": 0, "fusion_lon": 0.0, "fusion_lat": 0.0, "lat": 38.902659166666666, "type": "electric_bike", "lon": -77.01733966666667, "bike_id": "3793d260e71138a1fad413dada24154a", "rental_uris": {"android": "https://dc.lft.to/lastmile_qr_scan", "ios": "https://dc.lft.to/lastmile_qr_scan"}, "name": "3793d260e71138a1fad413dada24154a", "is_reserved": 0}, {"is_disabled": 0, "fusion_lon": 0.0, "fusion_lat": 0.0, "lat": 38.902499166666665, "type": "electric_scooter", "lon": -77.02203383333334, "bike_id": "bb06e104a7a9b8140c38f876086ec302", "rental_uris": {"android": "https://dc.lft.to/lastmile_qr_scan", "ios": "https://dc.lft.to/lastmile_qr_scan"}, "name": "bb06e104a7a9b8140c38f876086ec302", "is_reserved": 0}, {"is_disabled": 0, "fusion_lon": 0.0, "fusion_lat": 0.0, "lat": 38.88373766666667, "type": "electric_scooter", "lon": -76.92647683333334, "bike_id": "72f318d80eef9a9c78050e15c27f2dba", "rental_uris": {"android": "https://dc.lft.to/lastmile_qr_scan", "ios": "https://dc.lft.to/lastmile_qr_scan"}, "name": "72f318d80eef9a9c78050e15c27f2dba", "is_reserved": 0}, {"is_disabled": 0, "fusion_lon": 0.0, "fusion_lat": 0.0, "lat": 38.831548166666664, "type": "electric_bike", "lon": -76.99694333333333, "bike_id": "d25e83339817c5a20e2b818c11ff5204", "rental_uris": {"android": "https://dc.lft.to/lastmile_qr_scan", "ios": "https://dc.lft.to/lastmile_qr_scan"}, "name": "d25e83339817c5a20e2b818c11ff5204", "is_reserved": 0}, {"is_disabled": 0, "fusion_lon": 0.0, "fusion_lat": 0.0, "lat": 38.91819233333333, "type": "electric_scooter", "lon": -77.02288683333333, "bike_id": "8238cdcf76a5b24a8b78f81b3c576139", "rental_uris": {"android": "https://dc.lft.to/lastmile_qr_scan", "ios": "https://dc.lft.to/lastmile_qr_scan"}, "name": "8238cdcf76a5b24a8b78f81b3c576139", "is_reserved": 0}, {"is_disabled": 0, "fusion_lon": 0.0, "fusion_lat": 0.0, "lat": 38.94244283333333, "type": "electric_scooter", "lon": -77.0217425, "bike_id": "2d8db4b2d6c01092a7c28aec57927b79", "rental_uris": {"android": "https://dc.lft.to/lastmile_qr_scan", "ios": "https://dc.lft.to/lastmile_qr_scan"}, "name": "2d8db4b2d6c01092a7c28aec57927b79", "is_reserved": 0}, {"is_disabled": 0, "fusion_lon": 0.0, "fusion_lat": 0.0, "lat": 38.89794166666667, "type": "electric_scooter", "lon": -76.93054616666667, "bike_id": "5747a303cbb4290f3bf94faff2e80622", "rental_uris": {"android": "https://dc.lft.to/lastmile_qr_scan", "ios": "https://dc.lft.to/lastmile_qr_scan"}, "name": "5747a303cbb4290f3bf94faff2e80622", "is_reserved": 0}, {"is_disabled": 0, "fusion_lon": 0.0, "fusion_lat": 0.0, "lat": 38.9056125, "type": "electric_scooter", "lon": -77.027934, "bike_id": "32a315790c2ace4ecbfa6cccb8ea79e1", "rental_uris": {"android": "https://dc.lft.to/lastmile_qr_scan", "ios": "https://dc.lft.to/lastmile_qr_scan"}, "name": "32a315790c2ace4ecbfa6cccb8ea79e1", "is_reserved": 0}, {"is_disabled": 0, "fusion_lon": 0.0, "fusion_lat": 0.0, "lat": 38.9095255, "type": "electric_scooter", "lon": -77.02884616666667, "bike_id": "dad1393f36893ee7e4e50f0497cfce7b", "rental_uris": {"android": "https://dc.lft.to/lastmile_qr_scan", "ios": "https://dc.lft.to/lastmile_qr_scan"}, "name": "dad1393f36893ee7e4e50f0497cfce7b", "is_reserved": 0}, {"is_disabled": 0, "fusion_lon": 0.0, "fusion_lat": 0.0, "lat": 38.867385666666664, "type": "electric_scooter", "lon": -76.98850183333333, "bike_id": "44c997fd2d3f5ad78419a701cf636b28", "rental_uris": {"android": "https://dc.lft.to/lastmile_qr_scan", "ios": "https://dc.lft.to/lastmile_qr_scan"}, "name": "44c997fd2d3f5ad78419a701cf636b28", "is_reserved": 0}, {"is_disabled": 0, "fusion_lon": 0.0, "fusion_lat": 0.0, "lat": 38.8636965, "type": "electric_scooter", "lon": -77.0136855, "bike_id": "ffbb582045ebd5557c57405566ca4bbf", "rental_uris": {"android": "https://dc.lft.to/lastmile_qr_scan", "ios": "https://dc.lft.to/lastmile_qr_scan"}, "name": "ffbb582045ebd5557c57405566ca4bbf", "is_reserved": 0}, {"is_disabled": 0, "fusion_lon": 0.0, "fusion_lat": 0.0, "lat": 38.9497995, "type": "electric_scooter", "lon": -77.0270525, "bike_id": "e97e92d89163a35b1b5c84624a9e498f", "rental_uris": {"android": "https://dc.lft.to/lastmile_qr_scan", "ios": "https://dc.lft.to/lastmile_qr_scan"}, "name": "e97e92d89163a35b1b5c84624a9e498f", "is_reserved": 0}, {"is_disabled": 0, "fusion_lon": 0.0, "fusion_lat": 0.0, "lat": 38.89697233333333, "type": "electric_bike", "lon": -77.050254, "bike_id": "5dc1a460a723e03f3e8c2b04d973e163", "rental_uris": {"android": "https://dc.lft.to/lastmile_qr_scan", "ios": "https://dc.lft.to/lastmile_qr_scan"}, "name": "5dc1a460a723e03f3e8c2b04d973e163", "is_reserved": 0}, {"is_disabled": 0, "fusion_lon": 0.0, "fusion_lat": 0.0, "lat": 38.91192616666667, "type": "electric_scooter", "lon": -77.032183, "bike_id": "acd95af11162225c0e57ed92b94be43a", "rental_uris": {"android": "https://dc.lft.to/lastmile_qr_scan", "ios": "https://dc.lft.to/lastmile_qr_scan"}, "name": "acd95af11162225c0e57ed92b94be43a", "is_reserved": 0}, {"is_disabled": 0, "fusion_lon": 0.0, "fusion_lat": 0.0, "lat": 38.91699083333334, "type": "electric_scooter", "lon": -77.001183, "bike_id": "a20ccb21e3bf7098e73e033031afe64c", "rental_uris": {"android": "https://dc.lft.to/lastmile_qr_scan", "ios": "https://dc.lft.to/lastmile_qr_scan"}, "name": "a20ccb21e3bf7098e73e033031afe64c", "is_reserved": 0}, {"is_disabled": 0, "fusion_lon": 0.0, "fusion_lat": 0.0, "lat": 38.936972, "type": "electric_scooter", "lon": -77.055962, "bike_id": "c5a34c98c2081bda31da9dad7c9520f7", "rental_uris": {"android": "https://dc.lft.to/lastmile_qr_scan", "ios": "https://dc.lft.to/lastmile_qr_scan"}, "name": "c5a34c98c2081bda31da9dad7c9520f7", "is_reserved": 0}, {"is_disabled": 0, "fusion_lon": 0.0, "fusion_lat": 0.0, "lat": 38.915840833333334, "type": "electric_scooter", "lon": -77.03192316666667, "bike_id": "da060b66a346a140ae672d40c8c2f22e", "rental_uris": {"android": "https://dc.lft.to/lastmile_qr_scan", "ios": "https://dc.lft.to/lastmile_qr_scan"}, "name": "da060b66a346a140ae672d40c8c2f22e", "is_reserved": 0}, {"is_disabled": 0, "fusion_lon": 0.0, "fusion_lat": 0.0, "lat": 38.884559333333335, "type": "electric_bike", "lon": -76.91636083333333, "bike_id": "4818a685a0fe6f7a7a7a0b68960861cf", "rental_uris": {"android": "https://dc.lft.to/lastmile_qr_scan", "ios": "https://dc.lft.to/lastmile_qr_scan"}, "name": "4818a685a0fe6f7a7a7a0b68960861cf", "is_reserved": 0}, {"is_disabled": 0, "fusion_lon": 0.0, "fusion_lat": 0.0, "lat": 38.90473183333334, "type": "electric_scooter", "lon": -77.03225866666666, "bike_id": "09673105941daeff54573f10b0c3ed76", "rental_uris": {"android": "https://dc.lft.to/lastmile_qr_scan", "ios": "https://dc.lft.to/lastmile_qr_scan"}, "name": "09673105941daeff54573f10b0c3ed76", "is_reserved": 0}, {"is_disabled": 0, "fusion_lon": 0.0, "fusion_lat": 0.0, "lat": 38.948950833333335, "type": "electric_bike", "lon": -76.96374433333334, "bike_id": "86a7017e3affa2c46307a322bb2134e4", "rental_uris": {"android": "https://dc.lft.to/lastmile_qr_scan", "ios": "https://dc.lft.to/lastmile_qr_scan"}, "name": "86a7017e3affa2c46307a322bb2134e4", "is_reserved": 0}, {"is_disabled": 0, "fusion_lon": 0.0, "fusion_lat": 0.0, "lat": 38.872066333333336, "type": "electric_bike", "lon": -77.01621183333333, "bike_id": "3abaa6118ed69e7daf69ad1f4ccf088d", "rental_uris": {"android": "https://dc.lft.to/lastmile_qr_scan", "ios": "https://dc.lft.to/lastmile_qr_scan"}, "name": "3abaa6118ed69e7daf69ad1f4ccf088d", "is_reserved": 0}, {"is_disabled": 0, "fusion_lon": 0.0, "fusion_lat": 0.0, "lat": 39.052635, "type": "electric_bike", "lon": -77.04386183333334, "bike_id": "5173e027de2c345f8aa31feda9fdabc5", "rental_uris": {"android": "https://dc.lft.to/lastmile_qr_scan", "ios": "https://dc.lft.to/lastmile_qr_scan"}, "name": "5173e027de2c345f8aa31feda9fdabc5", "is_reserved": 0}, {"is_disabled": 0, "fusion_lon": 0.0, "fusion_lat": 0.0, "lat": 38.90987966666667, "type": "electric_scooter", "lon": -77.03406683333333, "bike_id": "c1851643e172297f04a9a09cc0f34d48", "rental_uris": {"android": "https://dc.lft.to/lastmile_qr_scan", "ios": "https://dc.lft.to/lastmile_qr_scan"}, "name": "c1851643e172297f04a9a09cc0f34d48", "is_reserved": 0}, {"is_disabled": 0, "fusion_lon": 0.0, "fusion_lat": 0.0, "lat": 38.878874833333334, "type": "electric_scooter", "lon": -77.02334283333333, "bike_id": "7966e225d08d9e6e6b47f1d2717b5815", "rental_uris": {"android": "https://dc.lft.to/lastmile_qr_scan", "ios": "https://dc.lft.to/lastmile_qr_scan"}, "name": "7966e225d08d9e6e6b47f1d2717b5815", "is_reserved": 0}, {"is_disabled": 0, "fusion_lon": 0.0, "fusion_lat": 0.0, "lat": 38.9126545, "type": "electric_scooter", "lon": -77.0372155, "bike_id": "d92318d9b94068c79efa7cb7c64bf0fb", "rental_uris": {"android": "https://dc.lft.to/lastmile_qr_scan", "ios": "https://dc.lft.to/lastmile_qr_scan"}, "name": "d92318d9b94068c79efa7cb7c64bf0fb", "is_reserved": 0}, {"is_disabled": 0, "fusion_lon": 0.0, "fusion_lat": 0.0, "lat": 39.0001315, "type": "electric_bike", "lon": -76.87289616666666, "bike_id": "3a9866cc243c9517f94b512074b1e863", "rental_uris": {"android": "https://dc.lft.to/lastmile_qr_scan", "ios": "https://dc.lft.to/lastmile_qr_scan"}, "name": "3a9866cc243c9517f94b512074b1e863", "is_reserved": 0}, {"is_disabled": 0, "fusion_lon": 0.0, "fusion_lat": 0.0, "lat": 38.90411616666667, "type": "electric_scooter", "lon": -77.02208116666667, "bike_id": "ee005f0ea0293c5e0f3772227bbcedcd", "rental_uris": {"android": "https://dc.lft.to/lastmile_qr_scan", "ios": "https://dc.lft.to/lastmile_qr_scan"}, "name": "ee005f0ea0293c5e0f3772227bbcedcd", "is_reserved": 0}, {"is_disabled": 0, "fusion_lon": 0.0, "fusion_lat": 0.0, "lat": 38.909679833333335, "type": "electric_scooter", "lon": -77.0111395, "bike_id": "d759011f658cfa6f477aeec3db5ea478", "rental_uris": {"android": "https://dc.lft.to/lastmile_qr_scan", "ios": "https://dc.lft.to/lastmile_qr_scan"}, "name": "d759011f658cfa6f477aeec3db5ea478", "is_reserved": 0}, {"is_disabled": 0, "fusion_lon": 0.0, "fusion_lat": 0.0, "lat": 38.82873766666667, "type": "electric_bike", "lon": -77.11221683333333, "bike_id": "179757cd96809cddd96bbf41bd199701", "rental_uris": {"android": "https://dc.lft.to/lastmile_qr_scan", "ios": "https://dc.lft.to/lastmile_qr_scan"}, "name": "179757cd96809cddd96bbf41bd199701", "is_reserved": 0}, {"is_disabled": 0, "fusion_lon": 0.0, "fusion_lat": 0.0, "lat": 38.89737183333333, "type": "electric_scooter", "lon": -77.0511425, "bike_id": "3d425e87041a1e1cd89671efee02c71d", "rental_uris": {"android": "https://dc.lft.to/lastmile_qr_scan", "ios": "https://dc.lft.to/lastmile_qr_scan"}, "name": "3d425e87041a1e1cd89671efee02c71d", "is_reserved": 0}, {"is_disabled": 0, "fusion_lon": 0.0, "fusion_lat": 0.0, "lat": 38.9168435, "type": "electric_scooter", "lon": -77.02526466666667, "bike_id": "cffb33882f6b813de6dbd3d871d82194", "rental_uris": {"android": "https://dc.lft.to/lastmile_qr_scan", "ios": "https://dc.lft.to/lastmile_qr_scan"}, "name": "cffb33882f6b813de6dbd3d871d82194", "is_reserved": 0}, {"is_disabled": 0, "fusion_lon": 0.0, "fusion_lat": 0.0, "lat": 38.892294, "type": "electric_scooter", "lon": -77.04920616666666, "bike_id": "2d89053fb996619696af133615315e41", "rental_uris": {"android": "https://dc.lft.to/lastmile_qr_scan", "ios": "https://dc.lft.to/lastmile_qr_scan"}, "name": "2d89053fb996619696af133615315e41", "is_reserved": 0}, {"is_disabled": 0, "fusion_lon": 0.0, "fusion_lat": 0.0, "lat": 38.9245625, "type": "electric_bike", "lon": -76.999539, "bike_id": "666390b223e4b33669fa868b3d352fd6", "rental_uris": {"android": "https://dc.lft.to/lastmile_qr_scan", "ios": "https://dc.lft.to/lastmile_qr_scan"}, "name": "666390b223e4b33669fa868b3d352fd6", "is_reserved": 0}, {"is_disabled": 0, "fusion_lon": 0.0, "fusion_lat": 0.0, "lat": 38.93635733333333, "type": "electric_scooter", "lon": -77.0269555, "bike_id": "1bec30dfe861190f1185e7568208c243", "rental_uris": {"android": "https://dc.lft.to/lastmile_qr_scan", "ios": "https://dc.lft.to/lastmile_qr_scan"}, "name": "1bec30dfe861190f1185e7568208c243", "is_reserved": 0}, {"is_disabled": 0, "fusion_lon": 0.0, "fusion_lat": 0.0, "lat": 38.9131375, "type": "electric_scooter", "lon": -77.01435683333334, "bike_id": "f7cec151109e49a31b303af26e98fd90", "rental_uris": {"android": "https://dc.lft.to/lastmile_qr_scan", "ios": "https://dc.lft.to/lastmile_qr_scan"}, "name": "f7cec151109e49a31b303af26e98fd90", "is_reserved": 0}, {"is_disabled": 0, "fusion_lon": 0.0, "fusion_lat": 0.0, "lat": 38.8953795, "type": "electric_scooter", "lon": -76.94928666666667, "bike_id": "6a9a6e42b5cd350219f27fe927ac9d90", "rental_uris": {"android": "https://dc.lft.to/lastmile_qr_scan", "ios": "https://dc.lft.to/lastmile_qr_scan"}, "name": "6a9a6e42b5cd350219f27fe927ac9d90", "is_reserved": 0}, {"is_disabled": 0, "fusion_lon": 0.0, "fusion_lat": 0.0, "lat": 38.901830833333335, "type": "electric_scooter", "lon": -77.05266066666667, "bike_id": "794c8157e9a34d855d209a7ead5894f1", "rental_uris": {"android": "https://dc.lft.to/lastmile_qr_scan", "ios": "https://dc.lft.to/lastmile_qr_scan"}, "name": "794c8157e9a34d855d209a7ead5894f1", "is_reserved": 0}, {"is_disabled": 0, "fusion_lon": 0.0, "fusion_lat": 0.0, "lat": 38.897507833333336, "type": "electric_scooter", "lon": -77.0277705, "bike_id": "66a4ab7968ed08a4d584ab0c3ab6b32b", "rental_uris": {"android": "https://dc.lft.to/lastmile_qr_scan", "ios": "https://dc.lft.to/lastmile_qr_scan"}, "name": "66a4ab7968ed08a4d584ab0c3ab6b32b", "is_reserved": 0}, {"is_disabled": 0, "fusion_lon": 0.0, "fusion_lat": 0.0, "lat": 38.931983333333335, "type": "electric_scooter", "lon": -77.038535, "bike_id": "5e19d045d8758bf14a31b2b7716e26b0", "rental_uris": {"android": "https://dc.lft.to/lastmile_qr_scan", "ios": "https://dc.lft.to/lastmile_qr_scan"}, "name": "5e19d045d8758bf14a31b2b7716e26b0", "is_reserved": 0}, {"is_disabled": 0, "fusion_lon": 0.0, "fusion_lat": 0.0, "lat": 38.915650166666666, "type": "electric_scooter", "lon": -77.04149333333334, "bike_id": "f5b83779b3eedcb870a4c6ec3e695ba1", "rental_uris": {"android": "https://dc.lft.to/lastmile_qr_scan", "ios": "https://dc.lft.to/lastmile_qr_scan"}, "name": "f5b83779b3eedcb870a4c6ec3e695ba1", "is_reserved": 0}, {"is_disabled": 0, "fusion_lon": 0.0, "fusion_lat": 0.0, "lat": 38.908508166666664, "type": "electric_scooter", "lon": -77.06081183333333, "bike_id": "33d3a2a8238c532da8e3ce35036f86d2", "rental_uris": {"android": "https://dc.lft.to/lastmile_qr_scan", "ios": "https://dc.lft.to/lastmile_qr_scan"}, "name": "33d3a2a8238c532da8e3ce35036f86d2", "is_reserved": 0}, {"is_disabled": 0, "fusion_lon": 0.0, "fusion_lat": 0.0, "lat": 38.946159333333334, "type": "electric_scooter", "lon": -77.03628133333333, "bike_id": "f659b3f0df9fd8656d500baafae2e6a3", "rental_uris": {"android": "https://dc.lft.to/lastmile_qr_scan", "ios": "https://dc.lft.to/lastmile_qr_scan"}, "name": "f659b3f0df9fd8656d500baafae2e6a3", "is_reserved": 0}, {"is_disabled": 0, "fusion_lon": 0.0, "fusion_lat": 0.0, "lat": 38.92039533333333, "type": "electric_bike", "lon": -77.00364683333333, "bike_id": "08405425ff651126343e30729b1c2bc8", "rental_uris": {"android": "https://dc.lft.to/lastmile_qr_scan", "ios": "https://dc.lft.to/lastmile_qr_scan"}, "name": "08405425ff651126343e30729b1c2bc8", "is_reserved": 0}, {"is_disabled": 0, "fusion_lon": 0.0, "fusion_lat": 0.0, "lat": 38.913083, "type": "electric_scooter", "lon": -77.00850933333334, "bike_id": "08eb5ff0651f4b45989a503061d22767", "rental_uris": {"android": "https://dc.lft.to/lastmile_qr_scan", "ios": "https://dc.lft.to/lastmile_qr_scan"}, "name": "08eb5ff0651f4b45989a503061d22767", "is_reserved": 0}, {"is_disabled": 0, "fusion_lon": 0.0, "fusion_lat": 0.0, "lat": 38.989835666666664, "type": "electric_scooter", "lon": -77.03361916666667, "bike_id": "90d59ac2434d10ca2ab36de5d3eeef37", "rental_uris": {"android": "https://dc.lft.to/lastmile_qr_scan", "ios": "https://dc.lft.to/lastmile_qr_scan"}, "name": "90d59ac2434d10ca2ab36de5d3eeef37", "is_reserved": 0}, {"is_disabled": 0, "fusion_lon": 0.0, "fusion_lat": 0.0, "lat": 38.922425, "type": "electric_scooter", "lon": -77.033657, "bike_id": "461271c05fa171edb696035473cc2a46", "rental_uris": {"android": "https://dc.lft.to/lastmile_qr_scan", "ios": "https://dc.lft.to/lastmile_qr_scan"}, "name": "461271c05fa171edb696035473cc2a46", "is_reserved": 0}, {"is_disabled": 0, "fusion_lon": 0.0, "fusion_lat": 0.0, "lat": 38.912653, "type": "electric_scooter", "lon": -77.03803383333333, "bike_id": "698f31adc8eafbe6894eab3987125566", "rental_uris": {"android": "https://dc.lft.to/lastmile_qr_scan", "ios": "https://dc.lft.to/lastmile_qr_scan"}, "name": "698f31adc8eafbe6894eab3987125566", "is_reserved": 0}, {"is_disabled": 0, "fusion_lon": 0.0, "fusion_lat": 0.0, "lat": 38.876471, "type": "electric_scooter", "lon": -77.007497, "bike_id": "188a5e696d003aaf11575dc0fdd53394", "rental_uris": {"android": "https://dc.lft.to/lastmile_qr_scan", "ios": "https://dc.lft.to/lastmile_qr_scan"}, "name": "188a5e696d003aaf11575dc0fdd53394", "is_reserved": 0}, {"is_disabled": 0, "fusion_lon": 0.0, "fusion_lat": 0.0, "lat": 38.951734333333334, "type": "electric_scooter", "lon": -77.03331216666666, "bike_id": "e702208183ee8dc17c68c7a295b90a8d", "rental_uris": {"android": "https://dc.lft.to/lastmile_qr_scan", "ios": "https://dc.lft.to/lastmile_qr_scan"}, "name": "e702208183ee8dc17c68c7a295b90a8d", "is_reserved": 0}, {"is_disabled": 0, "fusion_lon": 0.0, "fusion_lat": 0.0, "lat": 38.912660833333334, "type": "electric_scooter", "lon": -77.0336605, "bike_id": "c9b676ba6d51ff7fd9bba7342a8a2a91", "rental_uris": {"android": "https://dc.lft.to/lastmile_qr_scan", "ios": "https://dc.lft.to/lastmile_qr_scan"}, "name": "c9b676ba6d51ff7fd9bba7342a8a2a91", "is_reserved": 0}, {"is_disabled": 0, "fusion_lon": 0.0, "fusion_lat": 0.0, "lat": 38.9296545, "type": "electric_scooter", "lon": -77.04201316666666, "bike_id": "6d6488b3b2a2c3af52736bffc6599b7a", "rental_uris": {"android": "https://dc.lft.to/lastmile_qr_scan", "ios": "https://dc.lft.to/lastmile_qr_scan"}, "name": "6d6488b3b2a2c3af52736bffc6599b7a", "is_reserved": 0}, {"is_disabled": 0, "fusion_lon": 0.0, "fusion_lat": 0.0, "lat": 38.9338155, "type": "electric_scooter", "lon": -77.045637, "bike_id": "992fb5449106a116e073e0eb23a7c26c", "rental_uris": {"android": "https://dc.lft.to/lastmile_qr_scan", "ios": "https://dc.lft.to/lastmile_qr_scan"}, "name": "992fb5449106a116e073e0eb23a7c26c", "is_reserved": 0}, {"is_disabled": 0, "fusion_lon": 0.0, "fusion_lat": 0.0, "lat": 38.87666566666667, "type": "electric_scooter", "lon": -76.932013, "bike_id": "0720d97cd398445c00c97dc9d2e82b08", "rental_uris": {"android": "https://dc.lft.to/lastmile_qr_scan", "ios": "https://dc.lft.to/lastmile_qr_scan"}, "name": "0720d97cd398445c00c97dc9d2e82b08", "is_reserved": 0}, {"is_disabled": 0, "fusion_lon": 0.0, "fusion_lat": 0.0, "lat": 38.91270183333334, "type": "electric_scooter", "lon": -77.031403, "bike_id": "d8d7183d8391c5d446a101adf5e2ed97", "rental_uris": {"android": "https://dc.lft.to/lastmile_qr_scan", "ios": "https://dc.lft.to/lastmile_qr_scan"}, "name": "d8d7183d8391c5d446a101adf5e2ed97", "is_reserved": 0}, {"is_disabled": 0, "fusion_lon": 0.0, "fusion_lat": 0.0, "lat": 38.878257, "type": "electric_scooter", "lon": -76.9631905, "bike_id": "d33b455e7afe706fd4093e3a9d9efdde", "rental_uris": {"android": "https://dc.lft.to/lastmile_qr_scan", "ios": "https://dc.lft.to/lastmile_qr_scan"}, "name": "d33b455e7afe706fd4093e3a9d9efdde", "is_reserved": 0}, {"is_disabled": 0, "fusion_lon": 0.0, "fusion_lat": 0.0, "lat": 38.945373333333336, "type": "electric_bike", "lon": -77.3446305, "bike_id": "d80c4592c47571cc02417b08af94eab0", "rental_uris": {"android": "https://dc.lft.to/lastmile_qr_scan", "ios": "https://dc.lft.to/lastmile_qr_scan"}, "name": "d80c4592c47571cc02417b08af94eab0", "is_reserved": 0}, {"is_disabled": 0, "fusion_lon": 0.0, "fusion_lat": 0.0, "lat": 38.9083605, "type": "electric_scooter", "lon": -77.048832, "bike_id": "10536ffc301bffb415d7cd9c69497309", "rental_uris": {"android": "https://dc.lft.to/lastmile_qr_scan", "ios": "https://dc.lft.to/lastmile_qr_scan"}, "name": "10536ffc301bffb415d7cd9c69497309", "is_reserved": 0}, {"is_disabled": 0, "fusion_lon": 0.0, "fusion_lat": 0.0, "lat": 38.865878333333335, "type": "electric_scooter", "lon": -76.98717166666667, "bike_id": "f7b8c3229db9d37b96c4d6f5bdc99f49", "rental_uris": {"android": "https://dc.lft.to/lastmile_qr_scan", "ios": "https://dc.lft.to/lastmile_qr_scan"}, "name": "f7b8c3229db9d37b96c4d6f5bdc99f49", "is_reserved": 0}, {"is_disabled": 0, "fusion_lon": 0.0, "fusion_lat": 0.0, "lat": 38.949729833333336, "type": "electric_scooter", "lon": -77.09445316666667, "bike_id": "236363ebb6a65c8082747f1a924f2a74", "rental_uris": {"android": "https://dc.lft.to/lastmile_qr_scan", "ios": "https://dc.lft.to/lastmile_qr_scan"}, "name": "236363ebb6a65c8082747f1a924f2a74", "is_reserved": 0}, {"is_disabled": 0, "fusion_lon": 0.0, "fusion_lat": 0.0, "lat": 38.90729183333333, "type": "electric_scooter", "lon": -77.0224825, "bike_id": "53b044411f346d15b285fd713c7c1841", "rental_uris": {"android": "https://dc.lft.to/lastmile_qr_scan", "ios": "https://dc.lft.to/lastmile_qr_scan"}, "name": "53b044411f346d15b285fd713c7c1841", "is_reserved": 0}, {"is_disabled": 0, "fusion_lon": 0.0, "fusion_lat": 0.0, "lat": 38.9171095, "type": "electric_scooter", "lon": -77.02792683333334, "bike_id": "d63230e887b89d47568136fecf392a22", "rental_uris": {"android": "https://dc.lft.to/lastmile_qr_scan", "ios": "https://dc.lft.to/lastmile_qr_scan"}, "name": "d63230e887b89d47568136fecf392a22", "is_reserved": 0}, {"is_disabled": 0, "fusion_lon": 0.0, "fusion_lat": 0.0, "lat": 38.87473966666667, "type": "electric_scooter", "lon": -77.0209775, "bike_id": "80d1b5d82931b33f60752f6a5dbe8808", "rental_uris": {"android": "https://dc.lft.to/lastmile_qr_scan", "ios": "https://dc.lft.to/lastmile_qr_scan"}, "name": "80d1b5d82931b33f60752f6a5dbe8808", "is_reserved": 0}, {"is_disabled": 0, "fusion_lon": 0.0, "fusion_lat": 0.0, "lat": 38.92347516666667, "type": "electric_bike", "lon": -76.99250516666666, "bike_id": "12b2f0c76bdbb0620fe55612c9c86e9c", "rental_uris": {"android": "https://dc.lft.to/lastmile_qr_scan", "ios": "https://dc.lft.to/lastmile_qr_scan"}, "name": "12b2f0c76bdbb0620fe55612c9c86e9c", "is_reserved": 0}, {"is_disabled": 0, "fusion_lon": 0.0, "fusion_lat": 0.0, "lat": 38.897391999999996, "type": "electric_scooter", "lon": -77.049487, "bike_id": "f05c4ce44990d3491dd7c01d6d3d8bd5", "rental_uris": {"android": "https://dc.lft.to/lastmile_qr_scan", "ios": "https://dc.lft.to/lastmile_qr_scan"}, "name": "f05c4ce44990d3491dd7c01d6d3d8bd5", "is_reserved": 0}, {"is_disabled": 0, "fusion_lon": 0.0, "fusion_lat": 0.0, "lat": 38.90982433333333, "type": "electric_scooter", "lon": -77.03848, "bike_id": "1e012d7802a1454558c805551157c45e", "rental_uris": {"android": "https://dc.lft.to/lastmile_qr_scan", "ios": "https://dc.lft.to/lastmile_qr_scan"}, "name": "1e012d7802a1454558c805551157c45e", "is_reserved": 0}, {"is_disabled": 0, "fusion_lon": 0.0, "fusion_lat": 0.0, "lat": 38.92468066666667, "type": "electric_scooter", "lon": -77.02819783333334, "bike_id": "ea2d53b05bcb304a74973ab4fed3050d", "rental_uris": {"android": "https://dc.lft.to/lastmile_qr_scan", "ios": "https://dc.lft.to/lastmile_qr_scan"}, "name": "ea2d53b05bcb304a74973ab4fed3050d", "is_reserved": 0}, {"is_disabled": 0, "fusion_lon": 0.0, "fusion_lat": 0.0, "lat": 38.885686, "type": "electric_scooter", "lon": -77.0176945, "bike_id": "06f78b6050013a9934f57ab8bb18fe21", "rental_uris": {"android": "https://dc.lft.to/lastmile_qr_scan", "ios": "https://dc.lft.to/lastmile_qr_scan"}, "name": "06f78b6050013a9934f57ab8bb18fe21", "is_reserved": 0}, {"is_disabled": 0, "fusion_lon": 0.0, "fusion_lat": 0.0, "lat": 38.93910483333333, "type": "electric_scooter", "lon": -77.03263866666667, "bike_id": "6d5d4e8a1b082258fd0c36ab2ea16626", "rental_uris": {"android": "https://dc.lft.to/lastmile_qr_scan", "ios": "https://dc.lft.to/lastmile_qr_scan"}, "name": "6d5d4e8a1b082258fd0c36ab2ea16626", "is_reserved": 0}, {"is_disabled": 0, "fusion_lon": 0.0, "fusion_lat": 0.0, "lat": 38.908441, "type": "electric_scooter", "lon": -77.0634545, "bike_id": "e68543ddfa0a1c68666c62e06802ce55", "rental_uris": {"android": "https://dc.lft.to/lastmile_qr_scan", "ios": "https://dc.lft.to/lastmile_qr_scan"}, "name": "e68543ddfa0a1c68666c62e06802ce55", "is_reserved": 0}, {"is_disabled": 0, "fusion_lon": 0.0, "fusion_lat": 0.0, "lat": 38.918313166666664, "type": "electric_scooter", "lon": -77.02422183333333, "bike_id": "e0241da7f5fe2d4e74800443d0618c91", "rental_uris": {"android": "https://dc.lft.to/lastmile_qr_scan", "ios": "https://dc.lft.to/lastmile_qr_scan"}, "name": "e0241da7f5fe2d4e74800443d0618c91", "is_reserved": 0}, {"is_disabled": 0, "fusion_lon": 0.0, "fusion_lat": 0.0, "lat": 38.909729666666664, "type": "electric_scooter", "lon": -77.04490333333334, "bike_id": "4b05e73581881af6a17b4ed32be8972c", "rental_uris": {"android": "https://dc.lft.to/lastmile_qr_scan", "ios": "https://dc.lft.to/lastmile_qr_scan"}, "name": "4b05e73581881af6a17b4ed32be8972c", "is_reserved": 0}, {"is_disabled": 0, "fusion_lon": 0.0, "fusion_lat": 0.0, "lat": 38.90874916666667, "type": "electric_scooter", "lon": -77.07638883333334, "bike_id": "344c8d34e4416f642c4f0f27398c186d", "rental_uris": {"android": "https://dc.lft.to/lastmile_qr_scan", "ios": "https://dc.lft.to/lastmile_qr_scan"}, "name": "344c8d34e4416f642c4f0f27398c186d", "is_reserved": 0}, {"is_disabled": 0, "fusion_lon": 0.0, "fusion_lat": 0.0, "lat": 38.9255435, "type": "electric_scooter", "lon": -77.04155016666667, "bike_id": "0bb4ba5439f79a830dca3c4894f54c20", "rental_uris": {"android": "https://dc.lft.to/lastmile_qr_scan", "ios": "https://dc.lft.to/lastmile_qr_scan"}, "name": "0bb4ba5439f79a830dca3c4894f54c20", "is_reserved": 0}, {"is_disabled": 0, "fusion_lon": 0.0, "fusion_lat": 0.0, "lat": 38.92470816666667, "type": "electric_scooter", "lon": -77.0282795, "bike_id": "726765e38ebf19e63dc1e05095335a72", "rental_uris": {"android": "https://dc.lft.to/lastmile_qr_scan", "ios": "https://dc.lft.to/lastmile_qr_scan"}, "name": "726765e38ebf19e63dc1e05095335a72", "is_reserved": 0}, {"is_disabled": 0, "fusion_lon": 0.0, "fusion_lat": 0.0, "lat": 38.9306835, "type": "electric_scooter", "lon": -77.03397283333334, "bike_id": "089712dbf536a999596c31b618586f0a", "rental_uris": {"android": "https://dc.lft.to/lastmile_qr_scan", "ios": "https://dc.lft.to/lastmile_qr_scan"}, "name": "089712dbf536a999596c31b618586f0a", "is_reserved": 0}, {"is_disabled": 0, "fusion_lon": 0.0, "fusion_lat": 0.0, "lat": 38.845115, "type": "electric_bike", "lon": -76.97209866666667, "bike_id": "288d30d2722baa38a3aee4ae053ec63f", "rental_uris": {"android": "https://dc.lft.to/lastmile_qr_scan", "ios": "https://dc.lft.to/lastmile_qr_scan"}, "name": "288d30d2722baa38a3aee4ae053ec63f", "is_reserved": 0}, {"is_disabled": 0, "fusion_lon": 0.0, "fusion_lat": 0.0, "lat": 38.9362865, "type": "electric_scooter", "lon": -77.02459383333333, "bike_id": "923b82b59164f575bbd035f754ada828", "rental_uris": {"android": "https://dc.lft.to/lastmile_qr_scan", "ios": "https://dc.lft.to/lastmile_qr_scan"}, "name": "923b82b59164f575bbd035f754ada828", "is_reserved": 0}, {"is_disabled": 0, "fusion_lon": 0.0, "fusion_lat": 0.0, "lat": 38.90579016666667, "type": "electric_scooter", "lon": -77.04672516666666, "bike_id": "2cec0706324bc504b46dce573a70939f", "rental_uris": {"android": "https://dc.lft.to/lastmile_qr_scan", "ios": "https://dc.lft.to/lastmile_qr_scan"}, "name": "2cec0706324bc504b46dce573a70939f", "is_reserved": 0}, {"is_disabled": 0, "fusion_lon": 0.0, "fusion_lat": 0.0, "lat": 38.907152333333336, "type": "electric_scooter", "lon": -77.027166, "bike_id": "91e25365d7fb508d756586d3cd85baf4", "rental_uris": {"android": "https://dc.lft.to/lastmile_qr_scan", "ios": "https://dc.lft.to/lastmile_qr_scan"}, "name": "91e25365d7fb508d756586d3cd85baf4", "is_reserved": 0}, {"is_disabled": 0, "fusion_lon": 0.0, "fusion_lat": 0.0, "lat": 38.92215733333333, "type": "electric_scooter", "lon": -77.04260033333334, "bike_id": "846214e26308f5137a62f98da99cb59e", "rental_uris": {"android": "https://dc.lft.to/lastmile_qr_scan", "ios": "https://dc.lft.to/lastmile_qr_scan"}, "name": "846214e26308f5137a62f98da99cb59e", "is_reserved": 0}, {"is_disabled": 0, "fusion_lon": 0.0, "fusion_lat": 0.0, "lat": 38.91551966666667, "type": "electric_scooter", "lon": -77.0321225, "bike_id": "f4958daa85be441ec581a4a4196d50f4", "rental_uris": {"android": "https://dc.lft.to/lastmile_qr_scan", "ios": "https://dc.lft.to/lastmile_qr_scan"}, "name": "f4958daa85be441ec581a4a4196d50f4", "is_reserved": 0}, {"is_disabled": 0, "fusion_lon": 0.0, "fusion_lat": 0.0, "lat": 38.93179766666667, "type": "electric_scooter", "lon": -77.07256416666667, "bike_id": "06ffd49c02b4de494aa67f880d3e7c97", "rental_uris": {"android": "https://dc.lft.to/lastmile_qr_scan", "ios": "https://dc.lft.to/lastmile_qr_scan"}, "name": "06ffd49c02b4de494aa67f880d3e7c97", "is_reserved": 0}, {"is_disabled": 0, "fusion_lon": 0.0, "fusion_lat": 0.0, "lat": 38.87340433333333, "type": "electric_bike", "lon": -77.018549, "bike_id": "caf1ee5016579d9174d2f2278f5e8287", "rental_uris": {"android": "https://dc.lft.to/lastmile_qr_scan", "ios": "https://dc.lft.to/lastmile_qr_scan"}, "name": "caf1ee5016579d9174d2f2278f5e8287", "is_reserved": 0}, {"is_disabled": 0, "fusion_lon": 0.0, "fusion_lat": 0.0, "lat": 38.95085066666667, "type": "electric_bike", "lon": -76.96563866666666, "bike_id": "8157af97e42a6ccf5385f2f41523cf4a", "rental_uris": {"android": "https://dc.lft.to/lastmile_qr_scan", "ios": "https://dc.lft.to/lastmile_qr_scan"}, "name": "8157af97e42a6ccf5385f2f41523cf4a", "is_reserved": 0}, {"is_disabled": 0, "fusion_lon": 0.0, "fusion_lat": 0.0, "lat": 38.910267833333336, "type": "electric_scooter", "lon": -77.00760883333334, "bike_id": "3a729bfda5220e3e4d2d3a26d78c0033", "rental_uris": {"android": "https://dc.lft.to/lastmile_qr_scan", "ios": "https://dc.lft.to/lastmile_qr_scan"}, "name": "3a729bfda5220e3e4d2d3a26d78c0033", "is_reserved": 0}, {"is_disabled": 0, "fusion_lon": 0.0, "fusion_lat": 0.0, "lat": 38.898414333333335, "type": "electric_scooter", "lon": -76.9463525, "bike_id": "ab3c8e4bbadb3332ded9a452b16b1ec6", "rental_uris": {"android": "https://dc.lft.to/lastmile_qr_scan", "ios": "https://dc.lft.to/lastmile_qr_scan"}, "name": "ab3c8e4bbadb3332ded9a452b16b1ec6", "is_reserved": 0}, {"is_disabled": 0, "fusion_lon": 0.0, "fusion_lat": 0.0, "lat": 38.898928833333336, "type": "electric_scooter", "lon": -77.05293833333333, "bike_id": "b573d7dda376b35460b1a34190b6951e", "rental_uris": {"android": "https://dc.lft.to/lastmile_qr_scan", "ios": "https://dc.lft.to/lastmile_qr_scan"}, "name": "b573d7dda376b35460b1a34190b6951e", "is_reserved": 0}, {"is_disabled": 0, "fusion_lon": 0.0, "fusion_lat": 0.0, "lat": 38.9031095, "type": "electric_scooter", "lon": -76.98244366666667, "bike_id": "7e3073732685dd5639e2f9e3ef86083d", "rental_uris": {"android": "https://dc.lft.to/lastmile_qr_scan", "ios": "https://dc.lft.to/lastmile_qr_scan"}, "name": "7e3073732685dd5639e2f9e3ef86083d", "is_reserved": 0}, {"is_disabled": 0, "fusion_lon": 0.0, "fusion_lat": 0.0, "lat": 38.927946, "type": "electric_scooter", "lon": -77.03148283333333, "bike_id": "beab53277444d3a16879447d78d1a973", "rental_uris": {"android": "https://dc.lft.to/lastmile_qr_scan", "ios": "https://dc.lft.to/lastmile_qr_scan"}, "name": "beab53277444d3a16879447d78d1a973", "is_reserved": 0}, {"is_disabled": 0, "fusion_lon": 0.0, "fusion_lat": 0.0, "lat": 38.935339, "type": "electric_scooter", "lon": -77.02069316666666, "bike_id": "295fc5d3458b725ee1b60f4e071231aa", "rental_uris": {"android": "https://dc.lft.to/lastmile_qr_scan", "ios": "https://dc.lft.to/lastmile_qr_scan"}, "name": "295fc5d3458b725ee1b60f4e071231aa", "is_reserved": 0}, {"is_disabled": 0, "fusion_lon": 0.0, "fusion_lat": 0.0, "lat": 38.919766833333334, "type": "electric_scooter", "lon": -77.00024083333334, "bike_id": "57cb7dc4354d36e71aefe111379db91f", "rental_uris": {"android": "https://dc.lft.to/lastmile_qr_scan", "ios": "https://dc.lft.to/lastmile_qr_scan"}, "name": "57cb7dc4354d36e71aefe111379db91f", "is_reserved": 0}, {"is_disabled": 0, "fusion_lon": 0.0, "fusion_lat": 0.0, "lat": 38.91410833333333, "type": "electric_scooter", "lon": -77.04176, "bike_id": "63489510d0c87c41d3d945a15f4d4b2d", "rental_uris": {"android": "https://dc.lft.to/lastmile_qr_scan", "ios": "https://dc.lft.to/lastmile_qr_scan"}, "name": "63489510d0c87c41d3d945a15f4d4b2d", "is_reserved": 0}, {"is_disabled": 0, "fusion_lon": 0.0, "fusion_lat": 0.0, "lat": 38.91132483333333, "type": "electric_scooter", "lon": -77.02197033333333, "bike_id": "7e9bba52da353f3bf37e431a8a708ecc", "rental_uris": {"android": "https://dc.lft.to/lastmile_qr_scan", "ios": "https://dc.lft.to/lastmile_qr_scan"}, "name": "7e9bba52da353f3bf37e431a8a708ecc", "is_reserved": 0}, {"is_disabled": 0, "fusion_lon": 0.0, "fusion_lat": 0.0, "lat": 38.89722883333334, "type": "electric_scooter", "lon": -77.0276265, "bike_id": "dad3cc5d93155c37b078fb5c34268a10", "rental_uris": {"android": "https://dc.lft.to/lastmile_qr_scan", "ios": "https://dc.lft.to/lastmile_qr_scan"}, "name": "dad3cc5d93155c37b078fb5c34268a10", "is_reserved": 0}, {"is_disabled": 0, "fusion_lon": 0.0, "fusion_lat": 0.0, "lat": 38.99997066666667, "type": "electric_bike", "lon": -76.91810616666666, "bike_id": "8c0b8a91bc6aefcdc1a764e612effc64", "rental_uris": {"android": "https://dc.lft.to/lastmile_qr_scan", "ios": "https://dc.lft.to/lastmile_qr_scan"}, "name": "8c0b8a91bc6aefcdc1a764e612effc64", "is_reserved": 0}, {"is_disabled": 0, "fusion_lon": 0.0, "fusion_lat": 0.0, "lat": 38.94198183333334, "type": "electric_scooter", "lon": -77.02578283333334, "bike_id": "a3cbf4a2aea2fdf4512fd183d7edfc48", "rental_uris": {"android": "https://dc.lft.to/lastmile_qr_scan", "ios": "https://dc.lft.to/lastmile_qr_scan"}, "name": "a3cbf4a2aea2fdf4512fd183d7edfc48", "is_reserved": 0}, {"is_disabled": 0, "fusion_lon": 0.0, "fusion_lat": 0.0, "lat": 38.90840083333333, "type": "electric_scooter", "lon": -77.02696933333333, "bike_id": "858c2552d5dd312ba2d9008b602e8ade", "rental_uris": {"android": "https://dc.lft.to/lastmile_qr_scan", "ios": "https://dc.lft.to/lastmile_qr_scan"}, "name": "858c2552d5dd312ba2d9008b602e8ade", "is_reserved": 0}, {"is_disabled": 0, "fusion_lon": 0.0, "fusion_lat": 0.0, "lat": 38.93323983333333, "type": "electric_scooter", "lon": -77.02929766666666, "bike_id": "9f1336d244e463fdd296d1870d9ed19c", "rental_uris": {"android": "https://dc.lft.to/lastmile_qr_scan", "ios": "https://dc.lft.to/lastmile_qr_scan"}, "name": "9f1336d244e463fdd296d1870d9ed19c", "is_reserved": 0}, {"is_disabled": 0, "fusion_lon": 0.0, "fusion_lat": 0.0, "lat": 38.968321, "type": "electric_scooter", "lon": -77.01513766666666, "bike_id": "a690a12aa5d4b3546b2f0e0201b434d0", "rental_uris": {"android": "https://dc.lft.to/lastmile_qr_scan", "ios": "https://dc.lft.to/lastmile_qr_scan"}, "name": "a690a12aa5d4b3546b2f0e0201b434d0", "is_reserved": 0}, {"is_disabled": 0, "fusion_lon": 0.0, "fusion_lat": 0.0, "lat": 38.919673833333334, "type": "electric_scooter", "lon": -77.044676, "bike_id": "8398a07fcde2a5d5a9efb399665c072e", "rental_uris": {"android": "https://dc.lft.to/lastmile_qr_scan", "ios": "https://dc.lft.to/lastmile_qr_scan"}, "name": "8398a07fcde2a5d5a9efb399665c072e", "is_reserved": 0}, {"is_disabled": 0, "fusion_lon": 0.0, "fusion_lat": 0.0, "lat": 38.91392, "type": "electric_scooter", "lon": -77.000526, "bike_id": "c5ca9b33176814371e5c09d48dabbccc", "rental_uris": {"android": "https://dc.lft.to/lastmile_qr_scan", "ios": "https://dc.lft.to/lastmile_qr_scan"}, "name": "c5ca9b33176814371e5c09d48dabbccc", "is_reserved": 0}, {"is_disabled": 0, "fusion_lon": 0.0, "fusion_lat": 0.0, "lat": 38.967599, "type": "electric_bike", "lon": -77.0916375, "bike_id": "e7650656922aa2f8ee0d2a1c6475bd62", "rental_uris": {"android": "https://dc.lft.to/lastmile_qr_scan", "ios": "https://dc.lft.to/lastmile_qr_scan"}, "name": "e7650656922aa2f8ee0d2a1c6475bd62", "is_reserved": 0}, {"is_disabled": 0, "fusion_lon": 0.0, "fusion_lat": 0.0, "lat": 38.835999, "type": "electric_scooter", "lon": -77.00364116666667, "bike_id": "4a64c5f1fefb7992b49a7496363789e7", "rental_uris": {"android": "https://dc.lft.to/lastmile_qr_scan", "ios": "https://dc.lft.to/lastmile_qr_scan"}, "name": "4a64c5f1fefb7992b49a7496363789e7", "is_reserved": 0}, {"is_disabled": 0, "fusion_lon": 0.0, "fusion_lat": 0.0, "lat": 38.904703166666664, "type": "electric_scooter", "lon": -77.04177783333333, "bike_id": "ef825be8bd3b608b4fef3311fae480a7", "rental_uris": {"android": "https://dc.lft.to/lastmile_qr_scan", "ios": "https://dc.lft.to/lastmile_qr_scan"}, "name": "ef825be8bd3b608b4fef3311fae480a7", "is_reserved": 0}, {"is_disabled": 0, "fusion_lon": 0.0, "fusion_lat": 0.0, "lat": 38.84197733333333, "type": "electric_bike", "lon": -77.10686766666667, "bike_id": "87afe7be3e1cd8ac9e2a9f9921acc549", "rental_uris": {"android": "https://dc.lft.to/lastmile_qr_scan", "ios": "https://dc.lft.to/lastmile_qr_scan"}, "name": "87afe7be3e1cd8ac9e2a9f9921acc549", "is_reserved": 0}, {"is_disabled": 0, "fusion_lon": 0.0, "fusion_lat": 0.0, "lat": 38.91580166666667, "type": "electric_scooter", "lon": -76.98111483333334, "bike_id": "bf37bbf8bc1f4d1e4ca49616077bbc25", "rental_uris": {"android": "https://dc.lft.to/lastmile_qr_scan", "ios": "https://dc.lft.to/lastmile_qr_scan"}, "name": "bf37bbf8bc1f4d1e4ca49616077bbc25", "is_reserved": 0}, {"is_disabled": 0, "fusion_lon": 0.0, "fusion_lat": 0.0, "lat": 38.99874583333333, "type": "electric_bike", "lon": -77.02858766666667, "bike_id": "c50f611c91091bf467dd5fd6d598e66e", "rental_uris": {"android": "https://dc.lft.to/lastmile_qr_scan", "ios": "https://dc.lft.to/lastmile_qr_scan"}, "name": "c50f611c91091bf467dd5fd6d598e66e", "is_reserved": 0}, {"is_disabled": 0, "fusion_lon": 0.0, "fusion_lat": 0.0, "lat": 38.923746333333334, "type": "electric_scooter", "lon": -77.040905, "bike_id": "b819302351e7034e1ca0e350f717ae22", "rental_uris": {"android": "https://dc.lft.to/lastmile_qr_scan", "ios": "https://dc.lft.to/lastmile_qr_scan"}, "name": "b819302351e7034e1ca0e350f717ae22", "is_reserved": 0}, {"is_disabled": 0, "fusion_lon": 0.0, "fusion_lat": 0.0, "lat": 38.92845966666667, "type": "electric_scooter", "lon": -77.01410466666667, "bike_id": "d2348a56b8c14708b4c6fb4cf8e2ee83", "rental_uris": {"android": "https://dc.lft.to/lastmile_qr_scan", "ios": "https://dc.lft.to/lastmile_qr_scan"}, "name": "d2348a56b8c14708b4c6fb4cf8e2ee83", "is_reserved": 0}, {"is_disabled": 0, "fusion_lon": 0.0, "fusion_lat": 0.0, "lat": 38.91774366666667, "type": "electric_scooter", "lon": -77.03643066666666, "bike_id": "0eb502d6e0e5ac28d5c3ba094752395c", "rental_uris": {"android": "https://dc.lft.to/lastmile_qr_scan", "ios": "https://dc.lft.to/lastmile_qr_scan"}, "name": "0eb502d6e0e5ac28d5c3ba094752395c", "is_reserved": 0}, {"is_disabled": 0, "fusion_lon": 0.0, "fusion_lat": 0.0, "lat": 38.85808016666667, "type": "electric_scooter", "lon": -76.9865555, "bike_id": "38cc7129e9ab5e554d3d9249ba37de36", "rental_uris": {"android": "https://dc.lft.to/lastmile_qr_scan", "ios": "https://dc.lft.to/lastmile_qr_scan"}, "name": "38cc7129e9ab5e554d3d9249ba37de36", "is_reserved": 0}, {"is_disabled": 0, "fusion_lon": 0.0, "fusion_lat": 0.0, "lat": 38.86319316666667, "type": "electric_scooter", "lon": -76.99050283333334, "bike_id": "1c3564201721593e2e02285818d20b27", "rental_uris": {"android": "https://dc.lft.to/lastmile_qr_scan", "ios": "https://dc.lft.to/lastmile_qr_scan"}, "name": "1c3564201721593e2e02285818d20b27", "is_reserved": 0}, {"is_disabled": 0, "fusion_lon": 0.0, "fusion_lat": 0.0, "lat": 38.90239833333333, "type": "electric_scooter", "lon": -77.02694983333333, "bike_id": "83955834015ca20e205deed57b24ca14", "rental_uris": {"android": "https://dc.lft.to/lastmile_qr_scan", "ios": "https://dc.lft.to/lastmile_qr_scan"}, "name": "83955834015ca20e205deed57b24ca14", "is_reserved": 0}, {"is_disabled": 0, "fusion_lon": 0.0, "fusion_lat": 0.0, "lat": 38.89363483333333, "type": "electric_scooter", "lon": -77.02267533333334, "bike_id": "3e6fd82941898fead62239dc811c73c2", "rental_uris": {"android": "https://dc.lft.to/lastmile_qr_scan", "ios": "https://dc.lft.to/lastmile_qr_scan"}, "name": "3e6fd82941898fead62239dc811c73c2", "is_reserved": 0}, {"is_disabled": 0, "fusion_lon": 0.0, "fusion_lat": 0.0, "lat": 38.926085666666665, "type": "electric_scooter", "lon": -77.04150116666666, "bike_id": "395dff5a09235eca4bc0c1b26c4d7618", "rental_uris": {"android": "https://dc.lft.to/lastmile_qr_scan", "ios": "https://dc.lft.to/lastmile_qr_scan"}, "name": "395dff5a09235eca4bc0c1b26c4d7618", "is_reserved": 0}, {"is_disabled": 0, "fusion_lon": 0.0, "fusion_lat": 0.0, "lat": 38.9182035, "type": "electric_scooter", "lon": -77.03248483333333, "bike_id": "f10a22703c29b7f3ffac42bda1e92174", "rental_uris": {"android": "https://dc.lft.to/lastmile_qr_scan", "ios": "https://dc.lft.to/lastmile_qr_scan"}, "name": "f10a22703c29b7f3ffac42bda1e92174", "is_reserved": 0}, {"is_disabled": 0, "fusion_lon": 0.0, "fusion_lat": 0.0, "lat": 38.91403533333333, "type": "electric_scooter", "lon": -77.041345, "bike_id": "2f7d87f72a6e8f23e1fbc1a7c71c0f02", "rental_uris": {"android": "https://dc.lft.to/lastmile_qr_scan", "ios": "https://dc.lft.to/lastmile_qr_scan"}, "name": "2f7d87f72a6e8f23e1fbc1a7c71c0f02", "is_reserved": 0}, {"is_disabled": 0, "fusion_lon": 0.0, "fusion_lat": 0.0, "lat": 38.92896133333333, "type": "electric_scooter", "lon": -77.03261466666666, "bike_id": "a6ec4b523c49feb0c973f1f0cf1d4e8f", "rental_uris": {"android": "https://dc.lft.to/lastmile_qr_scan", "ios": "https://dc.lft.to/lastmile_qr_scan"}, "name": "a6ec4b523c49feb0c973f1f0cf1d4e8f", "is_reserved": 0}, {"is_disabled": 0, "fusion_lon": 0.0, "fusion_lat": 0.0, "lat": 38.9126505, "type": "electric_scooter", "lon": -77.02152583333333, "bike_id": "b599ae2aacd94e029da516b3547c52f7", "rental_uris": {"android": "https://dc.lft.to/lastmile_qr_scan", "ios": "https://dc.lft.to/lastmile_qr_scan"}, "name": "b599ae2aacd94e029da516b3547c52f7", "is_reserved": 0}, {"is_disabled": 0, "fusion_lon": 0.0, "fusion_lat": 0.0, "lat": 38.90025583333333, "type": "electric_scooter", "lon": -77.04689683333334, "bike_id": "b76014f29a5d0532a47c020714fe547a", "rental_uris": {"android": "https://dc.lft.to/lastmile_qr_scan", "ios": "https://dc.lft.to/lastmile_qr_scan"}, "name": "b76014f29a5d0532a47c020714fe547a", "is_reserved": 0}, {"is_disabled": 0, "fusion_lon": 0.0, "fusion_lat": 0.0, "lat": 38.94558766666667, "type": "electric_bike", "lon": -77.05124366666666, "bike_id": "0ef184551a63c7506ec5331ae3b6e1e3", "rental_uris": {"android": "https://dc.lft.to/lastmile_qr_scan", "ios": "https://dc.lft.to/lastmile_qr_scan"}, "name": "0ef184551a63c7506ec5331ae3b6e1e3", "is_reserved": 0}, {"is_disabled": 0, "fusion_lon": 0.0, "fusion_lat": 0.0, "lat": 38.919839333333336, "type": "electric_scooter", "lon": -77.03874583333334, "bike_id": "1f9209b686cf6053ea15a320edf5c1d8", "rental_uris": {"android": "https://dc.lft.to/lastmile_qr_scan", "ios": "https://dc.lft.to/lastmile_qr_scan"}, "name": "1f9209b686cf6053ea15a320edf5c1d8", "is_reserved": 0}, {"is_disabled": 0, "fusion_lon": 0.0, "fusion_lat": 0.0, "lat": 38.89496783333333, "type": "electric_scooter", "lon": -77.00951983333333, "bike_id": "53a7bf9535fa406f4cae5c845c927817", "rental_uris": {"android": "https://dc.lft.to/lastmile_qr_scan", "ios": "https://dc.lft.to/lastmile_qr_scan"}, "name": "53a7bf9535fa406f4cae5c845c927817", "is_reserved": 0}, {"is_disabled": 0, "fusion_lon": 0.0, "fusion_lat": 0.0, "lat": 38.90044783333333, "type": "electric_scooter", "lon": -76.98321916666667, "bike_id": "6801039eba9f6ecf26a1dd848bc6baa4", "rental_uris": {"android": "https://dc.lft.to/lastmile_qr_scan", "ios": "https://dc.lft.to/lastmile_qr_scan"}, "name": "6801039eba9f6ecf26a1dd848bc6baa4", "is_reserved": 0}, {"is_disabled": 0, "fusion_lon": 0.0, "fusion_lat": 0.0, "lat": 38.92996183333333, "type": "electric_scooter", "lon": -77.0240325, "bike_id": "cc1e76559f8665a634ee09e6f59043a5", "rental_uris": {"android": "https://dc.lft.to/lastmile_qr_scan", "ios": "https://dc.lft.to/lastmile_qr_scan"}, "name": "cc1e76559f8665a634ee09e6f59043a5", "is_reserved": 0}, {"is_disabled": 0, "fusion_lon": 0.0, "fusion_lat": 0.0, "lat": 38.9211725, "type": "electric_scooter", "lon": -77.01212366666667, "bike_id": "6145a3a38b276435a31f0db1d407ff30", "rental_uris": {"android": "https://dc.lft.to/lastmile_qr_scan", "ios": "https://dc.lft.to/lastmile_qr_scan"}, "name": "6145a3a38b276435a31f0db1d407ff30", "is_reserved": 0}, {"is_disabled": 0, "fusion_lon": 0.0, "fusion_lat": 0.0, "lat": 38.91489633333333, "type": "electric_scooter", "lon": -77.00156783333334, "bike_id": "a3dbb08d7d23d47459eb391bf83a9c8c", "rental_uris": {"android": "https://dc.lft.to/lastmile_qr_scan", "ios": "https://dc.lft.to/lastmile_qr_scan"}, "name": "a3dbb08d7d23d47459eb391bf83a9c8c", "is_reserved": 0}, {"is_disabled": 0, "fusion_lon": 0.0, "fusion_lat": 0.0, "lat": 38.930979, "type": "electric_scooter", "lon": -77.02540233333333, "bike_id": "d1b348faf09dcffa13b5efd872577094", "rental_uris": {"android": "https://dc.lft.to/lastmile_qr_scan", "ios": "https://dc.lft.to/lastmile_qr_scan"}, "name": "d1b348faf09dcffa13b5efd872577094", "is_reserved": 0}, {"is_disabled": 0, "fusion_lon": 0.0, "fusion_lat": 0.0, "lat": 38.87139883333333, "type": "electric_scooter", "lon": -77.007538, "bike_id": "965795b98b4284a2fb6cbf4b5d4fc7e8", "rental_uris": {"android": "https://dc.lft.to/lastmile_qr_scan", "ios": "https://dc.lft.to/lastmile_qr_scan"}, "name": "965795b98b4284a2fb6cbf4b5d4fc7e8", "is_reserved": 0}, {"is_disabled": 0, "fusion_lon": 0.0, "fusion_lat": 0.0, "lat": 38.905145166666664, "type": "electric_scooter", "lon": -77.0487405, "bike_id": "27c2d443b818b323a8275e91fc50311e", "rental_uris": {"android": "https://dc.lft.to/lastmile_qr_scan", "ios": "https://dc.lft.to/lastmile_qr_scan"}, "name": "27c2d443b818b323a8275e91fc50311e", "is_reserved": 0}, {"is_disabled": 0, "fusion_lon": 0.0, "fusion_lat": 0.0, "lat": 38.90408516666667, "type": "electric_scooter", "lon": -77.01776166666667, "bike_id": "05319c2ec56983759aa477f8dbfff446", "rental_uris": {"android": "https://dc.lft.to/lastmile_qr_scan", "ios": "https://dc.lft.to/lastmile_qr_scan"}, "name": "05319c2ec56983759aa477f8dbfff446", "is_reserved": 0}, {"is_disabled": 0, "fusion_lon": 0.0, "fusion_lat": 0.0, "lat": 38.96016316666667, "type": "electric_scooter", "lon": -77.03309566666667, "bike_id": "7c340873899965b7fa10fd026073712d", "rental_uris": {"android": "https://dc.lft.to/lastmile_qr_scan", "ios": "https://dc.lft.to/lastmile_qr_scan"}, "name": "7c340873899965b7fa10fd026073712d", "is_reserved": 0}, {"is_disabled": 0, "fusion_lon": 0.0, "fusion_lat": 0.0, "lat": 38.90328616666667, "type": "electric_scooter", "lon": -76.98014916666666, "bike_id": "3a0a8e929bd2720266836b5cc0766059", "rental_uris": {"android": "https://dc.lft.to/lastmile_qr_scan", "ios": "https://dc.lft.to/lastmile_qr_scan"}, "name": "3a0a8e929bd2720266836b5cc0766059", "is_reserved": 0}, {"is_disabled": 0, "fusion_lon": 0.0, "fusion_lat": 0.0, "lat": 38.865219833333335, "type": "electric_scooter", "lon": -76.98969566666666, "bike_id": "c895c87490a66f71837404957c99d402", "rental_uris": {"android": "https://dc.lft.to/lastmile_qr_scan", "ios": "https://dc.lft.to/lastmile_qr_scan"}, "name": "c895c87490a66f71837404957c99d402", "is_reserved": 0}, {"is_disabled": 0, "fusion_lon": 0.0, "fusion_lat": 0.0, "lat": 38.91762583333333, "type": "electric_scooter", "lon": -77.01501733333333, "bike_id": "62bd2be8a00a081768a18b4932b65c2c", "rental_uris": {"android": "https://dc.lft.to/lastmile_qr_scan", "ios": "https://dc.lft.to/lastmile_qr_scan"}, "name": "62bd2be8a00a081768a18b4932b65c2c", "is_reserved": 0}, {"is_disabled": 0, "fusion_lon": 0.0, "fusion_lat": 0.0, "lat": 38.84618016666667, "type": "electric_scooter", "lon": -76.99631233333334, "bike_id": "a973d00831562a3ff28aef1224dc125a", "rental_uris": {"android": "https://dc.lft.to/lastmile_qr_scan", "ios": "https://dc.lft.to/lastmile_qr_scan"}, "name": "a973d00831562a3ff28aef1224dc125a", "is_reserved": 0}, {"is_disabled": 0, "fusion_lon": 0.0, "fusion_lat": 0.0, "lat": 38.92620083333333, "type": "electric_scooter", "lon": -77.04190816666667, "bike_id": "54a5327f1e12b7820955615d33898704", "rental_uris": {"android": "https://dc.lft.to/lastmile_qr_scan", "ios": "https://dc.lft.to/lastmile_qr_scan"}, "name": "54a5327f1e12b7820955615d33898704", "is_reserved": 0}, {"is_disabled": 0, "fusion_lon": 0.0, "fusion_lat": 0.0, "lat": 38.9445795, "type": "electric_scooter", "lon": -77.06032616666667, "bike_id": "bfa1c6ee774133a46ca15b23ba27c332", "rental_uris": {"android": "https://dc.lft.to/lastmile_qr_scan", "ios": "https://dc.lft.to/lastmile_qr_scan"}, "name": "bfa1c6ee774133a46ca15b23ba27c332", "is_reserved": 0}, {"is_disabled": 0, "fusion_lon": 0.0, "fusion_lat": 0.0, "lat": 38.996687, "type": "electric_bike", "lon": -76.99142083333334, "bike_id": "bcf0e3ac6ab3b9d2acd9a165c792793b", "rental_uris": {"android": "https://dc.lft.to/lastmile_qr_scan", "ios": "https://dc.lft.to/lastmile_qr_scan"}, "name": "bcf0e3ac6ab3b9d2acd9a165c792793b", "is_reserved": 0}, {"is_disabled": 0, "fusion_lon": 0.0, "fusion_lat": 0.0, "lat": 38.90548016666666, "type": "electric_scooter", "lon": -77.02697616666667, "bike_id": "672b92b016eba89d85ca425bb23ba79d", "rental_uris": {"android": "https://dc.lft.to/lastmile_qr_scan", "ios": "https://dc.lft.to/lastmile_qr_scan"}, "name": "672b92b016eba89d85ca425bb23ba79d", "is_reserved": 0}, {"is_disabled": 0, "fusion_lon": 0.0, "fusion_lat": 0.0, "lat": 38.89810766666667, "type": "electric_scooter", "lon": -77.043298, "bike_id": "6649df265e93307004139d3d63f58704", "rental_uris": {"android": "https://dc.lft.to/lastmile_qr_scan", "ios": "https://dc.lft.to/lastmile_qr_scan"}, "name": "6649df265e93307004139d3d63f58704", "is_reserved": 0}, {"is_disabled": 0, "fusion_lon": 0.0, "fusion_lat": 0.0, "lat": 38.912826333333335, "type": "electric_scooter", "lon": -77.044771, "bike_id": "f30895f9070c5c7c918f3ab13c3028fe", "rental_uris": {"android": "https://dc.lft.to/lastmile_qr_scan", "ios": "https://dc.lft.to/lastmile_qr_scan"}, "name": "f30895f9070c5c7c918f3ab13c3028fe", "is_reserved": 0}, {"is_disabled": 0, "fusion_lon": 0.0, "fusion_lat": 0.0, "lat": 38.96559716666667, "type": "electric_bike", "lon": -77.0230275, "bike_id": "6903a7462d0981f25956c95a9d770f22", "rental_uris": {"android": "https://dc.lft.to/lastmile_qr_scan", "ios": "https://dc.lft.to/lastmile_qr_scan"}, "name": "6903a7462d0981f25956c95a9d770f22", "is_reserved": 0}, {"is_disabled": 0, "fusion_lon": 0.0, "fusion_lat": 0.0, "lat": 38.897293166666664, "type": "electric_scooter", "lon": -77.054765, "bike_id": "0e67bb89be7278c75a0eec1d26da054a", "rental_uris": {"android": "https://dc.lft.to/lastmile_qr_scan", "ios": "https://dc.lft.to/lastmile_qr_scan"}, "name": "0e67bb89be7278c75a0eec1d26da054a", "is_reserved": 0}, {"is_disabled": 0, "fusion_lon": 0.0, "fusion_lat": 0.0, "lat": 39.00377833333334, "type": "electric_bike", "lon": -77.01303866666667, "bike_id": "66d45d43a52e42c0b8ae057631be2d37", "rental_uris": {"android": "https://dc.lft.to/lastmile_qr_scan", "ios": "https://dc.lft.to/lastmile_qr_scan"}, "name": "66d45d43a52e42c0b8ae057631be2d37", "is_reserved": 0}, {"is_disabled": 0, "fusion_lon": 0.0, "fusion_lat": 0.0, "lat": 38.923064833333335, "type": "electric_scooter", "lon": -77.03108016666667, "bike_id": "029c4348b627b2d7a0054313be629d3c", "rental_uris": {"android": "https://dc.lft.to/lastmile_qr_scan", "ios": "https://dc.lft.to/lastmile_qr_scan"}, "name": "029c4348b627b2d7a0054313be629d3c", "is_reserved": 0}, {"is_disabled": 0, "fusion_lon": 0.0, "fusion_lat": 0.0, "lat": 38.89403083333333, "type": "electric_scooter", "lon": -77.02150816666666, "bike_id": "22c4a6e6b4e1b475400986bea32e6e44", "rental_uris": {"android": "https://dc.lft.to/lastmile_qr_scan", "ios": "https://dc.lft.to/lastmile_qr_scan"}, "name": "22c4a6e6b4e1b475400986bea32e6e44", "is_reserved": 0}, {"is_disabled": 0, "fusion_lon": 0.0, "fusion_lat": 0.0, "lat": 38.90147233333333, "type": "electric_scooter", "lon": -77.03968133333333, "bike_id": "443b0627bd8f24bbc7098d6f7f4e2330", "rental_uris": {"android": "https://dc.lft.to/lastmile_qr_scan", "ios": "https://dc.lft.to/lastmile_qr_scan"}, "name": "443b0627bd8f24bbc7098d6f7f4e2330", "is_reserved": 0}, {"is_disabled": 0, "fusion_lon": 0.0, "fusion_lat": 0.0, "lat": 38.9071265, "type": "electric_scooter", "lon": -77.02716366666667, "bike_id": "b8754a672e221ed35bc06be28e98499a", "rental_uris": {"android": "https://dc.lft.to/lastmile_qr_scan", "ios": "https://dc.lft.to/lastmile_qr_scan"}, "name": "b8754a672e221ed35bc06be28e98499a", "is_reserved": 0}, {"is_disabled": 0, "fusion_lon": 0.0, "fusion_lat": 0.0, "lat": 38.902737333333334, "type": "electric_scooter", "lon": -77.0612155, "bike_id": "6652973bf2384e96f2fdb230bd947fb2", "rental_uris": {"android": "https://dc.lft.to/lastmile_qr_scan", "ios": "https://dc.lft.to/lastmile_qr_scan"}, "name": "6652973bf2384e96f2fdb230bd947fb2", "is_reserved": 0}, {"is_disabled": 0, "fusion_lon": 0.0, "fusion_lat": 0.0, "lat": 38.9578, "type": "electric_scooter", "lon": -77.02796466666666, "bike_id": "7b3791110b008e1f6cfdc6625de57d7c", "rental_uris": {"android": "https://dc.lft.to/lastmile_qr_scan", "ios": "https://dc.lft.to/lastmile_qr_scan"}, "name": "7b3791110b008e1f6cfdc6625de57d7c", "is_reserved": 0}, {"is_disabled": 0, "fusion_lon": 0.0, "fusion_lat": 0.0, "lat": 38.908305, "type": "electric_scooter", "lon": -77.0488735, "bike_id": "3ae2cf1d643caace57937ad357647afa", "rental_uris": {"android": "https://dc.lft.to/lastmile_qr_scan", "ios": "https://dc.lft.to/lastmile_qr_scan"}, "name": "3ae2cf1d643caace57937ad357647afa", "is_reserved": 0}, {"is_disabled": 0, "fusion_lon": 0.0, "fusion_lat": 0.0, "lat": 38.903196666666666, "type": "electric_scooter", "lon": -77.028665, "bike_id": "e9dbbce341be50b341df19779975adc9", "rental_uris": {"android": "https://dc.lft.to/lastmile_qr_scan", "ios": "https://dc.lft.to/lastmile_qr_scan"}, "name": "e9dbbce341be50b341df19779975adc9", "is_reserved": 0}, {"is_disabled": 0, "fusion_lon": 0.0, "fusion_lat": 0.0, "lat": 38.929559166666664, "type": "electric_scooter", "lon": -77.02319533333333, "bike_id": "ef5624b54402e1d0da03d8b544eab5de", "rental_uris": {"android": "https://dc.lft.to/lastmile_qr_scan", "ios": "https://dc.lft.to/lastmile_qr_scan"}, "name": "ef5624b54402e1d0da03d8b544eab5de", "is_reserved": 0}, {"is_disabled": 0, "fusion_lon": 0.0, "fusion_lat": 0.0, "lat": 38.926049166666665, "type": "electric_scooter", "lon": -77.024189, "bike_id": "648789ca456ce242d4e35e8cee1316f0", "rental_uris": {"android": "https://dc.lft.to/lastmile_qr_scan", "ios": "https://dc.lft.to/lastmile_qr_scan"}, "name": "648789ca456ce242d4e35e8cee1316f0", "is_reserved": 0}, {"is_disabled": 0, "fusion_lon": 0.0, "fusion_lat": 0.0, "lat": 38.833740666666664, "type": "electric_scooter", "lon": -76.99309683333334, "bike_id": "404ce56ccf3c06c923d1f60832560b85", "rental_uris": {"android": "https://dc.lft.to/lastmile_qr_scan", "ios": "https://dc.lft.to/lastmile_qr_scan"}, "name": "404ce56ccf3c06c923d1f60832560b85", "is_reserved": 0}, {"is_disabled": 0, "fusion_lon": 0.0, "fusion_lat": 0.0, "lat": 38.919041166666666, "type": "electric_scooter", "lon": -77.0175715, "bike_id": "72cccfd99119f4855deac35582eaab91", "rental_uris": {"android": "https://dc.lft.to/lastmile_qr_scan", "ios": "https://dc.lft.to/lastmile_qr_scan"}, "name": "72cccfd99119f4855deac35582eaab91", "is_reserved": 0}, {"is_disabled": 0, "fusion_lon": 0.0, "fusion_lat": 0.0, "lat": 38.9155285, "type": "electric_scooter", "lon": -77.031755, "bike_id": "8e9201576ddf4cfe09f1d86f97546a4d", "rental_uris": {"android": "https://dc.lft.to/lastmile_qr_scan", "ios": "https://dc.lft.to/lastmile_qr_scan"}, "name": "8e9201576ddf4cfe09f1d86f97546a4d", "is_reserved": 0}, {"is_disabled": 0, "fusion_lon": 0.0, "fusion_lat": 0.0, "lat": 38.90090583333333, "type": "electric_scooter", "lon": -76.98839983333333, "bike_id": "6f9cb8ec4fc6e8b3fd28cfeac7475672", "rental_uris": {"android": "https://dc.lft.to/lastmile_qr_scan", "ios": "https://dc.lft.to/lastmile_qr_scan"}, "name": "6f9cb8ec4fc6e8b3fd28cfeac7475672", "is_reserved": 0}, {"is_disabled": 0, "fusion_lon": 0.0, "fusion_lat": 0.0, "lat": 38.912773, "type": "electric_scooter", "lon": -77.03854616666666, "bike_id": "77917cc505b81b3f8c478ec6de395b86", "rental_uris": {"android": "https://dc.lft.to/lastmile_qr_scan", "ios": "https://dc.lft.to/lastmile_qr_scan"}, "name": "77917cc505b81b3f8c478ec6de395b86", "is_reserved": 0}, {"is_disabled": 0, "fusion_lon": 0.0, "fusion_lat": 0.0, "lat": 38.92048066666667, "type": "electric_scooter", "lon": -77.03394016666667, "bike_id": "ca4f8b7601d87c1b044461ab2606e7c2", "rental_uris": {"android": "https://dc.lft.to/lastmile_qr_scan", "ios": "https://dc.lft.to/lastmile_qr_scan"}, "name": "ca4f8b7601d87c1b044461ab2606e7c2", "is_reserved": 0}, {"is_disabled": 0, "fusion_lon": 0.0, "fusion_lat": 0.0, "lat": 38.921692666666665, "type": "electric_scooter", "lon": -77.04233966666666, "bike_id": "b77b3de537b86031969d83ba80917822", "rental_uris": {"android": "https://dc.lft.to/lastmile_qr_scan", "ios": "https://dc.lft.to/lastmile_qr_scan"}, "name": "b77b3de537b86031969d83ba80917822", "is_reserved": 0}, {"is_disabled": 0, "fusion_lon": 0.0, "fusion_lat": 0.0, "lat": 38.88744333333333, "type": "electric_scooter", "lon": -77.01606583333333, "bike_id": "593fc5031730d98843923ad35e29189a", "rental_uris": {"android": "https://dc.lft.to/lastmile_qr_scan", "ios": "https://dc.lft.to/lastmile_qr_scan"}, "name": "593fc5031730d98843923ad35e29189a", "is_reserved": 0}, {"is_disabled": 0, "fusion_lon": 0.0, "fusion_lat": 0.0, "lat": 39.029993, "type": "electric_bike", "lon": -77.10655933333334, "bike_id": "2c8927a62d7ba8d80fa7b023f6ebb8f5", "rental_uris": {"android": "https://dc.lft.to/lastmile_qr_scan", "ios": "https://dc.lft.to/lastmile_qr_scan"}, "name": "2c8927a62d7ba8d80fa7b023f6ebb8f5", "is_reserved": 0}, {"is_disabled": 0, "fusion_lon": 0.0, "fusion_lat": 0.0, "lat": 38.96444133333333, "type": "electric_bike", "lon": -76.9772895, "bike_id": "461c53238f1b7e30a4e45b11ffc3c04d", "rental_uris": {"android": "https://dc.lft.to/lastmile_qr_scan", "ios": "https://dc.lft.to/lastmile_qr_scan"}, "name": "461c53238f1b7e30a4e45b11ffc3c04d", "is_reserved": 0}, {"is_disabled": 0, "fusion_lon": 0.0, "fusion_lat": 0.0, "lat": 38.94047366666667, "type": "electric_scooter", "lon": -77.0249635, "bike_id": "af206ebf5a22e1c3d48f94dd594f7e51", "rental_uris": {"android": "https://dc.lft.to/lastmile_qr_scan", "ios": "https://dc.lft.to/lastmile_qr_scan"}, "name": "af206ebf5a22e1c3d48f94dd594f7e51", "is_reserved": 0}, {"is_disabled": 0, "fusion_lon": 0.0, "fusion_lat": 0.0, "lat": 38.89910716666667, "type": "electric_scooter", "lon": -76.933941, "bike_id": "ee6e905b60f48d6003cd8a3c7eb9e2a7", "rental_uris": {"android": "https://dc.lft.to/lastmile_qr_scan", "ios": "https://dc.lft.to/lastmile_qr_scan"}, "name": "ee6e905b60f48d6003cd8a3c7eb9e2a7", "is_reserved": 0}, {"is_disabled": 0, "fusion_lon": 0.0, "fusion_lat": 0.0, "lat": 38.8561635, "type": "electric_bike", "lon": -77.0854415, "bike_id": "946d7aa6d35e15be2421e3b5138f024d", "rental_uris": {"android": "https://dc.lft.to/lastmile_qr_scan", "ios": "https://dc.lft.to/lastmile_qr_scan"}, "name": "946d7aa6d35e15be2421e3b5138f024d", "is_reserved": 0}, {"is_disabled": 0, "fusion_lon": 0.0, "fusion_lat": 0.0, "lat": 38.9133805, "type": "electric_scooter", "lon": -77.03172283333333, "bike_id": "26230958ae9ff61b087e07f82e9beb66", "rental_uris": {"android": "https://dc.lft.to/lastmile_qr_scan", "ios": "https://dc.lft.to/lastmile_qr_scan"}, "name": "26230958ae9ff61b087e07f82e9beb66", "is_reserved": 0}, {"is_disabled": 0, "fusion_lon": 0.0, "fusion_lat": 0.0, "lat": 38.906628833333336, "type": "electric_scooter", "lon": -77.03808766666667, "bike_id": "eaf95061f003a204b0d6173d37656722", "rental_uris": {"android": "https://dc.lft.to/lastmile_qr_scan", "ios": "https://dc.lft.to/lastmile_qr_scan"}, "name": "eaf95061f003a204b0d6173d37656722", "is_reserved": 0}, {"is_disabled": 0, "fusion_lon": 0.0, "fusion_lat": 0.0, "lat": 38.90772183333333, "type": "electric_scooter", "lon": -77.0238995, "bike_id": "b579e69eec39c0e094c0b40633221b18", "rental_uris": {"android": "https://dc.lft.to/lastmile_qr_scan", "ios": "https://dc.lft.to/lastmile_qr_scan"}, "name": "b579e69eec39c0e094c0b40633221b18", "is_reserved": 0}, {"is_disabled": 0, "fusion_lon": 0.0, "fusion_lat": 0.0, "lat": 38.94268783333333, "type": "electric_scooter", "lon": -77.03262516666666, "bike_id": "43df7362451c61d32cc704cdbe0e6998", "rental_uris": {"android": "https://dc.lft.to/lastmile_qr_scan", "ios": "https://dc.lft.to/lastmile_qr_scan"}, "name": "43df7362451c61d32cc704cdbe0e6998", "is_reserved": 0}, {"is_disabled": 0, "fusion_lon": 0.0, "fusion_lat": 0.0, "lat": 38.850835833333335, "type": "electric_bike", "lon": -76.95708, "bike_id": "b1e38a7da1134926d51f30cf0ebfb86d", "rental_uris": {"android": "https://dc.lft.to/lastmile_qr_scan", "ios": "https://dc.lft.to/lastmile_qr_scan"}, "name": "b1e38a7da1134926d51f30cf0ebfb86d", "is_reserved": 0}, {"is_disabled": 0, "fusion_lon": 0.0, "fusion_lat": 0.0, "lat": 38.84291833333333, "type": "electric_scooter", "lon": -76.9994755, "bike_id": "34b301518aa8689751299530f63697d7", "rental_uris": {"android": "https://dc.lft.to/lastmile_qr_scan", "ios": "https://dc.lft.to/lastmile_qr_scan"}, "name": "34b301518aa8689751299530f63697d7", "is_reserved": 0}, {"is_disabled": 0, "fusion_lon": 0.0, "fusion_lat": 0.0, "lat": 38.92023416666667, "type": "electric_scooter", "lon": -77.03123, "bike_id": "9afefd755543053c9bad853a2aeb672a", "rental_uris": {"android": "https://dc.lft.to/lastmile_qr_scan", "ios": "https://dc.lft.to/lastmile_qr_scan"}, "name": "9afefd755543053c9bad853a2aeb672a", "is_reserved": 0}, {"is_disabled": 0, "fusion_lon": 0.0, "fusion_lat": 0.0, "lat": 38.868476333333334, "type": "electric_bike", "lon": -77.09731066666667, "bike_id": "68cac0725af575aa07fcb22573eb95e4", "rental_uris": {"android": "https://dc.lft.to/lastmile_qr_scan", "ios": "https://dc.lft.to/lastmile_qr_scan"}, "name": "68cac0725af575aa07fcb22573eb95e4", "is_reserved": 0}, {"is_disabled": 0, "fusion_lon": 0.0, "fusion_lat": 0.0, "lat": 38.904643666666665, "type": "electric_scooter", "lon": -77.03796116666666, "bike_id": "1d0d4c65b8506cf0d1e56471a3e62c48", "rental_uris": {"android": "https://dc.lft.to/lastmile_qr_scan", "ios": "https://dc.lft.to/lastmile_qr_scan"}, "name": "1d0d4c65b8506cf0d1e56471a3e62c48", "is_reserved": 0}, {"is_disabled": 0, "fusion_lon": 0.0, "fusion_lat": 0.0, "lat": 38.916755333333334, "type": "electric_scooter", "lon": -77.02408733333333, "bike_id": "75a3edcd4a1074fe26730d9b74647bc3", "rental_uris": {"android": "https://dc.lft.to/lastmile_qr_scan", "ios": "https://dc.lft.to/lastmile_qr_scan"}, "name": "75a3edcd4a1074fe26730d9b74647bc3", "is_reserved": 0}, {"is_disabled": 0, "fusion_lon": 0.0, "fusion_lat": 0.0, "lat": 38.91855566666667, "type": "electric_bike", "lon": -76.96089833333333, "bike_id": "474893624803659c2f9ba88eb712934d", "rental_uris": {"android": "https://dc.lft.to/lastmile_qr_scan", "ios": "https://dc.lft.to/lastmile_qr_scan"}, "name": "474893624803659c2f9ba88eb712934d", "is_reserved": 0}, {"is_disabled": 0, "fusion_lon": 0.0, "fusion_lat": 0.0, "lat": 38.9136005, "type": "electric_scooter", "lon": -77.01888783333334, "bike_id": "2983da265e414ed5e3332d2277a63a17", "rental_uris": {"android": "https://dc.lft.to/lastmile_qr_scan", "ios": "https://dc.lft.to/lastmile_qr_scan"}, "name": "2983da265e414ed5e3332d2277a63a17", "is_reserved": 0}, {"is_disabled": 0, "fusion_lon": 0.0, "fusion_lat": 0.0, "lat": 38.91695216666667, "type": "electric_scooter", "lon": -77.02432316666666, "bike_id": "319a41168dbc4cbc290977e4d2b4276e", "rental_uris": {"android": "https://dc.lft.to/lastmile_qr_scan", "ios": "https://dc.lft.to/lastmile_qr_scan"}, "name": "319a41168dbc4cbc290977e4d2b4276e", "is_reserved": 0}, {"is_disabled": 0, "fusion_lon": 0.0, "fusion_lat": 0.0, "lat": 38.833506166666666, "type": "electric_bike", "lon": -76.96561666666666, "bike_id": "96733fcdf3b20be8e1314d8d8eced0b1", "rental_uris": {"android": "https://dc.lft.to/lastmile_qr_scan", "ios": "https://dc.lft.to/lastmile_qr_scan"}, "name": "96733fcdf3b20be8e1314d8d8eced0b1", "is_reserved": 0}, {"is_disabled": 0, "fusion_lon": 0.0, "fusion_lat": 0.0, "lat": 38.90723533333333, "type": "electric_scooter", "lon": -77.02457983333333, "bike_id": "984cd8e638154d254feb1f1ed633b6ae", "rental_uris": {"android": "https://dc.lft.to/lastmile_qr_scan", "ios": "https://dc.lft.to/lastmile_qr_scan"}, "name": "984cd8e638154d254feb1f1ed633b6ae", "is_reserved": 0}, {"is_disabled": 0, "fusion_lon": 0.0, "fusion_lat": 0.0, "lat": 38.891973666666665, "type": "electric_scooter", "lon": -77.00293216666667, "bike_id": "7bb5ccc7be133af813a1662920a7782d", "rental_uris": {"android": "https://dc.lft.to/lastmile_qr_scan", "ios": "https://dc.lft.to/lastmile_qr_scan"}, "name": "7bb5ccc7be133af813a1662920a7782d", "is_reserved": 0}, {"is_disabled": 0, "fusion_lon": 0.0, "fusion_lat": 0.0, "lat": 38.89982166666667, "type": "electric_scooter", "lon": -77.02470933333333, "bike_id": "100a82b67ef0ead8637f3722cffb72da", "rental_uris": {"android": "https://dc.lft.to/lastmile_qr_scan", "ios": "https://dc.lft.to/lastmile_qr_scan"}, "name": "100a82b67ef0ead8637f3722cffb72da", "is_reserved": 0}, {"is_disabled": 0, "fusion_lon": 0.0, "fusion_lat": 0.0, "lat": 38.9056425, "type": "electric_scooter", "lon": -77.024992, "bike_id": "437d8fb9195c11bc1f1ea58d607397d5", "rental_uris": {"android": "https://dc.lft.to/lastmile_qr_scan", "ios": "https://dc.lft.to/lastmile_qr_scan"}, "name": "437d8fb9195c11bc1f1ea58d607397d5", "is_reserved": 0}, {"is_disabled": 0, "fusion_lon": 0.0, "fusion_lat": 0.0, "lat": 38.87450783333333, "type": "electric_scooter", "lon": -77.00486133333334, "bike_id": "eedeef3d2c3cef4bd09825adc67376e9", "rental_uris": {"android": "https://dc.lft.to/lastmile_qr_scan", "ios": "https://dc.lft.to/lastmile_qr_scan"}, "name": "eedeef3d2c3cef4bd09825adc67376e9", "is_reserved": 0}, {"is_disabled": 0, "fusion_lon": 0.0, "fusion_lat": 0.0, "lat": 38.9477635, "type": "electric_bike", "lon": -76.9722415, "bike_id": "5e50c374f690b0cb86056a9fc1e3782a", "rental_uris": {"android": "https://dc.lft.to/lastmile_qr_scan", "ios": "https://dc.lft.to/lastmile_qr_scan"}, "name": "5e50c374f690b0cb86056a9fc1e3782a", "is_reserved": 0},