{"data": {"bikes": [{"rental_uris": {"ios": "https://dc.lft.to/lastmile_qr_scan", "android": "https://dc.lft.to/lastmile_qr_scan"}, "type": "electric_bike", "name": "e631e20b6351505d321ea3c3e82eac3d", "is_reserved": 0, "lon": -76.91723666666667, "is_disabled": 0, "fusion_lat": 0.0, "lat": 38.88033033333333, "bike_id": "e631e20b6351505d321ea3c3e82eac3d", "fusion_lon": 0.0}, {"rental_uris": {"ios": "https://dc.lft.to/lastmile_qr_scan", "android": "https://dc.lft.to/lastmile_qr_scan"}, "type": "electric_scooter", "name": "04a76f2d98808143c55461f1c7e49e10", "is_reserved": 0, "lon": -77.03249666666666, "is_disabled": 0, "fusion_lat": 0.0, "lat": 38.92000133333333, "bike_id": "04a76f2d98808143c55461f1c7e49e10", "fusion_lon": 0.0}, {"rental_uris": {"ios": "https://dc.lft.to/lastmile_qr_scan", "android": "https://dc.lft.to/lastmile_qr_scan"}, "type": "electric_scooter", "name": "488f32dbfa49155a82aa7f3115af3523", "is_reserved": 0, "lon": -77.053208, "is_disabled": 0, "fusion_lat": 0.0, "lat": 38.9027405, "bike_id": "488f32dbfa49155a82aa7f3115af3523", "fusion_lon": 0.0}, {"rental_uris": {"ios": "https://dc.lft.to/lastmile_qr_scan", "android": "https://dc.lft.to/lastmile_qr_scan"}, "type": "electric_scooter", "name": "8fa279a78a25492446cdf3772974c392", "is_reserved": 0, "lon": -77.02528683333334, "is_disabled": 0, "fusion_lat": 0.0, "lat": 38.929852833333335, "bike_id": "8fa279a78a25492446cdf3772974c392", "fusion_lon": 0.0}, {"rental_uris": {"ios": "https://dc.lft.to/lastmile_qr_scan", "android": "https://dc.lft.to/lastmile_qr_scan"}, "type": "electric_scooter", "name": "7bfdcd75bfeecec18a5bc903b84bad26", "is_reserved": 0, "lon": -77.03868366666667, "is_disabled": 0, "fusion_lat": 0.0, "lat": 38.9118845, "bike_id": "7bfdcd75bfeecec18a5bc903b84bad26", "fusion_lon": 0.0}, {"rental_uris": {"ios": "https://dc.lft.to/lastmile_qr_scan", "android": "https://dc.lft.to/lastmile_qr_scan"}, "type": "electric_scooter", "name": "861997892280453d48d51f8805d69ca6", "is_reserved": 0, "lon": -77.04123216666666, "is_disabled": 0, "fusion_lat": 0.0, "lat": 38.933628, "bike_id": "861997892280453d48d51f8805d69ca6", "fusion_lon": 0.0}, {"rental_uris": {"ios": "https://dc.lft.to/lastmile_qr_scan", "android": "https://dc.lft.to/lastmile_qr_scan"}, "type": "electric_scooter", "name": "d469ae69fa7eaf90a842b7b1d462afeb", "is_reserved": 0, "lon": -77.00369133333334, "is_disabled": 0, "fusion_lat": 0.0, "lat": 38.8994155, "bike_id": "d469ae69fa7eaf90a842b7b1d462afeb", "fusion_lon": 0.0}, {"rental_uris": {"ios": "https://dc.lft.to/lastmile_qr_scan", "android": "https://dc.lft.to/lastmile_qr_scan"}, "type": "electric_scooter", "name": "62d46f994ea45cb6715071b5b40fa7a9", "is_reserved": 0, "lon": -77.04358116666667, "is_disabled": 0, "fusion_lat": 0.0, "lat": 38.92679016666666, "bike_id": "62d46f994ea45cb6715071b5b40fa7a9", "fusion_lon": 0.0}, {"rental_uris": {"ios": "https://dc.lft.to/lastmile_qr_scan", "android": "https://dc.lft.to/lastmile_qr_scan"}, "type": "electric_scooter", "name": "bcd2f3f30f1d36950c5aa73959b8cbe0", "is_reserved": 0, "lon": -77.0209745, "is_disabled": 0, "fusion_lat": 0.0, "lat": 38.927173, "bike_id": "bcd2f3f30f1d36950c5aa73959b8cbe0", "fusion_lon": 0.0}, {"rental_uris": {"ios": "https://dc.lft.to/lastmile_qr_scan", "android": "https://dc.lft.to/lastmile_qr_scan"}, "type": "electric_scooter", "name": "4bec1c9f447751b7282ed315e1c38c27", "is_reserved": 0, "lon": -77.03651216666667, "is_disabled": 0, "fusion_lat": 0.0, "lat": 38.906858666666665, "bike_id": "4bec1c9f447751b7282ed315e1c38c27", "fusion_lon": 0.0}, {"rental_uris": {"ios": "https://dc.lft.to/lastmile_qr_scan", "android": "https://dc.lft.to/lastmile_qr_scan"}, "type": "electric_scooter", "name": "7b5bdb99994c2d101196cb0d476bf9e0", "is_reserved": 0, "lon": -77.0467755, "is_disabled": 0, "fusion_lat": 0.0, "lat": 38.892405333333336, "bike_id": "7b5bdb99994c2d101196cb0d476bf9e0", "fusion_lon": 0.0}, {"rental_uris": {"ios": "https://dc.lft.to/lastmile_qr_scan", "android": "https://dc.lft.to/lastmile_qr_scan"}, "type": "electric_scooter", "name": "b64b0d5c695da46b3c12cce5cdede9de", "is_reserved": 0, "lon": -77.04120533333334, "is_disabled": 0, "fusion_lat": 0.0, "lat": 38.93107883333333, "bike_id": "b64b0d5c695da46b3c12cce5cdede9de", "fusion_lon": 0.0}, {"rental_uris": {"ios": "https://dc.lft.to/lastmile_qr_scan", "android": "https://dc.lft.to/lastmile_qr_scan"}, "type": "electric_scooter", "name": "48ea0c46e9175acb6354c2c17e49ce08", "is_reserved": 0, "lon": -77.04673616666666, "is_disabled": 0, "fusion_lat": 0.0, "lat": 38.89234783333333, "bike_id": "48ea0c46e9175acb6354c2c17e49ce08", "fusion_lon": 0.0}, {"rental_uris": {"ios": "https://dc.lft.to/lastmile_qr_scan", "android": "https://dc.lft.to/lastmile_qr_scan"}, "type": "electric_scooter", "name": "00c82452a2d630d8766c53fc5c8ffc42", "is_reserved": 0, "lon": -77.023134, "is_disabled": 0, "fusion_lat": 0.0, "lat": 38.917775666666664, "bike_id": "00c82452a2d630d8766c53fc5c8ffc42", "fusion_lon": 0.0}, {"rental_uris": {"ios": "https://dc.lft.to/lastmile_qr_scan", "android": "https://dc.lft.to/lastmile_qr_scan"}, "type": "electric_scooter", "name": "90fa9b44516efe3e9f7de58e8c0d0d98", "is_reserved": 0, "lon": -77.043295, "is_disabled": 0, "fusion_lat": 0.0, "lat": 38.89736283333333, "bike_id": "90fa9b44516efe3e9f7de58e8c0d0d98", "fusion_lon": 0.0}, {"rental_uris": {"ios": "https://dc.lft.to/lastmile_qr_scan", "android": "https://dc.lft.to/lastmile_qr_scan"}, "type": "electric_scooter", "name": "954c4bc4618ba63d1d1a858b57476d71", "is_reserved": 0, "lon": -77.03355666666667, "is_disabled": 0, "fusion_lat": 0.0, "lat": 38.89977833333333, "bike_id": "954c4bc4618ba63d1d1a858b57476d71", "fusion_lon": 0.0}, {"rental_uris": {"ios": "https://dc.lft.to/lastmile_qr_scan", "android": "https://dc.lft.to/lastmile_qr_scan"}, "type": "electric_scooter", "name": "e668e5725593408c98cf78ecf0f23a85", "is_reserved": 0, "lon": -77.03215133333333, "is_disabled": 0, "fusion_lat": 0.0, "lat": 38.91315633333333, "bike_id": "e668e5725593408c98cf78ecf0f23a85", "fusion_lon": 0.0}, {"rental_uris": {"ios": "https://dc.lft.to/lastmile_qr_scan", "android": "https://dc.lft.to/lastmile_qr_scan"}, "type": "electric_scooter", "name": "353ad88e729a50cae2ab1a350fbec871", "is_reserved": 0, "lon": -76.9857915, "is_disabled": 0, "fusion_lat": 0.0, "lat": 38.854501, "bike_id": "353ad88e729a50cae2ab1a350fbec871", "fusion_lon": 0.0}, {"rental_uris": {"ios": "https://dc.lft.to/lastmile_qr_scan", "android": "https://dc.lft.to/lastmile_qr_scan"}, "type": "electric_scooter", "name": "f310d606785d7a2d2e2bec2e6c07d5c6", "is_reserved": 0, "lon": -77.00045583333333, "is_disabled": 0, "fusion_lat": 0.0, "lat": 38.9190295, "bike_id": "f310d606785d7a2d2e2bec2e6c07d5c6", "fusion_lon": 0.0}, {"rental_uris": {"ios": "https://dc.lft.to/lastmile_qr_scan", "android": "https://dc.lft.to/lastmile_qr_scan"}, "type": "electric_scooter", "name": "664ddc21ba1c1eae9e18f47ab79fa066", "is_reserved": 0, "lon": -77.03829566666667, "is_disabled": 0, "fusion_lat": 0.0, "lat": 38.911179, "bike_id": "664ddc21ba1c1eae9e18f47ab79fa066", "fusion_lon": 0.0}, {"rental_uris": {"ios": "https://dc.lft.to/lastmile_qr_scan", "android": "https://dc.lft.to/lastmile_qr_scan"}, "type": "electric_scooter", "name": "bf385ba667d268158d0b7048983de3a3", "is_reserved": 0, "lon": -77.02400733333333, "is_disabled": 0, "fusion_lat": 0.0, "lat": 38.9172295, "bike_id": "bf385ba667d268158d0b7048983de3a3", "fusion_lon": 0.0}, {"rental_uris": {"ios": "https://dc.lft.to/lastmile_qr_scan", "android": "https://dc.lft.to/lastmile_qr_scan"}, "type": "electric_scooter", "name": "0060f7b865a8074950e878a17835a8cc", "is_reserved": 0, "lon": -77.03075783333334, "is_disabled": 0, "fusion_lat": 0.0, "lat": 38.93878933333333, "bike_id": "0060f7b865a8074950e878a17835a8cc", "fusion_lon": 0.0}, {"rental_uris": {"ios": "https://dc.lft.to/lastmile_qr_scan", "android": "https://dc.lft.to/lastmile_qr_scan"}, "type": "electric_scooter", "name": "282381dd5e70d1a62c822350fa548061", "is_reserved": 0, "lon": -77.022285, "is_disabled": 0, "fusion_lat": 0.0, "lat": 38.90867016666667, "bike_id": "282381dd5e70d1a62c822350fa548061", "fusion_lon": 0.0}, {"rental_uris": {"ios": "https://dc.lft.to/lastmile_qr_scan", "android": "https://dc.lft.to/lastmile_qr_scan"}, "type": "electric_scooter", "name": "ff4db791ebeaaac942a235a615f3e253", "is_reserved": 0, "lon": -77.03641533333334, "is_disabled": 0, "fusion_lat": 0.0, "lat": 38.92820016666667, "bike_id": "ff4db791ebeaaac942a235a615f3e253", "fusion_lon": 0.0}, {"rental_uris": {"ios": "https://dc.lft.to/lastmile_qr_scan", "android": "https://dc.lft.to/lastmile_qr_scan"}, "type": "electric_scooter", "name": "35bf22d721bad39c4f60f8d9182b353b", "is_reserved": 0, "lon": -77.02801816666667, "is_disabled": 0, "fusion_lat": 0.0, "lat": 38.934669, "bike_id": "35bf22d721bad39c4f60f8d9182b353b", "fusion_lon": 0.0}, {"rental_uris": {"ios": "https://dc.lft.to/lastmile_qr_scan", "android": "https://dc.lft.to/lastmile_qr_scan"}, "type": "electric_scooter", "name": "6649b2f500c76cb64cb23ca32282c649", "is_reserved": 0, "lon": -77.04318933333333, "is_disabled": 0, "fusion_lat": 0.0, "lat": 38.92220733333333, "bike_id": "6649b2f500c76cb64cb23ca32282c649", "fusion_lon": 0.0}, {"rental_uris": {"ios": "https://dc.lft.to/lastmile_qr_scan", "android": "https://dc.lft.to/lastmile_qr_scan"}, "type": "electric_scooter", "name": "499ab8c218a8466aba4fb017c0231812", "is_reserved": 0, "lon": -77.02494283333333, "is_disabled": 0, "fusion_lat": 0.0, "lat": 38.906474333333335, "bike_id": "499ab8c218a8466aba4fb017c0231812", "fusion_lon": 0.0}, {"rental_uris": {"ios": "https://dc.lft.to/lastmile_qr_scan", "android": "https://dc.lft.to/lastmile_qr_scan"}, "type": "electric_scooter", "name": "51b0df350f4f476524fb039ab925a233", "is_reserved": 0, "lon": -77.02784116666666, "is_disabled": 0, "fusion_lat": 0.0, "lat": 38.89220383333333, "bike_id": "51b0df350f4f476524fb039ab925a233", "fusion_lon": 0.0}, {"rental_uris": {"ios": "https://dc.lft.to/lastmile_qr_scan", "android": "https://dc.lft.to/lastmile_qr_scan"}, "type": "electric_scooter", "name": "d4e718a4ac2c147e0aab0f3d07ad3ffd", "is_reserved": 0, "lon": -77.063472, "is_disabled": 0, "fusion_lat": 0.0, "lat": 38.90851416666667, "bike_id": "d4e718a4ac2c147e0aab0f3d07ad3ffd", "fusion_lon": 0.0}, {"rental_uris": {"ios": "https://dc.lft.to/lastmile_qr_scan", "android": "https://dc.lft.to/lastmile_qr_scan"}, "type": "electric_scooter", "name": "07665dfc13f5d490121744aee67d4056", "is_reserved": 0, "lon": -77.0323165, "is_disabled": 0, "fusion_lat": 0.0, "lat": 38.898267, "bike_id": "07665dfc13f5d490121744aee67d4056", "fusion_lon": 0.0}, {"rental_uris": {"ios": "https://dc.lft.to/lastmile_qr_scan", "android": "https://dc.lft.to/lastmile_qr_scan"}, "type": "electric_bike", "name": "994f3f06567ed3b403925fc3dc5e8afe", "is_reserved": 0, "lon": -77.10869083333333, "is_disabled": 0, "fusion_lat": 0.0, "lat": 38.9358365, "bike_id": "994f3f06567ed3b403925fc3dc5e8afe", "fusion_lon": 0.0}, {"rental_uris": {"ios": "https://dc.lft.to/lastmile_qr_scan", "android": "https://dc.lft.to/lastmile_qr_scan"}, "type": "electric_bike", "name": "a461a59b38a22defde98211a73c08bb5", "is_reserved": 0, "lon": -76.98291766666667, "is_disabled": 0, "fusion_lat": 0.0, "lat": 38.846839833333334, "bike_id": "a461a59b38a22defde98211a73c08bb5", "fusion_lon": 0.0}, {"rental_uris": {"ios": "https://dc.lft.to/lastmile_qr_scan", "android": "https://dc.lft.to/lastmile_qr_scan"}, "type": "electric_scooter", "name": "712b8a4aa5409d3195cd816b36efdaab", "is_reserved": 0, "lon": -77.04883633333333, "is_disabled": 0, "fusion_lat": 0.0, "lat": 38.902902833333336, "bike_id": "712b8a4aa5409d3195cd816b36efdaab", "fusion_lon": 0.0}, {"rental_uris": {"ios": "https://dc.lft.to/lastmile_qr_scan", "android": "https://dc.lft.to/lastmile_qr_scan"}, "type": "electric_bike", "name": "55734eb3fe78a2c2eb7eaae22317ff89", "is_reserved": 0, "lon": -76.97572266666667, "is_disabled": 0, "fusion_lat": 0.0, "lat": 38.899581166666664, "bike_id": "55734eb3fe78a2c2eb7eaae22317ff89", "fusion_lon": 0.0}, {"rental_uris": {"ios": "https://dc.lft.to/lastmile_qr_scan", "android": "https://dc.lft.to/lastmile_qr_scan"}, "type": "electric_scooter", "name": "1ec2641312c4227f1273bf3dbaf8245f", "is_reserved": 0, "lon": -77.0243745, "is_disabled": 0, "fusion_lat": 0.0, "lat": 38.920449833333336, "bike_id": "1ec2641312c4227f1273bf3dbaf8245f", "fusion_lon": 0.0}, {"rental_uris": {"ios": "https://dc.lft.to/lastmile_qr_scan", "android": "https://dc.lft.to/lastmile_qr_scan"}, "type": "electric_bike", "name": "9bad7bdaa331bcf364a47eb430320455", "is_reserved": 0, "lon": -77.02027933333333, "is_disabled": 0, "fusion_lat": 0.0, "lat": 38.965645333333335, "bike_id": "9bad7bdaa331bcf364a47eb430320455", "fusion_lon": 0.0}, {"rental_uris": {"ios": "https://dc.lft.to/lastmile_qr_scan", "android": "https://dc.lft.to/lastmile_qr_scan"}, "type": "electric_scooter", "name": "bbe1f41352fac799c5a0ed535448f9d1", "is_reserved": 0, "lon": -77.04531716666666, "is_disabled": 0, "fusion_lat": 0.0, "lat": 38.9328105, "bike_id": "bbe1f41352fac799c5a0ed535448f9d1", "fusion_lon": 0.0}, {"rental_uris": {"ios": "https://dc.lft.to/lastmile_qr_scan", "android": "https://dc.lft.to/lastmile_qr_scan"}, "type": "electric_scooter", "name": "10ce515c05997e6ca53686f71c007511", "is_reserved": 0, "lon": -77.0333685, "is_disabled": 0, "fusion_lat": 0.0, "lat": 38.972168333333336, "bike_id": "10ce515c05997e6ca53686f71c007511", "fusion_lon": 0.0}, {"rental_uris": {"ios": "https://dc.lft.to/lastmile_qr_scan", "android": "https://dc.lft.to/lastmile_qr_scan"}, "type": "electric_scooter", "name": "f7ef8ebb075f4be003d35cc9058c696c", "is_reserved": 0, "lon": -77.02233916666667, "is_disabled": 0, "fusion_lat": 0.0, "lat": 38.878226, "bike_id": "f7ef8ebb075f4be003d35cc9058c696c", "fusion_lon": 0.0}, {"rental_uris": {"ios": "https://dc.lft.to/lastmile_qr_scan", "android": "https://dc.lft.to/lastmile_qr_scan"}, "type": "electric_bike", "name": "d082e096fbeab094fd7e6dc9472a1eb2", "is_reserved": 0, "lon": -77.08528483333333, "is_disabled": 0, "fusion_lat": 0.0, "lat": 38.856523, "bike_id": "d082e096fbeab094fd7e6dc9472a1eb2", "fusion_lon": 0.0}, {"rental_uris": {"ios": "https://dc.lft.to/lastmile_qr_scan", "android": "https://dc.lft.to/lastmile_qr_scan"}, "type": "electric_scooter", "name": "34e4ca31a6015011ad3a92aa35c50c2d", "is_reserved": 0, "lon": -77.03707116666666, "is_disabled": 0, "fusion_lat": 0.0, "lat": 38.92655166666667, "bike_id": "34e4ca31a6015011ad3a92aa35c50c2d", "fusion_lon": 0.0}, {"rental_uris": {"ios": "https://dc.lft.to/lastmile_qr_scan", "android": "https://dc.lft.to/lastmile_qr_scan"}, "type": "electric_scooter", "name": "5ee195bb1dc4c328eaca1362038fbb30", "is_reserved": 0, "lon": -77.01948483333334, "is_disabled": 0, "fusion_lat": 0.0, "lat": 38.92424883333333, "bike_id": "5ee195bb1dc4c328eaca1362038fbb30", "fusion_lon": 0.0}, {"rental_uris": {"ios": "https://dc.lft.to/lastmile_qr_scan", "android": "https://dc.lft.to/lastmile_qr_scan"}, "type": "electric_scooter", "name": "aa66fee388f1615d064f2aefb53031e3", "is_reserved": 0, "lon": -77.03421466666667, "is_disabled": 0, "fusion_lat": 0.0, "lat": 38.92210216666667, "bike_id": "aa66fee388f1615d064f2aefb53031e3", "fusion_lon": 0.0}, {"rental_uris": {"ios": "https://dc.lft.to/lastmile_qr_scan", "android": "https://dc.lft.to/lastmile_qr_scan"}, "type": "electric_scooter", "name": "e73cd50dbfb893c7d6cee70906786e16", "is_reserved": 0, "lon": -77.03326933333334, "is_disabled": 0, "fusion_lat": 0.0, "lat": 38.89912866666667, "bike_id": "e73cd50dbfb893c7d6cee70906786e16", "fusion_lon": 0.0}, {"rental_uris": {"ios": "https://dc.lft.to/lastmile_qr_scan", "android": "https://dc.lft.to/lastmile_qr_scan"}, "type": "electric_scooter", "name": "b33e4335ff4c749342fe9c853621d95f", "is_reserved": 0, "lon": -77.038545, "is_disabled": 0, "fusion_lat": 0.0, "lat": 38.93247016666667, "bike_id": "b33e4335ff4c749342fe9c853621d95f", "fusion_lon": 0.0}, {"rental_uris": {"ios": "https://dc.lft.to/lastmile_qr_scan", "android": "https://dc.lft.to/lastmile_qr_scan"}, "type": "electric_scooter", "name": "1543f050bab1d4ae6a007dda474d1f48", "is_reserved": 0, "lon": -77.0448825, "is_disabled": 0, "fusion_lat": 0.0, "lat": 38.905122, "bike_id": "1543f050bab1d4ae6a007dda474d1f48", "fusion_lon": 0.0}, {"rental_uris": {"ios": "https://dc.lft.to/lastmile_qr_scan", "android": "https://dc.lft.to/lastmile_qr_scan"}, "type": "electric_scooter", "name": "c693a53904fa607204f77771f9ed066c", "is_reserved": 0, "lon": -77.09035416666667, "is_disabled": 0, "fusion_lat": 0.0, "lat": 38.95607866666667, "bike_id": "c693a53904fa607204f77771f9ed066c", "fusion_lon": 0.0}, {"rental_uris": {"ios": "https://dc.lft.to/lastmile_qr_scan", "android": "https://dc.lft.to/lastmile_qr_scan"}, "type": "electric_scooter", "name": "9f2738871511b168bffec05f18a5bcc2", "is_reserved": 0, "lon": -76.96977483333333, "is_disabled": 0, "fusion_lat": 0.0, "lat": 38.861510333333335, "bike_id": "9f2738871511b168bffec05f18a5bcc2", "fusion_lon": 0.0}, {"rental_uris": {"ios": "https://dc.lft.to/lastmile_qr_scan", "android": "https://dc.lft.to/lastmile_qr_scan"}, "type": "electric_scooter", "name": "4c694c33167e9e4c1c744c6b75cc3c92", "is_reserved": 0, "lon": -77.0436635, "is_disabled": 0, "fusion_lat": 0.0, "lat": 38.8922265, "bike_id": "4c694c33167e9e4c1c744c6b75cc3c92", "fusion_lon": 0.0}, {"rental_uris": {"ios": "https://dc.lft.to/lastmile_qr_scan", "android": "https://dc.lft.to/lastmile_qr_scan"}, "type": "electric_scooter", "name": "4b51abdf9c20811e3e4b3b80512358c0", "is_reserved": 0, "lon": -77.01759616666666, "is_disabled": 0, "fusion_lat": 0.0, "lat": 38.90092583333333, "bike_id": "4b51abdf9c20811e3e4b3b80512358c0", "fusion_lon": 0.0}, {"rental_uris": {"ios": "https://dc.lft.to/lastmile_qr_scan", "android": "https://dc.lft.to/lastmile_qr_scan"}, "type": "electric_scooter", "name": "3b47a1d2be69ba6a75fc268318ebbfdb", "is_reserved": 0, "lon": -77.04497133333334, "is_disabled": 0, "fusion_lat": 0.0, "lat": 38.91335483333334, "bike_id": "3b47a1d2be69ba6a75fc268318ebbfdb", "fusion_lon": 0.0}, {"rental_uris": {"ios": "https://dc.lft.to/lastmile_qr_scan", "android": "https://dc.lft.to/lastmile_qr_scan"}, "type": "electric_scooter", "name": "eaab2afde83cf91541646312b1dd70a9", "is_reserved": 0, "lon": -77.02306133333333, "is_disabled": 0, "fusion_lat": 0.0, "lat": 38.91615816666667, "bike_id": "eaab2afde83cf91541646312b1dd70a9", "fusion_lon": 0.0}, {"rental_uris": {"ios": "https://dc.lft.to/lastmile_qr_scan", "android": "https://dc.lft.to/lastmile_qr_scan"}, "type": "electric_scooter", "name": "c884f3e043f25a21b2a2d4d279aea452", "is_reserved": 0, "lon": -77.02682316666667, "is_disabled": 0, "fusion_lat": 0.0, "lat": 38.9248205, "bike_id": "c884f3e043f25a21b2a2d4d279aea452", "fusion_lon": 0.0}, {"rental_uris": {"ios": "https://dc.lft.to/lastmile_qr_scan", "android": "https://dc.lft.to/lastmile_qr_scan"}, "type": "electric_scooter", "name": "d92560154247b7fc33a1f52f505cfc33", "is_reserved": 0, "lon": -77.03961466666667, "is_disabled": 0, "fusion_lat": 0.0, "lat": 38.90103533333333, "bike_id": "d92560154247b7fc33a1f52f505cfc33", "fusion_lon": 0.0}, {"rental_uris": {"ios": "https://dc.lft.to/lastmile_qr_scan", "android": "https://dc.lft.to/lastmile_qr_scan"}, "type": "electric_scooter", "name": "6a29c54e83c1a254176b2236a180d5cc", "is_reserved": 0, "lon": -77.02215583333333, "is_disabled": 0, "fusion_lat": 0.0, "lat": 38.899214, "bike_id": "6a29c54e83c1a254176b2236a180d5cc", "fusion_lon": 0.0}, {"rental_uris": {"ios": "https://dc.lft.to/lastmile_qr_scan", "android": "https://dc.lft.to/lastmile_qr_scan"}, "type": "electric_scooter", "name": "ae7eaae0b541aac5850a1f4cf13217e9", "is_reserved": 0, "lon": -77.03304666666666, "is_disabled": 0, "fusion_lat": 0.0, "lat": 38.91124466666667, "bike_id": "ae7eaae0b541aac5850a1f4cf13217e9", "fusion_lon": 0.0}, {"rental_uris": {"ios": "https://dc.lft.to/lastmile_qr_scan", "android": "https://dc.lft.to/lastmile_qr_scan"}, "type": "electric_scooter", "name": "cd7c846b81c5209dee9575cf9caa82a2", "is_reserved": 0, "lon": -77.04877133333333, "is_disabled": 0, "fusion_lat": 0.0, "lat": 38.91839933333333, "bike_id": "cd7c846b81c5209dee9575cf9caa82a2", "fusion_lon": 0.0}, {"rental_uris": {"ios": "https://dc.lft.to/lastmile_qr_scan", "android": "https://dc.lft.to/lastmile_qr_scan"}, "type": "electric_scooter", "name": "067e636b871a241f64bdbb3e212f3c9a", "is_reserved": 0, "lon": -77.03663866666666, "is_disabled": 0, "fusion_lat": 0.0, "lat": 38.922957, "bike_id": "067e636b871a241f64bdbb3e212f3c9a", "fusion_lon": 0.0}, {"rental_uris": {"ios": "https://dc.lft.to/lastmile_qr_scan", "android": "https://dc.lft.to/lastmile_qr_scan"}, "type": "electric_scooter", "name": "47ee9fee62f30b87eae3ca0083d30193", "is_reserved": 0, "lon": -77.035977, "is_disabled": 0, "fusion_lat": 0.0, "lat": 38.916991, "bike_id": "47ee9fee62f30b87eae3ca0083d30193", "fusion_lon": 0.0}, {"rental_uris": {"ios": "https://dc.lft.to/lastmile_qr_scan", "android": "https://dc.lft.to/lastmile_qr_scan"}, "type": "electric_scooter", "name": "e2fe7c08d7c2b6d448a4cc1c75a014ae", "is_reserved": 0, "lon": -77.04278683333334, "is_disabled": 0, "fusion_lat": 0.0, "lat": 38.906547833333335, "bike_id": "e2fe7c08d7c2b6d448a4cc1c75a014ae", "fusion_lon": 0.0}, {"rental_uris": {"ios": "https://dc.lft.to/lastmile_qr_scan", "android": "https://dc.lft.to/lastmile_qr_scan"}, "type": "electric_bike", "name": "04da447bda2ece4ba12227a024d2ee30", "is_reserved": 0, "lon": -76.96154433333334, "is_disabled": 0, "fusion_lat": 0.0, "lat": 38.85622333333333, "bike_id": "04da447bda2ece4ba12227a024d2ee30", "fusion_lon": 0.0}, {"rental_uris": {"ios": "https://dc.lft.to/lastmile_qr_scan", "android": "https://dc.lft.to/lastmile_qr_scan"}, "type": "electric_scooter", "name": "2a3cce9ae8375dccdc667fb23ba4f3c1", "is_reserved": 0, "lon": -77.05001366666667, "is_disabled": 0, "fusion_lat": 0.0, "lat": 38.89676766666667, "bike_id": "2a3cce9ae8375dccdc667fb23ba4f3c1", "fusion_lon": 0.0}, {"rental_uris": {"ios": "https://dc.lft.to/lastmile_qr_scan", "android": "https://dc.lft.to/lastmile_qr_scan"}, "type": "electric_scooter", "name": "8d1653a4a632f90069dc22096c3a96bf", "is_reserved": 0, "lon": -77.05372366666667, "is_disabled": 0, "fusion_lat": 0.0, "lat": 38.923372, "bike_id": "8d1653a4a632f90069dc22096c3a96bf", "fusion_lon": 0.0}, {"rental_uris": {"ios": "https://dc.lft.to/lastmile_qr_scan", "android": "https://dc.lft.to/lastmile_qr_scan"}, "type": "electric_scooter", "name": "c258d4d693a814f70779b3bf69630408", "is_reserved": 0, "lon": -76.99611866666666, "is_disabled": 0, "fusion_lat": 0.0, "lat": 38.90918766666667, "bike_id": "c258d4d693a814f70779b3bf69630408", "fusion_lon": 0.0}, {"rental_uris": {"ios": "https://dc.lft.to/lastmile_qr_scan", "android": "https://dc.lft.to/lastmile_qr_scan"}, "type": "electric_scooter", "name": "57c639fd8eeb2161f2e12944bc938538", "is_reserved": 0, "lon": -76.971481, "is_disabled": 0, "fusion_lat": 0.0, "lat": 38.916214833333335, "bike_id": "57c639fd8eeb2161f2e12944bc938538", "fusion_lon": 0.0}, {"rental_uris": {"ios": "https://dc.lft.to/lastmile_qr_scan", "android": "https://dc.lft.to/lastmile_qr_scan"}, "type": "electric_scooter", "name": "a4020b8936949bf92dde8d933daab9eb", "is_reserved": 0, "lon": -77.0144515, "is_disabled": 0, "fusion_lat": 0.0, "lat": 38.90968616666667, "bike_id": "a4020b8936949bf92dde8d933daab9eb", "fusion_lon": 0.0}, {"rental_uris": {"ios": "https://dc.lft.to/lastmile_qr_scan", "android": "https://dc.lft.to/lastmile_qr_scan"}, "type": "electric_scooter", "name": "a5fc2f8f576e69e56662a47b39f45f6e", "is_reserved": 0, "lon": -77.04202283333333, "is_disabled": 0, "fusion_lat": 0.0, "lat": 38.90753433333333, "bike_id": "a5fc2f8f576e69e56662a47b39f45f6e", "fusion_lon": 0.0}, {"rental_uris": {"ios": "https://dc.lft.to/lastmile_qr_scan", "android": "https://dc.lft.to/lastmile_qr_scan"}, "type": "electric_scooter", "name": "96a5f1a3acbac88f1de1336335a5059a", "is_reserved": 0, "lon": -77.01095366666667, "is_disabled": 0, "fusion_lat": 0.0, "lat": 38.89541716666667, "bike_id": "96a5f1a3acbac88f1de1336335a5059a", "fusion_lon": 0.0}, {"rental_uris": {"ios": "https://dc.lft.to/lastmile_qr_scan", "android": "https://dc.lft.to/lastmile_qr_scan"}, "type": "electric_scooter", "name": "c5b55712c87344f67a6378de3d035b1d", "is_reserved": 0, "lon": -77.01276466666667, "is_disabled": 0, "fusion_lat": 0.0, "lat": 38.89746566666667, "bike_id": "c5b55712c87344f67a6378de3d035b1d", "fusion_lon": 0.0}, {"rental_uris": {"ios": "https://dc.lft.to/lastmile_qr_scan", "android": "https://dc.lft.to/lastmile_qr_scan"}, "type": "electric_scooter", "name": "607b2aed8674e3f50b59bf5385b7e582", "is_reserved": 0, "lon": -77.03671116666666, "is_disabled": 0, "fusion_lat": 0.0, "lat": 38.9132405, "bike_id": "607b2aed8674e3f50b59bf5385b7e582", "fusion_lon": 0.0}, {"rental_uris": {"ios": "https://dc.lft.to/lastmile_qr_scan", "android": "https://dc.lft.to/lastmile_qr_scan"}, "type": "electric_scooter", "name": "05c76690e6d407af18f8e877e76dea19", "is_reserved": 0, "lon": -77.0376435, "is_disabled": 0, "fusion_lat": 0.0, "lat": 38.923268, "bike_id": "05c76690e6d407af18f8e877e76dea19", "fusion_lon": 0.0}, {"rental_uris": {"ios": "https://dc.lft.to/lastmile_qr_scan", "android": "https://dc.lft.to/lastmile_qr_scan"}, "type": "electric_scooter", "name": "404d654a165d37ec534f51a280114648", "is_reserved": 0, "lon": -77.029792, "is_disabled": 0, "fusion_lat": 0.0, "lat": 38.92253266666667, "bike_id": "404d654a165d37ec534f51a280114648", "fusion_lon": 0.0}, {"rental_uris": {"ios": "https://dc.lft.to/lastmile_qr_scan", "android": "https://dc.lft.to/lastmile_qr_scan"}, "type": "electric_scooter", "name": "3d55523df189477a0519946592adb9d9", "is_reserved": 0, "lon": -77.03212616666667, "is_disabled": 0, "fusion_lat": 0.0, "lat": 38.8923895, "bike_id": "3d55523df189477a0519946592adb9d9", "fusion_lon": 0.0}, {"rental_uris": {"ios": "https://dc.lft.to/lastmile_qr_scan", "android": "https://dc.lft.to/lastmile_qr_scan"}, "type": "electric_scooter", "name": "c66efdb3d85e461619c75af1aabe7834", "is_reserved": 0, "lon": -77.07403033333334, "is_disabled": 0, "fusion_lat": 0.0, "lat": 38.89731616666667, "bike_id": "c66efdb3d85e461619c75af1aabe7834", "fusion_lon": 0.0}, {"rental_uris": {"ios": "https://dc.lft.to/lastmile_qr_scan", "android": "https://dc.lft.to/lastmile_qr_scan"}, "type": "electric_scooter", "name": "91faa153fea690e17809a9c73f6cb1b9", "is_reserved": 0, "lon": -77.03495983333333, "is_disabled": 0, "fusion_lat": 0.0, "lat": 38.932740833333334, "bike_id": "91faa153fea690e17809a9c73f6cb1b9", "fusion_lon": 0.0}, {"rental_uris": {"ios": "https://dc.lft.to/lastmile_qr_scan", "android": "https://dc.lft.to/lastmile_qr_scan"}, "type": "electric_scooter", "name": "c3104b013dbf77aadc0d6e90ef7710fd", "is_reserved": 0, "lon": -76.98865666666667, "is_disabled": 0, "fusion_lat": 0.0, "lat": 38.900346666666664, "bike_id": "c3104b013dbf77aadc0d6e90ef7710fd", "fusion_lon": 0.0}, {"rental_uris": {"ios": "https://dc.lft.to/lastmile_qr_scan", "android": "https://dc.lft.to/lastmile_qr_scan"}, "type": "electric_scooter", "name": "a52ac23671e42510c76aa4950429a7a5", "is_reserved": 0, "lon": -77.021205, "is_disabled": 0, "fusion_lat": 0.0, "lat": 38.924129666666666, "bike_id": "a52ac23671e42510c76aa4950429a7a5", "fusion_lon": 0.0}, {"rental_uris": {"ios": "https://dc.lft.to/lastmile_qr_scan", "android": "https://dc.lft.to/lastmile_qr_scan"}, "type": "electric_scooter", "name": "38533bce50e669621c70c29958b28a6d", "is_reserved": 0, "lon": -77.014969, "is_disabled": 0, "fusion_lat": 0.0, "lat": 38.926686, "bike_id": "38533bce50e669621c70c29958b28a6d", "fusion_lon": 0.0}, {"rental_uris": {"ios": "https://dc.lft.to/lastmile_qr_scan", "android": "https://dc.lft.to/lastmile_qr_scan"}, "type": "electric_bike", "name": "b83d6c05448ba745d0705b6e1347564d", "is_reserved": 0, "lon": -77.0740865, "is_disabled": 0, "fusion_lat": 0.0, "lat": 38.914404166666664, "bike_id": "b83d6c05448ba745d0705b6e1347564d", "fusion_lon": 0.0}, {"rental_uris": {"ios": "https://dc.lft.to/lastmile_qr_scan", "android": "https://dc.lft.to/lastmile_qr_scan"}, "type": "electric_scooter", "name": "d21c5732743709b49c970beb96ea5a03", "is_reserved": 0, "lon": -76.98648583333333, "is_disabled": 0, "fusion_lat": 0.0, "lat": 38.90544383333334, "bike_id": "d21c5732743709b49c970beb96ea5a03", "fusion_lon": 0.0}, {"rental_uris": {"ios": "https://dc.lft.to/lastmile_qr_scan", "android": "https://dc.lft.to/lastmile_qr_scan"}, "type": "electric_scooter", "name": "52257b147a04e891c5b29edff0135e8f", "is_reserved": 0, "lon": -77.00405033333334, "is_disabled": 0, "fusion_lat": 0.0, "lat": 38.879373, "bike_id": "52257b147a04e891c5b29edff0135e8f", "fusion_lon": 0.0}, {"rental_uris": {"ios": "https://dc.lft.to/lastmile_qr_scan", "android": "https://dc.lft.to/lastmile_qr_scan"}, "type": "electric_scooter", "name": "cae0d07dc10514500d23c4098909d194", "is_reserved": 0, "lon": -77.0475565, "is_disabled": 0, "fusion_lat": 0.0, "lat": 38.900849, "bike_id": "cae0d07dc10514500d23c4098909d194", "fusion_lon": 0.0}, {"rental_uris": {"ios": "https://dc.lft.to/lastmile_qr_scan", "android": "https://dc.lft.to/lastmile_qr_scan"}, "type": "electric_scooter", "name": "27d37fd5d37672f375c3896cf392918b", "is_reserved": 0, "lon": -77.026344, "is_disabled": 0, "fusion_lat": 0.0, "lat": 38.896759333333335, "bike_id": "27d37fd5d37672f375c3896cf392918b", "fusion_lon": 0.0}, {"rental_uris": {"ios": "https://dc.lft.to/lastmile_qr_scan", "android": "https://dc.lft.to/lastmile_qr_scan"}, "type": "electric_scooter", "name": "147d9181fce27701caca42afad2b6a81", "is_reserved": 0, "lon": -77.0220125, "is_disabled": 0, "fusion_lat": 0.0, "lat": 38.91145316666667, "bike_id": "147d9181fce27701caca42afad2b6a81", "fusion_lon": 0.0}, {"rental_uris": {"ios": "https://dc.lft.to/lastmile_qr_scan", "android": "https://dc.lft.to/lastmile_qr_scan"}, "type": "electric_scooter", "name": "12b697746f627fa93d59f05522fd94d1", "is_reserved": 0, "lon": -77.038395, "is_disabled": 0, "fusion_lat": 0.0, "lat": 38.910430833333336, "bike_id": "12b697746f627fa93d59f05522fd94d1", "fusion_lon": 0.0}, {"rental_uris": {"ios": "https://dc.lft.to/lastmile_qr_scan", "android": "https://dc.lft.to/lastmile_qr_scan"}, "type": "electric_bike", "name": "ddeaf6dcdb1af70f5d5fdf3461328d7b", "is_reserved": 0, "lon": -77.106253, "is_disabled": 0, "fusion_lat": 0.0, "lat": 38.8732885, "bike_id": "ddeaf6dcdb1af70f5d5fdf3461328d7b", "fusion_lon": 0.0}, {"rental_uris": {"ios": "https://dc.lft.to/lastmile_qr_scan", "android": "https://dc.lft.to/lastmile_qr_scan"}, "type": "electric_scooter", "name": "4f5fca7516162765aad2adaad17f29a5", "is_reserved": 0, "lon": -76.9230315, "is_disabled": 0, "fusion_lat": 0.0, "lat": 38.893906666666666, "bike_id": "4f5fca7516162765aad2adaad17f29a5", "fusion_lon": 0.0}, {"rental_uris": {"ios": "https://dc.lft.to/lastmile_qr_scan", "android": "https://dc.lft.to/lastmile_qr_scan"}, "type": "electric_scooter", "name": "305ceacd2b40aad0052849bed4db07b6", "is_reserved": 0, "lon": -77.02714866666666, "is_disabled": 0, "fusion_lat": 0.0, "lat": 38.90530433333333, "bike_id": "305ceacd2b40aad0052849bed4db07b6", "fusion_lon": 0.0}, {"rental_uris": {"ios": "https://dc.lft.to/lastmile_qr_scan", "android": "https://dc.lft.to/lastmile_qr_scan"}, "type": "electric_scooter", "name": "1a6b2ad0224d3b6cc1b7726d5ef0fa00", "is_reserved": 0, "lon": -77.02447783333334, "is_disabled": 0, "fusion_lat": 0.0, "lat": 38.94980916666667, "bike_id": "1a6b2ad0224d3b6cc1b7726d5ef0fa00", "fusion_lon": 0.0}, {"rental_uris": {"ios": "https://dc.lft.to/lastmile_qr_scan", "android": "https://dc.lft.to/lastmile_qr_scan"}, "type": "electric_scooter", "name": "b3e18f3ffd4755805ab91fc24ef84ced", "is_reserved": 0, "lon": -76.989309, "is_disabled": 0, "fusion_lat": 0.0, "lat": 38.87866783333333, "bike_id": "b3e18f3ffd4755805ab91fc24ef84ced", "fusion_lon": 0.0}, {"rental_uris": {"ios": "https://dc.lft.to/lastmile_qr_scan", "android": "https://dc.lft.to/lastmile_qr_scan"}, "type": "electric_scooter", "name": "127eb54e76bb4b290cfa364215806882", "is_reserved": 0, "lon": -77.03125016666667, "is_disabled": 0, "fusion_lat": 0.0, "lat": 38.915607666666666, "bike_id": "127eb54e76bb4b290cfa364215806882", "fusion_lon": 0.0}, {"rental_uris": {"ios": "https://dc.lft.to/lastmile_qr_scan", "android": "https://dc.lft.to/lastmile_qr_scan"}, "type": "electric_scooter", "name": "7f7ab1f60420bd72308ae927f71edba1", "is_reserved": 0, "lon": -77.04251533333333, "is_disabled": 0, "fusion_lat": 0.0, "lat": 38.907350666666666, "bike_id": "7f7ab1f60420bd72308ae927f71edba1", "fusion_lon": 0.0}, {"rental_uris": {"ios": "https://dc.lft.to/lastmile_qr_scan", "android": "https://dc.lft.to/lastmile_qr_scan"}, "type": "electric_scooter", "name": "ab5710ea0fb333d1c3be9243a524b6a7", "is_reserved": 0, "lon": -77.05617266666667, "is_disabled": 0, "fusion_lat": 0.0, "lat": 38.90692466666667, "bike_id": "ab5710ea0fb333d1c3be9243a524b6a7", "fusion_lon": 0.0}, {"rental_uris": {"ios": "https://dc.lft.to/lastmile_qr_scan", "android": "https://dc.lft.to/lastmile_qr_scan"}, "type": "electric_scooter", "name": "d6eee0c8c91873959dd793fbad112580", "is_reserved": 0, "lon": -77.04142633333333, "is_disabled": 0, "fusion_lat": 0.0, "lat": 38.93282416666667, "bike_id": "d6eee0c8c91873959dd793fbad112580", "fusion_lon": 0.0}, {"rental_uris": {"ios": "https://dc.lft.to/lastmile_qr_scan", "android": "https://dc.lft.to/lastmile_qr_scan"}, "type": "electric_scooter", "name": "5760913c1fcf05e60acae3d185dba1e2", "is_reserved": 0, "lon": -77.00822466666666, "is_disabled": 0, "fusion_lat": 0.0, "lat": 38.879683, "bike_id": "5760913c1fcf05e60acae3d185dba1e2", "fusion_lon": 0.0}, {"rental_uris": {"ios": "https://dc.lft.to/lastmile_qr_scan", "android": "https://dc.lft.to/lastmile_qr_scan"}, "type": "electric_bike", "name": "567fb39e118cba81f78f7eb94fe98e65", "is_reserved": 0, "lon": -77.05039783333334, "is_disabled": 0, "fusion_lat": 0.0, "lat": 39.038942666666664, "bike_id": "567fb39e118cba81f78f7eb94fe98e65", "fusion_lon": 0.0}, {"rental_uris": {"ios": "https://dc.lft.to/lastmile_qr_scan", "android": "https://dc.lft.to/lastmile_qr_scan"}, "type": "electric_scooter", "name": "e9c8150c25ee86dd1bb63962939ca0c6", "is_reserved": 0, "lon": -77.03198133333333, "is_disabled": 0, "fusion_lat": 0.0, "lat": 38.91215, "bike_id": "e9c8150c25ee86dd1bb63962939ca0c6", "fusion_lon": 0.0}, {"rental_uris": {"ios": "https://dc.lft.to/lastmile_qr_scan", "android": "https://dc.lft.to/lastmile_qr_scan"}, "type": "electric_scooter", "name": "b743844068aeb4ad2815742ba6c0519c", "is_reserved": 0, "lon": -77.038349, "is_disabled": 0, "fusion_lat": 0.0, "lat": 38.91172483333333, "bike_id": "b743844068aeb4ad2815742ba6c0519c", "fusion_lon": 0.0}, {"rental_uris": {"ios": "https://dc.lft.to/lastmile_qr_scan", "android": "https://dc.lft.to/lastmile_qr_scan"}, "type": "electric_scooter", "name": "8c4abe4d3581acf934f7126143e0e37c", "is_reserved": 0, "lon": -77.04644233333333, "is_disabled": 0, "fusion_lat": 0.0, "lat": 38.897381, "bike_id": "8c4abe4d3581acf934f7126143e0e37c", "fusion_lon": 0.0}, {"rental_uris": {"ios": "https://dc.lft.to/lastmile_qr_scan", "android": "https://dc.lft.to/lastmile_qr_scan"}, "type": "electric_scooter", "name": "afbca346e405203798bff432fd06be8d", "is_reserved": 0, "lon": -77.03206533333334, "is_disabled": 0, "fusion_lat": 0.0, "lat": 38.887141166666666, "bike_id": "afbca346e405203798bff432fd06be8d", "fusion_lon": 0.0}, {"rental_uris": {"ios": "https://dc.lft.to/lastmile_qr_scan", "android": "https://dc.lft.to/lastmile_qr_scan"}, "type": "electric_scooter", "name": "ef244846236423966e64d17088c789e9", "is_reserved": 0, "lon": -76.98107583333334, "is_disabled": 0, "fusion_lat": 0.0, "lat": 38.9025035, "bike_id": "ef244846236423966e64d17088c789e9", "fusion_lon": 0.0}, {"rental_uris": {"ios": "https://dc.lft.to/lastmile_qr_scan", "android": "https://dc.lft.to/lastmile_qr_scan"}, "type": "electric_scooter", "name": "8a8c8bbfdd8400b0625891fb44fb7269", "is_reserved": 0, "lon": -77.00316583333333, "is_disabled": 0, "fusion_lat": 0.0, "lat": 38.919017333333336, "bike_id": "8a8c8bbfdd8400b0625891fb44fb7269", "fusion_lon": 0.0}, {"rental_uris": {"ios": "https://dc.lft.to/lastmile_qr_scan", "android": "https://dc.lft.to/lastmile_qr_scan"}, "type": "electric_scooter", "name": "3f52c8d4d69f14dd4cbc5000a5e4d644", "is_reserved": 0, "lon": -77.009307, "is_disabled": 0, "fusion_lat": 0.0, "lat": 38.9148845, "bike_id": "3f52c8d4d69f14dd4cbc5000a5e4d644", "fusion_lon": 0.0}, {"rental_uris": {"ios": "https://dc.lft.to/lastmile_qr_scan", "android": "https://dc.lft.to/lastmile_qr_scan"}, "type": "electric_scooter", "name": "d1916e0a0142615449b3117f6060e0be", "is_reserved": 0, "lon": -76.99348466666666, "is_disabled": 0, "fusion_lat": 0.0, "lat": 38.876933666666666, "bike_id": "d1916e0a0142615449b3117f6060e0be", "fusion_lon": 0.0}, {"rental_uris": {"ios": "https://dc.lft.to/lastmile_qr_scan", "android": "https://dc.lft.to/lastmile_qr_scan"}, "type": "electric_scooter", "name": "991064a598efc66a7d91c85358d096c3", "is_reserved": 0, "lon": -77.01777266666667, "is_disabled": 0, "fusion_lat": 0.0, "lat": 38.90053783333333, "bike_id": "991064a598efc66a7d91c85358d096c3", "fusion_lon": 0.0}, {"rental_uris": {"ios": "https://dc.lft.to/lastmile_qr_scan", "android": "https://dc.lft.to/lastmile_qr_scan"}, "type": "electric_bike", "name": "72b0656ea38e76b53d67b5a99ddef993", "is_reserved": 0, "lon": -77.11355583333334, "is_disabled": 0, "fusion_lat": 0.0, "lat": 38.8419875, "bike_id": "72b0656ea38e76b53d67b5a99ddef993", "fusion_lon": 0.0}, {"rental_uris": {"ios": "https://dc.lft.to/lastmile_qr_scan", "android": "https://dc.lft.to/lastmile_qr_scan"}, "type": "electric_scooter", "name": "d2a5ea046abcf0af327e84f0d9bcf059", "is_reserved": 0, "lon": -77.0284595, "is_disabled": 0, "fusion_lat": 0.0, "lat": 38.89227483333333, "bike_id": "d2a5ea046abcf0af327e84f0d9bcf059", "fusion_lon": 0.0}, {"rental_uris": {"ios": "https://dc.lft.to/lastmile_qr_scan", "android": "https://dc.lft.to/lastmile_qr_scan"}, "type": "electric_scooter", "name": "8eca8306a153aef2c92cba709f5c1f88", "is_reserved": 0, "lon": -77.02700366666667, "is_disabled": 0, "fusion_lat": 0.0, "lat": 38.9240355, "bike_id": "8eca8306a153aef2c92cba709f5c1f88", "fusion_lon": 0.0}, {"rental_uris": {"ios": "https://dc.lft.to/lastmile_qr_scan", "android": "https://dc.lft.to/lastmile_qr_scan"}, "type": "electric_scooter", "name": "17ab0677c67fc18dc473876fe6f463ad", "is_reserved": 0, "lon": -77.0397005, "is_disabled": 0, "fusion_lat": 0.0, "lat": 38.9013525, "bike_id": "17ab0677c67fc18dc473876fe6f463ad", "fusion_lon": 0.0}, {"rental_uris": {"ios": "https://dc.lft.to/lastmile_qr_scan", "android": "https://dc.lft.to/lastmile_qr_scan"}, "type": "electric_bike", "name": "6eda6f75e968b60617839389ef774951", "is_reserved": 0, "lon": -76.98061566666667, "is_disabled": 0, "fusion_lat": 0.0, "lat": 38.97257066666667, "bike_id": "6eda6f75e968b60617839389ef774951", "fusion_lon": 0.0}, {"rental_uris": {"ios": "https://dc.lft.to/lastmile_qr_scan", "android": "https://dc.lft.to/lastmile_qr_scan"}, "type": "electric_scooter", "name": "9d46e4873b297e0a0ae6297172356e1d", "is_reserved": 0, "lon": -77.0240905, "is_disabled": 0, "fusion_lat": 0.0, "lat": 38.945128833333335, "bike_id": "9d46e4873b297e0a0ae6297172356e1d", "fusion_lon": 0.0}, {"rental_uris": {"ios": "https://dc.lft.to/lastmile_qr_scan", "android": "https://dc.lft.to/lastmile_qr_scan"}, "type": "electric_scooter", "name": "fec68e85c8cfba77a62509854b457c3e", "is_reserved": 0, "lon": -77.01760666666667, "is_disabled": 0, "fusion_lat": 0.0, "lat": 38.88024683333333, "bike_id": "fec68e85c8cfba77a62509854b457c3e", "fusion_lon": 0.0}, {"rental_uris": {"ios": "https://dc.lft.to/lastmile_qr_scan", "android": "https://dc.lft.to/lastmile_qr_scan"}, "type": "electric_scooter", "name": "aa0ae8f0d643b1bfed87bafa00abd588", "is_reserved": 0, "lon": -77.03378716666667, "is_disabled": 0, "fusion_lat": 0.0, "lat": 38.90975233333333, "bike_id": "aa0ae8f0d643b1bfed87bafa00abd588", "fusion_lon": 0.0}, {"rental_uris": {"ios": "https://dc.lft.to/lastmile_qr_scan", "android": "https://dc.lft.to/lastmile_qr_scan"}, "type": "electric_scooter", "name": "af58bc020f078cffaf905abd93039075", "is_reserved": 0, "lon": -76.96984416666666, "is_disabled": 0, "fusion_lat": 0.0, "lat": 38.87406383333333, "bike_id": "af58bc020f078cffaf905abd93039075", "fusion_lon": 0.0}, {"rental_uris": {"ios": "https://dc.lft.to/lastmile_qr_scan", "android": "https://dc.lft.to/lastmile_qr_scan"}, "type": "electric_scooter", "name": "9ca810f897f73b57d5372ad7039868f0", "is_reserved": 0, "lon": -77.03871516666666, "is_disabled": 0, "fusion_lat": 0.0, "lat": 38.9125795, "bike_id": "9ca810f897f73b57d5372ad7039868f0", "fusion_lon": 0.0}, {"rental_uris": {"ios": "https://dc.lft.to/lastmile_qr_scan", "android": "https://dc.lft.to/lastmile_qr_scan"}, "type": "electric_scooter", "name": "81710200df634c34a80cb2e03d8cff17", "is_reserved": 0, "lon": -77.036299, "is_disabled": 0, "fusion_lat": 0.0, "lat": 38.9350895, "bike_id": "81710200df634c34a80cb2e03d8cff17", "fusion_lon": 0.0}, {"rental_uris": {"ios": "https://dc.lft.to/lastmile_qr_scan", "android": "https://dc.lft.to/lastmile_qr_scan"}, "type": "electric_scooter", "name": "fd21c084b6f2f59064dae66e09249fd6", "is_reserved": 0, "lon": -77.03474933333334, "is_disabled": 0, "fusion_lat": 0.0, "lat": 38.917154, "bike_id": "fd21c084b6f2f59064dae66e09249fd6", "fusion_lon": 0.0}, {"rental_uris": {"ios": "https://dc.lft.to/lastmile_qr_scan", "android": "https://dc.lft.to/lastmile_qr_scan"}, "type": "electric_scooter", "name": "8bc68ff5b0b8ae570000cc84882b3316", "is_reserved": 0, "lon": -77.012499, "is_disabled": 0, "fusion_lat": 0.0, "lat": 38.91686883333333, "bike_id": "8bc68ff5b0b8ae570000cc84882b3316", "fusion_lon": 0.0}, {"rental_uris": {"ios": "https://dc.lft.to/lastmile_qr_scan", "android": "https://dc.lft.to/lastmile_qr_scan"}, "type": "electric_scooter", "name": "3a0896aaf4eaafed488a5dfe6328a5f7", "is_reserved": 0, "lon": -77.027593, "is_disabled": 0, "fusion_lat": 0.0, "lat": 38.923930666666664, "bike_id": "3a0896aaf4eaafed488a5dfe6328a5f7", "fusion_lon": 0.0}, {"rental_uris": {"ios": "https://dc.lft.to/lastmile_qr_scan", "android": "https://dc.lft.to/lastmile_qr_scan"}, "type": "electric_scooter", "name": "c1adeb182707fb99f91ba5b2e63f62ce", "is_reserved": 0, "lon": -76.97801933333334, "is_disabled": 0, "fusion_lat": 0.0, "lat": 38.903139833333334, "bike_id": "c1adeb182707fb99f91ba5b2e63f62ce", "fusion_lon": 0.0}, {"rental_uris": {"ios": "https://dc.lft.to/lastmile_qr_scan", "android": "https://dc.lft.to/lastmile_qr_scan"}, "type": "electric_scooter", "name": "9df552ce1fdbb16d2628fa0660fd2e8f", "is_reserved": 0, "lon": -77.03331933333334, "is_disabled": 0, "fusion_lat": 0.0, "lat": 38.8963905, "bike_id": "9df552ce1fdbb16d2628fa0660fd2e8f", "fusion_lon": 0.0}, {"rental_uris": {"ios": "https://dc.lft.to/lastmile_qr_scan", "android": "https://dc.lft.to/lastmile_qr_scan"}, "type": "electric_scooter", "name": "320d190d3c685a850c0c5afe9eb77ca6", "is_reserved": 0, "lon": -77.04676416666666, "is_disabled": 0, "fusion_lat": 0.0, "lat": 38.892353, "bike_id": "320d190d3c685a850c0c5afe9eb77ca6", "fusion_lon": 0.0}, {"rental_uris": {"ios": "https://dc.lft.to/lastmile_qr_scan", "android": "https://dc.lft.to/lastmile_qr_scan"}, "type": "electric_scooter", "name": "22bd3f8347815984d44f4cd97ce69f87", "is_reserved": 0, "lon": -77.02231766666667, "is_disabled": 0, "fusion_lat": 0.0, "lat": 38.89223583333333, "bike_id": "22bd3f8347815984d44f4cd97ce69f87", "fusion_lon": 0.0}, {"rental_uris": {"ios": "https://dc.lft.to/lastmile_qr_scan", "android": "https://dc.lft.to/lastmile_qr_scan"}, "type": "electric_scooter", "name": "25b75e72626a4e1b4fb242fc78d88d60", "is_reserved": 0, "lon": -76.96158816666667, "is_disabled": 0, "fusion_lat": 0.0, "lat": 38.883695833333334, "bike_id": "25b75e72626a4e1b4fb242fc78d88d60", "fusion_lon": 0.0}, {"rental_uris": {"ios": "https://dc.lft.to/lastmile_qr_scan", "android": "https://dc.lft.to/lastmile_qr_scan"}, "type": "electric_scooter", "name": "7aa51656a9d366af15c4d7ee73b6ed52", "is_reserved": 0, "lon": -77.02985933333333, "is_disabled": 0, "fusion_lat": 0.0, "lat": 38.923756, "bike_id": "7aa51656a9d366af15c4d7ee73b6ed52", "fusion_lon": 0.0}, {"rental_uris": {"ios": "https://dc.lft.to/lastmile_qr_scan", "android": "https://dc.lft.to/lastmile_qr_scan"}, "type": "electric_scooter", "name": "a3357e4d68b4f51af33f99594c450cf9", "is_reserved": 0, "lon": -77.03868683333333, "is_disabled": 0, "fusion_lat": 0.0, "lat": 38.932471166666666, "bike_id": "a3357e4d68b4f51af33f99594c450cf9", "fusion_lon": 0.0}, {"rental_uris": {"ios": "https://dc.lft.to/lastmile_qr_scan", "android": "https://dc.lft.to/lastmile_qr_scan"}, "type": "electric_scooter", "name": "ab6cf1bf74b99fd6b918f296eab50fdd", "is_reserved": 0, "lon": -77.03206883333333, "is_disabled": 0, "fusion_lat": 0.0, "lat": 38.909888, "bike_id": "ab6cf1bf74b99fd6b918f296eab50fdd", "fusion_lon": 0.0}, {"rental_uris": {"ios": "https://dc.lft.to/lastmile_qr_scan", "android": "https://dc.lft.to/lastmile_qr_scan"}, "type": "electric_scooter", "name": "de00476298f2c825359fd1b5fdc9c3d6", "is_reserved": 0, "lon": -76.9903285, "is_disabled": 0, "fusion_lat": 0.0, "lat": 38.898552, "bike_id": "de00476298f2c825359fd1b5fdc9c3d6", "fusion_lon": 0.0}, {"rental_uris": {"ios": "https://dc.lft.to/lastmile_qr_scan", "android": "https://dc.lft.to/lastmile_qr_scan"}, "type": "electric_bike", "name": "012739f5a89af3d51486ae2e80297fcf", "is_reserved": 0, "lon": -76.94975366666667, "is_disabled": 0, "fusion_lat": 0.0, "lat": 38.88307666666667, "bike_id": "012739f5a89af3d51486ae2e80297fcf", "fusion_lon": 0.0}, {"rental_uris": {"ios": "https://dc.lft.to/lastmile_qr_scan", "android": "https://dc.lft.to/lastmile_qr_scan"}, "type": "electric_scooter", "name": "96e7ba5f4ecbe3641b35414590798c06", "is_reserved": 0, "lon": -77.03539633333334, "is_disabled": 0, "fusion_lat": 0.0, "lat": 38.9234535, "bike_id": "96e7ba5f4ecbe3641b35414590798c06", "fusion_lon": 0.0}, {"rental_uris": {"ios": "https://dc.lft.to/lastmile_qr_scan", "android": "https://dc.lft.to/lastmile_qr_scan"}, "type": "electric_scooter", "name": "4d6c74c87d824b0c744880369212c447", "is_reserved": 0, "lon": -77.027212, "is_disabled": 0, "fusion_lat": 0.0, "lat": 38.924862, "bike_id": "4d6c74c87d824b0c744880369212c447", "fusion_lon": 0.0}, {"rental_uris": {"ios": "https://dc.lft.to/lastmile_qr_scan", "android": "https://dc.lft.to/lastmile_qr_scan"}, "type": "electric_scooter", "name": "9b8b576f0609008d7f92212ef27d676e", "is_reserved": 0, "lon": -77.04833466666666, "is_disabled": 0, "fusion_lat": 0.0, "lat": 38.92116583333333, "bike_id": "9b8b576f0609008d7f92212ef27d676e", "fusion_lon": 0.0}, {"rental_uris": {"ios": "https://dc.lft.to/lastmile_qr_scan", "android": "https://dc.lft.to/lastmile_qr_scan"}, "type": "electric_scooter", "name": "1c1757172df17fbe80ae64bf2cad0046", "is_reserved": 0, "lon": -77.04860266666667, "is_disabled": 0, "fusion_lat": 0.0, "lat": 38.90449316666667, "bike_id": "1c1757172df17fbe80ae64bf2cad0046", "fusion_lon": 0.0}, {"rental_uris": {"ios": "https://dc.lft.to/lastmile_qr_scan", "android": "https://dc.lft.to/lastmile_qr_scan"}, "type": "electric_scooter", "name": "356a94c529faea271e8f419fd2112a40", "is_reserved": 0, "lon": -77.00502716666666, "is_disabled": 0, "fusion_lat": 0.0, "lat": 38.9441545, "bike_id": "356a94c529faea271e8f419fd2112a40", "fusion_lon": 0.0}, {"rental_uris": {"ios": "https://dc.lft.to/lastmile_qr_scan", "android": "https://dc.lft.to/lastmile_qr_scan"}, "type": "electric_scooter", "name": "6a2024dc3cd294c11be67c89d596348b", "is_reserved": 0, "lon": -77.017712, "is_disabled": 0, "fusion_lat": 0.0, "lat": 38.8873325, "bike_id": "6a2024dc3cd294c11be67c89d596348b", "fusion_lon": 0.0}, {"rental_uris": {"ios": "https://dc.lft.to/lastmile_qr_scan", "android": "https://dc.lft.to/lastmile_qr_scan"}, "type": "electric_scooter", "name": "84dcad915ba457c467be83313c9311ac", "is_reserved": 0, "lon": -77.02627916666667, "is_disabled": 0, "fusion_lat": 0.0, "lat": 38.896377333333334, "bike_id": "84dcad915ba457c467be83313c9311ac", "fusion_lon": 0.0}, {"rental_uris": {"ios": "https://dc.lft.to/lastmile_qr_scan", "android": "https://dc.lft.to/lastmile_qr_scan"}, "type": "electric_scooter", "name": "a4e508c839f536a5b5ff3d1301ed0a9d", "is_reserved": 0, "lon": -77.02303283333333, "is_disabled": 0, "fusion_lat": 0.0, "lat": 38.9179905, "bike_id": "a4e508c839f536a5b5ff3d1301ed0a9d", "fusion_lon": 0.0}, {"rental_uris": {"ios": "https://dc.lft.to/lastmile_qr_scan", "android": "https://dc.lft.to/lastmile_qr_scan"}, "type": "electric_scooter", "name": "4d64bcc13d37440ee0b7b512eb100c81", "is_reserved": 0, "lon": -76.99165633333334, "is_disabled": 0, "fusion_lat": 0.0, "lat": 38.90039633333333, "bike_id": "4d64bcc13d37440ee0b7b512eb100c81", "fusion_lon": 0.0}, {"rental_uris": {"ios": "https://dc.lft.to/lastmile_qr_scan", "android": "https://dc.lft.to/lastmile_qr_scan"}, "type": "electric_scooter", "name": "f532bef05e7f232e8938fe57466c257c", "is_reserved": 0, "lon": -77.0299575, "is_disabled": 0, "fusion_lat": 0.0, "lat": 38.917055, "bike_id": "f532bef05e7f232e8938fe57466c257c", "fusion_lon": 0.0}, {"rental_uris": {"ios": "https://dc.lft.to/lastmile_qr_scan", "android": "https://dc.lft.to/lastmile_qr_scan"}, "type": "electric_scooter", "name": "fbceae1e028304ed189535609a38e187", "is_reserved": 0, "lon": -77.0211385, "is_disabled": 0, "fusion_lat": 0.0, "lat": 38.966772166666665, "bike_id": "fbceae1e028304ed189535609a38e187", "fusion_lon": 0.0}, {"rental_uris": {"ios": "https://dc.lft.to/lastmile_qr_scan", "android": "https://dc.lft.to/lastmile_qr_scan"}, "type": "electric_scooter", "name": "e1644350a0c0579dba41a6ed517c32e6", "is_reserved": 0, "lon": -76.990329, "is_disabled": 0, "fusion_lat": 0.0, "lat": 38.8888565, "bike_id": "e1644350a0c0579dba41a6ed517c32e6", "fusion_lon": 0.0}, {"rental_uris": {"ios": "https://dc.lft.to/lastmile_qr_scan", "android": "https://dc.lft.to/lastmile_qr_scan"}, "type": "electric_scooter", "name": "d1ffb335a2c9aeeb9661e8903997022f", "is_reserved": 0, "lon": -77.0074865, "is_disabled": 0, "fusion_lat": 0.0, "lat": 38.911199, "bike_id": "d1ffb335a2c9aeeb9661e8903997022f", "fusion_lon": 0.0}, {"rental_uris": {"ios": "https://dc.lft.to/lastmile_qr_scan", "android": "https://dc.lft.to/lastmile_qr_scan"}, "type": "electric_scooter", "name": "7526b643d59b2c5589bee94288c01c41", "is_reserved": 0, "lon": -77.041913, "is_disabled": 0, "fusion_lat": 0.0, "lat": 38.918520666666666, "bike_id": "7526b643d59b2c5589bee94288c01c41", "fusion_lon": 0.0}, {"rental_uris": {"ios": "https://dc.lft.to/lastmile_qr_scan", "android": "https://dc.lft.to/lastmile_qr_scan"}, "type": "electric_bike", "name": "ebf7dee88d34f1e63cc47f463e6bdd86", "is_reserved": 0, "lon": -76.99364416666667, "is_disabled": 0, "fusion_lat": 0.0, "lat": 38.927353833333335, "bike_id": "ebf7dee88d34f1e63cc47f463e6bdd86", "fusion_lon": 0.0}, {"rental_uris": {"ios": "https://dc.lft.to/lastmile_qr_scan", "android": "https://dc.lft.to/lastmile_qr_scan"}, "type": "electric_bike", "name": "23b54cf38f6f7242e01426b7200e0a47", "is_reserved": 0, "lon": -77.01916483333333, "is_disabled": 0, "fusion_lat": 0.0, "lat": 38.976811, "bike_id": "23b54cf38f6f7242e01426b7200e0a47", "fusion_lon": 0.0}, {"rental_uris": {"ios": "https://dc.lft.to/lastmile_qr_scan", "android": "https://dc.lft.to/lastmile_qr_scan"}, "type": "electric_scooter", "name": "8b219fe8792503959faef8af49340bf8", "is_reserved": 0, "lon": -76.98541216666666, "is_disabled": 0, "fusion_lat": 0.0, "lat": 38.914524, "bike_id": "8b219fe8792503959faef8af49340bf8", "fusion_lon": 0.0}, {"rental_uris": {"ios": "https://dc.lft.to/lastmile_qr_scan", "android": "https://dc.lft.to/lastmile_qr_scan"}, "type": "electric_scooter", "name": "034438d13224e6f1f368389ed3402f13", "is_reserved": 0, "lon": -77.02405383333334, "is_disabled": 0, "fusion_lat": 0.0, "lat": 38.91724116666666, "bike_id": "034438d13224e6f1f368389ed3402f13", "fusion_lon": 0.0}, {"rental_uris": {"ios": "https://dc.lft.to/lastmile_qr_scan", "android": "https://dc.lft.to/lastmile_qr_scan"}, "type": "electric_bike", "name": "12765089d828c0327fdc3ef4222f0c4b", "is_reserved": 0, "lon": -77.0207315, "is_disabled": 0, "fusion_lat": 0.0, "lat": 38.96445466666667, "bike_id": "12765089d828c0327fdc3ef4222f0c4b", "fusion_lon": 0.0}, {"rental_uris": {"ios": "https://dc.lft.to/lastmile_qr_scan", "android": "https://dc.lft.to/lastmile_qr_scan"}, "type": "electric_scooter", "name": "71f6a8e6e106d17f735c091eb1aa2dbd", "is_reserved": 0, "lon": -77.03761533333333, "is_disabled": 0, "fusion_lat": 0.0, "lat": 38.9170085, "bike_id": "71f6a8e6e106d17f735c091eb1aa2dbd", "fusion_lon": 0.0}, {"rental_uris": {"ios": "https://dc.lft.to/lastmile_qr_scan", "android": "https://dc.lft.to/lastmile_qr_scan"}, "type": "electric_scooter", "name": "58ec49b345fd0d0164ce48895074167b", "is_reserved": 0, "lon": -77.03623266666666, "is_disabled": 0, "fusion_lat": 0.0, "lat": 38.942948333333334, "bike_id": "58ec49b345fd0d0164ce48895074167b", "fusion_lon": 0.0}, {"rental_uris": {"ios": "https://dc.lft.to/lastmile_qr_scan", "android": "https://dc.lft.to/lastmile_qr_scan"}, "type": "electric_scooter", "name": "f98652b1be0b1fdea928eac383bcab96", "is_reserved": 0, "lon": -76.98695133333334, "is_disabled": 0, "fusion_lat": 0.0, "lat": 38.9070535, "bike_id": "f98652b1be0b1fdea928eac383bcab96", "fusion_lon": 0.0}, {"rental_uris": {"ios": "https://dc.lft.to/lastmile_qr_scan", "android": "https://dc.lft.to/lastmile_qr_scan"}, "type": "electric_scooter", "name": "ced6ae23cf3ce489103906a8ba7a7183", "is_reserved": 0, "lon": -77.02700516666667, "is_disabled": 0, "fusion_lat": 0.0, "lat": 38.90584283333333, "bike_id": "ced6ae23cf3ce489103906a8ba7a7183", "fusion_lon": 0.0}, {"rental_uris": {"ios": "https://dc.lft.to/lastmile_qr_scan", "android": "https://dc.lft.to/lastmile_qr_scan"}, "type": "electric_scooter", "name": "56177afdbdc5e23bda2b86043c602d86", "is_reserved": 0, "lon": -77.00947083333334, "is_disabled": 0, "fusion_lat": 0.0, "lat": 38.89499883333333, "bike_id": "56177afdbdc5e23bda2b86043c602d86", "fusion_lon": 0.0}, {"rental_uris": {"ios": "https://dc.lft.to/lastmile_qr_scan", "android": "https://dc.lft.to/lastmile_qr_scan"}, "type": "electric_scooter", "name": "dd31a468a21bda3d12cee1f2d42101db", "is_reserved": 0, "lon": -77.0487915, "is_disabled": 0, "fusion_lat": 0.0, "lat": 38.900741, "bike_id": "dd31a468a21bda3d12cee1f2d42101db", "fusion_lon": 0.0}, {"rental_uris": {"ios": "https://dc.lft.to/lastmile_qr_scan", "android": "https://dc.lft.to/lastmile_qr_scan"}, "type": "electric_scooter", "name": "cced4c6c0acd191e3dddde5d75c7944a", "is_reserved": 0, "lon": -77.06259983333334, "is_disabled": 0, "fusion_lat": 0.0, "lat": 38.90525616666667, "bike_id": "cced4c6c0acd191e3dddde5d75c7944a", "fusion_lon": 0.0}, {"rental_uris": {"ios": "https://dc.lft.to/lastmile_qr_scan", "android": "https://dc.lft.to/lastmile_qr_scan"}, "type": "electric_scooter", "name": "7e3f387efb6030a0c3137c96e32f6a43", "is_reserved": 0, "lon": -77.01454516666666, "is_disabled": 0, "fusion_lat": 0.0, "lat": 38.92657783333333, "bike_id": "7e3f387efb6030a0c3137c96e32f6a43", "fusion_lon": 0.0}, {"rental_uris": {"ios": "https://dc.lft.to/lastmile_qr_scan", "android": "https://dc.lft.to/lastmile_qr_scan"}, "type": "electric_scooter", "name": "8f63b88979873fe02f970443ffc557d8", "is_reserved": 0, "lon": -77.045498, "is_disabled": 0, "fusion_lat": 0.0, "lat": 38.90748466666667, "bike_id": "8f63b88979873fe02f970443ffc557d8", "fusion_lon": 0.0}, {"rental_uris": {"ios": "https://dc.lft.to/lastmile_qr_scan", "android": "https://dc.lft.to/lastmile_qr_scan"}, "type": "electric_scooter", "name": "aebae3ee40999cbefd8bcb4404cb858c", "is_reserved": 0, "lon": -77.054779, "is_disabled": 0, "fusion_lat": 0.0, "lat": 38.897392333333336, "bike_id": "aebae3ee40999cbefd8bcb4404cb858c", "fusion_lon": 0.0}, {"rental_uris": {"ios": "https://dc.lft.to/lastmile_qr_scan", "android": "https://dc.lft.to/lastmile_qr_scan"}, "type": "electric_scooter", "name": "5401a31d57a370a8cec10dcf9fc3af57", "is_reserved": 0, "lon": -77.05025366666666, "is_disabled": 0, "fusion_lat": 0.0, "lat": 38.923573166666664, "bike_id": "5401a31d57a370a8cec10dcf9fc3af57", "fusion_lon": 0.0}, {"rental_uris": {"ios": "https://dc.lft.to/lastmile_qr_scan", "android": "https://dc.lft.to/lastmile_qr_scan"}, "type": "electric_scooter", "name": "4442697f90aec2e66c7747a05e2d57b9", "is_reserved": 0, "lon": -77.011209, "is_disabled": 0, "fusion_lat": 0.0, "lat": 38.91618733333333, "bike_id": "4442697f90aec2e66c7747a05e2d57b9", "fusion_lon": 0.0}, {"rental_uris": {"ios": "https://dc.lft.to/lastmile_qr_scan", "android": "https://dc.lft.to/lastmile_qr_scan"}, "type": "electric_scooter", "name": "2180b7ee7090a17e95bf579c2a0f9372", "is_reserved": 0, "lon": -77.03446816666667, "is_disabled": 0, "fusion_lat": 0.0, "lat": 38.9100175, "bike_id": "2180b7ee7090a17e95bf579c2a0f9372", "fusion_lon": 0.0}, {"rental_uris": {"ios": "https://dc.lft.to/lastmile_qr_scan", "android": "https://dc.lft.to/lastmile_qr_scan"}, "type": "electric_scooter", "name": "0819ba76b8816007500053ea2a3339cb", "is_reserved": 0, "lon": -77.0512035, "is_disabled": 0, "fusion_lat": 0.0, "lat": 38.925326, "bike_id": "0819ba76b8816007500053ea2a3339cb", "fusion_lon": 0.0}, {"rental_uris": {"ios": "https://dc.lft.to/lastmile_qr_scan", "android": "https://dc.lft.to/lastmile_qr_scan"}, "type": "electric_scooter", "name": "25d78fd5c56dc56d63ca52c100f724e1", "is_reserved": 0, "lon": -77.04674683333333, "is_disabled": 0, "fusion_lat": 0.0, "lat": 38.89284516666667, "bike_id": "25d78fd5c56dc56d63ca52c100f724e1", "fusion_lon": 0.0}, {"rental_uris": {"ios": "https://dc.lft.to/lastmile_qr_scan", "android": "https://dc.lft.to/lastmile_qr_scan"}, "type": "electric_bike", "name": "13860d81971991c0a4cd6b1701e25e6a", "is_reserved": 0, "lon": -77.05521683333333, "is_disabled": 0, "fusion_lat": 0.0, "lat": 38.944195, "bike_id": "13860d81971991c0a4cd6b1701e25e6a", "fusion_lon": 0.0}, {"rental_uris": {"ios": "https://dc.lft.to/lastmile_qr_scan", "android": "https://dc.lft.to/lastmile_qr_scan"}, "type": "electric_bike", "name": "7716b2e410b4402ba5fa0e23151c40c9", "is_reserved": 0, "lon": -76.9992265, "is_disabled": 0, "fusion_lat": 0.0, "lat": 38.994741, "bike_id": "7716b2e410b4402ba5fa0e23151c40c9", "fusion_lon": 0.0}, {"rental_uris": {"ios": "https://dc.lft.to/lastmile_qr_scan", "android": "https://dc.lft.to/lastmile_qr_scan"}, "type": "electric_scooter", "name": "45b2adfe0f85534068a1327f3e32ff67", "is_reserved": 0, "lon": -77.02923333333334, "is_disabled": 0, "fusion_lat": 0.0, "lat": 38.94447016666667, "bike_id": "45b2adfe0f85534068a1327f3e32ff67", "fusion_lon": 0.0}, {"rental_uris": {"ios": "https://dc.lft.to/lastmile_qr_scan", "android": "https://dc.lft.to/lastmile_qr_scan"}, "type": "electric_scooter", "name": "adedb2e5e6484ceeb3508497cbd727a9", "is_reserved": 0, "lon": -77.00382066666667, "is_disabled": 0, "fusion_lat": 0.0, "lat": 38.940662333333336, "bike_id": "adedb2e5e6484ceeb3508497cbd727a9", "fusion_lon": 0.0}, {"rental_uris": {"ios": "https://dc.lft.to/lastmile_qr_scan", "android": "https://dc.lft.to/lastmile_qr_scan"}, "type": "electric_scooter", "name": "9bbc3cdf6970639e5e942cad2a8e8a3b", "is_reserved": 0, "lon": -77.04476683333333, "is_disabled": 0, "fusion_lat": 0.0, "lat": 38.92293033333333, "bike_id": "9bbc3cdf6970639e5e942cad2a8e8a3b", "fusion_lon": 0.0}, {"rental_uris": {"ios": "https://dc.lft.to/lastmile_qr_scan", "android": "https://dc.lft.to/lastmile_qr_scan"}, "type": "electric_scooter", "name": "9807a69bc0dd3e15372b9e8f93afb851", "is_reserved": 0, "lon": -77.02929883333333, "is_disabled": 0, "fusion_lat": 0.0, "lat": 38.90737566666667, "bike_id": "9807a69bc0dd3e15372b9e8f93afb851", "fusion_lon": 0.0}, {"rental_uris": {"ios": "https://dc.lft.to/lastmile_qr_scan", "android": "https://dc.lft.to/lastmile_qr_scan"}, "type": "electric_scooter", "name": "afb756e970c0f5e2afd75dca7bf78082", "is_reserved": 0, "lon": -77.0468405, "is_disabled": 0, "fusion_lat": 0.0, "lat": 38.892254333333334, "bike_id": "afb756e970c0f5e2afd75dca7bf78082", "fusion_lon": 0.0}, {"rental_uris": {"ios": "https://dc.lft.to/lastmile_qr_scan", "android": "https://dc.lft.to/lastmile_qr_scan"}, "type": "electric_scooter", "name": "2e44b8f177adeab3c458ca15348f51d4", "is_reserved": 0, "lon": -77.05501283333334, "is_disabled": 0, "fusion_lat": 0.0, "lat": 38.929876666666665, "bike_id": "2e44b8f177adeab3c458ca15348f51d4", "fusion_lon": 0.0}, {"rental_uris": {"ios": "https://dc.lft.to/lastmile_qr_scan", "android": "https://dc.lft.to/lastmile_qr_scan"}, "type": "electric_scooter", "name": "36692ecffbae7a7ae253aced06e8f849", "is_reserved": 0, "lon": -77.03203916666666, "is_disabled": 0, "fusion_lat": 0.0, "lat": 38.907896, "bike_id": "36692ecffbae7a7ae253aced06e8f849", "fusion_lon": 0.0}, {"rental_uris": {"ios": "https://dc.lft.to/lastmile_qr_scan", "android": "https://dc.lft.to/lastmile_qr_scan"}, "type": "electric_scooter", "name": "f08d2bff0d7e2146c86b340e884b09ec", "is_reserved": 0, "lon": -77.06607416666667, "is_disabled": 0, "fusion_lat": 0.0, "lat": 38.911131166666664, "bike_id": "f08d2bff0d7e2146c86b340e884b09ec", "fusion_lon": 0.0}, {"rental_uris": {"ios": "https://dc.lft.to/lastmile_qr_scan", "android": "https://dc.lft.to/lastmile_qr_scan"}, "type": "electric_scooter", "name": "d7232181288fd21009e7f64dd6aa50ea", "is_reserved": 0, "lon": -77.02409433333334, "is_disabled": 0, "fusion_lat": 0.0, "lat": 38.90970683333333, "bike_id": "d7232181288fd21009e7f64dd6aa50ea", "fusion_lon": 0.0}, {"rental_uris": {"ios": "https://dc.lft.to/lastmile_qr_scan", "android": "https://dc.lft.to/lastmile_qr_scan"}, "type": "electric_scooter", "name": "48b52c2b22854c26966e004e0f4bea89", "is_reserved": 0, "lon": -77.02899183333334, "is_disabled": 0, "fusion_lat": 0.0, "lat": 38.940435666666666, "bike_id": "48b52c2b22854c26966e004e0f4bea89", "fusion_lon": 0.0}, {"rental_uris": {"ios": "https://dc.lft.to/lastmile_qr_scan", "android": "https://dc.lft.to/lastmile_qr_scan"}, "type": "electric_scooter", "name": "dac38f1e50c2b23cda31eb2dc7ea482a", "is_reserved": 0, "lon": -77.001891, "is_disabled": 0, "fusion_lat": 0.0, "lat": 38.9004395, "bike_id": "dac38f1e50c2b23cda31eb2dc7ea482a", "fusion_lon": 0.0}, {"rental_uris": {"ios": "https://dc.lft.to/lastmile_qr_scan", "android": "https://dc.lft.to/lastmile_qr_scan"}, "type": "electric_scooter", "name": "16c979abe1eb0006e824fb304c2dd809", "is_reserved": 0, "lon": -76.9705655, "is_disabled": 0, "fusion_lat": 0.0, "lat": 38.87324616666667, "bike_id": "16c979abe1eb0006e824fb304c2dd809", "fusion_lon": 0.0}, {"rental_uris": {"ios": "https://dc.lft.to/lastmile_qr_scan", "android": "https://dc.lft.to/lastmile_qr_scan"}, "type": "electric_scooter", "name": "4dfc4b699d64fa063610a7c440179b46", "is_reserved": 0, "lon": -77.03850966666667, "is_disabled": 0, "fusion_lat": 0.0, "lat": 38.903964333333334, "bike_id": "4dfc4b699d64fa063610a7c440179b46", "fusion_lon": 0.0}, {"rental_uris": {"ios": "https://dc.lft.to/lastmile_qr_scan", "android": "https://dc.lft.to/lastmile_qr_scan"}, "type": "electric_scooter", "name": "746c7e60e17dfbbfb7332427f057999d", "is_reserved": 0, "lon": -77.03293116666667, "is_disabled": 0, "fusion_lat": 0.0, "lat": 38.956336, "bike_id": "746c7e60e17dfbbfb7332427f057999d", "fusion_lon": 0.0}, {"rental_uris": {"ios": "https://dc.lft.to/lastmile_qr_scan", "android": "https://dc.lft.to/lastmile_qr_scan"}, "type": "electric_scooter", "name": "9fdf944be1e076518af71f41945ea83a", "is_reserved": 0, "lon": -77.03954083333333, "is_disabled": 0, "fusion_lat": 0.0, "lat": 38.89244, "bike_id": "9fdf944be1e076518af71f41945ea83a", "fusion_lon": 0.0}, {"rental_uris": {"ios": "https://dc.lft.to/lastmile_qr_scan", "android": "https://dc.lft.to/lastmile_qr_scan"}, "type": "electric_scooter", "name": "0eb9a9fee9f9f9f72093f9166e26b194", "is_reserved": 0, "lon": -77.026898, "is_disabled": 0, "fusion_lat": 0.0, "lat": 38.908500833333335, "bike_id": "0eb9a9fee9f9f9f72093f9166e26b194", "fusion_lon": 0.0}, {"rental_uris": {"ios": "https://dc.lft.to/lastmile_qr_scan", "android": "https://dc.lft.to/lastmile_qr_scan"}, "type": "electric_scooter", "name": "e30f859d97bdcf5a2ad3e6c38a74586a", "is_reserved": 0, "lon": -76.98607066666666, "is_disabled": 0, "fusion_lat": 0.0, "lat": 38.878425166666666, "bike_id": "e30f859d97bdcf5a2ad3e6c38a74586a", "fusion_lon": 0.0}, {"rental_uris": {"ios": "https://dc.lft.to/lastmile_qr_scan", "android": "https://dc.lft.to/lastmile_qr_scan"}, "type": "electric_bike", "name": "376d8b4ba73471be94b2ff2f2cfe02a9", "is_reserved": 0, "lon": -77.06697983333333, "is_disabled": 0, "fusion_lat": 0.0, "lat": 38.831747166666666, "bike_id": "376d8b4ba73471be94b2ff2f2cfe02a9", "fusion_lon": 0.0}, {"rental_uris": {"ios": "https://dc.lft.to/lastmile_qr_scan", "android": "https://dc.lft.to/lastmile_qr_scan"}, "type": "electric_scooter", "name": "325ef810e2ac5595ae36c64d09e64c59", "is_reserved": 0, "lon": -77.02884683333333, "is_disabled": 0, "fusion_lat": 0.0, "lat": 38.917153166666665, "bike_id": "325ef810e2ac5595ae36c64d09e64c59", "fusion_lon": 0.0}, {"rental_uris": {"ios": "https://dc.lft.to/lastmile_qr_scan", "android": "https://dc.lft.to/lastmile_qr_scan"}, "type": "electric_scooter", "name": "eb70d42efad1f77d952de59495eac629", "is_reserved": 0, "lon": -77.01904983333333, "is_disabled": 0, "fusion_lat": 0.0, "lat": 38.8980325, "bike_id": "eb70d42efad1f77d952de59495eac629", "fusion_lon": 0.0}, {"rental_uris": {"ios": "https://dc.lft.to/lastmile_qr_scan", "android": "https://dc.lft.to/lastmile_qr_scan"}, "type": "electric_scooter", "name": "3f8d0092cf7d461326987d05faef9b4b", "is_reserved": 0, "lon": -77.07175816666667, "is_disabled": 0, "fusion_lat": 0.0, "lat": 38.899558666666664, "bike_id": "3f8d0092cf7d461326987d05faef9b4b", "fusion_lon": 0.0}, {"rental_uris": {"ios": "https://dc.lft.to/lastmile_qr_scan", "android": "https://dc.lft.to/lastmile_qr_scan"}, "type": "electric_scooter", "name": "9364e7d3169ce3ec1cd6c7f90470808a", "is_reserved": 0, "lon": -77.02623866666667, "is_disabled": 0, "fusion_lat": 0.0, "lat": 38.892273833333334, "bike_id": "9364e7d3169ce3ec1cd6c7f90470808a", "fusion_lon": 0.0}, {"rental_uris": {"ios": "https://dc.lft.to/lastmile_qr_scan", "android": "https://dc.lft.to/lastmile_qr_scan"}, "type": "electric_scooter", "name": "5023a0a9254ab1e12a0fb7d3be071259", "is_reserved": 0, "lon": -77.02409066666667, "is_disabled": 0, "fusion_lat": 0.0, "lat": 38.9097295, "bike_id": "5023a0a9254ab1e12a0fb7d3be071259", "fusion_lon": 0.0}, {"rental_uris": {"ios": "https://dc.lft.to/lastmile_qr_scan", "android": "https://dc.lft.to/lastmile_qr_scan"}, "type": "electric_scooter", "name": "d78700ad9ebbeb065c19e7ed141af283", "is_reserved": 0, "lon": -77.06600966666667, "is_disabled": 0, "fusion_lat": 0.0, "lat": 38.9052645, "bike_id": "d78700ad9ebbeb065c19e7ed141af283", "fusion_lon": 0.0}, {"rental_uris": {"ios": "https://dc.lft.to/lastmile_qr_scan", "android": "https://dc.lft.to/lastmile_qr_scan"}, "type": "electric_scooter", "name": "9afa4b00cce88e089eb904805549fb58", "is_reserved": 0, "lon": -76.94386783333333, "is_disabled": 0, "fusion_lat": 0.0, "lat": 38.891275, "bike_id": "9afa4b00cce88e089eb904805549fb58", "fusion_lon": 0.0}, {"rental_uris": {"ios": "https://dc.lft.to/lastmile_qr_scan", "android": "https://dc.lft.to/lastmile_qr_scan"}, "type": "electric_scooter", "name": "12bb6aeeb4a87a22f40f26b04f8dede1", "is_reserved": 0, "lon": -77.06860266666666, "is_disabled": 0, "fusion_lat": 0.0, "lat": 38.903858, "bike_id": "12bb6aeeb4a87a22f40f26b04f8dede1", "fusion_lon": 0.0}, {"rental_uris": {"ios": "https://dc.lft.to/lastmile_qr_scan", "android": "https://dc.lft.to/lastmile_qr_scan"}, "type": "electric_scooter", "name": "a7aac462f65c4b5bc529b80eabff6334", "is_reserved": 0, "lon": -77.04407866666666, "is_disabled": 0, "fusion_lat": 0.0, "lat": 38.929526, "bike_id": "a7aac462f65c4b5bc529b80eabff6334", "fusion_lon": 0.0}, {"rental_uris": {"ios": "https://dc.lft.to/lastmile_qr_scan", "android": "https://dc.lft.to/lastmile_qr_scan"}, "type": "electric_scooter", "name": "9ad49af702f3e5f6d8c2a62342dacfe3", "is_reserved": 0, "lon": -77.05324066666667, "is_disabled": 0, "fusion_lat": 0.0, "lat": 38.902700333333335, "bike_id": "9ad49af702f3e5f6d8c2a62342dacfe3", "fusion_lon": 0.0}, {"rental_uris": {"ios": "https://dc.lft.to/lastmile_qr_scan", "android": "https://dc.lft.to/lastmile_qr_scan"}, "type": "electric_scooter", "name": "a8eeb6f3c8ebf22e3848aac74c6d6806", "is_reserved": 0, "lon": -76.96566166666666, "is_disabled": 0, "fusion_lat": 0.0, "lat": 38.876081666666664, "bike_id": "a8eeb6f3c8ebf22e3848aac74c6d6806", "fusion_lon": 0.0}, {"rental_uris": {"ios": "https://dc.lft.to/lastmile_qr_scan", "android": "https://dc.lft.to/lastmile_qr_scan"}, "type": "electric_bike", "name": "655e2fb3e80d7e4518869a1c9ffced85", "is_reserved": 0, "lon": -77.07017233333333, "is_disabled": 0, "fusion_lat": 0.0, "lat": 38.841122, "bike_id": "655e2fb3e80d7e4518869a1c9ffced85", "fusion_lon": 0.0}, {"rental_uris": {"ios": "https://dc.lft.to/lastmile_qr_scan", "android": "https://dc.lft.to/lastmile_qr_scan"}, "type": "electric_scooter", "name": "6d3fac0e297f543244c2b408b9934a22", "is_reserved": 0, "lon": -77.0191945, "is_disabled": 0, "fusion_lat": 0.0, "lat": 38.8973495, "bike_id": "6d3fac0e297f543244c2b408b9934a22", "fusion_lon": 0.0}, {"rental_uris": {"ios": "https://dc.lft.to/lastmile_qr_scan", "android": "https://dc.lft.to/lastmile_qr_scan"}, "type": "electric_scooter", "name": "02abc19a4d0cd356e1b615931eb4e26f", "is_reserved": 0, "lon": -77.03712016666667, "is_disabled": 0, "fusion_lat": 0.0, "lat": 38.92656066666667, "bike_id": "02abc19a4d0cd356e1b615931eb4e26f", "fusion_lon": 0.0}, {"rental_uris": {"ios": "https://dc.lft.to/lastmile_qr_scan", "android": "https://dc.lft.to/lastmile_qr_scan"}, "type": "electric_scooter", "name": "ac73927442c136542e92b15264cc55db", "is_reserved": 0, "lon": -77.04358966666666, "is_disabled": 0, "fusion_lat": 0.0, "lat": 38.897361, "bike_id": "ac73927442c136542e92b15264cc55db", "fusion_lon": 0.0}, {"rental_uris": {"ios": "https://dc.lft.to/lastmile_qr_scan", "android": "https://dc.lft.to/lastmile_qr_scan"}, "type": "electric_scooter", "name": "8f76cca48359827ff8e5e336d5231292", "is_reserved": 0, "lon": -77.0342935, "is_disabled": 0, "fusion_lat": 0.0, "lat": 38.90744883333333, "bike_id": "8f76cca48359827ff8e5e336d5231292", "fusion_lon": 0.0}, {"rental_uris": {"ios": "https://dc.lft.to/lastmile_qr_scan", "android": "https://dc.lft.to/lastmile_qr_scan"}, "type": "electric_scooter", "name": "fdab1b0e994e84026e6d058792b1f697", "is_reserved": 0, "lon": -77.04083533333333, "is_disabled": 0, "fusion_lat": 0.0, "lat": 38.947902166666665, "bike_id": "fdab1b0e994e84026e6d058792b1f697", "fusion_lon": 0.0}, {"rental_uris": {"ios": "https://dc.lft.to/lastmile_qr_scan", "android": "https://dc.lft.to/lastmile_qr_scan"}, "type": "electric_scooter", "name": "18b333249ab05bd4476e9f458bc92842", "is_reserved": 0, "lon": -77.0124965, "is_disabled": 0, "fusion_lat": 0.0, "lat": 38.912738166666664, "bike_id": "18b333249ab05bd4476e9f458bc92842", "fusion_lon": 0.0}, {"rental_uris": {"ios": "https://dc.lft.to/lastmile_qr_scan", "android": "https://dc.lft.to/lastmile_qr_scan"}, "type": "electric_scooter", "name": "a75dde634274c56cbcf914c43a0e64a3", "is_reserved": 0, "lon": -77.03861733333333, "is_disabled": 0, "fusion_lat": 0.0, "lat": 38.9128585, "bike_id": "a75dde634274c56cbcf914c43a0e64a3", "fusion_lon": 0.0}, {"rental_uris": {"ios": "https://dc.lft.to/lastmile_qr_scan", "android": "https://dc.lft.to/lastmile_qr_scan"}, "type": "electric_scooter", "name": "eead30ac3e058752819ff04cb1c8fbd3", "is_reserved": 0, "lon": -77.04015466666667, "is_disabled": 0, "fusion_lat": 0.0, "lat": 38.921729666666664, "bike_id": "eead30ac3e058752819ff04cb1c8fbd3", "fusion_lon": 0.0}, {"rental_uris": {"ios": "https://dc.lft.to/lastmile_qr_scan", "android": "https://dc.lft.to/lastmile_qr_scan"}, "type": "electric_scooter", "name": "4025d3e3dace5d075da488aff27fba2b", "is_reserved": 0, "lon": -77.04223833333333, "is_disabled": 0, "fusion_lat": 0.0, "lat": 38.911234666666665, "bike_id": "4025d3e3dace5d075da488aff27fba2b", "fusion_lon": 0.0}, {"rental_uris": {"ios": "https://dc.lft.to/lastmile_qr_scan", "android": "https://dc.lft.to/lastmile_qr_scan"}, "type": "electric_scooter", "name": "83a641be9d14558efafce65210869d38", "is_reserved": 0, "lon": -77.03460416666667, "is_disabled": 0, "fusion_lat": 0.0, "lat": 38.901149, "bike_id": "83a641be9d14558efafce65210869d38", "fusion_lon": 0.0}, {"rental_uris": {"ios": "https://dc.lft.to/lastmile_qr_scan", "android": "https://dc.lft.to/lastmile_qr_scan"}, "type": "electric_scooter", "name": "89b963b26fafd3446c754f3e4fb1297a", "is_reserved": 0, "lon": -77.00747883333334, "is_disabled": 0, "fusion_lat": 0.0, "lat": 38.91111866666667, "bike_id": "89b963b26fafd3446c754f3e4fb1297a", "fusion_lon": 0.0}, {"rental_uris": {"ios": "https://dc.lft.to/lastmile_qr_scan", "android": "https://dc.lft.to/lastmile_qr_scan"}, "type": "electric_bike", "name": "c9ab7a3a32a2fe445a875c852bdfdbc9", "is_reserved": 0, "lon": -76.9801715, "is_disabled": 0, "fusion_lat": 0.0, "lat": 38.853177, "bike_id": "c9ab7a3a32a2fe445a875c852bdfdbc9", "fusion_lon": 0.0}, {"rental_uris": {"ios": "https://dc.lft.to/lastmile_qr_scan", "android": "https://dc.lft.to/lastmile_qr_scan"}, "type": "electric_scooter", "name": "a47c39a2bc503336c2a98c1a85e58894", "is_reserved": 0, "lon": -77.03676016666667, "is_disabled": 0, "fusion_lat": 0.0, "lat": 38.904293833333334, "bike_id": "a47c39a2bc503336c2a98c1a85e58894", "fusion_lon": 0.0}, {"rental_uris": {"ios": "https://dc.lft.to/lastmile_qr_scan", "android": "https://dc.lft.to/lastmile_qr_scan"}, "type": "electric_scooter", "name": "3363bf0e8a45a66d18cda76e29aef77a", "is_reserved": 0, "lon": -77.04209516666667, "is_disabled": 0, "fusion_lat": 0.0, "lat": 38.920344, "bike_id": "3363bf0e8a45a66d18cda76e29aef77a", "fusion_lon": 0.0}, {"rental_uris": {"ios": "https://dc.lft.to/lastmile_qr_scan", "android": "https://dc.lft.to/lastmile_qr_scan"}, "type": "electric_scooter", "name": "96dd867521018b4bcddff41d25de7346", "is_reserved": 0, "lon": -77.05188033333333, "is_disabled": 0, "fusion_lat": 0.0, "lat": 38.90265633333333, "bike_id": "96dd867521018b4bcddff41d25de7346", "fusion_lon": 0.0}, {"rental_uris": {"ios": "https://dc.lft.to/lastmile_qr_scan", "android": "https://dc.lft.to/lastmile_qr_scan"}, "type": "electric_scooter", "name": "73336d34ceb1c3c4e005acdb568a158b", "is_reserved": 0, "lon": -77.019623, "is_disabled": 0, "fusion_lat": 0.0, "lat": 38.92330366666667, "bike_id": "73336d34ceb1c3c4e005acdb568a158b", "fusion_lon": 0.0}, {"rental_uris": {"ios": "https://dc.lft.to/lastmile_qr_scan", "android": "https://dc.lft.to/lastmile_qr_scan"}, "type": "electric_scooter", "name": "77eceac9812eaedbb43fa0c8b97b3dca", "is_reserved": 0, "lon": -77.03867883333334, "is_disabled": 0, "fusion_lat": 0.0, "lat": 38.90377766666667, "bike_id": "77eceac9812eaedbb43fa0c8b97b3dca", "fusion_lon": 0.0}, {"rental_uris": {"ios": "https://dc.lft.to/lastmile_qr_scan", "android": "https://dc.lft.to/lastmile_qr_scan"}, "type": "electric_scooter", "name": "c95d1b3d1fac7bef04c0468f9cb347d0", "is_reserved": 0, "lon": -77.01765166666667, "is_disabled": 0, "fusion_lat": 0.0, "lat": 38.9211055, "bike_id": "c95d1b3d1fac7bef04c0468f9cb347d0", "fusion_lon": 0.0}, {"rental_uris": {"ios": "https://dc.lft.to/lastmile_qr_scan", "android": "https://dc.lft.to/lastmile_qr_scan"}, "type": "electric_scooter", "name": "a9baaec686fb464b9e30b7c431b99297", "is_reserved": 0, "lon": -77.06144083333334, "is_disabled": 0, "fusion_lat": 0.0, "lat": 38.91297566666667, "bike_id": "a9baaec686fb464b9e30b7c431b99297", "fusion_lon": 0.0}, {"rental_uris": {"ios": "https://dc.lft.to/lastmile_qr_scan", "android": "https://dc.lft.to/lastmile_qr_scan"}, "type": "electric_scooter", "name": "c304ad865785cc404085818aad318e68", "is_reserved": 0, "lon": -76.99859783333333, "is_disabled": 0, "fusion_lat": 0.0, "lat": 38.9003385, "bike_id": "c304ad865785cc404085818aad318e68", "fusion_lon": 0.0}, {"rental_uris": {"ios": "https://dc.lft.to/lastmile_qr_scan", "android": "https://dc.lft.to/lastmile_qr_scan"}, "type": "electric_scooter", "name": "c440aadae6f03c3caaff2e5671892139", "is_reserved": 0, "lon": -77.0220985, "is_disabled": 0, "fusion_lat": 0.0, "lat": 38.91562733333333, "bike_id": "c440aadae6f03c3caaff2e5671892139", "fusion_lon": 0.0}, {"rental_uris": {"ios": "https://dc.lft.to/lastmile_qr_scan", "android": "https://dc.lft.to/lastmile_qr_scan"}, "type": "electric_bike", "name": "dfaf05a6a938a5c87c146274efa95179", "is_reserved": 0, "lon": -76.98539066666666, "is_disabled": 0, "fusion_lat": 0.0, "lat": 38.89252916666667, "bike_id": "dfaf05a6a938a5c87c146274efa95179", "fusion_lon": 0.0}, {"rental_uris": {"ios": "https://dc.lft.to/lastmile_qr_scan", "android": "https://dc.lft.to/lastmile_qr_scan"}, "type": "electric_scooter", "name": "524fa960bcdfab1f3f5d0203e80b3ef4", "is_reserved": 0, "lon": -77.0305725, "is_disabled": 0, "fusion_lat": 0.0, "lat": 38.908311833333336, "bike_id": "524fa960bcdfab1f3f5d0203e80b3ef4", "fusion_lon": 0.0}, {"rental_uris": {"ios": "https://dc.lft.to/lastmile_qr_scan", "android": "https://dc.lft.to/lastmile_qr_scan"}, "type": "electric_scooter", "name": "e1bcc5ee5cb6d83a462b29ebe86d4b5b", "is_reserved": 0, "lon": -77.02403266666667, "is_disabled": 0, "fusion_lat": 0.0, "lat": 38.919649166666666, "bike_id": "e1bcc5ee5cb6d83a462b29ebe86d4b5b", "fusion_lon": 0.0}, {"rental_uris": {"ios": "https://dc.lft.to/lastmile_qr_scan", "android": "https://dc.lft.to/lastmile_qr_scan"}, "type": "electric_scooter", "name": "33fc67b1b82f9738389d4aa4851d4e4b", "is_reserved": 0, "lon": -77.034453, "is_disabled": 0, "fusion_lat": 0.0, "lat": 38.910024, "bike_id": "33fc67b1b82f9738389d4aa4851d4e4b", "fusion_lon": 0.0}, {"rental_uris": {"ios": "https://dc.lft.to/lastmile_qr_scan", "android": "https://dc.lft.to/lastmile_qr_scan"}, "type": "electric_scooter", "name": "55f5d13237b8a1189380243a125d4c47", "is_reserved": 0, "lon": -77.03232933333334, "is_disabled": 0, "fusion_lat": 0.0, "lat": 38.907134, "bike_id": "55f5d13237b8a1189380243a125d4c47", "fusion_lon": 0.0}, {"rental_uris": {"ios": "https://dc.lft.to/lastmile_qr_scan", "android": "https://dc.lft.to/lastmile_qr_scan"}, "type": "electric_scooter", "name": "b6f6bb994d0727db74454311cc55ceb2", "is_reserved": 0, "lon": -77.02380066666667, "is_disabled": 0, "fusion_lat": 0.0, "lat": 38.9096355, "bike_id": "b6f6bb994d0727db74454311cc55ceb2", "fusion_lon": 0.0}, {"rental_uris": {"ios": "https://dc.lft.to/lastmile_qr_scan", "android": "https://dc.lft.to/lastmile_qr_scan"}, "type": "electric_scooter", "name": "360f5a5fa273fe606ea5914fe37c5cea", "is_reserved": 0, "lon": -77.04107, "is_disabled": 0, "fusion_lat": 0.0, "lat": 38.89998966666667, "bike_id": "360f5a5fa273fe606ea5914fe37c5cea", "fusion_lon": 0.0}, {"rental_uris": {"ios": "https://dc.lft.to/lastmile_qr_scan", "android": "https://dc.lft.to/lastmile_qr_scan"}, "type": "electric_scooter", "name": "e8b0d3d9da98262cfe7bcb6b516b87ce", "is_reserved": 0, "lon": -77.04002033333333, "is_disabled": 0, "fusion_lat": 0.0, "lat": 38.91194733333333, "bike_id": "e8b0d3d9da98262cfe7bcb6b516b87ce", "fusion_lon": 0.0}, {"rental_uris": {"ios": "https://dc.lft.to/lastmile_qr_scan", "android": "https://dc.lft.to/lastmile_qr_scan"}, "type": "electric_scooter", "name": "529d9b303fc6cac9d437e96c4b45d798", "is_reserved": 0, "lon": -77.031906, "is_disabled": 0, "fusion_lat": 0.0, "lat": 38.91865933333333, "bike_id": "529d9b303fc6cac9d437e96c4b45d798", "fusion_lon": 0.0}, {"rental_uris": {"ios": "https://dc.lft.to/lastmile_qr_scan", "android": "https://dc.lft.to/lastmile_qr_scan"}, "type": "electric_scooter", "name": "16676e114c41df2cb95fe32c04c237aa", "is_reserved": 0, "lon": -77.02129033333334, "is_disabled": 0, "fusion_lat": 0.0, "lat": 38.92701683333333, "bike_id": "16676e114c41df2cb95fe32c04c237aa", "fusion_lon": 0.0}, {"rental_uris": {"ios": "https://dc.lft.to/lastmile_qr_scan", "android": "https://dc.lft.to/lastmile_qr_scan"}, "type": "electric_scooter", "name": "87b20aee1918ec9443bf9a968171a483", "is_reserved": 0, "lon": -77.02344, "is_disabled": 0, "fusion_lat": 0.0, "lat": 38.92305283333334, "bike_id": "87b20aee1918ec9443bf9a968171a483", "fusion_lon": 0.0}, {"rental_uris": {"ios": "https://dc.lft.to/lastmile_qr_scan", "android": "https://dc.lft.to/lastmile_qr_scan"}, "type": "electric_bike", "name": "8c9599f29c780bfa702b16a26bf7d619", "is_reserved": 0, "lon": -76.98841883333333, "is_disabled": 0, "fusion_lat": 0.0, "lat": 38.842830166666666, "bike_id": "8c9599f29c780bfa702b16a26bf7d619", "fusion_lon": 0.0}, {"rental_uris": {"ios": "https://dc.lft.to/lastmile_qr_scan", "android": "https://dc.lft.to/lastmile_qr_scan"}, "type": "electric_scooter", "name": "67670acdcff9b35c7bfbc2d654d9a062", "is_reserved": 0, "lon": -77.02721783333334, "is_disabled": 0, "fusion_lat": 0.0, "lat": 38.897297, "bike_id": "67670acdcff9b35c7bfbc2d654d9a062", "fusion_lon": 0.0}, {"rental_uris": {"ios": "https://dc.lft.to/lastmile_qr_scan", "android": "https://dc.lft.to/lastmile_qr_scan"}, "type": "electric_scooter", "name": "2d7b452adf7439f3d51dbb7ddd99a568", "is_reserved": 0, "lon": -77.02453383333334, "is_disabled": 0, "fusion_lat": 0.0, "lat": 38.899911833333334, "bike_id": "2d7b452adf7439f3d51dbb7ddd99a568", "fusion_lon": 0.0}, {"rental_uris": {"ios": "https://dc.lft.to/lastmile_qr_scan", "android": "https://dc.lft.to/lastmile_qr_scan"}, "type": "electric_scooter", "name": "47eadd430dab3d8e62368492ccb3f08d", "is_reserved": 0, "lon": -77.01769883333333, "is_disabled": 0, "fusion_lat": 0.0, "lat": 38.88318066666667, "bike_id": "47eadd430dab3d8e62368492ccb3f08d", "fusion_lon": 0.0}, {"rental_uris": {"ios": "https://dc.lft.to/lastmile_qr_scan", "android": "https://dc.lft.to/lastmile_qr_scan"}, "type": "electric_scooter", "name": "054ea7d14dfded650ecee18a1241a4f4", "is_reserved": 0, "lon": -77.02411816666667, "is_disabled": 0, "fusion_lat": 0.0, "lat": 38.909728666666666, "bike_id": "054ea7d14dfded650ecee18a1241a4f4", "fusion_lon": 0.0}, {"rental_uris": {"ios": "https://dc.lft.to/lastmile_qr_scan", "android": "https://dc.lft.to/lastmile_qr_scan"}, "type": "electric_scooter", "name": "bde79dc18f46ae7b48a49c3f78fb636e", "is_reserved": 0, "lon": -77.04483266666666, "is_disabled": 0, "fusion_lat": 0.0, "lat": 38.8934085, "bike_id": "bde79dc18f46ae7b48a49c3f78fb636e", "fusion_lon": 0.0}, {"rental_uris": {"ios": "https://dc.lft.to/lastmile_qr_scan", "android": "https://dc.lft.to/lastmile_qr_scan"}, "type": "electric_scooter", "name": "236701a49b8f1a34875fbda6c11eb80c", "is_reserved": 0, "lon": -77.03527316666667, "is_disabled": 0, "fusion_lat": 0.0, "lat": 38.904758333333334, "bike_id": "236701a49b8f1a34875fbda6c11eb80c", "fusion_lon": 0.0}, {"rental_uris": {"ios": "https://dc.lft.to/lastmile_qr_scan", "android": "https://dc.lft.to/lastmile_qr_scan"}, "type": "electric_scooter", "name": "f7b6e500bef5be713d5c82e38c7e7d73", "is_reserved": 0, "lon": -77.01083666666666, "is_disabled": 0, "fusion_lat": 0.0, "lat": 38.903391, "bike_id": "f7b6e500bef5be713d5c82e38c7e7d73", "fusion_lon": 0.0}, {"rental_uris": {"ios": "https://dc.lft.to/lastmile_qr_scan", "android": "https://dc.lft.to/lastmile_qr_scan"}, "type": "electric_scooter", "name": "57a033b7c8547fdbff21da9a4b934cc5", "is_reserved": 0, "lon": -77.0560295, "is_disabled": 0, "fusion_lat": 0.0, "lat": 38.9370335, "bike_id": "57a033b7c8547fdbff21da9a4b934cc5", "fusion_lon": 0.0}, {"rental_uris": {"ios": "https://dc.lft.to/lastmile_qr_scan", "android": "https://dc.lft.to/lastmile_qr_scan"}, "type": "electric_scooter", "name": "048eee00c51a5dcb52cc215ca6c2ec70", "is_reserved": 0, "lon": -77.007571, "is_disabled": 0, "fusion_lat": 0.0, "lat": 38.926791, "bike_id": "048eee00c51a5dcb52cc215ca6c2ec70", "fusion_lon": 0.0}, {"rental_uris": {"ios": "https://dc.lft.to/lastmile_qr_scan", "android": "https://dc.lft.to/lastmile_qr_scan"}, "type": "electric_scooter", "name": "565fdceb34d901e6db1b9756dbfefc86", "is_reserved": 0, "lon": -77.03664933333333, "is_disabled": 0, "fusion_lat": 0.0, "lat": 38.9176665, "bike_id": "565fdceb34d901e6db1b9756dbfefc86", "fusion_lon": 0.0}, {"rental_uris": {"ios": "https://dc.lft.to/lastmile_qr_scan", "android": "https://dc.lft.to/lastmile_qr_scan"}, "type": "electric_scooter", "name": "40832797f1ea3d34603fc44fec2e5e95", "is_reserved": 0, "lon": -76.99424083333334, "is_disabled": 0, "fusion_lat": 0.0, "lat": 38.92107216666667, "bike_id": "40832797f1ea3d34603fc44fec2e5e95", "fusion_lon": 0.0}, {"rental_uris": {"ios": "https://dc.lft.to/lastmile_qr_scan", "android": "https://dc.lft.to/lastmile_qr_scan"}, "type": "electric_bike", "name": "c0e2965ced60080fb017bffe848ca049", "is_reserved": 0, "lon": -77.065193, "is_disabled": 0, "fusion_lat": 0.0, "lat": 38.905391, "bike_id": "c0e2965ced60080fb017bffe848ca049", "fusion_lon": 0.0}, {"rental_uris": {"ios": "https://dc.lft.to/lastmile_qr_scan", "android": "https://dc.lft.to/lastmile_qr_scan"}, "type": "electric_scooter", "name": "197cc7709090f722cba38092ce4b36da", "is_reserved": 0, "lon": -77.00724783333334, "is_disabled": 0, "fusion_lat": 0.0, "lat": 38.8763785, "bike_id": "197cc7709090f722cba38092ce4b36da", "fusion_lon": 0.0}, {"rental_uris": {"ios": "https://dc.lft.to/lastmile_qr_scan", "android": "https://dc.lft.to/lastmile_qr_scan"}, "type": "electric_scooter", "name": "86a09d6fd2d6f06bbf6a7b9562792464", "is_reserved": 0, "lon": -77.03831983333333, "is_disabled": 0, "fusion_lat": 0.0, "lat": 38.9108215, "bike_id": "86a09d6fd2d6f06bbf6a7b9562792464", "fusion_lon": 0.0}, {"rental_uris": {"ios": "https://dc.lft.to/lastmile_qr_scan", "android": "https://dc.lft.to/lastmile_qr_scan"}, "type": "electric_scooter", "name": "ec540a0509504baae6bbd2f25e9fa0df", "is_reserved": 0, "lon": -77.03334866666667, "is_disabled": 0, "fusion_lat": 0.0, "lat": 38.928793, "bike_id": "ec540a0509504baae6bbd2f25e9fa0df", "fusion_lon": 0.0}, {"rental_uris": {"ios": "https://dc.lft.to/lastmile_qr_scan", "android": "https://dc.lft.to/lastmile_qr_scan"}, "type": "electric_scooter", "name": "6082a6dc4700ae433dc3ee9744b86498", "is_reserved": 0, "lon": -77.05024766666666, "is_disabled": 0, "fusion_lat": 0.0, "lat": 38.92355883333333, "bike_id": "6082a6dc4700ae433dc3ee9744b86498", "fusion_lon": 0.0}, {"rental_uris": {"ios": "https://dc.lft.to/lastmile_qr_scan", "android": "https://dc.lft.to/lastmile_qr_scan"}, "type": "electric_scooter", "name": "da78be71f403cce6f1882811e47d52c7", "is_reserved": 0, "lon": -76.9899475, "is_disabled": 0, "fusion_lat": 0.0, "lat": 38.917651166666666, "bike_id": "da78be71f403cce6f1882811e47d52c7", "fusion_lon": 0.0}, {"rental_uris": {"ios": "https://dc.lft.to/lastmile_qr_scan", "android": "https://dc.lft.to/lastmile_qr_scan"}, "type": "electric_scooter", "name": "9d50a50731469df630aa1b110b28c49d", "is_reserved": 0, "lon": -76.99911966666667, "is_disabled": 0, "fusion_lat": 0.0, "lat": 38.92458283333333, "bike_id": "9d50a50731469df630aa1b110b28c49d", "fusion_lon": 0.0}, {"rental_uris": {"ios": "https://dc.lft.to/lastmile_qr_scan", "android": "https://dc.lft.to/lastmile_qr_scan"}, "type": "electric_scooter", "name": "46715b512dbcdc3ee0d25692eed66e61", "is_reserved": 0, "lon": -77.04367283333333, "is_disabled": 0, "fusion_lat": 0.0, "lat": 38.8922985, "bike_id": "46715b512dbcdc3ee0d25692eed66e61", "fusion_lon": 0.0}, {"rental_uris": {"ios": "https://dc.lft.to/lastmile_qr_scan", "android": "https://dc.lft.to/lastmile_qr_scan"}, "type": "electric_scooter", "name": "cbe9376879ebfc3b38276d644bf9bc7a", "is_reserved": 0, "lon": -77.03185166666667, "is_disabled": 0, "fusion_lat": 0.0, "lat": 38.913525, "bike_id": "cbe9376879ebfc3b38276d644bf9bc7a", "fusion_lon": 0.0}, {"rental_uris": {"ios": "https://dc.lft.to/lastmile_qr_scan", "android": "https://dc.lft.to/lastmile_qr_scan"}, "type": "electric_scooter", "name": "0669eb190d96b6e2beb2a2a9d615ade8", "is_reserved": 0, "lon": -77.028878, "is_disabled": 0, "fusion_lat": 0.0, "lat": 38.916981, "bike_id": "0669eb190d96b6e2beb2a2a9d615ade8", "fusion_lon": 0.0}, {"rental_uris": {"ios": "https://dc.lft.to/lastmile_qr_scan", "android": "https://dc.lft.to/lastmile_qr_scan"}, "type": "electric_scooter", "name": "32db9e82b7f5183bb4ead24567ea6c55", "is_reserved": 0, "lon": -77.04175483333333, "is_disabled": 0, "fusion_lat": 0.0, "lat": 38.91843033333333, "bike_id": "32db9e82b7f5183bb4ead24567ea6c55", "fusion_lon": 0.0}, {"rental_uris": {"ios": "https://dc.lft.to/lastmile_qr_scan", "android": "https://dc.lft.to/lastmile_qr_scan"}, "type": "electric_scooter", "name": "22d5c21ae2a0b7414744b80e49ba5f95", "is_reserved": 0, "lon": -77.0103765, "is_disabled": 0, "fusion_lat": 0.0, "lat": 38.911150166666665, "bike_id": "22d5c21ae2a0b7414744b80e49ba5f95", "fusion_lon": 0.0}, {"rental_uris": {"ios": "https://dc.lft.to/lastmile_qr_scan", "android": "https://dc.lft.to/lastmile_qr_scan"}, "type": "electric_scooter", "name": "bab6efa34dbcc00aa450e4a820b4c4a4", "is_reserved": 0, "lon": -77.01856416666666, "is_disabled": 0, "fusion_lat": 0.0, "lat": 38.95437883333334, "bike_id": "bab6efa34dbcc00aa450e4a820b4c4a4", "fusion_lon": 0.0}, {"rental_uris": {"ios": "https://dc.lft.to/lastmile_qr_scan", "android": "https://dc.lft.to/lastmile_qr_scan"}, "type": "electric_scooter", "name": "d62dd84859c50b3272158c57296b084d", "is_reserved": 0, "lon": -77.03831116666667, "is_disabled": 0, "fusion_lat": 0.0, "lat": 38.911181166666665, "bike_id": "d62dd84859c50b3272158c57296b084d", "fusion_lon": 0.0}, {"rental_uris": {"ios": "https://dc.lft.to/lastmile_qr_scan", "android": "https://dc.lft.to/lastmile_qr_scan"}, "type": "electric_scooter", "name": "439c02acb638e072b42c52e8c3181011", "is_reserved": 0, "lon": -77.00197166666666, "is_disabled": 0, "fusion_lat": 0.0, "lat": 38.892965333333336, "bike_id": "439c02acb638e072b42c52e8c3181011", "fusion_lon": 0.0}, {"rental_uris": {"ios": "https://dc.lft.to/lastmile_qr_scan", "android": "https://dc.lft.to/lastmile_qr_scan"}, "type": "electric_scooter", "name": "639c75d99404da5477a5b3a9093df8cc", "is_reserved": 0, "lon": -76.93431516666666, "is_disabled": 0, "fusion_lat": 0.0, "lat": 38.899225666666666, "bike_id": "639c75d99404da5477a5b3a9093df8cc", "fusion_lon": 0.0}, {"rental_uris": {"ios": "https://dc.lft.to/lastmile_qr_scan", "android": "https://dc.lft.to/lastmile_qr_scan"}, "type": "electric_scooter", "name": "8b50c532e0bc07936845f9a45af1ddfb", "is_reserved": 0, "lon": -76.99497266666667, "is_disabled": 0, "fusion_lat": 0.0, "lat": 38.86225566666667, "bike_id": "8b50c532e0bc07936845f9a45af1ddfb", "fusion_lon": 0.0}, {"rental_uris": {"ios": "https://dc.lft.to/lastmile_qr_scan", "android": "https://dc.lft.to/lastmile_qr_scan"}, "type": "electric_bike", "name": "b64a9cc042dec1a09d6b3cda4f6f52c6", "is_reserved": 0, "lon": -77.00764716666667, "is_disabled": 0, "fusion_lat": 0.0, "lat": 38.9978725, "bike_id": "b64a9cc042dec1a09d6b3cda4f6f52c6", "fusion_lon": 0.0}, {"rental_uris": {"ios": "https://dc.lft.to/lastmile_qr_scan", "android": "https://dc.lft.to/lastmile_qr_scan"}, "type": "electric_scooter", "name": "782d2cb700e18b3984bbe933f8482dfc", "is_reserved": 0, "lon": -77.04232716666667, "is_disabled": 0, "fusion_lat": 0.0, "lat": 38.90588433333333, "bike_id": "782d2cb700e18b3984bbe933f8482dfc", "fusion_lon": 0.0}, {"rental_uris": {"ios": "https://dc.lft.to/lastmile_qr_scan", "android": "https://dc.lft.to/lastmile_qr_scan"}, "type": "electric_scooter", "name": "6dd254673c67aca1a676c07599cbf941", "is_reserved": 0, "lon": -77.02311316666666, "is_disabled": 0, "fusion_lat": 0.0, "lat": 38.895439833333334, "bike_id": "6dd254673c67aca1a676c07599cbf941", "fusion_lon": 0.0}, {"rental_uris": {"ios": "https://dc.lft.to/lastmile_qr_scan", "android": "https://dc.lft.to/lastmile_qr_scan"}, "type": "electric_scooter", "name": "729b6362a3ef83bd98a600ede8fd9cd6", "is_reserved": 0, "lon": -77.01860666666667, "is_disabled": 0, "fusion_lat": 0.0, "lat": 38.89473616666667, "bike_id": "729b6362a3ef83bd98a600ede8fd9cd6", "fusion_lon": 0.0}, {"rental_uris": {"ios": "https://dc.lft.to/lastmile_qr_scan", "android": "https://dc.lft.to/lastmile_qr_scan"}, "type": "electric_scooter", "name": "8b45308062647cef4ef27732c92f9bcf", "is_reserved": 0, "lon": -77.0294865, "is_disabled": 0, "fusion_lat": 0.0, "lat": 38.90511383333333, "bike_id": "8b45308062647cef4ef27732c92f9bcf", "fusion_lon": 0.0}, {"rental_uris": {"ios": "https://dc.lft.to/lastmile_qr_scan", "android": "https://dc.lft.to/lastmile_qr_scan"}, "type": "electric_scooter", "name": "e68ebbeb78f6b37a1659d0b2f2938f1e", "is_reserved": 0, "lon": -77.06117916666666, "is_disabled": 0, "fusion_lat": 0.0, "lat": 38.90507933333333, "bike_id": "e68ebbeb78f6b37a1659d0b2f2938f1e", "fusion_lon": 0.0}, {"rental_uris": {"ios": "https://dc.lft.to/lastmile_qr_scan", "android": "https://dc.lft.to/lastmile_qr_scan"}, "type": "electric_scooter", "name": "80250e25ffd6951d897b8baceb469b83", "is_reserved": 0, "lon": -77.02227016666667, "is_disabled": 0, "fusion_lat": 0.0, "lat": 38.893606166666665, "bike_id": "80250e25ffd6951d897b8baceb469b83", "fusion_lon": 0.0}, {"rental_uris": {"ios": "https://dc.lft.to/lastmile_qr_scan", "android": "https://dc.lft.to/lastmile_qr_scan"}, "type": "electric_scooter", "name": "38779b301df5a5136fda128025be5608", "is_reserved": 0, "lon": -77.0209805, "is_disabled": 0, "fusion_lat": 0.0, "lat": 38.930206, "bike_id": "38779b301df5a5136fda128025be5608", "fusion_lon": 0.0}, {"rental_uris": {"ios": "https://dc.lft.to/lastmile_qr_scan", "android": "https://dc.lft.to/lastmile_qr_scan"}, "type": "electric_scooter", "name": "72396afe235c17c4bc0501cbe3675270", "is_reserved": 0, "lon": -77.0131095, "is_disabled": 0, "fusion_lat": 0.0, "lat": 38.90700233333333, "bike_id": "72396afe235c17c4bc0501cbe3675270", "fusion_lon": 0.0}, {"rental_uris": {"ios": "https://dc.lft.to/lastmile_qr_scan", "android": "https://dc.lft.to/lastmile_qr_scan"}, "type": "electric_scooter", "name": "31f63cf62463a61ed9ba49aa041f6b05", "is_reserved": 0, "lon": -77.04185383333333, "is_disabled": 0, "fusion_lat": 0.0, "lat": 38.920539833333336, "bike_id": "31f63cf62463a61ed9ba49aa041f6b05", "fusion_lon": 0.0}, {"rental_uris": {"ios": "https://dc.lft.to/lastmile_qr_scan", "android": "https://dc.lft.to/lastmile_qr_scan"}, "type": "electric_scooter", "name": "e982a71b476474b82a1be0bb21f23dce", "is_reserved": 0, "lon": -77.02442266666667, "is_disabled": 0, "fusion_lat": 0.0, "lat": 38.92045316666667, "bike_id": "e982a71b476474b82a1be0bb21f23dce", "fusion_lon": 0.0}, {"rental_uris": {"ios": "https://dc.lft.to/lastmile_qr_scan", "android": "https://dc.lft.to/lastmile_qr_scan"}, "type": "electric_scooter", "name": "5e17229a43612bb00a3865f628df470d", "is_reserved": 0, "lon": -76.999724, "is_disabled": 0, "fusion_lat": 0.0, "lat": 38.88662816666667, "bike_id": "5e17229a43612bb00a3865f628df470d", "fusion_lon": 0.0}, {"rental_uris": {"ios": "https://dc.lft.to/lastmile_qr_scan", "android": "https://dc.lft.to/lastmile_qr_scan"}, "type": "electric_scooter", "name": "0b288272d4050c93fa1c842a3ff37c1d", "is_reserved": 0, "lon": -77.0404895, "is_disabled": 0, "fusion_lat": 0.0, "lat": 38.92321183333333, "bike_id": "0b288272d4050c93fa1c842a3ff37c1d", "fusion_lon": 0.0}, {"rental_uris": {"ios": "https://dc.lft.to/lastmile_qr_scan", "android": "https://dc.lft.to/lastmile_qr_scan"}, "type": "electric_scooter", "name": "619675f79bf83bd0976db0e8aefa7a0a", "is_reserved": 0, "lon": -77.039519, "is_disabled": 0, "fusion_lat": 0.0, "lat": 38.9247595, "bike_id": "619675f79bf83bd0976db0e8aefa7a0a", "fusion_lon": 0.0}, {"rental_uris": {"ios": "https://dc.lft.to/lastmile_qr_scan", "android": "https://dc.lft.to/lastmile_qr_scan"}, "type": "electric_scooter", "name": "eafd33d2168cd118c274b7e38d955019", "is_reserved": 0, "lon": -77.05595566666666, "is_disabled": 0, "fusion_lat": 0.0, "lat": 38.937043833333334, "bike_id": "eafd33d2168cd118c274b7e38d955019", "fusion_lon": 0.0}, {"rental_uris": {"ios": "https://dc.lft.to/lastmile_qr_scan", "android": "https://dc.lft.to/lastmile_qr_scan"}, "type": "electric_scooter", "name": "6d43331fd77c65577541a6026c5a6840", "is_reserved": 0, "lon": -77.031825, "is_disabled": 0, "fusion_lat": 0.0, "lat": 38.89220916666667, "bike_id": "6d43331fd77c65577541a6026c5a6840", "fusion_lon": 0.0}, {"rental_uris": {"ios": "https://dc.lft.to/lastmile_qr_scan", "android": "https://dc.lft.to/lastmile_qr_scan"}, "type": "electric_scooter", "name": "891a3f58b97a3e0318fc600a60ed90de", "is_reserved": 0, "lon": -77.0267425, "is_disabled": 0, "fusion_lat": 0.0, "lat": 38.98436916666667, "bike_id": "891a3f58b97a3e0318fc600a60ed90de", "fusion_lon": 0.0}, {"rental_uris": {"ios": "https://dc.lft.to/lastmile_qr_scan", "android": "https://dc.lft.to/lastmile_qr_scan"}, "type": "electric_scooter", "name": "22fa03e40ed1779197883cecded5392c", "is_reserved": 0, "lon": -76.98370800000001, "is_disabled": 0, "fusion_lat": 0.0, "lat": 38.866684, "bike_id": "22fa03e40ed1779197883cecded5392c", "fusion_lon": 0.0}, {"rental_uris": {"ios": "https://dc.lft.to/lastmile_qr_scan", "android": "https://dc.lft.to/lastmile_qr_scan"}, "type": "electric_scooter", "name": "466901c9efb38326f0fd249879d60ca6", "is_reserved": 0, "lon": -77.02846433333333, "is_disabled": 0, "fusion_lat": 0.0, "lat": 38.8922805, "bike_id": "466901c9efb38326f0fd249879d60ca6", "fusion_lon": 0.0}, {"rental_uris": {"ios": "https://dc.lft.to/lastmile_qr_scan", "android": "https://dc.lft.to/lastmile_qr_scan"}, "type": "electric_scooter", "name": "39ec6786f4ab97cc11c80287477e9725", "is_reserved": 0, "lon": -77.023823, "is_disabled": 0, "fusion_lat": 0.0, "lat": 38.900440833333334, "bike_id": "39ec6786f4ab97cc11c80287477e9725", "fusion_lon": 0.0}, {"rental_uris": {"ios": "https://dc.lft.to/lastmile_qr_scan", "android": "https://dc.lft.to/lastmile_qr_scan"}, "type": "electric_scooter", "name": "a12e36bf95e7907b63630d482d88cbaa", "is_reserved": 0, "lon": -77.03824666666667, "is_disabled": 0, "fusion_lat": 0.0, "lat": 38.91257783333333, "bike_id": "a12e36bf95e7907b63630d482d88cbaa", "fusion_lon": 0.0}, {"rental_uris": {"ios": "https://dc.lft.to/lastmile_qr_scan", "android": "https://dc.lft.to/lastmile_qr_scan"}, "type": "electric_scooter", "name": "2017bbe6e3ed8d53cfa400759b4b7c5a", "is_reserved": 0, "lon": -77.0307715, "is_disabled": 0, "fusion_lat": 0.0, "lat": 38.935311, "bike_id": "2017bbe6e3ed8d53cfa400759b4b7c5a", "fusion_lon": 0.0}, {"rental_uris": {"ios": "https://dc.lft.to/lastmile_qr_scan", "android": "https://dc.lft.to/lastmile_qr_scan"}, "type": "electric_scooter", "name": "4418213e733e6e4220445e2146c9d918", "is_reserved": 0, "lon": -77.04368983333333, "is_disabled": 0, "fusion_lat": 0.0, "lat": 38.892301333333336, "bike_id": "4418213e733e6e4220445e2146c9d918", "fusion_lon": 0.0}, {"rental_uris": {"ios": "https://dc.lft.to/lastmile_qr_scan", "android": "https://dc.lft.to/lastmile_qr_scan"}, "type": "electric_scooter", "name": "a874d67c6a84b47ed1a116c844b4b8a6", "is_reserved": 0, "lon": -77.02579, "is_disabled": 0, "fusion_lat": 0.0, "lat": 38.925313333333335, "bike_id": "a874d67c6a84b47ed1a116c844b4b8a6", "fusion_lon": 0.0}, {"rental_uris": {"ios": "https://dc.lft.to/lastmile_qr_scan", "android": "https://dc.lft.to/lastmile_qr_scan"}, "type": "electric_scooter", "name": "37df6bab9b0f124c6c1e82b53e8540e0", "is_reserved": 0, "lon": -77.00186133333334, "is_disabled": 0, "fusion_lat": 0.0, "lat": 38.90040283333333, "bike_id": "37df6bab9b0f124c6c1e82b53e8540e0", "fusion_lon": 0.0}, {"rental_uris": {"ios": "https://dc.lft.to/lastmile_qr_scan", "android": "https://dc.lft.to/lastmile_qr_scan"}, "type": "electric_scooter", "name": "8a91ff7430cd76d14558de1a7c5e908b", "is_reserved": 0, "lon": -77.0456735, "is_disabled": 0, "fusion_lat": 0.0, "lat": 38.91328466666667, "bike_id": "8a91ff7430cd76d14558de1a7c5e908b", "fusion_lon": 0.0}, {"rental_uris": {"ios": "https://dc.lft.to/lastmile_qr_scan", "android": "https://dc.lft.to/lastmile_qr_scan"},