{"data": {"bikes": [{"rental_uris": {"ios": "https://dc.lft.to/lastmile_qr_scan", "android": "https://dc.lft.to/lastmile_qr_scan"}, "lon": -77.0292975, "type": "electric_scooter", "fusion_lat": 0.0, "lat": 38.90377433333333, "name": "ce198c972e9f6663c008ee3da89bc488", "fusion_lon": 0.0, "bike_id": "ce198c972e9f6663c008ee3da89bc488", "is_disabled": 0, "is_reserved": 0}, {"rental_uris": {"ios": "https://dc.lft.to/lastmile_qr_scan", "android": "https://dc.lft.to/lastmile_qr_scan"}, "lon": -77.0416865, "type": "electric_scooter", "fusion_lat": 0.0, "lat": 38.9186545, "name": "7b356486ccddd1f390e1b1437e07f3ef", "fusion_lon": 0.0, "bike_id": "7b356486ccddd1f390e1b1437e07f3ef", "is_disabled": 0, "is_reserved": 0}, {"rental_uris": {"ios": "https://dc.lft.to/lastmile_qr_scan", "android": "https://dc.lft.to/lastmile_qr_scan"}, "lon": -77.0471185, "type": "electric_scooter", "fusion_lat": 0.0, "lat": 38.92108266666666, "name": "52c88f8a5798d5e1ef3838219102a0ca", "fusion_lon": 0.0, "bike_id": "52c88f8a5798d5e1ef3838219102a0ca", "is_disabled": 0, "is_reserved": 0}, {"rental_uris": {"ios": "https://dc.lft.to/lastmile_qr_scan", "android": "https://dc.lft.to/lastmile_qr_scan"}, "lon": -77.055961, "type": "electric_scooter", "fusion_lat": 0.0, "lat": 38.93706566666667, "name": "5accf2751fc2b62b3a4a44479e365538", "fusion_lon": 0.0, "bike_id": "5accf2751fc2b62b3a4a44479e365538", "is_disabled": 0, "is_reserved": 0}, {"rental_uris": {"ios": "https://dc.lft.to/lastmile_qr_scan", "android": "https://dc.lft.to/lastmile_qr_scan"}, "lon": -77.02888116666666, "type": "electric_scooter", "fusion_lat": 0.0, "lat": 38.90482683333333, "name": "c6115f43395dafafa873e711b1a52a30", "fusion_lon": 0.0, "bike_id": "c6115f43395dafafa873e711b1a52a30", "is_disabled": 0, "is_reserved": 0}, {"rental_uris": {"ios": "https://dc.lft.to/lastmile_qr_scan", "android": "https://dc.lft.to/lastmile_qr_scan"}, "lon": -77.1309895, "type": "electric_bike", "fusion_lat": 0.0, "lat": 38.86167066666667, "name": "1e9bccdfcea9cbcc9c9681f3e077013b", "fusion_lon": 0.0, "bike_id": "1e9bccdfcea9cbcc9c9681f3e077013b", "is_disabled": 0, "is_reserved": 0}, {"rental_uris": {"ios": "https://dc.lft.to/lastmile_qr_scan", "android": "https://dc.lft.to/lastmile_qr_scan"}, "lon": -77.0323725, "type": "electric_scooter", "fusion_lat": 0.0, "lat": 38.896358166666666, "name": "b2114792e390b6cd4cd2995df7d698ec", "fusion_lon": 0.0, "bike_id": "b2114792e390b6cd4cd2995df7d698ec", "is_disabled": 0, "is_reserved": 0}, {"rental_uris": {"ios": "https://dc.lft.to/lastmile_qr_scan", "android": "https://dc.lft.to/lastmile_qr_scan"}, "lon": -77.02153116666666, "type": "electric_scooter", "fusion_lat": 0.0, "lat": 38.909772, "name": "3a4a12d224993a4639b08c267bc123d6", "fusion_lon": 0.0, "bike_id": "3a4a12d224993a4639b08c267bc123d6", "is_disabled": 0, "is_reserved": 0}, {"rental_uris": {"ios": "https://dc.lft.to/lastmile_qr_scan", "android": "https://dc.lft.to/lastmile_qr_scan"}, "lon": -77.02124616666667, "type": "electric_bike", "fusion_lat": 0.0, "lat": 38.9565445, "name": "2dfe1845182119a825a23b6e0e01b5e4", "fusion_lon": 0.0, "bike_id": "2dfe1845182119a825a23b6e0e01b5e4", "is_disabled": 0, "is_reserved": 0}, {"rental_uris": {"ios": "https://dc.lft.to/lastmile_qr_scan", "android": "https://dc.lft.to/lastmile_qr_scan"}, "lon": -76.9617825, "type": "electric_bike", "fusion_lat": 0.0, "lat": 38.91861683333333, "name": "7d93ceb51012e86ef6d3aabf23ac98c0", "fusion_lon": 0.0, "bike_id": "7d93ceb51012e86ef6d3aabf23ac98c0", "is_disabled": 0, "is_reserved": 0}, {"rental_uris": {"ios": "https://dc.lft.to/lastmile_qr_scan", "android": "https://dc.lft.to/lastmile_qr_scan"}, "lon": -77.038174, "type": "electric_scooter", "fusion_lat": 0.0, "lat": 38.93604933333334, "name": "76f941ac5cc7f806197853df873fc2a8", "fusion_lon": 0.0, "bike_id": "76f941ac5cc7f806197853df873fc2a8", "is_disabled": 0, "is_reserved": 0}, {"rental_uris": {"ios": "https://dc.lft.to/lastmile_qr_scan", "android": "https://dc.lft.to/lastmile_qr_scan"}, "lon": -77.03962633333333, "type": "electric_scooter", "fusion_lat": 0.0, "lat": 38.902811666666665, "name": "04ce495c711fde877236ce6bb83942d6", "fusion_lon": 0.0, "bike_id": "04ce495c711fde877236ce6bb83942d6", "is_disabled": 0, "is_reserved": 0}, {"rental_uris": {"ios": "https://dc.lft.to/lastmile_qr_scan", "android": "https://dc.lft.to/lastmile_qr_scan"}, "lon": -77.03459516666666, "type": "electric_scooter", "fusion_lat": 0.0, "lat": 38.92150433333333, "name": "d3a0a68db2a8127ae0e22355bb28bb6a", "fusion_lon": 0.0, "bike_id": "d3a0a68db2a8127ae0e22355bb28bb6a", "is_disabled": 0, "is_reserved": 0}, {"rental_uris": {"ios": "https://dc.lft.to/lastmile_qr_scan", "android": "https://dc.lft.to/lastmile_qr_scan"}, "lon": -77.09162783333333, "type": "electric_bike", "fusion_lat": 0.0, "lat": 38.96762866666667, "name": "105b535afe3d6b3b7a2b6c1df29c6918", "fusion_lon": 0.0, "bike_id": "105b535afe3d6b3b7a2b6c1df29c6918", "is_disabled": 0, "is_reserved": 0}, {"rental_uris": {"ios": "https://dc.lft.to/lastmile_qr_scan", "android": "https://dc.lft.to/lastmile_qr_scan"}, "lon": -77.02318166666667, "type": "electric_scooter", "fusion_lat": 0.0, "lat": 38.883337166666664, "name": "a80b51e1dac3eafcfd64efc6a7fd86b4", "fusion_lon": 0.0, "bike_id": "a80b51e1dac3eafcfd64efc6a7fd86b4", "is_disabled": 0, "is_reserved": 0}, {"rental_uris": {"ios": "https://dc.lft.to/lastmile_qr_scan", "android": "https://dc.lft.to/lastmile_qr_scan"}, "lon": -77.04620683333333, "type": "electric_scooter", "fusion_lat": 0.0, "lat": 38.913973666666664, "name": "bb92c079edbaec26c8e86e14e5327d76", "fusion_lon": 0.0, "bike_id": "bb92c079edbaec26c8e86e14e5327d76", "is_disabled": 0, "is_reserved": 0}, {"rental_uris": {"ios": "https://dc.lft.to/lastmile_qr_scan", "android": "https://dc.lft.to/lastmile_qr_scan"}, "lon": -77.03191716666667, "type": "electric_scooter", "fusion_lat": 0.0, "lat": 38.90406333333333, "name": "a1f4381192d7841b1eb5e924e6037c84", "fusion_lon": 0.0, "bike_id": "a1f4381192d7841b1eb5e924e6037c84", "is_disabled": 0, "is_reserved": 0}, {"rental_uris": {"ios": "https://dc.lft.to/lastmile_qr_scan", "android": "https://dc.lft.to/lastmile_qr_scan"}, "lon": -77.02492433333333, "type": "electric_scooter", "fusion_lat": 0.0, "lat": 38.936502833333336, "name": "3d3b2c49711373e8d38e3fc2177c47b6", "fusion_lon": 0.0, "bike_id": "3d3b2c49711373e8d38e3fc2177c47b6", "is_disabled": 0, "is_reserved": 0}, {"rental_uris": {"ios": "https://dc.lft.to/lastmile_qr_scan", "android": "https://dc.lft.to/lastmile_qr_scan"}, "lon": -77.02613216666667, "type": "electric_scooter", "fusion_lat": 0.0, "lat": 38.920022, "name": "2eb0959285eb3d1542a8115e8fec05b2", "fusion_lon": 0.0, "bike_id": "2eb0959285eb3d1542a8115e8fec05b2", "is_disabled": 0, "is_reserved": 0}, {"rental_uris": {"ios": "https://dc.lft.to/lastmile_qr_scan", "android": "https://dc.lft.to/lastmile_qr_scan"}, "lon": -77.033413, "type": "electric_scooter", "fusion_lat": 0.0, "lat": 38.898828, "name": "ee0045ed4a860ef53789278c7fb72e0c", "fusion_lon": 0.0, "bike_id": "ee0045ed4a860ef53789278c7fb72e0c", "is_disabled": 0, "is_reserved": 0}, {"rental_uris": {"ios": "https://dc.lft.to/lastmile_qr_scan", "android": "https://dc.lft.to/lastmile_qr_scan"}, "lon": -77.0229345, "type": "electric_scooter", "fusion_lat": 0.0, "lat": 38.90870816666666, "name": "6162612596798c8b58ed57926b22c38f", "fusion_lon": 0.0, "bike_id": "6162612596798c8b58ed57926b22c38f", "is_disabled": 0, "is_reserved": 0}, {"rental_uris": {"ios": "https://dc.lft.to/lastmile_qr_scan", "android": "https://dc.lft.to/lastmile_qr_scan"}, "lon": -77.04887016666666, "type": "electric_scooter", "fusion_lat": 0.0, "lat": 38.912492666666665, "name": "5a24ce4e0ad212d95968afd6ca472d06", "fusion_lon": 0.0, "bike_id": "5a24ce4e0ad212d95968afd6ca472d06", "is_disabled": 0, "is_reserved": 0}, {"rental_uris": {"ios": "https://dc.lft.to/lastmile_qr_scan", "android": "https://dc.lft.to/lastmile_qr_scan"}, "lon": -77.03587966666667, "type": "electric_scooter", "fusion_lat": 0.0, "lat": 38.90249933333333, "name": "2d7c68fca8b398d4c6b3887d5f3456a6", "fusion_lon": 0.0, "bike_id": "2d7c68fca8b398d4c6b3887d5f3456a6", "is_disabled": 0, "is_reserved": 0}, {"rental_uris": {"ios": "https://dc.lft.to/lastmile_qr_scan", "android": "https://dc.lft.to/lastmile_qr_scan"}, "lon": -76.90440283333334, "type": "electric_bike", "fusion_lat": 0.0, "lat": 38.897812, "name": "d1cfa4f60e5d5dc1c4eac1ad933818fa", "fusion_lon": 0.0, "bike_id": "d1cfa4f60e5d5dc1c4eac1ad933818fa", "is_disabled": 0, "is_reserved": 0}, {"rental_uris": {"ios": "https://dc.lft.to/lastmile_qr_scan", "android": "https://dc.lft.to/lastmile_qr_scan"}, "lon": -77.02470316666667, "type": "electric_scooter", "fusion_lat": 0.0, "lat": 38.93305483333333, "name": "0aff47d25d9f7fd86e11b62f8b69d9ec", "fusion_lon": 0.0, "bike_id": "0aff47d25d9f7fd86e11b62f8b69d9ec", "is_disabled": 0, "is_reserved": 0}, {"rental_uris": {"ios": "https://dc.lft.to/lastmile_qr_scan", "android": "https://dc.lft.to/lastmile_qr_scan"}, "lon": -77.03081116666667, "type": "electric_scooter", "fusion_lat": 0.0, "lat": 38.91004783333333, "name": "a3d17f540c10cb743a4e5a496190902c", "fusion_lon": 0.0, "bike_id": "a3d17f540c10cb743a4e5a496190902c", "is_disabled": 0, "is_reserved": 0}, {"rental_uris": {"ios": "https://dc.lft.to/lastmile_qr_scan", "android": "https://dc.lft.to/lastmile_qr_scan"}, "lon": -77.01203366666667, "type": "electric_scooter", "fusion_lat": 0.0, "lat": 38.91529583333333, "name": "1fe3c21b43c7a2b02362f0ad525eeb58", "fusion_lon": 0.0, "bike_id": "1fe3c21b43c7a2b02362f0ad525eeb58", "is_disabled": 0, "is_reserved": 0}, {"rental_uris": {"ios": "https://dc.lft.to/lastmile_qr_scan", "android": "https://dc.lft.to/lastmile_qr_scan"}, "lon": -77.0058125, "type": "electric_scooter", "fusion_lat": 0.0, "lat": 38.88605716666667, "name": "81f30c1fd3c63a99bdcacf01f475c643", "fusion_lon": 0.0, "bike_id": "81f30c1fd3c63a99bdcacf01f475c643", "is_disabled": 0, "is_reserved": 0}, {"rental_uris": {"ios": "https://dc.lft.to/lastmile_qr_scan", "android": "https://dc.lft.to/lastmile_qr_scan"}, "lon": -77.04148283333333, "type": "electric_scooter", "fusion_lat": 0.0, "lat": 38.9055645, "name": "fbaef043492913cecdc05b9c61002afd", "fusion_lon": 0.0, "bike_id": "fbaef043492913cecdc05b9c61002afd", "is_disabled": 0, "is_reserved": 0}, {"rental_uris": {"ios": "https://dc.lft.to/lastmile_qr_scan", "android": "https://dc.lft.to/lastmile_qr_scan"}, "lon": -77.0956405, "type": "electric_bike", "fusion_lat": 0.0, "lat": 38.917088166666666, "name": "def269501652bf48a9c16db3125fdfff", "fusion_lon": 0.0, "bike_id": "def269501652bf48a9c16db3125fdfff", "is_disabled": 0, "is_reserved": 0}, {"rental_uris": {"ios": "https://dc.lft.to/lastmile_qr_scan", "android": "https://dc.lft.to/lastmile_qr_scan"}, "lon": -77.02841966666666, "type": "electric_scooter", "fusion_lat": 0.0, "lat": 38.92481266666667, "name": "86ff6e526cb7a944735e2d9a5d675f65", "fusion_lon": 0.0, "bike_id": "86ff6e526cb7a944735e2d9a5d675f65", "is_disabled": 0, "is_reserved": 0}, {"rental_uris": {"ios": "https://dc.lft.to/lastmile_qr_scan", "android": "https://dc.lft.to/lastmile_qr_scan"}, "lon": -77.024704, "type": "electric_scooter", "fusion_lat": 0.0, "lat": 38.9026465, "name": "5f6e51688a37cbd29cf391c8dd38f970", "fusion_lon": 0.0, "bike_id": "5f6e51688a37cbd29cf391c8dd38f970", "is_disabled": 0, "is_reserved": 0}, {"rental_uris": {"ios": "https://dc.lft.to/lastmile_qr_scan", "android": "https://dc.lft.to/lastmile_qr_scan"}, "lon": -77.03671483333333, "type": "electric_scooter", "fusion_lat": 0.0, "lat": 38.918292, "name": "f9ce236b38f9dd1a5772ac932a600e3e", "fusion_lon": 0.0, "bike_id": "f9ce236b38f9dd1a5772ac932a600e3e", "is_disabled": 0, "is_reserved": 0}, {"rental_uris": {"ios": "https://dc.lft.to/lastmile_qr_scan", "android": "https://dc.lft.to/lastmile_qr_scan"}, "lon": -77.06531233333334, "type": "electric_scooter", "fusion_lat": 0.0, "lat": 38.9348205, "name": "eca75d22ef6d0cc83e31a03e0e0d73c4", "fusion_lon": 0.0, "bike_id": "eca75d22ef6d0cc83e31a03e0e0d73c4", "is_disabled": 0, "is_reserved": 0}, {"rental_uris": {"ios": "https://dc.lft.to/lastmile_qr_scan", "android": "https://dc.lft.to/lastmile_qr_scan"}, "lon": -77.02662466666666, "type": "electric_scooter", "fusion_lat": 0.0, "lat": 38.89224133333333, "name": "12977e4a0bd7982c4b4fdfd26f312ba9", "fusion_lon": 0.0, "bike_id": "12977e4a0bd7982c4b4fdfd26f312ba9", "is_disabled": 0, "is_reserved": 0}, {"rental_uris": {"ios": "https://dc.lft.to/lastmile_qr_scan", "android": "https://dc.lft.to/lastmile_qr_scan"}, "lon": -77.04817783333333, "type": "electric_scooter", "fusion_lat": 0.0, "lat": 38.91337133333333, "name": "980dc03a1e4ffe9d2efbf8dbd30fa4c3", "fusion_lon": 0.0, "bike_id": "980dc03a1e4ffe9d2efbf8dbd30fa4c3", "is_disabled": 0, "is_reserved": 0}, {"rental_uris": {"ios": "https://dc.lft.to/lastmile_qr_scan", "android": "https://dc.lft.to/lastmile_qr_scan"}, "lon": -76.90818183333333, "type": "electric_bike", "fusion_lat": 0.0, "lat": 38.994611666666664, "name": "398f465166444bb963f3ca7d4c1d397a", "fusion_lon": 0.0, "bike_id": "398f465166444bb963f3ca7d4c1d397a", "is_disabled": 0, "is_reserved": 0}, {"rental_uris": {"ios": "https://dc.lft.to/lastmile_qr_scan", "android": "https://dc.lft.to/lastmile_qr_scan"}, "lon": -77.05713683333333, "type": "electric_scooter", "fusion_lat": 0.0, "lat": 38.905444833333334, "name": "395d5e988c4b594db3881b6d73c1838c", "fusion_lon": 0.0, "bike_id": "395d5e988c4b594db3881b6d73c1838c", "is_disabled": 0, "is_reserved": 0}, {"rental_uris": {"ios": "https://dc.lft.to/lastmile_qr_scan", "android": "https://dc.lft.to/lastmile_qr_scan"}, "lon": -77.02660183333333, "type": "electric_scooter", "fusion_lat": 0.0, "lat": 38.892321833333334, "name": "4ea764630f77359e233bd321e1f4cb37", "fusion_lon": 0.0, "bike_id": "4ea764630f77359e233bd321e1f4cb37", "is_disabled": 0, "is_reserved": 0}, {"rental_uris": {"ios": "https://dc.lft.to/lastmile_qr_scan", "android": "https://dc.lft.to/lastmile_qr_scan"}, "lon": -77.05348416666666, "type": "electric_scooter", "fusion_lat": 0.0, "lat": 38.927208666666665, "name": "2e0d19b73e442d2ae54613ba03cbff48", "fusion_lon": 0.0, "bike_id": "2e0d19b73e442d2ae54613ba03cbff48", "is_disabled": 0, "is_reserved": 0}, {"rental_uris": {"ios": "https://dc.lft.to/lastmile_qr_scan", "android": "https://dc.lft.to/lastmile_qr_scan"}, "lon": -76.9841585, "type": "electric_scooter", "fusion_lat": 0.0, "lat": 38.85966233333333, "name": "46dab651cf2b6f2fae7a00dc23713cba", "fusion_lon": 0.0, "bike_id": "46dab651cf2b6f2fae7a00dc23713cba", "is_disabled": 0, "is_reserved": 0}, {"rental_uris": {"ios": "https://dc.lft.to/lastmile_qr_scan", "android": "https://dc.lft.to/lastmile_qr_scan"}, "lon": -77.0488495, "type": "electric_scooter", "fusion_lat": 0.0, "lat": 38.903594166666664, "name": "720ebada9a3c0e66f70fc8694ff41dec", "fusion_lon": 0.0, "bike_id": "720ebada9a3c0e66f70fc8694ff41dec", "is_disabled": 0, "is_reserved": 0}, {"rental_uris": {"ios": "https://dc.lft.to/lastmile_qr_scan", "android": "https://dc.lft.to/lastmile_qr_scan"}, "lon": -77.053426, "type": "electric_scooter", "fusion_lat": 0.0, "lat": 38.90239366666667, "name": "4c4ea09245142b3e0317589ff4ba4c12", "fusion_lon": 0.0, "bike_id": "4c4ea09245142b3e0317589ff4ba4c12", "is_disabled": 0, "is_reserved": 0}, {"rental_uris": {"ios": "https://dc.lft.to/lastmile_qr_scan", "android": "https://dc.lft.to/lastmile_qr_scan"}, "lon": -77.03086983333333, "type": "electric_scooter", "fusion_lat": 0.0, "lat": 38.900284166666665, "name": "848d5ddb2ab533e9be5bc9f0b7f22d42", "fusion_lon": 0.0, "bike_id": "848d5ddb2ab533e9be5bc9f0b7f22d42", "is_disabled": 0, "is_reserved": 0}, {"rental_uris": {"ios": "https://dc.lft.to/lastmile_qr_scan", "android": "https://dc.lft.to/lastmile_qr_scan"}, "lon": -77.01512366666667, "type": "electric_scooter", "fusion_lat": 0.0, "lat": 38.88752616666667, "name": "7aa7fe7456d2ec3727bc9261e9ba39c2", "fusion_lon": 0.0, "bike_id": "7aa7fe7456d2ec3727bc9261e9ba39c2", "is_disabled": 0, "is_reserved": 0}, {"rental_uris": {"ios": "https://dc.lft.to/lastmile_qr_scan", "android": "https://dc.lft.to/lastmile_qr_scan"}, "lon": -77.03223583333333, "type": "electric_scooter", "fusion_lat": 0.0, "lat": 38.91823383333333, "name": "b6b1e4c09d0dda8ef1b2ec55862812c1", "fusion_lon": 0.0, "bike_id": "b6b1e4c09d0dda8ef1b2ec55862812c1", "is_disabled": 0, "is_reserved": 0}, {"rental_uris": {"ios": "https://dc.lft.to/lastmile_qr_scan", "android": "https://dc.lft.to/lastmile_qr_scan"}, "lon": -77.105046, "type": "electric_bike", "fusion_lat": 0.0, "lat": 38.928538333333336, "name": "4b089a8bac873ac60d83a65ba03ba876", "fusion_lon": 0.0, "bike_id": "4b089a8bac873ac60d83a65ba03ba876", "is_disabled": 0, "is_reserved": 0}, {"rental_uris": {"ios": "https://dc.lft.to/lastmile_qr_scan", "android": "https://dc.lft.to/lastmile_qr_scan"}, "lon": -77.002829, "type": "electric_scooter", "fusion_lat": 0.0, "lat": 38.8975015, "name": "673310e125280af4635a6b58a369a738", "fusion_lon": 0.0, "bike_id": "673310e125280af4635a6b58a369a738", "is_disabled": 0, "is_reserved": 0}, {"rental_uris": {"ios": "https://dc.lft.to/lastmile_qr_scan", "android": "https://dc.lft.to/lastmile_qr_scan"}, "lon": -77.02954533333333, "type": "electric_scooter", "fusion_lat": 0.0, "lat": 38.91594, "name": "1897fcb33aa2d8cc1770239747f466e9", "fusion_lon": 0.0, "bike_id": "1897fcb33aa2d8cc1770239747f466e9", "is_disabled": 0, "is_reserved": 0}, {"rental_uris": {"ios": "https://dc.lft.to/lastmile_qr_scan", "android": "https://dc.lft.to/lastmile_qr_scan"}, "lon": -77.05144916666667, "type": "electric_scooter", "fusion_lat": 0.0, "lat": 38.905536166666664, "name": "ca7d361a6e7935b749084525ddc9b632", "fusion_lon": 0.0, "bike_id": "ca7d361a6e7935b749084525ddc9b632", "is_disabled": 0, "is_reserved": 0}, {"rental_uris": {"ios": "https://dc.lft.to/lastmile_qr_scan", "android": "https://dc.lft.to/lastmile_qr_scan"}, "lon": -77.08951133333333, "type": "electric_bike", "fusion_lat": 0.0, "lat": 38.84115116666667, "name": "4e34ba7e8aa139f1a604c513a9ccdf8f", "fusion_lon": 0.0, "bike_id": "4e34ba7e8aa139f1a604c513a9ccdf8f", "is_disabled": 0, "is_reserved": 0}, {"rental_uris": {"ios": "https://dc.lft.to/lastmile_qr_scan", "android": "https://dc.lft.to/lastmile_qr_scan"}, "lon": -77.02888383333334, "type": "electric_scooter", "fusion_lat": 0.0, "lat": 38.917120833333335, "name": "e28003e45d50c0690b0c617bf8412cb1", "fusion_lon": 0.0, "bike_id": "e28003e45d50c0690b0c617bf8412cb1", "is_disabled": 0, "is_reserved": 0}, {"rental_uris": {"ios": "https://dc.lft.to/lastmile_qr_scan", "android": "https://dc.lft.to/lastmile_qr_scan"}, "lon": -77.0177715, "type": "electric_scooter", "fusion_lat": 0.0, "lat": 38.904008166666664, "name": "11a14c84eee6c4d91f02105173e386f8", "fusion_lon": 0.0, "bike_id": "11a14c84eee6c4d91f02105173e386f8", "is_disabled": 0, "is_reserved": 0}, {"rental_uris": {"ios": "https://dc.lft.to/lastmile_qr_scan", "android": "https://dc.lft.to/lastmile_qr_scan"}, "lon": -77.00138633333333, "type": "electric_scooter", "fusion_lat": 0.0, "lat": 38.904126166666664, "name": "1d7928eba034a043e42b73b7ffddddaa", "fusion_lon": 0.0, "bike_id": "1d7928eba034a043e42b73b7ffddddaa", "is_disabled": 0, "is_reserved": 0}, {"rental_uris": {"ios": "https://dc.lft.to/lastmile_qr_scan", "android": "https://dc.lft.to/lastmile_qr_scan"}, "lon": -77.02651466666667, "type": "electric_scooter", "fusion_lat": 0.0, "lat": 38.921885333333336, "name": "2b11259dc321c09a1d4df21da03d59d9", "fusion_lon": 0.0, "bike_id": "2b11259dc321c09a1d4df21da03d59d9", "is_disabled": 0, "is_reserved": 0}, {"rental_uris": {"ios": "https://dc.lft.to/lastmile_qr_scan", "android": "https://dc.lft.to/lastmile_qr_scan"}, "lon": -76.97325816666667, "type": "electric_scooter", "fusion_lat": 0.0, "lat": 38.9048365, "name": "0dd17334e13c80996f2fa9f3436d888d", "fusion_lon": 0.0, "bike_id": "0dd17334e13c80996f2fa9f3436d888d", "is_disabled": 0, "is_reserved": 0}, {"rental_uris": {"ios": "https://dc.lft.to/lastmile_qr_scan", "android": "https://dc.lft.to/lastmile_qr_scan"}, "lon": -77.048498, "type": "electric_scooter", "fusion_lat": 0.0, "lat": 38.905398166666664, "name": "ee8bb3cb0d2123be218ec103ccbe0059", "fusion_lon": 0.0, "bike_id": "ee8bb3cb0d2123be218ec103ccbe0059", "is_disabled": 0, "is_reserved": 0}, {"rental_uris": {"ios": "https://dc.lft.to/lastmile_qr_scan", "android": "https://dc.lft.to/lastmile_qr_scan"}, "lon": -77.011177, "type": "electric_bike", "fusion_lat": 0.0, "lat": 38.96308833333333, "name": "9f2b90932c8cdf92720f75d1cbda3449", "fusion_lon": 0.0, "bike_id": "9f2b90932c8cdf92720f75d1cbda3449", "is_disabled": 0, "is_reserved": 0}, {"rental_uris": {"ios": "https://dc.lft.to/lastmile_qr_scan", "android": "https://dc.lft.to/lastmile_qr_scan"}, "lon": -77.04008516666667, "type": "electric_scooter", "fusion_lat": 0.0, "lat": 38.918216666666666, "name": "a006acfffb8a9baf28fa15cefee2f2db", "fusion_lon": 0.0, "bike_id": "a006acfffb8a9baf28fa15cefee2f2db", "is_disabled": 0, "is_reserved": 0}, {"rental_uris": {"ios": "https://dc.lft.to/lastmile_qr_scan", "android": "https://dc.lft.to/lastmile_qr_scan"}, "lon": -77.108987, "type": "electric_bike", "fusion_lat": 0.0, "lat": 38.83042916666667, "name": "3d8bd0281a213deea1ac6c7ef1f09da1", "fusion_lon": 0.0, "bike_id": "3d8bd0281a213deea1ac6c7ef1f09da1", "is_disabled": 0, "is_reserved": 0}, {"rental_uris": {"ios": "https://dc.lft.to/lastmile_qr_scan", "android": "https://dc.lft.to/lastmile_qr_scan"}, "lon": -76.994909, "type": "electric_scooter", "fusion_lat": 0.0, "lat": 38.88339666666667, "name": "045cb5855253b0098c6e5c3276e82dd3", "fusion_lon": 0.0, "bike_id": "045cb5855253b0098c6e5c3276e82dd3", "is_disabled": 0, "is_reserved": 0}, {"rental_uris": {"ios": "https://dc.lft.to/lastmile_qr_scan", "android": "https://dc.lft.to/lastmile_qr_scan"}, "lon": -76.99142883333333, "type": "electric_scooter", "fusion_lat": 0.0, "lat": 38.893544166666665, "name": "24869cc8c6c393918a7a739567bfc36f", "fusion_lon": 0.0, "bike_id": "24869cc8c6c393918a7a739567bfc36f", "is_disabled": 0, "is_reserved": 0}, {"rental_uris": {"ios": "https://dc.lft.to/lastmile_qr_scan", "android": "https://dc.lft.to/lastmile_qr_scan"}, "lon": -77.03397566666666, "type": "electric_scooter", "fusion_lat": 0.0, "lat": 38.90818316666667, "name": "e237f881094bc874469ad856f99d4df0", "fusion_lon": 0.0, "bike_id": "e237f881094bc874469ad856f99d4df0", "is_disabled": 0, "is_reserved": 0}, {"rental_uris": {"ios": "https://dc.lft.to/lastmile_qr_scan", "android": "https://dc.lft.to/lastmile_qr_scan"}, "lon": -76.996187, "type": "electric_scooter", "fusion_lat": 0.0, "lat": 38.8855905, "name": "e6e1b28387d1509e6756edce19b5b493", "fusion_lon": 0.0, "bike_id": "e6e1b28387d1509e6756edce19b5b493", "is_disabled": 0, "is_reserved": 0}, {"rental_uris": {"ios": "https://dc.lft.to/lastmile_qr_scan", "android": "https://dc.lft.to/lastmile_qr_scan"}, "lon": -77.03214566666666, "type": "electric_scooter", "fusion_lat": 0.0, "lat": 38.9624645, "name": "f9aec502ff983b37ec861c18d48671e5", "fusion_lon": 0.0, "bike_id": "f9aec502ff983b37ec861c18d48671e5", "is_disabled": 0, "is_reserved": 0}, {"rental_uris": {"ios": "https://dc.lft.to/lastmile_qr_scan", "android": "https://dc.lft.to/lastmile_qr_scan"}, "lon": -77.03979616666666, "type": "electric_scooter", "fusion_lat": 0.0, "lat": 38.9245705, "name": "5e499026f7c75e1da81c82b2809b6b1d", "fusion_lon": 0.0, "bike_id": "5e499026f7c75e1da81c82b2809b6b1d", "is_disabled": 0, "is_reserved": 0}, {"rental_uris": {"ios": "https://dc.lft.to/lastmile_qr_scan", "android": "https://dc.lft.to/lastmile_qr_scan"}, "lon": -77.0490145, "type": "electric_bike", "fusion_lat": 0.0, "lat": 38.874946, "name": "18569f713687099763cbea3c8c2bf79a", "fusion_lon": 0.0, "bike_id": "18569f713687099763cbea3c8c2bf79a", "is_disabled": 0, "is_reserved": 0}, {"rental_uris": {"ios": "https://dc.lft.to/lastmile_qr_scan", "android": "https://dc.lft.to/lastmile_qr_scan"}, "lon": -77.06285616666666, "type": "electric_scooter", "fusion_lat": 0.0, "lat": 38.906948, "name": "1a95ae0e27d453db436c9bc34b5829e9", "fusion_lon": 0.0, "bike_id": "1a95ae0e27d453db436c9bc34b5829e9", "is_disabled": 0, "is_reserved": 0}, {"rental_uris": {"ios": "https://dc.lft.to/lastmile_qr_scan", "android": "https://dc.lft.to/lastmile_qr_scan"}, "lon": -77.1003235, "type": "electric_bike", "fusion_lat": 0.0, "lat": 38.99065816666667, "name": "201499cdcb63ad9ce2e0207b04772309", "fusion_lon": 0.0, "bike_id": "201499cdcb63ad9ce2e0207b04772309", "is_disabled": 0, "is_reserved": 0}, {"rental_uris": {"ios": "https://dc.lft.to/lastmile_qr_scan", "android": "https://dc.lft.to/lastmile_qr_scan"}, "lon": -77.03765333333334, "type": "electric_scooter", "fusion_lat": 0.0, "lat": 38.91690416666667, "name": "e26c69fe57d05fa592013b04723f1a8c", "fusion_lon": 0.0, "bike_id": "e26c69fe57d05fa592013b04723f1a8c", "is_disabled": 0, "is_reserved": 0}, {"rental_uris": {"ios": "https://dc.lft.to/lastmile_qr_scan", "android": "https://dc.lft.to/lastmile_qr_scan"}, "lon": -77.031868, "type": "electric_scooter", "fusion_lat": 0.0, "lat": 38.917981, "name": "9f319cc38f323d323b29d8a9239cb200", "fusion_lon": 0.0, "bike_id": "9f319cc38f323d323b29d8a9239cb200", "is_disabled": 0, "is_reserved": 0}, {"rental_uris": {"ios": "https://dc.lft.to/lastmile_qr_scan", "android": "https://dc.lft.to/lastmile_qr_scan"}, "lon": -77.041822, "type": "electric_scooter", "fusion_lat": 0.0, "lat": 38.9230375, "name": "8d80b7ffe3aee57b167318a0060d1009", "fusion_lon": 0.0, "bike_id": "8d80b7ffe3aee57b167318a0060d1009", "is_disabled": 0, "is_reserved": 0}, {"rental_uris": {"ios": "https://dc.lft.to/lastmile_qr_scan", "android": "https://dc.lft.to/lastmile_qr_scan"}, "lon": -76.946527, "type": "electric_scooter", "fusion_lat": 0.0, "lat": 38.898307, "name": "bc388a108f2ae6e9e6a0fb8bdf460993", "fusion_lon": 0.0, "bike_id": "bc388a108f2ae6e9e6a0fb8bdf460993", "is_disabled": 0, "is_reserved": 0}, {"rental_uris": {"ios": "https://dc.lft.to/lastmile_qr_scan", "android": "https://dc.lft.to/lastmile_qr_scan"}, "lon": -77.04684266666666, "type": "electric_scooter", "fusion_lat": 0.0, "lat": 38.892300166666665, "name": "ab7916609663922c9204137260a95f5f", "fusion_lon": 0.0, "bike_id": "ab7916609663922c9204137260a95f5f", "is_disabled": 0, "is_reserved": 0}, {"rental_uris": {"ios": "https://dc.lft.to/lastmile_qr_scan", "android": "https://dc.lft.to/lastmile_qr_scan"}, "lon": -77.00353833333334, "type": "electric_scooter", "fusion_lat": 0.0, "lat": 38.89771616666667, "name": "550d2c7322cc863084bb397588e25089", "fusion_lon": 0.0, "bike_id": "550d2c7322cc863084bb397588e25089", "is_disabled": 0, "is_reserved": 0}, {"rental_uris": {"ios": "https://dc.lft.to/lastmile_qr_scan", "android": "https://dc.lft.to/lastmile_qr_scan"}, "lon": -76.98572133333333, "type": "electric_scooter", "fusion_lat": 0.0, "lat": 38.89887783333333, "name": "bf82abe37a01fcea5ad0baf30c90c9fb", "fusion_lon": 0.0, "bike_id": "bf82abe37a01fcea5ad0baf30c90c9fb", "is_disabled": 0, "is_reserved": 0}, {"rental_uris": {"ios": "https://dc.lft.to/lastmile_qr_scan", "android": "https://dc.lft.to/lastmile_qr_scan"}, "lon": -76.9902125, "type": "electric_scooter", "fusion_lat": 0.0, "lat": 38.858712833333335, "name": "7f80db55fa7b06bf94fc610ae30c1902", "fusion_lon": 0.0, "bike_id": "7f80db55fa7b06bf94fc610ae30c1902", "is_disabled": 0, "is_reserved": 0}, {"rental_uris": {"ios": "https://dc.lft.to/lastmile_qr_scan", "android": "https://dc.lft.to/lastmile_qr_scan"}, "lon": -77.03206783333333, "type": "electric_scooter", "fusion_lat": 0.0, "lat": 38.917189666666665, "name": "36e22eae7e6cf2cc9a99733608ac34c3", "fusion_lon": 0.0, "bike_id": "36e22eae7e6cf2cc9a99733608ac34c3", "is_disabled": 0, "is_reserved": 0}, {"rental_uris": {"ios": "https://dc.lft.to/lastmile_qr_scan", "android": "https://dc.lft.to/lastmile_qr_scan"}, "lon": -77.0185965, "type": "electric_scooter", "fusion_lat": 0.0, "lat": 38.89263783333333, "name": "831d8a6ff6752185892240c6ca879885", "fusion_lon": 0.0, "bike_id": "831d8a6ff6752185892240c6ca879885", "is_disabled": 0, "is_reserved": 0}, {"rental_uris": {"ios": "https://dc.lft.to/lastmile_qr_scan", "android": "https://dc.lft.to/lastmile_qr_scan"}, "lon": -77.02548566666667, "type": "electric_scooter", "fusion_lat": 0.0, "lat": 38.89229616666667, "name": "3f52298aae9d1cdb2791cbbd9de13d01", "fusion_lon": 0.0, "bike_id": "3f52298aae9d1cdb2791cbbd9de13d01", "is_disabled": 0, "is_reserved": 0}, {"rental_uris": {"ios": "https://dc.lft.to/lastmile_qr_scan", "android": "https://dc.lft.to/lastmile_qr_scan"}, "lon": -77.03621466666667, "type": "electric_scooter", "fusion_lat": 0.0, "lat": 38.93744733333333, "name": "18748170b82e70208f6b6ebfa68d82e2", "fusion_lon": 0.0, "bike_id": "18748170b82e70208f6b6ebfa68d82e2", "is_disabled": 0, "is_reserved": 0}, {"rental_uris": {"ios": "https://dc.lft.to/lastmile_qr_scan", "android": "https://dc.lft.to/lastmile_qr_scan"}, "lon": -77.06466266666666, "type": "electric_scooter", "fusion_lat": 0.0, "lat": 38.910574833333335, "name": "cdb50b2b1388ed91f3b9d4ed4a79429e", "fusion_lon": 0.0, "bike_id": "cdb50b2b1388ed91f3b9d4ed4a79429e", "is_disabled": 0, "is_reserved": 0}, {"rental_uris": {"ios": "https://dc.lft.to/lastmile_qr_scan", "android": "https://dc.lft.to/lastmile_qr_scan"}, "lon": -77.03864083333333, "type": "electric_scooter", "fusion_lat": 0.0, "lat": 38.90815966666667, "name": "0880a46605c5ad8baf8bccfd63df4755", "fusion_lon": 0.0, "bike_id": "0880a46605c5ad8baf8bccfd63df4755", "is_disabled": 0, "is_reserved": 0}, {"rental_uris": {"ios": "https://dc.lft.to/lastmile_qr_scan", "android": "https://dc.lft.to/lastmile_qr_scan"}, "lon": -77.032891, "type": "electric_scooter", "fusion_lat": 0.0, "lat": 38.90149366666667, "name": "11031bea1c70f59193ac87f4047aa2f8", "fusion_lon": 0.0, "bike_id": "11031bea1c70f59193ac87f4047aa2f8", "is_disabled": 0, "is_reserved": 0}, {"rental_uris": {"ios": "https://dc.lft.to/lastmile_qr_scan", "android": "https://dc.lft.to/lastmile_qr_scan"}, "lon": -77.06349883333333, "type": "electric_scooter", "fusion_lat": 0.0, "lat": 38.94451, "name": "cec58ee0b1426734c4448f90dfd1b866", "fusion_lon": 0.0, "bike_id": "cec58ee0b1426734c4448f90dfd1b866", "is_disabled": 0, "is_reserved": 0}, {"rental_uris": {"ios": "https://dc.lft.to/lastmile_qr_scan", "android": "https://dc.lft.to/lastmile_qr_scan"}, "lon": -77.18299583333334, "type": "electric_bike", "fusion_lat": 0.0, "lat": 38.883523833333335, "name": "da5e417c4c803b5bb12ea8899cd6a5e5", "fusion_lon": 0.0, "bike_id": "da5e417c4c803b5bb12ea8899cd6a5e5", "is_disabled": 0, "is_reserved": 0}, {"rental_uris": {"ios": "https://dc.lft.to/lastmile_qr_scan", "android": "https://dc.lft.to/lastmile_qr_scan"}, "lon": -76.97825466666667, "type": "electric_scooter", "fusion_lat": 0.0, "lat": 38.89518133333333, "name": "cd17227de6527611b5400bdccf8cc11e", "fusion_lon": 0.0, "bike_id": "cd17227de6527611b5400bdccf8cc11e", "is_disabled": 0, "is_reserved": 0}, {"rental_uris": {"ios": "https://dc.lft.to/lastmile_qr_scan", "android": "https://dc.lft.to/lastmile_qr_scan"}, "lon": -77.04182233333333, "type": "electric_scooter", "fusion_lat": 0.0, "lat": 38.91944433333333, "name": "8576b8ad2ad36879f26b21868b515b02", "fusion_lon": 0.0, "bike_id": "8576b8ad2ad36879f26b21868b515b02", "is_disabled": 0, "is_reserved": 0}, {"rental_uris": {"ios": "https://dc.lft.to/lastmile_qr_scan", "android": "https://dc.lft.to/lastmile_qr_scan"}, "lon": -77.0174965, "type": "electric_scooter", "fusion_lat": 0.0, "lat": 38.905691, "name": "843a5c4ec6f39ac8fbea5937fcb7d2b7", "fusion_lon": 0.0, "bike_id": "843a5c4ec6f39ac8fbea5937fcb7d2b7", "is_disabled": 0, "is_reserved": 0}, {"rental_uris": {"ios": "https://dc.lft.to/lastmile_qr_scan", "android": "https://dc.lft.to/lastmile_qr_scan"}, "lon": -77.04013966666666, "type": "electric_scooter", "fusion_lat": 0.0, "lat": 38.9002435, "name": "6f56c930e0c08e51f966fc497fa5fd8a", "fusion_lon": 0.0, "bike_id": "6f56c930e0c08e51f966fc497fa5fd8a", "is_disabled": 0, "is_reserved": 0}, {"rental_uris": {"ios": "https://dc.lft.to/lastmile_qr_scan", "android": "https://dc.lft.to/lastmile_qr_scan"}, "lon": -77.01258633333333, "type": "electric_scooter", "fusion_lat": 0.0, "lat": 38.89963216666666, "name": "3f811f32d8c2f5d8063ae82e2b5ffda0", "fusion_lon": 0.0, "bike_id": "3f811f32d8c2f5d8063ae82e2b5ffda0", "is_disabled": 0, "is_reserved": 0}, {"rental_uris": {"ios": "https://dc.lft.to/lastmile_qr_scan", "android": "https://dc.lft.to/lastmile_qr_scan"}, "lon": -77.029777, "type": "electric_scooter", "fusion_lat": 0.0, "lat": 38.9325035, "name": "230591bea8a642ffc2ffa2a6f94443bf", "fusion_lon": 0.0, "bike_id": "230591bea8a642ffc2ffa2a6f94443bf", "is_disabled": 0, "is_reserved": 0}, {"rental_uris": {"ios": "https://dc.lft.to/lastmile_qr_scan", "android": "https://dc.lft.to/lastmile_qr_scan"}, "lon": -77.1360085, "type": "electric_bike", "fusion_lat": 0.0, "lat": 39.05351533333333, "name": "457bf49154dcad375d663fdcef461ec8", "fusion_lon": 0.0, "bike_id": "457bf49154dcad375d663fdcef461ec8", "is_disabled": 0, "is_reserved": 0}, {"rental_uris": {"ios": "https://dc.lft.to/lastmile_qr_scan", "android": "https://dc.lft.to/lastmile_qr_scan"}, "lon": -77.035439, "type": "electric_scooter", "fusion_lat": 0.0, "lat": 38.926838333333336, "name": "2ae8b8201eb8051319fefa7255986e29", "fusion_lon": 0.0, "bike_id": "2ae8b8201eb8051319fefa7255986e29", "is_disabled": 0, "is_reserved": 0}, {"rental_uris": {"ios": "https://dc.lft.to/lastmile_qr_scan", "android": "https://dc.lft.to/lastmile_qr_scan"}, "lon": -77.01430383333333, "type": "electric_scooter", "fusion_lat": 0.0, "lat": 38.877509333333336, "name": "738b0888fdd66920d5efd79192289841", "fusion_lon": 0.0, "bike_id": "738b0888fdd66920d5efd79192289841", "is_disabled": 0, "is_reserved": 0}, {"rental_uris": {"ios": "https://dc.lft.to/lastmile_qr_scan", "android": "https://dc.lft.to/lastmile_qr_scan"}, "lon": -77.04309883333333, "type": "electric_scooter", "fusion_lat": 0.0, "lat": 38.92254533333333, "name": "8f5eb163d0fda87d0c3e066e59f93909", "fusion_lon": 0.0, "bike_id": "8f5eb163d0fda87d0c3e066e59f93909", "is_disabled": 0, "is_reserved": 0}, {"rental_uris": {"ios": "https://dc.lft.to/lastmile_qr_scan", "android": "https://dc.lft.to/lastmile_qr_scan"}, "lon": -76.9863255, "type": "electric_scooter", "fusion_lat": 0.0, "lat": 38.868242, "name": "95d777eb60ce02f558a046af90bd2fbb", "fusion_lon": 0.0, "bike_id": "95d777eb60ce02f558a046af90bd2fbb", "is_disabled": 0, "is_reserved": 0}, {"rental_uris": {"ios": "https://dc.lft.to/lastmile_qr_scan", "android": "https://dc.lft.to/lastmile_qr_scan"}, "lon": -77.0089505, "type": "electric_scooter", "fusion_lat": 0.0, "lat": 38.897774166666665, "name": "4cd53bac16e3a4172ae7167543713bab", "fusion_lon": 0.0, "bike_id": "4cd53bac16e3a4172ae7167543713bab", "is_disabled": 0, "is_reserved": 0}, {"rental_uris": {"ios": "https://dc.lft.to/lastmile_qr_scan", "android": "https://dc.lft.to/lastmile_qr_scan"}, "lon": -77.0447605, "type": "electric_scooter", "fusion_lat": 0.0, "lat": 38.90652016666667, "name": "3f3ff40b96a7e6b759a9eab3b16eefd9", "fusion_lon": 0.0, "bike_id": "3f3ff40b96a7e6b759a9eab3b16eefd9", "is_disabled": 0, "is_reserved": 0}, {"rental_uris": {"ios": "https://dc.lft.to/lastmile_qr_scan", "android": "https://dc.lft.to/lastmile_qr_scan"}, "lon": -77.05253666666667, "type": "electric_scooter", "fusion_lat": 0.0, "lat": 38.92378083333333, "name": "3c065845e2f29da1a6585368b2e82413", "fusion_lon": 0.0, "bike_id": "3c065845e2f29da1a6585368b2e82413", "is_disabled": 0, "is_reserved": 0}, {"rental_uris": {"ios": "https://dc.lft.to/lastmile_qr_scan", "android": "https://dc.lft.to/lastmile_qr_scan"}, "lon": -77.036397, "type": "electric_scooter", "fusion_lat": 0.0, "lat": 38.917449166666664, "name": "11748496ede3b1ff418d08975c781b1e", "fusion_lon": 0.0, "bike_id": "11748496ede3b1ff418d08975c781b1e", "is_disabled": 0, "is_reserved": 0}, {"rental_uris": {"ios": "https://dc.lft.to/lastmile_qr_scan", "android": "https://dc.lft.to/lastmile_qr_scan"}, "lon": -77.007422, "type": "electric_scooter", "fusion_lat": 0.0, "lat": 38.95526266666667, "name": "14298d55a841a8a263dea48a374ca443", "fusion_lon": 0.0, "bike_id": "14298d55a841a8a263dea48a374ca443", "is_disabled": 0, "is_reserved": 0}, {"rental_uris": {"ios": "https://dc.lft.to/lastmile_qr_scan", "android": "https://dc.lft.to/lastmile_qr_scan"}, "lon": -77.02350016666666, "type": "electric_scooter", "fusion_lat": 0.0, "lat": 38.92281416666667, "name": "61798fed056e8279c59306dd5fa2feb2", "fusion_lon": 0.0, "bike_id": "61798fed056e8279c59306dd5fa2feb2", "is_disabled": 0, "is_reserved": 0}, {"rental_uris": {"ios": "https://dc.lft.to/lastmile_qr_scan", "android": "https://dc.lft.to/lastmile_qr_scan"}, "lon": -77.04598, "type": "electric_scooter", "fusion_lat": 0.0, "lat": 38.913847, "name": "a64438984cbd8cb0b7dac233d0963133", "fusion_lon": 0.0, "bike_id": "a64438984cbd8cb0b7dac233d0963133", "is_disabled": 0, "is_reserved": 0}, {"rental_uris": {"ios": "https://dc.lft.to/lastmile_qr_scan", "android": "https://dc.lft.to/lastmile_qr_scan"}, "lon": -77.002093, "type": "electric_scooter", "fusion_lat": 0.0, "lat": 38.90219866666666, "name": "0765c1e6125245b76641264459f4214d", "fusion_lon": 0.0, "bike_id": "0765c1e6125245b76641264459f4214d", "is_disabled": 0, "is_reserved": 0}, {"rental_uris": {"ios": "https://dc.lft.to/lastmile_qr_scan", "android": "https://dc.lft.to/lastmile_qr_scan"}, "lon": -77.0679235, "type": "electric_scooter", "fusion_lat": 0.0, "lat": 38.952204333333334, "name": "6b43cb19f74477b2e641c8c2e5e8850c", "fusion_lon": 0.0, "bike_id": "6b43cb19f74477b2e641c8c2e5e8850c", "is_disabled": 0, "is_reserved": 0}, {"rental_uris": {"ios": "https://dc.lft.to/lastmile_qr_scan", "android": "https://dc.lft.to/lastmile_qr_scan"}, "lon": -77.039873, "type": "electric_scooter", "fusion_lat": 0.0, "lat": 38.90031716666667, "name": "fde8cd08c292eda3a2cd7e00cccec485", "fusion_lon": 0.0, "bike_id": "fde8cd08c292eda3a2cd7e00cccec485", "is_disabled": 0, "is_reserved": 0}, {"rental_uris": {"ios": "https://dc.lft.to/lastmile_qr_scan", "android": "https://dc.lft.to/lastmile_qr_scan"}, "lon": -77.04471983333333, "type": "electric_scooter", "fusion_lat": 0.0, "lat": 38.9032955, "name": "e9f1cf068af506241a745e636c44e774", "fusion_lon": 0.0, "bike_id": "e9f1cf068af506241a745e636c44e774", "is_disabled": 0, "is_reserved": 0}, {"rental_uris": {"ios": "https://dc.lft.to/lastmile_qr_scan", "android": "https://dc.lft.to/lastmile_qr_scan"}, "lon": -77.0397745, "type": "electric_scooter", "fusion_lat": 0.0, "lat": 38.91371516666667, "name": "30cb02f5b054a2ab7cd7d2c33c6bfae0", "fusion_lon": 0.0, "bike_id": "30cb02f5b054a2ab7cd7d2c33c6bfae0", "is_disabled": 0, "is_reserved": 0}, {"rental_uris": {"ios": "https://dc.lft.to/lastmile_qr_scan", "android": "https://dc.lft.to/lastmile_qr_scan"}, "lon": -77.02417766666667, "type": "electric_scooter", "fusion_lat": 0.0, "lat": 38.9171365, "name": "83e1a7ed7779af97cf91f99d6b02b55b", "fusion_lon": 0.0, "bike_id": "83e1a7ed7779af97cf91f99d6b02b55b", "is_disabled": 0, "is_reserved": 0}, {"rental_uris": {"ios": "https://dc.lft.to/lastmile_qr_scan", "android": "https://dc.lft.to/lastmile_qr_scan"}, "lon": -77.044835, "type": "electric_scooter", "fusion_lat": 0.0, "lat": 38.913155333333336, "name": "ca55ec6a9b68b27416fb0a33c02022f9", "fusion_lon": 0.0, "bike_id": "ca55ec6a9b68b27416fb0a33c02022f9", "is_disabled": 0, "is_reserved": 0}, {"rental_uris": {"ios": "https://dc.lft.to/lastmile_qr_scan", "android": "https://dc.lft.to/lastmile_qr_scan"}, "lon": -77.02841716666667, "type": "electric_scooter", "fusion_lat": 0.0, "lat": 38.9248175, "name": "bfae9c6fe327459677966b76a3b6e6d3", "fusion_lon": 0.0, "bike_id": "bfae9c6fe327459677966b76a3b6e6d3", "is_disabled": 0, "is_reserved": 0}, {"rental_uris": {"ios": "https://dc.lft.to/lastmile_qr_scan", "android": "https://dc.lft.to/lastmile_qr_scan"}, "lon": -77.00695516666667, "type": "electric_scooter", "fusion_lat": 0.0, "lat": 38.90573, "name": "7d31bdddaa56a298d50fa570777776cd", "fusion_lon": 0.0, "bike_id": "7d31bdddaa56a298d50fa570777776cd", "is_disabled": 0, "is_reserved": 0}, {"rental_uris": {"ios": "https://dc.lft.to/lastmile_qr_scan", "android": "https://dc.lft.to/lastmile_qr_scan"}, "lon": -77.01085116666667, "type": "electric_bike", "fusion_lat": 0.0, "lat": 38.956580333333335, "name": "61e7164c6fd85d1969456ecb4d143457", "fusion_lon": 0.0, "bike_id": "61e7164c6fd85d1969456ecb4d143457", "is_disabled": 0, "is_reserved": 0}, {"rental_uris": {"ios": "https://dc.lft.to/lastmile_qr_scan", "android": "https://dc.lft.to/lastmile_qr_scan"}, "lon": -77.0385215, "type": "electric_scooter", "fusion_lat": 0.0, "lat": 38.91695083333333, "name": "9d2fdd5684b5ae2d138569f4ab7302f1", "fusion_lon": 0.0, "bike_id": "9d2fdd5684b5ae2d138569f4ab7302f1", "is_disabled": 0, "is_reserved": 0}, {"rental_uris": {"ios": "https://dc.lft.to/lastmile_qr_scan", "android": "https://dc.lft.to/lastmile_qr_scan"}, "lon": -77.00266266666667, "type": "electric_scooter", "fusion_lat": 0.0, "lat": 38.8990525, "name": "79b11b5efe05ba9f6904d6af7defcdbe", "fusion_lon": 0.0, "bike_id": "79b11b5efe05ba9f6904d6af7defcdbe", "is_disabled": 0, "is_reserved": 0}, {"rental_uris": {"ios": "https://dc.lft.to/lastmile_qr_scan", "android": "https://dc.lft.to/lastmile_qr_scan"}, "lon": -77.03952316666667, "type": "electric_scooter", "fusion_lat": 0.0, "lat": 38.89866983333334, "name": "72707413338a683bc02791f6f8b82a6d", "fusion_lon": 0.0, "bike_id": "72707413338a683bc02791f6f8b82a6d", "is_disabled": 0, "is_reserved": 0}, {"rental_uris": {"ios": "https://dc.lft.to/lastmile_qr_scan", "android": "https://dc.lft.to/lastmile_qr_scan"}, "lon": -76.99855416666666, "type": "electric_scooter", "fusion_lat": 0.0, "lat": 38.89496666666667, "name": "424e326ec4af32ef7aaeda0e5edada9f", "fusion_lon": 0.0, "bike_id": "424e326ec4af32ef7aaeda0e5edada9f", "is_disabled": 0, "is_reserved": 0}, {"rental_uris": {"ios": "https://dc.lft.to/lastmile_qr_scan", "android": "https://dc.lft.to/lastmile_qr_scan"}, "lon": -77.00675816666667, "type": "electric_scooter", "fusion_lat": 0.0, "lat": 38.90735133333333, "name": "5e7a9e6170bd3c06180e3d10878f7fa7", "fusion_lon": 0.0, "bike_id": "5e7a9e6170bd3c06180e3d10878f7fa7", "is_disabled": 0, "is_reserved": 0}, {"rental_uris": {"ios": "https://dc.lft.to/lastmile_qr_scan", "android": "https://dc.lft.to/lastmile_qr_scan"}, "lon": -77.0357265, "type": "electric_scooter", "fusion_lat": 0.0, "lat": 38.91823983333333, "name": "0a07a33613e000382ec9a3f9e952fa9c", "fusion_lon": 0.0, "bike_id": "0a07a33613e000382ec9a3f9e952fa9c", "is_disabled": 0, "is_reserved": 0}, {"rental_uris": {"ios": "https://dc.lft.to/lastmile_qr_scan", "android": "https://dc.lft.to/lastmile_qr_scan"}, "lon": -77.04186466666667, "type": "electric_scooter", "fusion_lat": 0.0, "lat": 38.919472999999996, "name": "30fb75b8dc237343acd80159422e1c24", "fusion_lon": 0.0, "bike_id": "30fb75b8dc237343acd80159422e1c24", "is_disabled": 0, "is_reserved": 0}, {"rental_uris": {"ios": "https://dc.lft.to/lastmile_qr_scan", "android": "https://dc.lft.to/lastmile_qr_scan"}, "lon": -77.069573, "type": "electric_bike", "fusion_lat": 0.0, "lat": 38.9905375, "name": "c7600ce513d7aceba8990f118e062c87", "fusion_lon": 0.0, "bike_id": "c7600ce513d7aceba8990f118e062c87", "is_disabled": 0, "is_reserved": 0}, {"rental_uris": {"ios": "https://dc.lft.to/lastmile_qr_scan", "android": "https://dc.lft.to/lastmile_qr_scan"}, "lon": -77.0328585, "type": "electric_scooter", "fusion_lat": 0.0, "lat": 38.937827, "name": "8d79d322ac3ccf3c95a2936943ce1c01", "fusion_lon": 0.0, "bike_id": "8d79d322ac3ccf3c95a2936943ce1c01", "is_disabled": 0, "is_reserved": 0}, {"rental_uris": {"ios": "https://dc.lft.to/lastmile_qr_scan", "android": "https://dc.lft.to/lastmile_qr_scan"}, "lon": -77.027135, "type": "electric_scooter", "fusion_lat": 0.0, "lat": 38.906762, "name": "ea5ac72d3f1fee31bc2e0a135856e801", "fusion_lon": 0.0, "bike_id": "ea5ac72d3f1fee31bc2e0a135856e801", "is_disabled": 0, "is_reserved": 0}, {"rental_uris": {"ios": "https://dc.lft.to/lastmile_qr_scan", "android": "https://dc.lft.to/lastmile_qr_scan"}, "lon": -77.0588935, "type": "electric_scooter", "fusion_lat": 0.0, "lat": 38.93638216666667, "name": "12b04115a3880169599371ea9d81f60f", "fusion_lon": 0.0, "bike_id": "12b04115a3880169599371ea9d81f60f", "is_disabled": 0, "is_reserved": 0}, {"rental_uris": {"ios": "https://dc.lft.to/lastmile_qr_scan", "android": "https://dc.lft.to/lastmile_qr_scan"}, "lon": -77.02156033333333, "type": "electric_scooter", "fusion_lat": 0.0, "lat": 38.926068666666666, "name": "1c419dc6d25d5983f7d98306da5a4189", "fusion_lon": 0.0, "bike_id": "1c419dc6d25d5983f7d98306da5a4189", "is_disabled": 0, "is_reserved": 0}, {"rental_uris": {"ios": "https://dc.lft.to/lastmile_qr_scan", "android": "https://dc.lft.to/lastmile_qr_scan"}, "lon": -77.03076666666666, "type": "electric_scooter", "fusion_lat": 0.0, "lat": 38.90267566666667, "name": "1ffdb511103a6de905840ca34b35f694", "fusion_lon": 0.0, "bike_id": "1ffdb511103a6de905840ca34b35f694", "is_disabled": 0, "is_reserved": 0}, {"rental_uris": {"ios": "https://dc.lft.to/lastmile_qr_scan", "android": "https://dc.lft.to/lastmile_qr_scan"}, "lon": -77.03342016666667, "type": "electric_scooter", "fusion_lat": 0.0, "lat": 38.897285333333336, "name": "03e14cf27f26acaae4a6fbcc72843080", "fusion_lon": 0.0, "bike_id": "03e14cf27f26acaae4a6fbcc72843080", "is_disabled": 0, "is_reserved": 0}, {"rental_uris": {"ios": "https://dc.lft.to/lastmile_qr_scan", "android": "https://dc.lft.to/lastmile_qr_scan"}, "lon": -77.001944, "type": "electric_scooter", "fusion_lat": 0.0, "lat": 38.90061266666667, "name": "654846043db80a1ab2f6600c5542b34a", "fusion_lon": 0.0, "bike_id": "654846043db80a1ab2f6600c5542b34a", "is_disabled": 0, "is_reserved": 0}, {"rental_uris": {"ios": "https://dc.lft.to/lastmile_qr_scan", "android": "https://dc.lft.to/lastmile_qr_scan"}, "lon": -77.03923716666667, "type": "electric_scooter", "fusion_lat": 0.0, "lat": 38.918512666666665, "name": "8e8e658c6d1fa67cfbe74577c7fd5893", "fusion_lon": 0.0, "bike_id": "8e8e658c6d1fa67cfbe74577c7fd5893", "is_disabled": 0, "is_reserved": 0}, {"rental_uris": {"ios": "https://dc.lft.to/lastmile_qr_scan", "android": "https://dc.lft.to/lastmile_qr_scan"}, "lon": -77.00780133333333, "type": "electric_scooter", "fusion_lat": 0.0, "lat": 38.87670083333333, "name": "be975ac4e0a1fb58863f141265136ba7", "fusion_lon": 0.0, "bike_id": "be975ac4e0a1fb58863f141265136ba7", "is_disabled": 0, "is_reserved": 0}, {"rental_uris": {"ios": "https://dc.lft.to/lastmile_qr_scan", "android": "https://dc.lft.to/lastmile_qr_scan"}, "lon": -77.00671583333333, "type": "electric_bike", "fusion_lat": 0.0, "lat": 38.945186166666666, "name": "63a50f0bd940d671d0ca025b629ede32", "fusion_lon": 0.0, "bike_id": "63a50f0bd940d671d0ca025b629ede32", "is_disabled": 0, "is_reserved": 0}, {"rental_uris": {"ios": "https://dc.lft.to/lastmile_qr_scan", "android": "https://dc.lft.to/lastmile_qr_scan"}, "lon": -76.93569133333334, "type": "electric_bike", "fusion_lat": 0.0, "lat": 38.885322333333335, "name": "aa8b8a465d4ae74eaabae1c0724e3033", "fusion_lon": 0.0, "bike_id": "aa8b8a465d4ae74eaabae1c0724e3033", "is_disabled": 0, "is_reserved": 0}, {"rental_uris": {"ios": "https://dc.lft.to/lastmile_qr_scan", "android": "https://dc.lft.to/lastmile_qr_scan"}, "lon": -76.98025316666667, "type": "electric_scooter", "fusion_lat": 0.0, "lat": 38.90387716666667, "name": "9415cdd7776402cc503d0b993b889934", "fusion_lon": 0.0, "bike_id": "9415cdd7776402cc503d0b993b889934", "is_disabled": 0, "is_reserved": 0}, {"rental_uris": {"ios": "https://dc.lft.to/lastmile_qr_scan", "android": "https://dc.lft.to/lastmile_qr_scan"}, "lon": -76.949717, "type": "electric_scooter", "fusion_lat": 0.0, "lat": 38.89373233333333, "name": "8df03f755a3bd4e03a673afee674b024", "fusion_lon": 0.0, "bike_id": "8df03f755a3bd4e03a673afee674b024", "is_disabled": 0, "is_reserved": 0}, {"rental_uris": {"ios": "https://dc.lft.to/lastmile_qr_scan", "android": "https://dc.lft.to/lastmile_qr_scan"}, "lon": -76.995103, "type": "electric_scooter", "fusion_lat": 0.0, "lat": 38.88634416666667, "name": "9490312418603d8f4473370e9780a094", "fusion_lon": 0.0, "bike_id": "9490312418603d8f4473370e9780a094", "is_disabled": 0, "is_reserved": 0}, {"rental_uris": {"ios": "https://dc.lft.to/lastmile_qr_scan", "android": "https://dc.lft.to/lastmile_qr_scan"}, "lon": -77.02489216666666, "type": "electric_scooter", "fusion_lat": 0.0, "lat": 38.89740333333334, "name": "3fef48edcec948b2541f23114abae36b", "fusion_lon": 0.0, "bike_id": "3fef48edcec948b2541f23114abae36b", "is_disabled": 0, "is_reserved": 0}, {"rental_uris": {"ios": "https://dc.lft.to/lastmile_qr_scan", "android": "https://dc.lft.to/lastmile_qr_scan"}, "lon": -77.05135983333334, "type": "electric_scooter", "fusion_lat": 0.0, "lat": 38.905415833333336, "name": "aedb6f2b8517753757a92996ddf474d2", "fusion_lon": 0.0, "bike_id": "aedb6f2b8517753757a92996ddf474d2", "is_disabled": 0, "is_reserved": 0}, {"rental_uris": {"ios": "https://dc.lft.to/lastmile_qr_scan", "android": "https://dc.lft.to/lastmile_qr_scan"}, "lon": -77.00497, "type": "electric_scooter", "fusion_lat": 0.0, "lat": 38.8790085, "name": "9d089cf41aaea5aaa9b3f28cd452c803", "fusion_lon": 0.0, "bike_id": "9d089cf41aaea5aaa9b3f28cd452c803", "is_disabled": 0, "is_reserved": 0}, {"rental_uris": {"ios": "https://dc.lft.to/lastmile_qr_scan", "android": "https://dc.lft.to/lastmile_qr_scan"}, "lon": -77.0256225, "type": "electric_scooter", "fusion_lat": 0.0, "lat": 38.8875245, "name": "28217bace556e90523144b03379535e8", "fusion_lon": 0.0, "bike_id": "28217bace556e90523144b03379535e8", "is_disabled": 0, "is_reserved": 0}, {"rental_uris": {"ios": "https://dc.lft.to/lastmile_qr_scan", "android": "https://dc.lft.to/lastmile_qr_scan"}, "lon": -77.0321305, "type": "electric_scooter", "fusion_lat": 0.0, "lat": 38.89241283333333, "name": "c80409adf9365e27cd54c8774d602299", "fusion_lon": 0.0, "bike_id": "c80409adf9365e27cd54c8774d602299", "is_disabled": 0, "is_reserved": 0}, {"rental_uris": {"ios": "https://dc.lft.to/lastmile_qr_scan", "android": "https://dc.lft.to/lastmile_qr_scan"}, "lon": -76.99839783333333, "type": "electric_bike", "fusion_lat": 0.0, "lat": 38.839197, "name": "8f3587cfc438a7e751bd51aa3f289d43", "fusion_lon": 0.0, "bike_id": "8f3587cfc438a7e751bd51aa3f289d43", "is_disabled": 0, "is_reserved": 0}, {"rental_uris": {"ios": "https://dc.lft.to/lastmile_qr_scan", "android": "https://dc.lft.to/lastmile_qr_scan"}, "lon": -77.03000883333333, "type": "electric_scooter", "fusion_lat": 0.0, "lat": 38.93452583333333, "name": "332fcc226013383b204dbf3e29d50fb6", "fusion_lon": 0.0, "bike_id": "332fcc226013383b204dbf3e29d50fb6", "is_disabled": 0, "is_reserved": 0}, {"rental_uris": {"ios": "https://dc.lft.to/lastmile_qr_scan", "android": "https://dc.lft.to/lastmile_qr_scan"}, "lon": -77.02126733333333, "type": "electric_scooter", "fusion_lat": 0.0, "lat": 38.94410233333333, "name": "608c978667007a94f77bd104380e794d", "fusion_lon": 0.0, "bike_id": "608c978667007a94f77bd104380e794d", "is_disabled": 0, "is_reserved": 0}, {"rental_uris": {"ios": "https://dc.lft.to/lastmile_qr_scan", "android": "https://dc.lft.to/lastmile_qr_scan"}, "lon": -77.0415465, "type": "electric_scooter", "fusion_lat": 0.0, "lat": 38.91793083333334, "name": "3c76a97cb76baf11e9bbf79b8567fdb4", "fusion_lon": 0.0, "bike_id": "3c76a97cb76baf11e9bbf79b8567fdb4", "is_disabled": 0, "is_reserved": 0}, {"rental_uris": {"ios": "https://dc.lft.to/lastmile_qr_scan", "android": "https://dc.lft.to/lastmile_qr_scan"}, "lon": -77.03397316666667, "type": "electric_scooter", "fusion_lat": 0.0, "lat": 38.91916666666667, "name": "21403f67ac84c148dc25be79e588b760", "fusion_lon": 0.0, "bike_id": "21403f67ac84c148dc25be79e588b760", "is_disabled": 0, "is_reserved": 0}, {"rental_uris": {"ios": "https://dc.lft.to/lastmile_qr_scan", "android": "https://dc.lft.to/lastmile_qr_scan"}, "lon": -77.045993, "type": "electric_scooter", "fusion_lat": 0.0, "lat": 38.916964, "name": "613bd2b6dc29626213879769ed865ea8", "fusion_lon": 0.0, "bike_id": "613bd2b6dc29626213879769ed865ea8", "is_disabled": 0, "is_reserved": 0}, {"rental_uris": {"ios": "https://dc.lft.to/lastmile_qr_scan", "android": "https://dc.lft.to/lastmile_qr_scan"}, "lon": -77.03110866666667, "type": "electric_scooter", "fusion_lat": 0.0, "lat": 38.911997666666664, "name": "6acd0aa15773ae0fcd354c8368e44013", "fusion_lon": 0.0, "bike_id": "6acd0aa15773ae0fcd354c8368e44013", "is_disabled": 0, "is_reserved": 0}, {"rental_uris": {"ios": "https://dc.lft.to/lastmile_qr_scan", "android": "https://dc.lft.to/lastmile_qr_scan"}, "lon": -77.12979583333333, "type": "electric_bike", "fusion_lat": 0.0, "lat": 38.79992433333334, "name": "ab92faab80d4dda759dd6ceb611809f3", "fusion_lon": 0.0, "bike_id": "ab92faab80d4dda759dd6ceb611809f3", "is_disabled": 0, "is_reserved": 0}, {"rental_uris": {"ios": "https://dc.lft.to/lastmile_qr_scan", "android": "https://dc.lft.to/lastmile_qr_scan"}, "lon": -77.02374183333333, "type": "electric_bike", "fusion_lat": 0.0, "lat": 38.9944705, "name": "426c469829e9ff7f397cc09a1fbb820d", "fusion_lon": 0.0, "bike_id": "426c469829e9ff7f397cc09a1fbb820d", "is_disabled": 0, "is_reserved": 0}, {"rental_uris": {"ios": "https://dc.lft.to/lastmile_qr_scan", "android": "https://dc.lft.to/lastmile_qr_scan"}, "lon": -77.0417705, "type": "electric_scooter", "fusion_lat": 0.0, "lat": 38.9173575, "name": "90d5f7f7bbba986d2ba4ae0018dd59b0", "fusion_lon": 0.0, "bike_id": "90d5f7f7bbba986d2ba4ae0018dd59b0", "is_disabled": 0, "is_reserved": 0}, {"rental_uris": {"ios": "https://dc.lft.to/lastmile_qr_scan", "android": "https://dc.lft.to/lastmile_qr_scan"}, "lon": -77.04022966666666, "type": "electric_scooter", "fusion_lat": 0.0, "lat": 38.91794566666667, "name": "3ba9dd991a8496131396c2459b406a5d", "fusion_lon": 0.0, "bike_id": "3ba9dd991a8496131396c2459b406a5d", "is_disabled": 0, "is_reserved": 0}, {"rental_uris": {"ios": "https://dc.lft.to/lastmile_qr_scan", "android": "https://dc.lft.to/lastmile_qr_scan"}, "lon": -77.0174825, "type": "electric_scooter", "fusion_lat": 0.0, "lat": 38.8772025, "name": "cc930f3ad70421423a6bb827c3436ab8", "fusion_lon": 0.0, "bike_id": "cc930f3ad70421423a6bb827c3436ab8", "is_disabled": 0, "is_reserved": 0}, {"rental_uris": {"ios": "https://dc.lft.to/lastmile_qr_scan", "android": "https://dc.lft.to/lastmile_qr_scan"}, "lon": -77.0689055, "type": "electric_scooter", "fusion_lat": 0.0, "lat": 38.9403835, "name": "273262e669a5f204a110d30a6e83d095", "fusion_lon": 0.0, "bike_id": "273262e669a5f204a110d30a6e83d095", "is_disabled": 0, "is_reserved": 0}, {"rental_uris": {"ios": "https://dc.lft.to/lastmile_qr_scan", "android": "https://dc.lft.to/lastmile_qr_scan"}, "lon": -77.07047, "type": "electric_bike", "fusion_lat": 0.0, "lat": 38.824532, "name": "64f203f7ec9610f133f69be02c826241", "fusion_lon": 0.0, "bike_id": "64f203f7ec9610f133f69be02c826241", "is_disabled": 0, "is_reserved": 0}, {"rental_uris": {"ios": "https://dc.lft.to/lastmile_qr_scan", "android": "https://dc.lft.to/lastmile_qr_scan"}, "lon": -77.02404483333333, "type": "electric_scooter", "fusion_lat": 0.0, "lat": 38.905894333333336, "name": "d3e30a3be4c70193ab81effdbbc73a52", "fusion_lon": 0.0, "bike_id": "d3e30a3be4c70193ab81effdbbc73a52", "is_disabled": 0, "is_reserved": 0}, {"rental_uris": {"ios": "https://dc.lft.to/lastmile_qr_scan", "android": "https://dc.lft.to/lastmile_qr_scan"}, "lon": -77.0394645, "type": "electric_scooter", "fusion_lat": 0.0, "lat": 38.902956333333336, "name": "82b15149b0972edec94085c3513268ba", "fusion_lon": 0.0, "bike_id": "82b15149b0972edec94085c3513268ba", "is_disabled": 0, "is_reserved": 0}, {"rental_uris": {"ios": "https://dc.lft.to/lastmile_qr_scan", "android": "https://dc.lft.to/lastmile_qr_scan"}, "lon": -77.063958, "type": "electric_scooter", "fusion_lat": 0.0, "lat": 38.929117166666664, "name": "65e8dc5da340c9cfdd7e4f04b55046b2", "fusion_lon": 0.0, "bike_id": "65e8dc5da340c9cfdd7e4f04b55046b2", "is_disabled": 0, "is_reserved": 0}, {"rental_uris": {"ios": "https://dc.lft.to/lastmile_qr_scan", "android": "https://dc.lft.to/lastmile_qr_scan"}, "lon": -77.03211366666666, "type": "electric_scooter", "fusion_lat": 0.0, "lat": 38.91739316666666, "name": "0e6bdf009f61fff0df0e517d2d5b3b20", "fusion_lon": 0.0, "bike_id": "0e6bdf009f61fff0df0e517d2d5b3b20", "is_disabled": 0, "is_reserved": 0}, {"rental_uris": {"ios": "https://dc.lft.to/lastmile_qr_scan", "android": "https://dc.lft.to/lastmile_qr_scan"}, "lon": -77.12816133333334, "type": "electric_bike", "fusion_lat": 0.0, "lat": 38.86536433333333, "name": "1c1333f0d01bad138631668af68e8453", "fusion_lon": 0.0, "bike_id": "1c1333f0d01bad138631668af68e8453", "is_disabled": 0, "is_reserved": 0}, {"rental_uris": {"ios": "https://dc.lft.to/lastmile_qr_scan", "android": "https://dc.lft.to/lastmile_qr_scan"}, "lon": -77.031956, "type": "electric_scooter", "fusion_lat": 0.0, "lat": 38.904018, "name": "a85b55f75ade2fcd65ec8458f46aa737", "fusion_lon": 0.0, "bike_id": "a85b55f75ade2fcd65ec8458f46aa737", "is_disabled": 0, "is_reserved": 0}, {"rental_uris": {"ios": "https://dc.lft.to/lastmile_qr_scan", "android": "https://dc.lft.to/lastmile_qr_scan"}, "lon": -77.02959366666667, "type": "electric_scooter", "fusion_lat": 0.0, "lat": 38.90505533333334, "name": "ce15d6f02873589d80cca7764d42b407", "fusion_lon": 0.0, "bike_id": "ce15d6f02873589d80cca7764d42b407", "is_disabled": 0, "is_reserved": 0}, {"rental_uris": {"ios": "https://dc.lft.to/lastmile_qr_scan", "android": "https://dc.lft.to/lastmile_qr_scan"}, "lon": -76.91601766666666, "type": "electric_bike", "fusion_lat": 0.0, "lat": 38.87984183333333, "name": "92ca07c091fd463e77fd3c71ada9ebf9", "fusion_lon": 0.0, "bike_id": "92ca07c091fd463e77fd3c71ada9ebf9", "is_disabled": 0, "is_reserved": 0}, {"rental_uris": {"ios": "https://dc.lft.to/lastmile_qr_scan", "android": "https://dc.lft.to/lastmile_qr_scan"}, "lon": -77.05863316666667, "type": "electric_scooter", "fusion_lat": 0.0, "lat": 38.936117333333335, "name": "39ce759ff278f674bc2b84b57c7fcfbe", "fusion_lon": 0.0, "bike_id": "39ce759ff278f674bc2b84b57c7fcfbe", "is_disabled": 0, "is_reserved": 0}, {"rental_uris": {"ios": "https://dc.lft.to/lastmile_qr_scan", "android": "https://dc.lft.to/lastmile_qr_scan"}, "lon": -77.02593283333333, "type": "electric_scooter", "fusion_lat": 0.0, "lat": 38.896134333333336, "name": "393f141ca8cea9a721901d7a87fc9001", "fusion_lon": 0.0, "bike_id": "393f141ca8cea9a721901d7a87fc9001", "is_disabled": 0, "is_reserved": 0}, {"rental_uris": {"ios": "https://dc.lft.to/lastmile_qr_scan", "android": "https://dc.lft.to/lastmile_qr_scan"}, "lon": -76.96630116666667, "type": "electric_bike", "fusion_lat": 0.0, "lat": 38.94211083333333, "name": "1b2afe0e4a709242728df55bed0bd712", "fusion_lon": 0.0, "bike_id": "1b2afe0e4a709242728df55bed0bd712", "is_disabled": 0, "is_reserved": 0}, {"rental_uris": {"ios": "https://dc.lft.to/lastmile_qr_scan", "android": "https://dc.lft.to/lastmile_qr_scan"}, "lon": -77.0211465, "type": "electric_scooter", "fusion_lat": 0.0, "lat": 38.91317633333333, "name": "b4328a88a59d0355694a535749053184", "fusion_lon": 0.0, "bike_id": "b4328a88a59d0355694a535749053184", "is_disabled": 0, "is_reserved": 0}, {"rental_uris": {"ios": "https://dc.lft.to/lastmile_qr_scan", "android": "https://dc.lft.to/lastmile_qr_scan"}, "lon": -77.039388, "type": "electric_scooter", "fusion_lat": 0.0, "lat": 38.9036555, "name": "ce0fe64dad0507191c10f521025a6f83", "fusion_lon": 0.0, "bike_id": "ce0fe64dad0507191c10f521025a6f83", "is_disabled": 0, "is_reserved": 0}, {"rental_uris": {"ios": "https://dc.lft.to/lastmile_qr_scan", "android": "https://dc.lft.to/lastmile_qr_scan"}, "lon": -77.04684466666667, "type": "electric_scooter", "fusion_lat": 0.0, "lat": 38.8923055, "name": "de1f86629701ad8e82a283aafd87b7fc", "fusion_lon": 0.0, "bike_id": "de1f86629701ad8e82a283aafd87b7fc", "is_disabled": 0, "is_reserved": 0}, {"rental_uris": {"ios": "https://dc.lft.to/lastmile_qr_scan", "android": "https://dc.lft.to/lastmile_qr_scan"}, "lon": -77.018064, "type": "electric_scooter", "fusion_lat": 0.0, "lat": 38.887491833333335, "name": "249421e4cec433a9c3e2d5b1d1e43158", "fusion_lon": 0.0, "bike_id": "249421e4cec433a9c3e2d5b1d1e43158", "is_disabled": 0, "is_reserved": 0}, {"rental_uris": {"ios": "https://dc.lft.to/lastmile_qr_scan", "android": "https://dc.lft.to/lastmile_qr_scan"}, "lon": -77.02591166666667, "type": "electric_scooter", "fusion_lat": 0.0, "lat": 38.915058, "name": "dd2a0220a915ada25426eb66c1c1ffc8", "fusion_lon": 0.0, "bike_id": "dd2a0220a915ada25426eb66c1c1ffc8", "is_disabled": 0, "is_reserved": 0}, {"rental_uris": {"ios": "https://dc.lft.to/lastmile_qr_scan", "android": "https://dc.lft.to/lastmile_qr_scan"}, "lon": -77.02306016666667, "type": "electric_scooter", "fusion_lat": 0.0, "lat": 38.9330605, "name": "bfacf414866e18bc3bd95468dc0581fd", "fusion_lon": 0.0, "bike_id": "bfacf414866e18bc3bd95468dc0581fd", "is_disabled": 0, "is_reserved": 0}, {"rental_uris": {"ios": "https://dc.lft.to/lastmile_qr_scan", "android": "https://dc.lft.to/lastmile_qr_scan"}, "lon": -77.02969383333334, "type": "electric_scooter", "fusion_lat": 0.0, "lat": 38.916882, "name": "fee4154af55c298a053484f0495adcaa", "fusion_lon": 0.0, "bike_id": "fee4154af55c298a053484f0495adcaa", "is_disabled": 0, "is_reserved": 0}, {"rental_uris": {"ios": "https://dc.lft.to/lastmile_qr_scan", "android": "https://dc.lft.to/lastmile_qr_scan"}, "lon": -77.02396466666667, "type": "electric_scooter", "fusion_lat": 0.0, "lat": 38.952950666666666, "name": "c4116c1b51472b6b99219f76e41581eb", "fusion_lon": 0.0, "bike_id": "c4116c1b51472b6b99219f76e41581eb", "is_disabled": 0, "is_reserved": 0}, {"rental_uris": {"ios": "https://dc.lft.to/lastmile_qr_scan", "android": "https://dc.lft.to/lastmile_qr_scan"}, "lon": -77.00988483333333, "type": "electric_scooter", "fusion_lat": 0.0, "lat": 38.914923, "name": "43165267ace659235d0b791ac6de9c01", "fusion_lon": 0.0, "bike_id": "43165267ace659235d0b791ac6de9c01", "is_disabled": 0, "is_reserved": 0}, {"rental_uris": {"ios": "https://dc.lft.to/lastmile_qr_scan", "android": "https://dc.lft.to/lastmile_qr_scan"}, "lon": -77.01795533333333, "type": "electric_scooter", "fusion_lat": 0.0, "lat": 38.900469, "name": "cdecbc5ffe946d40de78d4fb9da046fe", "fusion_lon": 0.0, "bike_id": "cdecbc5ffe946d40de78d4fb9da046fe", "is_disabled": 0, "is_reserved": 0}, {"rental_uris": {"ios": "https://dc.lft.to/lastmile_qr_scan", "android": "https://dc.lft.to/lastmile_qr_scan"}, "lon": -77.01048133333333, "type": "electric_scooter", "fusion_lat": 0.0, "lat": 38.8794015, "name": "0932404fba1b82815b34011c55536954", "fusion_lon": 0.0, "bike_id": "0932404fba1b82815b34011c55536954", "is_disabled": 0, "is_reserved": 0}, {"rental_uris": {"ios": "https://dc.lft.to/lastmile_qr_scan", "android": "https://dc.lft.to/lastmile_qr_scan"}, "lon": -77.02844983333334, "type": "electric_scooter", "fusion_lat": 0.0, "lat": 38.9426755, "name": "fc1b9933ab4fafbc86fe5909d7a24439", "fusion_lon": 0.0, "bike_id": "fc1b9933ab4fafbc86fe5909d7a24439", "is_disabled": 0, "is_reserved": 0}, {"rental_uris": {"ios": "https://dc.lft.to/lastmile_qr_scan", "android": "https://dc.lft.to/lastmile_qr_scan"}, "lon": -76.998789, "type": "electric_scooter", "fusion_lat": 0.0, "lat": 38.907533666666666, "name": "fd8e8c9e32f5d236d550bc0da2ec8201", "fusion_lon": 0.0, "bike_id": "fd8e8c9e32f5d236d550bc0da2ec8201", "is_disabled": 0, "is_reserved": 0}, {"rental_uris": {"ios": "https://dc.lft.to/lastmile_qr_scan", "android": "https://dc.lft.to/lastmile_qr_scan"}, "lon": -77.353109, "type": "electric_bike", "fusion_lat": 0.0, "lat": 38.9501005, "name": "66ca225d43d8673990d2de1f228d05d3", "fusion_lon": 0.0, "bike_id": "66ca225d43d8673990d2de1f228d05d3", "is_disabled": 0, "is_reserved": 0}, {"rental_uris": {"ios": "https://dc.lft.to/lastmile_qr_scan", "android": "https://dc.lft.to/lastmile_qr_scan"}, "lon": -77.01640683333333, "type": "electric_bike", "fusion_lat": 0.0, "lat": 38.903516833333335, "name": "28aa28f0cee9e1eaf6140baeaebf0c45", "fusion_lon": 0.0, "bike_id": "28aa28f0cee9e1eaf6140baeaebf0c45", "is_disabled": 0, "is_reserved": 0}, {"rental_uris": {"ios": "https://dc.lft.to/lastmile_qr_scan", "android": "https://dc.lft.to/lastmile_qr_scan"}, "lon": -76.99489433333333, "type": "electric_scooter", "fusion_lat": 0.0, "lat": 38.862392, "name": "cc1feb1f08f0795383d74a86f425ff6f", "fusion_lon": 0.0, "bike_id": "cc1feb1f08f0795383d74a86f425ff6f", "is_disabled": 0, "is_reserved": 0}, {"rental_uris": {"ios": "https://dc.lft.to/lastmile_qr_scan", "android": "https://dc.lft.to/lastmile_qr_scan"}, "lon": -77.047573, "type": "electric_scooter", "fusion_lat": 0.0, "lat": 38.91786916666667, "name": "3e6a42f0237c7b5243ebfd83e3dd6bf3", "fusion_lon": 0.0, "bike_id": "3e6a42f0237c7b5243ebfd83e3dd6bf3", "is_disabled": 0, "is_reserved": 0}, {"rental_uris": {"ios": "https://dc.lft.to/lastmile_qr_scan", "android": "https://dc.lft.to/lastmile_qr_scan"}, "lon": -76.93178283333333, "type": "electric_scooter", "fusion_lat": 0.0, "lat": 38.8988595, "name": "19325dee7988ad911e1a7e4860f24144", "fusion_lon": 0.0, "bike_id": "19325dee7988ad911e1a7e4860f24144", "is_disabled": 0, "is_reserved": 0}, {"rental_uris": {"ios": "https://dc.lft.to/lastmile_qr_scan", "android": "https://dc.lft.to/lastmile_qr_scan"}, "lon": -77.0297035, "type": "electric_scooter", "fusion_lat": 0.0, "lat": 38.906313, "name": "d341abea07bb9d385d7b4f008155ee38", "fusion_lon": 0.0, "bike_id": "d341abea07bb9d385d7b4f008155ee38", "is_disabled": 0, "is_reserved": 0}, {"rental_uris": {"ios": "https://dc.lft.to/lastmile_qr_scan", "android": "https://dc.lft.to/lastmile_qr_scan"}, "lon": -77.03186533333333, "type": "electric_scooter", "fusion_lat": 0.0, "lat": 38.919265, "name": "ea90a4526540857dcddf2f93ffb72065", "fusion_lon": 0.0, "bike_id": "ea90a4526540857dcddf2f93ffb72065", "is_disabled": 0, "is_reserved": 0}, {"rental_uris": {"ios": "https://dc.lft.to/lastmile_qr_scan", "android": "https://dc.lft.to/lastmile_qr_scan"}, "lon": -76.985675, "type": "electric_scooter", "fusion_lat": 0.0, "lat": 38.8559535, "name": "63cc640a3ea082c01be54de09341b49a", "fusion_lon": 0.0, "bike_id": "63cc640a3ea082c01be54de09341b49a", "is_disabled": 0, "is_reserved": 0}, {"rental_uris": {"ios": "https://dc.lft.to/lastmile_qr_scan", "android": "https://dc.lft.to/lastmile_qr_scan"}, "lon": -77.0172485, "type": "electric_scooter", "fusion_lat": 0.0, "lat": 38.902700833333334, "name": "f03588ee99d76fb8821d0f595586daf8", "fusion_lon": 0.0, "bike_id": "f03588ee99d76fb8821d0f595586daf8", "is_disabled": 0, "is_reserved": 0}, {"rental_uris": {"ios": "https://dc.lft.to/lastmile_qr_scan", "android": "https://dc.lft.to/lastmile_qr_scan"}, "lon": -77.04168983333334, "type": "electric_scooter", "fusion_lat": 0.0, "lat": 38.903614833333336, "name": "d4d4326cef7c8690cf19c01d577e89c2", "fusion_lon": 0.0, "bike_id": "d4d4326cef7c8690cf19c01d577e89c2", "is_disabled": 0, "is_reserved": 0}, {"rental_uris": {"ios": "https://dc.lft.to/lastmile_qr_scan", "android": "https://dc.lft.to/lastmile_qr_scan"}, "lon": -77.0448865, "type": "electric_scooter", "fusion_lat": 0.0, "lat": 38.91953566666667, "name": "1dd691277213742fb2d30b2275d5b536", "fusion_lon": 0.0, "bike_id": "1dd691277213742fb2d30b2275d5b536", "is_disabled": 0, "is_reserved": 0}, {"rental_uris": {"ios": "https://dc.lft.to/lastmile_qr_scan", "android": "https://dc.lft.to/lastmile_qr_scan"}, "lon": -77.0238625, "type": "electric_scooter", "fusion_lat": 0.0, "lat": 38.932299666666665, "name": "744823fa075256a265d5f341dffcbe25", "fusion_lon": 0.0, "bike_id": "744823fa075256a265d5f341dffcbe25", "is_disabled": 0, "is_reserved": 0}, {"rental_uris": {"ios": "https://dc.lft.to/lastmile_qr_scan", "android": "https://dc.lft.to/lastmile_qr_scan"}, "lon": -77.00867016666666, "type": "electric_bike", "fusion_lat": 0.0, "lat": 38.82736, "name": "89d0650697a47a4239b9807a78a7f6d6", "fusion_lon": 0.0, "bike_id": "89d0650697a47a4239b9807a78a7f6d6", "is_disabled": 0, "is_reserved": 0}, {"rental_uris": {"ios": "https://dc.lft.to/lastmile_qr_scan", "android": "https://dc.lft.to/lastmile_qr_scan"}, "lon": -77.0471935, "type": "electric_scooter", "fusion_lat": 0.0, "lat": 38.922427166666665, "name": "965be1f3e8d6ed714ca7c75ac7499009", "fusion_lon": 0.0, "bike_id": "965be1f3e8d6ed714ca7c75ac7499009", "is_disabled": 0, "is_reserved": 0}, {"rental_uris": {"ios": "https://dc.lft.to/lastmile_qr_scan", "android": "https://dc.lft.to/lastmile_qr_scan"}, "lon": -77.025735, "type": "electric_scooter", "fusion_lat": 0.0, "lat": 38.9035245, "name": "735299603719558354203987a89a4b17", "fusion_lon": 0.0, "bike_id": "735299603719558354203987a89a4b17", "is_disabled": 0, "is_reserved": 0}, {"rental_uris": {"ios": "https://dc.lft.to/lastmile_qr_scan", "android": "https://dc.lft.to/lastmile_qr_scan"}, "lon": -77.0258525, "type": "electric_scooter", "fusion_lat": 0.0, "lat": 38.892529333333336, "name": "e41e17bc958619b1b4aa6f2a3394aa61", "fusion_lon": 0.0, "bike_id": "e41e17bc958619b1b4aa6f2a3394aa61", "is_disabled": 0, "is_reserved": 0}, {"rental_uris": {"ios": "https://dc.lft.to/lastmile_qr_scan", "android": "https://dc.lft.to/lastmile_qr_scan"}, "lon": -77.06773433333333, "type": "electric_scooter", "fusion_lat": 0.0, "lat": 38.903686666666665, "name": "179c2e87d5a3d5850d56530a040b775b", "fusion_lon": 0.0, "bike_id": "179c2e87d5a3d5850d56530a040b775b", "is_disabled": 0, "is_reserved": 0}, {"rental_uris": {"ios": "https://dc.lft.to/lastmile_qr_scan", "android": "https://dc.lft.to/lastmile_qr_scan"}, "lon": -77.01952483333334, "type": "electric_scooter", "fusion_lat": 0.0, "lat": 38.924238833333334, "name": "b3f10d8c71247606b47d9949edd7217d", "fusion_lon": 0.0, "bike_id": "b3f10d8c71247606b47d9949edd7217d", "is_disabled": 0, "is_reserved": 0}, {"rental_uris": {"ios": "https://dc.lft.to/lastmile_qr_scan", "android": "https://dc.lft.to/lastmile_qr_scan"}, "lon": -77.04987, "type": "electric_scooter", "fusion_lat": 0.0, "lat": 38.901155333333335, "name": "4287d581182b81171412224fa9e89bcc", "fusion_lon": 0.0, "bike_id": "4287d581182b81171412224fa9e89bcc", "is_disabled": 0, "is_reserved": 0}, {"rental_uris": {"ios": "https://dc.lft.to/lastmile_qr_scan", "android": "https://dc.lft.to/lastmile_qr_scan"}, "lon": -77.03215916666667, "type": "electric_scooter", "fusion_lat": 0.0, "lat": 38.89228083333333, "name": "2bdd1c5b299511a4835b54baaf76629a", "fusion_lon": 0.0, "bike_id": "2bdd1c5b299511a4835b54baaf76629a", "is_disabled": 0, "is_reserved": 0}, {"rental_uris": {"ios": "https://dc.lft.to/lastmile_qr_scan", "android": "https://dc.lft.to/lastmile_qr_scan"}, "lon": -77.00375233333334, "type": "electric_scooter", "fusion_lat": 0.0, "lat": 38.87671016666667, "name": "7a5edd6b86de68657fae6273160e940d", "fusion_lon": 0.0, "bike_id": "7a5edd6b86de68657fae6273160e940d", "is_disabled": 0, "is_reserved": 0}, {"rental_uris": {"ios": "https://dc.lft.to/lastmile_qr_scan", "android": "https://dc.lft.to/lastmile_qr_scan"}, "lon": -77.03210766666666, "type": "electric_scooter", "fusion_lat": 0.0, "lat": 38.92583966666667, "name": "0182ac8fadb7b94483609a790fa1b4c7", "fusion_lon": 0.0, "bike_id": "0182ac8fadb7b94483609a790fa1b4c7", "is_disabled": 0, "is_reserved": 0}, {"rental_uris": {"ios": "https://dc.lft.to/lastmile_qr_scan", "android": "https://dc.lft.to/lastmile_qr_scan"}, "lon": -76.94892633333333, "type": "electric_scooter", "fusion_lat": 0.0, "lat": 38.89528766666667, "name": "6ccc8e05ef657e28e728ef7b825de2d9", "fusion_lon": 0.0, "bike_id": "6ccc8e05ef657e28e728ef7b825de2d9", "is_disabled": 0, "is_reserved": 0}, {"rental_uris": {"ios": "https://dc.lft.to/lastmile_qr_scan", "android": "https://dc.lft.to/lastmile_qr_scan"}, "lon": -77.0099605, "type": "electric_scooter", "fusion_lat": 0.0, "lat": 38.8961445, "name": "52af0b209a9e6b9a9242830192ceb161", "fusion_lon": 0.0, "bike_id": "52af0b209a9e6b9a9242830192ceb161", "is_disabled": 0, "is_reserved": 0}, {"rental_uris": {"ios": "https://dc.lft.to/lastmile_qr_scan", "android": "https://dc.lft.to/lastmile_qr_scan"}, "lon": -77.07070566666667, "type": "electric_scooter", "fusion_lat": 0.0, "lat": 38.9522805, "name": "6624c1db75013186cb5f3308d6f5d15a", "fusion_lon": 0.0, "bike_id": "6624c1db75013186cb5f3308d6f5d15a", "is_disabled": 0, "is_reserved": 0}, {"rental_uris": {"ios": "https://dc.lft.to/lastmile_qr_scan", "android": "https://dc.lft.to/lastmile_qr_scan"}, "lon": -77.028359, "type": "electric_scooter", "fusion_lat": 0.0, "lat": 38.89530233333333, "name": "c3ccb1f6269e2fb14ec3c81e4f066384", "fusion_lon": 0.0, "bike_id": "c3ccb1f6269e2fb14ec3c81e4f066384", "is_disabled": 0, "is_reserved": 0}, {"rental_uris": {"ios": "https://dc.lft.to/lastmile_qr_scan", "android": "https://dc.lft.to/lastmile_qr_scan"}, "lon": -77.04184983333333, "type": "electric_scooter", "fusion_lat": 0.0, "lat": 38.911843833333336, "name": "1e0eb248daa45ed816ce7c85f4773d91", "fusion_lon": 0.0, "bike_id": "1e0eb248daa45ed816ce7c85f4773d91", "is_disabled": 0, "is_reserved": 0}, {"rental_uris": {"ios": "https://dc.lft.to/lastmile_qr_scan", "android": "https://dc.lft.to/lastmile_qr_scan"}, "lon": -77.03970033333333, "type": "electric_scooter", "fusion_lat": 0.0, "lat": 38.91370416666667, "name": "0d3ab4657b62245c0ed9fc830351629b", "fusion_lon": 0.0, "bike_id": "0d3ab4657b62245c0ed9fc830351629b", "is_disabled": 0, "is_reserved": 0}, {"rental_uris": {"ios": "https://dc.lft.to/lastmile_qr_scan", "android": "https://dc.lft.to/lastmile_qr_scan"}, "lon": -76.975967, "type": "electric_scooter", "fusion_lat": 0.0, "lat": 38.90336683333334, "name": "4c932e30fa5ecd9b9cee27ba06071f7a", "fusion_lon": 0.0, "bike_id": "4c932e30fa5ecd9b9cee27ba06071f7a", "is_disabled": 0, "is_reserved": 0}, {"rental_uris": {"ios": "https://dc.lft.to/lastmile_qr_scan", "android": "https://dc.lft.to/lastmile_qr_scan"}, "lon": -77.02601716666666, "type": "electric_scooter", "fusion_lat": 0.0, "lat": 38.88746183333333, "name": "23f0234e40d1135f67a6a24b0e8188ae", "fusion_lon": 0.0, "bike_id": "23f0234e40d1135f67a6a24b0e8188ae", "is_disabled": 0, "is_reserved": 0}, {"rental_uris": {"ios": "https://dc.lft.to/lastmile_qr_scan", "android": "https://dc.lft.to/lastmile_qr_scan"}, "lon": -77.018065, "type": "electric_scooter", "fusion_lat": 0.0, "lat": 38.8875215, "name": "651f113f53443c71b060dadfa9e0d047", "fusion_lon": 0.0, "bike_id": "651f113f53443c71b060dadfa9e0d047", "is_disabled": 0, "is_reserved": 0}, {"rental_uris": {"ios": "https://dc.lft.to/lastmile_qr_scan", "android": "https://dc.lft.to/lastmile_qr_scan"}, "lon": -77.02402216666667, "type": "electric_scooter", "fusion_lat": 0.0, "lat": 38.916001666666666, "name": "873c039ce816fc445789c2eb278908d4", "fusion_lon": 0.0, "bike_id": "873c039ce816fc445789c2eb278908d4", "is_disabled": 0, "is_reserved": 0}, {"rental_uris": {"ios": "https://dc.lft.to/lastmile_qr_scan", "android": "https://dc.lft.to/lastmile_qr_scan"}, "lon": -76.94625, "type": "electric_bike", "fusion_lat": 0.0, "lat": 38.8323785, "name": "60a7bba05fc42d59e877b4c913806ae3", "fusion_lon": 0.0, "bike_id": "60a7bba05fc42d59e877b4c913806ae3", "is_disabled": 0, "is_reserved": 0}, {"rental_uris": {"ios": "https://dc.lft.to/lastmile_qr_scan", "android": "https://dc.lft.to/lastmile_qr_scan"}, "lon": -77.05135866666667, "type": "electric_scooter", "fusion_lat": 0.0, "lat": 38.899224833333335, "name": "1dfeb09c393e2625bd27c27d5a2f2431", "fusion_lon": 0.0, "bike_id": "1dfeb09c393e2625bd27c27d5a2f2431", "is_disabled": 0, "is_reserved": 0}, {"rental_uris": {"ios": "https://dc.lft.to/lastmile_qr_scan", "android": "https://dc.lft.to/lastmile_qr_scan"}, "lon": -77.04363366666666, "type": "electric_scooter", "fusion_lat": 0.0, "lat": 38.933417666666664, "name": "bae48f40958a62695d4449a3047789f5", "fusion_lon": 0.0, "bike_id": "bae48f40958a62695d4449a3047789f5", "is_disabled": 0, "is_reserved": 0}, {"rental_uris": {"ios": "https://dc.lft.to/lastmile_qr_scan", "android": "https://dc.lft.to/lastmile_qr_scan"}, "lon": -77.0093325, "type": "electric_scooter", "fusion_lat": 0.0, "lat": 38.876330333333335, "name": "272c25492af960f2925fdd0ad9209750", "fusion_lon": 0.0, "bike_id": "272c25492af960f2925fdd0ad9209750", "is_disabled": 0, "is_reserved": 0}, {"rental_uris": {"ios": "https://dc.lft.to/lastmile_qr_scan", "android": "https://dc.lft.to/lastmile_qr_scan"}, "lon": -77.03645166666666, "type": "electric_scooter", "fusion_lat": 0.0, "lat": 38.91738733333333, "name": "033174235ef46388a51bebf58a48e8aa", "fusion_lon": 0.0, "bike_id": "033174235ef46388a51bebf58a48e8aa", "is_disabled": 0, "is_reserved": 0}, {"rental_uris": {"ios": "https://dc.lft.to/lastmile_qr_scan", "android": "https://dc.lft.to/lastmile_qr_scan"}, "lon": -77.01368733333334, "type": "electric_scooter", "fusion_lat": 0.0, "lat": 38.86372716666666, "name": "ef3ed1f4ecbc85de95537a993210ead2", "fusion_lon": 0.0, "bike_id": "ef3ed1f4ecbc85de95537a993210ead2", "is_disabled": 0, "is_reserved": 0}, {"rental_uris": {"ios": "https://dc.lft.to/lastmile_qr_scan", "android": "https://dc.lft.to/lastmile_qr_scan"}, "lon": -77.02379916666666, "type": "electric_scooter", "fusion_lat": 0.0, "lat": 38.920492, "name": "34453163123e14c43d76fb45ce84f510", "fusion_lon": 0.0, "bike_id": "34453163123e14c43d76fb45ce84f510", "is_disabled": 0, "is_reserved": 0}, {"rental_uris": {"ios": "https://dc.lft.to/lastmile_qr_scan", "android": "https://dc.lft.to/lastmile_qr_scan"}, "lon": -77.00590033333333, "type": "electric_scooter", "fusion_lat": 0.0, "lat": 38.8742985, "name": "26210759bcef5a5906bb5c0a1c04a5e8", "fusion_lon": 0.0, "bike_id": "26210759bcef5a5906bb5c0a1c04a5e8", "is_disabled": 0, "is_reserved": 0}, {"rental_uris": {"ios": "https://dc.lft.to/lastmile_qr_scan", "android": "https://dc.lft.to/lastmile_qr_scan"}, "lon": -77.141222, "type": "electric_bike", "fusion_lat": 0.0, "lat": 38.816086, "name": "b90c02044a108d0a997b0055baeffa3b", "fusion_lon": 0.0, "bike_id": "b90c02044a108d0a997b0055baeffa3b", "is_disabled": 0, "is_reserved": 0}, {"rental_uris": {"ios": "https://dc.lft.to/lastmile_qr_scan", "android": "https://dc.lft.to/lastmile_qr_scan"}, "lon": -77.02129216666667, "type": "electric_scooter", "fusion_lat": 0.0, "lat": 38.897261, "name": "12288d58c3d184fcaa8ac077796b4e79", "fusion_lon": 0.0, "bike_id": "12288d58c3d184fcaa8ac077796b4e79", "is_disabled": 0, "is_reserved": 0}, {"rental_uris": {"ios": "https://dc.lft.to/lastmile_qr_scan", "android": "https://dc.lft.to/lastmile_qr_scan"}, "lon": -77.02760466666666, "type": "electric_scooter", "fusion_lat": 0.0, "lat": 38.892001666666665, "name": "26b19f0546e508eedc2a9b2557cb710e", "fusion_lon": 0.0, "bike_id": "26b19f0546e508eedc2a9b2557cb710e", "is_disabled": 0, "is_reserved": 0}, {"rental_uris": {"ios": "https://dc.lft.to/lastmile_qr_scan", "android": "https://dc.lft.to/lastmile_qr_scan"}, "lon": -77.0533765, "type": "electric_scooter", "fusion_lat": 0.0, "lat": 38.902414666666665, "name": "4b0daaefbb19a04b54595bcc4568837b", "fusion_lon": 0.0, "bike_id": "4b0daaefbb19a04b54595bcc4568837b", "is_disabled": 0, "is_reserved": 0}, {"rental_uris": {"ios": "https://dc.lft.to/lastmile_qr_scan", "android": "https://dc.lft.to/lastmile_qr_scan"}, "lon": -77.03933583333334, "type": "electric_scooter", "fusion_lat": 0.0, "lat": 38.91762833333333, "name": "9ecbd2c4ddea9835f6e09f959988a5f6", "fusion_lon": 0.0, "bike_id": "9ecbd2c4ddea9835f6e09f959988a5f6", "is_disabled": 0, "is_reserved": 0}, {"rental_uris": {"ios": "https://dc.lft.to/lastmile_qr_scan", "android": "https://dc.lft.to/lastmile_qr_scan"}, "lon": -77.023697, "type": "electric_scooter", "fusion_lat": 0.0, "lat": 38.89861283333333, "name": "e7a8fdfaee9f4477e96449ecc529db03", "fusion_lon": 0.0, "bike_id": "e7a8fdfaee9f4477e96449ecc529db03", "is_disabled": 0, "is_reserved": 0}, {"rental_uris": {"ios": "https://dc.lft.to/lastmile_qr_scan", "android": "https://dc.lft.to/lastmile_qr_scan"}, "lon": -77.04151183333333, "type": "electric_scooter", "fusion_lat": 0.0, "lat": 38.905563, "name": "669b837731ddc9a1b10139833b1cc1ec", "fusion_lon": 0.0, "bike_id": "669b837731ddc9a1b10139833b1cc1ec", "is_disabled": 0, "is_reserved": 0}, {"rental_uris": {"ios": "https://dc.lft.to/lastmile_qr_scan", "android": "https://dc.lft.to/lastmile_qr_scan"}, "lon": -77.03279566666667, "type": "electric_scooter", "fusion_lat": 0.0, "lat": 38.91930166666667, "name": "f1c5c764ed50ac1dd6dc5fc0e8943ea1", "fusion_lon": 0.0, "bike_id": "f1c5c764ed50ac1dd6dc5fc0e8943ea1", "is_disabled": 0, "is_reserved": 0}, {"rental_uris": {"ios": "https://dc.lft.to/lastmile_qr_scan", "android": "https://dc.lft.to/lastmile_qr_scan"}, "lon": -77.03592766666667, "type": "electric_scooter", "fusion_lat": 0.0, "lat": 38.952995, "name": "7df8457184c3743244d72de5583f01aa", "fusion_lon": 0.0, "bike_id": "7df8457184c3743244d72de5583f01aa", "is_disabled": 0, "is_reserved": 0}, {"rental_uris": {"ios": "https://dc.lft.to/lastmile_qr_scan", "android": "https://dc.lft.to/lastmile_qr_scan"}, "lon": -76.99740416666667, "type": "electric_scooter", "fusion_lat": 0.0, "lat": 38.923243166666666, "name": "e99bd45db6ddbcc12f3859dc8ee3b3ad", "fusion_lon": 0.0, "bike_id": "e99bd45db6ddbcc12f3859dc8ee3b3ad", "is_disabled": 0, "is_reserved": 0}, {"rental_uris": {"ios": "https://dc.lft.to/lastmile_qr_scan", "android": "https://dc.lft.to/lastmile_qr_scan"}, "lon": -77.00286533333333, "type": "electric_bike", "fusion_lat": 0.0, "lat": 38.95209, "name": "582d9d9e232309085cfe38711ef32d5e", "fusion_lon": 0.0, "bike_id": "582d9d9e232309085cfe38711ef32d5e", "is_disabled": 0, "is_reserved": 0}, {"rental_uris": {"ios": "https://dc.lft.to/lastmile_qr_scan", "android": "https://dc.lft.to/lastmile_qr_scan"}, "lon": -77.04491566666667, "type": "electric_scooter", "fusion_lat": 0.0, "lat": 38.9041555, "name": "c05973054186e7005bd55f0b24646c4e", "fusion_lon": 0.0, "bike_id": "c05973054186e7005bd55f0b24646c4e", "is_disabled": 0, "is_reserved": 0}, {"rental_uris": {"ios": "https://dc.lft.to/lastmile_qr_scan", "android": "https://dc.lft.to/lastmile_qr_scan"}, "lon": -77.03202033333334, "type": "electric_scooter", "fusion_lat": 0.0, "lat": 38.913249666666665, "name": "91520d7180a8d3f6cc64e6ee9c64d3ce", "fusion_lon": 0.0, "bike_id": "91520d7180a8d3f6cc64e6ee9c64d3ce", "is_disabled": 0, "is_reserved": 0}, {"rental_uris": {"ios": "https://dc.lft.to/lastmile_qr_scan", "android": "https://dc.lft.to/lastmile_qr_scan"}, "lon": -77.01712716666667, "type": "electric_scooter", "fusion_lat": 0.0, "lat": 38.89221933333334, "name": "25b374509fbbe95e4ad9d771ce86a897", "fusion_lon": 0.0, "bike_id": "25b374509fbbe95e4ad9d771ce86a897", "is_disabled": 0, "is_reserved": 0}, {"rental_uris": {"ios": "https://dc.lft.to/lastmile_qr_scan", "android": "https://dc.lft.to/lastmile_qr_scan"}, "lon": -77.03187333333334, "type": "electric_scooter", "fusion_lat": 0.0, "lat": 38.91747483333333, "name": "c94f893aa9f4e7e49b3dc9625dc2406a", "fusion_lon": 0.0, "bike_id": "c94f893aa9f4e7e49b3dc9625dc2406a", "is_disabled": 0, "is_reserved": 0}, {"rental_uris": {"ios": "https://dc.lft.to/lastmile_qr_scan", "android": "https://dc.lft.to/lastmile_qr_scan"}, "lon": -77.04495483333334, "type": "electric_scooter", "fusion_lat": 0.0, "lat": 38.9159405, "name": "adf064e4fabb46c10259c8d79acbd2c7", "fusion_lon": 0.0, "bike_id": "adf064e4fabb46c10259c8d79acbd2c7", "is_disabled": 0, "is_reserved": 0}, {"rental_uris": {"ios": "https://dc.lft.to/lastmile_qr_scan", "android": "https://dc.lft.to/lastmile_qr_scan"}, "lon": -77.09527566666667, "type": "electric_bike", "fusion_lat": 0.0, "lat": 38.8381765, "name": "7e0f74c2e00f065461864bfb55aa4404", "fusion_lon": 0.0, "bike_id": "7e0f74c2e00f065461864bfb55aa4404", "is_disabled": 0, "is_reserved": 0}, {"rental_uris": {"ios": "https://dc.lft.to/lastmile_qr_scan", "android": "https://dc.lft.to/lastmile_qr_scan"}, "lon": -77.02927983333333, "type": "electric_scooter", "fusion_lat": 0.0, "lat": 38.89582016666667, "name": "e73a8c3b1a742492e09169854e230dec", "fusion_lon": 0.0, "bike_id": "e73a8c3b1a742492e09169854e230dec", "is_disabled": 0, "is_reserved": 0}, {"rental_uris": {"ios": "https://dc.lft.to/lastmile_qr_scan", "android": "https://dc.lft.to/lastmile_qr_scan"}, "lon": -77.03839333333333, "type": "electric_scooter", "fusion_lat": 0.0, "lat": 38.9317095, "name": "bc219b74edf3ed3ba5e95a74d9b1251f", "fusion_lon": 0.0, "bike_id": "bc219b74edf3ed3ba5e95a74d9b1251f", "is_disabled": 0, "is_reserved": 0}, {"rental_uris": {"ios": "https://dc.lft.to/lastmile_qr_scan", "android": "https://dc.lft.to/lastmile_qr_scan"}, "lon": -76.95819333333333, "type": "electric_scooter", "fusion_lat": 0.0, "lat": 38.890614166666666, "name": "1fafa40c9a9c8747b6e8c3cb3aed5be4", "fusion_lon": 0.0, "bike_id": "1fafa40c9a9c8747b6e8c3cb3aed5be4", "is_disabled": 0, "is_reserved": 0}, {"rental_uris": {"ios": "https://dc.lft.to/lastmile_qr_scan", "android": "https://dc.lft.to/lastmile_qr_scan"}, "lon": -77.03363433333334, "type": "electric_scooter", "fusion_lat": 0.0, "lat": 38.90124983333333, "name": "3794c92eeadda529008233648a4c2f69", "fusion_lon": 0.0, "bike_id": "3794c92eeadda529008233648a4c2f69", "is_disabled": 0, "is_reserved": 0}, {"rental_uris": {"ios": "https://dc.lft.to/lastmile_qr_scan", "android": "https://dc.lft.to/lastmile_qr_scan"}, "lon": -77.03213333333333, "type": "electric_scooter", "fusion_lat": 0.0, "lat": 38.911188, "name": "87c9df575d5b8fb3b00ee77fa51ef5b4", "fusion_lon": 0.0, "bike_id": "87c9df575d5b8fb3b00ee77fa51ef5b4", "is_disabled": 0, "is_reserved": 0}, {"rental_uris": {"ios": "https://dc.lft.to/lastmile_qr_scan", "android": "https://dc.lft.to/lastmile_qr_scan"}, "lon": -77.02222583333334, "type": "electric_scooter", "fusion_lat": 0.0, "lat": 38.892028833333335, "name": "aa40eb83c53f339aacb21d778b7a18f7", "fusion_lon": 0.0, "bike_id": "aa40eb83c53f339aacb21d778b7a18f7", "is_disabled": 0, "is_reserved": 0}, {"rental_uris": {"ios": "https://dc.lft.to/lastmile_qr_scan", "android": "https://dc.lft.to/lastmile_qr_scan"}, "lon": -77.03828633333333, "type": "electric_scooter", "fusion_lat": 0.0, "lat": 38.920670333333334, "name": "70c9ec37155b590437e028aa030f3b3b", "fusion_lon": 0.0, "bike_id": "70c9ec37155b590437e028aa030f3b3b", "is_disabled": 0, "is_reserved": 0}, {"rental_uris": {"ios": "https://dc.lft.to/lastmile_qr_scan", "android": "https://dc.lft.to/lastmile_qr_scan"}, "lon": -77.032561, "type": "electric_scooter", "fusion_lat": 0.0, "lat": 38.918240833333336, "name": "e8f45a72eba2a41648fc381eb86b874e", "fusion_lon": 0.0, "bike_id": "e8f45a72eba2a41648fc381eb86b874e", "is_disabled": 0, "is_reserved": 0}, {"rental_uris": {"ios": "https://dc.lft.to/lastmile_qr_scan", "android": "https://dc.lft.to/lastmile_qr_scan"}, "lon": -76.99490616666667, "type": "electric_scooter", "fusion_lat": 0.0, "lat": 38.86239966666667, "name": "c4cd04335579b58fd53da510a490f340", "fusion_lon": 0.0, "bike_id": "c4cd04335579b58fd53da510a490f340", "is_disabled": 0, "is_reserved": 0}, {"rental_uris": {"ios": "https://dc.lft.to/lastmile_qr_scan", "android": "https://dc.lft.to/lastmile_qr_scan"}, "lon": -77.05587983333334, "type": "electric_scooter", "fusion_lat": 0.0, "lat": 38.9277625, "name": "814594439de4e37e09c71eff89eb6cba", "fusion_lon": 0.0, "bike_id": "814594439de4e37e09c71eff89eb6cba", "is_disabled": 0, "is_reserved": 0}, {"rental_uris": {"ios": "https://dc.lft.to/lastmile_qr_scan", "android": "https://dc.lft.to/lastmile_qr_scan"}, "lon": -77.0334855, "type": "electric_scooter", "fusion_lat": 0.0, "lat": 38.8851355, "name": "06489919c6005abf7050bbb7b6da5bf8", "fusion_lon": 0.0, "bike_id": "06489919c6005abf7050bbb7b6da5bf8", "is_disabled": 0, "is_reserved": 0}, {"rental_uris": {"ios": "https://dc.lft.to/lastmile_qr_scan", "android": "https://dc.lft.to/lastmile_qr_scan"}, "lon": -77.04158716666667, "type": "electric_scooter", "fusion_lat": 0.0, "lat": 38.90365216666667, "name": "2f4d050da32c7e28ba61bc8a634f4d77", "fusion_lon": 0.0, "bike_id": "2f4d050da32c7e28ba61bc8a634f4d77", "is_disabled": 0, "is_reserved": 0}, {"rental_uris": {"ios": "https://dc.lft.to/lastmile_qr_scan", "android": "https://dc.lft.to/lastmile_qr_scan"}, "lon": -76.947235, "type": "electric_scooter", "fusion_lat": 0.0, "lat": 38.8968245, "name": "a1b209954c96dc29141958f15cd7b0bc", "fusion_lon": 0.0, "bike_id": "a1b209954c96dc29141958f15cd7b0bc", "is_disabled": 0, "is_reserved": 0}, {"rental_uris": {"ios": "https://dc.lft.to/lastmile_qr_scan", "android": "https://dc.lft.to/lastmile_qr_scan"}, "lon": -77.02202633333333, "type": "electric_scooter", "fusion_lat": 0.0, "lat": 38.91537866666667, "name": "b81fbe8dbeb0079edb054f9d10d9c84d", "fusion_lon": 0.0, "bike_id": "b81fbe8dbeb0079edb054f9d10d9c84d", "is_disabled": 0, "is_reserved": 0}, {"rental_uris": {"ios": "https://dc.lft.to/lastmile_qr_scan", "android": "https://dc.lft.to/lastmile_qr_scan"}, "lon": -76.94889583333334, "type": "electric_scooter", "fusion_lat": 0.0, "lat": 38.895137166666665, "name": "94e520c15b435437876b9e33cbe79cf7", "fusion_lon": 0.0, "bike_id": "94e520c15b435437876b9e33cbe79cf7", "is_disabled": 0, "is_reserved": 0}, {"rental_uris": {"ios": "https://dc.lft.to/lastmile_qr_scan", "android": "https://dc.lft.to/lastmile_qr_scan"}, "lon": -77.03294683333333, "type": "electric_scooter", "fusion_lat": 0.0, "lat": 38.90146466666667, "name": "9797499ee7c0d25757fe2c889afc71cd", "fusion_lon": 0.0, "bike_id": "9797499ee7c0d25757fe2c889afc71cd", "is_disabled": 0, "is_reserved": 0}, {"rental_uris": {"ios": "https://dc.lft.to/lastmile_qr_scan", "android": "https://dc.lft.to/lastmile_qr_scan"}, "lon": -77.02792366666667, "type": "electric_scooter", "fusion_lat": 0.0, "lat": 38.92385216666667, "name": "15237a6ef4a2cb4e9dae39df751f77d8", "fusion_lon": 0.0, "bike_id": "15237a6ef4a2cb4e9dae39df751f77d8", "is_disabled": 0, "is_reserved": 0}, {"rental_uris": {"ios": "https://dc.lft.to/lastmile_qr_scan", "android": "https://dc.lft.to/lastmile_qr_scan"}, "lon": -77.04701816666666, "type": "electric_scooter", "fusion_lat": 0.0, "lat": 38.9098365, "name": "19e52623e2db45c1ed4e71ca79fbe043", "fusion_lon": 0.0, "bike_id": "19e52623e2db45c1ed4e71ca79fbe043", "is_disabled": 0, "is_reserved": 0}, {"rental_uris": {"ios": "https://dc.lft.to/lastmile_qr_scan", "android": "https://dc.lft.to/lastmile_qr_scan"}, "lon": -77.05330833333333, "type": "electric_scooter", "fusion_lat": 0.0, "lat": 38.939686333333334, "name": "db945c76d778b8e851f435742cbdcc9e", "fusion_lon": 0.0, "bike_id": "db945c76d778b8e851f435742cbdcc9e", "is_disabled": 0, "is_reserved": 0}, {"rental_uris": {"ios": "https://dc.lft.to/lastmile_qr_scan", "android": "https://dc.lft.to/lastmile_qr_scan"}, "lon": -77.02162783333333, "type": "electric_scooter", "fusion_lat": 0.0, "lat": 38.92831183333333, "name": "f3d1547f4cbfe8a12bf8df5623f208f9", "fusion_lon": 0.0, "bike_id": "f3d1547f4cbfe8a12bf8df5623f208f9", "is_disabled": 0, "is_reserved": 0}, {"rental_uris": {"ios": "https://dc.lft.to/lastmile_qr_scan", "android": "https://dc.lft.to/lastmile_qr_scan"}, "lon": -77.024683, "type": "electric_scooter", "fusion_lat": 0.0, "lat": 38.897601, "name": "754475cef542bca2bd91049ce544a7d3", "fusion_lon": 0.0, "bike_id": "754475cef542bca2bd91049ce544a7d3", "is_disabled": 0, "is_reserved": 0}, {"rental_uris": {"ios": "https://dc.lft.to/lastmile_qr_scan", "android": "https://dc.lft.to/lastmile_qr_scan"}, "lon": -77.017039, "type": "electric_scooter", "fusion_lat": 0.0, "lat": 38.90519316666666, "name": "d47f88c8a947c138322e59070be8dc06", "fusion_lon": 0.0, "bike_id": "d47f88c8a947c138322e59070be8dc06", "is_disabled": 0, "is_reserved": 0}, {"rental_uris": {"ios": "https://dc.lft.to/lastmile_qr_scan", "android": "https://dc.lft.to/lastmile_qr_scan"}, "lon": -76.9984615, "type": "electric_scooter", "fusion_lat": 0.0, "lat": 38.900466, "name": "6ed95f7f7600797f428529b31c1a0978", "fusion_lon": 0.0, "bike_id": "6ed95f7f7600797f428529b31c1a0978", "is_disabled": 0, "is_reserved": 0}, {"rental_uris": {"ios": "https://dc.lft.to/lastmile_qr_scan", "android": "https://dc.lft.to/lastmile_qr_scan"}, "lon": -76.9885205, "type": "electric_scooter", "fusion_lat": 0.0, "lat": 38.903466, "name": "2bc1e4b8d6e691cb8fc53aecaedfbac5", "fusion_lon": 0.0, "bike_id": "2bc1e4b8d6e691cb8fc53aecaedfbac5", "is_disabled": 0, "is_reserved": 0}, {"rental_uris": {"ios": "https://dc.lft.to/lastmile_qr_scan", "android": "https://dc.lft.to/lastmile_qr_scan"}, "lon": -77.07617833333333, "type": "electric_scooter", "fusion_lat": 0.0, "lat": 38.912615, "name": "03b573a9c87dae8183c27074427b551d", "fusion_lon": 0.0, "bike_id": "03b573a9c87dae8183c27074427b551d", "is_disabled": 0, "is_reserved": 0}, {"rental_uris": {"ios": "https://dc.lft.to/lastmile_qr_scan", "android": "https://dc.lft.to/lastmile_qr_scan"}, "lon": -77.03838183333333, "type": "electric_scooter", "fusion_lat": 0.0, "lat": 38.911026166666666, "name": "ec58a8a24fb70b10db8e7c845a6d7ca2", "fusion_lon": 0.0, "bike_id": "ec58a8a24fb70b10db8e7c845a6d7ca2", "is_disabled": 0, "is_reserved": 0}, {"rental_uris": {"ios": "https://dc.lft.to/lastmile_qr_scan", "android": "https://dc.lft.to/lastmile_qr_scan"}, "lon": -77.036611, "type": "electric_scooter", "fusion_lat": 0.0, "lat": 38.931609, "name": "fbe1d8aa91f38a6e7fdebb07215dc343", "fusion_lon": 0.0, "bike_id": "fbe1d8aa91f38a6e7fdebb07215dc343", "is_disabled": 0, "is_reserved": 0}, {"rental_uris": {"ios": "https://dc.lft.to/lastmile_qr_scan", "android": "https://dc.lft.to/lastmile_qr_scan"}, "lon": -77.01440566666666, "type": "electric_scooter", "fusion_lat": 0.0, "lat": 38.905801, "name": "789445a3ab9a7d49dcd563e4cefba52c", "fusion_lon": 0.0, "bike_id": "789445a3ab9a7d49dcd563e4cefba52c", "is_disabled": 0, "is_reserved": 0}, {"rental_uris": {"ios": "https://dc.lft.to/lastmile_qr_scan", "android": "https://dc.lft.to/lastmile_qr_scan"}, "lon": -77.079406, "type": "electric_scooter", "fusion_lat": 0.0, "lat": 38.9487625, "name": "bf902508245cc73cdad8fa66c37ebc7b", "fusion_lon": 0.0, "bike_id": "bf902508245cc73cdad8fa66c37ebc7b", "is_disabled": 0, "is_reserved": 0}, {"rental_uris": {"ios": "https://dc.lft.to/lastmile_qr_scan", "android": "https://dc.lft.to/lastmile_qr_scan"}, "lon": -77.049258, "type": "electric_scooter", "fusion_lat": 0.0, "lat": 38.90076833333333, "name": "3dfff4fbc8321ebeb5e386221a8a5d8d", "fusion_lon": 0.0, "bike_id": "3dfff4fbc8321ebeb5e386221a8a5d8d", "is_disabled": 0, "is_reserved": 0}, {"rental_uris": {"ios": "https://dc.lft.to/lastmile_qr_scan", "android": "https://dc.lft.to/lastmile_qr_scan"}, "lon": -76.92996766666667, "type": "electric_bike", "fusion_lat": 0.0, "lat": 38.8879955, "name": "8b9cc859a687143a0a421be20f55423d", "fusion_lon": 0.0, "bike_id": "8b9cc859a687143a0a421be20f55423d", "is_disabled": 0, "is_reserved": 0}, {"rental_uris": {"ios": "https://dc.lft.to/lastmile_qr_scan", "android": "https://dc.lft.to/lastmile_qr_scan"}, "lon": -77.00718583333334, "type": "electric_scooter", "fusion_lat": 0.0, "lat": 38.913511, "name": "c52d98b9ecefbc693d339262c1c04e7f", "fusion_lon": 0.0, "bike_id": "c52d98b9ecefbc693d339262c1c04e7f", "is_disabled": 0, "is_reserved": 0}, {"rental_uris": {"ios": "https://dc.lft.to/lastmile_qr_scan", "android": "https://dc.lft.to/lastmile_qr_scan"}, "lon": -77.05272616666667, "type": "electric_scooter", "fusion_lat": 0.0, "lat": 38.910276, "name": "531497523f11ff81247b86018cf9d3b2", "fusion_lon": 0.0, "bike_id": "531497523f11ff81247b86018cf9d3b2", "is_disabled": 0, "is_reserved": 0}, {"rental_uris": {"ios": "https://dc.lft.to/lastmile_qr_scan", "android": "https://dc.lft.to/lastmile_qr_scan"}, "lon": -77.04054733333334, "type": "electric_scooter", "fusion_lat": 0.0, "lat": 38.919072666666665, "name": "2a701ee6d22f1266d557b5068e9eb598", "fusion_lon": 0.0, "bike_id": "2a701ee6d22f1266d557b5068e9eb598", "is_disabled": 0, "is_reserved": 0}, {"rental_uris": {"ios": "https://dc.lft.to/lastmile_qr_scan", "android": "https://dc.lft.to/lastmile_qr_scan"}, "lon": -77.00207633333333, "type": "electric_scooter", "fusion_lat": 0.0, "lat": 38.90844166666667, "name": "9c337ff09e2dcca165c269716bed303f", "fusion_lon": 0.0, "bike_id": "9c337ff09e2dcca165c269716bed303f", "is_disabled": 0, "is_reserved": 0}, {"rental_uris": {"ios": "https://dc.lft.to/lastmile_qr_scan", "android": "https://dc.lft.to/lastmile_qr_scan"}, "lon": -77.02831666666667, "type": "electric_scooter", "fusion_lat": 0.0, "lat": 38.93249683333333, "name": "0efa071a52d3ebf8de47076a20c2ce24", "fusion_lon": 0.0, "bike_id": "0efa071a52d3ebf8de47076a20c2ce24", "is_disabled": 0, "is_reserved": 0}, {"rental_uris": {"ios": "https://dc.lft.to/lastmile_qr_scan", "android": "https://dc.lft.to/lastmile_qr_scan"}, "lon": -77.01605683333334, "type": "electric_scooter", "fusion_lat": 0.0, "lat": 38.896303, "name": "b20826a3304e4fafd6baf957d0f9eb21", "fusion_lon": 0.0, "bike_id": "b20826a3304e4fafd6baf957d0f9eb21", "is_disabled": 0, "is_reserved": 0}, {"rental_uris": {"ios": "https://dc.lft.to/lastmile_qr_scan", "android": "https://dc.lft.to/lastmile_qr_scan"}, "lon": -77.03074383333333, "type": "electric_scooter", "fusion_lat": 0.0, "lat": 38.8997205, "name": "3df4e6d89ea59c42e63fe334a0183ab3", "fusion_lon": 0.0, "bike_id": "3df4e6d89ea59c42e63fe334a0183ab3", "is_disabled": 0, "is_reserved": 0}, {"rental_uris": {"ios": "https://dc.lft.to/lastmile_qr_scan", "android": "https://dc.lft.to/lastmile_qr_scan"}, "lon": -76.9373785, "type": "electric_scooter", "fusion_lat": 0.0, "lat": 38.890244333333335, "name": "4b934db6ff0e2ad351d672240bb82a9e", "fusion_lon": 0.0, "bike_id": "4b934db6ff0e2ad351d672240bb82a9e", "is_disabled": 0, "is_reserved": 0}, {"rental_uris": {"ios": "https://dc.lft.to/lastmile_qr_scan", "android": "https://dc.lft.to/lastmile_qr_scan"}, "lon": -76.99676883333333, "type": "electric_scooter", "fusion_lat": 0.0, "lat": 38.91020566666667, "name": "be014194e1d0ea85a7058782277f8dc7", "fusion_lon": 0.0, "bike_id": "be014194e1d0ea85a7058782277f8dc7", "is_disabled": 0, "is_reserved": 0}, {"rental_uris": {"ios": "https://dc.lft.to/lastmile_qr_scan", "android": "https://dc.lft.to/lastmile_qr_scan"}, "lon": -76.99567333333333, "type": "electric_scooter", "fusion_lat": 0.0, "lat": 38.928835666666664, "name": "a5f293d4abc023c22f50ee4866679fcc", "fusion_lon": 0.0, "bike_id": "a5f293d4abc023c22f50ee4866679fcc", "is_disabled": 0, "is_reserved": 0}, {"rental_uris": {"ios": "https://dc.lft.to/lastmile_qr_scan", "android": "https://dc.lft.to/lastmile_qr_scan"}, "lon": -77.02389266666667, "type": "electric_scooter", "fusion_lat": 0.0, "lat": 38.901196666666664, "name": "1a6220c0236cc70b4512b2508abf4e34", "fusion_lon": 0.0, "bike_id": "1a6220c0236cc70b4512b2508abf4e34", "is_disabled": 0, "is_reserved": 0}, {"rental_uris": {"ios": "https://dc.lft.to/lastmile_qr_scan", "android": "https://dc.lft.to/lastmile_qr_scan"}, "lon": -76.9387155, "type": "electric_scooter", "fusion_lat": 0.0, "lat": 38.90087616666667, "name": "9490d3bf19fef4c02ae070476f21dc34", "fusion_lon": 0.0, "bike_id": "9490d3bf19fef4c02ae070476f21dc34", "is_disabled": 0, "is_reserved": 0}, {"rental_uris": {"ios": "https://dc.lft.to/lastmile_qr_scan", "android": "https://dc.lft.to/lastmile_qr_scan"}, "lon": -77.0373105, "type": "electric_scooter", "fusion_lat": 0.0, "lat": 38.91121833333333, "name": "382c8f9d6fb6316f42478c0a6a824852", "fusion_lon": 0.0, "bike_id": "382c8f9d6fb6316f42478c0a6a824852", "is_disabled": 0, "is_reserved": 0}, {"rental_uris": {"ios": "https://dc.lft.to/lastmile_qr_scan", "android": "https://dc.lft.to/lastmile_qr_scan"}, "lon": -77.01210833333333, "type": "electric_scooter", "fusion_lat": 0.0, "lat": 38.90008316666667, "name": "f559b776f2fe4cb69d68d5f8a6a3f311", "fusion_lon": 0.0, "bike_id": "f559b776f2fe4cb69d68d5f8a6a3f311", "is_disabled": 0, "is_reserved": 0}, {"rental_uris": {"ios": "https://dc.lft.to/lastmile_qr_scan", "android": "https://dc.lft.to/lastmile_qr_scan"}, "lon": -77.02688316666666, "type": "electric_scooter", "fusion_lat": 0.0, "lat": 38.8922985, "name": "5afe45d188db0288ddcec4f844165f0d", "fusion_lon": 0.0, "bike_id": "5afe45d188db0288ddcec4f844165f0d", "is_disabled": 0, "is_reserved": 0}, {"rental_uris": {"ios": "https://dc.lft.to/lastmile_qr_scan", "android": "https://dc.lft.to/lastmile_qr_scan"},