{"data": {"bikes": [{"is_disabled": 0, "fusion_lat": 0.0, "lat": 38.875054666666664, "type": "electric_bike", "lon": -77.0258535, "is_reserved": 0, "fusion_lon": 0.0, "bike_id": "5036c5653d84545b2bde64c03f4d878d", "name": "5036c5653d84545b2bde64c03f4d878d", "rental_uris": {"ios": "https://dc.lft.to/lastmile_qr_scan", "android": "https://dc.lft.to/lastmile_qr_scan"}}, {"is_disabled": 0, "fusion_lat": 0.0, "lat": 38.919631333333335, "type": "electric_scooter", "lon": -77.043213, "is_reserved": 0, "fusion_lon": 0.0, "bike_id": "7b1c2adb88c1bfb21c5fc49bfee3f753", "name": "7b1c2adb88c1bfb21c5fc49bfee3f753", "rental_uris": {"ios": "https://dc.lft.to/lastmile_qr_scan", "android": "https://dc.lft.to/lastmile_qr_scan"}}, {"is_disabled": 0, "fusion_lat": 0.0, "lat": 38.916496, "type": "electric_scooter", "lon": -77.02266316666666, "is_reserved": 0, "fusion_lon": 0.0, "bike_id": "2af08a5bbf3df26068b569178d3640f7", "name": "2af08a5bbf3df26068b569178d3640f7", "rental_uris": {"ios": "https://dc.lft.to/lastmile_qr_scan", "android": "https://dc.lft.to/lastmile_qr_scan"}}, {"is_disabled": 0, "fusion_lat": 0.0, "lat": 38.908316666666664, "type": "electric_scooter", "lon": -77.085009, "is_reserved": 0, "fusion_lon": 0.0, "bike_id": "6ab8e89a6776e8c452abe9abc7a03ff3", "name": "6ab8e89a6776e8c452abe9abc7a03ff3", "rental_uris": {"ios": "https://dc.lft.to/lastmile_qr_scan", "android": "https://dc.lft.to/lastmile_qr_scan"}}, {"is_disabled": 0, "fusion_lat": 0.0, "lat": 38.9072905, "type": "electric_scooter", "lon": -77.01072333333333, "is_reserved": 0, "fusion_lon": 0.0, "bike_id": "bb0ce48ea8ba2919865f66be2e29755e", "name": "bb0ce48ea8ba2919865f66be2e29755e", "rental_uris": {"ios": "https://dc.lft.to/lastmile_qr_scan", "android": "https://dc.lft.to/lastmile_qr_scan"}}, {"is_disabled": 0, "fusion_lat": 0.0, "lat": 38.9057975, "type": "electric_scooter", "lon": -77.04870666666666, "is_reserved": 0, "fusion_lon": 0.0, "bike_id": "039f6f0adb40c07e6284b4044d9b8f13", "name": "039f6f0adb40c07e6284b4044d9b8f13", "rental_uris": {"ios": "https://dc.lft.to/lastmile_qr_scan", "android": "https://dc.lft.to/lastmile_qr_scan"}}, {"is_disabled": 0, "fusion_lat": 0.0, "lat": 39.015948, "type": "electric_bike", "lon": -77.04428583333333, "is_reserved": 0, "fusion_lon": 0.0, "bike_id": "04d06ff046e000b6d788f14d4e3f08b9", "name": "04d06ff046e000b6d788f14d4e3f08b9", "rental_uris": {"ios": "https://dc.lft.to/lastmile_qr_scan", "android": "https://dc.lft.to/lastmile_qr_scan"}}, {"is_disabled": 0, "fusion_lat": 0.0, "lat": 38.93907933333333, "type": "electric_scooter", "lon": -77.02976433333333, "is_reserved": 0, "fusion_lon": 0.0, "bike_id": "42b94d84a215d6f55cc42ce507640e2f", "name": "42b94d84a215d6f55cc42ce507640e2f", "rental_uris": {"ios": "https://dc.lft.to/lastmile_qr_scan", "android": "https://dc.lft.to/lastmile_qr_scan"}}, {"is_disabled": 0, "fusion_lat": 0.0, "lat": 38.90876433333333, "type": "electric_scooter", "lon": -77.02307316666666, "is_reserved": 0, "fusion_lon": 0.0, "bike_id": "a6a7e64cdbb96af2843f544d915414be", "name": "a6a7e64cdbb96af2843f544d915414be", "rental_uris": {"ios": "https://dc.lft.to/lastmile_qr_scan", "android": "https://dc.lft.to/lastmile_qr_scan"}}, {"is_disabled": 0, "fusion_lat": 0.0, "lat": 38.8813005, "type": "electric_scooter", "lon": -77.02676533333333, "is_reserved": 0, "fusion_lon": 0.0, "bike_id": "df1b1fd5c6b573eb6f168f068b99c42a", "name": "df1b1fd5c6b573eb6f168f068b99c42a", "rental_uris": {"ios": "https://dc.lft.to/lastmile_qr_scan", "android": "https://dc.lft.to/lastmile_qr_scan"}}, {"is_disabled": 0, "fusion_lat": 0.0, "lat": 38.89124733333333, "type": "electric_scooter", "lon": -76.94089033333333, "is_reserved": 0, "fusion_lon": 0.0, "bike_id": "d39da1ac1cd0300e0e75f95b8dfa2639", "name": "d39da1ac1cd0300e0e75f95b8dfa2639", "rental_uris": {"ios": "https://dc.lft.to/lastmile_qr_scan", "android": "https://dc.lft.to/lastmile_qr_scan"}}, {"is_disabled": 0, "fusion_lat": 0.0, "lat": 38.920685666666664, "type": "electric_scooter", "lon": -77.03459666666667, "is_reserved": 0, "fusion_lon": 0.0, "bike_id": "e3bc3673bccff2788a6877f6d3878eea", "name": "e3bc3673bccff2788a6877f6d3878eea", "rental_uris": {"ios": "https://dc.lft.to/lastmile_qr_scan", "android": "https://dc.lft.to/lastmile_qr_scan"}}, {"is_disabled": 0, "fusion_lat": 0.0, "lat": 38.90254133333333, "type": "electric_scooter", "lon": -76.98687783333334, "is_reserved": 0, "fusion_lon": 0.0, "bike_id": "eb3ad3ef06feb08825bef92f59e793f9", "name": "eb3ad3ef06feb08825bef92f59e793f9", "rental_uris": {"ios": "https://dc.lft.to/lastmile_qr_scan", "android": "https://dc.lft.to/lastmile_qr_scan"}}, {"is_disabled": 0, "fusion_lat": 0.0, "lat": 38.93522733333333, "type": "electric_scooter", "lon": -77.03262, "is_reserved": 0, "fusion_lon": 0.0, "bike_id": "585f498897482b5a9455d059588a304a", "name": "585f498897482b5a9455d059588a304a", "rental_uris": {"ios": "https://dc.lft.to/lastmile_qr_scan", "android": "https://dc.lft.to/lastmile_qr_scan"}}, {"is_disabled": 0, "fusion_lat": 0.0, "lat": 38.85516233333333, "type": "electric_bike", "lon": -77.12023616666667, "is_reserved": 0, "fusion_lon": 0.0, "bike_id": "d208853d4bfddf3d9d5e0747bc9a7eb9", "name": "d208853d4bfddf3d9d5e0747bc9a7eb9", "rental_uris": {"ios": "https://dc.lft.to/lastmile_qr_scan", "android": "https://dc.lft.to/lastmile_qr_scan"}}, {"is_disabled": 0, "fusion_lat": 0.0, "lat": 38.909667166666665, "type": "electric_scooter", "lon": -77.039735, "is_reserved": 0, "fusion_lon": 0.0, "bike_id": "e7cac85ff4f6456972f6ca0896a16804", "name": "e7cac85ff4f6456972f6ca0896a16804", "rental_uris": {"ios": "https://dc.lft.to/lastmile_qr_scan", "android": "https://dc.lft.to/lastmile_qr_scan"}}, {"is_disabled": 0, "fusion_lat": 0.0, "lat": 38.99941883333334, "type": "electric_bike", "lon": -77.01769083333333, "is_reserved": 0, "fusion_lon": 0.0, "bike_id": "55ef6ed4c80829c2f835bff0f23f4e83", "name": "55ef6ed4c80829c2f835bff0f23f4e83", "rental_uris": {"ios": "https://dc.lft.to/lastmile_qr_scan", "android": "https://dc.lft.to/lastmile_qr_scan"}}, {"is_disabled": 0, "fusion_lat": 0.0, "lat": 38.90282116666667, "type": "electric_scooter", "lon": -77.04134066666667, "is_reserved": 0, "fusion_lon": 0.0, "bike_id": "871767cd285a5601eb04b53ece9c0b8f", "name": "871767cd285a5601eb04b53ece9c0b8f", "rental_uris": {"ios": "https://dc.lft.to/lastmile_qr_scan", "android": "https://dc.lft.to/lastmile_qr_scan"}}, {"is_disabled": 0, "fusion_lat": 0.0, "lat": 38.91632166666667, "type": "electric_scooter", "lon": -77.04809033333333, "is_reserved": 0, "fusion_lon": 0.0, "bike_id": "f4bb73a9fce8e049e2f3e0f8331d2719", "name": "f4bb73a9fce8e049e2f3e0f8331d2719", "rental_uris": {"ios": "https://dc.lft.to/lastmile_qr_scan", "android": "https://dc.lft.to/lastmile_qr_scan"}}, {"is_disabled": 0, "fusion_lat": 0.0, "lat": 38.90569966666666, "type": "electric_scooter", "lon": -77.03464383333333, "is_reserved": 0, "fusion_lon": 0.0, "bike_id": "96e2ef3be97adbee1354409c30424a46", "name": "96e2ef3be97adbee1354409c30424a46", "rental_uris": {"ios": "https://dc.lft.to/lastmile_qr_scan", "android": "https://dc.lft.to/lastmile_qr_scan"}}, {"is_disabled": 0, "fusion_lat": 0.0, "lat": 38.96706866666667, "type": "electric_bike", "lon": -77.1021955, "is_reserved": 0, "fusion_lon": 0.0, "bike_id": "48e0f330f8386d402a5abac9d206c74e", "name": "48e0f330f8386d402a5abac9d206c74e", "rental_uris": {"ios": "https://dc.lft.to/lastmile_qr_scan", "android": "https://dc.lft.to/lastmile_qr_scan"}}, {"is_disabled": 0, "fusion_lat": 0.0, "lat": 38.8976125, "type": "electric_scooter", "lon": -77.02694483333333, "is_reserved": 0, "fusion_lon": 0.0, "bike_id": "eee3ea78fd66b2d6dfb0c311bab29170", "name": "eee3ea78fd66b2d6dfb0c311bab29170", "rental_uris": {"ios": "https://dc.lft.to/lastmile_qr_scan", "android": "https://dc.lft.to/lastmile_qr_scan"}}, {"is_disabled": 0, "fusion_lat": 0.0, "lat": 38.91983716666667, "type": "electric_scooter", "lon": -77.04166666666667, "is_reserved": 0, "fusion_lon": 0.0, "bike_id": "4276d28c31bb13f47084249e574188df", "name": "4276d28c31bb13f47084249e574188df", "rental_uris": {"ios": "https://dc.lft.to/lastmile_qr_scan", "android": "https://dc.lft.to/lastmile_qr_scan"}}, {"is_disabled": 0, "fusion_lat": 0.0, "lat": 38.903703166666666, "type": "electric_scooter", "lon": -77.0418705, "is_reserved": 0, "fusion_lon": 0.0, "bike_id": "7bb54ae890bca9d4f7a5e1fd8f276fb9", "name": "7bb54ae890bca9d4f7a5e1fd8f276fb9", "rental_uris": {"ios": "https://dc.lft.to/lastmile_qr_scan", "android": "https://dc.lft.to/lastmile_qr_scan"}}, {"is_disabled": 0, "fusion_lat": 0.0, "lat": 38.895252, "type": "electric_scooter", "lon": -76.98077066666667, "is_reserved": 0, "fusion_lon": 0.0, "bike_id": "5b0e1a38810bb3dcef1dc0770b8aedff", "name": "5b0e1a38810bb3dcef1dc0770b8aedff", "rental_uris": {"ios": "https://dc.lft.to/lastmile_qr_scan", "android": "https://dc.lft.to/lastmile_qr_scan"}}, {"is_disabled": 0, "fusion_lat": 0.0, "lat": 38.921067, "type": "electric_scooter", "lon": -77.04217133333333, "is_reserved": 0, "fusion_lon": 0.0, "bike_id": "3eec384a9b8ff618512ae6d5b24c4450", "name": "3eec384a9b8ff618512ae6d5b24c4450", "rental_uris": {"ios": "https://dc.lft.to/lastmile_qr_scan", "android": "https://dc.lft.to/lastmile_qr_scan"}}, {"is_disabled": 0, "fusion_lat": 0.0, "lat": 38.914038, "type": "electric_scooter", "lon": -77.02047516666667, "is_reserved": 0, "fusion_lon": 0.0, "bike_id": "85299887fe2677987f3ece95c0e3c896", "name": "85299887fe2677987f3ece95c0e3c896", "rental_uris": {"ios": "https://dc.lft.to/lastmile_qr_scan", "android": "https://dc.lft.to/lastmile_qr_scan"}}, {"is_disabled": 0, "fusion_lat": 0.0, "lat": 38.861618166666666, "type": "electric_bike", "lon": -77.13092066666667, "is_reserved": 0, "fusion_lon": 0.0, "bike_id": "1245206cbc4ca6230992ad446facf756", "name": "1245206cbc4ca6230992ad446facf756", "rental_uris": {"ios": "https://dc.lft.to/lastmile_qr_scan", "android": "https://dc.lft.to/lastmile_qr_scan"}}, {"is_disabled": 0, "fusion_lat": 0.0, "lat": 38.901905166666666, "type": "electric_scooter", "lon": -77.021856, "is_reserved": 0, "fusion_lon": 0.0, "bike_id": "b640be33a1c7d39ec5f12f4383f2e00f", "name": "b640be33a1c7d39ec5f12f4383f2e00f", "rental_uris": {"ios": "https://dc.lft.to/lastmile_qr_scan", "android": "https://dc.lft.to/lastmile_qr_scan"}}, {"is_disabled": 0, "fusion_lat": 0.0, "lat": 38.89606366666667, "type": "electric_scooter", "lon": -77.03165433333334, "is_reserved": 0, "fusion_lon": 0.0, "bike_id": "4959daf27c7522bd7997f51f12b17bcd", "name": "4959daf27c7522bd7997f51f12b17bcd", "rental_uris": {"ios": "https://dc.lft.to/lastmile_qr_scan", "android": "https://dc.lft.to/lastmile_qr_scan"}}, {"is_disabled": 0, "fusion_lat": 0.0, "lat": 38.956419333333336, "type": "electric_scooter", "lon": -77.03297, "is_reserved": 0, "fusion_lon": 0.0, "bike_id": "cebe62c9e58eb1c8cdaf21667dc2ed04", "name": "cebe62c9e58eb1c8cdaf21667dc2ed04", "rental_uris": {"ios": "https://dc.lft.to/lastmile_qr_scan", "android": "https://dc.lft.to/lastmile_qr_scan"}}, {"is_disabled": 0, "fusion_lat": 0.0, "lat": 38.9267645, "type": "electric_scooter", "lon": -77.03048716666666, "is_reserved": 0, "fusion_lon": 0.0, "bike_id": "989c82fd58e3c753d3cc36b288a381e4", "name": "989c82fd58e3c753d3cc36b288a381e4", "rental_uris": {"ios": "https://dc.lft.to/lastmile_qr_scan", "android": "https://dc.lft.to/lastmile_qr_scan"}}, {"is_disabled": 0, "fusion_lat": 0.0, "lat": 38.90120433333333, "type": "electric_scooter", "lon": -77.0217965, "is_reserved": 0, "fusion_lon": 0.0, "bike_id": "edc3fbcd7d30761a0b8affe44e7a5890", "name": "edc3fbcd7d30761a0b8affe44e7a5890", "rental_uris": {"ios": "https://dc.lft.to/lastmile_qr_scan", "android": "https://dc.lft.to/lastmile_qr_scan"}}, {"is_disabled": 0, "fusion_lat": 0.0, "lat": 38.935991, "type": "electric_scooter", "lon": -77.03816433333333, "is_reserved": 0, "fusion_lon": 0.0, "bike_id": "6db621b03ab8454ee79d9609c728af6d", "name": "6db621b03ab8454ee79d9609c728af6d", "rental_uris": {"ios": "https://dc.lft.to/lastmile_qr_scan", "android": "https://dc.lft.to/lastmile_qr_scan"}}, {"is_disabled": 0, "fusion_lat": 0.0, "lat": 38.9178365, "type": "electric_scooter", "lon": -77.02303183333333, "is_reserved": 0, "fusion_lon": 0.0, "bike_id": "d63d3dfa115c07e1843e5f5b6d71e274", "name": "d63d3dfa115c07e1843e5f5b6d71e274", "rental_uris": {"ios": "https://dc.lft.to/lastmile_qr_scan", "android": "https://dc.lft.to/lastmile_qr_scan"}}, {"is_disabled": 0, "fusion_lat": 0.0, "lat": 38.902849833333335, "type": "electric_scooter", "lon": -77.03848183333334, "is_reserved": 0, "fusion_lon": 0.0, "bike_id": "ba15ec609b5b52ab4e9c6935c1050981", "name": "ba15ec609b5b52ab4e9c6935c1050981", "rental_uris": {"ios": "https://dc.lft.to/lastmile_qr_scan", "android": "https://dc.lft.to/lastmile_qr_scan"}}, {"is_disabled": 0, "fusion_lat": 0.0, "lat": 38.845882333333336, "type": "electric_scooter", "lon": -76.98158533333333, "is_reserved": 0, "fusion_lon": 0.0, "bike_id": "e40616cd49d1e2500077150fc11b334a", "name": "e40616cd49d1e2500077150fc11b334a", "rental_uris": {"ios": "https://dc.lft.to/lastmile_qr_scan", "android": "https://dc.lft.to/lastmile_qr_scan"}}, {"is_disabled": 0, "fusion_lat": 0.0, "lat": 38.921805166666665, "type": "electric_scooter", "lon": -77.04705916666667, "is_reserved": 0, "fusion_lon": 0.0, "bike_id": "c197efc71b14cd4a42a12f261e376a79", "name": "c197efc71b14cd4a42a12f261e376a79", "rental_uris": {"ios": "https://dc.lft.to/lastmile_qr_scan", "android": "https://dc.lft.to/lastmile_qr_scan"}}, {"is_disabled": 0, "fusion_lat": 0.0, "lat": 38.903578333333336, "type": "electric_scooter", "lon": -77.03663966666667, "is_reserved": 0, "fusion_lon": 0.0, "bike_id": "e45cbf868129bcf63229ced5082181c9", "name": "e45cbf868129bcf63229ced5082181c9", "rental_uris": {"ios": "https://dc.lft.to/lastmile_qr_scan", "android": "https://dc.lft.to/lastmile_qr_scan"}}, {"is_disabled": 0, "fusion_lat": 0.0, "lat": 38.93513316666667, "type": "electric_scooter", "lon": -77.03292733333333, "is_reserved": 0, "fusion_lon": 0.0, "bike_id": "c11be8165f4020e61b9746e3ff529a51", "name": "c11be8165f4020e61b9746e3ff529a51", "rental_uris": {"ios": "https://dc.lft.to/lastmile_qr_scan", "android": "https://dc.lft.to/lastmile_qr_scan"}}, {"is_disabled": 0, "fusion_lat": 0.0, "lat": 38.91830266666667, "type": "electric_scooter", "lon": -77.035288, "is_reserved": 0, "fusion_lon": 0.0, "bike_id": "ad0f37e9ce8414aba9c9873c4cfc4c1f", "name": "ad0f37e9ce8414aba9c9873c4cfc4c1f", "rental_uris": {"ios": "https://dc.lft.to/lastmile_qr_scan", "android": "https://dc.lft.to/lastmile_qr_scan"}}, {"is_disabled": 0, "fusion_lat": 0.0, "lat": 38.886063, "type": "electric_scooter", "lon": -77.04508783333333, "is_reserved": 0, "fusion_lon": 0.0, "bike_id": "8f39b6c433936c66ac559e45159a26e7", "name": "8f39b6c433936c66ac559e45159a26e7", "rental_uris": {"ios": "https://dc.lft.to/lastmile_qr_scan", "android": "https://dc.lft.to/lastmile_qr_scan"}}, {"is_disabled": 0, "fusion_lat": 0.0, "lat": 38.9006725, "type": "electric_scooter", "lon": -77.01291116666667, "is_reserved": 0, "fusion_lon": 0.0, "bike_id": "217bf2dbd84f671b288d04ccde62e219", "name": "217bf2dbd84f671b288d04ccde62e219", "rental_uris": {"ios": "https://dc.lft.to/lastmile_qr_scan", "android": "https://dc.lft.to/lastmile_qr_scan"}}, {"is_disabled": 0, "fusion_lat": 0.0, "lat": 38.91681833333333, "type": "electric_scooter", "lon": -77.03191933333333, "is_reserved": 0, "fusion_lon": 0.0, "bike_id": "0caded719df4c32b63867b706dd592d5", "name": "0caded719df4c32b63867b706dd592d5", "rental_uris": {"ios": "https://dc.lft.to/lastmile_qr_scan", "android": "https://dc.lft.to/lastmile_qr_scan"}}, {"is_disabled": 0, "fusion_lat": 0.0, "lat": 38.924205666666666, "type": "electric_scooter", "lon": -77.05623433333334, "is_reserved": 0, "fusion_lon": 0.0, "bike_id": "17d781ec72ed0e34b66802e3c2f0456e", "name": "17d781ec72ed0e34b66802e3c2f0456e", "rental_uris": {"ios": "https://dc.lft.to/lastmile_qr_scan", "android": "https://dc.lft.to/lastmile_qr_scan"}}, {"is_disabled": 0, "fusion_lat": 0.0, "lat": 38.9602705, "type": "electric_bike", "lon": -77.03392183333334, "is_reserved": 0, "fusion_lon": 0.0, "bike_id": "bf4588d7b994df9d8f862d6654a9c62d", "name": "bf4588d7b994df9d8f862d6654a9c62d", "rental_uris": {"ios": "https://dc.lft.to/lastmile_qr_scan", "android": "https://dc.lft.to/lastmile_qr_scan"}}, {"is_disabled": 0, "fusion_lat": 0.0, "lat": 38.904188833333336, "type": "electric_scooter", "lon": -77.03997483333333, "is_reserved": 0, "fusion_lon": 0.0, "bike_id": "e5e841f6a253514572f05c5b2e2109b6", "name": "e5e841f6a253514572f05c5b2e2109b6", "rental_uris": {"ios": "https://dc.lft.to/lastmile_qr_scan", "android": "https://dc.lft.to/lastmile_qr_scan"}}, {"is_disabled": 0, "fusion_lat": 0.0, "lat": 38.90809816666667, "type": "electric_scooter", "lon": -76.99853716666667, "is_reserved": 0, "fusion_lon": 0.0, "bike_id": "bc167a9c8db9206af50a21c68cf17a07", "name": "bc167a9c8db9206af50a21c68cf17a07", "rental_uris": {"ios": "https://dc.lft.to/lastmile_qr_scan", "android": "https://dc.lft.to/lastmile_qr_scan"}}, {"is_disabled": 0, "fusion_lat": 0.0, "lat": 38.9207395, "type": "electric_scooter", "lon": -77.04550716666667, "is_reserved": 0, "fusion_lon": 0.0, "bike_id": "f4608c378ee3576af293bf64b70690af", "name": "f4608c378ee3576af293bf64b70690af", "rental_uris": {"ios": "https://dc.lft.to/lastmile_qr_scan", "android": "https://dc.lft.to/lastmile_qr_scan"}}, {"is_disabled": 0, "fusion_lat": 0.0, "lat": 38.92332233333333, "type": "electric_scooter", "lon": -77.0361515, "is_reserved": 0, "fusion_lon": 0.0, "bike_id": "d6bfe3b84cadfeb5dc49d78d82014758", "name": "d6bfe3b84cadfeb5dc49d78d82014758", "rental_uris": {"ios": "https://dc.lft.to/lastmile_qr_scan", "android": "https://dc.lft.to/lastmile_qr_scan"}}, {"is_disabled": 0, "fusion_lat": 0.0, "lat": 38.924094333333336, "type": "electric_scooter", "lon": -77.03544966666666, "is_reserved": 0, "fusion_lon": 0.0, "bike_id": "41631d454d205810fd049b4fc5eeb0af", "name": "41631d454d205810fd049b4fc5eeb0af", "rental_uris": {"ios": "https://dc.lft.to/lastmile_qr_scan", "android": "https://dc.lft.to/lastmile_qr_scan"}}, {"is_disabled": 0, "fusion_lat": 0.0, "lat": 38.91699766666667, "type": "electric_scooter", "lon": -77.03480416666666, "is_reserved": 0, "fusion_lon": 0.0, "bike_id": "4d2773428459c0416bbe29bfee3713fa", "name": "4d2773428459c0416bbe29bfee3713fa", "rental_uris": {"ios": "https://dc.lft.to/lastmile_qr_scan", "android": "https://dc.lft.to/lastmile_qr_scan"}}, {"is_disabled": 0, "fusion_lat": 0.0, "lat": 38.920651, "type": "electric_scooter", "lon": -77.03209, "is_reserved": 0, "fusion_lon": 0.0, "bike_id": "07d050a60b1dc5f532e7de91e29fc7b0", "name": "07d050a60b1dc5f532e7de91e29fc7b0", "rental_uris": {"ios": "https://dc.lft.to/lastmile_qr_scan", "android": "https://dc.lft.to/lastmile_qr_scan"}}, {"is_disabled": 0, "fusion_lat": 0.0, "lat": 38.923181166666666, "type": "electric_scooter", "lon": -77.04119983333334, "is_reserved": 0, "fusion_lon": 0.0, "bike_id": "e681dd596e2b86c902bc60b89840266d", "name": "e681dd596e2b86c902bc60b89840266d", "rental_uris": {"ios": "https://dc.lft.to/lastmile_qr_scan", "android": "https://dc.lft.to/lastmile_qr_scan"}}, {"is_disabled": 0, "fusion_lat": 0.0, "lat": 38.91005966666667, "type": "electric_scooter", "lon": -77.02098283333333, "is_reserved": 0, "fusion_lon": 0.0, "bike_id": "5a6cb15e951df9af4e8affb7d0876bee", "name": "5a6cb15e951df9af4e8affb7d0876bee", "rental_uris": {"ios": "https://dc.lft.to/lastmile_qr_scan", "android": "https://dc.lft.to/lastmile_qr_scan"}}, {"is_disabled": 0, "fusion_lat": 0.0, "lat": 38.90468033333333, "type": "electric_scooter", "lon": -76.989078, "is_reserved": 0, "fusion_lon": 0.0, "bike_id": "6330e5fcc059c956ac3396bb2b457a08", "name": "6330e5fcc059c956ac3396bb2b457a08", "rental_uris": {"ios": "https://dc.lft.to/lastmile_qr_scan", "android": "https://dc.lft.to/lastmile_qr_scan"}}, {"is_disabled": 0, "fusion_lat": 0.0, "lat": 38.874761166666666, "type": "electric_bike", "lon": -76.9652025, "is_reserved": 0, "fusion_lon": 0.0, "bike_id": "cd8e45350e78a2b076ffb6287ae5c330", "name": "cd8e45350e78a2b076ffb6287ae5c330", "rental_uris": {"ios": "https://dc.lft.to/lastmile_qr_scan", "android": "https://dc.lft.to/lastmile_qr_scan"}}, {"is_disabled": 0, "fusion_lat": 0.0, "lat": 38.91397583333333, "type": "electric_scooter", "lon": -77.03928033333334, "is_reserved": 0, "fusion_lon": 0.0, "bike_id": "3dfff43e67c625fb26ecd4c5968dd42f", "name": "3dfff43e67c625fb26ecd4c5968dd42f", "rental_uris": {"ios": "https://dc.lft.to/lastmile_qr_scan", "android": "https://dc.lft.to/lastmile_qr_scan"}}, {"is_disabled": 0, "fusion_lat": 0.0, "lat": 38.88594033333333, "type": "electric_scooter", "lon": -77.01984216666666, "is_reserved": 0, "fusion_lon": 0.0, "bike_id": "72625e647a6b6db24f65c04467ad0b39", "name": "72625e647a6b6db24f65c04467ad0b39", "rental_uris": {"ios": "https://dc.lft.to/lastmile_qr_scan", "android": "https://dc.lft.to/lastmile_qr_scan"}}, {"is_disabled": 0, "fusion_lat": 0.0, "lat": 38.926706833333334, "type": "electric_scooter", "lon": -77.01487683333333, "is_reserved": 0, "fusion_lon": 0.0, "bike_id": "88e2a5cdc3dabd27cdefeed30a252613", "name": "88e2a5cdc3dabd27cdefeed30a252613", "rental_uris": {"ios": "https://dc.lft.to/lastmile_qr_scan", "android": "https://dc.lft.to/lastmile_qr_scan"}}, {"is_disabled": 0, "fusion_lat": 0.0, "lat": 38.892656333333335, "type": "electric_scooter", "lon": -76.94920166666667, "is_reserved": 0, "fusion_lon": 0.0, "bike_id": "962626d28e93b1d8e45624104dab43ad", "name": "962626d28e93b1d8e45624104dab43ad", "rental_uris": {"ios": "https://dc.lft.to/lastmile_qr_scan", "android": "https://dc.lft.to/lastmile_qr_scan"}}, {"is_disabled": 0, "fusion_lat": 0.0, "lat": 38.966233, "type": "electric_bike", "lon": -77.0342255, "is_reserved": 0, "fusion_lon": 0.0, "bike_id": "c834836c1493002db16fdb0822106b66", "name": "c834836c1493002db16fdb0822106b66", "rental_uris": {"ios": "https://dc.lft.to/lastmile_qr_scan", "android": "https://dc.lft.to/lastmile_qr_scan"}}, {"is_disabled": 0, "fusion_lat": 0.0, "lat": 38.915465166666664, "type": "electric_scooter", "lon": -77.03799516666666, "is_reserved": 0, "fusion_lon": 0.0, "bike_id": "c6501ac29aa05ba5b24b3d9f475bcfb0", "name": "c6501ac29aa05ba5b24b3d9f475bcfb0", "rental_uris": {"ios": "https://dc.lft.to/lastmile_qr_scan", "android": "https://dc.lft.to/lastmile_qr_scan"}}, {"is_disabled": 0, "fusion_lat": 0.0, "lat": 38.90586166666667, "type": "electric_scooter", "lon": -77.04868166666667, "is_reserved": 0, "fusion_lon": 0.0, "bike_id": "b7f6619f485969f94b1311a6a9d891cc", "name": "b7f6619f485969f94b1311a6a9d891cc", "rental_uris": {"ios": "https://dc.lft.to/lastmile_qr_scan", "android": "https://dc.lft.to/lastmile_qr_scan"}}, {"is_disabled": 0, "fusion_lat": 0.0, "lat": 38.899143333333335, "type": "electric_scooter", "lon": -76.933464, "is_reserved": 0, "fusion_lon": 0.0, "bike_id": "f77cce5c547800cff5ee89f2fde4efb3", "name": "f77cce5c547800cff5ee89f2fde4efb3", "rental_uris": {"ios": "https://dc.lft.to/lastmile_qr_scan", "android": "https://dc.lft.to/lastmile_qr_scan"}}, {"is_disabled": 0, "fusion_lat": 0.0, "lat": 38.87497583333333, "type": "electric_scooter", "lon": -76.99797433333333, "is_reserved": 0, "fusion_lon": 0.0, "bike_id": "5547dc27e0f9a2cf5de55934674ca06f", "name": "5547dc27e0f9a2cf5de55934674ca06f", "rental_uris": {"ios": "https://dc.lft.to/lastmile_qr_scan", "android": "https://dc.lft.to/lastmile_qr_scan"}}, {"is_disabled": 0, "fusion_lat": 0.0, "lat": 38.89199133333334, "type": "electric_scooter", "lon": -77.0237855, "is_reserved": 0, "fusion_lon": 0.0, "bike_id": "6610b5bc2c98370e42400d7ee7fce90d", "name": "6610b5bc2c98370e42400d7ee7fce90d", "rental_uris": {"ios": "https://dc.lft.to/lastmile_qr_scan", "android": "https://dc.lft.to/lastmile_qr_scan"}}, {"is_disabled": 0, "fusion_lat": 0.0, "lat": 38.92417116666667, "type": "electric_scooter", "lon": -77.02241383333333, "is_reserved": 0, "fusion_lon": 0.0, "bike_id": "77a0718cc9d546033369491264365f6c", "name": "77a0718cc9d546033369491264365f6c", "rental_uris": {"ios": "https://dc.lft.to/lastmile_qr_scan", "android": "https://dc.lft.to/lastmile_qr_scan"}}, {"is_disabled": 0, "fusion_lat": 0.0, "lat": 38.90402816666667, "type": "electric_scooter", "lon": -77.02077766666666, "is_reserved": 0, "fusion_lon": 0.0, "bike_id": "3a869346636232505364b0591c03e48e", "name": "3a869346636232505364b0591c03e48e", "rental_uris": {"ios": "https://dc.lft.to/lastmile_qr_scan", "android": "https://dc.lft.to/lastmile_qr_scan"}}, {"is_disabled": 0, "fusion_lat": 0.0, "lat": 38.885234833333335, "type": "electric_scooter", "lon": -77.033538, "is_reserved": 0, "fusion_lon": 0.0, "bike_id": "560827c2a5175b52af9506d179426160", "name": "560827c2a5175b52af9506d179426160", "rental_uris": {"ios": "https://dc.lft.to/lastmile_qr_scan", "android": "https://dc.lft.to/lastmile_qr_scan"}}, {"is_disabled": 0, "fusion_lat": 0.0, "lat": 38.8581065, "type": "electric_scooter", "lon": -76.98986783333334, "is_reserved": 0, "fusion_lon": 0.0, "bike_id": "39e0b5d24ee6cdb8ffbc537dd851e366", "name": "39e0b5d24ee6cdb8ffbc537dd851e366", "rental_uris": {"ios": "https://dc.lft.to/lastmile_qr_scan", "android": "https://dc.lft.to/lastmile_qr_scan"}}, {"is_disabled": 0, "fusion_lat": 0.0, "lat": 38.90485233333333, "type": "electric_scooter", "lon": -77.060074, "is_reserved": 0, "fusion_lon": 0.0, "bike_id": "cadbb7e448b8b28c8c0eb35b2d711ee3", "name": "cadbb7e448b8b28c8c0eb35b2d711ee3", "rental_uris": {"ios": "https://dc.lft.to/lastmile_qr_scan", "android": "https://dc.lft.to/lastmile_qr_scan"}}, {"is_disabled": 0, "fusion_lat": 0.0, "lat": 38.94013233333333, "type": "electric_scooter", "lon": -77.071778, "is_reserved": 0, "fusion_lon": 0.0, "bike_id": "e298862aeadc5634c71e043ea559adb2", "name": "e298862aeadc5634c71e043ea559adb2", "rental_uris": {"ios": "https://dc.lft.to/lastmile_qr_scan", "android": "https://dc.lft.to/lastmile_qr_scan"}}, {"is_disabled": 0, "fusion_lat": 0.0, "lat": 38.890155666666665, "type": "electric_scooter", "lon": -76.93742483333334, "is_reserved": 0, "fusion_lon": 0.0, "bike_id": "e0c1533e7cf68056d994b87c4e6c799f", "name": "e0c1533e7cf68056d994b87c4e6c799f", "rental_uris": {"ios": "https://dc.lft.to/lastmile_qr_scan", "android": "https://dc.lft.to/lastmile_qr_scan"}}, {"is_disabled": 0, "fusion_lat": 0.0, "lat": 38.85491966666667, "type": "electric_bike", "lon": -77.11606133333333, "is_reserved": 0, "fusion_lon": 0.0, "bike_id": "dd05b62ba209c79584b2bc1dc869c598", "name": "dd05b62ba209c79584b2bc1dc869c598", "rental_uris": {"ios": "https://dc.lft.to/lastmile_qr_scan", "android": "https://dc.lft.to/lastmile_qr_scan"}}, {"is_disabled": 0, "fusion_lat": 0.0, "lat": 38.90588983333333, "type": "electric_scooter", "lon": -77.06518483333333, "is_reserved": 0, "fusion_lon": 0.0, "bike_id": "b262379d29320244c07b40a09b3d2b09", "name": "b262379d29320244c07b40a09b3d2b09", "rental_uris": {"ios": "https://dc.lft.to/lastmile_qr_scan", "android": "https://dc.lft.to/lastmile_qr_scan"}}, {"is_disabled": 0, "fusion_lat": 0.0, "lat": 38.86107366666667, "type": "electric_scooter", "lon": -76.98358833333333, "is_reserved": 0, "fusion_lon": 0.0, "bike_id": "824bbd77a199a06ce2f392090c7cfeb0", "name": "824bbd77a199a06ce2f392090c7cfeb0", "rental_uris": {"ios": "https://dc.lft.to/lastmile_qr_scan", "android": "https://dc.lft.to/lastmile_qr_scan"}}, {"is_disabled": 0, "fusion_lat": 0.0, "lat": 38.907774333333336, "type": "electric_scooter", "lon": -77.0434505, "is_reserved": 0, "fusion_lon": 0.0, "bike_id": "59523bbebdff5d6175c8906d0406d1a6", "name": "59523bbebdff5d6175c8906d0406d1a6", "rental_uris": {"ios": "https://dc.lft.to/lastmile_qr_scan", "android": "https://dc.lft.to/lastmile_qr_scan"}}, {"is_disabled": 0, "fusion_lat": 0.0, "lat": 38.897802166666665, "type": "electric_scooter", "lon": -77.031795, "is_reserved": 0, "fusion_lon": 0.0, "bike_id": "8384c98c49820492b65af06aae2ca33e", "name": "8384c98c49820492b65af06aae2ca33e", "rental_uris": {"ios": "https://dc.lft.to/lastmile_qr_scan", "android": "https://dc.lft.to/lastmile_qr_scan"}}, {"is_disabled": 0, "fusion_lat": 0.0, "lat": 38.890823, "type": "electric_scooter", "lon": -76.983609, "is_reserved": 0, "fusion_lon": 0.0, "bike_id": "7c0d5361af463307ad44f002eb72dc3d", "name": "7c0d5361af463307ad44f002eb72dc3d", "rental_uris": {"ios": "https://dc.lft.to/lastmile_qr_scan", "android": "https://dc.lft.to/lastmile_qr_scan"}}, {"is_disabled": 0, "fusion_lat": 0.0, "lat": 38.899294166666664, "type": "electric_scooter", "lon": -77.0406135, "is_reserved": 0, "fusion_lon": 0.0, "bike_id": "32cc5a0b68c9e5caae4efba37e76a828", "name": "32cc5a0b68c9e5caae4efba37e76a828", "rental_uris": {"ios": "https://dc.lft.to/lastmile_qr_scan", "android": "https://dc.lft.to/lastmile_qr_scan"}}, {"is_disabled": 0, "fusion_lat": 0.0, "lat": 38.93683633333333, "type": "electric_scooter", "lon": -77.0362645, "is_reserved": 0, "fusion_lon": 0.0, "bike_id": "47717cae07ea991177abcf761127f5fc", "name": "47717cae07ea991177abcf761127f5fc", "rental_uris": {"ios": "https://dc.lft.to/lastmile_qr_scan", "android": "https://dc.lft.to/lastmile_qr_scan"}}, {"is_disabled": 0, "fusion_lat": 0.0, "lat": 38.90552616666667, "type": "electric_scooter", "lon": -77.024853, "is_reserved": 0, "fusion_lon": 0.0, "bike_id": "20e3f1a4890526f380c47b14dc9bd227", "name": "20e3f1a4890526f380c47b14dc9bd227", "rental_uris": {"ios": "https://dc.lft.to/lastmile_qr_scan", "android": "https://dc.lft.to/lastmile_qr_scan"}}, {"is_disabled": 0, "fusion_lat": 0.0, "lat": 38.918758, "type": "electric_scooter", "lon": -77.0417955, "is_reserved": 0, "fusion_lon": 0.0, "bike_id": "2f179333bc12fa3722026bcba49bcac0", "name": "2f179333bc12fa3722026bcba49bcac0", "rental_uris": {"ios": "https://dc.lft.to/lastmile_qr_scan", "android": "https://dc.lft.to/lastmile_qr_scan"}}, {"is_disabled": 0, "fusion_lat": 0.0, "lat": 38.92338566666667, "type": "electric_scooter", "lon": -77.01904366666666, "is_reserved": 0, "fusion_lon": 0.0, "bike_id": "cd86f30c48df93a85f4fa3e26e554f0d", "name": "cd86f30c48df93a85f4fa3e26e554f0d", "rental_uris": {"ios": "https://dc.lft.to/lastmile_qr_scan", "android": "https://dc.lft.to/lastmile_qr_scan"}}, {"is_disabled": 0, "fusion_lat": 0.0, "lat": 38.87100983333333, "type": "electric_scooter", "lon": -77.011827, "is_reserved": 0, "fusion_lon": 0.0, "bike_id": "dce1dc40d4a02196481b65ff40b76a8f", "name": "dce1dc40d4a02196481b65ff40b76a8f", "rental_uris": {"ios": "https://dc.lft.to/lastmile_qr_scan", "android": "https://dc.lft.to/lastmile_qr_scan"}}, {"is_disabled": 0, "fusion_lat": 0.0, "lat": 38.883378, "type": "electric_scooter", "lon": -77.031513, "is_reserved": 0, "fusion_lon": 0.0, "bike_id": "72ba219153597ec1e68ec802722fc8e7", "name": "72ba219153597ec1e68ec802722fc8e7", "rental_uris": {"ios": "https://dc.lft.to/lastmile_qr_scan", "android": "https://dc.lft.to/lastmile_qr_scan"}}, {"is_disabled": 0, "fusion_lat": 0.0, "lat": 38.910119333333334, "type": "electric_scooter", "lon": -76.99388333333333, "is_reserved": 0, "fusion_lon": 0.0, "bike_id": "e1ebb54498a7bb4179dc8c39db40b406", "name": "e1ebb54498a7bb4179dc8c39db40b406", "rental_uris": {"ios": "https://dc.lft.to/lastmile_qr_scan", "android": "https://dc.lft.to/lastmile_qr_scan"}}, {"is_disabled": 0, "fusion_lat": 0.0, "lat": 38.91338283333333, "type": "electric_scooter", "lon": -77.00215233333333, "is_reserved": 0, "fusion_lon": 0.0, "bike_id": "2dbd1a5704be5163da7922edab40eede", "name": "2dbd1a5704be5163da7922edab40eede", "rental_uris": {"ios": "https://dc.lft.to/lastmile_qr_scan", "android": "https://dc.lft.to/lastmile_qr_scan"}}, {"is_disabled": 0, "fusion_lat": 0.0, "lat": 38.861002666666664, "type": "electric_scooter", "lon": -76.96784983333333, "is_reserved": 0, "fusion_lon": 0.0, "bike_id": "78e36d91e42ea6517591f96fbb0bf820", "name": "78e36d91e42ea6517591f96fbb0bf820", "rental_uris": {"ios": "https://dc.lft.to/lastmile_qr_scan", "android": "https://dc.lft.to/lastmile_qr_scan"}}, {"is_disabled": 0, "fusion_lat": 0.0, "lat": 38.88444333333333, "type": "electric_scooter", "lon": -77.02565416666667, "is_reserved": 0, "fusion_lon": 0.0, "bike_id": "91552f20e88cb15241798160c2f55131", "name": "91552f20e88cb15241798160c2f55131", "rental_uris": {"ios": "https://dc.lft.to/lastmile_qr_scan", "android": "https://dc.lft.to/lastmile_qr_scan"}}, {"is_disabled": 0, "fusion_lat": 0.0, "lat": 38.91639583333333, "type": "electric_scooter", "lon": -77.032126, "is_reserved": 0, "fusion_lon": 0.0, "bike_id": "0b4e939076b480db0966457e1860d3c5", "name": "0b4e939076b480db0966457e1860d3c5", "rental_uris": {"ios": "https://dc.lft.to/lastmile_qr_scan", "android": "https://dc.lft.to/lastmile_qr_scan"}}, {"is_disabled": 0, "fusion_lat": 0.0, "lat": 38.92175666666667, "type": "electric_scooter", "lon": -77.0423025, "is_reserved": 0, "fusion_lon": 0.0, "bike_id": "c2fe3a271c1a352300234cc11f98fc9a", "name": "c2fe3a271c1a352300234cc11f98fc9a", "rental_uris": {"ios": "https://dc.lft.to/lastmile_qr_scan", "android": "https://dc.lft.to/lastmile_qr_scan"}}, {"is_disabled": 0, "fusion_lat": 0.0, "lat": 38.9248995, "type": "electric_scooter", "lon": -77.02840166666667, "is_reserved": 0, "fusion_lon": 0.0, "bike_id": "8d869af5d163f84c430e5eee41e68b97", "name": "8d869af5d163f84c430e5eee41e68b97", "rental_uris": {"ios": "https://dc.lft.to/lastmile_qr_scan", "android": "https://dc.lft.to/lastmile_qr_scan"}}, {"is_disabled": 0, "fusion_lat": 0.0, "lat": 38.92014183333333, "type": "electric_scooter", "lon": -77.07123483333334, "is_reserved": 0, "fusion_lon": 0.0, "bike_id": "3770a4a9c1a8eadb2cd4fba567b731b1", "name": "3770a4a9c1a8eadb2cd4fba567b731b1", "rental_uris": {"ios": "https://dc.lft.to/lastmile_qr_scan", "android": "https://dc.lft.to/lastmile_qr_scan"}}, {"is_disabled": 0, "fusion_lat": 0.0, "lat": 38.92582633333333, "type": "electric_scooter", "lon": -77.03924166666667, "is_reserved": 0, "fusion_lon": 0.0, "bike_id": "7d8aab10bb249489c297b468a52842e2", "name": "7d8aab10bb249489c297b468a52842e2", "rental_uris": {"ios": "https://dc.lft.to/lastmile_qr_scan", "android": "https://dc.lft.to/lastmile_qr_scan"}}, {"is_disabled": 0, "fusion_lat": 0.0, "lat": 38.918816166666666, "type": "electric_scooter", "lon": -77.03549216666667, "is_reserved": 0, "fusion_lon": 0.0, "bike_id": "47f1774b79d470ff8e65c0bbc0229989", "name": "47f1774b79d470ff8e65c0bbc0229989", "rental_uris": {"ios": "https://dc.lft.to/lastmile_qr_scan", "android": "https://dc.lft.to/lastmile_qr_scan"}}, {"is_disabled": 0, "fusion_lat": 0.0, "lat": 38.9280055, "type": "electric_scooter", "lon": -77.02725583333333, "is_reserved": 0, "fusion_lon": 0.0, "bike_id": "5be2ded25f327a50cefdc245871792ab", "name": "5be2ded25f327a50cefdc245871792ab", "rental_uris": {"ios": "https://dc.lft.to/lastmile_qr_scan", "android": "https://dc.lft.to/lastmile_qr_scan"}}, {"is_disabled": 0, "fusion_lat": 0.0, "lat": 38.88588416666666, "type": "electric_scooter", "lon": -77.01536933333334, "is_reserved": 0, "fusion_lon": 0.0, "bike_id": "65c3845576e0ba485531b8eca4161b08", "name": "65c3845576e0ba485531b8eca4161b08", "rental_uris": {"ios": "https://dc.lft.to/lastmile_qr_scan", "android": "https://dc.lft.to/lastmile_qr_scan"}}, {"is_disabled": 0, "fusion_lat": 0.0, "lat": 38.91712283333333, "type": "electric_scooter", "lon": -77.03111183333333, "is_reserved": 0, "fusion_lon": 0.0, "bike_id": "ae6668db98bed523964d40cc49f682b8", "name": "ae6668db98bed523964d40cc49f682b8", "rental_uris": {"ios": "https://dc.lft.to/lastmile_qr_scan", "android": "https://dc.lft.to/lastmile_qr_scan"}}, {"is_disabled": 0, "fusion_lat": 0.0, "lat": 38.928411833333335, "type": "electric_scooter", "lon": -77.055104, "is_reserved": 0, "fusion_lon": 0.0, "bike_id": "6e3ecc0615437fc2ec659d82cf05a819", "name": "6e3ecc0615437fc2ec659d82cf05a819", "rental_uris": {"ios": "https://dc.lft.to/lastmile_qr_scan", "android": "https://dc.lft.to/lastmile_qr_scan"}}, {"is_disabled": 0, "fusion_lat": 0.0, "lat": 38.90000233333333, "type": "electric_scooter", "lon": -77.03348783333334, "is_reserved": 0, "fusion_lon": 0.0, "bike_id": "45a95aadcfe00eec557773ce5b55df4b", "name": "45a95aadcfe00eec557773ce5b55df4b", "rental_uris": {"ios": "https://dc.lft.to/lastmile_qr_scan", "android": "https://dc.lft.to/lastmile_qr_scan"}}, {"is_disabled": 0, "fusion_lat": 0.0, "lat": 38.842727, "type": "electric_bike", "lon": -76.98842383333333, "is_reserved": 0, "fusion_lon": 0.0, "bike_id": "1b490e4b441f6860e6230af1c931c0e0", "name": "1b490e4b441f6860e6230af1c931c0e0", "rental_uris": {"ios": "https://dc.lft.to/lastmile_qr_scan", "android": "https://dc.lft.to/lastmile_qr_scan"}}, {"is_disabled": 0, "fusion_lat": 0.0, "lat": 38.89834466666667, "type": "electric_scooter", "lon": -77.03300033333333, "is_reserved": 0, "fusion_lon": 0.0, "bike_id": "b88eb2c5e9560af9d06fd409e6e854dd", "name": "b88eb2c5e9560af9d06fd409e6e854dd", "rental_uris": {"ios": "https://dc.lft.to/lastmile_qr_scan", "android": "https://dc.lft.to/lastmile_qr_scan"}}, {"is_disabled": 0, "fusion_lat": 0.0, "lat": 38.881257833333336, "type": "electric_scooter", "lon": -77.00097316666667, "is_reserved": 0, "fusion_lon": 0.0, "bike_id": "0eecf06530168b0520e152665bc271fd", "name": "0eecf06530168b0520e152665bc271fd", "rental_uris": {"ios": "https://dc.lft.to/lastmile_qr_scan", "android": "https://dc.lft.to/lastmile_qr_scan"}}, {"is_disabled": 0, "fusion_lat": 0.0, "lat": 38.91929283333333, "type": "electric_scooter", "lon": -77.03059733333333, "is_reserved": 0, "fusion_lon": 0.0, "bike_id": "714307042c84b79d7b02f21583c1aed8", "name": "714307042c84b79d7b02f21583c1aed8", "rental_uris": {"ios": "https://dc.lft.to/lastmile_qr_scan", "android": "https://dc.lft.to/lastmile_qr_scan"}}, {"is_disabled": 0, "fusion_lat": 0.0, "lat": 38.88493583333333, "type": "electric_scooter", "lon": -77.00728266666667, "is_reserved": 0, "fusion_lon": 0.0, "bike_id": "efc2b6eecf3e6b92d3ca4d4d67433f3b", "name": "efc2b6eecf3e6b92d3ca4d4d67433f3b", "rental_uris": {"ios": "https://dc.lft.to/lastmile_qr_scan", "android": "https://dc.lft.to/lastmile_qr_scan"}}, {"is_disabled": 0, "fusion_lat": 0.0, "lat": 38.9170775, "type": "electric_scooter", "lon": -77.03214616666666, "is_reserved": 0, "fusion_lon": 0.0, "bike_id": "1a36947b8225582170aac5bdf6db6b6e", "name": "1a36947b8225582170aac5bdf6db6b6e", "rental_uris": {"ios": "https://dc.lft.to/lastmile_qr_scan", "android": "https://dc.lft.to/lastmile_qr_scan"}}, {"is_disabled": 0, "fusion_lat": 0.0, "lat": 38.916792666666666, "type": "electric_scooter", "lon": -77.0297215, "is_reserved": 0, "fusion_lon": 0.0, "bike_id": "d7fb350aab953f3d7ebfedd17f2adfd2", "name": "d7fb350aab953f3d7ebfedd17f2adfd2", "rental_uris": {"ios": "https://dc.lft.to/lastmile_qr_scan", "android": "https://dc.lft.to/lastmile_qr_scan"}}, {"is_disabled": 0, "fusion_lat": 0.0, "lat": 38.90208783333333, "type": "electric_scooter", "lon": -77.03412966666667, "is_reserved": 0, "fusion_lon": 0.0, "bike_id": "3a280150067469c1354ea4002f557748", "name": "3a280150067469c1354ea4002f557748", "rental_uris": {"ios": "https://dc.lft.to/lastmile_qr_scan", "android": "https://dc.lft.to/lastmile_qr_scan"}}, {"is_disabled": 0, "fusion_lat": 0.0, "lat": 38.89456166666667, "type": "electric_bike", "lon": -76.97034383333333, "is_reserved": 0, "fusion_lon": 0.0, "bike_id": "33c29fb098b4344750c4540da6b802a9", "name": "33c29fb098b4344750c4540da6b802a9", "rental_uris": {"ios": "https://dc.lft.to/lastmile_qr_scan", "android": "https://dc.lft.to/lastmile_qr_scan"}}, {"is_disabled": 0, "fusion_lat": 0.0, "lat": 38.8728915, "type": "electric_scooter", "lon": -76.97731533333334, "is_reserved": 0, "fusion_lon": 0.0, "bike_id": "cb6212d0f213faeb1388f0a16eadd963", "name": "cb6212d0f213faeb1388f0a16eadd963", "rental_uris": {"ios": "https://dc.lft.to/lastmile_qr_scan", "android": "https://dc.lft.to/lastmile_qr_scan"}}, {"is_disabled": 0, "fusion_lat": 0.0, "lat": 38.91760816666667, "type": "electric_scooter", "lon": -77.03666183333333, "is_reserved": 0, "fusion_lon": 0.0, "bike_id": "6f22de96e291ed5f125babb01a5ba2c6", "name": "6f22de96e291ed5f125babb01a5ba2c6", "rental_uris": {"ios": "https://dc.lft.to/lastmile_qr_scan", "android": "https://dc.lft.to/lastmile_qr_scan"}}, {"is_disabled": 0, "fusion_lat": 0.0, "lat": 38.8803965, "type": "electric_scooter", "lon": -76.98632483333333, "is_reserved": 0, "fusion_lon": 0.0, "bike_id": "8a0f3f4658aac9d745bdb81f965923cc", "name": "8a0f3f4658aac9d745bdb81f965923cc", "rental_uris": {"ios": "https://dc.lft.to/lastmile_qr_scan", "android": "https://dc.lft.to/lastmile_qr_scan"}}, {"is_disabled": 0, "fusion_lat": 0.0, "lat": 38.922395333333334, "type": "electric_scooter", "lon": -77.03091233333333, "is_reserved": 0, "fusion_lon": 0.0, "bike_id": "a839530ea3c4aea55db8c7191ed11d7d", "name": "a839530ea3c4aea55db8c7191ed11d7d", "rental_uris": {"ios": "https://dc.lft.to/lastmile_qr_scan", "android": "https://dc.lft.to/lastmile_qr_scan"}}, {"is_disabled": 0, "fusion_lat": 0.0, "lat": 38.89682616666666, "type": "electric_scooter", "lon": -76.99623, "is_reserved": 0, "fusion_lon": 0.0, "bike_id": "2470db554810d827051085b6113e7d22", "name": "2470db554810d827051085b6113e7d22", "rental_uris": {"ios": "https://dc.lft.to/lastmile_qr_scan", "android": "https://dc.lft.to/lastmile_qr_scan"}}, {"is_disabled": 0, "fusion_lat": 0.0, "lat": 38.884532, "type": "electric_scooter", "lon": -76.95097766666666, "is_reserved": 0, "fusion_lon": 0.0, "bike_id": "5ef76f42a787448cd31f8e825ad4565f", "name": "5ef76f42a787448cd31f8e825ad4565f", "rental_uris": {"ios": "https://dc.lft.to/lastmile_qr_scan", "android": "https://dc.lft.to/lastmile_qr_scan"}}, {"is_disabled": 0, "fusion_lat": 0.0, "lat": 38.928393666666665, "type": "electric_scooter", "lon": -77.01379666666666, "is_reserved": 0, "fusion_lon": 0.0, "bike_id": "60ac26c7fa54f70ff9ebed10eb8528c2", "name": "60ac26c7fa54f70ff9ebed10eb8528c2", "rental_uris": {"ios": "https://dc.lft.to/lastmile_qr_scan", "android": "https://dc.lft.to/lastmile_qr_scan"}}, {"is_disabled": 0, "fusion_lat": 0.0, "lat": 38.892231, "type": "electric_scooter", "lon": -77.04190583333333, "is_reserved": 0, "fusion_lon": 0.0, "bike_id": "4b74d4a9eac1e166321e8d5f829a7fd2", "name": "4b74d4a9eac1e166321e8d5f829a7fd2", "rental_uris": {"ios": "https://dc.lft.to/lastmile_qr_scan", "android": "https://dc.lft.to/lastmile_qr_scan"}}, {"is_disabled": 0, "fusion_lat": 0.0, "lat": 38.896059666666666, "type": "electric_scooter", "lon": -77.00923766666666, "is_reserved": 0, "fusion_lon": 0.0, "bike_id": "c96b26c41684279fa4d413c06ac4ceec", "name": "c96b26c41684279fa4d413c06ac4ceec", "rental_uris": {"ios": "https://dc.lft.to/lastmile_qr_scan", "android": "https://dc.lft.to/lastmile_qr_scan"}}, {"is_disabled": 0, "fusion_lat": 0.0, "lat": 38.915713833333335, "type": "electric_scooter", "lon": -77.0304085, "is_reserved": 0, "fusion_lon": 0.0, "bike_id": "35928b06ea7076b6a8e5731d80503d52", "name": "35928b06ea7076b6a8e5731d80503d52", "rental_uris": {"ios": "https://dc.lft.to/lastmile_qr_scan", "android": "https://dc.lft.to/lastmile_qr_scan"}}, {"is_disabled": 0, "fusion_lat": 0.0, "lat": 38.87086466666667, "type": "electric_bike", "lon": -77.01215616666667, "is_reserved": 0, "fusion_lon": 0.0, "bike_id": "9f2df0da283270200bb30b522a48e282", "name": "9f2df0da283270200bb30b522a48e282", "rental_uris": {"ios": "https://dc.lft.to/lastmile_qr_scan", "android": "https://dc.lft.to/lastmile_qr_scan"}}, {"is_disabled": 0, "fusion_lat": 0.0, "lat": 38.924168, "type": "electric_scooter", "lon": -77.03647616666667, "is_reserved": 0, "fusion_lon": 0.0, "bike_id": "1a2b3cdc1010b38a3334fe5c1658fae2", "name": "1a2b3cdc1010b38a3334fe5c1658fae2", "rental_uris": {"ios": "https://dc.lft.to/lastmile_qr_scan", "android": "https://dc.lft.to/lastmile_qr_scan"}}, {"is_disabled": 0, "fusion_lat": 0.0, "lat": 38.899159166666664, "type": "electric_scooter", "lon": -76.93378783333333, "is_reserved": 0, "fusion_lon": 0.0, "bike_id": "59e70fbb1d913dc1c85c4b0389cef757", "name": "59e70fbb1d913dc1c85c4b0389cef757", "rental_uris": {"ios": "https://dc.lft.to/lastmile_qr_scan", "android": "https://dc.lft.to/lastmile_qr_scan"}}, {"is_disabled": 0, "fusion_lat": 0.0, "lat": 38.952907333333336, "type": "electric_bike", "lon": -76.94594466666666, "is_reserved": 0, "fusion_lon": 0.0, "bike_id": "48745f7a1d623e28e09f3e3e38bfe808", "name": "48745f7a1d623e28e09f3e3e38bfe808", "rental_uris": {"ios": "https://dc.lft.to/lastmile_qr_scan", "android": "https://dc.lft.to/lastmile_qr_scan"}}, {"is_disabled": 0, "fusion_lat": 0.0, "lat": 38.89951033333333, "type": "electric_scooter", "lon": -76.990131, "is_reserved": 0, "fusion_lon": 0.0, "bike_id": "e5c0ee8e96dcea12422661351777d782", "name": "e5c0ee8e96dcea12422661351777d782", "rental_uris": {"ios": "https://dc.lft.to/lastmile_qr_scan", "android": "https://dc.lft.to/lastmile_qr_scan"}}, {"is_disabled": 0, "fusion_lat": 0.0, "lat": 38.93958633333333, "type": "electric_bike", "lon": -77.3608995, "is_reserved": 0, "fusion_lon": 0.0, "bike_id": "a75c37ecaa7f1383fce2f33c3b135940", "name": "a75c37ecaa7f1383fce2f33c3b135940", "rental_uris": {"ios": "https://dc.lft.to/lastmile_qr_scan", "android": "https://dc.lft.to/lastmile_qr_scan"}}, {"is_disabled": 0, "fusion_lat": 0.0, "lat": 38.91731433333333, "type": "electric_scooter", "lon": -77.04169183333333, "is_reserved": 0, "fusion_lon": 0.0, "bike_id": "584fc78135c2bf7898c132510b95a4c4", "name": "584fc78135c2bf7898c132510b95a4c4", "rental_uris": {"ios": "https://dc.lft.to/lastmile_qr_scan", "android": "https://dc.lft.to/lastmile_qr_scan"}}, {"is_disabled": 0, "fusion_lat": 0.0, "lat": 38.91927783333333, "type": "electric_scooter", "lon": -77.031935, "is_reserved": 0, "fusion_lon": 0.0, "bike_id": "c4b667d08d8695e27e12fce329dcfc76", "name": "c4b667d08d8695e27e12fce329dcfc76", "rental_uris": {"ios": "https://dc.lft.to/lastmile_qr_scan", "android": "https://dc.lft.to/lastmile_qr_scan"}}, {"is_disabled": 0, "fusion_lat": 0.0, "lat": 38.90653283333333, "type": "electric_scooter", "lon": -76.98362916666666, "is_reserved": 0, "fusion_lon": 0.0, "bike_id": "2e7f38eff033f77fa9319b944ab63dbe", "name": "2e7f38eff033f77fa9319b944ab63dbe", "rental_uris": {"ios": "https://dc.lft.to/lastmile_qr_scan", "android": "https://dc.lft.to/lastmile_qr_scan"}}, {"is_disabled": 0, "fusion_lat": 0.0, "lat": 38.8955795, "type": "electric_scooter", "lon": -76.930779, "is_reserved": 0, "fusion_lon": 0.0, "bike_id": "74e9d673af0ed2047cc6b4c87d92f7ff", "name": "74e9d673af0ed2047cc6b4c87d92f7ff", "rental_uris": {"ios": "https://dc.lft.to/lastmile_qr_scan", "android": "https://dc.lft.to/lastmile_qr_scan"}}, {"is_disabled": 0, "fusion_lat": 0.0, "lat": 38.9036465, "type": "electric_scooter", "lon": -77.02928116666666, "is_reserved": 0, "fusion_lon": 0.0, "bike_id": "7c078c5cd430db468dec5ece2312a0aa", "name": "7c078c5cd430db468dec5ece2312a0aa", "rental_uris": {"ios": "https://dc.lft.to/lastmile_qr_scan", "android": "https://dc.lft.to/lastmile_qr_scan"}}, {"is_disabled": 0, "fusion_lat": 0.0, "lat": 38.927498166666666, "type": "electric_scooter", "lon": -77.024833, "is_reserved": 0, "fusion_lon": 0.0, "bike_id": "3e884a054153132272caf6f27dce2390", "name": "3e884a054153132272caf6f27dce2390", "rental_uris": {"ios": "https://dc.lft.to/lastmile_qr_scan", "android": "https://dc.lft.to/lastmile_qr_scan"}}, {"is_disabled": 0, "fusion_lat": 0.0, "lat": 38.91960383333333, "type": "electric_scooter", "lon": -77.0395495, "is_reserved": 0, "fusion_lon": 0.0, "bike_id": "108a376e91ddbc348c6997fefc0a6cce", "name": "108a376e91ddbc348c6997fefc0a6cce", "rental_uris": {"ios": "https://dc.lft.to/lastmile_qr_scan", "android": "https://dc.lft.to/lastmile_qr_scan"}}, {"is_disabled": 0, "fusion_lat": 0.0, "lat": 38.923181, "type": "electric_scooter", "lon": -77.04100983333333, "is_reserved": 0, "fusion_lon": 0.0, "bike_id": "9e35a360398ce3471d40ed2e533ef236", "name": "9e35a360398ce3471d40ed2e533ef236", "rental_uris": {"ios": "https://dc.lft.to/lastmile_qr_scan", "android": "https://dc.lft.to/lastmile_qr_scan"}}, {"is_disabled": 0, "fusion_lat": 0.0, "lat": 38.8991075, "type": "electric_scooter", "lon": -76.9334915, "is_reserved": 0, "fusion_lon": 0.0, "bike_id": "8672efaabdcfe0937a50b1e491bcf6ab", "name": "8672efaabdcfe0937a50b1e491bcf6ab", "rental_uris": {"ios": "https://dc.lft.to/lastmile_qr_scan", "android": "https://dc.lft.to/lastmile_qr_scan"}}, {"is_disabled": 0, "fusion_lat": 0.0, "lat": 38.91617216666667, "type": "electric_scooter", "lon": -77.03196933333334, "is_reserved": 0, "fusion_lon": 0.0, "bike_id": "f4b4e42611fd50eca9bb5eeeb8d0cb4e", "name": "f4b4e42611fd50eca9bb5eeeb8d0cb4e", "rental_uris": {"ios": "https://dc.lft.to/lastmile_qr_scan", "android": "https://dc.lft.to/lastmile_qr_scan"}}, {"is_disabled": 0, "fusion_lat": 0.0, "lat": 38.85810683333333, "type": "electric_scooter", "lon": -76.98653433333334, "is_reserved": 0, "fusion_lon": 0.0, "bike_id": "54fb8c14416b9f5fa24b098981b65d1c", "name": "54fb8c14416b9f5fa24b098981b65d1c", "rental_uris": {"ios": "https://dc.lft.to/lastmile_qr_scan", "android": "https://dc.lft.to/lastmile_qr_scan"}}, {"is_disabled": 0, "fusion_lat": 0.0, "lat": 38.90868716666667, "type": "electric_scooter", "lon": -77.0859325, "is_reserved": 0, "fusion_lon": 0.0, "bike_id": "0dbeebd862b43694a7e281de05fd8637", "name": "0dbeebd862b43694a7e281de05fd8637", "rental_uris": {"ios": "https://dc.lft.to/lastmile_qr_scan", "android": "https://dc.lft.to/lastmile_qr_scan"}}, {"is_disabled": 0, "fusion_lat": 0.0, "lat": 38.90107166666667, "type": "electric_scooter", "lon": -77.05147566666666, "is_reserved": 0, "fusion_lon": 0.0, "bike_id": "be40b98743ea8bd53ec1f009cd3712f1", "name": "be40b98743ea8bd53ec1f009cd3712f1", "rental_uris": {"ios": "https://dc.lft.to/lastmile_qr_scan", "android": "https://dc.lft.to/lastmile_qr_scan"}}, {"is_disabled": 0, "fusion_lat": 0.0, "lat": 38.90151816666667, "type": "electric_scooter", "lon": -77.04033533333333, "is_reserved": 0, "fusion_lon": 0.0, "bike_id": "98f4523bbc706edf46deb970bb5b98a4", "name": "98f4523bbc706edf46deb970bb5b98a4", "rental_uris": {"ios": "https://dc.lft.to/lastmile_qr_scan", "android": "https://dc.lft.to/lastmile_qr_scan"}}, {"is_disabled": 0, "fusion_lat": 0.0, "lat": 38.93043133333333, "type": "electric_scooter", "lon": -77.03216816666666, "is_reserved": 0, "fusion_lon": 0.0, "bike_id": "f33211a5362309e6b8d5a129c2b885e9", "name": "f33211a5362309e6b8d5a129c2b885e9", "rental_uris": {"ios": "https://dc.lft.to/lastmile_qr_scan", "android": "https://dc.lft.to/lastmile_qr_scan"}}, {"is_disabled": 0, "fusion_lat": 0.0, "lat": 38.92318733333333, "type": "electric_scooter", "lon": -77.0390595, "is_reserved": 0, "fusion_lon": 0.0, "bike_id": "30d6f6b141c2c9ad896d2e31606a588f", "name": "30d6f6b141c2c9ad896d2e31606a588f", "rental_uris": {"ios": "https://dc.lft.to/lastmile_qr_scan", "android": "https://dc.lft.to/lastmile_qr_scan"}}, {"is_disabled": 0, "fusion_lat": 0.0, "lat": 38.92042716666667, "type": "electric_scooter", "lon": -77.041721, "is_reserved": 0, "fusion_lon": 0.0, "bike_id": "692d439993bd79e2217466651d7f8914", "name": "692d439993bd79e2217466651d7f8914", "rental_uris": {"ios": "https://dc.lft.to/lastmile_qr_scan", "android": "https://dc.lft.to/lastmile_qr_scan"}}, {"is_disabled": 0, "fusion_lat": 0.0, "lat": 38.89336766666667, "type": "electric_scooter", "lon": -76.928822, "is_reserved": 0, "fusion_lon": 0.0, "bike_id": "722cab5780098aed52b1a88326e171ba", "name": "722cab5780098aed52b1a88326e171ba", "rental_uris": {"ios": "https://dc.lft.to/lastmile_qr_scan", "android": "https://dc.lft.to/lastmile_qr_scan"}}, {"is_disabled": 0, "fusion_lat": 0.0, "lat": 38.90798366666667, "type": "electric_scooter", "lon": -76.99702, "is_reserved": 0, "fusion_lon": 0.0, "bike_id": "ed8e55e259385957356cdb3abf4fedef", "name": "ed8e55e259385957356cdb3abf4fedef", "rental_uris": {"ios": "https://dc.lft.to/lastmile_qr_scan", "android": "https://dc.lft.to/lastmile_qr_scan"}}, {"is_disabled": 0, "fusion_lat": 0.0, "lat": 38.89017616666667, "type": "electric_scooter", "lon": -76.937448, "is_reserved": 0, "fusion_lon": 0.0, "bike_id": "3ed45acc1fbec8e7b076883a6d3dac0a", "name": "3ed45acc1fbec8e7b076883a6d3dac0a", "rental_uris": {"ios": "https://dc.lft.to/lastmile_qr_scan", "android": "https://dc.lft.to/lastmile_qr_scan"}}, {"is_disabled": 0, "fusion_lat": 0.0, "lat": 38.920560333333334, "type": "electric_scooter", "lon": -77.03377133333333, "is_reserved": 0, "fusion_lon": 0.0, "bike_id": "dfc25588d1061acaf78b4528fec56320", "name": "dfc25588d1061acaf78b4528fec56320", "rental_uris": {"ios": "https://dc.lft.to/lastmile_qr_scan", "android": "https://dc.lft.to/lastmile_qr_scan"}}, {"is_disabled": 0, "fusion_lat": 0.0, "lat": 38.874650333333335, "type": "electric_scooter", "lon": -77.00928766666667, "is_reserved": 0, "fusion_lon": 0.0, "bike_id": "2f3a75b0eadeb6935459ea99c3457472", "name": "2f3a75b0eadeb6935459ea99c3457472", "rental_uris": {"ios": "https://dc.lft.to/lastmile_qr_scan", "android": "https://dc.lft.to/lastmile_qr_scan"}}, {"is_disabled": 0, "fusion_lat": 0.0, "lat": 38.9306545, "type": "electric_scooter", "lon": -77.04178883333333, "is_reserved": 0, "fusion_lon": 0.0, "bike_id": "240efd4fe8691bce7a0e96b2bf713f71", "name": "240efd4fe8691bce7a0e96b2bf713f71", "rental_uris": {"ios": "https://dc.lft.to/lastmile_qr_scan", "android": "https://dc.lft.to/lastmile_qr_scan"}}, {"is_disabled": 0, "fusion_lat": 0.0, "lat": 38.9150915, "type": "electric_scooter", "lon": -77.00058083333333, "is_reserved": 0, "fusion_lon": 0.0, "bike_id": "eab7a0074be7d3189099bac6d47365e3", "name": "eab7a0074be7d3189099bac6d47365e3", "rental_uris": {"ios": "https://dc.lft.to/lastmile_qr_scan", "android": "https://dc.lft.to/lastmile_qr_scan"}}, {"is_disabled": 0, "fusion_lat": 0.0, "lat": 38.917212666666664, "type": "electric_scooter", "lon": -77.03837283333333, "is_reserved": 0, "fusion_lon": 0.0, "bike_id": "2af0bcddec3ee87fb20979cf19dbec3f", "name": "2af0bcddec3ee87fb20979cf19dbec3f", "rental_uris": {"ios": "https://dc.lft.to/lastmile_qr_scan", "android": "https://dc.lft.to/lastmile_qr_scan"}}, {"is_disabled": 0, "fusion_lat": 0.0, "lat": 38.90271533333333, "type": "electric_scooter", "lon": -77.01727983333333, "is_reserved": 0, "fusion_lon": 0.0, "bike_id": "c086f20ccbf208feeca5daaa46da22c9", "name": "c086f20ccbf208feeca5daaa46da22c9", "rental_uris": {"ios": "https://dc.lft.to/lastmile_qr_scan", "android": "https://dc.lft.to/lastmile_qr_scan"}}, {"is_disabled": 0, "fusion_lat": 0.0, "lat": 38.941825333333334, "type": "electric_scooter", "lon": -77.03092833333334, "is_reserved": 0, "fusion_lon": 0.0, "bike_id": "f6b5f26efd122596593626e922dfb528", "name": "f6b5f26efd122596593626e922dfb528", "rental_uris": {"ios": "https://dc.lft.to/lastmile_qr_scan", "android": "https://dc.lft.to/lastmile_qr_scan"}}, {"is_disabled": 0, "fusion_lat": 0.0, "lat": 38.917811, "type": "electric_scooter", "lon": -77.02285216666667, "is_reserved": 0, "fusion_lon": 0.0, "bike_id": "d4e4aa5ec831d981e869abd2d994637a", "name": "d4e4aa5ec831d981e869abd2d994637a", "rental_uris": {"ios": "https://dc.lft.to/lastmile_qr_scan", "android": "https://dc.lft.to/lastmile_qr_scan"}}, {"is_disabled": 0, "fusion_lat": 0.0, "lat": 38.905036333333335, "type": "electric_scooter", "lon": -77.040336, "is_reserved": 0, "fusion_lon": 0.0, "bike_id": "7018a4112733368fab0bafd4b1a5303f", "name": "7018a4112733368fab0bafd4b1a5303f", "rental_uris": {"ios": "https://dc.lft.to/lastmile_qr_scan", "android": "https://dc.lft.to/lastmile_qr_scan"}}, {"is_disabled": 0, "fusion_lat": 0.0, "lat": 38.86189483333333, "type": "electric_scooter", "lon": -76.9946055, "is_reserved": 0, "fusion_lon": 0.0, "bike_id": "32ee1a0a7f40936bda8bf47d1ecf52ca", "name": "32ee1a0a7f40936bda8bf47d1ecf52ca", "rental_uris": {"ios": "https://dc.lft.to/lastmile_qr_scan", "android": "https://dc.lft.to/lastmile_qr_scan"}}, {"is_disabled": 0, "fusion_lat": 0.0, "lat": 38.903372, "type": "electric_scooter", "lon": -77.06223483333333, "is_reserved": 0, "fusion_lon": 0.0, "bike_id": "5bc2d26946b5d52d1247eb436464b878", "name": "5bc2d26946b5d52d1247eb436464b878", "rental_uris": {"ios": "https://dc.lft.to/lastmile_qr_scan", "android": "https://dc.lft.to/lastmile_qr_scan"}}, {"is_disabled": 0, "fusion_lat": 0.0, "lat": 38.933998833333334, "type": "electric_scooter", "lon": -77.03885233333334, "is_reserved": 0, "fusion_lon": 0.0, "bike_id": "42d3ecdd29ef5113fb072064ade1497e", "name": "42d3ecdd29ef5113fb072064ade1497e", "rental_uris": {"ios": "https://dc.lft.to/lastmile_qr_scan", "android": "https://dc.lft.to/lastmile_qr_scan"}}, {"is_disabled": 0, "fusion_lat": 0.0, "lat": 38.93683733333334, "type": "electric_scooter", "lon": -77.03626983333334, "is_reserved": 0, "fusion_lon": 0.0, "bike_id": "33712d3b9ca1959b9200a86c04c2b7a9", "name": "33712d3b9ca1959b9200a86c04c2b7a9", "rental_uris": {"ios": "https://dc.lft.to/lastmile_qr_scan", "android": "https://dc.lft.to/lastmile_qr_scan"}}, {"is_disabled": 0, "fusion_lat": 0.0, "lat": 38.89812583333333, "type": "electric_scooter", "lon": -77.00895366666667, "is_reserved": 0, "fusion_lon": 0.0, "bike_id": "cbaeeb8f63986fe86518b92a77c5a36b", "name": "cbaeeb8f63986fe86518b92a77c5a36b", "rental_uris": {"ios": "https://dc.lft.to/lastmile_qr_scan", "android": "https://dc.lft.to/lastmile_qr_scan"}}, {"is_disabled": 0, "fusion_lat": 0.0, "lat": 38.8747065, "type": "electric_scooter", "lon": -77.009283, "is_reserved": 0, "fusion_lon": 0.0, "bike_id": "935befe7865a970387352e13afbb75b8", "name": "935befe7865a970387352e13afbb75b8", "rental_uris": {"ios": "https://dc.lft.to/lastmile_qr_scan", "android": "https://dc.lft.to/lastmile_qr_scan"}}, {"is_disabled": 0, "fusion_lat": 0.0, "lat": 38.91334483333333, "type": "electric_scooter", "lon": -77.0427685, "is_reserved": 0, "fusion_lon": 0.0, "bike_id": "1490abf83ae1617eecf4818908086e8a", "name": "1490abf83ae1617eecf4818908086e8a", "rental_uris": {"ios": "https://dc.lft.to/lastmile_qr_scan", "android": "https://dc.lft.to/lastmile_qr_scan"}}, {"is_disabled": 0, "fusion_lat": 0.0, "lat": 38.919904, "type": "electric_scooter", "lon": -77.04155366666667, "is_reserved": 0, "fusion_lon": 0.0, "bike_id": "8ab269d81588e15ca8b2c145aaaeb349", "name": "8ab269d81588e15ca8b2c145aaaeb349", "rental_uris": {"ios": "https://dc.lft.to/lastmile_qr_scan", "android": "https://dc.lft.to/lastmile_qr_scan"}}, {"is_disabled": 0, "fusion_lat": 0.0, "lat": 38.95068666666667, "type": "electric_bike", "lon": -77.01198583333333, "is_reserved": 0, "fusion_lon": 0.0, "bike_id": "bbc2358350bf0f0c8f97f93881ebdbf0", "name": "bbc2358350bf0f0c8f97f93881ebdbf0", "rental_uris": {"ios": "https://dc.lft.to/lastmile_qr_scan", "android": "https://dc.lft.to/lastmile_qr_scan"}}, {"is_disabled": 0, "fusion_lat": 0.0, "lat": 38.86057516666666, "type": "electric_bike", "lon": -77.05635333333333, "is_reserved": 0, "fusion_lon": 0.0, "bike_id": "34ac8fe94e203c2f9900422cceef3f48", "name": "34ac8fe94e203c2f9900422cceef3f48", "rental_uris": {"ios": "https://dc.lft.to/lastmile_qr_scan", "android": "https://dc.lft.to/lastmile_qr_scan"}}, {"is_disabled": 0, "fusion_lat": 0.0, "lat": 38.9140075, "type": "electric_scooter", "lon": -77.031497, "is_reserved": 0, "fusion_lon": 0.0, "bike_id": "8b7ce4b0b4999c2aaf441b4ca4450f24", "name": "8b7ce4b0b4999c2aaf441b4ca4450f24", "rental_uris": {"ios": "https://dc.lft.to/lastmile_qr_scan", "android": "https://dc.lft.to/lastmile_qr_scan"}}, {"is_disabled": 0, "fusion_lat": 0.0, "lat": 38.9198645, "type": "electric_scooter", "lon": -76.97306516666667, "is_reserved": 0, "fusion_lon": 0.0, "bike_id": "7a99f791ea583972a0752fb4682e7d78", "name": "7a99f791ea583972a0752fb4682e7d78", "rental_uris": {"ios": "https://dc.lft.to/lastmile_qr_scan", "android": "https://dc.lft.to/lastmile_qr_scan"}}, {"is_disabled": 0, "fusion_lat": 0.0, "lat": 38.81324516666667, "type": "electric_bike", "lon": -77.05087516666667, "is_reserved": 0, "fusion_lon": 0.0, "bike_id": "b3c7eeb389766a2b7239a450120668cd", "name": "b3c7eeb389766a2b7239a450120668cd", "rental_uris": {"ios": "https://dc.lft.to/lastmile_qr_scan", "android": "https://dc.lft.to/lastmile_qr_scan"}}, {"is_disabled": 0, "fusion_lat": 0.0, "lat": 38.92881583333333, "type": "electric_scooter", "lon": -77.0324345, "is_reserved": 0, "fusion_lon": 0.0, "bike_id": "fa066002a164f365fe5671912ed0d008", "name": "fa066002a164f365fe5671912ed0d008", "rental_uris": {"ios": "https://dc.lft.to/lastmile_qr_scan", "android": "https://dc.lft.to/lastmile_qr_scan"}}, {"is_disabled": 0, "fusion_lat": 0.0, "lat": 38.93441083333333, "type": "electric_scooter", "lon": -77.0344595, "is_reserved": 0, "fusion_lon": 0.0, "bike_id": "8bdc87bbe4db84fa54d8cf35f27752e6", "name": "8bdc87bbe4db84fa54d8cf35f27752e6", "rental_uris": {"ios": "https://dc.lft.to/lastmile_qr_scan", "android": "https://dc.lft.to/lastmile_qr_scan"}}, {"is_disabled": 0, "fusion_lat": 0.0, "lat": 38.89343383333333, "type": "electric_scooter", "lon": -77.01201083333333, "is_reserved": 0, "fusion_lon": 0.0, "bike_id": "d312b29951f6f1305311e3aa4f59e38f", "name": "d312b29951f6f1305311e3aa4f59e38f", "rental_uris": {"ios": "https://dc.lft.to/lastmile_qr_scan", "android": "https://dc.lft.to/lastmile_qr_scan"}}, {"is_disabled": 0, "fusion_lat": 0.0, "lat": 38.907563, "type": "electric_scooter", "lon": -77.000924, "is_reserved": 0, "fusion_lon": 0.0, "bike_id": "7157aef5e60592bb0aecd943ef9cfdad", "name": "7157aef5e60592bb0aecd943ef9cfdad", "rental_uris": {"ios": "https://dc.lft.to/lastmile_qr_scan", "android": "https://dc.lft.to/lastmile_qr_scan"}}, {"is_disabled": 0, "fusion_lat": 0.0, "lat": 38.8842725, "type": "electric_scooter", "lon": -76.95751033333333, "is_reserved": 0, "fusion_lon": 0.0, "bike_id": "794cdc8a39e92f158aff0b1fe9a8cb40", "name": "794cdc8a39e92f158aff0b1fe9a8cb40", "rental_uris": {"ios": "https://dc.lft.to/lastmile_qr_scan", "android": "https://dc.lft.to/lastmile_qr_scan"}}, {"is_disabled": 0, "fusion_lat": 0.0, "lat": 38.83938216666667, "type": "electric_bike", "lon": -77.078996, "is_reserved": 0, "fusion_lon": 0.0, "bike_id": "9e5edd76e9a8d59b2d8341a397080322", "name": "9e5edd76e9a8d59b2d8341a397080322", "rental_uris": {"ios": "https://dc.lft.to/lastmile_qr_scan", "android": "https://dc.lft.to/lastmile_qr_scan"}}, {"is_disabled": 0, "fusion_lat": 0.0, "lat": 38.938311, "type": "electric_scooter", "lon": -77.02441083333333, "is_reserved": 0, "fusion_lon": 0.0, "bike_id": "1a8638ae11a1441234466908f5f6d9b9", "name": "1a8638ae11a1441234466908f5f6d9b9", "rental_uris": {"ios": "https://dc.lft.to/lastmile_qr_scan", "android": "https://dc.lft.to/lastmile_qr_scan"}}, {"is_disabled": 0, "fusion_lat": 0.0, "lat": 38.91553783333333, "type": "electric_scooter", "lon": -77.01990316666667, "is_reserved": 0, "fusion_lon": 0.0, "bike_id": "824d62e87f7ec131c947626a4f380fe5", "name": "824d62e87f7ec131c947626a4f380fe5", "rental_uris": {"ios": "https://dc.lft.to/lastmile_qr_scan", "android": "https://dc.lft.to/lastmile_qr_scan"}}, {"is_disabled": 0, "fusion_lat": 0.0, "lat": 38.92502866666667, "type": "electric_scooter", "lon": -77.00889433333333, "is_reserved": 0, "fusion_lon": 0.0, "bike_id": "a90deebfeeb88db5080e0c180cf0aebf", "name": "a90deebfeeb88db5080e0c180cf0aebf", "rental_uris": {"ios": "https://dc.lft.to/lastmile_qr_scan", "android": "https://dc.lft.to/lastmile_qr_scan"}}, {"is_disabled": 0, "fusion_lat": 0.0, "lat": 38.8823005, "type": "electric_scooter", "lon": -76.9266295, "is_reserved": 0, "fusion_lon": 0.0, "bike_id": "216a7f94243307be0702a982b88375f2", "name": "216a7f94243307be0702a982b88375f2", "rental_uris": {"ios": "https://dc.lft.to/lastmile_qr_scan", "android": "https://dc.lft.to/lastmile_qr_scan"}}, {"is_disabled": 0, "fusion_lat": 0.0, "lat": 38.96172883333333, "type": "electric_bike", "lon": -76.995874, "is_reserved": 0, "fusion_lon": 0.0, "bike_id": "101cb358e6f25da04ed551538561ebd8", "name": "101cb358e6f25da04ed551538561ebd8", "rental_uris": {"ios": "https://dc.lft.to/lastmile_qr_scan", "android": "https://dc.lft.to/lastmile_qr_scan"}}, {"is_disabled": 0, "fusion_lat": 0.0, "lat": 38.9182875, "type": "electric_scooter", "lon": -77.0364375, "is_reserved": 0, "fusion_lon": 0.0, "bike_id": "b087e2a1aa22708d209e6058f88ca700", "name": "b087e2a1aa22708d209e6058f88ca700", "rental_uris": {"ios": "https://dc.lft.to/lastmile_qr_scan", "android": "https://dc.lft.to/lastmile_qr_scan"}}, {"is_disabled": 0, "fusion_lat": 0.0, "lat": 38.90527483333334, "type": "electric_scooter", "lon": -77.043536, "is_reserved": 0, "fusion_lon": 0.0, "bike_id": "94b6ca686fe2bb036d38f8d7c995d4e4", "name": "94b6ca686fe2bb036d38f8d7c995d4e4", "rental_uris": {"ios": "https://dc.lft.to/lastmile_qr_scan", "android": "https://dc.lft.to/lastmile_qr_scan"}}, {"is_disabled": 0, "fusion_lat": 0.0, "lat": 38.89377533333333, "type": "electric_scooter", "lon": -76.94996833333333, "is_reserved": 0, "fusion_lon": 0.0, "bike_id": "fadee08f32ecfb0a1c205b38dc774946", "name": "fadee08f32ecfb0a1c205b38dc774946", "rental_uris": {"ios": "https://dc.lft.to/lastmile_qr_scan", "android": "https://dc.lft.to/lastmile_qr_scan"}}, {"is_disabled": 0, "fusion_lat": 0.0, "lat": 38.911056, "type": "electric_scooter", "lon": -77.00212233333333, "is_reserved": 0, "fusion_lon": 0.0, "bike_id": "ff346de9b2fc7c6f2c1229a12e788e4f", "name": "ff346de9b2fc7c6f2c1229a12e788e4f", "rental_uris": {"ios": "https://dc.lft.to/lastmile_qr_scan", "android": "https://dc.lft.to/lastmile_qr_scan"}}, {"is_disabled": 0, "fusion_lat": 0.0, "lat": 38.896157, "type": "electric_scooter", "lon": -77.04408266666667, "is_reserved": 0, "fusion_lon": 0.0, "bike_id": "2bdf6f5c651a28e8ad0a7b4955569898", "name": "2bdf6f5c651a28e8ad0a7b4955569898", "rental_uris": {"ios": "https://dc.lft.to/lastmile_qr_scan", "android": "https://dc.lft.to/lastmile_qr_scan"}}, {"is_disabled": 0, "fusion_lat": 0.0, "lat": 38.918881999999996, "type": "electric_scooter", "lon": -77.03908016666666, "is_reserved": 0, "fusion_lon": 0.0, "bike_id": "42caa80d23a230d8a0b6fb9148bc5e10", "name": "42caa80d23a230d8a0b6fb9148bc5e10", "rental_uris": {"ios": "https://dc.lft.to/lastmile_qr_scan", "android": "https://dc.lft.to/lastmile_qr_scan"}}, {"is_disabled": 0, "fusion_lat": 0.0, "lat": 38.902528, "type": "electric_scooter", "lon": -77.01741866666667, "is_reserved": 0, "fusion_lon": 0.0, "bike_id": "49e8608d99743f4a64bc40246a68ac67", "name": "49e8608d99743f4a64bc40246a68ac67", "rental_uris": {"ios": "https://dc.lft.to/lastmile_qr_scan", "android": "https://dc.lft.to/lastmile_qr_scan"}}, {"is_disabled": 0, "fusion_lat": 0.0, "lat": 38.895624, "type": "electric_bike", "lon": -77.12731966666666, "is_reserved": 0, "fusion_lon": 0.0, "bike_id": "64fb8e0e8f38c0859ae818254ca6d1c0", "name": "64fb8e0e8f38c0859ae818254ca6d1c0", "rental_uris": {"ios": "https://dc.lft.to/lastmile_qr_scan", "android": "https://dc.lft.to/lastmile_qr_scan"}}, {"is_disabled": 0, "fusion_lat": 0.0, "lat": 38.9214915, "type": "electric_scooter", "lon": -77.04229966666666, "is_reserved": 0, "fusion_lon": 0.0, "bike_id": "cdfc3479fafcca0caea3e6546fb27681", "name": "cdfc3479fafcca0caea3e6546fb27681", "rental_uris": {"ios": "https://dc.lft.to/lastmile_qr_scan", "android": "https://dc.lft.to/lastmile_qr_scan"}}, {"is_disabled": 0, "fusion_lat": 0.0, "lat": 38.905779, "type": "electric_scooter", "lon": -77.034839, "is_reserved": 0, "fusion_lon": 0.0, "bike_id": "d836f6ba8a7f29144fc30803e8424e0b", "name": "d836f6ba8a7f29144fc30803e8424e0b", "rental_uris": {"ios": "https://dc.lft.to/lastmile_qr_scan", "android": "https://dc.lft.to/lastmile_qr_scan"}}, {"is_disabled": 0, "fusion_lat": 0.0, "lat": 38.9309565, "type": "electric_scooter", "lon": -77.0250875, "is_reserved": 0, "fusion_lon": 0.0, "bike_id": "95e0834c412bb5c00ecede76944a0a57", "name": "95e0834c412bb5c00ecede76944a0a57", "rental_uris": {"ios": "https://dc.lft.to/lastmile_qr_scan", "android": "https://dc.lft.to/lastmile_qr_scan"}}, {"is_disabled": 0, "fusion_lat": 0.0, "lat": 38.91875916666667, "type": "electric_scooter", "lon": -77.0260655, "is_reserved": 0, "fusion_lon": 0.0, "bike_id": "14dcfaaf3815c8b9faf78c1e84232ec7", "name": "14dcfaaf3815c8b9faf78c1e84232ec7", "rental_uris": {"ios": "https://dc.lft.to/lastmile_qr_scan", "android": "https://dc.lft.to/lastmile_qr_scan"}}, {"is_disabled": 0, "fusion_lat": 0.0, "lat": 38.91417466666667, "type": "electric_scooter", "lon": -77.01959816666667, "is_reserved": 0, "fusion_lon": 0.0, "bike_id": "fbae313043fec2ffa2ed816e234e5431", "name": "fbae313043fec2ffa2ed816e234e5431", "rental_uris": {"ios": "https://dc.lft.to/lastmile_qr_scan", "android": "https://dc.lft.to/lastmile_qr_scan"}}, {"is_disabled": 0, "fusion_lat": 0.0, "lat": 38.896125, "type": "electric_scooter", "lon": -76.95590833333333, "is_reserved": 0, "fusion_lon": 0.0, "bike_id": "221ae13a9f7b44f590c4b02be623757f", "name": "221ae13a9f7b44f590c4b02be623757f", "rental_uris": {"ios": "https://dc.lft.to/lastmile_qr_scan", "android": "https://dc.lft.to/lastmile_qr_scan"}}, {"is_disabled": 0, "fusion_lat": 0.0, "lat": 38.87124633333333, "type": "electric_scooter", "lon": -77.00762783333333, "is_reserved": 0, "fusion_lon": 0.0, "bike_id": "1302dd0eaac9d0378666392793ae2aa8", "name": "1302dd0eaac9d0378666392793ae2aa8", "rental_uris": {"ios": "https://dc.lft.to/lastmile_qr_scan", "android": "https://dc.lft.to/lastmile_qr_scan"}}, {"is_disabled": 0, "fusion_lat": 0.0, "lat": 38.91675333333333, "type": "electric_scooter", "lon": -77.02959266666667, "is_reserved": 0, "fusion_lon": 0.0, "bike_id": "aec0069c8032d960a326663d52307712", "name": "aec0069c8032d960a326663d52307712", "rental_uris": {"ios": "https://dc.lft.to/lastmile_qr_scan", "android": "https://dc.lft.to/lastmile_qr_scan"}}, {"is_disabled": 0, "fusion_lat": 0.0, "lat": 38.90841266666666, "type": "electric_scooter", "lon": -77.03378816666667, "is_reserved": 0, "fusion_lon": 0.0, "bike_id": "bd4b3a4177f6733d8ab8153b0101d619", "name": "bd4b3a4177f6733d8ab8153b0101d619", "rental_uris": {"ios": "https://dc.lft.to/lastmile_qr_scan", "android": "https://dc.lft.to/lastmile_qr_scan"}}, {"is_disabled": 0, "fusion_lat": 0.0, "lat": 38.923231666666666, "type": "electric_scooter", "lon": -77.0395805, "is_reserved": 0, "fusion_lon": 0.0, "bike_id": "b145a486edca2bd71264e050081ed49f", "name": "b145a486edca2bd71264e050081ed49f", "rental_uris": {"ios": "https://dc.lft.to/lastmile_qr_scan", "android": "https://dc.lft.to/lastmile_qr_scan"}}, {"is_disabled": 0, "fusion_lat": 0.0, "lat": 38.90384233333333, "type": "electric_scooter", "lon": -77.04478466666667, "is_reserved": 0, "fusion_lon": 0.0, "bike_id": "a38d1702e541df2ff101867374d3269f", "name": "a38d1702e541df2ff101867374d3269f", "rental_uris": {"ios": "https://dc.lft.to/lastmile_qr_scan", "android": "https://dc.lft.to/lastmile_qr_scan"}}, {"is_disabled": 0, "fusion_lat": 0.0, "lat": 38.920408, "type": "electric_scooter", "lon": -76.9790725, "is_reserved": 0, "fusion_lon": 0.0, "bike_id": "ea7245bb0abf35ae9bbbed2519b08811", "name": "ea7245bb0abf35ae9bbbed2519b08811", "rental_uris": {"ios": "https://dc.lft.to/lastmile_qr_scan", "android": "https://dc.lft.to/lastmile_qr_scan"}}, {"is_disabled": 0, "fusion_lat": 0.0, "lat": 38.9168845, "type": "electric_scooter", "lon": -77.0376345, "is_reserved": 0, "fusion_lon": 0.0, "bike_id": "2df5835d83f9ffea5d909cb017d6d97b", "name": "2df5835d83f9ffea5d909cb017d6d97b", "rental_uris": {"ios": "https://dc.lft.to/lastmile_qr_scan", "android": "https://dc.lft.to/lastmile_qr_scan"}}, {"is_disabled": 0, "fusion_lat": 0.0, "lat": 38.914015166666665, "type": "electric_scooter", "lon": -77.01842383333333, "is_reserved": 0, "fusion_lon": 0.0, "bike_id": "bf595feb985c00248260067a5eb4e859", "name": "bf595feb985c00248260067a5eb4e859", "rental_uris": {"ios": "https://dc.lft.to/lastmile_qr_scan", "android": "https://dc.lft.to/lastmile_qr_scan"}}, {"is_disabled": 0, "fusion_lat": 0.0, "lat": 38.90622316666666, "type": "electric_scooter", "lon": -77.039582, "is_reserved": 0, "fusion_lon": 0.0, "bike_id": "a1f6073c4c1df8b1dcbc619e4353ee28", "name": "a1f6073c4c1df8b1dcbc619e4353ee28", "rental_uris": {"ios": "https://dc.lft.to/lastmile_qr_scan", "android": "https://dc.lft.to/lastmile_qr_scan"}}, {"is_disabled": 0, "fusion_lat": 0.0, "lat": 38.9072385, "type": "electric_scooter", "lon": -77.0321245, "is_reserved": 0, "fusion_lon": 0.0, "bike_id": "cc263b30cab52ddb182f0dc7d4080197", "name": "cc263b30cab52ddb182f0dc7d4080197", "rental_uris": {"ios": "https://dc.lft.to/lastmile_qr_scan", "android": "https://dc.lft.to/lastmile_qr_scan"}}, {"is_disabled": 0, "fusion_lat": 0.0, "lat": 38.9027065, "type": "electric_scooter", "lon": -77.038464, "is_reserved": 0, "fusion_lon": 0.0, "bike_id": "ecef3d36fedf05bbd892f97d492c04f8", "name": "ecef3d36fedf05bbd892f97d492c04f8", "rental_uris": {"ios": "https://dc.lft.to/lastmile_qr_scan", "android": "https://dc.lft.to/lastmile_qr_scan"}}, {"is_disabled": 0, "fusion_lat": 0.0, "lat": 38.915510833333336, "type": "electric_scooter", "lon": -77.038377, "is_reserved": 0, "fusion_lon": 0.0, "bike_id": "e3ca42adebc61efda3cc4881e0818c54", "name": "e3ca42adebc61efda3cc4881e0818c54", "rental_uris": {"ios": "https://dc.lft.to/lastmile_qr_scan", "android": "https://dc.lft.to/lastmile_qr_scan"}}, {"is_disabled": 0, "fusion_lat": 0.0, "lat": 38.9216325, "type": "electric_scooter", "lon": -77.03542733333333, "is_reserved": 0, "fusion_lon": 0.0, "bike_id": "f69f98989c9d2873e726d8f59cb86b9e", "name": "f69f98989c9d2873e726d8f59cb86b9e", "rental_uris": {"ios": "https://dc.lft.to/lastmile_qr_scan", "android": "https://dc.lft.to/lastmile_qr_scan"}}, {"is_disabled": 0, "fusion_lat": 0.0, "lat": 38.9021025, "type": "electric_scooter", "lon": -77.02175516666667, "is_reserved": 0, "fusion_lon": 0.0, "bike_id": "d76f29370a55b470b9d57495ca6f876a", "name": "d76f29370a55b470b9d57495ca6f876a", "rental_uris": {"ios": "https://dc.lft.to/lastmile_qr_scan", "android": "https://dc.lft.to/lastmile_qr_scan"}}, {"is_disabled": 0, "fusion_lat": 0.0, "lat": 38.903245166666665, "type": "electric_scooter", "lon": -77.037542, "is_reserved": 0, "fusion_lon": 0.0, "bike_id": "e36bbc1da7bbab4aba8836f15bd99564", "name": "e36bbc1da7bbab4aba8836f15bd99564", "rental_uris": {"ios": "https://dc.lft.to/lastmile_qr_scan", "android": "https://dc.lft.to/lastmile_qr_scan"}}, {"is_disabled": 0, "fusion_lat": 0.0, "lat": 38.900087166666665, "type": "electric_scooter", "lon": -76.98678366666667, "is_reserved": 0, "fusion_lon": 0.0, "bike_id": "0df86447e2a2c7ce00ee5f6b7288cb90", "name": "0df86447e2a2c7ce00ee5f6b7288cb90", "rental_uris": {"ios": "https://dc.lft.to/lastmile_qr_scan", "android": "https://dc.lft.to/lastmile_qr_scan"}}, {"is_disabled": 0, "fusion_lat": 0.0, "lat": 38.903146666666665, "type": "electric_scooter", "lon": -77.03454533333333, "is_reserved": 0, "fusion_lon": 0.0, "bike_id": "6eaba930b6154903caf09dc53c955e4a", "name": "6eaba930b6154903caf09dc53c955e4a", "rental_uris": {"ios": "https://dc.lft.to/lastmile_qr_scan", "android": "https://dc.lft.to/lastmile_qr_scan"}}, {"is_disabled": 0, "fusion_lat": 0.0, "lat": 38.925821166666665, "type": "electric_scooter", "lon": -77.05763183333333, "is_reserved": 0, "fusion_lon": 0.0, "bike_id": "d5b13e53fa4bfddae927c975e5435049", "name": "d5b13e53fa4bfddae927c975e5435049", "rental_uris": {"ios": "https://dc.lft.to/lastmile_qr_scan", "android": "https://dc.lft.to/lastmile_qr_scan"}}, {"is_disabled": 0, "fusion_lat": 0.0, "lat": 38.91920966666667, "type": "electric_scooter", "lon": -77.03343133333334, "is_reserved": 0, "fusion_lon": 0.0, "bike_id": "03cc0ec54507352ca836b8107648461a", "name": "03cc0ec54507352ca836b8107648461a", "rental_uris": {"ios": "https://dc.lft.to/lastmile_qr_scan", "android": "https://dc.lft.to/lastmile_qr_scan"}}, {"is_disabled": 0, "fusion_lat": 0.0, "lat": 38.923661, "type": "electric_scooter", "lon": -77.05752383333333, "is_reserved": 0, "fusion_lon": 0.0, "bike_id": "09bbfd3e8dd756691837fbfdacdf707f", "name": "09bbfd3e8dd756691837fbfdacdf707f", "rental_uris": {"ios": "https://dc.lft.to/lastmile_qr_scan", "android": "https://dc.lft.to/lastmile_qr_scan"}}, {"is_disabled": 0, "fusion_lat": 0.0, "lat": 38.91406516666667, "type": "electric_scooter", "lon": -77.03264566666667, "is_reserved": 0, "fusion_lon": 0.0, "bike_id": "15273566e6c32564c944832d2f5619eb", "name": "15273566e6c32564c944832d2f5619eb", "rental_uris": {"ios": "https://dc.lft.to/lastmile_qr_scan", "android": "https://dc.lft.to/lastmile_qr_scan"}}, {"is_disabled": 0, "fusion_lat": 0.0, "lat": 38.864230166666665, "type": "electric_scooter", "lon": -77.0134305, "is_reserved": 0, "fusion_lon": 0.0, "bike_id": "2ab836c8c600fb5d9d80dcd982f504f7", "name": "2ab836c8c600fb5d9d80dcd982f504f7", "rental_uris": {"ios": "https://dc.lft.to/lastmile_qr_scan", "android": "https://dc.lft.to/lastmile_qr_scan"}}, {"is_disabled": 0, "fusion_lat": 0.0, "lat": 38.901764666666665, "type": "electric_scooter", "lon": -77.00002233333333, "is_reserved": 0, "fusion_lon": 0.0, "bike_id": "0829bc84c1fc3a90812a89072984c9bc", "name": "0829bc84c1fc3a90812a89072984c9bc", "rental_uris": {"ios": "https://dc.lft.to/lastmile_qr_scan", "android": "https://dc.lft.to/lastmile_qr_scan"}}, {"is_disabled": 0, "fusion_lat": 0.0, "lat": 38.88436266666667, "type": "electric_scooter", "lon": -77.030397, "is_reserved": 0, "fusion_lon": 0.0, "bike_id": "66f21fe101695831beac45a6b7f07154", "name": "66f21fe101695831beac45a6b7f07154", "rental_uris": {"ios": "https://dc.lft.to/lastmile_qr_scan", "android": "https://dc.lft.to/lastmile_qr_scan"}}, {"is_disabled": 0, "fusion_lat": 0.0, "lat": 38.894645833333335, "type": "electric_scooter", "lon": -77.00063866666666, "is_reserved": 0, "fusion_lon": 0.0, "bike_id": "a810395630f9daa44f4e1c0a833e00c6", "name": "a810395630f9daa44f4e1c0a833e00c6", "rental_uris": {"ios": "https://dc.lft.to/lastmile_qr_scan", "android": "https://dc.lft.to/lastmile_qr_scan"}}, {"is_disabled": 0, "fusion_lat": 0.0, "lat": 38.8976525, "type": "electric_bike", "lon": -76.90437816666666, "is_reserved": 0, "fusion_lon": 0.0, "bike_id": "42149125a8b74e061ce229f7cda3f614", "name": "42149125a8b74e061ce229f7cda3f614", "rental_uris": {"ios": "https://dc.lft.to/lastmile_qr_scan", "android": "https://dc.lft.to/lastmile_qr_scan"}}, {"is_disabled": 0, "fusion_lat": 0.0, "lat": 38.93098883333333, "type": "electric_scooter", "lon": -77.02659383333334, "is_reserved": 0, "fusion_lon": 0.0, "bike_id": "322fe4b317c90ab0c8a7f588c140ad9f", "name": "322fe4b317c90ab0c8a7f588c140ad9f", "rental_uris": {"ios": "https://dc.lft.to/lastmile_qr_scan", "android": "https://dc.lft.to/lastmile_qr_scan"}}, {"is_disabled": 0, "fusion_lat": 0.0, "lat": 38.866254833333336, "type": "electric_scooter", "lon": -76.98715816666666, "is_reserved": 0, "fusion_lon": 0.0, "bike_id": "d60599da29fc821c2fe32b7e6d469d57", "name": "d60599da29fc821c2fe32b7e6d469d57", "rental_uris": {"ios": "https://dc.lft.to/lastmile_qr_scan", "android": "https://dc.lft.to/lastmile_qr_scan"}}, {"is_disabled": 0, "fusion_lat": 0.0, "lat": 38.92906983333334, "type": "electric_scooter", "lon": -77.06412283333333, "is_reserved": 0, "fusion_lon": 0.0, "bike_id": "4ac03715a27a93bce83af8380abb6c6e", "name": "4ac03715a27a93bce83af8380abb6c6e", "rental_uris": {"ios": "https://dc.lft.to/lastmile_qr_scan", "android": "https://dc.lft.to/lastmile_qr_scan"}}, {"is_disabled": 0, "fusion_lat": 0.0, "lat": 38.86729116666667, "type": "electric_scooter", "lon": -76.98784533333334, "is_reserved": 0, "fusion_lon": 0.0, "bike_id": "52583be4f08ac2ac049767f4b9d1c27a", "name": "52583be4f08ac2ac049767f4b9d1c27a", "rental_uris": {"ios": "https://dc.lft.to/lastmile_qr_scan", "android": "https://dc.lft.to/lastmile_qr_scan"}}, {"is_disabled": 0, "fusion_lat": 0.0, "lat": 38.9186815, "type": "electric_scooter", "lon": -77.04144583333333, "is_reserved": 0, "fusion_lon": 0.0, "bike_id": "f46ed226a687b95c59cdc485e7f40705", "name": "f46ed226a687b95c59cdc485e7f40705", "rental_uris": {"ios": "https://dc.lft.to/lastmile_qr_scan", "android": "https://dc.lft.to/lastmile_qr_scan"}}, {"is_disabled": 0, "fusion_lat": 0.0, "lat": 38.90537416666667, "type": "electric_scooter", "lon": -77.05993433333333, "is_reserved": 0, "fusion_lon": 0.0, "bike_id": "ebbd97c1aaabde8fc539edab82189c01", "name": "ebbd97c1aaabde8fc539edab82189c01", "rental_uris": {"ios": "https://dc.lft.to/lastmile_qr_scan", "android": "https://dc.lft.to/lastmile_qr_scan"}}, {"is_disabled": 0, "fusion_lat": 0.0, "lat": 38.896782, "type": "electric_scooter", "lon": -77.00890316666667, "is_reserved": 0, "fusion_lon": 0.0, "bike_id": "45e2d0bbd49e2b12043d97106b191103", "name": "45e2d0bbd49e2b12043d97106b191103", "rental_uris": {"ios": "https://dc.lft.to/lastmile_qr_scan", "android": "https://dc.lft.to/lastmile_qr_scan"}}, {"is_disabled": 0, "fusion_lat": 0.0, "lat": 38.905752, "type": "electric_scooter", "lon": -77.03471666666667, "is_reserved": 0, "fusion_lon": 0.0, "bike_id": "b4008862c619bfe72150ed46b421411e", "name": "b4008862c619bfe72150ed46b421411e", "rental_uris": {"ios": "https://dc.lft.to/lastmile_qr_scan", "android": "https://dc.lft.to/lastmile_qr_scan"}}, {"is_disabled": 0, "fusion_lat": 0.0, "lat": 38.91681966666667, "type": "electric_scooter", "lon": -77.0219925, "is_reserved": 0, "fusion_lon": 0.0, "bike_id": "23066ceb00fad47f53c70a6c7fc45c59", "name": "23066ceb00fad47f53c70a6c7fc45c59", "rental_uris": {"ios": "https://dc.lft.to/lastmile_qr_scan", "android": "https://dc.lft.to/lastmile_qr_scan"}}, {"is_disabled": 0, "fusion_lat": 0.0, "lat": 38.91473533333333, "type": "electric_scooter", "lon": -77.031927, "is_reserved": 0, "fusion_lon": 0.0, "bike_id": "de802475c77535677bd603450ffc16ec", "name": "de802475c77535677bd603450ffc16ec", "rental_uris": {"ios": "https://dc.lft.to/lastmile_qr_scan", "android": "https://dc.lft.to/lastmile_qr_scan"}}, {"is_disabled": 0, "fusion_lat": 0.0, "lat": 38.885033166666666, "type": "electric_scooter", "lon": -77.00566633333334, "is_reserved": 0, "fusion_lon": 0.0, "bike_id": "bccfd43ca185d8465e193b953d459a58", "name": "bccfd43ca185d8465e193b953d459a58", "rental_uris": {"ios": "https://dc.lft.to/lastmile_qr_scan", "android": "https://dc.lft.to/lastmile_qr_scan"}}, {"is_disabled": 0, "fusion_lat": 0.0, "lat": 38.956300666666664, "type": "electric_bike", "lon": -76.93889316666667, "is_reserved": 0, "fusion_lon": 0.0, "bike_id": "680de2378da0840be8ad9ca37f9a4324", "name": "680de2378da0840be8ad9ca37f9a4324", "rental_uris": {"ios": "https://dc.lft.to/lastmile_qr_scan", "android": "https://dc.lft.to/lastmile_qr_scan"}}, {"is_disabled": 0, "fusion_lat": 0.0, "lat": 38.91753, "type": "electric_scooter", "lon": -77.03855483333334, "is_reserved": 0, "fusion_lon": 0.0, "bike_id": "c6a8f50589de965518653f5f03a245be", "name": "c6a8f50589de965518653f5f03a245be", "rental_uris": {"ios": "https://dc.lft.to/lastmile_qr_scan", "android": "https://dc.lft.to/lastmile_qr_scan"}}, {"is_disabled": 0, "fusion_lat": 0.0, "lat": 38.880446166666665, "type": "electric_scooter", "lon": -77.01766166666667, "is_reserved": 0, "fusion_lon": 0.0, "bike_id": "80a89920b7bd6f30535585d1204629c1", "name": "80a89920b7bd6f30535585d1204629c1", "rental_uris": {"ios": "https://dc.lft.to/lastmile_qr_scan", "android": "https://dc.lft.to/lastmile_qr_scan"}}, {"is_disabled": 0, "fusion_lat": 0.0, "lat": 38.93403716666667, "type": "electric_scooter", "lon": -77.04129316666666, "is_reserved": 0, "fusion_lon": 0.0, "bike_id": "3bc010d285d9134fbdad65f4a2b98d58", "name": "3bc010d285d9134fbdad65f4a2b98d58", "rental_uris": {"ios": "https://dc.lft.to/lastmile_qr_scan", "android": "https://dc.lft.to/lastmile_qr_scan"}}, {"is_disabled": 0, "fusion_lat": 0.0, "lat": 38.86660716666667, "type": "electric_scooter", "lon": -76.988812, "is_reserved": 0, "fusion_lon": 0.0, "bike_id": "e473a25fb5eead5722a185ba69baa2ca", "name": "e473a25fb5eead5722a185ba69baa2ca", "rental_uris": {"ios": "https://dc.lft.to/lastmile_qr_scan", "android": "https://dc.lft.to/lastmile_qr_scan"}}, {"is_disabled": 0, "fusion_lat": 0.0, "lat": 38.86541183333333, "type": "electric_scooter", "lon": -76.9870535, "is_reserved": 0, "fusion_lon": 0.0, "bike_id": "63f1fb08852ed2991900d14d8dd61760", "name": "63f1fb08852ed2991900d14d8dd61760", "rental_uris": {"ios": "https://dc.lft.to/lastmile_qr_scan", "android": "https://dc.lft.to/lastmile_qr_scan"}}, {"is_disabled": 0, "fusion_lat": 0.0, "lat": 38.95492133333333, "type": "electric_scooter", "lon": -77.06564133333333, "is_reserved": 0, "fusion_lon": 0.0, "bike_id": "8a291951c12b078ff106aaed2032a794", "name": "8a291951c12b078ff106aaed2032a794", "rental_uris": {"ios": "https://dc.lft.to/lastmile_qr_scan", "android": "https://dc.lft.to/lastmile_qr_scan"}}, {"is_disabled": 0, "fusion_lat": 0.0, "lat": 38.92715116666667, "type": "electric_scooter", "lon": -77.0420105, "is_reserved": 0, "fusion_lon": 0.0, "bike_id": "ab6cf997ad4c738b0c1a639bfef7cb4c", "name": "ab6cf997ad4c738b0c1a639bfef7cb4c", "rental_uris": {"ios": "https://dc.lft.to/lastmile_qr_scan", "android": "https://dc.lft.to/lastmile_qr_scan"}}, {"is_disabled": 0, "fusion_lat": 0.0, "lat": 38.92232, "type": "electric_scooter", "lon": -77.04390233333334, "is_reserved": 0, "fusion_lon": 0.0, "bike_id": "d97fa92a1ac0620dfcdf834fa3086ab2", "name": "d97fa92a1ac0620dfcdf834fa3086ab2", "rental_uris": {"ios": "https://dc.lft.to/lastmile_qr_scan", "android": "https://dc.lft.to/lastmile_qr_scan"}}, {"is_disabled": 0, "fusion_lat": 0.0, "lat": 38.89606166666667, "type": "electric_bike", "lon": -76.97794133333333, "is_reserved": 0, "fusion_lon": 0.0, "bike_id": "cf7579bd08506486b95fb3f73e69530a", "name": "cf7579bd08506486b95fb3f73e69530a", "rental_uris": {"ios": "https://dc.lft.to/lastmile_qr_scan", "android": "https://dc.lft.to/lastmile_qr_scan"}}, {"is_disabled": 0, "fusion_lat": 0.0, "lat": 38.88739566666667, "type": "electric_scooter", "lon": -77.03176683333334, "is_reserved": 0, "fusion_lon": 0.0, "bike_id": "b187db6e2c0f7133c3525e2c75046252", "name": "b187db6e2c0f7133c3525e2c75046252", "rental_uris": {"ios": "https://dc.lft.to/lastmile_qr_scan", "android": "https://dc.lft.to/lastmile_qr_scan"}}, {"is_disabled": 0, "fusion_lat": 0.0, "lat": 38.902845, "type": "electric_scooter", "lon": -77.0173595, "is_reserved": 0, "fusion_lon": 0.0, "bike_id": "5ad47db1be169dbc274ce7a28bc0a601", "name": "5ad47db1be169dbc274ce7a28bc0a601", "rental_uris": {"ios": "https://dc.lft.to/lastmile_qr_scan", "android": "https://dc.lft.to/lastmile_qr_scan"}}, {"is_disabled": 0, "fusion_lat": 0.0, "lat": 38.87267883333333, "type": "electric_scooter", "lon": -77.01627133333334, "is_reserved": 0, "fusion_lon": 0.0, "bike_id": "60f9135ff331baf8e0db47df7e037ffe", "name": "60f9135ff331baf8e0db47df7e037ffe", "rental_uris": {"ios": "https://dc.lft.to/lastmile_qr_scan", "android": "https://dc.lft.to/lastmile_qr_scan"}}, {"is_disabled": 0, "fusion_lat": 0.0, "lat": 38.924760666666664, "type": "electric_scooter", "lon": -77.03778616666666, "is_reserved": 0, "fusion_lon": 0.0, "bike_id": "695aaac234f1b64f1e4a7a169bcc4a5e", "name": "695aaac234f1b64f1e4a7a169bcc4a5e", "rental_uris": {"ios": "https://dc.lft.to/lastmile_qr_scan", "android": "https://dc.lft.to/lastmile_qr_scan"}}, {"is_disabled": 0, "fusion_lat": 0.0, "lat": 38.9066915, "type": "electric_scooter", "lon": -76.987861, "is_reserved": 0, "fusion_lon": 0.0, "bike_id": "0501d78a547e853f345409e3a5a16c73", "name": "0501d78a547e853f345409e3a5a16c73", "rental_uris": {"ios": "https://dc.lft.to/lastmile_qr_scan", "android": "https://dc.lft.to/lastmile_qr_scan"}}, {"is_disabled": 0, "fusion_lat": 0.0, "lat": 38.93090383333333, "type": "electric_scooter", "lon": -77.0366475, "is_reserved": 0, "fusion_lon": 0.0, "bike_id": "e1ecd10df5b4e7bc02c4913ae1a65a53", "name": "e1ecd10df5b4e7bc02c4913ae1a65a53", "rental_uris": {"ios": "https://dc.lft.to/lastmile_qr_scan", "android": "https://dc.lft.to/lastmile_qr_scan"}}, {"is_disabled": 0, "fusion_lat": 0.0, "lat": 38.902645, "type": "electric_scooter", "lon": -77.01730216666667, "is_reserved": 0, "fusion_lon": 0.0, "bike_id": "f6c948b59f8b1336ac5dd3a3ef206617", "name": "f6c948b59f8b1336ac5dd3a3ef206617", "rental_uris": {"ios": "https://dc.lft.to/lastmile_qr_scan", "android": "https://dc.lft.to/lastmile_qr_scan"}}, {"is_disabled": 0, "fusion_lat": 0.0, "lat": 38.9079645, "type": "electric_scooter", "lon": -77.034779, "is_reserved": 0, "fusion_lon": 0.0, "bike_id": "15680c1057f6a374becea17560a24240", "name": "15680c1057f6a374becea17560a24240", "rental_uris": {"ios": "https://dc.lft.to/lastmile_qr_scan", "android": "https://dc.lft.to/lastmile_qr_scan"}}, {"is_disabled": 0, "fusion_lat": 0.0, "lat": 38.89999, "type": "electric_scooter", "lon": -77.052387, "is_reserved": 0, "fusion_lon": 0.0, "bike_id": "b16dd6c22322c7eedd10e43497a96012", "name": "b16dd6c22322c7eedd10e43497a96012", "rental_uris": {"ios": "https://dc.lft.to/lastmile_qr_scan", "android": "https://dc.lft.to/lastmile_qr_scan"}}, {"is_disabled": 0, "fusion_lat": 0.0, "lat": 38.958921, "type": "electric_bike", "lon": -76.92486883333333, "is_reserved": 0, "fusion_lon": 0.0, "bike_id": "a5a5294b8062b1f74e6e8bf5eb392d1d", "name": "a5a5294b8062b1f74e6e8bf5eb392d1d", "rental_uris": {"ios": "https://dc.lft.to/lastmile_qr_scan", "android": "https://dc.lft.to/lastmile_qr_scan"}}, {"is_disabled": 0, "fusion_lat": 0.0, "lat": 38.89520483333333, "type": "electric_scooter", "lon": -77.04842166666667, "is_reserved": 0, "fusion_lon": 0.0, "bike_id": "6b2a062ce15531d409e9ea3e10b9a420", "name": "6b2a062ce15531d409e9ea3e10b9a420", "rental_uris": {"ios": "https://dc.lft.to/lastmile_qr_scan", "android": "https://dc.lft.to/lastmile_qr_scan"}}, {"is_disabled": 0, "fusion_lat": 0.0, "lat": 38.91036, "type": "electric_scooter", "lon": -77.04395133333334, "is_reserved": 0, "fusion_lon": 0.0, "bike_id": "62cb68e50fed332a29c80b74547568da", "name": "62cb68e50fed332a29c80b74547568da", "rental_uris": {"ios": "https://dc.lft.to/lastmile_qr_scan", "android": "https://dc.lft.to/lastmile_qr_scan"}}, {"is_disabled": 0, "fusion_lat": 0.0, "lat": 38.9305255, "type": "electric_scooter", "lon": -77.03218716666667, "is_reserved": 0, "fusion_lon": 0.0, "bike_id": "2289fc7a275f706c86211af9167e9e93", "name": "2289fc7a275f706c86211af9167e9e93", "rental_uris": {"ios": "https://dc.lft.to/lastmile_qr_scan", "android": "https://dc.lft.to/lastmile_qr_scan"}}, {"is_disabled": 0, "fusion_lat": 0.0, "lat": 38.909683, "type": "electric_scooter", "lon": -77.0404355, "is_reserved": 0, "fusion_lon": 0.0, "bike_id": "cab37a8033beb25b62dacd7f7158f03d", "name": "cab37a8033beb25b62dacd7f7158f03d", "rental_uris": {"ios": "https://dc.lft.to/lastmile_qr_scan", "android": "https://dc.lft.to/lastmile_qr_scan"}}, {"is_disabled": 0, "fusion_lat": 0.0, "lat": 38.905659166666666, "type": "electric_scooter", "lon": -77.043625, "is_reserved": 0, "fusion_lon": 0.0, "bike_id": "39ca1f47323f460ba222c2c6024de36a", "name": "39ca1f47323f460ba222c2c6024de36a", "rental_uris": {"ios": "https://dc.lft.to/lastmile_qr_scan", "android": "https://dc.lft.to/lastmile_qr_scan"}}, {"is_disabled": 0, "fusion_lat": 0.0, "lat": 38.890490166666666, "type": "electric_scooter", "lon": -76.94071366666667, "is_reserved": 0, "fusion_lon": 0.0, "bike_id": "c53e2242b2df346762654b2a19a51af8", "name": "c53e2242b2df346762654b2a19a51af8", "rental_uris": {"ios": "https://dc.lft.to/lastmile_qr_scan", "android": "https://dc.lft.to/lastmile_qr_scan"}}, {"is_disabled": 0, "fusion_lat": 0.0, "lat": 38.875481666666666, "type": "electric_scooter", "lon": -76.96488933333333, "is_reserved": 0, "fusion_lon": 0.0, "bike_id": "323dcc0b986993eed14d4d52874f9fc1", "name": "323dcc0b986993eed14d4d52874f9fc1", "rental_uris": {"ios": "https://dc.lft.to/lastmile_qr_scan", "android": "https://dc.lft.to/lastmile_qr_scan"}}, {"is_disabled": 0, "fusion_lat": 0.0, "lat": 38.909726666666664, "type": "electric_scooter", "lon": -77.038983, "is_reserved": 0, "fusion_lon": 0.0, "bike_id": "9c8cc3e4367805f778180c8545804ad4", "name": "9c8cc3e4367805f778180c8545804ad4", "rental_uris": {"ios": "https://dc.lft.to/lastmile_qr_scan", "android": "https://dc.lft.to/lastmile_qr_scan"}}, {"is_disabled": 0, "fusion_lat": 0.0, "lat": 38.91336616666667, "type": "electric_scooter", "lon": -77.04836683333333, "is_reserved": 0, "fusion_lon": 0.0, "bike_id": "4d29a0d7dd877003f8cf7928ee4b77c6", "name": "4d29a0d7dd877003f8cf7928ee4b77c6", "rental_uris": {"ios": "https://dc.lft.to/lastmile_qr_scan", "android": "https://dc.lft.to/lastmile_qr_scan"}}, {"is_disabled": 0, "fusion_lat": 0.0, "lat": 38.88590666666666, "type": "electric_scooter", "lon": -77.00065033333334, "is_reserved": 0, "fusion_lon": 0.0, "bike_id": "8da2de6666d1ae8b87851acd4da3ba7f", "name": "8da2de6666d1ae8b87851acd4da3ba7f", "rental_uris": {"ios": "https://dc.lft.to/lastmile_qr_scan", "android": "https://dc.lft.to/lastmile_qr_scan"}}, {"is_disabled": 0, "fusion_lat": 0.0, "lat": 38.91680066666667, "type": "electric_scooter", "lon": -77.01576533333333, "is_reserved": 0, "fusion_lon": 0.0, "bike_id": "d6184f53c4fe3583aa7d13a2bdaf6c59", "name": "d6184f53c4fe3583aa7d13a2bdaf6c59", "rental_uris": {"ios": "https://dc.lft.to/lastmile_qr_scan", "android": "https://dc.lft.to/lastmile_qr_scan"}}, {"is_disabled": 0, "fusion_lat": 0.0, "lat": 38.919686, "type": "electric_scooter", "lon": -77.02495966666666, "is_reserved": 0, "fusion_lon": 0.0, "bike_id": "5c75a6c72312523720cd457d523d43fb", "name": "5c75a6c72312523720cd457d523d43fb", "rental_uris": {"ios": "https://dc.lft.to/lastmile_qr_scan", "android": "https://dc.lft.to/lastmile_qr_scan"}}, {"is_disabled": 0, "fusion_lat": 0.0, "lat": 38.92022516666667, "type": "electric_scooter", "lon": -77.00210016666666, "is_reserved": 0, "fusion_lon": 0.0, "bike_id": "bfa44967b2309c0d9c99bdadf6691581", "name": "bfa44967b2309c0d9c99bdadf6691581", "rental_uris": {"ios": "https://dc.lft.to/lastmile_qr_scan", "android": "https://dc.lft.to/lastmile_qr_scan"}}, {"is_disabled": 0, "fusion_lat": 0.0, "lat": 38.901884, "type": "electric_scooter", "lon": -76.93465166666667, "is_reserved": 0, "fusion_lon": 0.0, "bike_id": "3a7f8bbacc05707bf28ddc5ed38aeb73", "name": "3a7f8bbacc05707bf28ddc5ed38aeb73", "rental_uris": {"ios": "https://dc.lft.to/lastmile_qr_scan", "android": "https://dc.lft.to/lastmile_qr_scan"}}, {"is_disabled": 0, "fusion_lat": 0.0, "lat": 38.90341316666667, "type": "electric_scooter", "lon": -76.97241833333334, "is_reserved": 0, "fusion_lon": 0.0, "bike_id": "6e8d7c8f4dc42fdebd99cd6ea0c8a924", "name": "6e8d7c8f4dc42fdebd99cd6ea0c8a924", "rental_uris": {"ios": "https://dc.lft.to/lastmile_qr_scan", "android": "https://dc.lft.to/lastmile_qr_scan"}}, {"is_disabled": 0, "fusion_lat": 0.0, "lat": 38.9019075, "type": "electric_scooter", "lon": -77.02190683333333, "is_reserved": 0, "fusion_lon": 0.0, "bike_id": "9015f8625475fd00fb089fc16c9848fb", "name": "9015f8625475fd00fb089fc16c9848fb", "rental_uris": {"ios": "https://dc.lft.to/lastmile_qr_scan", "android": "https://dc.lft.to/lastmile_qr_scan"}}, {"is_disabled": 0, "fusion_lat": 0.0, "lat": 38.911410333333336, "type": "electric_bike", "lon": -77.06580766666667, "is_reserved": 0, "fusion_lon": 0.0, "bike_id": "5281f73f40b89ab37ea47759fb4648cb", "name": "5281f73f40b89ab37ea47759fb4648cb", "rental_uris": {"ios": "https://dc.lft.to/lastmile_qr_scan", "android": "https://dc.lft.to/lastmile_qr_scan"}}, {"is_disabled": 0, "fusion_lat": 0.0, "lat": 38.92364216666667, "type": "electric_scooter", "lon": -77.05088333333333, "is_reserved": 0, "fusion_lon": 0.0, "bike_id": "b0a520d4b9bbbb690bd3c23ceb22aefe", "name": "b0a520d4b9bbbb690bd3c23ceb22aefe", "rental_uris": {"ios": "https://dc.lft.to/lastmile_qr_scan", "android": "https://dc.lft.to/lastmile_qr_scan"}}, {"is_disabled": 0, "fusion_lat": 0.0, "lat": 38.904478833333336, "type": "electric_scooter", "lon": -77.05917233333334, "is_reserved": 0, "fusion_lon": 0.0, "bike_id": "b4399f104c7b328d84708d6787c0c716", "name": "b4399f104c7b328d84708d6787c0c716", "rental_uris": {"ios": "https://dc.lft.to/lastmile_qr_scan", "android": "https://dc.lft.to/lastmile_qr_scan"}}, {"is_disabled": 0, "fusion_lat": 0.0, "lat": 38.91989083333333, "type": "electric_scooter", "lon": -77.0235045, "is_reserved": 0, "fusion_lon": 0.0, "bike_id": "2da08948b361bcc83a50e9a50a83dbbf", "name": "2da08948b361bcc83a50e9a50a83dbbf", "rental_uris": {"ios": "https://dc.lft.to/lastmile_qr_scan", "android": "https://dc.lft.to/lastmile_qr_scan"}}, {"is_disabled": 0, "fusion_lat": 0.0, "lat": 38.912595, "type": "electric_scooter", "lon": -77.03499066666667, "is_reserved": 0, "fusion_lon": 0.0, "bike_id": "8ce84843f339746b0da3388d84fb97b4", "name": "8ce84843f339746b0da3388d84fb97b4", "rental_uris": {"ios": "https://dc.lft.to/lastmile_qr_scan", "android": "https://dc.lft.to/lastmile_qr_scan"}}, {"is_disabled": 0, "fusion_lat": 0.0, "lat": 38.86620583333333, "type": "electric_scooter", "lon": -76.98674316666667, "is_reserved": 0, "fusion_lon": 0.0, "bike_id": "2ee16c979de45a9cf965e290a232b4ab", "name": "2ee16c979de45a9cf965e290a232b4ab", "rental_uris": {"ios": "https://dc.lft.to/lastmile_qr_scan", "android": "https://dc.lft.to/lastmile_qr_scan"}}, {"is_disabled": 0, "fusion_lat": 0.0, "lat": 38.903958333333335, "type": "electric_scooter", "lon": -77.048569, "is_reserved": 0, "fusion_lon": 0.0, "bike_id": "101e5f55297ee8af10a5d5e1376cd83c", "name": "101e5f55297ee8af10a5d5e1376cd83c", "rental_uris": {"ios": "https://dc.lft.to/lastmile_qr_scan", "android": "https://dc.lft.to/lastmile_qr_scan"}}, {"is_disabled": 0, "fusion_lat": 0.0, "lat": 38.95393116666666, "type": "electric_bike", "lon": -77.02752866666667, "is_reserved": 0, "fusion_lon": 0.0, "bike_id": "5f9aa8f57c40f8c11bfe22bcaceca919", "name": "5f9aa8f57c40f8c11bfe22bcaceca919", "rental_uris": {"ios": "https://dc.lft.to/lastmile_qr_scan", "android": "https://dc.lft.to/lastmile_qr_scan"}}, {"is_disabled": 0, "fusion_lat": 0.0, "lat": 38.93238933333333, "type": "electric_scooter", "lon": -77.03270766666667, "is_reserved": 0, "fusion_lon": 0.0, "bike_id": "b651fb6dfba5a0907ec4565f272f4383", "name": "b651fb6dfba5a0907ec4565f272f4383", "rental_uris": {"ios": "https://dc.lft.to/lastmile_qr_scan", "android": "https://dc.lft.to/lastmile_qr_scan"}}, {"is_disabled": 0, "fusion_lat": 0.0, "lat": 38.9850415, "type": "electric_bike", "lon": -76.982038, "is_reserved": 0, "fusion_lon": 0.0, "bike_id": "126f4ca5067f1cfaf04d41d8b6c84493", "name": "126f4ca5067f1cfaf04d41d8b6c84493", "rental_uris": {"ios": "https://dc.lft.to/lastmile_qr_scan", "android": "https://dc.lft.to/lastmile_qr_scan"}}, {"is_disabled": 0, "fusion_lat": 0.0, "lat": 38.941694166666665, "type": "electric_scooter", "lon": -77.025307, "is_reserved": 0, "fusion_lon": 0.0, "bike_id": "3621ae249b83fc5f56f4fde069fd4650", "name": "3621ae249b83fc5f56f4fde069fd4650", "rental_uris": {"ios": "https://dc.lft.to/lastmile_qr_scan", "android": "https://dc.lft.to/lastmile_qr_scan"}}, {"is_disabled": 0, "fusion_lat": 0.0, "lat": 38.92102116666667, "type": "electric_scooter", "lon": -77.02552866666667, "is_reserved": 0, "fusion_lon": 0.0, "bike_id": "926f0c8e856e36ff2de6dde7fda3c81d", "name": "926f0c8e856e36ff2de6dde7fda3c81d", "rental_uris": {"ios": "https://dc.lft.to/lastmile_qr_scan", "android": "https://dc.lft.to/lastmile_qr_scan"}}, {"is_disabled": 0, "fusion_lat": 0.0, "lat": 38.924829833333334, "type": "electric_scooter", "lon": -77.0263575, "is_reserved": 0, "fusion_lon": 0.0, "bike_id": "8ae7e11f39c1a750f5d567c9475104fb", "name": "8ae7e11f39c1a750f5d567c9475104fb", "rental_uris": {"ios": "https://dc.lft.to/lastmile_qr_scan", "android": "https://dc.lft.to/lastmile_qr_scan"}}, {"is_disabled": 0, "fusion_lat": 0.0, "lat": 38.822612666666664, "type": "electric_bike", "lon": -77.05802933333334, "is_reserved": 0, "fusion_lon": 0.0, "bike_id": "609843612d0eda2ad9e7370449f1de23", "name": "609843612d0eda2ad9e7370449f1de23", "rental_uris": {"ios": "https://dc.lft.to/lastmile_qr_scan", "android": "https://dc.lft.to/lastmile_qr_scan"}}, {"is_disabled": 0, "fusion_lat": 0.0, "lat": 38.860582, "type": "electric_scooter", "lon": -76.98425416666667, "is_reserved": 0, "fusion_lon": 0.0, "bike_id": "3ad32bd99b84ede75d850dbca4790fe8", "name": "3ad32bd99b84ede75d850dbca4790fe8", "rental_uris": {"ios": "https://dc.lft.to/lastmile_qr_scan", "android": "https://dc.lft.to/lastmile_qr_scan"}},