{"data": {"bikes": [{"bike_id": "bafbd45bbe68c097762feea2f6d65375", "type": "electric_scooter", "is_disabled": 0, "lat": 38.925475666666664, "rental_uris": {"ios": "https://dc.lft.to/lastmile_qr_scan", "android": "https://dc.lft.to/lastmile_qr_scan"}, "is_reserved": 0, "fusion_lon": 0.0, "fusion_lat": 0.0, "lon": -77.02280116666667, "name": "bafbd45bbe68c097762feea2f6d65375"}, {"bike_id": "034a43a85db042ed39a37c1c97d0bde0", "type": "electric_scooter", "is_disabled": 0, "lat": 38.88427633333333, "rental_uris": {"ios": "https://dc.lft.to/lastmile_qr_scan", "android": "https://dc.lft.to/lastmile_qr_scan"}, "is_reserved": 0, "fusion_lon": 0.0, "fusion_lat": 0.0, "lon": -76.95749833333333, "name": "034a43a85db042ed39a37c1c97d0bde0"}, {"bike_id": "16d029af73559f246856d9f9580c2020", "type": "electric_scooter", "is_disabled": 0, "lat": 38.9103375, "rental_uris": {"ios": "https://dc.lft.to/lastmile_qr_scan", "android": "https://dc.lft.to/lastmile_qr_scan"}, "is_reserved": 0, "fusion_lon": 0.0, "fusion_lat": 0.0, "lon": -77.0379945, "name": "16d029af73559f246856d9f9580c2020"}, {"bike_id": "5941ae3e0ee0fa8c9f22b35c4c986f94", "type": "electric_scooter", "is_disabled": 0, "lat": 38.887410333333335, "rental_uris": {"ios": "https://dc.lft.to/lastmile_qr_scan", "android": "https://dc.lft.to/lastmile_qr_scan"}, "is_reserved": 0, "fusion_lon": 0.0, "fusion_lat": 0.0, "lon": -77.02395416666667, "name": "5941ae3e0ee0fa8c9f22b35c4c986f94"}, {"bike_id": "1b3953f500aea83f7e4c67db7c73ff1d", "type": "electric_scooter", "is_disabled": 0, "lat": 38.918236, "rental_uris": {"ios": "https://dc.lft.to/lastmile_qr_scan", "android": "https://dc.lft.to/lastmile_qr_scan"}, "is_reserved": 0, "fusion_lon": 0.0, "fusion_lat": 0.0, "lon": -77.04509183333333, "name": "1b3953f500aea83f7e4c67db7c73ff1d"}, {"bike_id": "008f7d080825eb5ed9aa0968751bf55b", "type": "electric_scooter", "is_disabled": 0, "lat": 38.890063, "rental_uris": {"ios": "https://dc.lft.to/lastmile_qr_scan", "android": "https://dc.lft.to/lastmile_qr_scan"}, "is_reserved": 0, "fusion_lon": 0.0, "fusion_lat": 0.0, "lon": -76.93744583333333, "name": "008f7d080825eb5ed9aa0968751bf55b"}, {"bike_id": "6299e6809e04c80fbf26ceb02ff593d3", "type": "electric_scooter", "is_disabled": 0, "lat": 38.917903333333335, "rental_uris": {"ios": "https://dc.lft.to/lastmile_qr_scan", "android": "https://dc.lft.to/lastmile_qr_scan"}, "is_reserved": 0, "fusion_lon": 0.0, "fusion_lat": 0.0, "lon": -77.0230265, "name": "6299e6809e04c80fbf26ceb02ff593d3"}, {"bike_id": "332960dc35e1a226c714430acc53964f", "type": "electric_scooter", "is_disabled": 0, "lat": 38.9144605, "rental_uris": {"ios": "https://dc.lft.to/lastmile_qr_scan", "android": "https://dc.lft.to/lastmile_qr_scan"}, "is_reserved": 0, "fusion_lon": 0.0, "fusion_lat": 0.0, "lon": -77.02595083333334, "name": "332960dc35e1a226c714430acc53964f"}, {"bike_id": "a5c0054cbed3c4ee6b0c4b15dd4aef50", "type": "electric_scooter", "is_disabled": 0, "lat": 38.901467833333335, "rental_uris": {"ios": "https://dc.lft.to/lastmile_qr_scan", "android": "https://dc.lft.to/lastmile_qr_scan"}, "is_reserved": 0, "fusion_lon": 0.0, "fusion_lat": 0.0, "lon": -77.01796566666667, "name": "a5c0054cbed3c4ee6b0c4b15dd4aef50"}, {"bike_id": "7f7e6155cf887e7455adda93ecd9b74e", "type": "electric_scooter", "is_disabled": 0, "lat": 38.91604183333333, "rental_uris": {"ios": "https://dc.lft.to/lastmile_qr_scan", "android": "https://dc.lft.to/lastmile_qr_scan"}, "is_reserved": 0, "fusion_lon": 0.0, "fusion_lat": 0.0, "lon": -77.039891, "name": "7f7e6155cf887e7455adda93ecd9b74e"}, {"bike_id": "a8a0a59e9149923974db340b961b4831", "type": "electric_scooter", "is_disabled": 0, "lat": 38.94615816666666, "rental_uris": {"ios": "https://dc.lft.to/lastmile_qr_scan", "android": "https://dc.lft.to/lastmile_qr_scan"}, "is_reserved": 0, "fusion_lon": 0.0, "fusion_lat": 0.0, "lon": -77.022677, "name": "a8a0a59e9149923974db340b961b4831"}, {"bike_id": "0b21725f92d9aca72baa918082cc7c30", "type": "electric_scooter", "is_disabled": 0, "lat": 38.90793133333333, "rental_uris": {"ios": "https://dc.lft.to/lastmile_qr_scan", "android": "https://dc.lft.to/lastmile_qr_scan"}, "is_reserved": 0, "fusion_lon": 0.0, "fusion_lat": 0.0, "lon": -76.994342, "name": "0b21725f92d9aca72baa918082cc7c30"}, {"bike_id": "8c364515b0875673c5ef43a078c2f905", "type": "electric_scooter", "is_disabled": 0, "lat": 38.939863, "rental_uris": {"ios": "https://dc.lft.to/lastmile_qr_scan", "android": "https://dc.lft.to/lastmile_qr_scan"}, "is_reserved": 0, "fusion_lon": 0.0, "fusion_lat": 0.0, "lon": -77.02873133333334, "name": "8c364515b0875673c5ef43a078c2f905"}, {"bike_id": "cc77b59070552c9e1b94f1f1d185e99e", "type": "electric_scooter", "is_disabled": 0, "lat": 38.92328966666667, "rental_uris": {"ios": "https://dc.lft.to/lastmile_qr_scan", "android": "https://dc.lft.to/lastmile_qr_scan"}, "is_reserved": 0, "fusion_lon": 0.0, "fusion_lat": 0.0, "lon": -77.00054416666667, "name": "cc77b59070552c9e1b94f1f1d185e99e"}, {"bike_id": "9f1a0c70c6991a920144e828610bbc62", "type": "electric_scooter", "is_disabled": 0, "lat": 38.86626616666667, "rental_uris": {"ios": "https://dc.lft.to/lastmile_qr_scan", "android": "https://dc.lft.to/lastmile_qr_scan"}, "is_reserved": 0, "fusion_lon": 0.0, "fusion_lat": 0.0, "lon": -76.98717916666666, "name": "9f1a0c70c6991a920144e828610bbc62"}, {"bike_id": "a17a345c917e8ca23cfbdf9d79ceb6ec", "type": "electric_scooter", "is_disabled": 0, "lat": 38.916996166666664, "rental_uris": {"ios": "https://dc.lft.to/lastmile_qr_scan", "android": "https://dc.lft.to/lastmile_qr_scan"}, "is_reserved": 0, "fusion_lon": 0.0, "fusion_lat": 0.0, "lon": -77.03176766666667, "name": "a17a345c917e8ca23cfbdf9d79ceb6ec"}, {"bike_id": "7754d86d25bf71c2748e6b15a645a737", "type": "electric_scooter", "is_disabled": 0, "lat": 38.893085, "rental_uris": {"ios": "https://dc.lft.to/lastmile_qr_scan", "android": "https://dc.lft.to/lastmile_qr_scan"}, "is_reserved": 0, "fusion_lon": 0.0, "fusion_lat": 0.0, "lon": -77.02023583333333, "name": "7754d86d25bf71c2748e6b15a645a737"}, {"bike_id": "2632716276436fa14111661938b4e328", "type": "electric_scooter", "is_disabled": 0, "lat": 38.89489716666667, "rental_uris": {"ios": "https://dc.lft.to/lastmile_qr_scan", "android": "https://dc.lft.to/lastmile_qr_scan"}, "is_reserved": 0, "fusion_lon": 0.0, "fusion_lat": 0.0, "lon": -76.98778183333333, "name": "2632716276436fa14111661938b4e328"}, {"bike_id": "0877289ae8dea605d4f62d91ce2f95e4", "type": "electric_scooter", "is_disabled": 0, "lat": 38.90554516666667, "rental_uris": {"ios": "https://dc.lft.to/lastmile_qr_scan", "android": "https://dc.lft.to/lastmile_qr_scan"}, "is_reserved": 0, "fusion_lon": 0.0, "fusion_lat": 0.0, "lon": -77.02181966666667, "name": "0877289ae8dea605d4f62d91ce2f95e4"}, {"bike_id": "7316e145614751c10346d3f1b653968b", "type": "electric_scooter", "is_disabled": 0, "lat": 38.9296385, "rental_uris": {"ios": "https://dc.lft.to/lastmile_qr_scan", "android": "https://dc.lft.to/lastmile_qr_scan"}, "is_reserved": 0, "fusion_lon": 0.0, "fusion_lat": 0.0, "lon": -77.02794616666667, "name": "7316e145614751c10346d3f1b653968b"}, {"bike_id": "0be0fac3ca7a267436c4cb7db71d92e6", "type": "electric_scooter", "is_disabled": 0, "lat": 38.89566516666667, "rental_uris": {"ios": "https://dc.lft.to/lastmile_qr_scan", "android": "https://dc.lft.to/lastmile_qr_scan"}, "is_reserved": 0, "fusion_lon": 0.0, "fusion_lat": 0.0, "lon": -77.008961, "name": "0be0fac3ca7a267436c4cb7db71d92e6"}, {"bike_id": "fa382e2d47f70699a08fb8f99f4ad7ea", "type": "electric_scooter", "is_disabled": 0, "lat": 38.858137666666664, "rental_uris": {"ios": "https://dc.lft.to/lastmile_qr_scan", "android": "https://dc.lft.to/lastmile_qr_scan"}, "is_reserved": 0, "fusion_lon": 0.0, "fusion_lat": 0.0, "lon": -76.989224, "name": "fa382e2d47f70699a08fb8f99f4ad7ea"}, {"bike_id": "e989b45edc37139367e91e2fd525acd1", "type": "electric_scooter", "is_disabled": 0, "lat": 38.87070683333334, "rental_uris": {"ios": "https://dc.lft.to/lastmile_qr_scan", "android": "https://dc.lft.to/lastmile_qr_scan"}, "is_reserved": 0, "fusion_lon": 0.0, "fusion_lat": 0.0, "lon": -76.98130616666667, "name": "e989b45edc37139367e91e2fd525acd1"}, {"bike_id": "431afbaa4d50c747a27f6bb28a4ccc0e", "type": "electric_scooter", "is_disabled": 0, "lat": 38.897311333333334, "rental_uris": {"ios": "https://dc.lft.to/lastmile_qr_scan", "android": "https://dc.lft.to/lastmile_qr_scan"}, "is_reserved": 0, "fusion_lon": 0.0, "fusion_lat": 0.0, "lon": -77.02706533333334, "name": "431afbaa4d50c747a27f6bb28a4ccc0e"}, {"bike_id": "128b1f3a86ede030219ff84bf409c242", "type": "electric_scooter", "is_disabled": 0, "lat": 38.8864245, "rental_uris": {"ios": "https://dc.lft.to/lastmile_qr_scan", "android": "https://dc.lft.to/lastmile_qr_scan"}, "is_reserved": 0, "fusion_lon": 0.0, "fusion_lat": 0.0, "lon": -77.01369633333333, "name": "128b1f3a86ede030219ff84bf409c242"}, {"bike_id": "b54bf88e7b9728b3aa1ce5df1241a314", "type": "electric_bike", "is_disabled": 0, "lat": 38.807528166666664, "rental_uris": {"ios": "https://dc.lft.to/lastmile_qr_scan", "android": "https://dc.lft.to/lastmile_qr_scan"}, "is_reserved": 0, "fusion_lon": 0.0, "fusion_lat": 0.0, "lon": -77.09453433333333, "name": "b54bf88e7b9728b3aa1ce5df1241a314"}, {"bike_id": "b7eb923a3938341aea9477550b94d620", "type": "electric_bike", "is_disabled": 0, "lat": 38.94366433333333, "rental_uris": {"ios": "https://dc.lft.to/lastmile_qr_scan", "android": "https://dc.lft.to/lastmile_qr_scan"}, "is_reserved": 0, "fusion_lon": 0.0, "fusion_lat": 0.0, "lon": -77.00353633333333, "name": "b7eb923a3938341aea9477550b94d620"}, {"bike_id": "c41605802675724a9b918fa48799eaba", "type": "electric_scooter", "is_disabled": 0, "lat": 38.89199883333333, "rental_uris": {"ios": "https://dc.lft.to/lastmile_qr_scan", "android": "https://dc.lft.to/lastmile_qr_scan"}, "is_reserved": 0, "fusion_lon": 0.0, "fusion_lat": 0.0, "lon": -77.02505266666667, "name": "c41605802675724a9b918fa48799eaba"}, {"bike_id": "c04e6873659a30d6ab705cfe1aafb716", "type": "electric_scooter", "is_disabled": 0, "lat": 38.917073333333335, "rental_uris": {"ios": "https://dc.lft.to/lastmile_qr_scan", "android": "https://dc.lft.to/lastmile_qr_scan"}, "is_reserved": 0, "fusion_lon": 0.0, "fusion_lat": 0.0, "lon": -77.02887783333334, "name": "c04e6873659a30d6ab705cfe1aafb716"}, {"bike_id": "974dd6e2639d5faf83c3c9fd8f87c7ac", "type": "electric_scooter", "is_disabled": 0, "lat": 38.93323566666667, "rental_uris": {"ios": "https://dc.lft.to/lastmile_qr_scan", "android": "https://dc.lft.to/lastmile_qr_scan"}, "is_reserved": 0, "fusion_lon": 0.0, "fusion_lat": 0.0, "lon": -77.02395483333333, "name": "974dd6e2639d5faf83c3c9fd8f87c7ac"}, {"bike_id": "5bbcb19c909e7b974b5d575f9cbd222d", "type": "electric_scooter", "is_disabled": 0, "lat": 38.899709333333334, "rental_uris": {"ios": "https://dc.lft.to/lastmile_qr_scan", "android": "https://dc.lft.to/lastmile_qr_scan"}, "is_reserved": 0, "fusion_lon": 0.0, "fusion_lat": 0.0, "lon": -76.98303833333334, "name": "5bbcb19c909e7b974b5d575f9cbd222d"}, {"bike_id": "cd2f869f1153c08c833b5f83a490eb29", "type": "electric_scooter", "is_disabled": 0, "lat": 38.895478, "rental_uris": {"ios": "https://dc.lft.to/lastmile_qr_scan", "android": "https://dc.lft.to/lastmile_qr_scan"}, "is_reserved": 0, "fusion_lon": 0.0, "fusion_lat": 0.0, "lon": -76.92953733333333, "name": "cd2f869f1153c08c833b5f83a490eb29"}, {"bike_id": "c264dbec426e6c1ead8ca549dced3e20", "type": "electric_scooter", "is_disabled": 0, "lat": 38.94001683333333, "rental_uris": {"ios": "https://dc.lft.to/lastmile_qr_scan", "android": "https://dc.lft.to/lastmile_qr_scan"}, "is_reserved": 0, "fusion_lon": 0.0, "fusion_lat": 0.0, "lon": -77.0380245, "name": "c264dbec426e6c1ead8ca549dced3e20"}, {"bike_id": "f61e9e6985e2c04c675c849d25f47d90", "type": "electric_scooter", "is_disabled": 0, "lat": 38.894911, "rental_uris": {"ios": "https://dc.lft.to/lastmile_qr_scan", "android": "https://dc.lft.to/lastmile_qr_scan"}, "is_reserved": 0, "fusion_lon": 0.0, "fusion_lat": 0.0, "lon": -77.0006365, "name": "f61e9e6985e2c04c675c849d25f47d90"}, {"bike_id": "a40142cad8feffac297faabd8f3069a7", "type": "electric_scooter", "is_disabled": 0, "lat": 38.880838833333335, "rental_uris": {"ios": "https://dc.lft.to/lastmile_qr_scan", "android": "https://dc.lft.to/lastmile_qr_scan"}, "is_reserved": 0, "fusion_lon": 0.0, "fusion_lat": 0.0, "lon": -76.98512133333334, "name": "a40142cad8feffac297faabd8f3069a7"}, {"bike_id": "7db6c4146d991f2555aa6da22e44f434", "type": "electric_scooter", "is_disabled": 0, "lat": 38.89990233333333, "rental_uris": {"ios": "https://dc.lft.to/lastmile_qr_scan", "android": "https://dc.lft.to/lastmile_qr_scan"}, "is_reserved": 0, "fusion_lon": 0.0, "fusion_lat": 0.0, "lon": -77.02382633333333, "name": "7db6c4146d991f2555aa6da22e44f434"}, {"bike_id": "33d4e9ebde0a2ee14399ceb32337a44a", "type": "electric_scooter", "is_disabled": 0, "lat": 38.9205025, "rental_uris": {"ios": "https://dc.lft.to/lastmile_qr_scan", "android": "https://dc.lft.to/lastmile_qr_scan"}, "is_reserved": 0, "fusion_lon": 0.0, "fusion_lat": 0.0, "lon": -77.033931, "name": "33d4e9ebde0a2ee14399ceb32337a44a"}, {"bike_id": "189c3d62d350b6f5ddd7d571838505d0", "type": "electric_scooter", "is_disabled": 0, "lat": 38.90759716666667, "rental_uris": {"ios": "https://dc.lft.to/lastmile_qr_scan", "android": "https://dc.lft.to/lastmile_qr_scan"}, "is_reserved": 0, "fusion_lon": 0.0, "fusion_lat": 0.0, "lon": -77.03214733333333, "name": "189c3d62d350b6f5ddd7d571838505d0"}, {"bike_id": "46eec919aee742481ac99e7054fdbb1a", "type": "electric_scooter", "is_disabled": 0, "lat": 38.913289166666665, "rental_uris": {"ios": "https://dc.lft.to/lastmile_qr_scan", "android": "https://dc.lft.to/lastmile_qr_scan"}, "is_reserved": 0, "fusion_lon": 0.0, "fusion_lat": 0.0, "lon": -77.04531283333333, "name": "46eec919aee742481ac99e7054fdbb1a"}, {"bike_id": "59e11a1b5b3f40d734cbcd0d4fa87a22", "type": "electric_bike", "is_disabled": 0, "lat": 38.8236755, "rental_uris": {"ios": "https://dc.lft.to/lastmile_qr_scan", "android": "https://dc.lft.to/lastmile_qr_scan"}, "is_reserved": 0, "fusion_lon": 0.0, "fusion_lat": 0.0, "lon": -77.00217933333333, "name": "59e11a1b5b3f40d734cbcd0d4fa87a22"}, {"bike_id": "8291a3ade54cfc29ec16d2fe30381840", "type": "electric_bike", "is_disabled": 0, "lat": 38.859385, "rental_uris": {"ios": "https://dc.lft.to/lastmile_qr_scan", "android": "https://dc.lft.to/lastmile_qr_scan"}, "is_reserved": 0, "fusion_lon": 0.0, "fusion_lat": 0.0, "lon": -77.11830166666667, "name": "8291a3ade54cfc29ec16d2fe30381840"}, {"bike_id": "485140bda5933eb2575d9186c9ff9769", "type": "electric_scooter", "is_disabled": 0, "lat": 38.892439, "rental_uris": {"ios": "https://dc.lft.to/lastmile_qr_scan", "android": "https://dc.lft.to/lastmile_qr_scan"}, "is_reserved": 0, "fusion_lon": 0.0, "fusion_lat": 0.0, "lon": -77.02613516666666, "name": "485140bda5933eb2575d9186c9ff9769"}, {"bike_id": "e32a0f0b4d30376d2934595b93287ce5", "type": "electric_scooter", "is_disabled": 0, "lat": 38.91057583333333, "rental_uris": {"ios": "https://dc.lft.to/lastmile_qr_scan", "android": "https://dc.lft.to/lastmile_qr_scan"}, "is_reserved": 0, "fusion_lon": 0.0, "fusion_lat": 0.0, "lon": -77.041016, "name": "e32a0f0b4d30376d2934595b93287ce5"}, {"bike_id": "89243ae5b3471faa2e6fb4fe6f002727", "type": "electric_scooter", "is_disabled": 0, "lat": 38.9109605, "rental_uris": {"ios": "https://dc.lft.to/lastmile_qr_scan", "android": "https://dc.lft.to/lastmile_qr_scan"}, "is_reserved": 0, "fusion_lon": 0.0, "fusion_lat": 0.0, "lon": -77.042138, "name": "89243ae5b3471faa2e6fb4fe6f002727"}, {"bike_id": "667f2e7162b7c416dfed72ab590c1663", "type": "electric_scooter", "is_disabled": 0, "lat": 38.92061116666667, "rental_uris": {"ios": "https://dc.lft.to/lastmile_qr_scan", "android": "https://dc.lft.to/lastmile_qr_scan"}, "is_reserved": 0, "fusion_lon": 0.0, "fusion_lat": 0.0, "lon": -77.046971, "name": "667f2e7162b7c416dfed72ab590c1663"}, {"bike_id": "d5d7a3fc239809cb13ede7ccb876c588", "type": "electric_scooter", "is_disabled": 0, "lat": 38.919993833333336, "rental_uris": {"ios": "https://dc.lft.to/lastmile_qr_scan", "android": "https://dc.lft.to/lastmile_qr_scan"}, "is_reserved": 0, "fusion_lon": 0.0, "fusion_lat": 0.0, "lon": -77.01786983333334, "name": "d5d7a3fc239809cb13ede7ccb876c588"}, {"bike_id": "0f13d1701258eb9fabf2c10c3e3117d3", "type": "electric_scooter", "is_disabled": 0, "lat": 38.91613433333333, "rental_uris": {"ios": "https://dc.lft.to/lastmile_qr_scan", "android": "https://dc.lft.to/lastmile_qr_scan"}, "is_reserved": 0, "fusion_lon": 0.0, "fusion_lat": 0.0, "lon": -77.03381716666667, "name": "0f13d1701258eb9fabf2c10c3e3117d3"}, {"bike_id": "10e3bd8f6a5efc59064a44d6f4afc7ab", "type": "electric_scooter", "is_disabled": 0, "lat": 38.86504933333333, "rental_uris": {"ios": "https://dc.lft.to/lastmile_qr_scan", "android": "https://dc.lft.to/lastmile_qr_scan"}, "is_reserved": 0, "fusion_lon": 0.0, "fusion_lat": 0.0, "lon": -76.9900205, "name": "10e3bd8f6a5efc59064a44d6f4afc7ab"}, {"bike_id": "8239311d6417645812888b93c4bb7402", "type": "electric_scooter", "is_disabled": 0, "lat": 38.922572, "rental_uris": {"ios": "https://dc.lft.to/lastmile_qr_scan", "android": "https://dc.lft.to/lastmile_qr_scan"}, "is_reserved": 0, "fusion_lon": 0.0, "fusion_lat": 0.0, "lon": -77.03520766666666, "name": "8239311d6417645812888b93c4bb7402"}, {"bike_id": "2fab8ab3c67b1a22731a1d19b3ab5f94", "type": "electric_scooter", "is_disabled": 0, "lat": 38.923947166666665, "rental_uris": {"ios": "https://dc.lft.to/lastmile_qr_scan", "android": "https://dc.lft.to/lastmile_qr_scan"}, "is_reserved": 0, "fusion_lon": 0.0, "fusion_lat": 0.0, "lon": -77.04475516666666, "name": "2fab8ab3c67b1a22731a1d19b3ab5f94"}, {"bike_id": "e86eb78a368c975c40a01ed7ae0a4284", "type": "electric_scooter", "is_disabled": 0, "lat": 38.919599833333336, "rental_uris": {"ios": "https://dc.lft.to/lastmile_qr_scan", "android": "https://dc.lft.to/lastmile_qr_scan"}, "is_reserved": 0, "fusion_lon": 0.0, "fusion_lat": 0.0, "lon": -77.04148183333334, "name": "e86eb78a368c975c40a01ed7ae0a4284"}, {"bike_id": "8513bbb5052b0ffc5719fead1d3fa3d0", "type": "electric_scooter", "is_disabled": 0, "lat": 38.919366833333335, "rental_uris": {"ios": "https://dc.lft.to/lastmile_qr_scan", "android": "https://dc.lft.to/lastmile_qr_scan"}, "is_reserved": 0, "fusion_lon": 0.0, "fusion_lat": 0.0, "lon": -77.02513933333333, "name": "8513bbb5052b0ffc5719fead1d3fa3d0"}, {"bike_id": "01ef959997ce71b6deea2b9b1225f520", "type": "electric_scooter", "is_disabled": 0, "lat": 38.905707166666666, "rental_uris": {"ios": "https://dc.lft.to/lastmile_qr_scan", "android": "https://dc.lft.to/lastmile_qr_scan"}, "is_reserved": 0, "fusion_lon": 0.0, "fusion_lat": 0.0, "lon": -77.02208583333334, "name": "01ef959997ce71b6deea2b9b1225f520"}, {"bike_id": "29ed83656133aa7ac629bef83e21830b", "type": "electric_bike", "is_disabled": 0, "lat": 38.800269, "rental_uris": {"ios": "https://dc.lft.to/lastmile_qr_scan", "android": "https://dc.lft.to/lastmile_qr_scan"}, "is_reserved": 0, "fusion_lon": 0.0, "fusion_lat": 0.0, "lon": -77.06330216666667, "name": "29ed83656133aa7ac629bef83e21830b"}, {"bike_id": "c896a58895ad07246b15a8a021a192c6", "type": "electric_scooter", "is_disabled": 0, "lat": 38.94994883333333, "rental_uris": {"ios": "https://dc.lft.to/lastmile_qr_scan", "android": "https://dc.lft.to/lastmile_qr_scan"}, "is_reserved": 0, "fusion_lon": 0.0, "fusion_lat": 0.0, "lon": -77.01830433333333, "name": "c896a58895ad07246b15a8a021a192c6"}, {"bike_id": "d1409b5cfbec8235ba8af9cb15a9aba1", "type": "electric_scooter", "is_disabled": 0, "lat": 38.905206666666665, "rental_uris": {"ios": "https://dc.lft.to/lastmile_qr_scan", "android": "https://dc.lft.to/lastmile_qr_scan"}, "is_reserved": 0, "fusion_lon": 0.0, "fusion_lat": 0.0, "lon": -77.05187383333333, "name": "d1409b5cfbec8235ba8af9cb15a9aba1"}, {"bike_id": "8820afd0448df0985d13f765143d18f4", "type": "electric_scooter", "is_disabled": 0, "lat": 38.90499583333333, "rental_uris": {"ios": "https://dc.lft.to/lastmile_qr_scan", "android": "https://dc.lft.to/lastmile_qr_scan"}, "is_reserved": 0, "fusion_lon": 0.0, "fusion_lat": 0.0, "lon": -77.0688475, "name": "8820afd0448df0985d13f765143d18f4"}, {"bike_id": "b8e8fbd29d1f9dc605a99945b040e9d2", "type": "electric_scooter", "is_disabled": 0, "lat": 38.91649316666667, "rental_uris": {"ios": "https://dc.lft.to/lastmile_qr_scan", "android": "https://dc.lft.to/lastmile_qr_scan"}, "is_reserved": 0, "fusion_lon": 0.0, "fusion_lat": 0.0, "lon": -77.032101, "name": "b8e8fbd29d1f9dc605a99945b040e9d2"}, {"bike_id": "e2c6123831517d118063f94affb83581", "type": "electric_scooter", "is_disabled": 0, "lat": 38.9392885, "rental_uris": {"ios": "https://dc.lft.to/lastmile_qr_scan", "android": "https://dc.lft.to/lastmile_qr_scan"}, "is_reserved": 0, "fusion_lon": 0.0, "fusion_lat": 0.0, "lon": -77.0368505, "name": "e2c6123831517d118063f94affb83581"}, {"bike_id": "916250f3e2451d8b3d67d932fafc7004", "type": "electric_scooter", "is_disabled": 0, "lat": 38.87629833333333, "rental_uris": {"ios": "https://dc.lft.to/lastmile_qr_scan", "android": "https://dc.lft.to/lastmile_qr_scan"}, "is_reserved": 0, "fusion_lon": 0.0, "fusion_lat": 0.0, "lon": -76.965253, "name": "916250f3e2451d8b3d67d932fafc7004"}, {"bike_id": "a7434c07a49f9981cc313de770486b01", "type": "electric_scooter", "is_disabled": 0, "lat": 38.884943166666666, "rental_uris": {"ios": "https://dc.lft.to/lastmile_qr_scan", "android": "https://dc.lft.to/lastmile_qr_scan"}, "is_reserved": 0, "fusion_lon": 0.0, "fusion_lat": 0.0, "lon": -77.015297, "name": "a7434c07a49f9981cc313de770486b01"}, {"bike_id": "80b7833b9a12125724351723903c9348", "type": "electric_scooter", "is_disabled": 0, "lat": 38.906099833333336, "rental_uris": {"ios": "https://dc.lft.to/lastmile_qr_scan", "android": "https://dc.lft.to/lastmile_qr_scan"}, "is_reserved": 0, "fusion_lon": 0.0, "fusion_lat": 0.0, "lon": -77.00743666666666, "name": "80b7833b9a12125724351723903c9348"}, {"bike_id": "91436afe733cc7b20c774d9d409efe18", "type": "electric_scooter", "is_disabled": 0, "lat": 38.90043983333333, "rental_uris": {"ios": "https://dc.lft.to/lastmile_qr_scan", "android": "https://dc.lft.to/lastmile_qr_scan"}, "is_reserved": 0, "fusion_lon": 0.0, "fusion_lat": 0.0, "lon": -77.01291116666667, "name": "91436afe733cc7b20c774d9d409efe18"}, {"bike_id": "bb186400e1ec817d6be9e38066244643", "type": "electric_scooter", "is_disabled": 0, "lat": 38.896292333333335, "rental_uris": {"ios": "https://dc.lft.to/lastmile_qr_scan", "android": "https://dc.lft.to/lastmile_qr_scan"}, "is_reserved": 0, "fusion_lon": 0.0, "fusion_lat": 0.0, "lon": -77.03963483333334, "name": "bb186400e1ec817d6be9e38066244643"}, {"bike_id": "5765db2f59d3ea2a95f85dceb23a1d61", "type": "electric_scooter", "is_disabled": 0, "lat": 38.900672666666665, "rental_uris": {"ios": "https://dc.lft.to/lastmile_qr_scan", "android": "https://dc.lft.to/lastmile_qr_scan"}, "is_reserved": 0, "fusion_lon": 0.0, "fusion_lat": 0.0, "lon": -76.927391, "name": "5765db2f59d3ea2a95f85dceb23a1d61"}, {"bike_id": "a24d5647903f5bebf9330910418f91bb", "type": "electric_bike", "is_disabled": 0, "lat": 38.89797633333333, "rental_uris": {"ios": "https://dc.lft.to/lastmile_qr_scan", "android": "https://dc.lft.to/lastmile_qr_scan"}, "is_reserved": 0, "fusion_lon": 0.0, "fusion_lat": 0.0, "lon": -77.03176833333333, "name": "a24d5647903f5bebf9330910418f91bb"}, {"bike_id": "12d7ba87af2a4752215cca61ee4977a5", "type": "electric_scooter", "is_disabled": 0, "lat": 38.91612166666667, "rental_uris": {"ios": "https://dc.lft.to/lastmile_qr_scan", "android": "https://dc.lft.to/lastmile_qr_scan"}, "is_reserved": 0, "fusion_lon": 0.0, "fusion_lat": 0.0, "lon": -77.04872383333333, "name": "12d7ba87af2a4752215cca61ee4977a5"}, {"bike_id": "4bd582a65a60f624311c83e0f67f8d63", "type": "electric_scooter", "is_disabled": 0, "lat": 38.917159833333336, "rental_uris": {"ios": "https://dc.lft.to/lastmile_qr_scan", "android": "https://dc.lft.to/lastmile_qr_scan"}, "is_reserved": 0, "fusion_lon": 0.0, "fusion_lat": 0.0, "lon": -77.03662683333333, "name": "4bd582a65a60f624311c83e0f67f8d63"}, {"bike_id": "63cf5f8529d1f2354ac0096c55d631df", "type": "electric_scooter", "is_disabled": 0, "lat": 38.910757833333335, "rental_uris": {"ios": "https://dc.lft.to/lastmile_qr_scan", "android": "https://dc.lft.to/lastmile_qr_scan"}, "is_reserved": 0, "fusion_lon": 0.0, "fusion_lat": 0.0, "lon": -77.037117, "name": "63cf5f8529d1f2354ac0096c55d631df"}, {"bike_id": "25dfc5bd61be2be7f8ff7d400ad00d69", "type": "electric_scooter", "is_disabled": 0, "lat": 38.9485595, "rental_uris": {"ios": "https://dc.lft.to/lastmile_qr_scan", "android": "https://dc.lft.to/lastmile_qr_scan"}, "is_reserved": 0, "fusion_lon": 0.0, "fusion_lat": 0.0, "lon": -77.08015383333333, "name": "25dfc5bd61be2be7f8ff7d400ad00d69"}, {"bike_id": "ed2c3e8f288fff41d7456c4d48de130d", "type": "electric_scooter", "is_disabled": 0, "lat": 38.93456833333333, "rental_uris": {"ios": "https://dc.lft.to/lastmile_qr_scan", "android": "https://dc.lft.to/lastmile_qr_scan"}, "is_reserved": 0, "fusion_lon": 0.0, "fusion_lat": 0.0, "lon": -77.027953, "name": "ed2c3e8f288fff41d7456c4d48de130d"}, {"bike_id": "e4bda2859cded94a1905af508e70126f", "type": "electric_scooter", "is_disabled": 0, "lat": 38.90465716666667, "rental_uris": {"ios": "https://dc.lft.to/lastmile_qr_scan", "android": "https://dc.lft.to/lastmile_qr_scan"}, "is_reserved": 0, "fusion_lon": 0.0, "fusion_lat": 0.0, "lon": -76.97612566666666, "name": "e4bda2859cded94a1905af508e70126f"}, {"bike_id": "136226025c823412716275216724cb35", "type": "electric_scooter", "is_disabled": 0, "lat": 38.90854816666667, "rental_uris": {"ios": "https://dc.lft.to/lastmile_qr_scan", "android": "https://dc.lft.to/lastmile_qr_scan"}, "is_reserved": 0, "fusion_lon": 0.0, "fusion_lat": 0.0, "lon": -77.05490166666667, "name": "136226025c823412716275216724cb35"}, {"bike_id": "05d014d40cea4f9ae630fd5939f828ba", "type": "electric_scooter", "is_disabled": 0, "lat": 38.90683333333333, "rental_uris": {"ios": "https://dc.lft.to/lastmile_qr_scan", "android": "https://dc.lft.to/lastmile_qr_scan"}, "is_reserved": 0, "fusion_lon": 0.0, "fusion_lat": 0.0, "lon": -76.98000783333333, "name": "05d014d40cea4f9ae630fd5939f828ba"}, {"bike_id": "542309302cbfe71e9690eb8754eaedac", "type": "electric_scooter", "is_disabled": 0, "lat": 38.921501, "rental_uris": {"ios": "https://dc.lft.to/lastmile_qr_scan", "android": "https://dc.lft.to/lastmile_qr_scan"}, "is_reserved": 0, "fusion_lon": 0.0, "fusion_lat": 0.0, "lon": -77.035132, "name": "542309302cbfe71e9690eb8754eaedac"}, {"bike_id": "0d5d7e8f2c652d5dad0a282b2486d0c0", "type": "electric_scooter", "is_disabled": 0, "lat": 38.8935405, "rental_uris": {"ios": "https://dc.lft.to/lastmile_qr_scan", "android": "https://dc.lft.to/lastmile_qr_scan"}, "is_reserved": 0, "fusion_lon": 0.0, "fusion_lat": 0.0, "lon": -77.01538, "name": "0d5d7e8f2c652d5dad0a282b2486d0c0"}, {"bike_id": "862af779ac8b4bab7f962d597a0e3b48", "type": "electric_bike", "is_disabled": 0, "lat": 38.8824605, "rental_uris": {"ios": "https://dc.lft.to/lastmile_qr_scan", "android": "https://dc.lft.to/lastmile_qr_scan"}, "is_reserved": 0, "fusion_lon": 0.0, "fusion_lat": 0.0, "lon": -76.96260433333333, "name": "862af779ac8b4bab7f962d597a0e3b48"}, {"bike_id": "31968dd6aa2f2980d0f758ce957bb9d6", "type": "electric_scooter", "is_disabled": 0, "lat": 38.931463, "rental_uris": {"ios": "https://dc.lft.to/lastmile_qr_scan", "android": "https://dc.lft.to/lastmile_qr_scan"}, "is_reserved": 0, "fusion_lon": 0.0, "fusion_lat": 0.0, "lon": -77.03356666666667, "name": "31968dd6aa2f2980d0f758ce957bb9d6"}, {"bike_id": "9c7e003e7eca947a0a066e1170becee3", "type": "electric_scooter", "is_disabled": 0, "lat": 38.90244766666667, "rental_uris": {"ios": "https://dc.lft.to/lastmile_qr_scan", "android": "https://dc.lft.to/lastmile_qr_scan"}, "is_reserved": 0, "fusion_lon": 0.0, "fusion_lat": 0.0, "lon": -77.00194633333334, "name": "9c7e003e7eca947a0a066e1170becee3"}, {"bike_id": "0b6dabc433c17c311b98e75e5bb85dbe", "type": "electric_bike", "is_disabled": 0, "lat": 38.9323085, "rental_uris": {"ios": "https://dc.lft.to/lastmile_qr_scan", "android": "https://dc.lft.to/lastmile_qr_scan"}, "is_reserved": 0, "fusion_lon": 0.0, "fusion_lat": 0.0, "lon": -77.181206, "name": "0b6dabc433c17c311b98e75e5bb85dbe"}, {"bike_id": "bb25f9f18984e7435f53e99b4fe27f3f", "type": "electric_scooter", "is_disabled": 0, "lat": 38.92067433333333, "rental_uris": {"ios": "https://dc.lft.to/lastmile_qr_scan", "android": "https://dc.lft.to/lastmile_qr_scan"}, "is_reserved": 0, "fusion_lon": 0.0, "fusion_lat": 0.0, "lon": -77.043792, "name": "bb25f9f18984e7435f53e99b4fe27f3f"}, {"bike_id": "acf0592e38487f27175d6ecc23dfa18d", "type": "electric_scooter", "is_disabled": 0, "lat": 38.909096166666664, "rental_uris": {"ios": "https://dc.lft.to/lastmile_qr_scan", "android": "https://dc.lft.to/lastmile_qr_scan"}, "is_reserved": 0, "fusion_lon": 0.0, "fusion_lat": 0.0, "lon": -77.04168583333333, "name": "acf0592e38487f27175d6ecc23dfa18d"}, {"bike_id": "154c87e51b8d36d31db7c3bbfe4de701", "type": "electric_scooter", "is_disabled": 0, "lat": 38.928509, "rental_uris": {"ios": "https://dc.lft.to/lastmile_qr_scan", "android": "https://dc.lft.to/lastmile_qr_scan"}, "is_reserved": 0, "fusion_lon": 0.0, "fusion_lat": 0.0, "lon": -77.03291683333333, "name": "154c87e51b8d36d31db7c3bbfe4de701"}, {"bike_id": "de25b5f229555a3e89c0f3f6342d600e", "type": "electric_scooter", "is_disabled": 0, "lat": 38.902716166666664, "rental_uris": {"ios": "https://dc.lft.to/lastmile_qr_scan", "android": "https://dc.lft.to/lastmile_qr_scan"}, "is_reserved": 0, "fusion_lon": 0.0, "fusion_lat": 0.0, "lon": -77.0176215, "name": "de25b5f229555a3e89c0f3f6342d600e"}, {"bike_id": "d5950f91ce109f9befc259f7fb91313a", "type": "electric_scooter", "is_disabled": 0, "lat": 38.90231883333333, "rental_uris": {"ios": "https://dc.lft.to/lastmile_qr_scan", "android": "https://dc.lft.to/lastmile_qr_scan"}, "is_reserved": 0, "fusion_lon": 0.0, "fusion_lat": 0.0, "lon": -77.0265905, "name": "d5950f91ce109f9befc259f7fb91313a"}, {"bike_id": "061d4858e7218f5ae80d8f2bf5ecc0b1", "type": "electric_scooter", "is_disabled": 0, "lat": 38.90904916666667, "rental_uris": {"ios": "https://dc.lft.to/lastmile_qr_scan", "android": "https://dc.lft.to/lastmile_qr_scan"}, "is_reserved": 0, "fusion_lon": 0.0, "fusion_lat": 0.0, "lon": -77.04209716666666, "name": "061d4858e7218f5ae80d8f2bf5ecc0b1"}, {"bike_id": "07c812cb8b0e2c6f1ac1dee7e0be6771", "type": "electric_scooter", "is_disabled": 0, "lat": 38.88659233333333, "rental_uris": {"ios": "https://dc.lft.to/lastmile_qr_scan", "android": "https://dc.lft.to/lastmile_qr_scan"}, "is_reserved": 0, "fusion_lon": 0.0, "fusion_lat": 0.0, "lon": -77.02828033333333, "name": "07c812cb8b0e2c6f1ac1dee7e0be6771"}, {"bike_id": "02d63a52510df887b7b54b83970f5e8f", "type": "electric_scooter", "is_disabled": 0, "lat": 38.9869715, "rental_uris": {"ios": "https://dc.lft.to/lastmile_qr_scan", "android": "https://dc.lft.to/lastmile_qr_scan"}, "is_reserved": 0, "fusion_lon": 0.0, "fusion_lat": 0.0, "lon": -77.02978833333333, "name": "02d63a52510df887b7b54b83970f5e8f"}, {"bike_id": "e20b10793c5b889b0f498fcafe2a2cca", "type": "electric_scooter", "is_disabled": 0, "lat": 38.89221783333333, "rental_uris": {"ios": "https://dc.lft.to/lastmile_qr_scan", "android": "https://dc.lft.to/lastmile_qr_scan"}, "is_reserved": 0, "fusion_lon": 0.0, "fusion_lat": 0.0, "lon": -77.03974616666666, "name": "e20b10793c5b889b0f498fcafe2a2cca"}, {"bike_id": "2d614eb8a4d6a431fccd4c90c0561162", "type": "electric_scooter", "is_disabled": 0, "lat": 38.90544466666667, "rental_uris": {"ios": "https://dc.lft.to/lastmile_qr_scan", "android": "https://dc.lft.to/lastmile_qr_scan"}, "is_reserved": 0, "fusion_lon": 0.0, "fusion_lat": 0.0, "lon": -77.04995516666666, "name": "2d614eb8a4d6a431fccd4c90c0561162"}, {"bike_id": "3414e0ccf5af2619f2943ea471d21622", "type": "electric_scooter", "is_disabled": 0, "lat": 38.918503, "rental_uris": {"ios": "https://dc.lft.to/lastmile_qr_scan", "android": "https://dc.lft.to/lastmile_qr_scan"}, "is_reserved": 0, "fusion_lon": 0.0, "fusion_lat": 0.0, "lon": -76.96551083333334, "name": "3414e0ccf5af2619f2943ea471d21622"}, {"bike_id": "2272bf41f52fbcb5047e4418a5d17f0c", "type": "electric_scooter", "is_disabled": 0, "lat": 38.88715883333333, "rental_uris": {"ios": "https://dc.lft.to/lastmile_qr_scan", "android": "https://dc.lft.to/lastmile_qr_scan"}, "is_reserved": 0, "fusion_lon": 0.0, "fusion_lat": 0.0, "lon": -77.02205183333334, "name": "2272bf41f52fbcb5047e4418a5d17f0c"}, {"bike_id": "28b7796980e75c578c0733ab23e630ac", "type": "electric_scooter", "is_disabled": 0, "lat": 38.917844833333334, "rental_uris": {"ios": "https://dc.lft.to/lastmile_qr_scan", "android": "https://dc.lft.to/lastmile_qr_scan"}, "is_reserved": 0, "fusion_lon": 0.0, "fusion_lat": 0.0, "lon": -77.02386616666666, "name": "28b7796980e75c578c0733ab23e630ac"}, {"bike_id": "e7e946dfd920fcea4531ec680dd25793", "type": "electric_scooter", "is_disabled": 0, "lat": 38.9288325, "rental_uris": {"ios": "https://dc.lft.to/lastmile_qr_scan", "android": "https://dc.lft.to/lastmile_qr_scan"}, "is_reserved": 0, "fusion_lon": 0.0, "fusion_lat": 0.0, "lon": -77.0329325, "name": "e7e946dfd920fcea4531ec680dd25793"}, {"bike_id": "8b21fbfff2e2e68ad24044b3e53d9b68", "type": "electric_scooter", "is_disabled": 0, "lat": 38.922167333333334, "rental_uris": {"ios": "https://dc.lft.to/lastmile_qr_scan", "android": "https://dc.lft.to/lastmile_qr_scan"}, "is_reserved": 0, "fusion_lon": 0.0, "fusion_lat": 0.0, "lon": -77.04239116666666, "name": "8b21fbfff2e2e68ad24044b3e53d9b68"}, {"bike_id": "8c46a404aa9a29c33350326fc21d7a0c", "type": "electric_scooter", "is_disabled": 0, "lat": 38.92292283333333, "rental_uris": {"ios": "https://dc.lft.to/lastmile_qr_scan", "android": "https://dc.lft.to/lastmile_qr_scan"}, "is_reserved": 0, "fusion_lon": 0.0, "fusion_lat": 0.0, "lon": -77.073248, "name": "8c46a404aa9a29c33350326fc21d7a0c"}, {"bike_id": "3d5ea8902113af33238dd54151d36669", "type": "electric_scooter", "is_disabled": 0, "lat": 38.89241, "rental_uris": {"ios": "https://dc.lft.to/lastmile_qr_scan", "android": "https://dc.lft.to/lastmile_qr_scan"}, "is_reserved": 0, "fusion_lon": 0.0, "fusion_lat": 0.0, "lon": -77.01721683333334, "name": "3d5ea8902113af33238dd54151d36669"}, {"bike_id": "89ecaebaca79d447ca6aad6620b5577b", "type": "electric_scooter", "is_disabled": 0, "lat": 38.908849000000004, "rental_uris": {"ios": "https://dc.lft.to/lastmile_qr_scan", "android": "https://dc.lft.to/lastmile_qr_scan"}, "is_reserved": 0, "fusion_lon": 0.0, "fusion_lat": 0.0, "lon": -77.04502266666667, "name": "89ecaebaca79d447ca6aad6620b5577b"}, {"bike_id": "4f2452986cd7e8610f23661438e96076", "type": "electric_scooter", "is_disabled": 0, "lat": 38.90219966666667, "rental_uris": {"ios": "https://dc.lft.to/lastmile_qr_scan", "android": "https://dc.lft.to/lastmile_qr_scan"}, "is_reserved": 0, "fusion_lon": 0.0, "fusion_lat": 0.0, "lon": -77.01579316666667, "name": "4f2452986cd7e8610f23661438e96076"}, {"bike_id": "935312a76f3be3065aa40430533218f5", "type": "electric_scooter", "is_disabled": 0, "lat": 38.88715633333333, "rental_uris": {"ios": "https://dc.lft.to/lastmile_qr_scan", "android": "https://dc.lft.to/lastmile_qr_scan"}, "is_reserved": 0, "fusion_lon": 0.0, "fusion_lat": 0.0, "lon": -77.022051, "name": "935312a76f3be3065aa40430533218f5"}, {"bike_id": "84e38f2262efcb56c258ac305885e6d1", "type": "electric_scooter", "is_disabled": 0, "lat": 38.915548, "rental_uris": {"ios": "https://dc.lft.to/lastmile_qr_scan", "android": "https://dc.lft.to/lastmile_qr_scan"}, "is_reserved": 0, "fusion_lon": 0.0, "fusion_lat": 0.0, "lon": -77.03175366666666, "name": "84e38f2262efcb56c258ac305885e6d1"}, {"bike_id": "a61eaa87d91347065c70e6dc3c67893f", "type": "electric_scooter", "is_disabled": 0, "lat": 38.91089133333333, "rental_uris": {"ios": "https://dc.lft.to/lastmile_qr_scan", "android": "https://dc.lft.to/lastmile_qr_scan"}, "is_reserved": 0, "fusion_lon": 0.0, "fusion_lat": 0.0, "lon": -77.02184016666666, "name": "a61eaa87d91347065c70e6dc3c67893f"}, {"bike_id": "116a3651fe982a0a72a0dd63c1c2c597", "type": "electric_scooter", "is_disabled": 0, "lat": 38.89293166666667, "rental_uris": {"ios": "https://dc.lft.to/lastmile_qr_scan", "android": "https://dc.lft.to/lastmile_qr_scan"}, "is_reserved": 0, "fusion_lon": 0.0, "fusion_lat": 0.0, "lon": -77.04870533333333, "name": "116a3651fe982a0a72a0dd63c1c2c597"}, {"bike_id": "73bc55315c2b08acdb96c8115843ecc9", "type": "electric_scooter", "is_disabled": 0, "lat": 38.892223, "rental_uris": {"ios": "https://dc.lft.to/lastmile_qr_scan", "android": "https://dc.lft.to/lastmile_qr_scan"}, "is_reserved": 0, "fusion_lon": 0.0, "fusion_lat": 0.0, "lon": -77.02913233333334, "name": "73bc55315c2b08acdb96c8115843ecc9"}, {"bike_id": "aec506193150c0edb81c198d0d92bc21", "type": "electric_scooter", "is_disabled": 0, "lat": 38.93688183333333, "rental_uris": {"ios": "https://dc.lft.to/lastmile_qr_scan", "android": "https://dc.lft.to/lastmile_qr_scan"}, "is_reserved": 0, "fusion_lon": 0.0, "fusion_lat": 0.0, "lon": -77.06622, "name": "aec506193150c0edb81c198d0d92bc21"}, {"bike_id": "bffbef9a001e1a4e44f657be8ce63081", "type": "electric_scooter", "is_disabled": 0, "lat": 38.903933333333335, "rental_uris": {"ios": "https://dc.lft.to/lastmile_qr_scan", "android": "https://dc.lft.to/lastmile_qr_scan"}, "is_reserved": 0, "fusion_lon": 0.0, "fusion_lat": 0.0, "lon": -77.008829, "name": "bffbef9a001e1a4e44f657be8ce63081"}, {"bike_id": "e352c1b6a3e76fb82c8a81aac0b8e3c1", "type": "electric_scooter", "is_disabled": 0, "lat": 38.902591666666666, "rental_uris": {"ios": "https://dc.lft.to/lastmile_qr_scan", "android": "https://dc.lft.to/lastmile_qr_scan"}, "is_reserved": 0, "fusion_lon": 0.0, "fusion_lat": 0.0, "lon": -77.04339833333333, "name": "e352c1b6a3e76fb82c8a81aac0b8e3c1"}, {"bike_id": "d9d4b2336a1e1caacdca7f4828a9c412", "type": "electric_scooter", "is_disabled": 0, "lat": 38.89956516666667, "rental_uris": {"ios": "https://dc.lft.to/lastmile_qr_scan", "android": "https://dc.lft.to/lastmile_qr_scan"}, "is_reserved": 0, "fusion_lon": 0.0, "fusion_lat": 0.0, "lon": -77.02575866666666, "name": "d9d4b2336a1e1caacdca7f4828a9c412"}, {"bike_id": "5ebec5fabe730eb80d037a2cabb8de6f", "type": "electric_scooter", "is_disabled": 0, "lat": 38.90331233333333, "rental_uris": {"ios": "https://dc.lft.to/lastmile_qr_scan", "android": "https://dc.lft.to/lastmile_qr_scan"}, "is_reserved": 0, "fusion_lon": 0.0, "fusion_lat": 0.0, "lon": -77.02182333333333, "name": "5ebec5fabe730eb80d037a2cabb8de6f"}, {"bike_id": "4c6dd3cd54903f7bb001e8fe7ce1c009", "type": "electric_scooter", "is_disabled": 0, "lat": 38.8762915, "rental_uris": {"ios": "https://dc.lft.to/lastmile_qr_scan", "android": "https://dc.lft.to/lastmile_qr_scan"}, "is_reserved": 0, "fusion_lon": 0.0, "fusion_lat": 0.0, "lon": -76.96527483333334, "name": "4c6dd3cd54903f7bb001e8fe7ce1c009"}, {"bike_id": "66c868fa2cee8684090bb98ffee1ce83", "type": "electric_scooter", "is_disabled": 0, "lat": 38.9561885, "rental_uris": {"ios": "https://dc.lft.to/lastmile_qr_scan", "android": "https://dc.lft.to/lastmile_qr_scan"}, "is_reserved": 0, "fusion_lon": 0.0, "fusion_lat": 0.0, "lon": -77.010192, "name": "66c868fa2cee8684090bb98ffee1ce83"}, {"bike_id": "277b285f3c0acac525f422f9f266475c", "type": "electric_scooter", "is_disabled": 0, "lat": 38.90715083333333, "rental_uris": {"ios": "https://dc.lft.to/lastmile_qr_scan", "android": "https://dc.lft.to/lastmile_qr_scan"}, "is_reserved": 0, "fusion_lon": 0.0, "fusion_lat": 0.0, "lon": -77.04483766666667, "name": "277b285f3c0acac525f422f9f266475c"}, {"bike_id": "d4cdd76a067de7f2340eb16cf2a73932", "type": "electric_scooter", "is_disabled": 0, "lat": 38.9205195, "rental_uris": {"ios": "https://dc.lft.to/lastmile_qr_scan", "android": "https://dc.lft.to/lastmile_qr_scan"}, "is_reserved": 0, "fusion_lon": 0.0, "fusion_lat": 0.0, "lon": -76.9987375, "name": "d4cdd76a067de7f2340eb16cf2a73932"}, {"bike_id": "46aa5ccc621465e90ca2637ff585c0bd", "type": "electric_scooter", "is_disabled": 0, "lat": 38.917109833333335, "rental_uris": {"ios": "https://dc.lft.to/lastmile_qr_scan", "android": "https://dc.lft.to/lastmile_qr_scan"}, "is_reserved": 0, "fusion_lon": 0.0, "fusion_lat": 0.0, "lon": -77.029778, "name": "46aa5ccc621465e90ca2637ff585c0bd"}, {"bike_id": "65f189d0a33a2b8f5366a3cb211ddc5c", "type": "electric_scooter", "is_disabled": 0, "lat": 38.94018366666667, "rental_uris": {"ios": "https://dc.lft.to/lastmile_qr_scan", "android": "https://dc.lft.to/lastmile_qr_scan"}, "is_reserved": 0, "fusion_lon": 0.0, "fusion_lat": 0.0, "lon": -77.02638483333334, "name": "65f189d0a33a2b8f5366a3cb211ddc5c"}, {"bike_id": "c0404ad56f11ad716942fa329cbc8ed2", "type": "electric_scooter", "is_disabled": 0, "lat": 38.91731816666667, "rental_uris": {"ios": "https://dc.lft.to/lastmile_qr_scan", "android": "https://dc.lft.to/lastmile_qr_scan"}, "is_reserved": 0, "fusion_lon": 0.0, "fusion_lat": 0.0, "lon": -77.01921083333333, "name": "c0404ad56f11ad716942fa329cbc8ed2"}, {"bike_id": "7f6bb79e0aecd50015a54f98b8d46df7", "type": "electric_scooter", "is_disabled": 0, "lat": 38.8767065, "rental_uris": {"ios": "https://dc.lft.to/lastmile_qr_scan", "android": "https://dc.lft.to/lastmile_qr_scan"}, "is_reserved": 0, "fusion_lon": 0.0, "fusion_lat": 0.0, "lon": -77.00824316666667, "name": "7f6bb79e0aecd50015a54f98b8d46df7"}, {"bike_id": "63c23bfc47c3ce0d26e19a8afb027033", "type": "electric_scooter", "is_disabled": 0, "lat": 38.939561, "rental_uris": {"ios": "https://dc.lft.to/lastmile_qr_scan", "android": "https://dc.lft.to/lastmile_qr_scan"}, "is_reserved": 0, "fusion_lon": 0.0, "fusion_lat": 0.0, "lon": -77.06070033333333, "name": "63c23bfc47c3ce0d26e19a8afb027033"}, {"bike_id": "57a23053cd74f10596e635fc67a8c551", "type": "electric_scooter", "is_disabled": 0, "lat": 38.898485, "rental_uris": {"ios": "https://dc.lft.to/lastmile_qr_scan", "android": "https://dc.lft.to/lastmile_qr_scan"}, "is_reserved": 0, "fusion_lon": 0.0, "fusion_lat": 0.0, "lon": -77.03102966666667, "name": "57a23053cd74f10596e635fc67a8c551"}, {"bike_id": "a2884fd8ea73f378def89e0d948533a7", "type": "electric_scooter", "is_disabled": 0, "lat": 38.9234455, "rental_uris": {"ios": "https://dc.lft.to/lastmile_qr_scan", "android": "https://dc.lft.to/lastmile_qr_scan"}, "is_reserved": 0, "fusion_lon": 0.0, "fusion_lat": 0.0, "lon": -77.05116666666666, "name": "a2884fd8ea73f378def89e0d948533a7"}, {"bike_id": "80e0beb6419f205e42752e0e6c60f93e", "type": "electric_scooter", "is_disabled": 0, "lat": 38.884813666666666, "rental_uris": {"ios": "https://dc.lft.to/lastmile_qr_scan", "android": "https://dc.lft.to/lastmile_qr_scan"}, "is_reserved": 0, "fusion_lon": 0.0, "fusion_lat": 0.0, "lon": -76.98218383333334, "name": "80e0beb6419f205e42752e0e6c60f93e"}, {"bike_id": "a23eb3b52bb198e7744e0e01f8100d9a", "type": "electric_scooter", "is_disabled": 0, "lat": 38.91694616666667, "rental_uris": {"ios": "https://dc.lft.to/lastmile_qr_scan", "android": "https://dc.lft.to/lastmile_qr_scan"}, "is_reserved": 0, "fusion_lon": 0.0, "fusion_lat": 0.0, "lon": -77.0287645, "name": "a23eb3b52bb198e7744e0e01f8100d9a"}, {"bike_id": "4d9c25904675a474510d1b4f25a57516", "type": "electric_scooter", "is_disabled": 0, "lat": 38.91562866666666, "rental_uris": {"ios": "https://dc.lft.to/lastmile_qr_scan", "android": "https://dc.lft.to/lastmile_qr_scan"}, "is_reserved": 0, "fusion_lon": 0.0, "fusion_lat": 0.0, "lon": -77.06781566666666, "name": "4d9c25904675a474510d1b4f25a57516"}, {"bike_id": "e3b5013b24c3ef58fc8a4e373dda44d2", "type": "electric_bike", "is_disabled": 0, "lat": 38.873081166666665, "rental_uris": {"ios": "https://dc.lft.to/lastmile_qr_scan", "android": "https://dc.lft.to/lastmile_qr_scan"}, "is_reserved": 0, "fusion_lon": 0.0, "fusion_lat": 0.0, "lon": -77.13925966666666, "name": "e3b5013b24c3ef58fc8a4e373dda44d2"}, {"bike_id": "4637d441ef7bfcd4c02d78a2daa695b8", "type": "electric_scooter", "is_disabled": 0, "lat": 38.91837783333333, "rental_uris": {"ios": "https://dc.lft.to/lastmile_qr_scan", "android": "https://dc.lft.to/lastmile_qr_scan"}, "is_reserved": 0, "fusion_lon": 0.0, "fusion_lat": 0.0, "lon": -76.96550716666667, "name": "4637d441ef7bfcd4c02d78a2daa695b8"}, {"bike_id": "4699d76b77b4d61d29b01f20d75907e8", "type": "electric_scooter", "is_disabled": 0, "lat": 38.922528, "rental_uris": {"ios": "https://dc.lft.to/lastmile_qr_scan", "android": "https://dc.lft.to/lastmile_qr_scan"}, "is_reserved": 0, "fusion_lon": 0.0, "fusion_lat": 0.0, "lon": -77.03060766666667, "name": "4699d76b77b4d61d29b01f20d75907e8"}, {"bike_id": "72982bc017c23d1f46e041a43806feaf", "type": "electric_scooter", "is_disabled": 0, "lat": 38.92068066666667, "rental_uris": {"ios": "https://dc.lft.to/lastmile_qr_scan", "android": "https://dc.lft.to/lastmile_qr_scan"}, "is_reserved": 0, "fusion_lon": 0.0, "fusion_lat": 0.0, "lon": -77.02711066666667, "name": "72982bc017c23d1f46e041a43806feaf"}, {"bike_id": "aeed8ab422ad409473a09be266827794", "type": "electric_scooter", "is_disabled": 0, "lat": 38.9332935, "rental_uris": {"ios": "https://dc.lft.to/lastmile_qr_scan", "android": "https://dc.lft.to/lastmile_qr_scan"}, "is_reserved": 0, "fusion_lon": 0.0, "fusion_lat": 0.0, "lon": -77.023971, "name": "aeed8ab422ad409473a09be266827794"}, {"bike_id": "cd32372ca1da2743e2811ff171499c0b", "type": "electric_scooter", "is_disabled": 0, "lat": 38.905824333333335, "rental_uris": {"ios": "https://dc.lft.to/lastmile_qr_scan", "android": "https://dc.lft.to/lastmile_qr_scan"}, "is_reserved": 0, "fusion_lon": 0.0, "fusion_lat": 0.0, "lon": -76.98431916666667, "name": "cd32372ca1da2743e2811ff171499c0b"}, {"bike_id": "9f975a735b41d3172aada80148a6a73a", "type": "electric_scooter", "is_disabled": 0, "lat": 38.9207465, "rental_uris": {"ios": "https://dc.lft.to/lastmile_qr_scan", "android": "https://dc.lft.to/lastmile_qr_scan"}, "is_reserved": 0, "fusion_lon": 0.0, "fusion_lat": 0.0, "lon": -77.02840716666667, "name": "9f975a735b41d3172aada80148a6a73a"}, {"bike_id": "29b0f5bfca10b6d3cc55dc4f95d54f74", "type": "electric_scooter", "is_disabled": 0, "lat": 38.916386833333334, "rental_uris": {"ios": "https://dc.lft.to/lastmile_qr_scan", "android": "https://dc.lft.to/lastmile_qr_scan"}, "is_reserved": 0, "fusion_lon": 0.0, "fusion_lat": 0.0, "lon": -77.04008083333333, "name": "29b0f5bfca10b6d3cc55dc4f95d54f74"}, {"bike_id": "293e81ac596a204cfa903bee09d82d91", "type": "electric_scooter", "is_disabled": 0, "lat": 38.907846166666666, "rental_uris": {"ios": "https://dc.lft.to/lastmile_qr_scan", "android": "https://dc.lft.to/lastmile_qr_scan"}, "is_reserved": 0, "fusion_lon": 0.0, "fusion_lat": 0.0, "lon": -77.06363533333334, "name": "293e81ac596a204cfa903bee09d82d91"}, {"bike_id": "78a417f9ab806b509ad5542f660b0fbb", "type": "electric_scooter", "is_disabled": 0, "lat": 38.9392425, "rental_uris": {"ios": "https://dc.lft.to/lastmile_qr_scan", "android": "https://dc.lft.to/lastmile_qr_scan"}, "is_reserved": 0, "fusion_lon": 0.0, "fusion_lat": 0.0, "lon": -77.060466, "name": "78a417f9ab806b509ad5542f660b0fbb"}, {"bike_id": "44516143b097913d2f1ca9dacaba2850", "type": "electric_scooter", "is_disabled": 0, "lat": 38.89241766666667, "rental_uris": {"ios": "https://dc.lft.to/lastmile_qr_scan", "android": "https://dc.lft.to/lastmile_qr_scan"}, "is_reserved": 0, "fusion_lon": 0.0, "fusion_lat": 0.0, "lon": -77.04674766666666, "name": "44516143b097913d2f1ca9dacaba2850"}, {"bike_id": "a467546718b03a7b559b0aae317433f9", "type": "electric_scooter", "is_disabled": 0, "lat": 38.920347666666665, "rental_uris": {"ios": "https://dc.lft.to/lastmile_qr_scan", "android": "https://dc.lft.to/lastmile_qr_scan"}, "is_reserved": 0, "fusion_lon": 0.0, "fusion_lat": 0.0, "lon": -77.01312366666667, "name": "a467546718b03a7b559b0aae317433f9"}, {"bike_id": "b00c3639d55bb3b8e96b1ce5703d766f", "type": "electric_scooter", "is_disabled": 0, "lat": 38.90081683333333, "rental_uris": {"ios": "https://dc.lft.to/lastmile_qr_scan", "android": "https://dc.lft.to/lastmile_qr_scan"}, "is_reserved": 0, "fusion_lon": 0.0, "fusion_lat": 0.0, "lon": -77.03068733333333, "name": "b00c3639d55bb3b8e96b1ce5703d766f"}, {"bike_id": "232d547fd050da858077c42ecefedada", "type": "electric_scooter", "is_disabled": 0, "lat": 38.90443533333333, "rental_uris": {"ios": "https://dc.lft.to/lastmile_qr_scan", "android": "https://dc.lft.to/lastmile_qr_scan"}, "is_reserved": 0, "fusion_lon": 0.0, "fusion_lat": 0.0, "lon": -77.0626815, "name": "232d547fd050da858077c42ecefedada"}, {"bike_id": "74ef73f319b1ae0abbb484f2d53e1d52", "type": "electric_scooter", "is_disabled": 0, "lat": 38.89852966666667, "rental_uris": {"ios": "https://dc.lft.to/lastmile_qr_scan", "android": "https://dc.lft.to/lastmile_qr_scan"}, "is_reserved": 0, "fusion_lon": 0.0, "fusion_lat": 0.0, "lon": -77.02204116666667, "name": "74ef73f319b1ae0abbb484f2d53e1d52"}, {"bike_id": "6a31978bc509729a6532861f563b973e", "type": "electric_scooter", "is_disabled": 0, "lat": 38.92047733333333, "rental_uris": {"ios": "https://dc.lft.to/lastmile_qr_scan", "android": "https://dc.lft.to/lastmile_qr_scan"}, "is_reserved": 0, "fusion_lon": 0.0, "fusion_lat": 0.0, "lon": -77.03409583333334, "name": "6a31978bc509729a6532861f563b973e"}, {"bike_id": "3378ff7eb84b8b14d6e120ae51bac2e2", "type": "electric_scooter", "is_disabled": 0, "lat": 38.91564533333333, "rental_uris": {"ios": "https://dc.lft.to/lastmile_qr_scan", "android": "https://dc.lft.to/lastmile_qr_scan"}, "is_reserved": 0, "fusion_lon": 0.0, "fusion_lat": 0.0, "lon": -77.03125483333334, "name": "3378ff7eb84b8b14d6e120ae51bac2e2"}, {"bike_id": "65b492c3724235f4e3b6bf42aac7b760", "type": "electric_scooter", "is_disabled": 0, "lat": 38.90958666666667, "rental_uris": {"ios": "https://dc.lft.to/lastmile_qr_scan", "android": "https://dc.lft.to/lastmile_qr_scan"}, "is_reserved": 0, "fusion_lon": 0.0, "fusion_lat": 0.0, "lon": -77.04543833333334, "name": "65b492c3724235f4e3b6bf42aac7b760"}, {"bike_id": "7a78a7b609bee84369e1276ec3291127", "type": "electric_bike", "is_disabled": 0, "lat": 38.83160183333333, "rental_uris": {"ios": "https://dc.lft.to/lastmile_qr_scan", "android": "https://dc.lft.to/lastmile_qr_scan"}, "is_reserved": 0, "fusion_lon": 0.0, "fusion_lat": 0.0, "lon": -76.99544733333333, "name": "7a78a7b609bee84369e1276ec3291127"}, {"bike_id": "0f8cef9a14a25483efc9c05ff3362f8f", "type": "electric_scooter", "is_disabled": 0, "lat": 38.90531883333333, "rental_uris": {"ios": "https://dc.lft.to/lastmile_qr_scan", "android": "https://dc.lft.to/lastmile_qr_scan"}, "is_reserved": 0, "fusion_lon": 0.0, "fusion_lat": 0.0, "lon": -77.06521316666667, "name": "0f8cef9a14a25483efc9c05ff3362f8f"}, {"bike_id": "4f019b614e3efaf134b1dea4d72c3541", "type": "electric_scooter", "is_disabled": 0, "lat": 38.91148283333333, "rental_uris": {"ios": "https://dc.lft.to/lastmile_qr_scan", "android": "https://dc.lft.to/lastmile_qr_scan"}, "is_reserved": 0, "fusion_lon": 0.0, "fusion_lat": 0.0, "lon": -77.02954833333334, "name": "4f019b614e3efaf134b1dea4d72c3541"}, {"bike_id": "107d750eb6120954d8e9aa2cb70176f9", "type": "electric_scooter", "is_disabled": 0, "lat": 38.93252016666667, "rental_uris": {"ios": "https://dc.lft.to/lastmile_qr_scan", "android": "https://dc.lft.to/lastmile_qr_scan"}, "is_reserved": 0, "fusion_lon": 0.0, "fusion_lat": 0.0, "lon": -77.02000766666667, "name": "107d750eb6120954d8e9aa2cb70176f9"}, {"bike_id": "3d490b19369d8c109dc4a40d3e8ad92e", "type": "electric_scooter", "is_disabled": 0, "lat": 38.927970333333334, "rental_uris": {"ios": "https://dc.lft.to/lastmile_qr_scan", "android": "https://dc.lft.to/lastmile_qr_scan"}, "is_reserved": 0, "fusion_lon": 0.0, "fusion_lat": 0.0, "lon": -77.02128766666667, "name": "3d490b19369d8c109dc4a40d3e8ad92e"}, {"bike_id": "53824b4e52387d8e28fd6ab6e3f1b0de", "type": "electric_bike", "is_disabled": 0, "lat": 38.8615395, "rental_uris": {"ios": "https://dc.lft.to/lastmile_qr_scan", "android": "https://dc.lft.to/lastmile_qr_scan"}, "is_reserved": 0, "fusion_lon": 0.0, "fusion_lat": 0.0, "lon": -77.09141616666666, "name": "53824b4e52387d8e28fd6ab6e3f1b0de"}, {"bike_id": "edf622b4c8e73dcaf49f9d4a610d5425", "type": "electric_scooter", "is_disabled": 0, "lat": 38.8984555, "rental_uris": {"ios": "https://dc.lft.to/lastmile_qr_scan", "android": "https://dc.lft.to/lastmile_qr_scan"}, "is_reserved": 0, "fusion_lon": 0.0, "fusion_lat": 0.0, "lon": -76.9463325, "name": "edf622b4c8e73dcaf49f9d4a610d5425"}, {"bike_id": "db6cd35ecba373bd7291b1b5d819efdf", "type": "electric_scooter", "is_disabled": 0, "lat": 38.91483133333333, "rental_uris": {"ios": "https://dc.lft.to/lastmile_qr_scan", "android": "https://dc.lft.to/lastmile_qr_scan"}, "is_reserved": 0, "fusion_lon": 0.0, "fusion_lat": 0.0, "lon": -77.021813, "name": "db6cd35ecba373bd7291b1b5d819efdf"}, {"bike_id": "50e07f794695146d6e808d6bc739e0cc", "type": "electric_scooter", "is_disabled": 0, "lat": 38.8922125, "rental_uris": {"ios": "https://dc.lft.to/lastmile_qr_scan", "android": "https://dc.lft.to/lastmile_qr_scan"}, "is_reserved": 0, "fusion_lon": 0.0, "fusion_lat": 0.0, "lon": -77.031571, "name": "50e07f794695146d6e808d6bc739e0cc"}, {"bike_id": "45b56e89e2340262b464c7f4bd9f77d3", "type": "electric_scooter", "is_disabled": 0, "lat": 38.90296816666667, "rental_uris": {"ios": "https://dc.lft.to/lastmile_qr_scan", "android": "https://dc.lft.to/lastmile_qr_scan"}, "is_reserved": 0, "fusion_lon": 0.0, "fusion_lat": 0.0, "lon": -77.0581405, "name": "45b56e89e2340262b464c7f4bd9f77d3"}, {"bike_id": "7dd55ad432815047101fb521e8400d99", "type": "electric_scooter", "is_disabled": 0, "lat": 38.916112, "rental_uris": {"ios": "https://dc.lft.to/lastmile_qr_scan", "android": "https://dc.lft.to/lastmile_qr_scan"}, "is_reserved": 0, "fusion_lon": 0.0, "fusion_lat": 0.0, "lon": -77.02298733333333, "name": "7dd55ad432815047101fb521e8400d99"}, {"bike_id": "96e8837ebfe7d85306247aa116971f59", "type": "electric_scooter", "is_disabled": 0, "lat": 38.870704833333335, "rental_uris": {"ios": "https://dc.lft.to/lastmile_qr_scan", "android": "https://dc.lft.to/lastmile_qr_scan"}, "is_reserved": 0, "fusion_lon": 0.0, "fusion_lat": 0.0, "lon": -76.98125383333333, "name": "96e8837ebfe7d85306247aa116971f59"}, {"bike_id": "70b48770837ff295249281cad80f28a3", "type": "electric_scooter", "is_disabled": 0, "lat": 38.9215985, "rental_uris": {"ios": "https://dc.lft.to/lastmile_qr_scan", "android": "https://dc.lft.to/lastmile_qr_scan"}, "is_reserved": 0, "fusion_lon": 0.0, "fusion_lat": 0.0, "lon": -77.03515266666666, "name": "70b48770837ff295249281cad80f28a3"}, {"bike_id": "378f9c5c7a093ebaf179181cc6d271f6", "type": "electric_scooter", "is_disabled": 0, "lat": 38.935340833333335, "rental_uris": {"ios": "https://dc.lft.to/lastmile_qr_scan", "android": "https://dc.lft.to/lastmile_qr_scan"}, "is_reserved": 0, "fusion_lon": 0.0, "fusion_lat": 0.0, "lon": -77.03394016666667, "name": "378f9c5c7a093ebaf179181cc6d271f6"}, {"bike_id": "b97862b473fe1e96cc352fc6409467d0", "type": "electric_scooter", "is_disabled": 0, "lat": 38.887356833333335, "rental_uris": {"ios": "https://dc.lft.to/lastmile_qr_scan", "android": "https://dc.lft.to/lastmile_qr_scan"}, "is_reserved": 0, "fusion_lon": 0.0, "fusion_lat": 0.0, "lon": -77.02315816666666, "name": "b97862b473fe1e96cc352fc6409467d0"}, {"bike_id": "45476f608c32b0129e26de0a369ebdcb", "type": "electric_scooter", "is_disabled": 0, "lat": 38.92596483333333, "rental_uris": {"ios": "https://dc.lft.to/lastmile_qr_scan", "android": "https://dc.lft.to/lastmile_qr_scan"}, "is_reserved": 0, "fusion_lon": 0.0, "fusion_lat": 0.0, "lon": -77.0731595, "name": "45476f608c32b0129e26de0a369ebdcb"}, {"bike_id": "3805e2ef67c9fcb0e15d7ec52f5d4014", "type": "electric_scooter", "is_disabled": 0, "lat": 38.92372183333333, "rental_uris": {"ios": "https://dc.lft.to/lastmile_qr_scan", "android": "https://dc.lft.to/lastmile_qr_scan"}, "is_reserved": 0, "fusion_lon": 0.0, "fusion_lat": 0.0, "lon": -77.05147616666666, "name": "3805e2ef67c9fcb0e15d7ec52f5d4014"}, {"bike_id": "3e85983cf0c510b9302a514825b95988", "type": "electric_scooter", "is_disabled": 0, "lat": 38.911129333333335, "rental_uris": {"ios": "https://dc.lft.to/lastmile_qr_scan", "android": "https://dc.lft.to/lastmile_qr_scan"}, "is_reserved": 0, "fusion_lon": 0.0, "fusion_lat": 0.0, "lon": -77.03831383333333, "name": "3e85983cf0c510b9302a514825b95988"}, {"bike_id": "9367c773e6c1958f2ac1af1d06d3b308", "type": "electric_scooter", "is_disabled": 0, "lat": 38.9265695, "rental_uris": {"ios": "https://dc.lft.to/lastmile_qr_scan", "android": "https://dc.lft.to/lastmile_qr_scan"}, "is_reserved": 0, "fusion_lon": 0.0, "fusion_lat": 0.0, "lon": -77.02410483333334, "name": "9367c773e6c1958f2ac1af1d06d3b308"}, {"bike_id": "17adee5d3a7ab60def8c0e45368e065e", "type": "electric_scooter", "is_disabled": 0, "lat": 38.911100833333336, "rental_uris": {"ios": "https://dc.lft.to/lastmile_qr_scan", "android": "https://dc.lft.to/lastmile_qr_scan"}, "is_reserved": 0, "fusion_lon": 0.0, "fusion_lat": 0.0, "lon": -77.03256833333333, "name": "17adee5d3a7ab60def8c0e45368e065e"}, {"bike_id": "416129a36c09a9d37e618ff67c1c2d89", "type": "electric_scooter", "is_disabled": 0, "lat": 38.90710216666667, "rental_uris": {"ios": "https://dc.lft.to/lastmile_qr_scan", "android": "https://dc.lft.to/lastmile_qr_scan"}, "is_reserved": 0, "fusion_lon": 0.0, "fusion_lat": 0.0, "lon": -77.04165116666667, "name": "416129a36c09a9d37e618ff67c1c2d89"}, {"bike_id": "d1d37cd97fe34d421eda743c582201dd", "type": "electric_bike", "is_disabled": 0, "lat": 38.8324755, "rental_uris": {"ios": "https://dc.lft.to/lastmile_qr_scan", "android": "https://dc.lft.to/lastmile_qr_scan"}, "is_reserved": 0, "fusion_lon": 0.0, "fusion_lat": 0.0, "lon": -76.94626733333334, "name": "d1d37cd97fe34d421eda743c582201dd"}, {"bike_id": "a52f85ebd0e77cf329b9943d3c03e71a", "type": "electric_scooter", "is_disabled": 0, "lat": 38.895723, "rental_uris": {"ios": "https://dc.lft.to/lastmile_qr_scan", "android": "https://dc.lft.to/lastmile_qr_scan"}, "is_reserved": 0, "fusion_lon": 0.0, "fusion_lat": 0.0, "lon": -76.930253, "name": "a52f85ebd0e77cf329b9943d3c03e71a"}, {"bike_id": "2d7d0a336b27f4bfeddb8cccb85882a4", "type": "electric_scooter", "is_disabled": 0, "lat": 38.912776666666666, "rental_uris": {"ios": "https://dc.lft.to/lastmile_qr_scan", "android": "https://dc.lft.to/lastmile_qr_scan"}, "is_reserved": 0, "fusion_lon": 0.0, "fusion_lat": 0.0, "lon": -77.022647, "name": "2d7d0a336b27f4bfeddb8cccb85882a4"}, {"bike_id": "d285c4a2902fa8ffe0bd578b01cb878a", "type": "electric_scooter", "is_disabled": 0, "lat": 38.896428, "rental_uris": {"ios": "https://dc.lft.to/lastmile_qr_scan", "android": "https://dc.lft.to/lastmile_qr_scan"}, "is_reserved": 0, "fusion_lon": 0.0, "fusion_lat": 0.0, "lon": -77.00918233333333, "name": "d285c4a2902fa8ffe0bd578b01cb878a"}, {"bike_id": "13ea8f62ce4a306c860847cd38713c9a", "type": "electric_scooter", "is_disabled": 0, "lat": 38.91844433333333, "rental_uris": {"ios": "https://dc.lft.to/lastmile_qr_scan", "android": "https://dc.lft.to/lastmile_qr_scan"}, "is_reserved": 0, "fusion_lon": 0.0, "fusion_lat": 0.0, "lon": -76.96551, "name": "13ea8f62ce4a306c860847cd38713c9a"}, {"bike_id": "dadb210b607a059f1634202bdcc726a7", "type": "electric_scooter", "is_disabled": 0, "lat": 38.9191035, "rental_uris": {"ios": "https://dc.lft.to/lastmile_qr_scan", "android": "https://dc.lft.to/lastmile_qr_scan"}, "is_reserved": 0, "fusion_lon": 0.0, "fusion_lat": 0.0, "lon": -77.03203816666667, "name": "dadb210b607a059f1634202bdcc726a7"}, {"bike_id": "e29de3e704f107ee587ad0b389a73c4b", "type": "electric_scooter", "is_disabled": 0, "lat": 38.911925833333335, "rental_uris": {"ios": "https://dc.lft.to/lastmile_qr_scan", "android": "https://dc.lft.to/lastmile_qr_scan"}, "is_reserved": 0, "fusion_lon": 0.0, "fusion_lat": 0.0, "lon": -77.038334, "name": "e29de3e704f107ee587ad0b389a73c4b"}, {"bike_id": "3e74960e6b60a95e3794dbd422226662", "type": "electric_bike", "is_disabled": 0, "lat": 39.050579166666665, "rental_uris": {"ios": "https://dc.lft.to/lastmile_qr_scan", "android": "https://dc.lft.to/lastmile_qr_scan"}, "is_reserved": 0, "fusion_lon": 0.0, "fusion_lat": 0.0, "lon": -77.05147033333333, "name": "3e74960e6b60a95e3794dbd422226662"}, {"bike_id": "e2dcfb0470c103f30727cc66afac43b7", "type": "electric_scooter", "is_disabled": 0, "lat": 38.93995116666667, "rental_uris": {"ios": "https://dc.lft.to/lastmile_qr_scan", "android": "https://dc.lft.to/lastmile_qr_scan"}, "is_reserved": 0, "fusion_lon": 0.0, "fusion_lat": 0.0, "lon": -77.0169235, "name": "e2dcfb0470c103f30727cc66afac43b7"}, {"bike_id": "6ddf1d617124b55c2915ca5484faf978", "type": "electric_scooter", "is_disabled": 0, "lat": 38.90785366666667, "rental_uris": {"ios": "https://dc.lft.to/lastmile_qr_scan", "android": "https://dc.lft.to/lastmile_qr_scan"}, "is_reserved": 0, "fusion_lon": 0.0, "fusion_lat": 0.0, "lon": -77.00208316666667, "name": "6ddf1d617124b55c2915ca5484faf978"}, {"bike_id": "a131aabcf999e99891870b0355f85479", "type": "electric_scooter", "is_disabled": 0, "lat": 38.8775695, "rental_uris": {"ios": "https://dc.lft.to/lastmile_qr_scan", "android": "https://dc.lft.to/lastmile_qr_scan"}, "is_reserved": 0, "fusion_lon": 0.0, "fusion_lat": 0.0, "lon": -76.98681216666667, "name": "a131aabcf999e99891870b0355f85479"}, {"bike_id": "80f41ae542f15c15c06a3fedf52af1da", "type": "electric_scooter", "is_disabled": 0, "lat": 38.905697333333336, "rental_uris": {"ios": "https://dc.lft.to/lastmile_qr_scan", "android": "https://dc.lft.to/lastmile_qr_scan"}, "is_reserved": 0, "fusion_lon": 0.0, "fusion_lat": 0.0, "lon": -76.97784466666667, "name": "80f41ae542f15c15c06a3fedf52af1da"}, {"bike_id": "3f4ac6650b7fd3d5767bbab479285e19", "type": "electric_scooter", "is_disabled": 0, "lat": 38.90275533333333, "rental_uris": {"ios": "https://dc.lft.to/lastmile_qr_scan", "android": "https://dc.lft.to/lastmile_qr_scan"}, "is_reserved": 0, "fusion_lon": 0.0, "fusion_lat": 0.0, "lon": -76.97031166666666, "name": "3f4ac6650b7fd3d5767bbab479285e19"}, {"bike_id": "25e01b59081c9eaf2c4bef127ce560ff", "type": "electric_scooter", "is_disabled": 0, "lat": 38.917639333333334, "rental_uris": {"ios": "https://dc.lft.to/lastmile_qr_scan", "android": "https://dc.lft.to/lastmile_qr_scan"}, "is_reserved": 0, "fusion_lon": 0.0, "fusion_lat": 0.0, "lon": -77.04771916666667, "name": "25e01b59081c9eaf2c4bef127ce560ff"}, {"bike_id": "fb11076530bdb2c78a6128dd1a185dfe", "type": "electric_scooter", "is_disabled": 0, "lat": 38.89551383333333, "rental_uris": {"ios": "https://dc.lft.to/lastmile_qr_scan", "android": "https://dc.lft.to/lastmile_qr_scan"}, "is_reserved": 0, "fusion_lon": 0.0, "fusion_lat": 0.0, "lon": -76.949371, "name": "fb11076530bdb2c78a6128dd1a185dfe"}, {"bike_id": "e2c96b6ac2d30e992e74874c6f4e3ff1", "type": "electric_bike", "is_disabled": 0, "lat": 38.96922566666667, "rental_uris": {"ios": "https://dc.lft.to/lastmile_qr_scan", "android": "https://dc.lft.to/lastmile_qr_scan"}, "is_reserved": 0, "fusion_lon": 0.0, "fusion_lat": 0.0, "lon": -76.95785933333333, "name": "e2c96b6ac2d30e992e74874c6f4e3ff1"}, {"bike_id": "91a7648a4085cdef4ef75a7ed60feb9a", "type": "electric_scooter", "is_disabled": 0, "lat": 38.913213, "rental_uris": {"ios": "https://dc.lft.to/lastmile_qr_scan", "android": "https://dc.lft.to/lastmile_qr_scan"}, "is_reserved": 0, "fusion_lon": 0.0, "fusion_lat": 0.0, "lon": -77.03661383333333, "name": "91a7648a4085cdef4ef75a7ed60feb9a"}, {"bike_id": "c87d0d3bbacfb2690c49c511026c9506", "type": "electric_scooter", "is_disabled": 0, "lat": 38.93844033333333, "rental_uris": {"ios": "https://dc.lft.to/lastmile_qr_scan", "android": "https://dc.lft.to/lastmile_qr_scan"}, "is_reserved": 0, "fusion_lon": 0.0, "fusion_lat": 0.0, "lon": -77.03378583333334, "name": "c87d0d3bbacfb2690c49c511026c9506"}, {"bike_id": "bae6c7625a579e14e573809f40af74ff", "type": "electric_scooter", "is_disabled": 0, "lat": 38.866998, "rental_uris": {"ios": "https://dc.lft.to/lastmile_qr_scan", "android": "https://dc.lft.to/lastmile_qr_scan"}, "is_reserved": 0, "fusion_lon": 0.0, "fusion_lat": 0.0, "lon": -76.98713166666667, "name": "bae6c7625a579e14e573809f40af74ff"}, {"bike_id": "aa2cd65ac229dc6bbc1dfda0bd26a8a4", "type": "electric_scooter", "is_disabled": 0, "lat": 38.89883533333333, "rental_uris": {"ios": "https://dc.lft.to/lastmile_qr_scan", "android": "https://dc.lft.to/lastmile_qr_scan"}, "is_reserved": 0, "fusion_lon": 0.0, "fusion_lat": 0.0, "lon": -76.931765, "name": "aa2cd65ac229dc6bbc1dfda0bd26a8a4"}, {"bike_id": "c250fd6ab4a21a67022c6236582615c3", "type": "electric_scooter", "is_disabled": 0, "lat": 38.86703816666667, "rental_uris": {"ios": "https://dc.lft.to/lastmile_qr_scan", "android": "https://dc.lft.to/lastmile_qr_scan"}, "is_reserved": 0, "fusion_lon": 0.0, "fusion_lat": 0.0, "lon": -76.9871265, "name": "c250fd6ab4a21a67022c6236582615c3"}, {"bike_id": "be9ef4de13d768798a27802a1843e2eb", "type": "electric_scooter", "is_disabled": 0, "lat": 38.862131166666664, "rental_uris": {"ios": "https://dc.lft.to/lastmile_qr_scan", "android": "https://dc.lft.to/lastmile_qr_scan"}, "is_reserved": 0, "fusion_lon": 0.0, "fusion_lat": 0.0, "lon": -76.99469633333334, "name": "be9ef4de13d768798a27802a1843e2eb"}, {"bike_id": "aa86b8786cdb71c5f0cda0dd67e874de", "type": "electric_scooter", "is_disabled": 0, "lat": 38.898397, "rental_uris": {"ios": "https://dc.lft.to/lastmile_qr_scan", "android": "https://dc.lft.to/lastmile_qr_scan"}, "is_reserved": 0, "fusion_lon": 0.0, "fusion_lat": 0.0, "lon": -77.04028516666666, "name": "aa86b8786cdb71c5f0cda0dd67e874de"}, {"bike_id": "dce236bdce5a31aef5b465649a20a654", "type": "electric_scooter", "is_disabled": 0, "lat": 38.86504683333333, "rental_uris": {"ios": "https://dc.lft.to/lastmile_qr_scan", "android": "https://dc.lft.to/lastmile_qr_scan"}, "is_reserved": 0, "fusion_lon": 0.0, "fusion_lat": 0.0, "lon": -76.99004183333334, "name": "dce236bdce5a31aef5b465649a20a654"}, {"bike_id": "98159977e13d08ae2b2a0b1074d5eae6", "type": "electric_scooter", "is_disabled": 0, "lat": 38.8668315, "rental_uris": {"ios": "https://dc.lft.to/lastmile_qr_scan", "android": "https://dc.lft.to/lastmile_qr_scan"}, "is_reserved": 0, "fusion_lon": 0.0, "fusion_lat": 0.0, "lon": -76.98576716666666, "name": "98159977e13d08ae2b2a0b1074d5eae6"}, {"bike_id": "309411c12f6936982b9ce491e576bf24", "type": "electric_scooter", "is_disabled": 0, "lat": 38.89833133333333, "rental_uris": {"ios": "https://dc.lft.to/lastmile_qr_scan", "android": "https://dc.lft.to/lastmile_qr_scan"}, "is_reserved": 0, "fusion_lon": 0.0, "fusion_lat": 0.0, "lon": -76.91954066666666, "name": "309411c12f6936982b9ce491e576bf24"}, {"bike_id": "2ed0fd023ad6b5ff8c36ace6a72fbf2f", "type": "electric_scooter", "is_disabled": 0, "lat": 38.9232505, "rental_uris": {"ios": "https://dc.lft.to/lastmile_qr_scan", "android": "https://dc.lft.to/lastmile_qr_scan"}, "is_reserved": 0, "fusion_lon": 0.0, "fusion_lat": 0.0, "lon": -77.021382, "name": "2ed0fd023ad6b5ff8c36ace6a72fbf2f"}, {"bike_id": "9acaac6da62d4ca7f0a92e8bdb042832", "type": "electric_scooter", "is_disabled": 0, "lat": 38.890837, "rental_uris": {"ios": "https://dc.lft.to/lastmile_qr_scan", "android": "https://dc.lft.to/lastmile_qr_scan"}, "is_reserved": 0, "fusion_lon": 0.0, "fusion_lat": 0.0, "lon": -76.99943133333333, "name": "9acaac6da62d4ca7f0a92e8bdb042832"}, {"bike_id": "ae4e9c4b8ced2a8d3078fdf6cd3b4a82", "type": "electric_scooter", "is_disabled": 0, "lat": 38.942953333333335, "rental_uris": {"ios": "https://dc.lft.to/lastmile_qr_scan", "android": "https://dc.lft.to/lastmile_qr_scan"}, "is_reserved": 0, "fusion_lon": 0.0, "fusion_lat": 0.0, "lon": -77.03622666666666, "name": "ae4e9c4b8ced2a8d3078fdf6cd3b4a82"}, {"bike_id": "2738795916dea994fa2e7e8ce4549cee", "type": "electric_scooter", "is_disabled": 0, "lat": 38.9012745, "rental_uris": {"ios": "https://dc.lft.to/lastmile_qr_scan", "android": "https://dc.lft.to/lastmile_qr_scan"}, "is_reserved": 0, "fusion_lon": 0.0, "fusion_lat": 0.0, "lon": -77.02181683333333, "name": "2738795916dea994fa2e7e8ce4549cee"}, {"bike_id": "f77a1fb1a21b9f3925a3537a3fdc2c84", "type": "electric_scooter", "is_disabled": 0, "lat": 38.9199155, "rental_uris": {"ios": "https://dc.lft.to/lastmile_qr_scan", "android": "https://dc.lft.to/lastmile_qr_scan"}, "is_reserved": 0, "fusion_lon": 0.0, "fusion_lat": 0.0, "lon": -77.041684, "name": "f77a1fb1a21b9f3925a3537a3fdc2c84"}, {"bike_id": "813f24eaf318e9ce18054bb13b9b3a3f", "type": "electric_scooter", "is_disabled": 0, "lat": 38.88400816666667, "rental_uris": {"ios": "https://dc.lft.to/lastmile_qr_scan", "android": "https://dc.lft.to/lastmile_qr_scan"}, "is_reserved": 0, "fusion_lon": 0.0, "fusion_lat": 0.0, "lon": -77.01787316666666, "name": "813f24eaf318e9ce18054bb13b9b3a3f"}, {"bike_id": "5c8ba6ff361f67b68a8f2b01a1c8828d", "type": "electric_scooter", "is_disabled": 0, "lat": 38.926822666666666, "rental_uris": {"ios": "https://dc.lft.to/lastmile_qr_scan", "android": "https://dc.lft.to/lastmile_qr_scan"}, "is_reserved": 0, "fusion_lon": 0.0, "fusion_lat": 0.0, "lon": -77.035658, "name": "5c8ba6ff361f67b68a8f2b01a1c8828d"}, {"bike_id": "37bcadf31681deb5ef18702917f97e66", "type": "electric_scooter", "is_disabled": 0, "lat": 38.918152166666665, "rental_uris": {"ios": "https://dc.lft.to/lastmile_qr_scan", "android": "https://dc.lft.to/lastmile_qr_scan"}, "is_reserved": 0, "fusion_lon": 0.0, "fusion_lat": 0.0, "lon": -77.02481333333333, "name": "37bcadf31681deb5ef18702917f97e66"}, {"bike_id": "09ccf002947bbc602f6c2dc61f594119", "type": "electric_scooter", "is_disabled": 0, "lat": 38.919557166666664, "rental_uris": {"ios": "https://dc.lft.to/lastmile_qr_scan", "android": "https://dc.lft.to/lastmile_qr_scan"}, "is_reserved": 0, "fusion_lon": 0.0, "fusion_lat": 0.0, "lon": -77.041505, "name": "09ccf002947bbc602f6c2dc61f594119"}, {"bike_id": "2dcfaac27f65581b3deeb97602ca92cc", "type": "electric_scooter", "is_disabled": 0, "lat": 38.91709483333333, "rental_uris": {"ios": "https://dc.lft.to/lastmile_qr_scan", "android": "https://dc.lft.to/lastmile_qr_scan"}, "is_reserved": 0, "fusion_lon": 0.0, "fusion_lat": 0.0, "lon": -77.09580233333334, "name": "2dcfaac27f65581b3deeb97602ca92cc"}, {"bike_id": "f89f804d7e2c31523310b4a9262c842a", "type": "electric_scooter", "is_disabled": 0, "lat": 38.9277195, "rental_uris": {"ios": "https://dc.lft.to/lastmile_qr_scan", "android": "https://dc.lft.to/lastmile_qr_scan"}, "is_reserved": 0, "fusion_lon": 0.0, "fusion_lat": 0.0, "lon": -76.98757583333334, "name": "f89f804d7e2c31523310b4a9262c842a"}, {"bike_id": "84832b29dcf6583153213b19accb4351", "type": "electric_scooter", "is_disabled": 0, "lat": 38.91569416666667, "rental_uris": {"ios": "https://dc.lft.to/lastmile_qr_scan", "android": "https://dc.lft.to/lastmile_qr_scan"}, "is_reserved": 0, "fusion_lon": 0.0, "fusion_lat": 0.0, "lon": -77.04647466666667, "name": "84832b29dcf6583153213b19accb4351"}, {"bike_id": "9e6c53bb36ebed50390b7b31a7a6066d", "type": "electric_scooter", "is_disabled": 0, "lat": 38.957352666666665, "rental_uris": {"ios": "https://dc.lft.to/lastmile_qr_scan", "android": "https://dc.lft.to/lastmile_qr_scan"}, "is_reserved": 0, "fusion_lon": 0.0, "fusion_lat": 0.0, "lon": -77.02404533333333, "name": "9e6c53bb36ebed50390b7b31a7a6066d"}, {"bike_id": "68cdbeec9053900af44748150b7ef6d9", "type": "electric_scooter", "is_disabled": 0, "lat": 38.921639, "rental_uris": {"ios": "https://dc.lft.to/lastmile_qr_scan", "android": "https://dc.lft.to/lastmile_qr_scan"}, "is_reserved": 0, "fusion_lon": 0.0, "fusion_lat": 0.0, "lon": -77.03318066666667, "name": "68cdbeec9053900af44748150b7ef6d9"}, {"bike_id": "411fc18b6feacefcfcf99d108728b0a1", "type": "electric_scooter", "is_disabled": 0, "lat": 38.908704, "rental_uris": {"ios": "https://dc.lft.to/lastmile_qr_scan", "android": "https://dc.lft.to/lastmile_qr_scan"}, "is_reserved": 0, "fusion_lon": 0.0, "fusion_lat": 0.0, "lon": -77.032258, "name": "411fc18b6feacefcfcf99d108728b0a1"}, {"bike_id": "3a4f2a35d67ddba8024a4e72e9533286", "type": "electric_scooter", "is_disabled": 0, "lat": 38.9314975, "rental_uris": {"ios": "https://dc.lft.to/lastmile_qr_scan", "android": "https://dc.lft.to/lastmile_qr_scan"}, "is_reserved": 0, "fusion_lon": 0.0, "fusion_lat": 0.0, "lon": -77.03353883333334, "name": "3a4f2a35d67ddba8024a4e72e9533286"}, {"bike_id": "48f62d3d339404b20be2ae1648b30546", "type": "electric_scooter", "is_disabled": 0, "lat": 38.94332333333333, "rental_uris": {"ios": "https://dc.lft.to/lastmile_qr_scan", "android": "https://dc.lft.to/lastmile_qr_scan"}, "is_reserved": 0, "fusion_lon": 0.0, "fusion_lat": 0.0, "lon": -77.014752, "name": "48f62d3d339404b20be2ae1648b30546"}, {"bike_id": "2cf84da317dd98380e10ef3641edb433", "type": "electric_scooter", "is_disabled": 0, "lat": 38.91693133333333, "rental_uris": {"ios": "https://dc.lft.to/lastmile_qr_scan", "android": "https://dc.lft.to/lastmile_qr_scan"}, "is_reserved": 0, "fusion_lon": 0.0, "fusion_lat": 0.0, "lon": -77.03215933333334, "name": "2cf84da317dd98380e10ef3641edb433"}, {"bike_id": "eb07e35d4f1e3012ceb1c6279771c0f2", "type": "electric_scooter", "is_disabled": 0, "lat": 38.911395166666665, "rental_uris": {"ios": "https://dc.lft.to/lastmile_qr_scan", "android": "https://dc.lft.to/lastmile_qr_scan"}, "is_reserved": 0, "fusion_lon": 0.0, "fusion_lat": 0.0, "lon": -77.0652955, "name": "eb07e35d4f1e3012ceb1c6279771c0f2"}, {"bike_id": "4ea5e7dcd4aabbc9f2b333dbd8aa96cc", "type": "electric_scooter", "is_disabled": 0, "lat": 38.90393783333333, "rental_uris": {"ios": "https://dc.lft.to/lastmile_qr_scan", "android": "https://dc.lft.to/lastmile_qr_scan"}, "is_reserved": 0, "fusion_lon": 0.0, "fusion_lat": 0.0, "lon": -77.0686015, "name": "4ea5e7dcd4aabbc9f2b333dbd8aa96cc"}, {"bike_id": "677df200fa0dba483e76eaf53f0aa393", "type": "electric_scooter", "is_disabled": 0, "lat": 38.89809183333333, "rental_uris": {"ios": "https://dc.lft.to/lastmile_qr_scan", "android": "https://dc.lft.to/lastmile_qr_scan"}, "is_reserved": 0, "fusion_lon": 0.0, "fusion_lat": 0.0, "lon": -77.023844, "name": "677df200fa0dba483e76eaf53f0aa393"}, {"bike_id": "8c189ebe1bf3124e380fef1522a9cca0", "type": "electric_scooter", "is_disabled": 0, "lat": 38.937192, "rental_uris": {"ios": "https://dc.lft.to/lastmile_qr_scan", "android": "https://dc.lft.to/lastmile_qr_scan"}, "is_reserved": 0, "fusion_lon": 0.0, "fusion_lat": 0.0, "lon": -76.99052916666666, "name": "8c189ebe1bf3124e380fef1522a9cca0"}, {"bike_id": "36b4481ee3b9a2047e8d4da6b27a7ba3", "type": "electric_scooter", "is_disabled": 0, "lat": 38.912720666666665, "rental_uris": {"ios": "https://dc.lft.to/lastmile_qr_scan", "android": "https://dc.lft.to/lastmile_qr_scan"}, "is_reserved": 0, "fusion_lon": 0.0, "fusion_lat": 0.0, "lon": -77.05161683333333, "name": "36b4481ee3b9a2047e8d4da6b27a7ba3"}, {"bike_id": "ece7d9800783c5c33cbfc5ed51574779", "type": "electric_scooter", "is_disabled": 0, "lat": 38.920231666666666, "rental_uris": {"ios": "https://dc.lft.to/lastmile_qr_scan", "android": "https://dc.lft.to/lastmile_qr_scan"}, "is_reserved": 0, "fusion_lon": 0.0, "fusion_lat": 0.0, "lon": -77.02008383333333, "name": "ece7d9800783c5c33cbfc5ed51574779"}, {"bike_id": "dfff5e759c78517bdfd032ff0c6bba35", "type": "electric_scooter", "is_disabled": 0, "lat": 38.88271316666667, "rental_uris": {"ios": "https://dc.lft.to/lastmile_qr_scan", "android": "https://dc.lft.to/lastmile_qr_scan"}, "is_reserved": 0, "fusion_lon": 0.0, "fusion_lat": 0.0, "lon": -76.99251633333333, "name": "dfff5e759c78517bdfd032ff0c6bba35"}, {"bike_id": "0e7020ded729bc321ad75fc86989d287", "type": "electric_scooter", "is_disabled": 0, "lat": 38.9351955, "rental_uris": {"ios": "https://dc.lft.to/lastmile_qr_scan", "android": "https://dc.lft.to/lastmile_qr_scan"}, "is_reserved": 0, "fusion_lon": 0.0, "fusion_lat": 0.0, "lon": -77.03356683333334, "name": "0e7020ded729bc321ad75fc86989d287"}, {"bike_id": "b1d5c142cb0fdb61ae341fb64edf2c3a", "type": "electric_scooter", "is_disabled": 0, "lat": 38.90090416666666, "rental_uris": {"ios": "https://dc.lft.to/lastmile_qr_scan", "android": "https://dc.lft.to/lastmile_qr_scan"}, "is_reserved": 0, "fusion_lon": 0.0, "fusion_lat": 0.0, "lon": -76.98332666666667, "name": "b1d5c142cb0fdb61ae341fb64edf2c3a"}, {"bike_id": "ef7267538c64bfdbe5106ac7f93b1339", "type": "electric_scooter", "is_disabled": 0, "lat": 38.922515833333335, "rental_uris": {"ios": "https://dc.lft.to/lastmile_qr_scan", "android": "https://dc.lft.to/lastmile_qr_scan"}, "is_reserved": 0, "fusion_lon": 0.0, "fusion_lat": 0.0, "lon": -77.0424935, "name": "ef7267538c64bfdbe5106ac7f93b1339"}, {"bike_id": "d42828c367d22a0542cefc737e71524e", "type": "electric_scooter", "is_disabled": 0, "lat": 38.90802166666667, "rental_uris": {"ios": "https://dc.lft.to/lastmile_qr_scan", "android": "https://dc.lft.to/lastmile_qr_scan"}, "is_reserved": 0, "fusion_lon": 0.0, "fusion_lat": 0.0, "lon": -77.0306335, "name": "d42828c367d22a0542cefc737e71524e"}, {"bike_id": "c8f5cc327a71048a36f58557a4eba817", "type": "electric_scooter", "is_disabled": 0, "lat": 38.89342633333333, "rental_uris": {"ios": "https://dc.lft.to/lastmile_qr_scan", "android": "https://dc.lft.to/lastmile_qr_scan"}, "is_reserved": 0, "fusion_lon": 0.0, "fusion_lat": 0.0, "lon": -76.9505895, "name": "c8f5cc327a71048a36f58557a4eba817"}, {"bike_id": "e96645c14725c3fc2bf22b48388e5273", "type": "electric_scooter", "is_disabled": 0, "lat": 38.878186166666666, "rental_uris": {"ios": "https://dc.lft.to/lastmile_qr_scan", "android": "https://dc.lft.to/lastmile_qr_scan"}, "is_reserved": 0, "fusion_lon": 0.0, "fusion_lat": 0.0, "lon": -77.022393, "name": "e96645c14725c3fc2bf22b48388e5273"}, {"bike_id": "c74935419b0e7593ab3a68201ca64272", "type": "electric_scooter", "is_disabled": 0, "lat": 38.912719333333335, "rental_uris": {"ios": "https://dc.lft.to/lastmile_qr_scan", "android": "https://dc.lft.to/lastmile_qr_scan"}, "is_reserved": 0, "fusion_lon": 0.0, "fusion_lat": 0.0, "lon": -77.01223783333333, "name": "c74935419b0e7593ab3a68201ca64272"}, {"bike_id": "19173198e9852e741d63b7aac9b0dc76", "type": "electric_scooter", "is_disabled": 0, "lat": 38.936716833333335, "rental_uris": {"ios": "https://dc.lft.to/lastmile_qr_scan", "android": "https://dc.lft.to/lastmile_qr_scan"}, "is_reserved": 0, "fusion_lon": 0.0, "fusion_lat": 0.0, "lon": -77.024284, "name": "19173198e9852e741d63b7aac9b0dc76"}, {"bike_id": "66c5305626dc321f7695cff7814a16fa", "type": "electric_scooter", "is_disabled": 0, "lat": 38.892201666666665, "rental_uris": {"ios": "https://dc.lft.to/lastmile_qr_scan", "android": "https://dc.lft.to/lastmile_qr_scan"}, "is_reserved": 0, "fusion_lon": 0.0, "fusion_lat": 0.0, "lon": -77.0451605, "name": "66c5305626dc321f7695cff7814a16fa"}, {"bike_id": "2a5f62a8190f957842c9562b0bfe35b8", "type": "electric_scooter", "is_disabled": 0, "lat": 38.905524, "rental_uris": {"ios": "https://dc.lft.to/lastmile_qr_scan", "android": "https://dc.lft.to/lastmile_qr_scan"}, "is_reserved": 0, "fusion_lon": 0.0, "fusion_lat": 0.0, "lon": -77.05708183333333, "name": "2a5f62a8190f957842c9562b0bfe35b8"}, {"bike_id": "1203da50d1bba4547f2ccd2b64fbc743", "type": "electric_scooter", "is_disabled": 0, "lat": 38.905157333333335, "rental_uris": {"ios": "https://dc.lft.to/lastmile_qr_scan", "android": "https://dc.lft.to/lastmile_qr_scan"}, "is_reserved": 0, "fusion_lon": 0.0, "fusion_lat": 0.0, "lon": -77.04663666666667, "name": "1203da50d1bba4547f2ccd2b64fbc743"}, {"bike_id": "6c7d019852c54ecf74dfd0dfd19f4c2f", "type": "electric_scooter", "is_disabled": 0, "lat": 38.914088, "rental_uris": {"ios": "https://dc.lft.to/lastmile_qr_scan", "android": "https://dc.lft.to/lastmile_qr_scan"}, "is_reserved": 0, "fusion_lon": 0.0, "fusion_lat": 0.0, "lon": -77.03223583333333, "name": "6c7d019852c54ecf74dfd0dfd19f4c2f"}, {"bike_id": "62f18ee5cc62c46a28fc7fed3c9d264f", "type": "electric_scooter", "is_disabled": 0, "lat": 38.87394616666667, "rental_uris": {"ios": "https://dc.lft.to/lastmile_qr_scan", "android": "https://dc.lft.to/lastmile_qr_scan"}, "is_reserved": 0, "fusion_lon": 0.0, "fusion_lat": 0.0, "lon": -77.04344466666667, "name": "62f18ee5cc62c46a28fc7fed3c9d264f"}, {"bike_id": "3f5bee607ab0454fb87d52786a08fba6", "type": "electric_scooter", "is_disabled": 0, "lat": 38.9243495, "rental_uris": {"ios": "https://dc.lft.to/lastmile_qr_scan", "android": "https://dc.lft.to/lastmile_qr_scan"}, "is_reserved": 0, "fusion_lon": 0.0, "fusion_lat": 0.0, "lon": -77.04250216666667, "name": "3f5bee607ab0454fb87d52786a08fba6"}, {"bike_id": "be5c901e118ad563ec0134414be57932", "type": "electric_scooter", "is_disabled": 0, "lat": 38.90252066666667, "rental_uris": {"ios": "https://dc.lft.to/lastmile_qr_scan", "android": "https://dc.lft.to/lastmile_qr_scan"}, "is_reserved": 0, "fusion_lon": 0.0, "fusion_lat": 0.0, "lon": -77.02647333333333, "name": "be5c901e118ad563ec0134414be57932"}, {"bike_id": "b4a6cdb81d5426b4e05da08c8a9cf69c", "type": "electric_scooter", "is_disabled": 0, "lat": 38.93360716666667, "rental_uris": {"ios": "https://dc.lft.to/lastmile_qr_scan", "android": "https://dc.lft.to/lastmile_qr_scan"}, "is_reserved": 0, "fusion_lon": 0.0, "fusion_lat": 0.0, "lon": -77.06210716666666, "name": "b4a6cdb81d5426b4e05da08c8a9cf69c"}, {"bike_id": "0fa6f18d249c271d74d338f27cc53e0e", "type": "electric_scooter", "is_disabled": 0, "lat": 38.915689, "rental_uris": {"ios": "https://dc.lft.to/lastmile_qr_scan", "android": "https://dc.lft.to/lastmile_qr_scan"}, "is_reserved": 0, "fusion_lon": 0.0, "fusion_lat": 0.0, "lon": -77.02715133333334, "name": "0fa6f18d249c271d74d338f27cc53e0e"}, {"bike_id": "b4afc963472ba342e5ab51f50d7eedef", "type": "electric_scooter", "is_disabled": 0, "lat": 38.95315516666667, "rental_uris": {"ios": "https://dc.lft.to/lastmile_qr_scan", "android": "https://dc.lft.to/lastmile_qr_scan"}, "is_reserved": 0, "fusion_lon": 0.0, "fusion_lat": 0.0, "lon": -77.06981333333333, "name": "b4afc963472ba342e5ab51f50d7eedef"}, {"bike_id": "201af4e8e7582049f9af6cfed858fd19", "type": "electric_scooter", "is_disabled": 0, "lat": 38.918401333333335, "rental_uris": {"ios": "https://dc.lft.to/lastmile_qr_scan", "android": "https://dc.lft.to/lastmile_qr_scan"}, "is_reserved": 0, "fusion_lon": 0.0, "fusion_lat": 0.0, "lon": -76.96552066666666, "name": "201af4e8e7582049f9af6cfed858fd19"}, {"bike_id": "c7b9da77c04b63ec8adcc8a1531767a3", "type": "electric_scooter", "is_disabled": 0, "lat": 38.91613616666667, "rental_uris": {"ios": "https://dc.lft.to/lastmile_qr_scan", "android": "https://dc.lft.to/lastmile_qr_scan"}, "is_reserved": 0, "fusion_lon": 0.0, "fusion_lat": 0.0, "lon": -77.01728033333333, "name": "c7b9da77c04b63ec8adcc8a1531767a3"}, {"bike_id": "541ed6b7057ef1ea1c20c8c456f63faa", "type": "electric_bike", "is_disabled": 0, "lat": 38.872970333333335, "rental_uris": {"ios": "https://dc.lft.to/lastmile_qr_scan", "android": "https://dc.lft.to/lastmile_qr_scan"}, "is_reserved": 0, "fusion_lon": 0.0, "fusion_lat": 0.0, "lon": -77.13924733333333, "name": "541ed6b7057ef1ea1c20c8c456f63faa"}, {"bike_id": "6f7d7ede35d4dffbac9d7f67718773f7", "type": "electric_scooter", "is_disabled": 0, "lat": 38.89610166666667, "rental_uris": {"ios": "https://dc.lft.to/lastmile_qr_scan", "android": "https://dc.lft.to/lastmile_qr_scan"}, "is_reserved": 0, "fusion_lon": 0.0, "fusion_lat": 0.0, "lon": -77.044754, "name": "6f7d7ede35d4dffbac9d7f67718773f7"}, {"bike_id": "87d22d8c574be730d49ec77e68c599a3", "type": "electric_scooter", "is_disabled": 0, "lat": 38.93612183333333, "rental_uris": {"ios": "https://dc.lft.to/lastmile_qr_scan", "android": "https://dc.lft.to/lastmile_qr_scan"}, "is_reserved": 0, "fusion_lon": 0.0, "fusion_lat": 0.0, "lon": -77.037932, "name": "87d22d8c574be730d49ec77e68c599a3"}, {"bike_id": "a69150bcd8081da09c05a51cc9f487d0", "type": "electric_scooter", "is_disabled": 0, "lat": 38.911394, "rental_uris": {"ios": "https://dc.lft.to/lastmile_qr_scan", "android": "https://dc.lft.to/lastmile_qr_scan"}, "is_reserved": 0, "fusion_lon": 0.0, "fusion_lat": 0.0, "lon": -76.990106, "name": "a69150bcd8081da09c05a51cc9f487d0"}, {"bike_id": "d6c1d7bdbcc6ac3da29c91ada07cbcc8", "type": "electric_scooter", "is_disabled": 0, "lat": 38.9169975, "rental_uris": {"ios": "https://dc.lft.to/lastmile_qr_scan", "android": "https://dc.lft.to/lastmile_qr_scan"}, "is_reserved": 0, "fusion_lon": 0.0, "fusion_lat": 0.0, "lon": -77.02347333333333, "name": "d6c1d7bdbcc6ac3da29c91ada07cbcc8"}, {"bike_id": "9465499ffb3cad838814eeb477d7ea92", "type": "electric_scooter", "is_disabled": 0, "lat": 38.922891666666665, "rental_uris": {"ios": "https://dc.lft.to/lastmile_qr_scan", "android": "https://dc.lft.to/lastmile_qr_scan"}, "is_reserved": 0, "fusion_lon": 0.0, "fusion_lat": 0.0, "lon": -77.02241733333334, "name": "9465499ffb3cad838814eeb477d7ea92"}, {"bike_id": "4f51e1f3253878c3c7a6fc4c20f75986", "type": "electric_scooter", "is_disabled": 0, "lat": 38.93924033333333, "rental_uris": {"ios": "https://dc.lft.to/lastmile_qr_scan", "android": "https://dc.lft.to/lastmile_qr_scan"}, "is_reserved": 0, "fusion_lon": 0.0, "fusion_lat": 0.0, "lon": -77.0605195, "name": "4f51e1f3253878c3c7a6fc4c20f75986"}, {"bike_id": "eaf195a46a64eeceacfc2c332c8ee0af", "type": "electric_scooter", "is_disabled": 0, "lat": 38.908678, "rental_uris": {"ios": "https://dc.lft.to/lastmile_qr_scan", "android": "https://dc.lft.to/lastmile_qr_scan"}, "is_reserved": 0, "fusion_lon": 0.0, "fusion_lat": 0.0, "lon": -76.999516, "name": "eaf195a46a64eeceacfc2c332c8ee0af"}, {"bike_id": "f68cf2383c0989d6afd5e95f59271be6", "type": "electric_scooter", "is_disabled": 0, "lat": 38.901955, "rental_uris": {"ios": "https://dc.lft.to/lastmile_qr_scan", "android": "https://dc.lft.to/lastmile_qr_scan"}, "is_reserved": 0, "fusion_lon": 0.0, "fusion_lat": 0.0, "lon": -77.01282933333333, "name": "f68cf2383c0989d6afd5e95f59271be6"}, {"bike_id": "8d8c09f4d89a3bf22e9602b0e3166458", "type": "electric_bike", "is_disabled": 0, "lat": 39.03700883333333, "rental_uris": {"ios": "https://dc.lft.to/lastmile_qr_scan", "android": "https://dc.lft.to/lastmile_qr_scan"}, "is_reserved": 0, "fusion_lon": 0.0, "fusion_lat": 0.0, "lon": -77.02859716666667, "name": "8d8c09f4d89a3bf22e9602b0e3166458"}, {"bike_id": "c66b601189abd6228669a6247fd5461c", "type": "electric_scooter", "is_disabled": 0, "lat": 38.91537, "rental_uris": {"ios": "https://dc.lft.to/lastmile_qr_scan", "android": "https://dc.lft.to/lastmile_qr_scan"}, "is_reserved": 0, "fusion_lon": 0.0, "fusion_lat": 0.0, "lon": -77.0184435, "name": "c66b601189abd6228669a6247fd5461c"}, {"bike_id": "94bfd7e342ab97ba050e3279a34ba5c4", "type": "electric_scooter", "is_disabled": 0, "lat": 38.922463666666665, "rental_uris": {"ios": "https://dc.lft.to/lastmile_qr_scan", "android": "https://dc.lft.to/lastmile_qr_scan"}, "is_reserved": 0, "fusion_lon": 0.0, "fusion_lat": 0.0, "lon": -77.0427105, "name": "94bfd7e342ab97ba050e3279a34ba5c4"}, {"bike_id": "095963df64f40b8d68d5146a1be76984", "type": "electric_scooter", "is_disabled": 0, "lat": 38.906321, "rental_uris": {"ios": "https://dc.lft.to/lastmile_qr_scan", "android": "https://dc.lft.to/lastmile_qr_scan"}, "is_reserved": 0, "fusion_lon": 0.0, "fusion_lat": 0.0, "lon": -77.05134216666667, "name": "095963df64f40b8d68d5146a1be76984"}, {"bike_id": "4a09054b153bee21871e029c08d0b9dd", "type": "electric_scooter", "is_disabled": 0, "lat": 38.919939166666666, "rental_uris": {"ios": "https://dc.lft.to/lastmile_qr_scan", "android": "https://dc.lft.to/lastmile_qr_scan"}, "is_reserved": 0, "fusion_lon": 0.0, "fusion_lat": 0.0, "lon": -77.039624, "name": "4a09054b153bee21871e029c08d0b9dd"}, {"bike_id": "18694783ff0c812058cd0b4247967edb", "type": "electric_bike", "is_disabled": 0, "lat": 38.838314833333335, "rental_uris": {"ios": "https://dc.lft.to/lastmile_qr_scan", "android": "https://dc.lft.to/lastmile_qr_scan"}, "is_reserved": 0, "fusion_lon": 0.0, "fusion_lat": 0.0, "lon": -77.07907116666667, "name": "18694783ff0c812058cd0b4247967edb"}, {"bike_id": "458719950f702097a57b7d6e016113f5", "type": "electric_scooter", "is_disabled": 0, "lat": 38.87565933333333, "rental_uris": {"ios": "https://dc.lft.to/lastmile_qr_scan", "android": "https://dc.lft.to/lastmile_qr_scan"}, "is_reserved": 0, "fusion_lon": 0.0, "fusion_lat": 0.0, "lon": -76.95866533333333, "name": "458719950f702097a57b7d6e016113f5"}, {"bike_id": "c81b49664e7d80d789675052314b305e", "type": "electric_scooter", "is_disabled": 0, "lat": 38.89916183333333, "rental_uris": {"ios": "https://dc.lft.to/lastmile_qr_scan", "android": "https://dc.lft.to/lastmile_qr_scan"}, "is_reserved": 0, "fusion_lon": 0.0, "fusion_lat": 0.0, "lon": -76.933671, "name": "c81b49664e7d80d789675052314b305e"}, {"bike_id": "2f7a0595633df04960917cc1cd8bbfa0", "type": "electric_scooter", "is_disabled": 0, "lat": 38.91539083333333, "rental_uris": {"ios": "https://dc.lft.to/lastmile_qr_scan", "android": "https://dc.lft.to/lastmile_qr_scan"}, "is_reserved": 0, "fusion_lon": 0.0, "fusion_lat": 0.0, "lon": -77.0319365, "name": "2f7a0595633df04960917cc1cd8bbfa0"}, {"bike_id": "8709b02999197af826f4984afbf238c2", "type": "electric_scooter", "is_disabled": 0, "lat": 38.947933666666664, "rental_uris": {"ios": "https://dc.lft.to/lastmile_qr_scan", "android": "https://dc.lft.to/lastmile_qr_scan"}, "is_reserved": 0, "fusion_lon": 0.0, "fusion_lat": 0.0, "lon": -77.02134166666667, "name": "8709b02999197af826f4984afbf238c2"}, {"bike_id": "062ae65a48fb10e9ca04afe7df72c826", "type": "electric_scooter", "is_disabled": 0, "lat": 38.89189966666667, "rental_uris": {"ios": "https://dc.lft.to/lastmile_qr_scan", "android": "https://dc.lft.to/lastmile_qr_scan"}, "is_reserved": 0, "fusion_lon": 0.0, "fusion_lat": 0.0, "lon": -77.03636666666667, "name": "062ae65a48fb10e9ca04afe7df72c826"}, {"bike_id": "1bc8adc20fe35be409594e5feb25dc6b", "type": "electric_scooter", "is_disabled": 0, "lat": 38.91688283333333, "rental_uris": {"ios": "https://dc.lft.to/lastmile_qr_scan", "android": "https://dc.lft.to/lastmile_qr_scan"}, "is_reserved": 0, "fusion_lon": 0.0, "fusion_lat": 0.0, "lon": -77.02951766666666, "name": "1bc8adc20fe35be409594e5feb25dc6b"}, {"bike_id": "f05f43e93288cffe6d19149d5d750da8", "type": "electric_scooter", "is_disabled": 0, "lat": 38.88132816666667, "rental_uris": {"ios": "https://dc.lft.to/lastmile_qr_scan", "android": "https://dc.lft.to/lastmile_qr_scan"}, "is_reserved": 0, "fusion_lon": 0.0, "fusion_lat": 0.0, "lon": -77.00211816666666, "name": "f05f43e93288cffe6d19149d5d750da8"}, {"bike_id": "86426b9e5659aeb8f3515aeba3ef4cd6", "type": "electric_scooter", "is_disabled": 0, "lat": 38.90279866666667, "rental_uris": {"ios": "https://dc.lft.to/lastmile_qr_scan", "android": "https://dc.lft.to/lastmile_qr_scan"}, "is_reserved": 0, "fusion_lon": 0.0, "fusion_lat": 0.0, "lon": -77.02184283333334, "name": "86426b9e5659aeb8f3515aeba3ef4cd6"}, {"bike_id": "63391cfa060f4ebd8e9959bce80136b7", "type": "electric_scooter", "is_disabled": 0, "lat": 38.905621833333335, "rental_uris": {"ios": "https://dc.lft.to/lastmile_qr_scan", "android": "https://dc.lft.to/lastmile_qr_scan"}, "is_reserved": 0, "fusion_lon": 0.0, "fusion_lat": 0.0, "lon": -77.0282025, "name": "63391cfa060f4ebd8e9959bce80136b7"}, {"bike_id": "baebaf744ede8da0db2dea1c7ed013f2", "type": "electric_scooter", "is_disabled": 0, "lat": 38.958519, "rental_uris": {"ios": "https://dc.lft.to/lastmile_qr_scan", "android": "https://dc.lft.to/lastmile_qr_scan"}, "is_reserved": 0, "fusion_lon": 0.0, "fusion_lat": 0.0, "lon": -77.0280475, "name": "baebaf744ede8da0db2dea1c7ed013f2"}, {"bike_id": "edabfe47bf8fd5080178e706461a7740", "type": "electric_scooter", "is_disabled": 0, "lat": 38.90203016666667, "rental_uris": {"ios": "https://dc.lft.to/lastmile_qr_scan", "android": "https://dc.lft.to/lastmile_qr_scan"}, "is_reserved": 0, "fusion_lon": 0.0, "fusion_lat": 0.0, "lon": -77.041713, "name": "edabfe47bf8fd5080178e706461a7740"}, {"bike_id": "c20babf4ee2f79b844927a74053c559d", "type": "electric_scooter", "is_disabled": 0, "lat": 38.930899, "rental_uris": {"ios": "https://dc.lft.to/lastmile_qr_scan", "android": "https://dc.lft.to/lastmile_qr_scan"}, "is_reserved": 0, "fusion_lon": 0.0, "fusion_lat": 0.0, "lon": -77.03738466666667, "name": "c20babf4ee2f79b844927a74053c559d"}, {"bike_id": "28fe8f24db842b3f3b9ab0fa4dc6680a", "type": "electric_scooter", "is_disabled": 0, "lat": 38.90805533333333, "rental_uris": {"ios": "https://dc.lft.to/lastmile_qr_scan", "android": "https://dc.lft.to/lastmile_qr_scan"}, "is_reserved": 0, "fusion_lon": 0.0, "fusion_lat": 0.0, "lon": -77.03060366666666, "name": "28fe8f24db842b3f3b9ab0fa4dc6680a"}, {"bike_id": "b993ee40ece42208d653c461063467a2", "type": "electric_scooter", "is_disabled": 0, "lat": 38.92813866666667, "rental_uris": {"ios": "https://dc.lft.to/lastmile_qr_scan", "android": "https://dc.lft.to/lastmile_qr_scan"}, "is_reserved": 0, "fusion_lon": 0.0, "fusion_lat": 0.0, "lon": -77.02810416666667, "name": "b993ee40ece42208d653c461063467a2"}, {"bike_id": "60bff39c826671868fc1afee150931eb", "type": "electric_scooter", "is_disabled": 0, "lat": 38.928342, "rental_uris": {"ios": "https://dc.lft.to/lastmile_qr_scan", "android": "https://dc.lft.to/lastmile_qr_scan"}, "is_reserved": 0, "fusion_lon": 0.0, "fusion_lat": 0.0, "lon": -77.0605015, "name": "60bff39c826671868fc1afee150931eb"}, {"bike_id": "20acb5ad14e5c183d1ca03fab1017c9f", "type": "electric_scooter", "is_disabled": 0, "lat": 38.905752166666666, "rental_uris": {"ios": "https://dc.lft.to/lastmile_qr_scan", "android": "https://dc.lft.to/lastmile_qr_scan"}, "is_reserved": 0, "fusion_lon": 0.0, "fusion_lat": 0.0, "lon": -77.0220155, "name": "20acb5ad14e5c183d1ca03fab1017c9f"}, {"bike_id": "db159fd2dfafd5fe146f3702ec2230b3", "type": "electric_scooter", "is_disabled": 0, "lat": 38.93356516666667, "rental_uris": {"ios": "https://dc.lft.to/lastmile_qr_scan", "android": "https://dc.lft.to/lastmile_qr_scan"}, "is_reserved": 0, "fusion_lon": 0.0, "fusion_lat": 0.0, "lon": -77.07359383333333, "name": "db159fd2dfafd5fe146f3702ec2230b3"}, {"bike_id": "a861f6de321fcd77745cc23a040aeedb", "type": "electric_scooter", "is_disabled": 0, "lat": 38.92987383333333, "rental_uris": {"ios": "https://dc.lft.to/lastmile_qr_scan", "android": "https://dc.lft.to/lastmile_qr_scan"}, "is_reserved": 0, "fusion_lon": 0.0, "fusion_lat": 0.0, "lon": -77.03647583333333, "name": "a861f6de321fcd77745cc23a040aeedb"}, {"bike_id": "289c66b346f1e43e1e8ad2cc90393d51", "type": "electric_scooter", "is_disabled": 0, "lat": 38.90843133333333, "rental_uris": {"ios": "https://dc.lft.to/lastmile_qr_scan", "android": "https://dc.lft.to/lastmile_qr_scan"}, "is_reserved": 0, "fusion_lon": 0.0, "fusion_lat": 0.0, "lon": -77.03203416666666, "name": "289c66b346f1e43e1e8ad2cc90393d51"}, {"bike_id": "05479a25ccd1497876bc9c59a26efd3e", "type": "electric_bike", "is_disabled": 0, "lat": 38.99224433333333, "rental_uris": {"ios": "https://dc.lft.to/lastmile_qr_scan", "android": "https://dc.lft.to/lastmile_qr_scan"}, "is_reserved": 0, "fusion_lon": 0.0, "fusion_lat": 0.0, "lon": -76.94441, "name": "05479a25ccd1497876bc9c59a26efd3e"}, {"bike_id": "598302998989f998bb997b0cd93dd277", "type": "electric_scooter", "is_disabled": 0, "lat": 38.902677833333335, "rental_uris": {"ios": "https://dc.lft.to/lastmile_qr_scan", "android": "https://dc.lft.to/lastmile_qr_scan"}, "is_reserved": 0, "fusion_lon": 0.0, "fusion_lat": 0.0, "lon": -77.05800333333333, "name": "598302998989f998bb997b0cd93dd277"}, {"bike_id": "dc5d53dbb860ffdf27a7f840f30e5ea5", "type": "electric_scooter", "is_disabled": 0, "lat": 38.887358666666664, "rental_uris": {"ios": "https://dc.lft.to/lastmile_qr_scan", "android": "https://dc.lft.to/lastmile_qr_scan"}, "is_reserved": 0, "fusion_lon": 0.0, "fusion_lat": 0.0, "lon": -77.02431716666666, "name": "dc5d53dbb860ffdf27a7f840f30e5ea5"}, {"bike_id": "c693d80136ad7cc3dd0a69c553802054", "type": "electric_scooter", "is_disabled": 0, "lat": 38.91608733333333, "rental_uris": {"ios": "https://dc.lft.to/lastmile_qr_scan", "android": "https://dc.lft.to/lastmile_qr_scan"}, "is_reserved": 0, "fusion_lon": 0.0, "fusion_lat": 0.0, "lon": -77.03208783333334, "name": "c693d80136ad7cc3dd0a69c553802054"}, {"bike_id": "d11f22a6f1418255ac3cae31dee3ddab", "type": "electric_bike", "is_disabled": 0, "lat": 38.85536316666666, "rental_uris": {"ios": "https://dc.lft.to/lastmile_qr_scan", "android": "https://dc.lft.to/lastmile_qr_scan"}, "is_reserved": 0, "fusion_lon": 0.0, "fusion_lat": 0.0, "lon": -77.120164, "name": "d11f22a6f1418255ac3cae31dee3ddab"}, {"bike_id": "295160a252372ea16f151ab9b5d417e3", "type": "electric_scooter", "is_disabled": 0, "lat": 38.89839116666667, "rental_uris": {"ios": "https://dc.lft.to/lastmile_qr_scan", "android": "https://dc.lft.to/lastmile_qr_scan"}, "is_reserved": 0, "fusion_lon": 0.0, "fusion_lat": 0.0, "lon": -77.02255916666667, "name": "295160a252372ea16f151ab9b5d417e3"}, {"bike_id": "55908977e01fe6aa79cec70655a0ff6e", "type": "electric_scooter", "is_disabled": 0, "lat": 38.9395505, "rental_uris": {"ios": "https://dc.lft.to/lastmile_qr_scan", "android": "https://dc.lft.to/lastmile_qr_scan"}, "is_reserved": 0, "fusion_lon": 0.0, "fusion_lat": 0.0, "lon": -77.07251616666667, "name": "55908977e01fe6aa79cec70655a0ff6e"}, {"bike_id": "9fdc6bc5c3531125a82b993099c8e9b5", "type": "electric_bike", "is_disabled": 0, "lat": 38.8868155, "rental_uris": {"ios": "https://dc.lft.to/lastmile_qr_scan", "android": "https://dc.lft.to/lastmile_qr_scan"}, "is_reserved": 0, "fusion_lon": 0.0, "fusion_lat": 0.0, "lon": -77.162369, "name": "9fdc6bc5c3531125a82b993099c8e9b5"}, {"bike_id": "76aee355084721c79dc9133224ede835", "type": "electric_scooter", "is_disabled": 0, "lat": 38.9236615, "rental_uris": {"ios": "https://dc.lft.to/lastmile_qr_scan", "android": "https://dc.lft.to/lastmile_qr_scan"}, "is_reserved": 0, "fusion_lon": 0.0, "fusion_lat": 0.0, "lon": -77.05132033333334, "name": "76aee355084721c79dc9133224ede835"}, {"bike_id": "d684d2b5fade32d84c52802077ed4d3f", "type": "electric_scooter", "is_disabled": 0, "lat": 38.92338566666667, "rental_uris": {"ios": "https://dc.lft.to/lastmile_qr_scan", "android": "https://dc.lft.to/lastmile_qr_scan"}, "is_reserved": 0, "fusion_lon": 0.0, "fusion_lat": 0.0, "lon": -77.02692016666667, "name": "d684d2b5fade32d84c52802077ed4d3f"}, {"bike_id": "82952984d1316f60eb126e92995c53e7", "type": "electric_scooter", "is_disabled": 0, "lat": 38.90797, "rental_uris": {"ios": "https://dc.lft.to/lastmile_qr_scan", "android": "https://dc.lft.to/lastmile_qr_scan"}, "is_reserved": 0, "fusion_lon": 0.0, "fusion_lat": 0.0, "lon": -77.04178566666667, "name": "82952984d1316f60eb126e92995c53e7"}, {"bike_id": "69a3271ca126e34514b473e58f8191d4", "type": "electric_scooter", "is_disabled": 0, "lat": 38.90104266666667, "rental_uris": {"ios": "https://dc.lft.to/lastmile_qr_scan", "android": "https://dc.lft.to/lastmile_qr_scan"}, "is_reserved": 0, "fusion_lon": 0.0, "fusion_lat": 0.0, "lon": -77.0383085, "name": "69a3271ca126e34514b473e58f8191d4"}, {"bike_id": "bbc3411a6c1767f00d0603aa2a129163", "type": "electric_scooter", "is_disabled": 0, "lat": 38.843178, "rental_uris": {"ios": "https://dc.lft.to/lastmile_qr_scan", "android": "https://dc.lft.to/lastmile_qr_scan"}, "is_reserved": 0, "fusion_lon": 0.0, "fusion_lat": 0.0, "lon": -76.99931583333333, "name": "bbc3411a6c1767f00d0603aa2a129163"}, {"bike_id": "2706f3ca4cc535e018bbb4d746d98d07", "type": "electric_scooter", "is_disabled": 0, "lat": 38.8646955, "rental_uris": {"ios": "https://dc.lft.to/lastmile_qr_scan", "android": "https://dc.lft.to/lastmile_qr_scan"}, "is_reserved": 0, "fusion_lon": 0.0, "fusion_lat": 0.0, "lon": -77.00007966666666, "name": "2706f3ca4cc535e018bbb4d746d98d07"}, {"bike_id": "b3644ecf9e1feb9529ee5fb5773d4634", "type": "electric_scooter", "is_disabled": 0, "lat": 38.965507833333334, "rental_uris": {"ios": "https://dc.lft.to/lastmile_qr_scan", "android": "https://dc.lft.to/lastmile_qr_scan"}, "is_reserved": 0, "fusion_lon": 0.0, "fusion_lat": 0.0, "lon": -77.036288, "name": "b3644ecf9e1feb9529ee5fb5773d4634"},