{"data": {"bikes": [{"fusion_lat": 0.0, "type": "electric_scooter", "name": "fbe9b12688123456a43ae64d79ebd243", "fusion_lon": 0.0, "bike_id": "fbe9b12688123456a43ae64d79ebd243", "is_reserved": 0, "rental_uris": {"android": "https://dc.lft.to/lastmile_qr_scan", "ios": "https://dc.lft.to/lastmile_qr_scan"}, "lat": 38.91831233333333, "is_disabled": 0, "lon": -77.031735}, {"fusion_lat": 0.0, "type": "electric_scooter", "name": "c776f57df9642e1928bc0a8a0f537808", "fusion_lon": 0.0, "bike_id": "c776f57df9642e1928bc0a8a0f537808", "is_reserved": 0, "rental_uris": {"android": "https://dc.lft.to/lastmile_qr_scan", "ios": "https://dc.lft.to/lastmile_qr_scan"}, "lat": 38.85196466666667, "is_disabled": 0, "lon": -76.970735}, {"fusion_lat": 0.0, "type": "electric_bike", "name": "e1fb0fa8b53d96ad0d792aa575c6139c", "fusion_lon": 0.0, "bike_id": "e1fb0fa8b53d96ad0d792aa575c6139c", "is_reserved": 0, "rental_uris": {"android": "https://dc.lft.to/lastmile_qr_scan", "ios": "https://dc.lft.to/lastmile_qr_scan"}, "lat": 38.898005833333336, "is_disabled": 0, "lon": -76.99055433333334}, {"fusion_lat": 0.0, "type": "electric_scooter", "name": "67b2050a49f16226425b28abe69546c1", "fusion_lon": 0.0, "bike_id": "67b2050a49f16226425b28abe69546c1", "is_reserved": 0, "rental_uris": {"android": "https://dc.lft.to/lastmile_qr_scan", "ios": "https://dc.lft.to/lastmile_qr_scan"}, "lat": 38.892318833333334, "is_disabled": 0, "lon": -77.03180766666667}, {"fusion_lat": 0.0, "type": "electric_scooter", "name": "88d99a05f5111045b07027b8724677fb", "fusion_lon": 0.0, "bike_id": "88d99a05f5111045b07027b8724677fb", "is_reserved": 0, "rental_uris": {"android": "https://dc.lft.to/lastmile_qr_scan", "ios": "https://dc.lft.to/lastmile_qr_scan"}, "lat": 38.933845833333336, "is_disabled": 0, "lon": -77.03555133333333}, {"fusion_lat": 0.0, "type": "electric_scooter", "name": "b61954ac615c1b7f39ffd4c730b7ec41", "fusion_lon": 0.0, "bike_id": "b61954ac615c1b7f39ffd4c730b7ec41", "is_reserved": 0, "rental_uris": {"android": "https://dc.lft.to/lastmile_qr_scan", "ios": "https://dc.lft.to/lastmile_qr_scan"}, "lat": 38.89561, "is_disabled": 0, "lon": -77.04676583333334}, {"fusion_lat": 0.0, "type": "electric_scooter", "name": "5364a21d6b1c4184b08f3fd4e96b14cd", "fusion_lon": 0.0, "bike_id": "5364a21d6b1c4184b08f3fd4e96b14cd", "is_reserved": 0, "rental_uris": {"android": "https://dc.lft.to/lastmile_qr_scan", "ios": "https://dc.lft.to/lastmile_qr_scan"}, "lat": 38.907331, "is_disabled": 0, "lon": -77.026941}, {"fusion_lat": 0.0, "type": "electric_scooter", "name": "a6ba98ef8a4baee08ef02943821096e7", "fusion_lon": 0.0, "bike_id": "a6ba98ef8a4baee08ef02943821096e7", "is_reserved": 0, "rental_uris": {"android": "https://dc.lft.to/lastmile_qr_scan", "ios": "https://dc.lft.to/lastmile_qr_scan"}, "lat": 38.92782366666667, "is_disabled": 0, "lon": -77.05267533333334}, {"fusion_lat": 0.0, "type": "electric_scooter", "name": "9d8c24d7375b569fa6aa87167ab17b57", "fusion_lon": 0.0, "bike_id": "9d8c24d7375b569fa6aa87167ab17b57", "is_reserved": 0, "rental_uris": {"android": "https://dc.lft.to/lastmile_qr_scan", "ios": "https://dc.lft.to/lastmile_qr_scan"}, "lat": 38.91873666666667, "is_disabled": 0, "lon": -77.03474866666667}, {"fusion_lat": 0.0, "type": "electric_scooter", "name": "ff07b151fdbc813e593a68fa6d6bb597", "fusion_lon": 0.0, "bike_id": "ff07b151fdbc813e593a68fa6d6bb597", "is_reserved": 0, "rental_uris": {"android": "https://dc.lft.to/lastmile_qr_scan", "ios": "https://dc.lft.to/lastmile_qr_scan"}, "lat": 38.904082833333334, "is_disabled": 0, "lon": -77.029459}, {"fusion_lat": 0.0, "type": "electric_scooter", "name": "3c3ff4d2c7735a9e1b03828bbf1b10be", "fusion_lon": 0.0, "bike_id": "3c3ff4d2c7735a9e1b03828bbf1b10be", "is_reserved": 0, "rental_uris": {"android": "https://dc.lft.to/lastmile_qr_scan", "ios": "https://dc.lft.to/lastmile_qr_scan"}, "lat": 38.92901466666667, "is_disabled": 0, "lon": -77.05459666666667}, {"fusion_lat": 0.0, "type": "electric_scooter", "name": "e29abe805f5d69c6785d11a53e25a9fb", "fusion_lon": 0.0, "bike_id": "e29abe805f5d69c6785d11a53e25a9fb", "is_reserved": 0, "rental_uris": {"android": "https://dc.lft.to/lastmile_qr_scan", "ios": "https://dc.lft.to/lastmile_qr_scan"}, "lat": 38.929188833333335, "is_disabled": 0, "lon": -77.02090066666666}, {"fusion_lat": 0.0, "type": "electric_scooter", "name": "3c12e3e65037448937e507fe432d6699", "fusion_lon": 0.0, "bike_id": "3c12e3e65037448937e507fe432d6699", "is_reserved": 0, "rental_uris": {"android": "https://dc.lft.to/lastmile_qr_scan", "ios": "https://dc.lft.to/lastmile_qr_scan"}, "lat": 38.911236333333335, "is_disabled": 0, "lon": -77.06525583333334}, {"fusion_lat": 0.0, "type": "electric_scooter", "name": "b39581e2802b48dd26cedf5a0c257360", "fusion_lon": 0.0, "bike_id": "b39581e2802b48dd26cedf5a0c257360", "is_reserved": 0, "rental_uris": {"android": "https://dc.lft.to/lastmile_qr_scan", "ios": "https://dc.lft.to/lastmile_qr_scan"}, "lat": 38.88092683333333, "is_disabled": 0, "lon": -76.93010216666667}, {"fusion_lat": 0.0, "type": "electric_scooter", "name": "ee70b6a33c1e95cae805e9feea92b26b", "fusion_lon": 0.0, "bike_id": "ee70b6a33c1e95cae805e9feea92b26b", "is_reserved": 0, "rental_uris": {"android": "https://dc.lft.to/lastmile_qr_scan", "ios": "https://dc.lft.to/lastmile_qr_scan"}, "lat": 38.92126433333333, "is_disabled": 0, "lon": -77.03660883333333}, {"fusion_lat": 0.0, "type": "electric_scooter", "name": "a17ed66d54e4ac7050948f36f74eee00", "fusion_lon": 0.0, "bike_id": "a17ed66d54e4ac7050948f36f74eee00", "is_reserved": 0, "rental_uris": {"android": "https://dc.lft.to/lastmile_qr_scan", "ios": "https://dc.lft.to/lastmile_qr_scan"}, "lat": 38.899210333333336, "is_disabled": 0, "lon": -76.933797}, {"fusion_lat": 0.0, "type": "electric_scooter", "name": "03c38afe9ec89c3a934b55e32b9970ad", "fusion_lon": 0.0, "bike_id": "03c38afe9ec89c3a934b55e32b9970ad", "is_reserved": 0, "rental_uris": {"android": "https://dc.lft.to/lastmile_qr_scan", "ios": "https://dc.lft.to/lastmile_qr_scan"}, "lat": 38.91555833333334, "is_disabled": 0, "lon": -77.04184516666666}, {"fusion_lat": 0.0, "type": "electric_scooter", "name": "dc8ffa3d598f362736e4086799313e74", "fusion_lon": 0.0, "bike_id": "dc8ffa3d598f362736e4086799313e74", "is_reserved": 0, "rental_uris": {"android": "https://dc.lft.to/lastmile_qr_scan", "ios": "https://dc.lft.to/lastmile_qr_scan"}, "lat": 38.90728133333333, "is_disabled": 0, "lon": -77.034735}, {"fusion_lat": 0.0, "type": "electric_scooter", "name": "78a93b4aee4fa2563236c44a50f19e26", "fusion_lon": 0.0, "bike_id": "78a93b4aee4fa2563236c44a50f19e26", "is_reserved": 0, "rental_uris": {"android": "https://dc.lft.to/lastmile_qr_scan", "ios": "https://dc.lft.to/lastmile_qr_scan"}, "lat": 38.916771833333335, "is_disabled": 0, "lon": -77.03666933333334}, {"fusion_lat": 0.0, "type": "electric_scooter", "name": "da5f6a8bc9efcba33e156d165c259e04", "fusion_lon": 0.0, "bike_id": "da5f6a8bc9efcba33e156d165c259e04", "is_reserved": 0, "rental_uris": {"android": "https://dc.lft.to/lastmile_qr_scan", "ios": "https://dc.lft.to/lastmile_qr_scan"}, "lat": 38.924470166666666, "is_disabled": 0, "lon": -77.0410435}, {"fusion_lat": 0.0, "type": "electric_bike", "name": "eb2eadd107e456e2bb51dc9fb3548e98", "fusion_lon": 0.0, "bike_id": "eb2eadd107e456e2bb51dc9fb3548e98", "is_reserved": 0, "rental_uris": {"android": "https://dc.lft.to/lastmile_qr_scan", "ios": "https://dc.lft.to/lastmile_qr_scan"}, "lat": 39.062939, "is_disabled": 0, "lon": -77.0497855}, {"fusion_lat": 0.0, "type": "electric_scooter", "name": "34dd6fef7c0b86df0862becd4d8cd59a", "fusion_lon": 0.0, "bike_id": "34dd6fef7c0b86df0862becd4d8cd59a", "is_reserved": 0, "rental_uris": {"android": "https://dc.lft.to/lastmile_qr_scan", "ios": "https://dc.lft.to/lastmile_qr_scan"}, "lat": 38.897987666666666, "is_disabled": 0, "lon": -77.02744016666666}, {"fusion_lat": 0.0, "type": "electric_scooter", "name": "7dbf3c2f9ca52a42ff1214761dc98daf", "fusion_lon": 0.0, "bike_id": "7dbf3c2f9ca52a42ff1214761dc98daf", "is_reserved": 0, "rental_uris": {"android": "https://dc.lft.to/lastmile_qr_scan", "ios": "https://dc.lft.to/lastmile_qr_scan"}, "lat": 38.9155565, "is_disabled": 0, "lon": -77.0313145}, {"fusion_lat": 0.0, "type": "electric_scooter", "name": "7b98d0f33f270766e0433481c97895d8", "fusion_lon": 0.0, "bike_id": "7b98d0f33f270766e0433481c97895d8", "is_reserved": 0, "rental_uris": {"android": "https://dc.lft.to/lastmile_qr_scan", "ios": "https://dc.lft.to/lastmile_qr_scan"}, "lat": 38.899225666666666, "is_disabled": 0, "lon": -76.93383066666667}, {"fusion_lat": 0.0, "type": "electric_scooter", "name": "789e39893423fa50defc9430395a5d59", "fusion_lon": 0.0, "bike_id": "789e39893423fa50defc9430395a5d59", "is_reserved": 0, "rental_uris": {"android": "https://dc.lft.to/lastmile_qr_scan", "ios": "https://dc.lft.to/lastmile_qr_scan"}, "lat": 38.9007435, "is_disabled": 0, "lon": -77.0475975}, {"fusion_lat": 0.0, "type": "electric_scooter", "name": "6ae7758cbf65d53771ec03bd3b7d8be3", "fusion_lon": 0.0, "bike_id": "6ae7758cbf65d53771ec03bd3b7d8be3", "is_reserved": 0, "rental_uris": {"android": "https://dc.lft.to/lastmile_qr_scan", "ios": "https://dc.lft.to/lastmile_qr_scan"}, "lat": 38.8830795, "is_disabled": 0, "lon": -76.97866433333333}, {"fusion_lat": 0.0, "type": "electric_scooter", "name": "db3e3aa7673f8c53a279f1319e96f13d", "fusion_lon": 0.0, "bike_id": "db3e3aa7673f8c53a279f1319e96f13d", "is_reserved": 0, "rental_uris": {"android": "https://dc.lft.to/lastmile_qr_scan", "ios": "https://dc.lft.to/lastmile_qr_scan"}, "lat": 38.89251333333333, "is_disabled": 0, "lon": -77.04662983333333}, {"fusion_lat": 0.0, "type": "electric_scooter", "name": "32edc62e836bbe6739542f4650671a68", "fusion_lon": 0.0, "bike_id": "32edc62e836bbe6739542f4650671a68", "is_reserved": 0, "rental_uris": {"android": "https://dc.lft.to/lastmile_qr_scan", "ios": "https://dc.lft.to/lastmile_qr_scan"}, "lat": 38.89226266666667, "is_disabled": 0, "lon": -77.023475}, {"fusion_lat": 0.0, "type": "electric_scooter", "name": "21121726e4e04865d4f09ac025cbd280", "fusion_lon": 0.0, "bike_id": "21121726e4e04865d4f09ac025cbd280", "is_reserved": 0, "rental_uris": {"android": "https://dc.lft.to/lastmile_qr_scan", "ios": "https://dc.lft.to/lastmile_qr_scan"}, "lat": 38.93986683333333, "is_disabled": 0, "lon": -77.02983433333333}, {"fusion_lat": 0.0, "type": "electric_scooter", "name": "c4ca4b4d53e05af84789c004b5269b03", "fusion_lon": 0.0, "bike_id": "c4ca4b4d53e05af84789c004b5269b03", "is_reserved": 0, "rental_uris": {"android": "https://dc.lft.to/lastmile_qr_scan", "ios": "https://dc.lft.to/lastmile_qr_scan"}, "lat": 38.904377, "is_disabled": 0, "lon": -76.98496016666667}, {"fusion_lat": 0.0, "type": "electric_bike", "name": "2c30a91a812a04e206c706612a5dc4c0", "fusion_lon": 0.0, "bike_id": "2c30a91a812a04e206c706612a5dc4c0", "is_reserved": 0, "rental_uris": {"android": "https://dc.lft.to/lastmile_qr_scan", "ios": "https://dc.lft.to/lastmile_qr_scan"}, "lat": 38.9491685, "is_disabled": 0, "lon": -77.00798416666666}, {"fusion_lat": 0.0, "type": "electric_scooter", "name": "38bb389ec353ceac6376d1f0591a8460", "fusion_lon": 0.0, "bike_id": "38bb389ec353ceac6376d1f0591a8460", "is_reserved": 0, "rental_uris": {"android": "https://dc.lft.to/lastmile_qr_scan", "ios": "https://dc.lft.to/lastmile_qr_scan"}, "lat": 38.922560833333335, "is_disabled": 0, "lon": -77.03522783333334}, {"fusion_lat": 0.0, "type": "electric_scooter", "name": "c761ca15e282d846d677ddead0bb27e1", "fusion_lon": 0.0, "bike_id": "c761ca15e282d846d677ddead0bb27e1", "is_reserved": 0, "rental_uris": {"android": "https://dc.lft.to/lastmile_qr_scan", "ios": "https://dc.lft.to/lastmile_qr_scan"}, "lat": 38.919612666666666, "is_disabled": 0, "lon": -77.03201766666666}, {"fusion_lat": 0.0, "type": "electric_scooter", "name": "b62c3095166958dc8b48354ee3167a0e", "fusion_lon": 0.0, "bike_id": "b62c3095166958dc8b48354ee3167a0e", "is_reserved": 0, "rental_uris": {"android": "https://dc.lft.to/lastmile_qr_scan", "ios": "https://dc.lft.to/lastmile_qr_scan"}, "lat": 38.90785533333333, "is_disabled": 0, "lon": -77.04503066666666}, {"fusion_lat": 0.0, "type": "electric_scooter", "name": "676efe26fa6669f515c8aac842548dc9", "fusion_lon": 0.0, "bike_id": "676efe26fa6669f515c8aac842548dc9", "is_reserved": 0, "rental_uris": {"android": "https://dc.lft.to/lastmile_qr_scan", "ios": "https://dc.lft.to/lastmile_qr_scan"}, "lat": 38.922260666666666, "is_disabled": 0, "lon": -77.04249216666666}, {"fusion_lat": 0.0, "type": "electric_bike", "name": "54d649fb86a77ebc8ef5ceeed6955774", "fusion_lon": 0.0, "bike_id": "54d649fb86a77ebc8ef5ceeed6955774", "is_reserved": 0, "rental_uris": {"android": "https://dc.lft.to/lastmile_qr_scan", "ios": "https://dc.lft.to/lastmile_qr_scan"}, "lat": 38.918696, "is_disabled": 0, "lon": -76.96090266666667}, {"fusion_lat": 0.0, "type": "electric_scooter", "name": "98cf9a684d04bc77bf3735c201f7476a", "fusion_lon": 0.0, "bike_id": "98cf9a684d04bc77bf3735c201f7476a", "is_reserved": 0, "rental_uris": {"android": "https://dc.lft.to/lastmile_qr_scan", "ios": "https://dc.lft.to/lastmile_qr_scan"}, "lat": 38.874533666666665, "is_disabled": 0, "lon": -77.00912816666667}, {"fusion_lat": 0.0, "type": "electric_scooter", "name": "7a4d3e20467860364638b6b910c3c9e1", "fusion_lon": 0.0, "bike_id": "7a4d3e20467860364638b6b910c3c9e1", "is_reserved": 0, "rental_uris": {"android": "https://dc.lft.to/lastmile_qr_scan", "ios": "https://dc.lft.to/lastmile_qr_scan"}, "lat": 38.91455633333333, "is_disabled": 0, "lon": -77.0189515}, {"fusion_lat": 0.0, "type": "electric_scooter", "name": "c9a37aff0343644434634991e1ba2e46", "fusion_lon": 0.0, "bike_id": "c9a37aff0343644434634991e1ba2e46", "is_reserved": 0, "rental_uris": {"android": "https://dc.lft.to/lastmile_qr_scan", "ios": "https://dc.lft.to/lastmile_qr_scan"}, "lat": 38.917056, "is_disabled": 0, "lon": -77.03861116666667}, {"fusion_lat": 0.0, "type": "electric_scooter", "name": "19f9817da167fd8ef9a8855daafd4799", "fusion_lon": 0.0, "bike_id": "19f9817da167fd8ef9a8855daafd4799", "is_reserved": 0, "rental_uris": {"android": "https://dc.lft.to/lastmile_qr_scan", "ios": "https://dc.lft.to/lastmile_qr_scan"}, "lat": 38.90944866666667, "is_disabled": 0, "lon": -77.04665}, {"fusion_lat": 0.0, "type": "electric_scooter", "name": "e992c2cdb4427689b8c343db8f393107", "fusion_lon": 0.0, "bike_id": "e992c2cdb4427689b8c343db8f393107", "is_reserved": 0, "rental_uris": {"android": "https://dc.lft.to/lastmile_qr_scan", "ios": "https://dc.lft.to/lastmile_qr_scan"}, "lat": 38.91551916666667, "is_disabled": 0, "lon": -77.03854916666667}, {"fusion_lat": 0.0, "type": "electric_bike", "name": "7c4b10a26334f59c048852d50746468c", "fusion_lon": 0.0, "bike_id": "7c4b10a26334f59c048852d50746468c", "is_reserved": 0, "rental_uris": {"android": "https://dc.lft.to/lastmile_qr_scan", "ios": "https://dc.lft.to/lastmile_qr_scan"}, "lat": 38.96815733333333, "is_disabled": 0, "lon": -77.07232633333334}, {"fusion_lat": 0.0, "type": "electric_scooter", "name": "3d8c9ec98c77dbb426e4089ad3c3cf38", "fusion_lon": 0.0, "bike_id": "3d8c9ec98c77dbb426e4089ad3c3cf38", "is_reserved": 0, "rental_uris": {"android": "https://dc.lft.to/lastmile_qr_scan", "ios": "https://dc.lft.to/lastmile_qr_scan"}, "lat": 38.89742533333333, "is_disabled": 0, "lon": -77.05567383333333}, {"fusion_lat": 0.0, "type": "electric_scooter", "name": "b70cef9fc964f48918b21c9e099932ef", "fusion_lon": 0.0, "bike_id": "b70cef9fc964f48918b21c9e099932ef", "is_reserved": 0, "rental_uris": {"android": "https://dc.lft.to/lastmile_qr_scan", "ios": "https://dc.lft.to/lastmile_qr_scan"}, "lat": 38.87639083333333, "is_disabled": 0, "lon": -77.0055905}, {"fusion_lat": 0.0, "type": "electric_scooter", "name": "6baf3572c268bdc7650c194655648292", "fusion_lon": 0.0, "bike_id": "6baf3572c268bdc7650c194655648292", "is_reserved": 0, "rental_uris": {"android": "https://dc.lft.to/lastmile_qr_scan", "ios": "https://dc.lft.to/lastmile_qr_scan"}, "lat": 38.83567133333333, "is_disabled": 0, "lon": -76.99496483333333}, {"fusion_lat": 0.0, "type": "electric_scooter", "name": "d21ef87c65a0bbc225c914fe8335bf9c", "fusion_lon": 0.0, "bike_id": "d21ef87c65a0bbc225c914fe8335bf9c", "is_reserved": 0, "rental_uris": {"android": "https://dc.lft.to/lastmile_qr_scan", "ios": "https://dc.lft.to/lastmile_qr_scan"}, "lat": 38.918069833333334, "is_disabled": 0, "lon": -77.03441433333333}, {"fusion_lat": 0.0, "type": "electric_scooter", "name": "cb1420c37613c32fd56ea8df25a10b14", "fusion_lon": 0.0, "bike_id": "cb1420c37613c32fd56ea8df25a10b14", "is_reserved": 0, "rental_uris": {"android": "https://dc.lft.to/lastmile_qr_scan", "ios": "https://dc.lft.to/lastmile_qr_scan"}, "lat": 38.91557366666667, "is_disabled": 0, "lon": -77.02557183333333}, {"fusion_lat": 0.0, "type": "electric_scooter", "name": "02105e2ee4c8dd10ef4f08dc2ff2c4da", "fusion_lon": 0.0, "bike_id": "02105e2ee4c8dd10ef4f08dc2ff2c4da", "is_reserved": 0, "rental_uris": {"android": "https://dc.lft.to/lastmile_qr_scan", "ios": "https://dc.lft.to/lastmile_qr_scan"}, "lat": 38.917821, "is_disabled": 0, "lon": -77.03200716666667}, {"fusion_lat": 0.0, "type": "electric_scooter", "name": "1d5dd3408cf3faabcc931b31e50727a9", "fusion_lon": 0.0, "bike_id": "1d5dd3408cf3faabcc931b31e50727a9", "is_reserved": 0, "rental_uris": {"android": "https://dc.lft.to/lastmile_qr_scan", "ios": "https://dc.lft.to/lastmile_qr_scan"}, "lat": 38.92239283333333, "is_disabled": 0, "lon": -77.03092483333333}, {"fusion_lat": 0.0, "type": "electric_scooter", "name": "9f203f3d20d01a8e418525de6f8a2fe9", "fusion_lon": 0.0, "bike_id": "9f203f3d20d01a8e418525de6f8a2fe9", "is_reserved": 0, "rental_uris": {"android": "https://dc.lft.to/lastmile_qr_scan", "ios": "https://dc.lft.to/lastmile_qr_scan"}, "lat": 38.90972266666667, "is_disabled": 0, "lon": -77.0386745}, {"fusion_lat": 0.0, "type": "electric_scooter", "name": "f75c41aa9adebb8382867700fd076ff7", "fusion_lon": 0.0, "bike_id": "f75c41aa9adebb8382867700fd076ff7", "is_reserved": 0, "rental_uris": {"android": "https://dc.lft.to/lastmile_qr_scan", "ios": "https://dc.lft.to/lastmile_qr_scan"}, "lat": 38.90066733333333, "is_disabled": 0, "lon": -76.927459}, {"fusion_lat": 0.0, "type": "electric_scooter", "name": "823e151fe1ad41704f7142866726d7fb", "fusion_lon": 0.0, "bike_id": "823e151fe1ad41704f7142866726d7fb", "is_reserved": 0, "rental_uris": {"android": "https://dc.lft.to/lastmile_qr_scan", "ios": "https://dc.lft.to/lastmile_qr_scan"}, "lat": 38.901436333333336, "is_disabled": 0, "lon": -77.03205466666667}, {"fusion_lat": 0.0, "type": "electric_scooter", "name": "ca1890891b8b99c99a609ecbb58b748d", "fusion_lon": 0.0, "bike_id": "ca1890891b8b99c99a609ecbb58b748d", "is_reserved": 0, "rental_uris": {"android": "https://dc.lft.to/lastmile_qr_scan", "ios": "https://dc.lft.to/lastmile_qr_scan"}, "lat": 38.899818333333336, "is_disabled": 0, "lon": -77.048152}, {"fusion_lat": 0.0, "type": "electric_scooter", "name": "a3b124332302d781003ac0b9c855fa46", "fusion_lon": 0.0, "bike_id": "a3b124332302d781003ac0b9c855fa46", "is_reserved": 0, "rental_uris": {"android": "https://dc.lft.to/lastmile_qr_scan", "ios": "https://dc.lft.to/lastmile_qr_scan"}, "lat": 38.939188333333334, "is_disabled": 0, "lon": -77.03269233333333}, {"fusion_lat": 0.0, "type": "electric_scooter", "name": "359128e9888267319d05dedf4e9f0c3b", "fusion_lon": 0.0, "bike_id": "359128e9888267319d05dedf4e9f0c3b", "is_reserved": 0, "rental_uris": {"android": "https://dc.lft.to/lastmile_qr_scan", "ios": "https://dc.lft.to/lastmile_qr_scan"}, "lat": 38.88322566666667, "is_disabled": 0, "lon": -76.99227733333333}, {"fusion_lat": 0.0, "type": "electric_scooter", "name": "d3cc8a54f14fcf43f7b22b97cb503c0a", "fusion_lon": 0.0, "bike_id": "d3cc8a54f14fcf43f7b22b97cb503c0a", "is_reserved": 0, "rental_uris": {"android": "https://dc.lft.to/lastmile_qr_scan", "ios": "https://dc.lft.to/lastmile_qr_scan"}, "lat": 38.88801983333333, "is_disabled": 0, "lon": -76.93361116666667}, {"fusion_lat": 0.0, "type": "electric_scooter", "name": "9b5b5033f7faaaad274a65efb1eef2f3", "fusion_lon": 0.0, "bike_id": "9b5b5033f7faaaad274a65efb1eef2f3", "is_reserved": 0, "rental_uris": {"android": "https://dc.lft.to/lastmile_qr_scan", "ios": "https://dc.lft.to/lastmile_qr_scan"}, "lat": 38.91120433333333, "is_disabled": 0, "lon": -77.03154233333333}, {"fusion_lat": 0.0, "type": "electric_scooter", "name": "7f46218f280101d91ec6f50763cc71a8", "fusion_lon": 0.0, "bike_id": "7f46218f280101d91ec6f50763cc71a8", "is_reserved": 0, "rental_uris": {"android": "https://dc.lft.to/lastmile_qr_scan", "ios": "https://dc.lft.to/lastmile_qr_scan"}, "lat": 38.902873666666665, "is_disabled": 0, "lon": -77.0188435}, {"fusion_lat": 0.0, "type": "electric_bike", "name": "7d7af62c2ecd012401ab21578445aa1a", "fusion_lon": 0.0, "bike_id": "7d7af62c2ecd012401ab21578445aa1a", "is_reserved": 0, "rental_uris": {"android": "https://dc.lft.to/lastmile_qr_scan", "ios": "https://dc.lft.to/lastmile_qr_scan"}, "lat": 38.85481133333333, "is_disabled": 0, "lon": -77.116011}, {"fusion_lat": 0.0, "type": "electric_scooter", "name": "31fb43874674c9d62c75c90984fddc15", "fusion_lon": 0.0, "bike_id": "31fb43874674c9d62c75c90984fddc15", "is_reserved": 0, "rental_uris": {"android": "https://dc.lft.to/lastmile_qr_scan", "ios": "https://dc.lft.to/lastmile_qr_scan"}, "lat": 38.902013833333335, "is_disabled": 0, "lon": -77.04693233333333}, {"fusion_lat": 0.0, "type": "electric_scooter", "name": "863ebf58cfef4ed481ae98c07613fc09", "fusion_lon": 0.0, "bike_id": "863ebf58cfef4ed481ae98c07613fc09", "is_reserved": 0, "rental_uris": {"android": "https://dc.lft.to/lastmile_qr_scan", "ios": "https://dc.lft.to/lastmile_qr_scan"}, "lat": 38.94513166666667, "is_disabled": 0, "lon": -77.03319866666666}, {"fusion_lat": 0.0, "type": "electric_scooter", "name": "d408a44e4d405516e5f691a414572b48", "fusion_lon": 0.0, "bike_id": "d408a44e4d405516e5f691a414572b48", "is_reserved": 0, "rental_uris": {"android": "https://dc.lft.to/lastmile_qr_scan", "ios": "https://dc.lft.to/lastmile_qr_scan"}, "lat": 38.904116, "is_disabled": 0, "lon": -76.98088766666666}, {"fusion_lat": 0.0, "type": "electric_scooter", "name": "a03a9ca8312f2eec7dd9c8640c3f89c9", "fusion_lon": 0.0, "bike_id": "a03a9ca8312f2eec7dd9c8640c3f89c9", "is_reserved": 0, "rental_uris": {"android": "https://dc.lft.to/lastmile_qr_scan", "ios": "https://dc.lft.to/lastmile_qr_scan"}, "lat": 38.92336183333333, "is_disabled": 0, "lon": -77.03617533333333}, {"fusion_lat": 0.0, "type": "electric_scooter", "name": "a594ac2cc21e501b9467b61082cf776d", "fusion_lon": 0.0, "bike_id": "a594ac2cc21e501b9467b61082cf776d", "is_reserved": 0, "rental_uris": {"android": "https://dc.lft.to/lastmile_qr_scan", "ios": "https://dc.lft.to/lastmile_qr_scan"}, "lat": 38.923354, "is_disabled": 0, "lon": -77.03613533333333}, {"fusion_lat": 0.0, "type": "electric_scooter", "name": "0f4564faedf4b92684aa6de3f342dba9", "fusion_lon": 0.0, "bike_id": "0f4564faedf4b92684aa6de3f342dba9", "is_reserved": 0, "rental_uris": {"android": "https://dc.lft.to/lastmile_qr_scan", "ios": "https://dc.lft.to/lastmile_qr_scan"}, "lat": 38.902382333333335, "is_disabled": 0, "lon": -77.00584133333334}, {"fusion_lat": 0.0, "type": "electric_scooter", "name": "d214c41c4954672dda2c18b80f8b29e2", "fusion_lon": 0.0, "bike_id": "d214c41c4954672dda2c18b80f8b29e2", "is_reserved": 0, "rental_uris": {"android": "https://dc.lft.to/lastmile_qr_scan", "ios": "https://dc.lft.to/lastmile_qr_scan"}, "lat": 38.925637333333334, "is_disabled": 0, "lon": -77.02283966666667}, {"fusion_lat": 0.0, "type": "electric_scooter", "name": "8a59aedc39e3997f700276e2748c4e61", "fusion_lon": 0.0, "bike_id": "8a59aedc39e3997f700276e2748c4e61", "is_reserved": 0, "rental_uris": {"android": "https://dc.lft.to/lastmile_qr_scan", "ios": "https://dc.lft.to/lastmile_qr_scan"}, "lat": 38.905728, "is_disabled": 0, "lon": -77.00581633333333}, {"fusion_lat": 0.0, "type": "electric_scooter", "name": "fbf89e89f786d733bbe7fc89a1424b14", "fusion_lon": 0.0, "bike_id": "fbf89e89f786d733bbe7fc89a1424b14", "is_reserved": 0, "rental_uris": {"android": "https://dc.lft.to/lastmile_qr_scan", "ios": "https://dc.lft.to/lastmile_qr_scan"}, "lat": 38.9209015, "is_disabled": 0, "lon": -77.07372183333334}, {"fusion_lat": 0.0, "type": "electric_scooter", "name": "9346c4ba5a486a2254e618013bfc8805", "fusion_lon": 0.0, "bike_id": "9346c4ba5a486a2254e618013bfc8805", "is_reserved": 0, "rental_uris": {"android": "https://dc.lft.to/lastmile_qr_scan", "ios": "https://dc.lft.to/lastmile_qr_scan"}, "lat": 38.91807816666667, "is_disabled": 0, "lon": -77.03021266666667}, {"fusion_lat": 0.0, "type": "electric_scooter", "name": "e47be892d36d68109b023b7bcd012421", "fusion_lon": 0.0, "bike_id": "e47be892d36d68109b023b7bcd012421", "is_reserved": 0, "rental_uris": {"android": "https://dc.lft.to/lastmile_qr_scan", "ios": "https://dc.lft.to/lastmile_qr_scan"}, "lat": 38.9411475, "is_disabled": 0, "lon": -77.01540366666667}, {"fusion_lat": 0.0, "type": "electric_scooter", "name": "719774e7661e3e3a1847ab5d4a07c929", "fusion_lon": 0.0, "bike_id": "719774e7661e3e3a1847ab5d4a07c929", "is_reserved": 0, "rental_uris": {"android": "https://dc.lft.to/lastmile_qr_scan", "ios": "https://dc.lft.to/lastmile_qr_scan"}, "lat": 38.912664666666664, "is_disabled": 0, "lon": -77.01371416666667}, {"fusion_lat": 0.0, "type": "electric_scooter", "name": "e05800ab5ccbb74711c44b05828e660e", "fusion_lon": 0.0, "bike_id": "e05800ab5ccbb74711c44b05828e660e", "is_reserved": 0, "rental_uris": {"android": "https://dc.lft.to/lastmile_qr_scan", "ios": "https://dc.lft.to/lastmile_qr_scan"}, "lat": 38.844295833333334, "is_disabled": 0, "lon": -76.99781183333333}, {"fusion_lat": 0.0, "type": "electric_scooter", "name": "4c25b982261ef434bec2272b3eca4a71", "fusion_lon": 0.0, "bike_id": "4c25b982261ef434bec2272b3eca4a71", "is_reserved": 0, "rental_uris": {"android": "https://dc.lft.to/lastmile_qr_scan", "ios": "https://dc.lft.to/lastmile_qr_scan"}, "lat": 38.934858166666665, "is_disabled": 0, "lon": -77.02416183333334}, {"fusion_lat": 0.0, "type": "electric_bike", "name": "df8140d0d24c9fa841526c6d692fcc08", "fusion_lon": 0.0, "bike_id": "df8140d0d24c9fa841526c6d692fcc08", "is_reserved": 0, "rental_uris": {"android": "https://dc.lft.to/lastmile_qr_scan", "ios": "https://dc.lft.to/lastmile_qr_scan"}, "lat": 38.904296, "is_disabled": 0, "lon": -77.0319905}, {"fusion_lat": 0.0, "type": "electric_scooter", "name": "34366d0583e283d339e0c56c593cd645", "fusion_lon": 0.0, "bike_id": "34366d0583e283d339e0c56c593cd645", "is_reserved": 0, "rental_uris": {"android": "https://dc.lft.to/lastmile_qr_scan", "ios": "https://dc.lft.to/lastmile_qr_scan"}, "lat": 38.926609166666665, "is_disabled": 0, "lon": -77.04140333333334}, {"fusion_lat": 0.0, "type": "electric_scooter", "name": "d043c1f7df73d71420254cecba663742", "fusion_lon": 0.0, "bike_id": "d043c1f7df73d71420254cecba663742", "is_reserved": 0, "rental_uris": {"android": "https://dc.lft.to/lastmile_qr_scan", "ios": "https://dc.lft.to/lastmile_qr_scan"}, "lat": 38.90353966666667, "is_disabled": 0, "lon": -77.0611015}, {"fusion_lat": 0.0, "type": "electric_scooter", "name": "c48b7dc0f96dcec6a87488255cfac8cb", "fusion_lon": 0.0, "bike_id": "c48b7dc0f96dcec6a87488255cfac8cb", "is_reserved": 0, "rental_uris": {"android": "https://dc.lft.to/lastmile_qr_scan", "ios": "https://dc.lft.to/lastmile_qr_scan"}, "lat": 38.92385933333333, "is_disabled": 0, "lon": -77.03664216666667}, {"fusion_lat": 0.0, "type": "electric_scooter", "name": "b967577b75eb93337d5782086b4df5dd", "fusion_lon": 0.0, "bike_id": "b967577b75eb93337d5782086b4df5dd", "is_reserved": 0, "rental_uris": {"android": "https://dc.lft.to/lastmile_qr_scan", "ios": "https://dc.lft.to/lastmile_qr_scan"}, "lat": 38.936099, "is_disabled": 0, "lon": -77.029228}, {"fusion_lat": 0.0, "type": "electric_scooter", "name": "6d1f9cb38ff8547d5c9e840f7681d05d", "fusion_lon": 0.0, "bike_id": "6d1f9cb38ff8547d5c9e840f7681d05d", "is_reserved": 0, "rental_uris": {"android": "https://dc.lft.to/lastmile_qr_scan", "ios": "https://dc.lft.to/lastmile_qr_scan"}, "lat": 38.83700916666667, "is_disabled": 0, "lon": -77.005767}, {"fusion_lat": 0.0, "type": "electric_scooter", "name": "fd1950b57c86c8d626949b93d4062a23", "fusion_lon": 0.0, "bike_id": "fd1950b57c86c8d626949b93d4062a23", "is_reserved": 0, "rental_uris": {"android": "https://dc.lft.to/lastmile_qr_scan", "ios": "https://dc.lft.to/lastmile_qr_scan"}, "lat": 38.9248875, "is_disabled": 0, "lon": -77.0349605}, {"fusion_lat": 0.0, "type": "electric_scooter", "name": "5c92dc428770ce444a84d2aa16145b63", "fusion_lon": 0.0, "bike_id": "5c92dc428770ce444a84d2aa16145b63", "is_reserved": 0, "rental_uris": {"android": "https://dc.lft.to/lastmile_qr_scan", "ios": "https://dc.lft.to/lastmile_qr_scan"}, "lat": 38.8669885, "is_disabled": 0, "lon": -76.98595}, {"fusion_lat": 0.0, "type": "electric_scooter", "name": "74b0ab82f28b21a3ef1391509522e95e", "fusion_lon": 0.0, "bike_id": "74b0ab82f28b21a3ef1391509522e95e", "is_reserved": 0, "rental_uris": {"android": "https://dc.lft.to/lastmile_qr_scan", "ios": "https://dc.lft.to/lastmile_qr_scan"}, "lat": 38.921557666666665, "is_disabled": 0, "lon": -77.04218883333333}, {"fusion_lat": 0.0, "type": "electric_scooter", "name": "0460b7f47d572062336da951e5e4880c", "fusion_lon": 0.0, "bike_id": "0460b7f47d572062336da951e5e4880c", "is_reserved": 0, "rental_uris": {"android": "https://dc.lft.to/lastmile_qr_scan", "ios": "https://dc.lft.to/lastmile_qr_scan"}, "lat": 38.90084266666667, "is_disabled": 0, "lon": -77.04762766666667}, {"fusion_lat": 0.0, "type": "electric_bike", "name": "1d4efa10c860682ce5b0165fc776ffa4", "fusion_lon": 0.0, "bike_id": "1d4efa10c860682ce5b0165fc776ffa4", "is_reserved": 0, "rental_uris": {"android": "https://dc.lft.to/lastmile_qr_scan", "ios": "https://dc.lft.to/lastmile_qr_scan"}, "lat": 38.910164333333334, "is_disabled": 0, "lon": -77.22802383333334}, {"fusion_lat": 0.0, "type": "electric_scooter", "name": "1a1108148858447964b2a8df8940e258", "fusion_lon": 0.0, "bike_id": "1a1108148858447964b2a8df8940e258", "is_reserved": 0, "rental_uris": {"android": "https://dc.lft.to/lastmile_qr_scan", "ios": "https://dc.lft.to/lastmile_qr_scan"}, "lat": 38.892211833333334, "is_disabled": 0, "lon": -77.02236733333334}, {"fusion_lat": 0.0, "type": "electric_scooter", "name": "b044fcfe45035fecff0ec8834247c46d", "fusion_lon": 0.0, "bike_id": "b044fcfe45035fecff0ec8834247c46d", "is_reserved": 0, "rental_uris": {"android": "https://dc.lft.to/lastmile_qr_scan", "ios": "https://dc.lft.to/lastmile_qr_scan"}, "lat": 38.920922166666664, "is_disabled": 0, "lon": -77.03157883333333}, {"fusion_lat": 0.0, "type": "electric_scooter", "name": "0b1a1009e7e7486da08831b10fdef16c", "fusion_lon": 0.0, "bike_id": "0b1a1009e7e7486da08831b10fdef16c", "is_reserved": 0, "rental_uris": {"android": "https://dc.lft.to/lastmile_qr_scan", "ios": "https://dc.lft.to/lastmile_qr_scan"}, "lat": 38.922494666666665, "is_disabled": 0, "lon": -77.02124966666666}, {"fusion_lat": 0.0, "type": "electric_scooter", "name": "947703839fbf41edea960538098827ad", "fusion_lon": 0.0, "bike_id": "947703839fbf41edea960538098827ad", "is_reserved": 0, "rental_uris": {"android": "https://dc.lft.to/lastmile_qr_scan", "ios": "https://dc.lft.to/lastmile_qr_scan"}, "lat": 38.882271333333335, "is_disabled": 0, "lon": -77.025855}, {"fusion_lat": 0.0, "type": "electric_bike", "name": "e77ed42402de39740499972d2174bbbb", "fusion_lon": 0.0, "bike_id": "e77ed42402de39740499972d2174bbbb", "is_reserved": 0, "rental_uris": {"android": "https://dc.lft.to/lastmile_qr_scan", "ios": "https://dc.lft.to/lastmile_qr_scan"}, "lat": 38.8728225, "is_disabled": 0, "lon": -77.2331795}, {"fusion_lat": 0.0, "type": "electric_scooter", "name": "cfb3eef1090a9f6bfa73a2a53af85c3b", "fusion_lon": 0.0, "bike_id": "cfb3eef1090a9f6bfa73a2a53af85c3b", "is_reserved": 0, "rental_uris": {"android": "https://dc.lft.to/lastmile_qr_scan", "ios": "https://dc.lft.to/lastmile_qr_scan"}, "lat": 38.8872765, "is_disabled": 0, "lon": -77.02831366666666}, {"fusion_lat": 0.0, "type": "electric_bike", "name": "83a2d3636382a06a8170404541893d9a", "fusion_lon": 0.0, "bike_id": "83a2d3636382a06a8170404541893d9a", "is_reserved": 0, "rental_uris": {"android": "https://dc.lft.to/lastmile_qr_scan", "ios": "https://dc.lft.to/lastmile_qr_scan"}, "lat": 38.94230616666667, "is_disabled": 0, "lon": -76.96617033333334}, {"fusion_lat": 0.0, "type": "electric_scooter", "name": "1f93e694ad8bccc1f0482311f9321347", "fusion_lon": 0.0, "bike_id": "1f93e694ad8bccc1f0482311f9321347", "is_reserved": 0, "rental_uris": {"android": "https://dc.lft.to/lastmile_qr_scan", "ios": "https://dc.lft.to/lastmile_qr_scan"}, "lat": 38.942055333333336, "is_disabled": 0, "lon": -77.02503683333333}, {"fusion_lat": 0.0, "type": "electric_scooter", "name": "1c05d72f62baacc5f573b7283490a613", "fusion_lon": 0.0, "bike_id": "1c05d72f62baacc5f573b7283490a613", "is_reserved": 0, "rental_uris": {"android": "https://dc.lft.to/lastmile_qr_scan", "ios": "https://dc.lft.to/lastmile_qr_scan"}, "lat": 38.892909333333336, "is_disabled": 0, "lon": -77.01232916666666}, {"fusion_lat": 0.0, "type": "electric_scooter", "name": "414e76e16fab4f307f0b024705d2a30f", "fusion_lon": 0.0, "bike_id": "414e76e16fab4f307f0b024705d2a30f", "is_reserved": 0, "rental_uris": {"android": "https://dc.lft.to/lastmile_qr_scan", "ios": "https://dc.lft.to/lastmile_qr_scan"}, "lat": 38.91854166666667, "is_disabled": 0, "lon": -77.01666283333333}, {"fusion_lat": 0.0, "type": "electric_scooter", "name": "ac12dad423847bdff48baa6ef7289aad", "fusion_lon": 0.0, "bike_id": "ac12dad423847bdff48baa6ef7289aad", "is_reserved": 0, "rental_uris": {"android": "https://dc.lft.to/lastmile_qr_scan", "ios": "https://dc.lft.to/lastmile_qr_scan"}, "lat": 38.865416, "is_disabled": 0, "lon": -76.98702283333333}, {"fusion_lat": 0.0, "type": "electric_scooter", "name": "e63e10e9ea6046be4e810b1783b9612c", "fusion_lon": 0.0, "bike_id": "e63e10e9ea6046be4e810b1783b9612c", "is_reserved": 0, "rental_uris": {"android": "https://dc.lft.to/lastmile_qr_scan", "ios": "https://dc.lft.to/lastmile_qr_scan"}, "lat": 38.92749216666667, "is_disabled": 0, "lon": -77.03563333333334}, {"fusion_lat": 0.0, "type": "electric_scooter", "name": "ee82a0be431b995421c5b4df0321e0c6", "fusion_lon": 0.0, "bike_id": "ee82a0be431b995421c5b4df0321e0c6", "is_reserved": 0, "rental_uris": {"android": "https://dc.lft.to/lastmile_qr_scan", "ios": "https://dc.lft.to/lastmile_qr_scan"}, "lat": 38.90729966666667, "is_disabled": 0, "lon": -77.00240816666667}, {"fusion_lat": 0.0, "type": "electric_scooter", "name": "3bfcad546e57dc0692af8d4115238df6", "fusion_lon": 0.0, "bike_id": "3bfcad546e57dc0692af8d4115238df6", "is_reserved": 0, "rental_uris": {"android": "https://dc.lft.to/lastmile_qr_scan", "ios": "https://dc.lft.to/lastmile_qr_scan"}, "lat": 38.87188716666667, "is_disabled": 0, "lon": -77.005951}, {"fusion_lat": 0.0, "type": "electric_scooter", "name": "1e549f4c1ce1b412ff11e77fe93c6ead", "fusion_lon": 0.0, "bike_id": "1e549f4c1ce1b412ff11e77fe93c6ead", "is_reserved": 0, "rental_uris": {"android": "https://dc.lft.to/lastmile_qr_scan", "ios": "https://dc.lft.to/lastmile_qr_scan"}, "lat": 38.91249233333333, "is_disabled": 0, "lon": -77.03770333333334}, {"fusion_lat": 0.0, "type": "electric_scooter", "name": "9d33924ad36eee3050ebaed2efd00e3a", "fusion_lon": 0.0, "bike_id": "9d33924ad36eee3050ebaed2efd00e3a", "is_reserved": 0, "rental_uris": {"android": "https://dc.lft.to/lastmile_qr_scan", "ios": "https://dc.lft.to/lastmile_qr_scan"}, "lat": 38.885504833333336, "is_disabled": 0, "lon": -77.01998883333333}, {"fusion_lat": 0.0, "type": "electric_scooter", "name": "5c2220372d42f5aeca99735c1717f58e", "fusion_lon": 0.0, "bike_id": "5c2220372d42f5aeca99735c1717f58e", "is_reserved": 0, "rental_uris": {"android": "https://dc.lft.to/lastmile_qr_scan", "ios": "https://dc.lft.to/lastmile_qr_scan"}, "lat": 38.91112783333333, "is_disabled": 0, "lon": -77.03152583333333}, {"fusion_lat": 0.0, "type": "electric_scooter", "name": "4e801a67c5c5d194d79d1668f26c84dc", "fusion_lon": 0.0, "bike_id": "4e801a67c5c5d194d79d1668f26c84dc", "is_reserved": 0, "rental_uris": {"android": "https://dc.lft.to/lastmile_qr_scan", "ios": "https://dc.lft.to/lastmile_qr_scan"}, "lat": 38.92223166666667, "is_disabled": 0, "lon": -77.04241683333333}, {"fusion_lat": 0.0, "type": "electric_scooter", "name": "d375010531dc0cae8c6793ed2874de15", "fusion_lon": 0.0, "bike_id": "d375010531dc0cae8c6793ed2874de15", "is_reserved": 0, "rental_uris": {"android": "https://dc.lft.to/lastmile_qr_scan", "ios": "https://dc.lft.to/lastmile_qr_scan"}, "lat": 38.892338333333335, "is_disabled": 0, "lon": -77.03107016666667}, {"fusion_lat": 0.0, "type": "electric_scooter", "name": "3370b7381df0bbaef7177620a3a5eca2", "fusion_lon": 0.0, "bike_id": "3370b7381df0bbaef7177620a3a5eca2", "is_reserved": 0, "rental_uris": {"android": "https://dc.lft.to/lastmile_qr_scan", "ios": "https://dc.lft.to/lastmile_qr_scan"}, "lat": 38.934735333333336, "is_disabled": 0, "lon": -77.08665083333334}, {"fusion_lat": 0.0, "type": "electric_scooter", "name": "4e7c22a9efe33278bc682664afdfe342", "fusion_lon": 0.0, "bike_id": "4e7c22a9efe33278bc682664afdfe342", "is_reserved": 0, "rental_uris": {"android": "https://dc.lft.to/lastmile_qr_scan", "ios": "https://dc.lft.to/lastmile_qr_scan"}, "lat": 38.892531166666664, "is_disabled": 0, "lon": -77.04665383333334}, {"fusion_lat": 0.0, "type": "electric_scooter", "name": "af42caf2d6e8fd1be84050e32435e3ec", "fusion_lon": 0.0, "bike_id": "af42caf2d6e8fd1be84050e32435e3ec", "is_reserved": 0, "rental_uris": {"android": "https://dc.lft.to/lastmile_qr_scan", "ios": "https://dc.lft.to/lastmile_qr_scan"}, "lat": 38.91277816666667, "is_disabled": 0, "lon": -77.03066733333333}, {"fusion_lat": 0.0, "type": "electric_scooter", "name": "37ab3923320cfcdf1f065957648a47bc", "fusion_lon": 0.0, "bike_id": "37ab3923320cfcdf1f065957648a47bc", "is_reserved": 0, "rental_uris": {"android": "https://dc.lft.to/lastmile_qr_scan", "ios": "https://dc.lft.to/lastmile_qr_scan"}, "lat": 38.917101, "is_disabled": 0, "lon": -77.03866583333334}, {"fusion_lat": 0.0, "type": "electric_scooter", "name": "e864045aa6f4a8835252fb1251a63791", "fusion_lon": 0.0, "bike_id": "e864045aa6f4a8835252fb1251a63791", "is_reserved": 0, "rental_uris": {"android": "https://dc.lft.to/lastmile_qr_scan", "ios": "https://dc.lft.to/lastmile_qr_scan"}, "lat": 38.948993333333334, "is_disabled": 0, "lon": -77.02071516666666}, {"fusion_lat": 0.0, "type": "electric_scooter", "name": "feb66c2b6c31b3dded32def77f222d47", "fusion_lon": 0.0, "bike_id": "feb66c2b6c31b3dded32def77f222d47", "is_reserved": 0, "rental_uris": {"android": "https://dc.lft.to/lastmile_qr_scan", "ios": "https://dc.lft.to/lastmile_qr_scan"}, "lat": 38.892256833333334, "is_disabled": 0, "lon": -77.04310183333334}, {"fusion_lat": 0.0, "type": "electric_scooter", "name": "5175344718334aefa099569ebc19df7b", "fusion_lon": 0.0, "bike_id": "5175344718334aefa099569ebc19df7b", "is_reserved": 0, "rental_uris": {"android": "https://dc.lft.to/lastmile_qr_scan", "ios": "https://dc.lft.to/lastmile_qr_scan"}, "lat": 38.88122283333333, "is_disabled": 0, "lon": -77.016592}, {"fusion_lat": 0.0, "type": "electric_scooter", "name": "c3aec1715195e1ff83d18670034218f5", "fusion_lon": 0.0, "bike_id": "c3aec1715195e1ff83d18670034218f5", "is_reserved": 0, "rental_uris": {"android": "https://dc.lft.to/lastmile_qr_scan", "ios": "https://dc.lft.to/lastmile_qr_scan"}, "lat": 38.899733166666664, "is_disabled": 0, "lon": -77.033413}, {"fusion_lat": 0.0, "type": "electric_scooter", "name": "3e1ae1c585228c7f93a23a4d5d87cb49", "fusion_lon": 0.0, "bike_id": "3e1ae1c585228c7f93a23a4d5d87cb49", "is_reserved": 0, "rental_uris": {"android": "https://dc.lft.to/lastmile_qr_scan", "ios": "https://dc.lft.to/lastmile_qr_scan"}, "lat": 38.906675666666665, "is_disabled": 0, "lon": -77.04808483333333}, {"fusion_lat": 0.0, "type": "electric_scooter", "name": "f5e98c3cc4da1b59e7debf52932ea493", "fusion_lon": 0.0, "bike_id": "f5e98c3cc4da1b59e7debf52932ea493", "is_reserved": 0, "rental_uris": {"android": "https://dc.lft.to/lastmile_qr_scan", "ios": "https://dc.lft.to/lastmile_qr_scan"}, "lat": 38.90842516666667, "is_disabled": 0, "lon": -77.00234616666667}, {"fusion_lat": 0.0, "type": "electric_scooter", "name": "9f5b6aae52fd07281e50bf2450a66309", "fusion_lon": 0.0, "bike_id": "9f5b6aae52fd07281e50bf2450a66309", "is_reserved": 0, "rental_uris": {"android": "https://dc.lft.to/lastmile_qr_scan", "ios": "https://dc.lft.to/lastmile_qr_scan"}, "lat": 38.921308333333336, "is_disabled": 0, "lon": -76.9955265}, {"fusion_lat": 0.0, "type": "electric_scooter", "name": "3603a2c4c179af49cd3ddca327a2ea81", "fusion_lon": 0.0, "bike_id": "3603a2c4c179af49cd3ddca327a2ea81", "is_reserved": 0, "rental_uris": {"android": "https://dc.lft.to/lastmile_qr_scan", "ios": "https://dc.lft.to/lastmile_qr_scan"}, "lat": 38.9418335, "is_disabled": 0, "lon": -77.027463}, {"fusion_lat": 0.0, "type": "electric_scooter", "name": "d68928099f9d9d32db6747ccb212dff9", "fusion_lon": 0.0, "bike_id": "d68928099f9d9d32db6747ccb212dff9", "is_reserved": 0, "rental_uris": {"android": "https://dc.lft.to/lastmile_qr_scan", "ios": "https://dc.lft.to/lastmile_qr_scan"}, "lat": 38.9201165, "is_disabled": 0, "lon": -77.03206933333334}, {"fusion_lat": 0.0, "type": "electric_bike", "name": "c83a536b8a2dedf3462abe5f9f10e242", "fusion_lon": 0.0, "bike_id": "c83a536b8a2dedf3462abe5f9f10e242", "is_reserved": 0, "rental_uris": {"android": "https://dc.lft.to/lastmile_qr_scan", "ios": "https://dc.lft.to/lastmile_qr_scan"}, "lat": 38.91948283333333, "is_disabled": 0, "lon": -77.04510316666666}, {"fusion_lat": 0.0, "type": "electric_scooter", "name": "c1f9c2042e66c18095b77ac26f4c8c08", "fusion_lon": 0.0, "bike_id": "c1f9c2042e66c18095b77ac26f4c8c08", "is_reserved": 0, "rental_uris": {"android": "https://dc.lft.to/lastmile_qr_scan", "ios": "https://dc.lft.to/lastmile_qr_scan"}, "lat": 38.893597666666665, "is_disabled": 0, "lon": -77.00337116666667}, {"fusion_lat": 0.0, "type": "electric_scooter", "name": "7324676be8d508a220af019493e179d5", "fusion_lon": 0.0, "bike_id": "7324676be8d508a220af019493e179d5", "is_reserved": 0, "rental_uris": {"android": "https://dc.lft.to/lastmile_qr_scan", "ios": "https://dc.lft.to/lastmile_qr_scan"}, "lat": 38.93714533333333, "is_disabled": 0, "lon": -77.0363635}, {"fusion_lat": 0.0, "type": "electric_scooter", "name": "a89b824d42be2253b28520032b58f626", "fusion_lon": 0.0, "bike_id": "a89b824d42be2253b28520032b58f626", "is_reserved": 0, "rental_uris": {"android": "https://dc.lft.to/lastmile_qr_scan", "ios": "https://dc.lft.to/lastmile_qr_scan"}, "lat": 38.94081466666667, "is_disabled": 0, "lon": -77.02717433333333}, {"fusion_lat": 0.0, "type": "electric_scooter", "name": "04c152c96359f94435b3811bd9e941f9", "fusion_lon": 0.0, "bike_id": "04c152c96359f94435b3811bd9e941f9", "is_reserved": 0, "rental_uris": {"android": "https://dc.lft.to/lastmile_qr_scan", "ios": "https://dc.lft.to/lastmile_qr_scan"}, "lat": 38.91677933333333, "is_disabled": 0, "lon": -77.03684666666666}, {"fusion_lat": 0.0, "type": "electric_scooter", "name": "ff93aa263df7617eb5f33faa50571a4f", "fusion_lon": 0.0, "bike_id": "ff93aa263df7617eb5f33faa50571a4f", "is_reserved": 0, "rental_uris": {"android": "https://dc.lft.to/lastmile_qr_scan", "ios": "https://dc.lft.to/lastmile_qr_scan"}, "lat": 38.92070733333333, "is_disabled": 0, "lon": -77.02354166666667}, {"fusion_lat": 0.0, "type": "electric_scooter", "name": "ad52abbb507b1f0a8d0002be7a0c30e7", "fusion_lon": 0.0, "bike_id": "ad52abbb507b1f0a8d0002be7a0c30e7", "is_reserved": 0, "rental_uris": {"android": "https://dc.lft.to/lastmile_qr_scan", "ios": "https://dc.lft.to/lastmile_qr_scan"}, "lat": 38.89170816666667, "is_disabled": 0, "lon": -77.01547566666666}, {"fusion_lat": 0.0, "type": "electric_scooter", "name": "1cf962069fa92983c00534603b905a54", "fusion_lon": 0.0, "bike_id": "1cf962069fa92983c00534603b905a54", "is_reserved": 0, "rental_uris": {"android": "https://dc.lft.to/lastmile_qr_scan", "ios": "https://dc.lft.to/lastmile_qr_scan"}, "lat": 38.900075333333334, "is_disabled": 0, "lon": -77.00677483333334}, {"fusion_lat": 0.0, "type": "electric_scooter", "name": "22073fafe64d67258eda0a65a158cfea", "fusion_lon": 0.0, "bike_id": "22073fafe64d67258eda0a65a158cfea", "is_reserved": 0, "rental_uris": {"android": "https://dc.lft.to/lastmile_qr_scan", "ios": "https://dc.lft.to/lastmile_qr_scan"}, "lat": 38.918285166666664, "is_disabled": 0, "lon": -77.0319385}, {"fusion_lat": 0.0, "type": "electric_scooter", "name": "2d4e23ea08b697a73139e6f9845aed8f", "fusion_lon": 0.0, "bike_id": "2d4e23ea08b697a73139e6f9845aed8f", "is_reserved": 0, "rental_uris": {"android": "https://dc.lft.to/lastmile_qr_scan", "ios": "https://dc.lft.to/lastmile_qr_scan"}, "lat": 38.90764516666667, "is_disabled": 0, "lon": -77.03494433333333}, {"fusion_lat": 0.0, "type": "electric_scooter", "name": "8ac284e383b5d932f426736c0607ba10", "fusion_lon": 0.0, "bike_id": "8ac284e383b5d932f426736c0607ba10", "is_reserved": 0, "rental_uris": {"android": "https://dc.lft.to/lastmile_qr_scan", "ios": "https://dc.lft.to/lastmile_qr_scan"}, "lat": 38.92356783333334, "is_disabled": 0, "lon": -77.03543166666667}, {"fusion_lat": 0.0, "type": "electric_scooter", "name": "452dbfd9220031423acb43638cd2ffdf", "fusion_lon": 0.0, "bike_id": "452dbfd9220031423acb43638cd2ffdf", "is_reserved": 0, "rental_uris": {"android": "https://dc.lft.to/lastmile_qr_scan", "ios": "https://dc.lft.to/lastmile_qr_scan"}, "lat": 38.922602499999996, "is_disabled": 0, "lon": -77.029621}, {"fusion_lat": 0.0, "type": "electric_scooter", "name": "7958ae33473d9e28a9aa9d151f8dc2d0", "fusion_lon": 0.0, "bike_id": "7958ae33473d9e28a9aa9d151f8dc2d0", "is_reserved": 0, "rental_uris": {"android": "https://dc.lft.to/lastmile_qr_scan", "ios": "https://dc.lft.to/lastmile_qr_scan"}, "lat": 38.892202166666664, "is_disabled": 0, "lon": -77.03210716666666}, {"fusion_lat": 0.0, "type": "electric_scooter", "name": "8898fad95639dda1168faa21f27e699a", "fusion_lon": 0.0, "bike_id": "8898fad95639dda1168faa21f27e699a", "is_reserved": 0, "rental_uris": {"android": "https://dc.lft.to/lastmile_qr_scan", "ios": "https://dc.lft.to/lastmile_qr_scan"}, "lat": 38.864057, "is_disabled": 0, "lon": -76.97445883333333}, {"fusion_lat": 0.0, "type": "electric_scooter", "name": "3d17847290e3a799d077f119380d6ac7", "fusion_lon": 0.0, "bike_id": "3d17847290e3a799d077f119380d6ac7", "is_reserved": 0, "rental_uris": {"android": "https://dc.lft.to/lastmile_qr_scan", "ios": "https://dc.lft.to/lastmile_qr_scan"}, "lat": 38.89148566666667, "is_disabled": 0, "lon": -76.98385316666666}, {"fusion_lat": 0.0, "type": "electric_scooter", "name": "30214a954d9b5c61435926e2c494884e", "fusion_lon": 0.0, "bike_id": "30214a954d9b5c61435926e2c494884e", "is_reserved": 0, "rental_uris": {"android": "https://dc.lft.to/lastmile_qr_scan", "ios": "https://dc.lft.to/lastmile_qr_scan"}, "lat": 38.91656433333333, "is_disabled": 0, "lon": -77.0371035}, {"fusion_lat": 0.0, "type": "electric_scooter", "name": "4bc757d9f13a4accc6a0e98035231b46", "fusion_lon": 0.0, "bike_id": "4bc757d9f13a4accc6a0e98035231b46", "is_reserved": 0, "rental_uris": {"android": "https://dc.lft.to/lastmile_qr_scan", "ios": "https://dc.lft.to/lastmile_qr_scan"}, "lat": 38.934927333333334, "is_disabled": 0, "lon": -77.045272}, {"fusion_lat": 0.0, "type": "electric_scooter", "name": "1fc7ddc42d92ed800fc9f3e31f476882", "fusion_lon": 0.0, "bike_id": "1fc7ddc42d92ed800fc9f3e31f476882", "is_reserved": 0, "rental_uris": {"android": "https://dc.lft.to/lastmile_qr_scan", "ios": "https://dc.lft.to/lastmile_qr_scan"}, "lat": 38.923286833333336, "is_disabled": 0, "lon": -77.04457933333333}, {"fusion_lat": 0.0, "type": "electric_scooter", "name": "e7a292cf95d42704ab0f4f45aae1d180", "fusion_lon": 0.0, "bike_id": "e7a292cf95d42704ab0f4f45aae1d180", "is_reserved": 0, "rental_uris": {"android": "https://dc.lft.to/lastmile_qr_scan", "ios": "https://dc.lft.to/lastmile_qr_scan"}, "lat": 38.89171116666667, "is_disabled": 0, "lon": -76.91187433333333}, {"fusion_lat": 0.0, "type": "electric_scooter", "name": "3ab7153d3c967763ebf15bdd332a5938", "fusion_lon": 0.0, "bike_id": "3ab7153d3c967763ebf15bdd332a5938", "is_reserved": 0, "rental_uris": {"android": "https://dc.lft.to/lastmile_qr_scan", "ios": "https://dc.lft.to/lastmile_qr_scan"}, "lat": 38.9055195, "is_disabled": 0, "lon": -77.0500845}, {"fusion_lat": 0.0, "type": "electric_scooter", "name": "57845c2ee371650f2f209e5bd0f0afee", "fusion_lon": 0.0, "bike_id": "57845c2ee371650f2f209e5bd0f0afee", "is_reserved": 0, "rental_uris": {"android": "https://dc.lft.to/lastmile_qr_scan", "ios": "https://dc.lft.to/lastmile_qr_scan"}, "lat": 38.88867066666667, "is_disabled": 0, "lon": -76.98239283333334}, {"fusion_lat": 0.0, "type": "electric_scooter", "name": "5c807cf11c7245d5058b2ac98c8658a7", "fusion_lon": 0.0, "bike_id": "5c807cf11c7245d5058b2ac98c8658a7", "is_reserved": 0, "rental_uris": {"android": "https://dc.lft.to/lastmile_qr_scan", "ios": "https://dc.lft.to/lastmile_qr_scan"}, "lat": 38.908037666666665, "is_disabled": 0, "lon": -77.034286}, {"fusion_lat": 0.0, "type": "electric_bike", "name": "0dadd8bde04314347c6d8864f2e83c0b", "fusion_lon": 0.0, "bike_id": "0dadd8bde04314347c6d8864f2e83c0b", "is_reserved": 0, "rental_uris": {"android": "https://dc.lft.to/lastmile_qr_scan", "ios": "https://dc.lft.to/lastmile_qr_scan"}, "lat": 38.884041333333336, "is_disabled": 0, "lon": -76.96059583333333}, {"fusion_lat": 0.0, "type": "electric_scooter", "name": "ab9285b4a1745015ac788a3ad7e4c366", "fusion_lon": 0.0, "bike_id": "ab9285b4a1745015ac788a3ad7e4c366", "is_reserved": 0, "rental_uris": {"android": "https://dc.lft.to/lastmile_qr_scan", "ios": "https://dc.lft.to/lastmile_qr_scan"}, "lat": 38.9239035, "is_disabled": 0, "lon": -77.05037233333333}, {"fusion_lat": 0.0, "type": "electric_scooter", "name": "11853df34735716e7e9891b282f6f365", "fusion_lon": 0.0, "bike_id": "11853df34735716e7e9891b282f6f365", "is_reserved": 0, "rental_uris": {"android": "https://dc.lft.to/lastmile_qr_scan", "ios": "https://dc.lft.to/lastmile_qr_scan"}, "lat": 38.915489666666666, "is_disabled": 0, "lon": -77.0386105}, {"fusion_lat": 0.0, "type": "electric_scooter", "name": "fb07ec92347710241f65dda151cc9a9d", "fusion_lon": 0.0, "bike_id": "fb07ec92347710241f65dda151cc9a9d", "is_reserved": 0, "rental_uris": {"android": "https://dc.lft.to/lastmile_qr_scan", "ios": "https://dc.lft.to/lastmile_qr_scan"}, "lat": 38.911852, "is_disabled": 0, "lon": -77.04457866666667}, {"fusion_lat": 0.0, "type": "electric_scooter", "name": "f40814d5f52beaaad2fe5ac5a0f83307", "fusion_lon": 0.0, "bike_id": "f40814d5f52beaaad2fe5ac5a0f83307", "is_reserved": 0, "rental_uris": {"android": "https://dc.lft.to/lastmile_qr_scan", "ios": "https://dc.lft.to/lastmile_qr_scan"}, "lat": 38.89885783333333, "is_disabled": 0, "lon": -77.0217595}, {"fusion_lat": 0.0, "type": "electric_scooter", "name": "80b70a7595b5d56cca51ba7fdf1fe01b", "fusion_lon": 0.0, "bike_id": "80b70a7595b5d56cca51ba7fdf1fe01b", "is_reserved": 0, "rental_uris": {"android": "https://dc.lft.to/lastmile_qr_scan", "ios": "https://dc.lft.to/lastmile_qr_scan"}, "lat": 38.8922315, "is_disabled": 0, "lon": -77.0022045}, {"fusion_lat": 0.0, "type": "electric_scooter", "name": "dfaaa70988e8aa7260b73bf5caeee876", "fusion_lon": 0.0, "bike_id": "dfaaa70988e8aa7260b73bf5caeee876", "is_reserved": 0, "rental_uris": {"android": "https://dc.lft.to/lastmile_qr_scan", "ios": "https://dc.lft.to/lastmile_qr_scan"}, "lat": 38.921959333333334, "is_disabled": 0, "lon": -77.0298265}, {"fusion_lat": 0.0, "type": "electric_scooter", "name": "5cadc86266cf4f24b4462dc6649e927d", "fusion_lon": 0.0, "bike_id": "5cadc86266cf4f24b4462dc6649e927d", "is_reserved": 0, "rental_uris": {"android": "https://dc.lft.to/lastmile_qr_scan", "ios": "https://dc.lft.to/lastmile_qr_scan"}, "lat": 38.92706883333334, "is_disabled": 0, "lon": -77.02075766666667}, {"fusion_lat": 0.0, "type": "electric_scooter", "name": "73bbf76e87ba1a9676ff640df0fb6210", "fusion_lon": 0.0, "bike_id": "73bbf76e87ba1a9676ff640df0fb6210", "is_reserved": 0, "rental_uris": {"android": "https://dc.lft.to/lastmile_qr_scan", "ios": "https://dc.lft.to/lastmile_qr_scan"}, "lat": 38.92851866666667, "is_disabled": 0, "lon": -77.020046}, {"fusion_lat": 0.0, "type": "electric_bike", "name": "5f3f3270d9d5e5e35dee4d17faa96b82", "fusion_lon": 0.0, "bike_id": "5f3f3270d9d5e5e35dee4d17faa96b82", "is_reserved": 0, "rental_uris": {"android": "https://dc.lft.to/lastmile_qr_scan", "ios": "https://dc.lft.to/lastmile_qr_scan"}, "lat": 38.960332, "is_disabled": 0, "lon": -77.03414633333334}, {"fusion_lat": 0.0, "type": "electric_bike", "name": "ad2f0f2f6b88a1c1f0ac853fe901e773", "fusion_lon": 0.0, "bike_id": "ad2f0f2f6b88a1c1f0ac853fe901e773", "is_reserved": 0, "rental_uris": {"android": "https://dc.lft.to/lastmile_qr_scan", "ios": "https://dc.lft.to/lastmile_qr_scan"}, "lat": 38.84503933333333, "is_disabled": 0, "lon": -76.99357383333333}, {"fusion_lat": 0.0, "type": "electric_scooter", "name": "f47be1469092d7d0398043eb5f9632ce", "fusion_lon": 0.0, "bike_id": "f47be1469092d7d0398043eb5f9632ce", "is_reserved": 0, "rental_uris": {"android": "https://dc.lft.to/lastmile_qr_scan", "ios": "https://dc.lft.to/lastmile_qr_scan"}, "lat": 38.918939333333334, "is_disabled": 0, "lon": -77.03224933333334}, {"fusion_lat": 0.0, "type": "electric_scooter", "name": "ba824f757307ef7c77d2a2ef23ca4a12", "fusion_lon": 0.0, "bike_id": "ba824f757307ef7c77d2a2ef23ca4a12", "is_reserved": 0, "rental_uris": {"android": "https://dc.lft.to/lastmile_qr_scan", "ios": "https://dc.lft.to/lastmile_qr_scan"}, "lat": 38.93877583333333, "is_disabled": 0, "lon": -77.02648033333334}, {"fusion_lat": 0.0, "type": "electric_scooter", "name": "b445b5f317e0c6c333bff873b9c51d88", "fusion_lon": 0.0, "bike_id": "b445b5f317e0c6c333bff873b9c51d88", "is_reserved": 0, "rental_uris": {"android": "https://dc.lft.to/lastmile_qr_scan", "ios": "https://dc.lft.to/lastmile_qr_scan"}, "lat": 38.9149705, "is_disabled": 0, "lon": -76.9837785}, {"fusion_lat": 0.0, "type": "electric_scooter", "name": "5c85400a9fc5d912069ae5728a02a8ae", "fusion_lon": 0.0, "bike_id": "5c85400a9fc5d912069ae5728a02a8ae", "is_reserved": 0, "rental_uris": {"android": "https://dc.lft.to/lastmile_qr_scan", "ios": "https://dc.lft.to/lastmile_qr_scan"}, "lat": 38.886811333333334, "is_disabled": 0, "lon": -76.99007033333334}, {"fusion_lat": 0.0, "type": "electric_bike", "name": "d91fa03854d746be9f8b8cfaac3f262c", "fusion_lon": 0.0, "bike_id": "d91fa03854d746be9f8b8cfaac3f262c", "is_reserved": 0, "rental_uris": {"android": "https://dc.lft.to/lastmile_qr_scan", "ios": "https://dc.lft.to/lastmile_qr_scan"}, "lat": 38.8557665, "is_disabled": 0, "lon": -77.11775416666667}, {"fusion_lat": 0.0, "type": "electric_scooter", "name": "32360fdcf9d412e6eaf5f6a7e2a3a9f1", "fusion_lon": 0.0, "bike_id": "32360fdcf9d412e6eaf5f6a7e2a3a9f1", "is_reserved": 0, "rental_uris": {"android": "https://dc.lft.to/lastmile_qr_scan", "ios": "https://dc.lft.to/lastmile_qr_scan"}, "lat": 38.91422166666667, "is_disabled": 0, "lon": -77.04157666666667}, {"fusion_lat": 0.0, "type": "electric_scooter", "name": "f023ea7b60a7887e0b79f06553907961", "fusion_lon": 0.0, "bike_id": "f023ea7b60a7887e0b79f06553907961", "is_reserved": 0, "rental_uris": {"android": "https://dc.lft.to/lastmile_qr_scan", "ios": "https://dc.lft.to/lastmile_qr_scan"}, "lat": 38.904611833333334, "is_disabled": 0, "lon": -77.03465783333333}, {"fusion_lat": 0.0, "type": "electric_bike", "name": "380c46ff31c5cf0ed7d88f9360dab2fb", "fusion_lon": 0.0, "bike_id": "380c46ff31c5cf0ed7d88f9360dab2fb", "is_reserved": 0, "rental_uris": {"android": "https://dc.lft.to/lastmile_qr_scan", "ios": "https://dc.lft.to/lastmile_qr_scan"}, "lat": 39.04234316666667, "is_disabled": 0, "lon": -77.03079383333333}, {"fusion_lat": 0.0, "type": "electric_scooter", "name": "5d19eaab0c43081a34eec2c5fd94f88d", "fusion_lon": 0.0, "bike_id": "5d19eaab0c43081a34eec2c5fd94f88d", "is_reserved": 0, "rental_uris": {"android": "https://dc.lft.to/lastmile_qr_scan", "ios": "https://dc.lft.to/lastmile_qr_scan"}, "lat": 38.91117783333333, "is_disabled": 0, "lon": -77.03321}, {"fusion_lat": 0.0, "type": "electric_bike", "name": "8bd4bf8da2a739bd733a657f7f53d063", "fusion_lon": 0.0, "bike_id": "8bd4bf8da2a739bd733a657f7f53d063", "is_reserved": 0, "rental_uris": {"android": "https://dc.lft.to/lastmile_qr_scan", "ios": "https://dc.lft.to/lastmile_qr_scan"}, "lat": 38.95502033333333, "is_disabled": 0, "lon": -76.9938265}, {"fusion_lat": 0.0, "type": "electric_scooter", "name": "8e2598c3d7e95fcc11e8b310602b0f07", "fusion_lon": 0.0, "bike_id": "8e2598c3d7e95fcc11e8b310602b0f07", "is_reserved": 0, "rental_uris": {"android": "https://dc.lft.to/lastmile_qr_scan", "ios": "https://dc.lft.to/lastmile_qr_scan"}, "lat": 38.9284355, "is_disabled": 0, "lon": -77.03295233333333}, {"fusion_lat": 0.0, "type": "electric_scooter", "name": "24c84d6a1a728155ecece6d9bcc3f636", "fusion_lon": 0.0, "bike_id": "24c84d6a1a728155ecece6d9bcc3f636", "is_reserved": 0, "rental_uris": {"android": "https://dc.lft.to/lastmile_qr_scan", "ios": "https://dc.lft.to/lastmile_qr_scan"}, "lat": 38.9096985, "is_disabled": 0, "lon": -77.0208185}, {"fusion_lat": 0.0, "type": "electric_scooter", "name": "d7779bca572b818a83eb6bcf0d486874", "fusion_lon": 0.0, "bike_id": "d7779bca572b818a83eb6bcf0d486874", "is_reserved": 0, "rental_uris": {"android": "https://dc.lft.to/lastmile_qr_scan", "ios": "https://dc.lft.to/lastmile_qr_scan"}, "lat": 38.95830083333333, "is_disabled": 0, "lon": -77.01509016666667}, {"fusion_lat": 0.0, "type": "electric_scooter", "name": "a23e7af7f62a81fafbd36333480b438f", "fusion_lon": 0.0, "bike_id": "a23e7af7f62a81fafbd36333480b438f", "is_reserved": 0, "rental_uris": {"android": "https://dc.lft.to/lastmile_qr_scan", "ios": "https://dc.lft.to/lastmile_qr_scan"}, "lat": 38.900676833333335, "is_disabled": 0, "lon": -77.04539566666666}, {"fusion_lat": 0.0, "type": "electric_scooter", "name": "9a7a10fd859cbaceb748c221f85e161b", "fusion_lon": 0.0, "bike_id": "9a7a10fd859cbaceb748c221f85e161b", "is_reserved": 0, "rental_uris": {"android": "https://dc.lft.to/lastmile_qr_scan", "ios": "https://dc.lft.to/lastmile_qr_scan"}, "lat": 38.876448333333336, "is_disabled": 0, "lon": -76.965063}, {"fusion_lat": 0.0, "type": "electric_scooter", "name": "08c1238a3867e0347f215946d7948ec7", "fusion_lon": 0.0, "bike_id": "08c1238a3867e0347f215946d7948ec7", "is_reserved": 0, "rental_uris": {"android": "https://dc.lft.to/lastmile_qr_scan", "ios": "https://dc.lft.to/lastmile_qr_scan"}, "lat": 38.8975095, "is_disabled": 0, "lon": -77.01358733333333}, {"fusion_lat": 0.0, "type": "electric_scooter", "name": "57a55053b4239793d6e2b33f9c8779cb", "fusion_lon": 0.0, "bike_id": "57a55053b4239793d6e2b33f9c8779cb", "is_reserved": 0, "rental_uris": {"android": "https://dc.lft.to/lastmile_qr_scan", "ios": "https://dc.lft.to/lastmile_qr_scan"}, "lat": 38.942097833333335, "is_disabled": 0, "lon": -77.02513466666667}, {"fusion_lat": 0.0, "type": "electric_scooter", "name": "b55330e98902cde1ca31fb58b0e0ab4b", "fusion_lon": 0.0, "bike_id": "b55330e98902cde1ca31fb58b0e0ab4b", "is_reserved": 0, "rental_uris": {"android": "https://dc.lft.to/lastmile_qr_scan", "ios": "https://dc.lft.to/lastmile_qr_scan"}, "lat": 38.878037666666664, "is_disabled": 0, "lon": -77.017558}, {"fusion_lat": 0.0, "type": "electric_scooter", "name": "257420370c66c4606b523dc7d2d7faf9", "fusion_lon": 0.0, "bike_id": "257420370c66c4606b523dc7d2d7faf9", "is_reserved": 0, "rental_uris": {"android": "https://dc.lft.to/lastmile_qr_scan", "ios": "https://dc.lft.to/lastmile_qr_scan"}, "lat": 38.9208715, "is_disabled": 0, "lon": -77.02675733333334}, {"fusion_lat": 0.0, "type": "electric_scooter", "name": "7a9e745d1b9d2a309d53ba0bae395ffc", "fusion_lon": 0.0, "bike_id": "7a9e745d1b9d2a309d53ba0bae395ffc", "is_reserved": 0, "rental_uris": {"android": "https://dc.lft.to/lastmile_qr_scan", "ios": "https://dc.lft.to/lastmile_qr_scan"}, "lat": 38.89226016666667, "is_disabled": 0, "lon": -77.04308783333333}, {"fusion_lat": 0.0, "type": "electric_scooter", "name": "6b78735b1e5bf9d28677dc6538fd7d92", "fusion_lon": 0.0, "bike_id": "6b78735b1e5bf9d28677dc6538fd7d92", "is_reserved": 0, "rental_uris": {"android": "https://dc.lft.to/lastmile_qr_scan", "ios": "https://dc.lft.to/lastmile_qr_scan"}, "lat": 38.930836166666666, "is_disabled": 0, "lon": -77.027958}, {"fusion_lat": 0.0, "type": "electric_scooter", "name": "a50ff800b25da3498363006a9c866a5d", "fusion_lon": 0.0, "bike_id": "a50ff800b25da3498363006a9c866a5d", "is_reserved": 0, "rental_uris": {"android": "https://dc.lft.to/lastmile_qr_scan", "ios": "https://dc.lft.to/lastmile_qr_scan"}, "lat": 38.917913166666665, "is_disabled": 0, "lon": -77.04527216666666}, {"fusion_lat": 0.0, "type": "electric_scooter", "name": "c3dacad23252aff6ddf51056af7269a4", "fusion_lon": 0.0, "bike_id": "c3dacad23252aff6ddf51056af7269a4", "is_reserved": 0, "rental_uris": {"android": "https://dc.lft.to/lastmile_qr_scan", "ios": "https://dc.lft.to/lastmile_qr_scan"}, "lat": 38.931817833333334, "is_disabled": 0, "lon": -77.034128}, {"fusion_lat": 0.0, "type": "electric_scooter", "name": "bc2d034f5b3e77a09b636895a34a213e", "fusion_lon": 0.0, "bike_id": "bc2d034f5b3e77a09b636895a34a213e", "is_reserved": 0, "rental_uris": {"android": "https://dc.lft.to/lastmile_qr_scan", "ios": "https://dc.lft.to/lastmile_qr_scan"}, "lat": 38.93616516666667, "is_disabled": 0, "lon": -77.03668966666666}, {"fusion_lat": 0.0, "type": "electric_scooter", "name": "e763351da6e64395041a929ae1672606", "fusion_lon": 0.0, "bike_id": "e763351da6e64395041a929ae1672606", "is_reserved": 0, "rental_uris": {"android": "https://dc.lft.to/lastmile_qr_scan", "ios": "https://dc.lft.to/lastmile_qr_scan"}, "lat": 38.89356266666667, "is_disabled": 0, "lon": -76.94924783333333}, {"fusion_lat": 0.0, "type": "electric_scooter", "name": "e234ecf24a803bcd70497f790df31d1d", "fusion_lon": 0.0, "bike_id": "e234ecf24a803bcd70497f790df31d1d", "is_reserved": 0, "rental_uris": {"android": "https://dc.lft.to/lastmile_qr_scan", "ios": "https://dc.lft.to/lastmile_qr_scan"}, "lat": 38.91879683333333, "is_disabled": 0, "lon": -77.0260655}, {"fusion_lat": 0.0, "type": "electric_scooter", "name": "855ba2c52145643748a6a53bca969ae1", "fusion_lon": 0.0, "bike_id": "855ba2c52145643748a6a53bca969ae1", "is_reserved": 0, "rental_uris": {"android": "https://dc.lft.to/lastmile_qr_scan", "ios": "https://dc.lft.to/lastmile_qr_scan"}, "lat": 38.92068416666667, "is_disabled": 0, "lon": -77.022481}, {"fusion_lat": 0.0, "type": "electric_scooter", "name": "c5e04fe15cac67df3ac51a3306e103a8", "fusion_lon": 0.0, "bike_id": "c5e04fe15cac67df3ac51a3306e103a8", "is_reserved": 0, "rental_uris": {"android": "https://dc.lft.to/lastmile_qr_scan", "ios": "https://dc.lft.to/lastmile_qr_scan"}, "lat": 38.91745783333333, "is_disabled": 0, "lon": -77.03188816666666}, {"fusion_lat": 0.0, "type": "electric_bike", "name": "e2d2129741392ca27139d47eb0175a4f", "fusion_lon": 0.0, "bike_id": "e2d2129741392ca27139d47eb0175a4f", "is_reserved": 0, "rental_uris": {"android": "https://dc.lft.to/lastmile_qr_scan", "ios": "https://dc.lft.to/lastmile_qr_scan"}, "lat": 38.80711466666666, "is_disabled": 0, "lon": -77.06172983333333}, {"fusion_lat": 0.0, "type": "electric_scooter", "name": "d1ca40dd4e5c62748b702136ca496860", "fusion_lon": 0.0, "bike_id": "d1ca40dd4e5c62748b702136ca496860", "is_reserved": 0, "rental_uris": {"android": "https://dc.lft.to/lastmile_qr_scan", "ios": "https://dc.lft.to/lastmile_qr_scan"}, "lat": 38.89225016666666, "is_disabled": 0, "lon": -77.04504983333334}, {"fusion_lat": 0.0, "type": "electric_scooter", "name": "3396cd96c7069498dd26b7310e2207d7", "fusion_lon": 0.0, "bike_id": "3396cd96c7069498dd26b7310e2207d7", "is_reserved": 0, "rental_uris": {"android": "https://dc.lft.to/lastmile_qr_scan", "ios": "https://dc.lft.to/lastmile_qr_scan"}, "lat": 38.90726016666667, "is_disabled": 0, "lon": -77.01100983333333}, {"fusion_lat": 0.0, "type": "electric_scooter", "name": "c70673e22ac174bc0786ee2fd7840cdf", "fusion_lon": 0.0, "bike_id": "c70673e22ac174bc0786ee2fd7840cdf", "is_reserved": 0, "rental_uris": {"android": "https://dc.lft.to/lastmile_qr_scan", "ios": "https://dc.lft.to/lastmile_qr_scan"}, "lat": 38.92337366666667, "is_disabled": 0, "lon": -77.04422916666667}, {"fusion_lat": 0.0, "type": "electric_bike", "name": "2325261ec84cda32ed261f75cc8c2c42", "fusion_lon": 0.0, "bike_id": "2325261ec84cda32ed261f75cc8c2c42", "is_reserved": 0, "rental_uris": {"android": "https://dc.lft.to/lastmile_qr_scan", "ios": "https://dc.lft.to/lastmile_qr_scan"}, "lat": 38.9994635, "is_disabled": 0, "lon": -77.07432816666666}, {"fusion_lat": 0.0, "type": "electric_scooter", "name": "91200a99789b532ad2716ff0d133952b", "fusion_lon": 0.0, "bike_id": "91200a99789b532ad2716ff0d133952b", "is_reserved": 0, "rental_uris": {"android": "https://dc.lft.to/lastmile_qr_scan", "ios": "https://dc.lft.to/lastmile_qr_scan"}, "lat": 38.919225833333336, "is_disabled": 0, "lon": -77.02615916666667}, {"fusion_lat": 0.0, "type": "electric_bike", "name": "426bfe6c3e93053ad74c2e048aa2ee35", "fusion_lon": 0.0, "bike_id": "426bfe6c3e93053ad74c2e048aa2ee35", "is_reserved": 0, "rental_uris": {"android": "https://dc.lft.to/lastmile_qr_scan", "ios": "https://dc.lft.to/lastmile_qr_scan"}, "lat": 38.985508833333334, "is_disabled": 0, "lon": -77.00408933333334}, {"fusion_lat": 0.0, "type": "electric_scooter", "name": "000a3a0739f8a24e96fef25af77ec49f", "fusion_lon": 0.0, "bike_id": "000a3a0739f8a24e96fef25af77ec49f", "is_reserved": 0, "rental_uris": {"android": "https://dc.lft.to/lastmile_qr_scan", "ios": "https://dc.lft.to/lastmile_qr_scan"}, "lat": 38.91827683333333, "is_disabled": 0, "lon": -77.03363466666667}, {"fusion_lat": 0.0, "type": "electric_scooter", "name": "4e9c0263c85a7445c5ccb23493e80e3f", "fusion_lon": 0.0, "bike_id": "4e9c0263c85a7445c5ccb23493e80e3f", "is_reserved": 0, "rental_uris": {"android": "https://dc.lft.to/lastmile_qr_scan", "ios": "https://dc.lft.to/lastmile_qr_scan"}, "lat": 38.9165245, "is_disabled": 0, "lon": -77.03664416666666}, {"fusion_lat": 0.0, "type": "electric_scooter", "name": "2cd31e8d13e08407b8ccfba8085f71d1", "fusion_lon": 0.0, "bike_id": "2cd31e8d13e08407b8ccfba8085f71d1", "is_reserved": 0, "rental_uris": {"android": "https://dc.lft.to/lastmile_qr_scan", "ios": "https://dc.lft.to/lastmile_qr_scan"}, "lat": 38.9356885, "is_disabled": 0, "lon": -77.08195516666666}, {"fusion_lat": 0.0, "type": "electric_scooter", "name": "f3c6a59f59cf73995f33d71db1d86413", "fusion_lon": 0.0, "bike_id": "f3c6a59f59cf73995f33d71db1d86413", "is_reserved": 0, "rental_uris": {"android": "https://dc.lft.to/lastmile_qr_scan", "ios": "https://dc.lft.to/lastmile_qr_scan"}, "lat": 38.90715, "is_disabled": 0, "lon": -77.00763033333334}, {"fusion_lat": 0.0, "type": "electric_scooter", "name": "ad1f22cf8b013fc49b3cabe0995297ac", "fusion_lon": 0.0, "bike_id": "ad1f22cf8b013fc49b3cabe0995297ac", "is_reserved": 0, "rental_uris": {"android": "https://dc.lft.to/lastmile_qr_scan", "ios": "https://dc.lft.to/lastmile_qr_scan"}, "lat": 38.872021, "is_disabled": 0, "lon": -77.00567683333334}, {"fusion_lat": 0.0, "type": "electric_scooter", "name": "29ed260821c855cf750feb68606d68e0", "fusion_lon": 0.0, "bike_id": "29ed260821c855cf750feb68606d68e0", "is_reserved": 0, "rental_uris": {"android": "https://dc.lft.to/lastmile_qr_scan", "ios": "https://dc.lft.to/lastmile_qr_scan"}, "lat": 38.900075, "is_disabled": 0, "lon": -77.02626033333334}, {"fusion_lat": 0.0, "type": "electric_scooter", "name": "40226e58499c45266583c9027c762830", "fusion_lon": 0.0, "bike_id": "40226e58499c45266583c9027c762830", "is_reserved": 0, "rental_uris": {"android": "https://dc.lft.to/lastmile_qr_scan", "ios": "https://dc.lft.to/lastmile_qr_scan"}, "lat": 38.8922435, "is_disabled": 0, "lon": -77.02340216666667}, {"fusion_lat": 0.0, "type": "electric_scooter", "name": "e856768954fed53a0325405468a36792", "fusion_lon": 0.0, "bike_id": "e856768954fed53a0325405468a36792", "is_reserved": 0, "rental_uris": {"android": "https://dc.lft.to/lastmile_qr_scan", "ios": "https://dc.lft.to/lastmile_qr_scan"}, "lat": 38.888509, "is_disabled": 0, "lon": -76.92679866666667}, {"fusion_lat": 0.0, "type": "electric_scooter", "name": "a6efbb15d7b769925526ed38d895c43d", "fusion_lon": 0.0, "bike_id": "a6efbb15d7b769925526ed38d895c43d", "is_reserved": 0, "rental_uris": {"android": "https://dc.lft.to/lastmile_qr_scan", "ios": "https://dc.lft.to/lastmile_qr_scan"}, "lat": 38.905160333333335, "is_disabled": 0, "lon": -77.04815216666667}, {"fusion_lat": 0.0, "type": "electric_scooter", "name": "e46efcc5d75dc2b9cbf0b76c34e0c5c3", "fusion_lon": 0.0, "bike_id": "e46efcc5d75dc2b9cbf0b76c34e0c5c3", "is_reserved": 0, "rental_uris": {"android": "https://dc.lft.to/lastmile_qr_scan", "ios": "https://dc.lft.to/lastmile_qr_scan"}, "lat": 38.885941333333335, "is_disabled": 0, "lon": -77.01232366666666}, {"fusion_lat": 0.0, "type": "electric_scooter", "name": "7e86d2bf720dbe92810989c800fe23f2", "fusion_lon": 0.0, "bike_id": "7e86d2bf720dbe92810989c800fe23f2", "is_reserved": 0, "rental_uris": {"android": "https://dc.lft.to/lastmile_qr_scan", "ios": "https://dc.lft.to/lastmile_qr_scan"}, "lat": 38.892905666666664, "is_disabled": 0, "lon": -77.0321235}, {"fusion_lat": 0.0, "type": "electric_bike", "name": "8360ebc6450c9aef1ce875526dd601dd", "fusion_lon": 0.0, "bike_id": "8360ebc6450c9aef1ce875526dd601dd", "is_reserved": 0, "rental_uris": {"android": "https://dc.lft.to/lastmile_qr_scan", "ios": "https://dc.lft.to/lastmile_qr_scan"}, "lat": 38.869421, "is_disabled": 0, "lon": -77.0947}, {"fusion_lat": 0.0, "type": "electric_scooter", "name": "963c179b0a4d04821c7d992e2823c478", "fusion_lon": 0.0, "bike_id": "963c179b0a4d04821c7d992e2823c478", "is_reserved": 0, "rental_uris": {"android": "https://dc.lft.to/lastmile_qr_scan", "ios": "https://dc.lft.to/lastmile_qr_scan"}, "lat": 38.930977666666664, "is_disabled": 0, "lon": -77.0327285}, {"fusion_lat": 0.0, "type": "electric_scooter", "name": "4c6a7c012a3643f9d4d6acb0770cc434", "fusion_lon": 0.0, "bike_id": "4c6a7c012a3643f9d4d6acb0770cc434", "is_reserved": 0, "rental_uris": {"android": "https://dc.lft.to/lastmile_qr_scan", "ios": "https://dc.lft.to/lastmile_qr_scan"}, "lat": 38.919653833333335, "is_disabled": 0, "lon": -77.04520333333333}, {"fusion_lat": 0.0, "type": "electric_scooter", "name": "1b72836e8718f872ea9ea510342d7f28", "fusion_lon": 0.0, "bike_id": "1b72836e8718f872ea9ea510342d7f28", "is_reserved": 0, "rental_uris": {"android": "https://dc.lft.to/lastmile_qr_scan", "ios": "https://dc.lft.to/lastmile_qr_scan"}, "lat": 38.90514983333333, "is_disabled": 0, "lon": -77.06856866666666}, {"fusion_lat": 0.0, "type": "electric_scooter", "name": "799d47028d80db4bc82602682efaf6d8", "fusion_lon": 0.0, "bike_id": "799d47028d80db4bc82602682efaf6d8", "is_reserved": 0, "rental_uris": {"android": "https://dc.lft.to/lastmile_qr_scan", "ios": "https://dc.lft.to/lastmile_qr_scan"}, "lat": 38.912875, "is_disabled": 0, "lon": -77.02301033333333}, {"fusion_lat": 0.0, "type": "electric_scooter", "name": "69fab67614ec82cf25448efcd0880d62", "fusion_lon": 0.0, "bike_id": "69fab67614ec82cf25448efcd0880d62", "is_reserved": 0, "rental_uris": {"android": "https://dc.lft.to/lastmile_qr_scan", "ios": "https://dc.lft.to/lastmile_qr_scan"}, "lat": 38.91551116666667, "is_disabled": 0, "lon": -77.00703233333333}, {"fusion_lat": 0.0, "type": "electric_scooter", "name": "dd0a4e296bcce6190bf6ca6f1b81b152", "fusion_lon": 0.0, "bike_id": "dd0a4e296bcce6190bf6ca6f1b81b152", "is_reserved": 0, "rental_uris": {"android": "https://dc.lft.to/lastmile_qr_scan", "ios": "https://dc.lft.to/lastmile_qr_scan"}, "lat": 38.9569205, "is_disabled": 0, "lon": -77.032678}, {"fusion_lat": 0.0, "type": "electric_scooter", "name": "3e3e283229003a7682351912bde5ed69", "fusion_lon": 0.0, "bike_id": "3e3e283229003a7682351912bde5ed69", "is_reserved": 0, "rental_uris": {"android": "https://dc.lft.to/lastmile_qr_scan", "ios": "https://dc.lft.to/lastmile_qr_scan"}, "lat": 38.874612, "is_disabled": 0, "lon": -77.00544633333334}, {"fusion_lat": 0.0, "type": "electric_scooter", "name": "c016e710e80beb950649ef8407dd06d3", "fusion_lon": 0.0, "bike_id": "c016e710e80beb950649ef8407dd06d3", "is_reserved": 0, "rental_uris": {"android": "https://dc.lft.to/lastmile_qr_scan", "ios": "https://dc.lft.to/lastmile_qr_scan"}, "lat": 38.9340165, "is_disabled": 0, "lon": -77.022115}, {"fusion_lat": 0.0, "type": "electric_scooter", "name": "161be829fa9f004427be3e1aa78d2fed", "fusion_lon": 0.0, "bike_id": "161be829fa9f004427be3e1aa78d2fed", "is_reserved": 0, "rental_uris": {"android": "https://dc.lft.to/lastmile_qr_scan", "ios": "https://dc.lft.to/lastmile_qr_scan"}, "lat": 38.86655583333334, "is_disabled": 0, "lon": -76.98519816666666}, {"fusion_lat": 0.0, "type": "electric_scooter", "name": "f5a396187d899e3f28c43faf554b0fa8", "fusion_lon": 0.0, "bike_id": "f5a396187d899e3f28c43faf554b0fa8", "is_reserved": 0, "rental_uris": {"android": "https://dc.lft.to/lastmile_qr_scan", "ios": "https://dc.lft.to/lastmile_qr_scan"}, "lat": 38.86373666666667, "is_disabled": 0, "lon": -76.99059933333334}, {"fusion_lat": 0.0, "type": "electric_scooter", "name": "cafe3119cf4130addf83b38405d71179", "fusion_lon": 0.0, "bike_id": "cafe3119cf4130addf83b38405d71179", "is_reserved": 0, "rental_uris": {"android": "https://dc.lft.to/lastmile_qr_scan", "ios": "https://dc.lft.to/lastmile_qr_scan"}, "lat": 38.9248735, "is_disabled": 0, "lon": -77.0575495}, {"fusion_lat": 0.0, "type": "electric_scooter", "name": "7431aebe2c4b6cc66d13684232729078", "fusion_lon": 0.0, "bike_id": "7431aebe2c4b6cc66d13684232729078", "is_reserved": 0, "rental_uris": {"android": "https://dc.lft.to/lastmile_qr_scan", "ios": "https://dc.lft.to/lastmile_qr_scan"}, "lat": 38.893009, "is_disabled": 0, "lon": -77.01235866666667}, {"fusion_lat": 0.0, "type": "electric_scooter", "name": "b1c2673e334880077b555ebed4907fc8", "fusion_lon": 0.0, "bike_id": "b1c2673e334880077b555ebed4907fc8", "is_reserved": 0, "rental_uris": {"android": "https://dc.lft.to/lastmile_qr_scan", "ios": "https://dc.lft.to/lastmile_qr_scan"}, "lat": 38.921088833333336, "is_disabled": 0, "lon": -77.03324616666667}, {"fusion_lat": 0.0, "type": "electric_scooter", "name": "fc233c3546edc3ca8050a7a19cb48d34", "fusion_lon": 0.0, "bike_id": "fc233c3546edc3ca8050a7a19cb48d34", "is_reserved": 0, "rental_uris": {"android": "https://dc.lft.to/lastmile_qr_scan", "ios": "https://dc.lft.to/lastmile_qr_scan"}, "lat": 38.919072, "is_disabled": 0, "lon": -77.03446466666666}, {"fusion_lat": 0.0, "type": "electric_scooter", "name": "40be41d2f89c07e541b9cdb0faee751f", "fusion_lon": 0.0, "bike_id": "40be41d2f89c07e541b9cdb0faee751f", "is_reserved": 0, "rental_uris": {"android": "https://dc.lft.to/lastmile_qr_scan", "ios": "https://dc.lft.to/lastmile_qr_scan"}, "lat": 38.967826, "is_disabled": 0, "lon": -77.01512366666667}, {"fusion_lat": 0.0, "type": "electric_scooter", "name": "0c46b5938bc12918d9a8c389670600bb", "fusion_lon": 0.0, "bike_id": "0c46b5938bc12918d9a8c389670600bb", "is_reserved": 0, "rental_uris": {"android": "https://dc.lft.to/lastmile_qr_scan", "ios": "https://dc.lft.to/lastmile_qr_scan"}, "lat": 38.907216166666664, "is_disabled": 0, "lon": -77.04761416666666}, {"fusion_lat": 0.0, "type": "electric_scooter", "name": "fe7f2bf92fb5514d7e99ac01ae3040c7", "fusion_lon": 0.0, "bike_id": "fe7f2bf92fb5514d7e99ac01ae3040c7", "is_reserved": 0, "rental_uris": {"android": "https://dc.lft.to/lastmile_qr_scan", "ios": "https://dc.lft.to/lastmile_qr_scan"}, "lat": 38.902605666666666, "is_disabled": 0, "lon": -77.007421}, {"fusion_lat": 0.0, "type": "electric_scooter", "name": "c49a5a1b6bb6626de9efde2bf63fdbc6", "fusion_lon": 0.0, "bike_id": "c49a5a1b6bb6626de9efde2bf63fdbc6", "is_reserved": 0, "rental_uris": {"android": "https://dc.lft.to/lastmile_qr_scan", "ios": "https://dc.lft.to/lastmile_qr_scan"}, "lat": 38.91175633333334, "is_disabled": 0, "lon": -77.04157116666667}, {"fusion_lat": 0.0, "type": "electric_scooter", "name": "3ceb71e5cfc65265575152d37074475b", "fusion_lon": 0.0, "bike_id": "3ceb71e5cfc65265575152d37074475b", "is_reserved": 0, "rental_uris": {"android": "https://dc.lft.to/lastmile_qr_scan", "ios": "https://dc.lft.to/lastmile_qr_scan"}, "lat": 38.919107333333336, "is_disabled": 0, "lon": -77.03438433333334}, {"fusion_lat": 0.0, "type": "electric_scooter", "name": "a67cbbdebda5c95fe7c6a938120c0db5", "fusion_lon": 0.0, "bike_id": "a67cbbdebda5c95fe7c6a938120c0db5", "is_reserved": 0, "rental_uris": {"android": "https://dc.lft.to/lastmile_qr_scan", "ios": "https://dc.lft.to/lastmile_qr_scan"}, "lat": 38.9065875, "is_disabled": 0, "lon": -77.01615783333334}, {"fusion_lat": 0.0, "type": "electric_scooter", "name": "2dc9feef69cdcc69e5772a8fd0ca39cb", "fusion_lon": 0.0, "bike_id": "2dc9feef69cdcc69e5772a8fd0ca39cb", "is_reserved": 0, "rental_uris": {"android": "https://dc.lft.to/lastmile_qr_scan", "ios": "https://dc.lft.to/lastmile_qr_scan"}, "lat": 38.89233633333333, "is_disabled": 0, "lon": -77.0321175}, {"fusion_lat": 0.0, "type": "electric_scooter", "name": "071b73e04ea3f5eee02af7f52be6a0df", "fusion_lon": 0.0, "bike_id": "071b73e04ea3f5eee02af7f52be6a0df", "is_reserved": 0, "rental_uris": {"android": "https://dc.lft.to/lastmile_qr_scan", "ios": "https://dc.lft.to/lastmile_qr_scan"}, "lat": 38.902679, "is_disabled": 0, "lon": -77.03467816666667}, {"fusion_lat": 0.0, "type": "electric_scooter", "name": "56ff7564af5558e7e18fa873841e454d", "fusion_lon": 0.0, "bike_id": "56ff7564af5558e7e18fa873841e454d", "is_reserved": 0, "rental_uris": {"android": "https://dc.lft.to/lastmile_qr_scan", "ios": "https://dc.lft.to/lastmile_qr_scan"}, "lat": 38.89755616666667, "is_disabled": 0, "lon": -77.0333195}, {"fusion_lat": 0.0, "type": "electric_scooter", "name": "6c8356ef33ba565dbc51a6b187262d0b", "fusion_lon": 0.0, "bike_id": "6c8356ef33ba565dbc51a6b187262d0b", "is_reserved": 0, "rental_uris": {"android": "https://dc.lft.to/lastmile_qr_scan", "ios": "https://dc.lft.to/lastmile_qr_scan"}, "lat": 38.89222916666667, "is_disabled": 0, "lon": -77.03218333333334}, {"fusion_lat": 0.0, "type": "electric_scooter", "name": "2e01bb7d7912f62e5ce88768714b4862", "fusion_lon": 0.0, "bike_id": "2e01bb7d7912f62e5ce88768714b4862", "is_reserved": 0, "rental_uris": {"android": "https://dc.lft.to/lastmile_qr_scan", "ios": "https://dc.lft.to/lastmile_qr_scan"}, "lat": 38.91333816666667, "is_disabled": 0, "lon": -77.04571983333334}, {"fusion_lat": 0.0, "type": "electric_scooter", "name": "5ac748d8303e97277be761a32004165b", "fusion_lon": 0.0, "bike_id": "5ac748d8303e97277be761a32004165b", "is_reserved": 0, "rental_uris": {"android": "https://dc.lft.to/lastmile_qr_scan", "ios": "https://dc.lft.to/lastmile_qr_scan"}, "lat": 38.9039805, "is_disabled": 0, "lon": -77.044668}, {"fusion_lat": 0.0, "type": "electric_bike", "name": "e8e96f50183286f18efb77e2439bfc45", "fusion_lon": 0.0, "bike_id": "e8e96f50183286f18efb77e2439bfc45", "is_reserved": 0, "rental_uris": {"android": "https://dc.lft.to/lastmile_qr_scan", "ios": "https://dc.lft.to/lastmile_qr_scan"}, "lat": 38.953283666666664, "is_disabled": 0, "lon": -76.954314}, {"fusion_lat": 0.0, "type": "electric_scooter", "name": "2cf9c6b82a168d33044c2cfe30a107b3", "fusion_lon": 0.0, "bike_id": "2cf9c6b82a168d33044c2cfe30a107b3", "is_reserved": 0, "rental_uris": {"android": "https://dc.lft.to/lastmile_qr_scan", "ios": "https://dc.lft.to/lastmile_qr_scan"}, "lat": 38.9147335, "is_disabled": 0, "lon": -77.06941716666667}, {"fusion_lat": 0.0, "type": "electric_scooter", "name": "d5a50cd09ee38c9765e296f62d9d5679", "fusion_lon": 0.0, "bike_id": "d5a50cd09ee38c9765e296f62d9d5679", "is_reserved": 0, "rental_uris": {"android": "https://dc.lft.to/lastmile_qr_scan", "ios": "https://dc.lft.to/lastmile_qr_scan"}, "lat": 38.92900233333334, "is_disabled": 0, "lon": -77.00418683333334}, {"fusion_lat": 0.0, "type": "electric_scooter", "name": "45b44def6d99c409613198ca814a657f", "fusion_lon": 0.0, "bike_id": "45b44def6d99c409613198ca814a657f", "is_reserved": 0, "rental_uris": {"android": "https://dc.lft.to/lastmile_qr_scan", "ios": "https://dc.lft.to/lastmile_qr_scan"}, "lat": 38.924752166666664, "is_disabled": 0, "lon": -77.03534033333334}, {"fusion_lat": 0.0, "type": "electric_scooter", "name": "9e1c10aa96a4bc595df17e824aad852e", "fusion_lon": 0.0, "bike_id": "9e1c10aa96a4bc595df17e824aad852e", "is_reserved": 0, "rental_uris": {"android": "https://dc.lft.to/lastmile_qr_scan", "ios": "https://dc.lft.to/lastmile_qr_scan"}, "lat": 38.93822, "is_disabled": 0, "lon": -77.07047516666667}, {"fusion_lat": 0.0, "type": "electric_scooter", "name": "65f8b7febd37d60f0000a88d54437638", "fusion_lon": 0.0, "bike_id": "65f8b7febd37d60f0000a88d54437638", "is_reserved": 0, "rental_uris": {"android": "https://dc.lft.to/lastmile_qr_scan", "ios": "https://dc.lft.to/lastmile_qr_scan"}, "lat": 38.920908833333336, "is_disabled": 0, "lon": -77.04376283333333}, {"fusion_lat": 0.0, "type": "electric_scooter", "name": "76ab6b42ed1c5e98d643ea07e0365474", "fusion_lon": 0.0, "bike_id": "76ab6b42ed1c5e98d643ea07e0365474", "is_reserved": 0, "rental_uris": {"android": "https://dc.lft.to/lastmile_qr_scan", "ios": "https://dc.lft.to/lastmile_qr_scan"}, "lat": 38.89217166666667, "is_disabled": 0, "lon": -77.02628633333333}, {"fusion_lat": 0.0, "type": "electric_bike", "name": "5123565ca70dcd5e5dcd66ff4d4ad817", "fusion_lon": 0.0, "bike_id": "5123565ca70dcd5e5dcd66ff4d4ad817", "is_reserved": 0, "rental_uris": {"android": "https://dc.lft.to/lastmile_qr_scan", "ios": "https://dc.lft.to/lastmile_qr_scan"}, "lat": 38.86262116666666, "is_disabled": 0, "lon": -76.98350216666667}, {"fusion_lat": 0.0, "type": "electric_scooter", "name": "530537c823f2f890806b9e8c3b0e8c8f", "fusion_lon": 0.0, "bike_id": "530537c823f2f890806b9e8c3b0e8c8f", "is_reserved": 0, "rental_uris": {"android": "https://dc.lft.to/lastmile_qr_scan", "ios": "https://dc.lft.to/lastmile_qr_scan"}, "lat": 38.944396, "is_disabled": 0, "lon": -77.02789016666667}, {"fusion_lat": 0.0, "type": "electric_scooter", "name": "521c9a357d672a18e38dac03ecb85d97", "fusion_lon": 0.0, "bike_id": "521c9a357d672a18e38dac03ecb85d97", "is_reserved": 0, "rental_uris": {"android": "https://dc.lft.to/lastmile_qr_scan", "ios": "https://dc.lft.to/lastmile_qr_scan"}, "lat": 38.935813333333336, "is_disabled": 0, "lon": -77.02131616666667}, {"fusion_lat": 0.0, "type": "electric_scooter", "name": "f3a11a82644ef7557ced76ec0cad07a0", "fusion_lon": 0.0, "bike_id": "f3a11a82644ef7557ced76ec0cad07a0", "is_reserved": 0, "rental_uris": {"android": "https://dc.lft.to/lastmile_qr_scan", "ios": "https://dc.lft.to/lastmile_qr_scan"}, "lat": 38.9024555, "is_disabled": 0, "lon": -77.039659}, {"fusion_lat": 0.0, "type": "electric_bike", "name": "617d0396da52fd5340fc453cbec563ca", "fusion_lon": 0.0, "bike_id": "617d0396da52fd5340fc453cbec563ca", "is_reserved": 0, "rental_uris": {"android": "https://dc.lft.to/lastmile_qr_scan", "ios": "https://dc.lft.to/lastmile_qr_scan"}, "lat": 38.953303166666664, "is_disabled": 0, "lon": -76.98243383333333}, {"fusion_lat": 0.0, "type": "electric_scooter", "name": "3e4d4fb8fb7c7fb4159169d95d7b2016", "fusion_lon": 0.0, "bike_id": "3e4d4fb8fb7c7fb4159169d95d7b2016", "is_reserved": 0, "rental_uris": {"android": "https://dc.lft.to/lastmile_qr_scan", "ios": "https://dc.lft.to/lastmile_qr_scan"}, "lat": 38.9602595, "is_disabled": 0, "lon": -77.00052916666667}, {"fusion_lat": 0.0, "type": "electric_bike", "name": "16239835a0ab75c9426faa207f4755c7", "fusion_lon": 0.0, "bike_id": "16239835a0ab75c9426faa207f4755c7", "is_reserved": 0, "rental_uris": {"android": "https://dc.lft.to/lastmile_qr_scan", "ios": "https://dc.lft.to/lastmile_qr_scan"}, "lat": 39.055023, "is_disabled": 0, "lon": -77.046427}, {"fusion_lat": 0.0, "type": "electric_scooter", "name": "19ad1c51fc24cad5dec4a994a49f87de", "fusion_lon": 0.0, "bike_id": "19ad1c51fc24cad5dec4a994a49f87de", "is_reserved": 0, "rental_uris": {"android": "https://dc.lft.to/lastmile_qr_scan", "ios": "https://dc.lft.to/lastmile_qr_scan"}, "lat": 38.94948983333333, "is_disabled": 0, "lon": -77.02448433333333}, {"fusion_lat": 0.0, "type": "electric_bike", "name": "08b3ed4010fa36edd561844b9d386a4b", "fusion_lon": 0.0, "bike_id": "08b3ed4010fa36edd561844b9d386a4b", "is_reserved": 0, "rental_uris": {"android": "https://dc.lft.to/lastmile_qr_scan", "ios": "https://dc.lft.to/lastmile_qr_scan"}, "lat": 38.92964766666667, "is_disabled": 0, "lon": -77.1856175}, {"fusion_lat": 0.0, "type": "electric_bike", "name": "32b38d651b93fe5fd71d4b281ed46024", "fusion_lon": 0.0, "bike_id": "32b38d651b93fe5fd71d4b281ed46024", "is_reserved": 0, "rental_uris": {"android": "https://dc.lft.to/lastmile_qr_scan", "ios": "https://dc.lft.to/lastmile_qr_scan"}, "lat": 38.954415, "is_disabled": 0, "lon": -76.98912183333333}, {"fusion_lat": 0.0, "type": "electric_bike", "name": "30d7bc3b6eef8bdd2d8521f39922f619", "fusion_lon": 0.0, "bike_id": "30d7bc3b6eef8bdd2d8521f39922f619", "is_reserved": 0, "rental_uris": {"android": "https://dc.lft.to/lastmile_qr_scan", "ios": "https://dc.lft.to/lastmile_qr_scan"}, "lat": 38.86483483333333, "is_disabled": 0, "lon": -76.97746533333333}, {"fusion_lat": 0.0, "type": "electric_bike", "name": "f549d6951833fda91b79f9ad5a04e1da", "fusion_lon": 0.0, "bike_id": "f549d6951833fda91b79f9ad5a04e1da", "is_reserved": 0, "rental_uris": {"android": "https://dc.lft.to/lastmile_qr_scan", "ios": "https://dc.lft.to/lastmile_qr_scan"}, "lat": 38.93169266666666, "is_disabled": 0, "lon": -76.88403383333333}, {"fusion_lat": 0.0, "type": "electric_scooter", "name": "b82291bc82ba9c93cd78ef86c8492c18", "fusion_lon": 0.0, "bike_id": "b82291bc82ba9c93cd78ef86c8492c18", "is_reserved": 0, "rental_uris": {"android": "https://dc.lft.to/lastmile_qr_scan", "ios": "https://dc.lft.to/lastmile_qr_scan"}, "lat": 38.907635666666664, "is_disabled": 0, "lon": -77.00078833333333}, {"fusion_lat": 0.0, "type": "electric_scooter", "name": "325343884f5d06cf69ca664523998d6f", "fusion_lon": 0.0, "bike_id": "325343884f5d06cf69ca664523998d6f", "is_reserved": 0, "rental_uris": {"android": "https://dc.lft.to/lastmile_qr_scan", "ios": "https://dc.lft.to/lastmile_qr_scan"}, "lat": 38.9273765, "is_disabled": 0, "lon": -77.02259733333334}, {"fusion_lat": 0.0, "type": "electric_scooter", "name": "d64c70d462db10b1d13a49e421d10a13", "fusion_lon": 0.0, "bike_id": "d64c70d462db10b1d13a49e421d10a13", "is_reserved": 0, "rental_uris": {"android": "https://dc.lft.to/lastmile_qr_scan", "ios": "https://dc.lft.to/lastmile_qr_scan"}, "lat": 38.92664283333333, "is_disabled": 0, "lon": -77.022904}, {"fusion_lat": 0.0, "type": "electric_scooter", "name": "4993639d26bfd2a3eb6aa15d9881d9be", "fusion_lon": 0.0, "bike_id": "4993639d26bfd2a3eb6aa15d9881d9be", "is_reserved": 0, "rental_uris": {"android": "https://dc.lft.to/lastmile_qr_scan", "ios": "https://dc.lft.to/lastmile_qr_scan"}, "lat": 38.89251933333333, "is_disabled": 0, "lon": -77.03960133333334}, {"fusion_lat": 0.0, "type": "electric_scooter", "name": "d48e82cfc352af4180eabbbcfcdb67d4", "fusion_lon": 0.0, "bike_id": "d48e82cfc352af4180eabbbcfcdb67d4", "is_reserved": 0, "rental_uris": {"android": "https://dc.lft.to/lastmile_qr_scan", "ios": "https://dc.lft.to/lastmile_qr_scan"}, "lat": 38.913550666666666, "is_disabled": 0, "lon": -77.03327983333334}, {"fusion_lat": 0.0, "type": "electric_scooter", "name": "986848bd10bd2932a85dd557acc519f5", "fusion_lon": 0.0, "bike_id": "986848bd10bd2932a85dd557acc519f5", "is_reserved": 0, "rental_uris": {"android": "https://dc.lft.to/lastmile_qr_scan", "ios": "https://dc.lft.to/lastmile_qr_scan"}, "lat": 38.895536666666665, "is_disabled": 0, "lon": -77.00913766666666}, {"fusion_lat": 0.0, "type": "electric_scooter", "name": "ba97ef984e12ebe13664d15605534334", "fusion_lon": 0.0, "bike_id": "ba97ef984e12ebe13664d15605534334", "is_reserved": 0, "rental_uris": {"android": "https://dc.lft.to/lastmile_qr_scan", "ios": "https://dc.lft.to/lastmile_qr_scan"}, "lat": 38.89826983333333, "is_disabled": 0, "lon": -77.03302866666667}, {"fusion_lat": 0.0, "type": "electric_scooter", "name": "6127f987369f307e973e37f6de17b263", "fusion_lon": 0.0, "bike_id": "6127f987369f307e973e37f6de17b263", "is_reserved": 0, "rental_uris": {"android": "https://dc.lft.to/lastmile_qr_scan", "ios": "https://dc.lft.to/lastmile_qr_scan"}, "lat": 38.92344383333333, "is_disabled": 0, "lon": -77.03504066666666}, {"fusion_lat": 0.0, "type": "electric_bike", "name": "394c192a32da7da99416c22627e0d5a3", "fusion_lon": 0.0, "bike_id": "394c192a32da7da99416c22627e0d5a3", "is_reserved": 0, "rental_uris": {"android": "https://dc.lft.to/lastmile_qr_scan", "ios": "https://dc.lft.to/lastmile_qr_scan"}, "lat": 38.81204283333334, "is_disabled": 0, "lon": -77.10841566666667}, {"fusion_lat": 0.0, "type": "electric_scooter", "name": "f89624c7852269d61c83652072b42adc", "fusion_lon": 0.0, "bike_id": "f89624c7852269d61c83652072b42adc", "is_reserved": 0, "rental_uris": {"android": "https://dc.lft.to/lastmile_qr_scan", "ios": "https://dc.lft.to/lastmile_qr_scan"}, "lat": 38.86506116666666, "is_disabled": 0, "lon": -76.99005}, {"fusion_lat": 0.0, "type": "electric_scooter", "name": "a5fa0b8fda38c9419e7998da9a3f6ee0", "fusion_lon": 0.0, "bike_id": "a5fa0b8fda38c9419e7998da9a3f6ee0", "is_reserved": 0, "rental_uris": {"android": "https://dc.lft.to/lastmile_qr_scan", "ios": "https://dc.lft.to/lastmile_qr_scan"}, "lat": 38.9039615, "is_disabled": 0, "lon": -77.017721}, {"fusion_lat": 0.0, "type": "electric_scooter", "name": "ed1140f8d548f15ccd90a94bad5fce44", "fusion_lon": 0.0, "bike_id": "ed1140f8d548f15ccd90a94bad5fce44", "is_reserved": 0, "rental_uris": {"android": "https://dc.lft.to/lastmile_qr_scan", "ios": "https://dc.lft.to/lastmile_qr_scan"}, "lat": 38.8930945, "is_disabled": 0, "lon": -76.92921616666666}, {"fusion_lat": 0.0, "type": "electric_scooter", "name": "33197f9bda829730392769efea263ffb", "fusion_lon": 0.0, "bike_id": "33197f9bda829730392769efea263ffb", "is_reserved": 0, "rental_uris": {"android": "https://dc.lft.to/lastmile_qr_scan", "ios": "https://dc.lft.to/lastmile_qr_scan"}, "lat": 38.8923725, "is_disabled": 0, "lon": -77.03185066666667}, {"fusion_lat": 0.0, "type": "electric_scooter", "name": "c7fae50d8378f54b8103d1711409c19f", "fusion_lon": 0.0, "bike_id": "c7fae50d8378f54b8103d1711409c19f", "is_reserved": 0, "rental_uris": {"android": "https://dc.lft.to/lastmile_qr_scan", "ios": "https://dc.lft.to/lastmile_qr_scan"}, "lat": 38.915527, "is_disabled": 0, "lon": -77.02986266666667}, {"fusion_lat": 0.0, "type": "electric_scooter", "name": "449d83661906731dee6471712b6e3498", "fusion_lon": 0.0, "bike_id": "449d83661906731dee6471712b6e3498", "is_reserved": 0, "rental_uris": {"android": "https://dc.lft.to/lastmile_qr_scan", "ios": "https://dc.lft.to/lastmile_qr_scan"}, "lat": 38.8881685, "is_disabled": 0, "lon": -76.9334435}, {"fusion_lat": 0.0, "type": "electric_scooter", "name": "65f5ed2b655bd2d342a3e87f3100b1ce", "fusion_lon": 0.0, "bike_id": "65f5ed2b655bd2d342a3e87f3100b1ce", "is_reserved": 0, "rental_uris": {"android": "https://dc.lft.to/lastmile_qr_scan", "ios": "https://dc.lft.to/lastmile_qr_scan"}, "lat": 38.917196833333335, "is_disabled": 0, "lon": -77.02534333333334}, {"fusion_lat": 0.0, "type": "electric_scooter", "name": "dab838a51fee465a989de2311fefa02f", "fusion_lon": 0.0, "bike_id": "dab838a51fee465a989de2311fefa02f", "is_reserved": 0, "rental_uris": {"android": "https://dc.lft.to/lastmile_qr_scan", "ios": "https://dc.lft.to/lastmile_qr_scan"}, "lat": 38.8970305, "is_disabled": 0, "lon": -77.02714983333334}, {"fusion_lat": 0.0, "type": "electric_scooter", "name": "577e924ee71292fe9a34e77ac7cac51a", "fusion_lon": 0.0, "bike_id": "577e924ee71292fe9a34e77ac7cac51a", "is_reserved": 0, "rental_uris": {"android": "https://dc.lft.to/lastmile_qr_scan", "ios": "https://dc.lft.to/lastmile_qr_scan"}, "lat": 38.93399, "is_disabled": 0, "lon": -77.02360816666666}, {"fusion_lat": 0.0, "type": "electric_scooter", "name": "dd3bab4bb270d33ce9197097a9ccc238", "fusion_lon": 0.0, "bike_id": "dd3bab4bb270d33ce9197097a9ccc238", "is_reserved": 0, "rental_uris": {"android": "https://dc.lft.to/lastmile_qr_scan", "ios": "https://dc.lft.to/lastmile_qr_scan"}, "lat": 38.912687166666664, "is_disabled": 0, "lon": -77.03826016666666}, {"fusion_lat": 0.0, "type": "electric_scooter", "name": "60aa4c93e4220e0931105349168acdd5", "fusion_lon": 0.0, "bike_id": "60aa4c93e4220e0931105349168acdd5", "is_reserved": 0, "rental_uris": {"android": "https://dc.lft.to/lastmile_qr_scan", "ios": "https://dc.lft.to/lastmile_qr_scan"}, "lat": 38.9337315, "is_disabled": 0, "lon": -77.05726583333333}, {"fusion_lat": 0.0, "type": "electric_scooter", "name": "aa5aa323a59e4188fe3a7dd6092304fa", "fusion_lon": 0.0, "bike_id": "aa5aa323a59e4188fe3a7dd6092304fa", "is_reserved": 0, "rental_uris": {"android": "https://dc.lft.to/lastmile_qr_scan", "ios": "https://dc.lft.to/lastmile_qr_scan"}, "lat": 38.866509, "is_disabled": 0, "lon": -76.985326}, {"fusion_lat": 0.0, "type": "electric_scooter", "name": "79ac916de9112be4c1b6cc7e2aef8dd0", "fusion_lon": 0.0, "bike_id": "79ac916de9112be4c1b6cc7e2aef8dd0", "is_reserved": 0, "rental_uris": {"android": "https://dc.lft.to/lastmile_qr_scan", "ios": "https://dc.lft.to/lastmile_qr_scan"}, "lat": 38.92789966666667, "is_disabled": 0, "lon": -77.02607083333334}, {"fusion_lat": 0.0, "type": "electric_scooter", "name": "2fb071dd0b2989840417e07a6e633bc6", "fusion_lon": 0.0, "bike_id": "2fb071dd0b2989840417e07a6e633bc6", "is_reserved": 0, "rental_uris": {"android": "https://dc.lft.to/lastmile_qr_scan", "ios": "https://dc.lft.to/lastmile_qr_scan"}, "lat": 38.91179533333333, "is_disabled": 0, "lon": -77.06094683333333}, {"fusion_lat": 0.0, "type": "electric_scooter", "name": "88547612649a40d7a227636f2d6f07ac", "fusion_lon": 0.0, "bike_id": "88547612649a40d7a227636f2d6f07ac", "is_reserved": 0, "rental_uris": {"android": "https://dc.lft.to/lastmile_qr_scan", "ios": "https://dc.lft.to/lastmile_qr_scan"}, "lat": 38.90971066666667, "is_disabled": 0, "lon": -77.024207}, {"fusion_lat": 0.0, "type": "electric_scooter", "name": "a8073853674922acdd3ac3a923373ae8", "fusion_lon": 0.0, "bike_id": "a8073853674922acdd3ac3a923373ae8", "is_reserved": 0, "rental_uris": {"android": "https://dc.lft.to/lastmile_qr_scan", "ios": "https://dc.lft.to/lastmile_qr_scan"}, "lat": 38.900312, "is_disabled": 0, "lon": -76.9863395}, {"fusion_lat": 0.0, "type": "electric_scooter", "name": "e45449d02d83d7375381ddd8f8f86e6e", "fusion_lon": 0.0, "bike_id": "e45449d02d83d7375381ddd8f8f86e6e", "is_reserved": 0, "rental_uris": {"android": "https://dc.lft.to/lastmile_qr_scan", "ios": "https://dc.lft.to/lastmile_qr_scan"}, "lat": 38.92047266666667, "is_disabled": 0, "lon": -76.99601933333334}, {"fusion_lat": 0.0, "type": "electric_scooter", "name": "1863d7eccbfa2933a68d269ec67c863a", "fusion_lon": 0.0, "bike_id": "1863d7eccbfa2933a68d269ec67c863a", "is_reserved": 0, "rental_uris": {"android": "https://dc.lft.to/lastmile_qr_scan", "ios": "https://dc.lft.to/lastmile_qr_scan"}, "lat": 38.87300333333334, "is_disabled": 0, "lon": -77.00606783333333}, {"fusion_lat": 0.0, "type": "electric_scooter", "name": "a7ac9b74695f3735e5f34301b058d29c", "fusion_lon": 0.0, "bike_id": "a7ac9b74695f3735e5f34301b058d29c", "is_reserved": 0, "rental_uris": {"android": "https://dc.lft.to/lastmile_qr_scan", "ios": "https://dc.lft.to/lastmile_qr_scan"}, "lat": 38.893300333333336, "is_disabled": 0, "lon": -77.01206183333333}, {"fusion_lat": 0.0, "type": "electric_scooter", "name": "718d7b79f711694161b69086ca2155f8", "fusion_lon": 0.0, "bike_id": "718d7b79f711694161b69086ca2155f8", "is_reserved": 0, "rental_uris": {"android": "https://dc.lft.to/lastmile_qr_scan", "ios": "https://dc.lft.to/lastmile_qr_scan"}, "lat": 38.898872833333336, "is_disabled": 0, "lon": -76.93172433333334}, {"fusion_lat": 0.0, "type": "electric_scooter", "name": "973bbf55c512d1bdec507c0d8afabd22", "fusion_lon": 0.0, "bike_id": "973bbf55c512d1bdec507c0d8afabd22", "is_reserved": 0, "rental_uris": {"android": "https://dc.lft.to/lastmile_qr_scan", "ios": "https://dc.lft.to/lastmile_qr_scan"}, "lat": 38.9325045, "is_disabled": 0, "lon": -77.03412966666667}, {"fusion_lat": 0.0, "type": "electric_scooter", "name": "e60c125cc9b1eb9a87aab6ce75918ef5", "fusion_lon": 0.0, "bike_id": "e60c125cc9b1eb9a87aab6ce75918ef5", "is_reserved": 0, "rental_uris": {"android": "https://dc.lft.to/lastmile_qr_scan", "ios": "https://dc.lft.to/lastmile_qr_scan"}, "lat": 38.89326416666667, "is_disabled": 0, "lon": -76.943809}, {"fusion_lat": 0.0, "type": "electric_scooter", "name": "06b1c2f0aee231f2108a7aa2707e1062", "fusion_lon": 0.0, "bike_id": "06b1c2f0aee231f2108a7aa2707e1062", "is_reserved": 0, "rental_uris": {"android": "https://dc.lft.to/lastmile_qr_scan", "ios": "https://dc.lft.to/lastmile_qr_scan"}, "lat": 38.904961666666665, "is_disabled": 0, "lon": -76.97922083333333}, {"fusion_lat": 0.0, "type": "electric_scooter", "name": "0c0d75eb5e182b4ae69cd8aca6cee744", "fusion_lon": 0.0, "bike_id": "0c0d75eb5e182b4ae69cd8aca6cee744", "is_reserved": 0, "rental_uris": {"android": "https://dc.lft.to/lastmile_qr_scan", "ios": "https://dc.lft.to/lastmile_qr_scan"}, "lat": 38.887524166666665, "is_disabled": 0, "lon": -77.00879383333333}, {"fusion_lat": 0.0, "type": "electric_scooter", "name": "99391c659c63f29e4edf9d80ad507b89", "fusion_lon": 0.0, "bike_id": "99391c659c63f29e4edf9d80ad507b89", "is_reserved": 0, "rental_uris": {"android": "https://dc.lft.to/lastmile_qr_scan", "ios": "https://dc.lft.to/lastmile_qr_scan"}, "lat": 38.899208333333334, "is_disabled": 0, "lon": -76.9337785}, {"fusion_lat": 0.0, "type": "electric_scooter", "name": "c9e291186ca1f6034b88512c4786490f", "fusion_lon": 0.0, "bike_id": "c9e291186ca1f6034b88512c4786490f", "is_reserved": 0, "rental_uris": {"android": "https://dc.lft.to/lastmile_qr_scan", "ios": "https://dc.lft.to/lastmile_qr_scan"}, "lat": 38.90558033333333, "is_disabled": 0, "lon": -76.97392066666667}, {"fusion_lat": 0.0, "type": "electric_scooter", "name": "3c704ad3800e3612eef6805da93cf844", "fusion_lon": 0.0, "bike_id": "3c704ad3800e3612eef6805da93cf844", "is_reserved": 0, "rental_uris": {"android": "https://dc.lft.to/lastmile_qr_scan", "ios": "https://dc.lft.to/lastmile_qr_scan"}, "lat": 38.92458233333333, "is_disabled": 0, "lon": -77.07810516666666}, {"fusion_lat": 0.0, "type": "electric_bike", "name": "647a22ef62c8f290b6dd117ff3e67599", "fusion_lon": 0.0, "bike_id": "647a22ef62c8f290b6dd117ff3e67599", "is_reserved": 0, "rental_uris": {"android": "https://dc.lft.to/lastmile_qr_scan", "ios": "https://dc.lft.to/lastmile_qr_scan"}, "lat": 38.89353, "is_disabled": 0, "lon": -77.1874085}, {"fusion_lat": 0.0, "type": "electric_scooter", "name": "a1fb5de3a0ff659b168f81aacc53c5ae", "fusion_lon": 0.0, "bike_id": "a1fb5de3a0ff659b168f81aacc53c5ae", "is_reserved": 0, "rental_uris": {"android": "https://dc.lft.to/lastmile_qr_scan", "ios": "https://dc.lft.to/lastmile_qr_scan"}, "lat": 38.920534333333336, "is_disabled": 0, "lon": -77.0334125}, {"fusion_lat": 0.0, "type": "electric_scooter", "name": "040590c6af7b71a60c0d1621ae9cf8c2", "fusion_lon": 0.0, "bike_id": "040590c6af7b71a60c0d1621ae9cf8c2", "is_reserved": 0, "rental_uris": {"android": "https://dc.lft.to/lastmile_qr_scan", "ios": "https://dc.lft.to/lastmile_qr_scan"}, "lat": 38.8876835, "is_disabled": 0, "lon": -76.98967083333334}, {"fusion_lat": 0.0, "type": "electric_scooter", "name": "bff8568f0400f8562f7925944f971da9", "fusion_lon": 0.0, "bike_id": "bff8568f0400f8562f7925944f971da9", "is_reserved": 0, "rental_uris": {"android": "https://dc.lft.to/lastmile_qr_scan", "ios": "https://dc.lft.to/lastmile_qr_scan"}, "lat": 38.911720833333334, "is_disabled": 0, "lon": -77.04917933333333}, {"fusion_lat": 0.0, "type": "electric_scooter", "name": "62dd10765928407e6b0e3ff594a1d500", "fusion_lon": 0.0, "bike_id": "62dd10765928407e6b0e3ff594a1d500", "is_reserved": 0, "rental_uris": {"android": "https://dc.lft.to/lastmile_qr_scan", "ios": "https://dc.lft.to/lastmile_qr_scan"},