{"data": {"bikes": [{"lon": -77.00627033333333, "fusion_lon": 0.0, "bike_id": "d1afc3701113cdaf7535ba9066866f11", "type": "electric_scooter", "name": "d1afc3701113cdaf7535ba9066866f11", "rental_uris": {"android": "https://dc.lft.to/lastmile_qr_scan", "ios": "https://dc.lft.to/lastmile_qr_scan"}, "is_disabled": 0, "fusion_lat": 0.0, "lat": 38.87172483333333, "is_reserved": 0}, {"lon": -77.0746175, "fusion_lon": 0.0, "bike_id": "95cfef1fa8932aff017f36deed2eff50", "type": "electric_scooter", "name": "95cfef1fa8932aff017f36deed2eff50", "rental_uris": {"android": "https://dc.lft.to/lastmile_qr_scan", "ios": "https://dc.lft.to/lastmile_qr_scan"}, "is_disabled": 0, "fusion_lat": 0.0, "lat": 38.935590833333336, "is_reserved": 0}, {"lon": -77.043677, "fusion_lon": 0.0, "bike_id": "fee6c9c4bdcbd8ddf89c5a844b6773f8", "type": "electric_scooter", "name": "fee6c9c4bdcbd8ddf89c5a844b6773f8", "rental_uris": {"android": "https://dc.lft.to/lastmile_qr_scan", "ios": "https://dc.lft.to/lastmile_qr_scan"}, "is_disabled": 0, "fusion_lat": 0.0, "lat": 38.89727366666666, "is_reserved": 0}, {"lon": -77.03385333333334, "fusion_lon": 0.0, "bike_id": "1bcc3fbc2beb03725afd178770095c3c", "type": "electric_scooter", "name": "1bcc3fbc2beb03725afd178770095c3c", "rental_uris": {"android": "https://dc.lft.to/lastmile_qr_scan", "ios": "https://dc.lft.to/lastmile_qr_scan"}, "is_disabled": 0, "fusion_lat": 0.0, "lat": 38.921674833333334, "is_reserved": 0}, {"lon": -77.02762733333333, "fusion_lon": 0.0, "bike_id": "7288fa91aa0cfbd72db5b1b83b3cbaad", "type": "electric_scooter", "name": "7288fa91aa0cfbd72db5b1b83b3cbaad", "rental_uris": {"android": "https://dc.lft.to/lastmile_qr_scan", "ios": "https://dc.lft.to/lastmile_qr_scan"}, "is_disabled": 0, "fusion_lat": 0.0, "lat": 38.917014, "is_reserved": 0}, {"lon": -77.02389166666667, "fusion_lon": 0.0, "bike_id": "7006787bd78318a4defeca51682ea042", "type": "electric_scooter", "name": "7006787bd78318a4defeca51682ea042", "rental_uris": {"android": "https://dc.lft.to/lastmile_qr_scan", "ios": "https://dc.lft.to/lastmile_qr_scan"}, "is_disabled": 0, "fusion_lat": 0.0, "lat": 38.897346166666665, "is_reserved": 0}, {"lon": -77.01662416666667, "fusion_lon": 0.0, "bike_id": "14066cdfe332f30524a55f186cff324a", "type": "electric_scooter", "name": "14066cdfe332f30524a55f186cff324a", "rental_uris": {"android": "https://dc.lft.to/lastmile_qr_scan", "ios": "https://dc.lft.to/lastmile_qr_scan"}, "is_disabled": 0, "fusion_lat": 0.0, "lat": 38.90284183333333, "is_reserved": 0}, {"lon": -77.00712116666666, "fusion_lon": 0.0, "bike_id": "a379c84f40f89a6dc42c737dddcb8dfc", "type": "electric_scooter", "name": "a379c84f40f89a6dc42c737dddcb8dfc", "rental_uris": {"android": "https://dc.lft.to/lastmile_qr_scan", "ios": "https://dc.lft.to/lastmile_qr_scan"}, "is_disabled": 0, "fusion_lat": 0.0, "lat": 38.87730633333334, "is_reserved": 0}, {"lon": -77.02663583333333, "fusion_lon": 0.0, "bike_id": "a6df02867cf2bf419af8fd3e29dac6ea", "type": "electric_scooter", "name": "a6df02867cf2bf419af8fd3e29dac6ea", "rental_uris": {"android": "https://dc.lft.to/lastmile_qr_scan", "ios": "https://dc.lft.to/lastmile_qr_scan"}, "is_disabled": 0, "fusion_lat": 0.0, "lat": 38.916949833333334, "is_reserved": 0}, {"lon": -77.00059683333333, "fusion_lon": 0.0, "bike_id": "97912bf12117a263bc05b71c09d6e61e", "type": "electric_scooter", "name": "97912bf12117a263bc05b71c09d6e61e", "rental_uris": {"android": "https://dc.lft.to/lastmile_qr_scan", "ios": "https://dc.lft.to/lastmile_qr_scan"}, "is_disabled": 0, "fusion_lat": 0.0, "lat": 38.87679966666666, "is_reserved": 0}, {"lon": -77.036605, "fusion_lon": 0.0, "bike_id": "48bc724bda9f7b1056da76c49f0a8d41", "type": "electric_scooter", "name": "48bc724bda9f7b1056da76c49f0a8d41", "rental_uris": {"android": "https://dc.lft.to/lastmile_qr_scan", "ios": "https://dc.lft.to/lastmile_qr_scan"}, "is_disabled": 0, "fusion_lat": 0.0, "lat": 38.9221255, "is_reserved": 0}, {"lon": -77.02652116666667, "fusion_lon": 0.0, "bike_id": "f217bb6e50b4d050f683e40d2481be3a", "type": "electric_scooter", "name": "f217bb6e50b4d050f683e40d2481be3a", "rental_uris": {"android": "https://dc.lft.to/lastmile_qr_scan", "ios": "https://dc.lft.to/lastmile_qr_scan"}, "is_disabled": 0, "fusion_lat": 0.0, "lat": 38.93866216666667, "is_reserved": 0}, {"lon": -77.02805383333333, "fusion_lon": 0.0, "bike_id": "102a2b09264fffafe53fcc85c7db28dd", "type": "electric_scooter", "name": "102a2b09264fffafe53fcc85c7db28dd", "rental_uris": {"android": "https://dc.lft.to/lastmile_qr_scan", "ios": "https://dc.lft.to/lastmile_qr_scan"}, "is_disabled": 0, "fusion_lat": 0.0, "lat": 38.916463666666665, "is_reserved": 0}, {"lon": -76.9518655, "fusion_lon": 0.0, "bike_id": "3ea3cdefb0db9bc6694c12be2f05f46a", "type": "electric_scooter", "name": "3ea3cdefb0db9bc6694c12be2f05f46a", "rental_uris": {"android": "https://dc.lft.to/lastmile_qr_scan", "ios": "https://dc.lft.to/lastmile_qr_scan"}, "is_disabled": 0, "fusion_lat": 0.0, "lat": 38.89131866666666, "is_reserved": 0}, {"lon": -77.05316883333333, "fusion_lon": 0.0, "bike_id": "2d7b6562658e20d0af4c35c2f127d19f", "type": "electric_scooter", "name": "2d7b6562658e20d0af4c35c2f127d19f", "rental_uris": {"android": "https://dc.lft.to/lastmile_qr_scan", "ios": "https://dc.lft.to/lastmile_qr_scan"}, "is_disabled": 0, "fusion_lat": 0.0, "lat": 38.90636283333333, "is_reserved": 0}, {"lon": -77.04519833333333, "fusion_lon": 0.0, "bike_id": "64f2dcb72d34d02107bf66295e67dbb0", "type": "electric_scooter", "name": "64f2dcb72d34d02107bf66295e67dbb0", "rental_uris": {"android": "https://dc.lft.to/lastmile_qr_scan", "ios": "https://dc.lft.to/lastmile_qr_scan"}, "is_disabled": 0, "fusion_lat": 0.0, "lat": 38.9128485, "is_reserved": 0}, {"lon": -76.97616766666667, "fusion_lon": 0.0, "bike_id": "46fe010202b9705ec4889f2060c694bc", "type": "electric_scooter", "name": "46fe010202b9705ec4889f2060c694bc", "rental_uris": {"android": "https://dc.lft.to/lastmile_qr_scan", "ios": "https://dc.lft.to/lastmile_qr_scan"}, "is_disabled": 0, "fusion_lat": 0.0, "lat": 38.89281166666667, "is_reserved": 0}, {"lon": -77.037356, "fusion_lon": 0.0, "bike_id": "382a81c7302d3fc191fb5c4c3374ad37", "type": "electric_scooter", "name": "382a81c7302d3fc191fb5c4c3374ad37", "rental_uris": {"android": "https://dc.lft.to/lastmile_qr_scan", "ios": "https://dc.lft.to/lastmile_qr_scan"}, "is_disabled": 0, "fusion_lat": 0.0, "lat": 38.90381933333333, "is_reserved": 0}, {"lon": -77.04071866666666, "fusion_lon": 0.0, "bike_id": "28fbb867503af9196c2964213dc6ad66", "type": "electric_scooter", "name": "28fbb867503af9196c2964213dc6ad66", "rental_uris": {"android": "https://dc.lft.to/lastmile_qr_scan", "ios": "https://dc.lft.to/lastmile_qr_scan"}, "is_disabled": 0, "fusion_lat": 0.0, "lat": 38.9061415, "is_reserved": 0}, {"lon": -76.99850316666667, "fusion_lon": 0.0, "bike_id": "3f2138d7c2c4e7c2300a9146f2b718a5", "type": "electric_scooter", "name": "3f2138d7c2c4e7c2300a9146f2b718a5", "rental_uris": {"android": "https://dc.lft.to/lastmile_qr_scan", "ios": "https://dc.lft.to/lastmile_qr_scan"}, "is_disabled": 0, "fusion_lat": 0.0, "lat": 38.89185166666667, "is_reserved": 0}, {"lon": -77.03997916666667, "fusion_lon": 0.0, "bike_id": "70474d62645508d99fab45e15285c389", "type": "electric_bike", "name": "70474d62645508d99fab45e15285c389", "rental_uris": {"android": "https://dc.lft.to/lastmile_qr_scan", "ios": "https://dc.lft.to/lastmile_qr_scan"}, "is_disabled": 0, "fusion_lat": 0.0, "lat": 38.9963825, "is_reserved": 0}, {"lon": -77.03821816666667, "fusion_lon": 0.0, "bike_id": "99b6a63d9bc4ef85e82d0710e6ad8cc2", "type": "electric_scooter", "name": "99b6a63d9bc4ef85e82d0710e6ad8cc2", "rental_uris": {"android": "https://dc.lft.to/lastmile_qr_scan", "ios": "https://dc.lft.to/lastmile_qr_scan"}, "is_disabled": 0, "fusion_lat": 0.0, "lat": 38.90795083333333, "is_reserved": 0}, {"lon": -77.02403433333333, "fusion_lon": 0.0, "bike_id": "bda61787abcfac9d5225e7d1463fd036", "type": "electric_scooter", "name": "bda61787abcfac9d5225e7d1463fd036", "rental_uris": {"android": "https://dc.lft.to/lastmile_qr_scan", "ios": "https://dc.lft.to/lastmile_qr_scan"}, "is_disabled": 0, "fusion_lat": 0.0, "lat": 38.905696, "is_reserved": 0}, {"lon": -77.00600716666666, "fusion_lon": 0.0, "bike_id": "68094be271e77f0a8cae2b7fcfc74d46", "type": "electric_scooter", "name": "68094be271e77f0a8cae2b7fcfc74d46", "rental_uris": {"android": "https://dc.lft.to/lastmile_qr_scan", "ios": "https://dc.lft.to/lastmile_qr_scan"}, "is_disabled": 0, "fusion_lat": 0.0, "lat": 38.875632333333336, "is_reserved": 0}, {"lon": -77.04384366666666, "fusion_lon": 0.0, "bike_id": "6bddafa7718c6eb86d288f3a435265e3", "type": "electric_scooter", "name": "6bddafa7718c6eb86d288f3a435265e3", "rental_uris": {"android": "https://dc.lft.to/lastmile_qr_scan", "ios": "https://dc.lft.to/lastmile_qr_scan"}, "is_disabled": 0, "fusion_lat": 0.0, "lat": 38.91038733333333, "is_reserved": 0}, {"lon": -77.01664733333334, "fusion_lon": 0.0, "bike_id": "b2250f3a7f02938b1f21497a0f296cdf", "type": "electric_scooter", "name": "b2250f3a7f02938b1f21497a0f296cdf", "rental_uris": {"android": "https://dc.lft.to/lastmile_qr_scan", "ios": "https://dc.lft.to/lastmile_qr_scan"}, "is_disabled": 0, "fusion_lat": 0.0, "lat": 38.88111966666666, "is_reserved": 0}, {"lon": -77.03636233333333, "fusion_lon": 0.0, "bike_id": "f2a08d15f22a18b1862b48af7c5d3b6c", "type": "electric_scooter", "name": "f2a08d15f22a18b1862b48af7c5d3b6c", "rental_uris": {"android": "https://dc.lft.to/lastmile_qr_scan", "ios": "https://dc.lft.to/lastmile_qr_scan"}, "is_disabled": 0, "fusion_lat": 0.0, "lat": 38.927358166666664, "is_reserved": 0}, {"lon": -77.03044566666667, "fusion_lon": 0.0, "bike_id": "d4c91b3e6db0ad3c3b2649cec1b3fa3e", "type": "electric_scooter", "name": "d4c91b3e6db0ad3c3b2649cec1b3fa3e", "rental_uris": {"android": "https://dc.lft.to/lastmile_qr_scan", "ios": "https://dc.lft.to/lastmile_qr_scan"}, "is_disabled": 0, "fusion_lat": 0.0, "lat": 38.91616366666667, "is_reserved": 0}, {"lon": -77.03408966666667, "fusion_lon": 0.0, "bike_id": "5dc03dfe8be68840a1f151f6ab6b3d05", "type": "electric_scooter", "name": "5dc03dfe8be68840a1f151f6ab6b3d05", "rental_uris": {"android": "https://dc.lft.to/lastmile_qr_scan", "ios": "https://dc.lft.to/lastmile_qr_scan"}, "is_disabled": 0, "fusion_lat": 0.0, "lat": 38.9219535, "is_reserved": 0}, {"lon": -77.0220105, "fusion_lon": 0.0, "bike_id": "ae5c4773c8d47e87d4a28c3cf6835321", "type": "electric_scooter", "name": "ae5c4773c8d47e87d4a28c3cf6835321", "rental_uris": {"android": "https://dc.lft.to/lastmile_qr_scan", "ios": "https://dc.lft.to/lastmile_qr_scan"}, "is_disabled": 0, "fusion_lat": 0.0, "lat": 38.9112405, "is_reserved": 0}, {"lon": -76.98375233333333, "fusion_lon": 0.0, "bike_id": "e809193b08e6dc43e03b62e581cb100e", "type": "electric_scooter", "name": "e809193b08e6dc43e03b62e581cb100e", "rental_uris": {"android": "https://dc.lft.to/lastmile_qr_scan", "ios": "https://dc.lft.to/lastmile_qr_scan"}, "is_disabled": 0, "fusion_lat": 0.0, "lat": 38.914886333333335, "is_reserved": 0}, {"lon": -77.05507033333333, "fusion_lon": 0.0, "bike_id": "8bfac5add8fb9847c40e0bc9b81532dc", "type": "electric_scooter", "name": "8bfac5add8fb9847c40e0bc9b81532dc", "rental_uris": {"android": "https://dc.lft.to/lastmile_qr_scan", "ios": "https://dc.lft.to/lastmile_qr_scan"}, "is_disabled": 0, "fusion_lat": 0.0, "lat": 38.929439, "is_reserved": 0}, {"lon": -77.04153566666666, "fusion_lon": 0.0, "bike_id": "2960eb969eccfaa2e215661c6041cf22", "type": "electric_scooter", "name": "2960eb969eccfaa2e215661c6041cf22", "rental_uris": {"android": "https://dc.lft.to/lastmile_qr_scan", "ios": "https://dc.lft.to/lastmile_qr_scan"}, "is_disabled": 0, "fusion_lat": 0.0, "lat": 38.9194435, "is_reserved": 0}, {"lon": -77.01733983333334, "fusion_lon": 0.0, "bike_id": "713fb45882c18d890f9e8637448d0478", "type": "electric_scooter", "name": "713fb45882c18d890f9e8637448d0478", "rental_uris": {"android": "https://dc.lft.to/lastmile_qr_scan", "ios": "https://dc.lft.to/lastmile_qr_scan"}, "is_disabled": 0, "fusion_lat": 0.0, "lat": 38.916072666666665, "is_reserved": 0}, {"lon": -77.00069433333333, "fusion_lon": 0.0, "bike_id": "48f5fff831b78366b4f3b5222c8cfe4b", "type": "electric_scooter", "name": "48f5fff831b78366b4f3b5222c8cfe4b", "rental_uris": {"android": "https://dc.lft.to/lastmile_qr_scan", "ios": "https://dc.lft.to/lastmile_qr_scan"}, "is_disabled": 0, "fusion_lat": 0.0, "lat": 38.873778333333334, "is_reserved": 0}, {"lon": -77.034373, "fusion_lon": 0.0, "bike_id": "9d5034cc14ed8f4788cb685521d9aaf2", "type": "electric_scooter", "name": "9d5034cc14ed8f4788cb685521d9aaf2", "rental_uris": {"android": "https://dc.lft.to/lastmile_qr_scan", "ios": "https://dc.lft.to/lastmile_qr_scan"}, "is_disabled": 0, "fusion_lat": 0.0, "lat": 38.908401, "is_reserved": 0}, {"lon": -76.948918, "fusion_lon": 0.0, "bike_id": "9c4bf4c53797c788ea60dc2a4e4a0e16", "type": "electric_scooter", "name": "9c4bf4c53797c788ea60dc2a4e4a0e16", "rental_uris": {"android": "https://dc.lft.to/lastmile_qr_scan", "ios": "https://dc.lft.to/lastmile_qr_scan"}, "is_disabled": 0, "fusion_lat": 0.0, "lat": 38.895331166666665, "is_reserved": 0}, {"lon": -77.0526305, "fusion_lon": 0.0, "bike_id": "9c5a24b066a4b3db1160df3e6db192a3", "type": "electric_scooter", "name": "9c5a24b066a4b3db1160df3e6db192a3", "rental_uris": {"android": "https://dc.lft.to/lastmile_qr_scan", "ios": "https://dc.lft.to/lastmile_qr_scan"}, "is_disabled": 0, "fusion_lat": 0.0, "lat": 38.927812333333335, "is_reserved": 0}, {"lon": -76.916002, "fusion_lon": 0.0, "bike_id": "1d03ab7afd74b975613ff16101c65cc9", "type": "electric_bike", "name": "1d03ab7afd74b975613ff16101c65cc9", "rental_uris": {"android": "https://dc.lft.to/lastmile_qr_scan", "ios": "https://dc.lft.to/lastmile_qr_scan"}, "is_disabled": 0, "fusion_lat": 0.0, "lat": 38.8798335, "is_reserved": 0}, {"lon": -76.94893450000001, "fusion_lon": 0.0, "bike_id": "36e2a240523f3b7c5d080413d2fe074e", "type": "electric_scooter", "name": "36e2a240523f3b7c5d080413d2fe074e", "rental_uris": {"android": "https://dc.lft.to/lastmile_qr_scan", "ios": "https://dc.lft.to/lastmile_qr_scan"}, "is_disabled": 0, "fusion_lat": 0.0, "lat": 38.895332833333335, "is_reserved": 0}, {"lon": -77.02789383333334, "fusion_lon": 0.0, "bike_id": "9dbcf29c155946f819cfd133e6db0eab", "type": "electric_scooter", "name": "9dbcf29c155946f819cfd133e6db0eab", "rental_uris": {"android": "https://dc.lft.to/lastmile_qr_scan", "ios": "https://dc.lft.to/lastmile_qr_scan"}, "is_disabled": 0, "fusion_lat": 0.0, "lat": 38.917069833333336, "is_reserved": 0}, {"lon": -77.0320005, "fusion_lon": 0.0, "bike_id": "31d6021c47621a8ac5e842416b3843cc", "type": "electric_scooter", "name": "31d6021c47621a8ac5e842416b3843cc", "rental_uris": {"android": "https://dc.lft.to/lastmile_qr_scan", "ios": "https://dc.lft.to/lastmile_qr_scan"}, "is_disabled": 0, "fusion_lat": 0.0, "lat": 38.89238433333333, "is_reserved": 0}, {"lon": -76.94859, "fusion_lon": 0.0, "bike_id": "1f74cc9ec1b95cea14a5eb9f2674a2b5", "type": "electric_scooter", "name": "1f74cc9ec1b95cea14a5eb9f2674a2b5", "rental_uris": {"android": "https://dc.lft.to/lastmile_qr_scan", "ios": "https://dc.lft.to/lastmile_qr_scan"}, "is_disabled": 0, "fusion_lat": 0.0, "lat": 38.88301833333333, "is_reserved": 0}, {"lon": -77.042251, "fusion_lon": 0.0, "bike_id": "e0aa67efbb64bf2a4d5a9efdc95aab09", "type": "electric_scooter", "name": "e0aa67efbb64bf2a4d5a9efdc95aab09", "rental_uris": {"android": "https://dc.lft.to/lastmile_qr_scan", "ios": "https://dc.lft.to/lastmile_qr_scan"}, "is_disabled": 0, "fusion_lat": 0.0, "lat": 38.911055, "is_reserved": 0}, {"lon": -77.0342455, "fusion_lon": 0.0, "bike_id": "de165b8374ad262845b379596cad7ed8", "type": "electric_scooter", "name": "de165b8374ad262845b379596cad7ed8", "rental_uris": {"android": "https://dc.lft.to/lastmile_qr_scan", "ios": "https://dc.lft.to/lastmile_qr_scan"}, "is_disabled": 0, "fusion_lat": 0.0, "lat": 38.9096175, "is_reserved": 0}, {"lon": -77.038324, "fusion_lon": 0.0, "bike_id": "3c5aaf7d7282063daa00ddea2cc7681d", "type": "electric_scooter", "name": "3c5aaf7d7282063daa00ddea2cc7681d", "rental_uris": {"android": "https://dc.lft.to/lastmile_qr_scan", "ios": "https://dc.lft.to/lastmile_qr_scan"}, "is_disabled": 0, "fusion_lat": 0.0, "lat": 38.90692266666667, "is_reserved": 0}, {"lon": -77.04160633333333, "fusion_lon": 0.0, "bike_id": "2467822d6add8f3a529dd63c62fca736", "type": "electric_scooter", "name": "2467822d6add8f3a529dd63c62fca736", "rental_uris": {"android": "https://dc.lft.to/lastmile_qr_scan", "ios": "https://dc.lft.to/lastmile_qr_scan"}, "is_disabled": 0, "fusion_lat": 0.0, "lat": 38.892306833333336, "is_reserved": 0}, {"lon": -77.06415116666666, "fusion_lon": 0.0, "bike_id": "b2355526882c18e6fad09af7b2de4e21", "type": "electric_scooter", "name": "b2355526882c18e6fad09af7b2de4e21", "rental_uris": {"android": "https://dc.lft.to/lastmile_qr_scan", "ios": "https://dc.lft.to/lastmile_qr_scan"}, "is_disabled": 0, "fusion_lat": 0.0, "lat": 38.91343883333333, "is_reserved": 0}, {"lon": -77.02094, "fusion_lon": 0.0, "bike_id": "d992a5e8af2e94049b63473f0f4e9d09", "type": "electric_bike", "name": "d992a5e8af2e94049b63473f0f4e9d09", "rental_uris": {"android": "https://dc.lft.to/lastmile_qr_scan", "ios": "https://dc.lft.to/lastmile_qr_scan"}, "is_disabled": 0, "fusion_lat": 0.0, "lat": 38.9116765, "is_reserved": 0}, {"lon": -77.01681466666666, "fusion_lon": 0.0, "bike_id": "fb115f0bdfc0cbbcc39dd4ad05d21cae", "type": "electric_scooter", "name": "fb115f0bdfc0cbbcc39dd4ad05d21cae", "rental_uris": {"android": "https://dc.lft.to/lastmile_qr_scan", "ios": "https://dc.lft.to/lastmile_qr_scan"}, "is_disabled": 0, "fusion_lat": 0.0, "lat": 38.88112683333333, "is_reserved": 0}, {"lon": -77.03739816666666, "fusion_lon": 0.0, "bike_id": "0b288cfcfde44e1eaa363e117f625766", "type": "electric_scooter", "name": "0b288cfcfde44e1eaa363e117f625766", "rental_uris": {"android": "https://dc.lft.to/lastmile_qr_scan", "ios": "https://dc.lft.to/lastmile_qr_scan"}, "is_disabled": 0, "fusion_lat": 0.0, "lat": 38.92876283333333, "is_reserved": 0}, {"lon": -77.030706, "fusion_lon": 0.0, "bike_id": "b9b6ab80a01ee23a523377ea27e29143", "type": "electric_scooter", "name": "b9b6ab80a01ee23a523377ea27e29143", "rental_uris": {"android": "https://dc.lft.to/lastmile_qr_scan", "ios": "https://dc.lft.to/lastmile_qr_scan"}, "is_disabled": 0, "fusion_lat": 0.0, "lat": 38.92246566666667, "is_reserved": 0}, {"lon": -76.99695166666666, "fusion_lon": 0.0, "bike_id": "cb966b636d422437678686dab1c10e03", "type": "electric_scooter", "name": "cb966b636d422437678686dab1c10e03", "rental_uris": {"android": "https://dc.lft.to/lastmile_qr_scan", "ios": "https://dc.lft.to/lastmile_qr_scan"}, "is_disabled": 0, "fusion_lat": 0.0, "lat": 38.8842305, "is_reserved": 0}, {"lon": -76.997345, "fusion_lon": 0.0, "bike_id": "25a2a4d5d548b403d5eef50f422f9472", "type": "electric_scooter", "name": "25a2a4d5d548b403d5eef50f422f9472", "rental_uris": {"android": "https://dc.lft.to/lastmile_qr_scan", "ios": "https://dc.lft.to/lastmile_qr_scan"}, "is_disabled": 0, "fusion_lat": 0.0, "lat": 38.89931, "is_reserved": 0}, {"lon": -77.0318985, "fusion_lon": 0.0, "bike_id": "3563dff921db5c0f2b6cea1cec304983", "type": "electric_scooter", "name": "3563dff921db5c0f2b6cea1cec304983", "rental_uris": {"android": "https://dc.lft.to/lastmile_qr_scan", "ios": "https://dc.lft.to/lastmile_qr_scan"}, "is_disabled": 0, "fusion_lat": 0.0, "lat": 38.917821833333335, "is_reserved": 0}, {"lon": -76.9463565, "fusion_lon": 0.0, "bike_id": "5e549cad629266029d063c8dfe4f63f3", "type": "electric_scooter", "name": "5e549cad629266029d063c8dfe4f63f3", "rental_uris": {"android": "https://dc.lft.to/lastmile_qr_scan", "ios": "https://dc.lft.to/lastmile_qr_scan"}, "is_disabled": 0, "fusion_lat": 0.0, "lat": 38.89827866666667, "is_reserved": 0}, {"lon": -77.02170216666667, "fusion_lon": 0.0, "bike_id": "e003c6fe4c65650caa3d1575bc0d6574", "type": "electric_scooter", "name": "e003c6fe4c65650caa3d1575bc0d6574", "rental_uris": {"android": "https://dc.lft.to/lastmile_qr_scan", "ios": "https://dc.lft.to/lastmile_qr_scan"}, "is_disabled": 0, "fusion_lat": 0.0, "lat": 38.942908333333335, "is_reserved": 0}, {"lon": -76.99770183333334, "fusion_lon": 0.0, "bike_id": "98c66a339948a4089029ce39a9726904", "type": "electric_scooter", "name": "98c66a339948a4089029ce39a9726904", "rental_uris": {"android": "https://dc.lft.to/lastmile_qr_scan", "ios": "https://dc.lft.to/lastmile_qr_scan"}, "is_disabled": 0, "fusion_lat": 0.0, "lat": 38.90890183333333, "is_reserved": 0}, {"lon": -77.031885, "fusion_lon": 0.0, "bike_id": "0c2176081516e9699448c5316d818957", "type": "electric_scooter", "name": "0c2176081516e9699448c5316d818957", "rental_uris": {"android": "https://dc.lft.to/lastmile_qr_scan", "ios": "https://dc.lft.to/lastmile_qr_scan"}, "is_disabled": 0, "fusion_lat": 0.0, "lat": 38.9193095, "is_reserved": 0}, {"lon": -77.038867, "fusion_lon": 0.0, "bike_id": "efd0f397f078dad273a25541b217c2a6", "type": "electric_scooter", "name": "efd0f397f078dad273a25541b217c2a6", "rental_uris": {"android": "https://dc.lft.to/lastmile_qr_scan", "ios": "https://dc.lft.to/lastmile_qr_scan"}, "is_disabled": 0, "fusion_lat": 0.0, "lat": 38.914683333333336, "is_reserved": 0}, {"lon": -77.10787416666666, "fusion_lon": 0.0, "bike_id": "6039f3fbb58ece581638297a1972fe53", "type": "electric_bike", "name": "6039f3fbb58ece581638297a1972fe53", "rental_uris": {"android": "https://dc.lft.to/lastmile_qr_scan", "ios": "https://dc.lft.to/lastmile_qr_scan"}, "is_disabled": 0, "fusion_lat": 0.0, "lat": 38.852466, "is_reserved": 0}, {"lon": -77.03441033333333, "fusion_lon": 0.0, "bike_id": "b87a3d1698f30b51aa31ea67dbee666e", "type": "electric_scooter", "name": "b87a3d1698f30b51aa31ea67dbee666e", "rental_uris": {"android": "https://dc.lft.to/lastmile_qr_scan", "ios": "https://dc.lft.to/lastmile_qr_scan"}, "is_disabled": 0, "fusion_lat": 0.0, "lat": 38.909788666666664, "is_reserved": 0}, {"lon": -77.05042183333333, "fusion_lon": 0.0, "bike_id": "877ff0e43952c8804da9136921910428", "type": "electric_scooter", "name": "877ff0e43952c8804da9136921910428", "rental_uris": {"android": "https://dc.lft.to/lastmile_qr_scan", "ios": "https://dc.lft.to/lastmile_qr_scan"}, "is_disabled": 0, "fusion_lat": 0.0, "lat": 38.923388, "is_reserved": 0}, {"lon": -77.0449205, "fusion_lon": 0.0, "bike_id": "c53c59098b1242eb1cadf5a02e367c0c", "type": "electric_scooter", "name": "c53c59098b1242eb1cadf5a02e367c0c", "rental_uris": {"android": "https://dc.lft.to/lastmile_qr_scan", "ios": "https://dc.lft.to/lastmile_qr_scan"}, "is_disabled": 0, "fusion_lat": 0.0, "lat": 38.91101883333333, "is_reserved": 0}, {"lon": -77.044731, "fusion_lon": 0.0, "bike_id": "179fe38416279bdfec990cb21b5ce006", "type": "electric_scooter", "name": "179fe38416279bdfec990cb21b5ce006", "rental_uris": {"android": "https://dc.lft.to/lastmile_qr_scan", "ios": "https://dc.lft.to/lastmile_qr_scan"}, "is_disabled": 0, "fusion_lat": 0.0, "lat": 38.89931683333333, "is_reserved": 0}, {"lon": -76.99517216666666, "fusion_lon": 0.0, "bike_id": "3376f15a70070b70287bebb60d5348ea", "type": "electric_bike", "name": "3376f15a70070b70287bebb60d5348ea", "rental_uris": {"android": "https://dc.lft.to/lastmile_qr_scan", "ios": "https://dc.lft.to/lastmile_qr_scan"}, "is_disabled": 0, "fusion_lat": 0.0, "lat": 38.821741, "is_reserved": 0}, {"lon": -76.99128816666666, "fusion_lon": 0.0, "bike_id": "6f49a4ecb07ad4392f41bc1c5262b9a9", "type": "electric_scooter", "name": "6f49a4ecb07ad4392f41bc1c5262b9a9", "rental_uris": {"android": "https://dc.lft.to/lastmile_qr_scan", "ios": "https://dc.lft.to/lastmile_qr_scan"}, "is_disabled": 0, "fusion_lat": 0.0, "lat": 38.84638, "is_reserved": 0}, {"lon": -76.98547583333334, "fusion_lon": 0.0, "bike_id": "db71543067cef723bd7b611bfac7b99e", "type": "electric_scooter", "name": "db71543067cef723bd7b611bfac7b99e", "rental_uris": {"android": "https://dc.lft.to/lastmile_qr_scan", "ios": "https://dc.lft.to/lastmile_qr_scan"}, "is_disabled": 0, "fusion_lat": 0.0, "lat": 38.8668915, "is_reserved": 0}, {"lon": -77.02353716666667, "fusion_lon": 0.0, "bike_id": "54533be36e1f66080b59aa0bd313caab", "type": "electric_scooter", "name": "54533be36e1f66080b59aa0bd313caab", "rental_uris": {"android": "https://dc.lft.to/lastmile_qr_scan", "ios": "https://dc.lft.to/lastmile_qr_scan"}, "is_disabled": 0, "fusion_lat": 0.0, "lat": 38.93531083333333, "is_reserved": 0}, {"lon": -77.02207433333334, "fusion_lon": 0.0, "bike_id": "85699bb4fb817e506d043c42b7a78295", "type": "electric_bike", "name": "85699bb4fb817e506d043c42b7a78295", "rental_uris": {"android": "https://dc.lft.to/lastmile_qr_scan", "ios": "https://dc.lft.to/lastmile_qr_scan"}, "is_disabled": 0, "fusion_lat": 0.0, "lat": 38.93397133333333, "is_reserved": 0}, {"lon": -77.03965183333334, "fusion_lon": 0.0, "bike_id": "5de59c00b8904d87fc355a845937f205", "type": "electric_scooter", "name": "5de59c00b8904d87fc355a845937f205", "rental_uris": {"android": "https://dc.lft.to/lastmile_qr_scan", "ios": "https://dc.lft.to/lastmile_qr_scan"}, "is_disabled": 0, "fusion_lat": 0.0, "lat": 38.91709916666667, "is_reserved": 0}, {"lon": -77.00071183333333, "fusion_lon": 0.0, "bike_id": "13d35391192d4f85545a7c5ffc5862c3", "type": "electric_scooter", "name": "13d35391192d4f85545a7c5ffc5862c3", "rental_uris": {"android": "https://dc.lft.to/lastmile_qr_scan", "ios": "https://dc.lft.to/lastmile_qr_scan"}, "is_disabled": 0, "fusion_lat": 0.0, "lat": 38.92540566666667, "is_reserved": 0}, {"lon": -77.0332185, "fusion_lon": 0.0, "bike_id": "bf6fc2c65fe0471ed69161a18ab466a3", "type": "electric_scooter", "name": "bf6fc2c65fe0471ed69161a18ab466a3", "rental_uris": {"android": "https://dc.lft.to/lastmile_qr_scan", "ios": "https://dc.lft.to/lastmile_qr_scan"}, "is_disabled": 0, "fusion_lat": 0.0, "lat": 38.890090666666666, "is_reserved": 0}, {"lon": -77.02808316666666, "fusion_lon": 0.0, "bike_id": "bd84ce6e3b866cacf8998aa1270918b6", "type": "electric_scooter", "name": "bd84ce6e3b866cacf8998aa1270918b6", "rental_uris": {"android": "https://dc.lft.to/lastmile_qr_scan", "ios": "https://dc.lft.to/lastmile_qr_scan"}, "is_disabled": 0, "fusion_lat": 0.0, "lat": 38.89332983333333, "is_reserved": 0}, {"lon": -77.099609, "fusion_lon": 0.0, "bike_id": "2f7e1965751228797e180cc7ca9aafb5", "type": "electric_bike", "name": "2f7e1965751228797e180cc7ca9aafb5", "rental_uris": {"android": "https://dc.lft.to/lastmile_qr_scan", "ios": "https://dc.lft.to/lastmile_qr_scan"}, "is_disabled": 0, "fusion_lat": 0.0, "lat": 38.85786733333333, "is_reserved": 0}, {"lon": -76.98763733333334, "fusion_lon": 0.0, "bike_id": "012522cecede3d664a6c8b9eb1449987", "type": "electric_scooter", "name": "012522cecede3d664a6c8b9eb1449987", "rental_uris": {"android": "https://dc.lft.to/lastmile_qr_scan", "ios": "https://dc.lft.to/lastmile_qr_scan"}, "is_disabled": 0, "fusion_lat": 0.0, "lat": 38.900222, "is_reserved": 0}, {"lon": -76.97232, "fusion_lon": 0.0, "bike_id": "a71cd81fc480ad3c0c3814c4b5bb74c6", "type": "electric_bike", "name": "a71cd81fc480ad3c0c3814c4b5bb74c6", "rental_uris": {"android": "https://dc.lft.to/lastmile_qr_scan", "ios": "https://dc.lft.to/lastmile_qr_scan"}, "is_disabled": 0, "fusion_lat": 0.0, "lat": 38.9042485, "is_reserved": 0}, {"lon": -77.031294, "fusion_lon": 0.0, "bike_id": "ea77e990efaf4c7408dd4735950bfdb3", "type": "electric_scooter", "name": "ea77e990efaf4c7408dd4735950bfdb3", "rental_uris": {"android": "https://dc.lft.to/lastmile_qr_scan", "ios": "https://dc.lft.to/lastmile_qr_scan"}, "is_disabled": 0, "fusion_lat": 0.0, "lat": 38.9169725, "is_reserved": 0}, {"lon": -77.00607766666667, "fusion_lon": 0.0, "bike_id": "2dbc91ebaa09e58d307f056105bd7aa4", "type": "electric_scooter", "name": "2dbc91ebaa09e58d307f056105bd7aa4", "rental_uris": {"android": "https://dc.lft.to/lastmile_qr_scan", "ios": "https://dc.lft.to/lastmile_qr_scan"}, "is_disabled": 0, "fusion_lat": 0.0, "lat": 38.87178216666667, "is_reserved": 0}, {"lon": -77.045375, "fusion_lon": 0.0, "bike_id": "c7117282ae5dac0287cd0dcb9d80605b", "type": "electric_bike", "name": "c7117282ae5dac0287cd0dcb9d80605b", "rental_uris": {"android": "https://dc.lft.to/lastmile_qr_scan", "ios": "https://dc.lft.to/lastmile_qr_scan"}, "is_disabled": 0, "fusion_lat": 0.0, "lat": 39.033062, "is_reserved": 0}, {"lon": -77.02094583333333, "fusion_lon": 0.0, "bike_id": "186bf67a7ff500da06324ab903bf97ce", "type": "electric_scooter", "name": "186bf67a7ff500da06324ab903bf97ce", "rental_uris": {"android": "https://dc.lft.to/lastmile_qr_scan", "ios": "https://dc.lft.to/lastmile_qr_scan"}, "is_disabled": 0, "fusion_lat": 0.0, "lat": 38.96649933333333, "is_reserved": 0}, {"lon": -77.03962866666667, "fusion_lon": 0.0, "bike_id": "e8ad90a6bb76406887b502f1cc8632c0", "type": "electric_scooter", "name": "e8ad90a6bb76406887b502f1cc8632c0", "rental_uris": {"android": "https://dc.lft.to/lastmile_qr_scan", "ios": "https://dc.lft.to/lastmile_qr_scan"}, "is_disabled": 0, "fusion_lat": 0.0, "lat": 38.90395183333333, "is_reserved": 0}, {"lon": -77.0422715, "fusion_lon": 0.0, "bike_id": "7481c544880f7f39da3a5bda62a71d68", "type": "electric_scooter", "name": "7481c544880f7f39da3a5bda62a71d68", "rental_uris": {"android": "https://dc.lft.to/lastmile_qr_scan", "ios": "https://dc.lft.to/lastmile_qr_scan"}, "is_disabled": 0, "fusion_lat": 0.0, "lat": 38.91419066666667, "is_reserved": 0}, {"lon": -76.9583795, "fusion_lon": 0.0, "bike_id": "30987861539df88dbe1f371a96a4b7b5", "type": "electric_bike", "name": "30987861539df88dbe1f371a96a4b7b5", "rental_uris": {"android": "https://dc.lft.to/lastmile_qr_scan", "ios": "https://dc.lft.to/lastmile_qr_scan"}, "is_disabled": 0, "fusion_lat": 0.0, "lat": 38.93046066666667, "is_reserved": 0}, {"lon": -77.05148416666667, "fusion_lon": 0.0, "bike_id": "6190de913f09607d4a9946b0768975bd", "type": "electric_scooter", "name": "6190de913f09607d4a9946b0768975bd", "rental_uris": {"android": "https://dc.lft.to/lastmile_qr_scan", "ios": "https://dc.lft.to/lastmile_qr_scan"}, "is_disabled": 0, "fusion_lat": 0.0, "lat": 38.92376816666667, "is_reserved": 0}, {"lon": -77.01945216666667, "fusion_lon": 0.0, "bike_id": "b68f6833add98f907c0792ccb3c82c9e", "type": "electric_scooter", "name": "b68f6833add98f907c0792ccb3c82c9e", "rental_uris": {"android": "https://dc.lft.to/lastmile_qr_scan", "ios": "https://dc.lft.to/lastmile_qr_scan"}, "is_disabled": 0, "fusion_lat": 0.0, "lat": 38.924054166666664, "is_reserved": 0}, {"lon": -77.03857966666666, "fusion_lon": 0.0, "bike_id": "3076861b85f957a3f70c3e1733fb8e1e", "type": "electric_scooter", "name": "3076861b85f957a3f70c3e1733fb8e1e", "rental_uris": {"android": "https://dc.lft.to/lastmile_qr_scan", "ios": "https://dc.lft.to/lastmile_qr_scan"}, "is_disabled": 0, "fusion_lat": 0.0, "lat": 38.915426833333335, "is_reserved": 0}, {"lon": -77.04003333333333, "fusion_lon": 0.0, "bike_id": "1bf5671fbcd8c4dca8d081a3a7d62566", "type": "electric_scooter", "name": "1bf5671fbcd8c4dca8d081a3a7d62566", "rental_uris": {"android": "https://dc.lft.to/lastmile_qr_scan", "ios": "https://dc.lft.to/lastmile_qr_scan"}, "is_disabled": 0, "fusion_lat": 0.0, "lat": 38.903305833333334, "is_reserved": 0}, {"lon": -77.009336, "fusion_lon": 0.0, "bike_id": "5cf7f94269cf9fede7f6f191e9473824", "type": "electric_scooter", "name": "5cf7f94269cf9fede7f6f191e9473824", "rental_uris": {"android": "https://dc.lft.to/lastmile_qr_scan", "ios": "https://dc.lft.to/lastmile_qr_scan"}, "is_disabled": 0, "fusion_lat": 0.0, "lat": 38.912657, "is_reserved": 0}, {"lon": -77.0262785, "fusion_lon": 0.0, "bike_id": "54ecfdfb3c75d9f590943d78baad27af", "type": "electric_scooter", "name": "54ecfdfb3c75d9f590943d78baad27af", "rental_uris": {"android": "https://dc.lft.to/lastmile_qr_scan", "ios": "https://dc.lft.to/lastmile_qr_scan"}, "is_disabled": 0, "fusion_lat": 0.0, "lat": 38.8876625, "is_reserved": 0}, {"lon": -77.02417433333333, "fusion_lon": 0.0, "bike_id": "ca8bc86901011a861c6d5a0a1941da5d", "type": "electric_scooter", "name": "ca8bc86901011a861c6d5a0a1941da5d", "rental_uris": {"android": "https://dc.lft.to/lastmile_qr_scan", "ios": "https://dc.lft.to/lastmile_qr_scan"}, "is_disabled": 0, "fusion_lat": 0.0, "lat": 38.9249865, "is_reserved": 0}, {"lon": -76.96824616666666, "fusion_lon": 0.0, "bike_id": "db6411e3fa5fc745f1cf38bcda6a679a", "type": "electric_scooter", "name": "db6411e3fa5fc745f1cf38bcda6a679a", "rental_uris": {"android": "https://dc.lft.to/lastmile_qr_scan", "ios": "https://dc.lft.to/lastmile_qr_scan"}, "is_disabled": 0, "fusion_lat": 0.0, "lat": 38.8733105, "is_reserved": 0}, {"lon": -77.03341333333333, "fusion_lon": 0.0, "bike_id": "09ee7b57ff95e4ec95d49f1eedf0b6c0", "type": "electric_scooter", "name": "09ee7b57ff95e4ec95d49f1eedf0b6c0", "rental_uris": {"android": "https://dc.lft.to/lastmile_qr_scan", "ios": "https://dc.lft.to/lastmile_qr_scan"}, "is_disabled": 0, "fusion_lat": 0.0, "lat": 38.928828, "is_reserved": 0}, {"lon": -77.0418595, "fusion_lon": 0.0, "bike_id": "36c0de835422c2c83cb36dc5cf01fe3e", "type": "electric_scooter", "name": "36c0de835422c2c83cb36dc5cf01fe3e", "rental_uris": {"android": "https://dc.lft.to/lastmile_qr_scan", "ios": "https://dc.lft.to/lastmile_qr_scan"}, "is_disabled": 0, "fusion_lat": 0.0, "lat": 38.920526833333334, "is_reserved": 0}, {"lon": -76.98144616666667, "fusion_lon": 0.0, "bike_id": "b67e15eb0dc6a9496047c0164454c8c7", "type": "electric_scooter", "name": "b67e15eb0dc6a9496047c0164454c8c7", "rental_uris": {"android": "https://dc.lft.to/lastmile_qr_scan", "ios": "https://dc.lft.to/lastmile_qr_scan"}, "is_disabled": 0, "fusion_lat": 0.0, "lat": 38.897477333333335, "is_reserved": 0}, {"lon": -77.02694716666667, "fusion_lon": 0.0, "bike_id": "8e185b7990087783b79a07d027cc5e92", "type": "electric_scooter", "name": "8e185b7990087783b79a07d027cc5e92", "rental_uris": {"android": "https://dc.lft.to/lastmile_qr_scan", "ios": "https://dc.lft.to/lastmile_qr_scan"}, "is_disabled": 0, "fusion_lat": 0.0, "lat": 38.9068155, "is_reserved": 0}, {"lon": -77.00717166666666, "fusion_lon": 0.0, "bike_id": "acf5faa85827df812e848454952a4f6d", "type": "electric_scooter", "name": "acf5faa85827df812e848454952a4f6d", "rental_uris": {"android": "https://dc.lft.to/lastmile_qr_scan", "ios": "https://dc.lft.to/lastmile_qr_scan"}, "is_disabled": 0, "fusion_lat": 0.0, "lat": 38.925423, "is_reserved": 0}, {"lon": -77.057248, "fusion_lon": 0.0, "bike_id": "3b6f12fed9c7810b40dbc69620e4f33d", "type": "electric_scooter", "name": "3b6f12fed9c7810b40dbc69620e4f33d", "rental_uris": {"android": "https://dc.lft.to/lastmile_qr_scan", "ios": "https://dc.lft.to/lastmile_qr_scan"}, "is_disabled": 0, "fusion_lat": 0.0, "lat": 38.933580166666665, "is_reserved": 0}, {"lon": -77.022901, "fusion_lon": 0.0, "bike_id": "752e3b0bb546723be4ef2a294049855b", "type": "electric_scooter", "name": "752e3b0bb546723be4ef2a294049855b", "rental_uris": {"android": "https://dc.lft.to/lastmile_qr_scan", "ios": "https://dc.lft.to/lastmile_qr_scan"}, "is_disabled": 0, "fusion_lat": 0.0, "lat": 38.897043833333335, "is_reserved": 0}, {"lon": -77.07862866666666, "fusion_lon": 0.0, "bike_id": "789f5e7d6498148d02659a4a004fde64", "type": "electric_bike", "name": "789f5e7d6498148d02659a4a004fde64", "rental_uris": {"android": "https://dc.lft.to/lastmile_qr_scan", "ios": "https://dc.lft.to/lastmile_qr_scan"}, "is_disabled": 0, "fusion_lat": 0.0, "lat": 38.8939895, "is_reserved": 0}, {"lon": -77.03369983333333, "fusion_lon": 0.0, "bike_id": "e633801f164dce0033cbd107a16050ab", "type": "electric_scooter", "name": "e633801f164dce0033cbd107a16050ab", "rental_uris": {"android": "https://dc.lft.to/lastmile_qr_scan", "ios": "https://dc.lft.to/lastmile_qr_scan"}, "is_disabled": 0, "fusion_lat": 0.0, "lat": 38.903088, "is_reserved": 0}, {"lon": -77.03638966666666, "fusion_lon": 0.0, "bike_id": "8368ad754446be96aee45bee6e504a3c", "type": "electric_scooter", "name": "8368ad754446be96aee45bee6e504a3c", "rental_uris": {"android": "https://dc.lft.to/lastmile_qr_scan", "ios": "https://dc.lft.to/lastmile_qr_scan"}, "is_disabled": 0, "fusion_lat": 0.0, "lat": 38.918205666666665, "is_reserved": 0}, {"lon": -77.02558333333333, "fusion_lon": 0.0, "bike_id": "ba7e8cf2f74dcd0f422b86fb971c93ed", "type": "electric_scooter", "name": "ba7e8cf2f74dcd0f422b86fb971c93ed", "rental_uris": {"android": "https://dc.lft.to/lastmile_qr_scan", "ios": "https://dc.lft.to/lastmile_qr_scan"}, "is_disabled": 0, "fusion_lat": 0.0, "lat": 38.909678, "is_reserved": 0}, {"lon": -76.97855066666666, "fusion_lon": 0.0, "bike_id": "a3c7b6f3bcd451ec91aa296043b56c79", "type": "electric_bike", "name": "a3c7b6f3bcd451ec91aa296043b56c79", "rental_uris": {"android": "https://dc.lft.to/lastmile_qr_scan", "ios": "https://dc.lft.to/lastmile_qr_scan"}, "is_disabled": 0, "fusion_lat": 0.0, "lat": 38.8446605, "is_reserved": 0}, {"lon": -77.00540266666667, "fusion_lon": 0.0, "bike_id": "7aa0d815d2a2c2a223d0bf8ad46964dc", "type": "electric_scooter", "name": "7aa0d815d2a2c2a223d0bf8ad46964dc", "rental_uris": {"android": "https://dc.lft.to/lastmile_qr_scan", "ios": "https://dc.lft.to/lastmile_qr_scan"}, "is_disabled": 0, "fusion_lat": 0.0, "lat": 38.8765505, "is_reserved": 0}, {"lon": -76.9974635, "fusion_lon": 0.0, "bike_id": "59a81803640fefcf17eb2868fc39a43b", "type": "electric_scooter", "name": "59a81803640fefcf17eb2868fc39a43b", "rental_uris": {"android": "https://dc.lft.to/lastmile_qr_scan", "ios": "https://dc.lft.to/lastmile_qr_scan"}, "is_disabled": 0, "fusion_lat": 0.0, "lat": 38.900342333333334, "is_reserved": 0}, {"lon": -77.0034555, "fusion_lon": 0.0, "bike_id": "32a3c242ff8f61ac71477426474088b1", "type": "electric_scooter", "name": "32a3c242ff8f61ac71477426474088b1", "rental_uris": {"android": "https://dc.lft.to/lastmile_qr_scan", "ios": "https://dc.lft.to/lastmile_qr_scan"}, "is_disabled": 0, "fusion_lat": 0.0, "lat": 38.89469833333333, "is_reserved": 0}, {"lon": -76.9884265, "fusion_lon": 0.0, "bike_id": "28f92eb091b721c356c6518f5bdbf594", "type": "electric_bike", "name": "28f92eb091b721c356c6518f5bdbf594", "rental_uris": {"android": "https://dc.lft.to/lastmile_qr_scan", "ios": "https://dc.lft.to/lastmile_qr_scan"}, "is_disabled": 0, "fusion_lat": 0.0, "lat": 38.84279566666667, "is_reserved": 0}, {"lon": -76.99521083333333, "fusion_lon": 0.0, "bike_id": "8b94ce0394c438bde7f9825d74be3783", "type": "electric_scooter", "name": "8b94ce0394c438bde7f9825d74be3783", "rental_uris": {"android": "https://dc.lft.to/lastmile_qr_scan", "ios": "https://dc.lft.to/lastmile_qr_scan"}, "is_disabled": 0, "fusion_lat": 0.0, "lat": 38.87923033333333, "is_reserved": 0}, {"lon": -76.96706316666666, "fusion_lon": 0.0, "bike_id": "24ae8ca1ed3a0260b5a49e4321eb7dcf", "type": "electric_scooter", "name": "24ae8ca1ed3a0260b5a49e4321eb7dcf", "rental_uris": {"android": "https://dc.lft.to/lastmile_qr_scan", "ios": "https://dc.lft.to/lastmile_qr_scan"}, "is_disabled": 0, "fusion_lat": 0.0, "lat": 38.86031283333333, "is_reserved": 0}, {"lon": -77.0566255, "fusion_lon": 0.0, "bike_id": "4e8d4b67b80d92f67377aa4caf410d3c", "type": "electric_scooter", "name": "4e8d4b67b80d92f67377aa4caf410d3c", "rental_uris": {"android": "https://dc.lft.to/lastmile_qr_scan", "ios": "https://dc.lft.to/lastmile_qr_scan"}, "is_disabled": 0, "fusion_lat": 0.0, "lat": 38.90617366666667, "is_reserved": 0}, {"lon": -77.03188516666667, "fusion_lon": 0.0, "bike_id": "31c2eb0b6b4f5579ad7441313180ad77", "type": "electric_scooter", "name": "31c2eb0b6b4f5579ad7441313180ad77", "rental_uris": {"android": "https://dc.lft.to/lastmile_qr_scan", "ios": "https://dc.lft.to/lastmile_qr_scan"}, "is_disabled": 0, "fusion_lat": 0.0, "lat": 38.919224, "is_reserved": 0}, {"lon": -76.94828316666667, "fusion_lon": 0.0, "bike_id": "74d355884177f80662e0759d84cbe5ce", "type": "electric_scooter", "name": "74d355884177f80662e0759d84cbe5ce", "rental_uris": {"android": "https://dc.lft.to/lastmile_qr_scan", "ios": "https://dc.lft.to/lastmile_qr_scan"}, "is_disabled": 0, "fusion_lat": 0.0, "lat": 38.884089, "is_reserved": 0}, {"lon": -77.02995133333333, "fusion_lon": 0.0, "bike_id": "6f385f61b1602bbf41cd9fd471b4a7e7", "type": "electric_scooter", "name": "6f385f61b1602bbf41cd9fd471b4a7e7", "rental_uris": {"android": "https://dc.lft.to/lastmile_qr_scan", "ios": "https://dc.lft.to/lastmile_qr_scan"}, "is_disabled": 0, "fusion_lat": 0.0, "lat": 38.897526666666664, "is_reserved": 0}, {"lon": -77.03168033333333, "fusion_lon": 0.0, "bike_id": "0b9a584fbfe881d785057ab1f04d4ff8", "type": "electric_scooter", "name": "0b9a584fbfe881d785057ab1f04d4ff8", "rental_uris": {"android": "https://dc.lft.to/lastmile_qr_scan", "ios": "https://dc.lft.to/lastmile_qr_scan"}, "is_disabled": 0, "fusion_lat": 0.0, "lat": 38.8975905, "is_reserved": 0}, {"lon": -77.0238345, "fusion_lon": 0.0, "bike_id": "bb02e7ad198d5f48d8ab281e012f4e9c", "type": "electric_scooter", "name": "bb02e7ad198d5f48d8ab281e012f4e9c", "rental_uris": {"android": "https://dc.lft.to/lastmile_qr_scan", "ios": "https://dc.lft.to/lastmile_qr_scan"}, "is_disabled": 0, "fusion_lat": 0.0, "lat": 38.891981, "is_reserved": 0}, {"lon": -77.014331, "fusion_lon": 0.0, "bike_id": "84ee5c4d5c820137566a019145e3b955", "type": "electric_scooter", "name": "84ee5c4d5c820137566a019145e3b955", "rental_uris": {"android": "https://dc.lft.to/lastmile_qr_scan", "ios": "https://dc.lft.to/lastmile_qr_scan"}, "is_disabled": 0, "fusion_lat": 0.0, "lat": 38.91954666666667, "is_reserved": 0}, {"lon": -77.0274925, "fusion_lon": 0.0, "bike_id": "123ddaaf97b5b68e50d211b28ec893ea", "type": "electric_scooter", "name": "123ddaaf97b5b68e50d211b28ec893ea", "rental_uris": {"android": "https://dc.lft.to/lastmile_qr_scan", "ios": "https://dc.lft.to/lastmile_qr_scan"}, "is_disabled": 0, "fusion_lat": 0.0, "lat": 38.93468566666667, "is_reserved": 0}, {"lon": -77.04290266666666, "fusion_lon": 0.0, "bike_id": "e7c51aa5fa4e3b7b37fe893755b824eb", "type": "electric_bike", "name": "e7c51aa5fa4e3b7b37fe893755b824eb", "rental_uris": {"android": "https://dc.lft.to/lastmile_qr_scan", "ios": "https://dc.lft.to/lastmile_qr_scan"}, "is_disabled": 0, "fusion_lat": 0.0, "lat": 38.83098316666667, "is_reserved": 0}, {"lon": -77.01545166666666, "fusion_lon": 0.0, "bike_id": "fc2b0b031e8ca0af834789ae5c38e620", "type": "electric_scooter", "name": "fc2b0b031e8ca0af834789ae5c38e620", "rental_uris": {"android": "https://dc.lft.to/lastmile_qr_scan", "ios": "https://dc.lft.to/lastmile_qr_scan"}, "is_disabled": 0, "fusion_lat": 0.0, "lat": 38.916008833333336, "is_reserved": 0}, {"lon": -77.020228, "fusion_lon": 0.0, "bike_id": "ad133df4c93d1c820d6aa2054667496f", "type": "electric_scooter", "name": "ad133df4c93d1c820d6aa2054667496f", "rental_uris": {"android": "https://dc.lft.to/lastmile_qr_scan", "ios": "https://dc.lft.to/lastmile_qr_scan"}, "is_disabled": 0, "fusion_lat": 0.0, "lat": 38.901515, "is_reserved": 0}, {"lon": -77.02374416666666, "fusion_lon": 0.0, "bike_id": "14e6869e834a11d70aa3b3afefe53749", "type": "electric_scooter", "name": "14e6869e834a11d70aa3b3afefe53749", "rental_uris": {"android": "https://dc.lft.to/lastmile_qr_scan", "ios": "https://dc.lft.to/lastmile_qr_scan"}, "is_disabled": 0, "fusion_lat": 0.0, "lat": 38.9068435, "is_reserved": 0}, {"lon": -76.92900616666667, "fusion_lon": 0.0, "bike_id": "c71f04633f8086f52bc1e9f4a379c200", "type": "electric_scooter", "name": "c71f04633f8086f52bc1e9f4a379c200", "rental_uris": {"android": "https://dc.lft.to/lastmile_qr_scan", "ios": "https://dc.lft.to/lastmile_qr_scan"}, "is_disabled": 0, "fusion_lat": 0.0, "lat": 38.90187483333333, "is_reserved": 0}, {"lon": -77.04451533333334, "fusion_lon": 0.0, "bike_id": "a7d930d9544d6a9389e30e29b414d1ca", "type": "electric_bike", "name": "a7d930d9544d6a9389e30e29b414d1ca", "rental_uris": {"android": "https://dc.lft.to/lastmile_qr_scan", "ios": "https://dc.lft.to/lastmile_qr_scan"}, "is_disabled": 0, "fusion_lat": 0.0, "lat": 38.915526166666666, "is_reserved": 0}, {"lon": -77.03651633333334, "fusion_lon": 0.0, "bike_id": "bec53c21161ab9729d213ffa1e168bec", "type": "electric_scooter", "name": "bec53c21161ab9729d213ffa1e168bec", "rental_uris": {"android": "https://dc.lft.to/lastmile_qr_scan", "ios": "https://dc.lft.to/lastmile_qr_scan"}, "is_disabled": 0, "fusion_lat": 0.0, "lat": 38.92980083333333, "is_reserved": 0}, {"lon": -77.00585933333333, "fusion_lon": 0.0, "bike_id": "401758594189d2a3c01833358e62058e", "type": "electric_scooter", "name": "401758594189d2a3c01833358e62058e", "rental_uris": {"android": "https://dc.lft.to/lastmile_qr_scan", "ios": "https://dc.lft.to/lastmile_qr_scan"}, "is_disabled": 0, "fusion_lat": 0.0, "lat": 38.87589233333333, "is_reserved": 0}, {"lon": -77.07282116666667, "fusion_lon": 0.0, "bike_id": "1a907b8ef0e9bb2329fa07899484a684", "type": "electric_scooter", "name": "1a907b8ef0e9bb2329fa07899484a684", "rental_uris": {"android": "https://dc.lft.to/lastmile_qr_scan", "ios": "https://dc.lft.to/lastmile_qr_scan"}, "is_disabled": 0, "fusion_lat": 0.0, "lat": 38.934731666666664, "is_reserved": 0}, {"lon": -77.03885633333333, "fusion_lon": 0.0, "bike_id": "ed6cd58da73f3aa560328a9670adcc9f", "type": "electric_scooter", "name": "ed6cd58da73f3aa560328a9670adcc9f", "rental_uris": {"android": "https://dc.lft.to/lastmile_qr_scan", "ios": "https://dc.lft.to/lastmile_qr_scan"}, "is_disabled": 0, "fusion_lat": 0.0, "lat": 38.92134, "is_reserved": 0}, {"lon": -77.03175683333333, "fusion_lon": 0.0, "bike_id": "f6de839b777f1d831db28fe4e4808a18", "type": "electric_scooter", "name": "f6de839b777f1d831db28fe4e4808a18", "rental_uris": {"android": "https://dc.lft.to/lastmile_qr_scan", "ios": "https://dc.lft.to/lastmile_qr_scan"}, "is_disabled": 0, "fusion_lat": 0.0, "lat": 38.92100216666667, "is_reserved": 0}, {"lon": -77.02751, "fusion_lon": 0.0, "bike_id": "3e94e9a36f0983ba895bc98628a3ef67", "type": "electric_scooter", "name": "3e94e9a36f0983ba895bc98628a3ef67", "rental_uris": {"android": "https://dc.lft.to/lastmile_qr_scan", "ios": "https://dc.lft.to/lastmile_qr_scan"}, "is_disabled": 0, "fusion_lat": 0.0, "lat": 38.897245, "is_reserved": 0}, {"lon": -77.0229525, "fusion_lon": 0.0, "bike_id": "55b9af006447b91af9b23559298a5438", "type": "electric_scooter", "name": "55b9af006447b91af9b23559298a5438", "rental_uris": {"android": "https://dc.lft.to/lastmile_qr_scan", "ios": "https://dc.lft.to/lastmile_qr_scan"}, "is_disabled": 0, "fusion_lat": 0.0, "lat": 38.927566166666665, "is_reserved": 0}, {"lon": -77.01329983333333, "fusion_lon": 0.0, "bike_id": "a62ca1d9cfa96d9aace3e641b7e647c4", "type": "electric_scooter", "name": "a62ca1d9cfa96d9aace3e641b7e647c4", "rental_uris": {"android": "https://dc.lft.to/lastmile_qr_scan", "ios": "https://dc.lft.to/lastmile_qr_scan"}, "is_disabled": 0, "fusion_lat": 0.0, "lat": 38.906028666666664, "is_reserved": 0}, {"lon": -77.01160016666667, "fusion_lon": 0.0, "bike_id": "71b22fb848423fb4b6bffd85a456182e", "type": "electric_scooter", "name": "71b22fb848423fb4b6bffd85a456182e", "rental_uris": {"android": "https://dc.lft.to/lastmile_qr_scan", "ios": "https://dc.lft.to/lastmile_qr_scan"}, "is_disabled": 0, "fusion_lat": 0.0, "lat": 38.900004, "is_reserved": 0}, {"lon": -77.04540533333333, "fusion_lon": 0.0, "bike_id": "3cf1e4c89d58ea962f900e27b7f25c57", "type": "electric_scooter", "name": "3cf1e4c89d58ea962f900e27b7f25c57", "rental_uris": {"android": "https://dc.lft.to/lastmile_qr_scan", "ios": "https://dc.lft.to/lastmile_qr_scan"}, "is_disabled": 0, "fusion_lat": 0.0, "lat": 38.93156716666667, "is_reserved": 0}, {"lon": -77.03853066666667, "fusion_lon": 0.0, "bike_id": "865edfbecbaa7a2612b503a9cda54373", "type": "electric_scooter", "name": "865edfbecbaa7a2612b503a9cda54373", "rental_uris": {"android": "https://dc.lft.to/lastmile_qr_scan", "ios": "https://dc.lft.to/lastmile_qr_scan"}, "is_disabled": 0, "fusion_lat": 0.0, "lat": 38.916198666666666, "is_reserved": 0}, {"lon": -77.07086866666667, "fusion_lon": 0.0, "bike_id": "aa941d155224f9692964b9efd914f6d3", "type": "electric_scooter", "name": "aa941d155224f9692964b9efd914f6d3", "rental_uris": {"android": "https://dc.lft.to/lastmile_qr_scan", "ios": "https://dc.lft.to/lastmile_qr_scan"}, "is_disabled": 0, "fusion_lat": 0.0, "lat": 38.896618, "is_reserved": 0}, {"lon": -77.02462133333333, "fusion_lon": 0.0, "bike_id": "ccfe37e48f1a53fe8fffda067775b247", "type": "electric_scooter", "name": "ccfe37e48f1a53fe8fffda067775b247", "rental_uris": {"android": "https://dc.lft.to/lastmile_qr_scan", "ios": "https://dc.lft.to/lastmile_qr_scan"}, "is_disabled": 0, "fusion_lat": 0.0, "lat": 38.93097983333333, "is_reserved": 0}, {"lon": -76.98717033333334, "fusion_lon": 0.0, "bike_id": "e6af6ba88e491308b96d2c372b4f789f", "type": "electric_scooter", "name": "e6af6ba88e491308b96d2c372b4f789f", "rental_uris": {"android": "https://dc.lft.to/lastmile_qr_scan", "ios": "https://dc.lft.to/lastmile_qr_scan"}, "is_disabled": 0, "fusion_lat": 0.0, "lat": 38.86625516666667, "is_reserved": 0}, {"lon": -77.02169983333333, "fusion_lon": 0.0, "bike_id": "69fd26f214cb3c360a5693a2f92b181e", "type": "electric_scooter", "name": "69fd26f214cb3c360a5693a2f92b181e", "rental_uris": {"android": "https://dc.lft.to/lastmile_qr_scan", "ios": "https://dc.lft.to/lastmile_qr_scan"}, "is_disabled": 0, "fusion_lat": 0.0, "lat": 38.942906666666666, "is_reserved": 0}, {"lon": -77.03813166666667, "fusion_lon": 0.0, "bike_id": "f7efa306bfd38b1103af35fad6e0f23b", "type": "electric_scooter", "name": "f7efa306bfd38b1103af35fad6e0f23b", "rental_uris": {"android": "https://dc.lft.to/lastmile_qr_scan", "ios": "https://dc.lft.to/lastmile_qr_scan"}, "is_disabled": 0, "fusion_lat": 0.0, "lat": 38.90675516666667, "is_reserved": 0}, {"lon": -77.02554716666667, "fusion_lon": 0.0, "bike_id": "3fafd3adf45659d4e8a0b4fe97caa0d1", "type": "electric_bike", "name": "3fafd3adf45659d4e8a0b4fe97caa0d1", "rental_uris": {"android": "https://dc.lft.to/lastmile_qr_scan", "ios": "https://dc.lft.to/lastmile_qr_scan"}, "is_disabled": 0, "fusion_lat": 0.0, "lat": 38.997222, "is_reserved": 0}, {"lon": -77.00241466666667, "fusion_lon": 0.0, "bike_id": "dc433798149bd78edc01fbb6099e10b1", "type": "electric_scooter", "name": "dc433798149bd78edc01fbb6099e10b1", "rental_uris": {"android": "https://dc.lft.to/lastmile_qr_scan", "ios": "https://dc.lft.to/lastmile_qr_scan"}, "is_disabled": 0, "fusion_lat": 0.0, "lat": 38.907432666666665, "is_reserved": 0}, {"lon": -76.93341233333334, "fusion_lon": 0.0, "bike_id": "2506bce2eca2c23069d14ede01123f36", "type": "electric_scooter", "name": "2506bce2eca2c23069d14ede01123f36", "rental_uris": {"android": "https://dc.lft.to/lastmile_qr_scan", "ios": "https://dc.lft.to/lastmile_qr_scan"}, "is_disabled": 0, "fusion_lat": 0.0, "lat": 38.90866333333334, "is_reserved": 0}, {"lon": -76.98587883333333, "fusion_lon": 0.0, "bike_id": "db240c9d5c7de41a248b2b0450fa51d3", "type": "electric_scooter", "name": "db240c9d5c7de41a248b2b0450fa51d3", "rental_uris": {"android": "https://dc.lft.to/lastmile_qr_scan", "ios": "https://dc.lft.to/lastmile_qr_scan"}, "is_disabled": 0, "fusion_lat": 0.0, "lat": 38.883978, "is_reserved": 0}, {"lon": -77.00049933333334, "fusion_lon": 0.0, "bike_id": "16c5266d061f447c84144d2f19dfc0e6", "type": "electric_scooter", "name": "16c5266d061f447c84144d2f19dfc0e6", "rental_uris": {"android": "https://dc.lft.to/lastmile_qr_scan", "ios": "https://dc.lft.to/lastmile_qr_scan"}, "is_disabled": 0, "fusion_lat": 0.0, "lat": 38.875441, "is_reserved": 0}, {"lon": -77.00793016666667, "fusion_lon": 0.0, "bike_id": "dd33dde5421d826f83840d91884a7d51", "type": "electric_scooter", "name": "dd33dde5421d826f83840d91884a7d51", "rental_uris": {"android": "https://dc.lft.to/lastmile_qr_scan", "ios": "https://dc.lft.to/lastmile_qr_scan"}, "is_disabled": 0, "fusion_lat": 0.0, "lat": 38.90569383333333, "is_reserved": 0}, {"lon": -77.005957, "fusion_lon": 0.0, "bike_id": "d80b066c343c9a17f7aea5b62154ac7e", "type": "electric_scooter", "name": "d80b066c343c9a17f7aea5b62154ac7e", "rental_uris": {"android": "https://dc.lft.to/lastmile_qr_scan", "ios": "https://dc.lft.to/lastmile_qr_scan"}, "is_disabled": 0, "fusion_lat": 0.0, "lat": 38.90564166666667, "is_reserved": 0}, {"lon": -76.93558466666667, "fusion_lon": 0.0, "bike_id": "88fa29eb492373c967ed103d25ba2048", "type": "electric_scooter", "name": "88fa29eb492373c967ed103d25ba2048", "rental_uris": {"android": "https://dc.lft.to/lastmile_qr_scan", "ios": "https://dc.lft.to/lastmile_qr_scan"}, "is_disabled": 0, "fusion_lat": 0.0, "lat": 38.88258533333333, "is_reserved": 0}, {"lon": -77.0367825, "fusion_lon": 0.0, "bike_id": "72961d95cff656e4e27f22568c6cf932", "type": "electric_scooter", "name": "72961d95cff656e4e27f22568c6cf932", "rental_uris": {"android": "https://dc.lft.to/lastmile_qr_scan", "ios": "https://dc.lft.to/lastmile_qr_scan"}, "is_disabled": 0, "fusion_lat": 0.0, "lat": 38.90834266666667, "is_reserved": 0}, {"lon": -77.00468733333334, "fusion_lon": 0.0, "bike_id": "eeb1f095f5086b360fa8650ed9c864d2", "type": "electric_scooter", "name": "eeb1f095f5086b360fa8650ed9c864d2", "rental_uris": {"android": "https://dc.lft.to/lastmile_qr_scan", "ios": "https://dc.lft.to/lastmile_qr_scan"}, "is_disabled": 0, "fusion_lat": 0.0, "lat": 38.87672233333333, "is_reserved": 0}, {"lon": -77.0727935, "fusion_lon": 0.0, "bike_id": "b3bbd1bb762d33c868bdbb9b568f88e1", "type": "electric_scooter", "name": "b3bbd1bb762d33c868bdbb9b568f88e1", "rental_uris": {"android": "https://dc.lft.to/lastmile_qr_scan", "ios": "https://dc.lft.to/lastmile_qr_scan"}, "is_disabled": 0, "fusion_lat": 0.0, "lat": 38.93471366666667, "is_reserved": 0}, {"lon": -77.02491416666666, "fusion_lon": 0.0, "bike_id": "dac932632830ba990ef70ad7e9103c63", "type": "electric_scooter", "name": "dac932632830ba990ef70ad7e9103c63", "rental_uris": {"android": "https://dc.lft.to/lastmile_qr_scan", "ios": "https://dc.lft.to/lastmile_qr_scan"}, "is_disabled": 0, "fusion_lat": 0.0, "lat": 38.941844833333334, "is_reserved": 0}, {"lon": -77.02289033333334, "fusion_lon": 0.0, "bike_id": "8b78dfd3dcd6a8039e456b0acb27f7e6", "type": "electric_scooter", "name": "8b78dfd3dcd6a8039e456b0acb27f7e6", "rental_uris": {"android": "https://dc.lft.to/lastmile_qr_scan", "ios": "https://dc.lft.to/lastmile_qr_scan"}, "is_disabled": 0, "fusion_lat": 0.0, "lat": 38.9086125, "is_reserved": 0}, {"lon": -76.9966135, "fusion_lon": 0.0, "bike_id": "ced2fbbbcb579a1de7300ada0b7e4e34", "type": "electric_scooter", "name": "ced2fbbbcb579a1de7300ada0b7e4e34", "rental_uris": {"android": "https://dc.lft.to/lastmile_qr_scan", "ios": "https://dc.lft.to/lastmile_qr_scan"}, "is_disabled": 0, "fusion_lat": 0.0, "lat": 38.860043166666664, "is_reserved": 0}, {"lon": -77.02700433333334, "fusion_lon": 0.0, "bike_id": "0adaf26bd6ca03f2bf3ca682019fe2c6", "type": "electric_scooter", "name": "0adaf26bd6ca03f2bf3ca682019fe2c6", "rental_uris": {"android": "https://dc.lft.to/lastmile_qr_scan", "ios": "https://dc.lft.to/lastmile_qr_scan"}, "is_disabled": 0, "fusion_lat": 0.0, "lat": 38.90837066666667, "is_reserved": 0}, {"lon": -77.05045433333333, "fusion_lon": 0.0, "bike_id": "ab8a88bf019af9307f4e625d2e11cee0", "type": "electric_scooter", "name": "ab8a88bf019af9307f4e625d2e11cee0", "rental_uris": {"android": "https://dc.lft.to/lastmile_qr_scan", "ios": "https://dc.lft.to/lastmile_qr_scan"}, "is_disabled": 0, "fusion_lat": 0.0, "lat": 38.92361483333333, "is_reserved": 0}, {"lon": -77.02959183333333, "fusion_lon": 0.0, "bike_id": "93dff8781c8179793329a644ab1d9018", "type": "electric_scooter", "name": "93dff8781c8179793329a644ab1d9018", "rental_uris": {"android": "https://dc.lft.to/lastmile_qr_scan", "ios": "https://dc.lft.to/lastmile_qr_scan"}, "is_disabled": 0, "fusion_lat": 0.0, "lat": 38.9231735, "is_reserved": 0}, {"lon": -77.02609066666666, "fusion_lon": 0.0, "bike_id": "e95fee787311d99c637f4a34ce7ee189", "type": "electric_scooter", "name": "e95fee787311d99c637f4a34ce7ee189", "rental_uris": {"android": "https://dc.lft.to/lastmile_qr_scan", "ios": "https://dc.lft.to/lastmile_qr_scan"}, "is_disabled": 0, "fusion_lat": 0.0, "lat": 38.9284345, "is_reserved": 0}, {"lon": -77.03749833333333, "fusion_lon": 0.0, "bike_id": "1f9565da10538956806e266d4c5b7f79", "type": "electric_scooter", "name": "1f9565da10538956806e266d4c5b7f79", "rental_uris": {"android": "https://dc.lft.to/lastmile_qr_scan", "ios": "https://dc.lft.to/lastmile_qr_scan"}, "is_disabled": 0, "fusion_lat": 0.0, "lat": 38.91616833333333, "is_reserved": 0}, {"lon": -77.01161083333334, "fusion_lon": 0.0, "bike_id": "5e82fcd148fd42a44954e4801aa6e1ae", "type": "electric_scooter", "name": "5e82fcd148fd42a44954e4801aa6e1ae", "rental_uris": {"android": "https://dc.lft.to/lastmile_qr_scan", "ios": "https://dc.lft.to/lastmile_qr_scan"}, "is_disabled": 0, "fusion_lat": 0.0, "lat": 38.911115833333334, "is_reserved": 0}, {"lon": -77.04989516666667, "fusion_lon": 0.0, "bike_id": "b0cd6763b6666b6ca4124829d35a72b0", "type": "electric_scooter", "name": "b0cd6763b6666b6ca4124829d35a72b0", "rental_uris": {"android": "https://dc.lft.to/lastmile_qr_scan", "ios": "https://dc.lft.to/lastmile_qr_scan"}, "is_disabled": 0, "fusion_lat": 0.0, "lat": 38.901204666666665, "is_reserved": 0}, {"lon": -77.03535316666667, "fusion_lon": 0.0, "bike_id": "eb02c951781fa3506b091065a5379a8f", "type": "electric_scooter", "name": "eb02c951781fa3506b091065a5379a8f", "rental_uris": {"android": "https://dc.lft.to/lastmile_qr_scan", "ios": "https://dc.lft.to/lastmile_qr_scan"}, "is_disabled": 0, "fusion_lat": 0.0, "lat": 38.925402166666665, "is_reserved": 0}, {"lon": -77.00106133333334, "fusion_lon": 0.0, "bike_id": "07d0d4e4a8b11d046c33d9c9ef1357ac", "type": "electric_scooter", "name": "07d0d4e4a8b11d046c33d9c9ef1357ac", "rental_uris": {"android": "https://dc.lft.to/lastmile_qr_scan", "ios": "https://dc.lft.to/lastmile_qr_scan"}, "is_disabled": 0, "fusion_lat": 0.0, "lat": 38.87353016666667, "is_reserved": 0}, {"lon": -77.03500616666666, "fusion_lon": 0.0, "bike_id": "6ff1308a30a421edbbd8612231759816", "type": "electric_scooter", "name": "6ff1308a30a421edbbd8612231759816", "rental_uris": {"android": "https://dc.lft.to/lastmile_qr_scan", "ios": "https://dc.lft.to/lastmile_qr_scan"}, "is_disabled": 0, "fusion_lat": 0.0, "lat": 38.9170425, "is_reserved": 0}, {"lon": -77.01953283333333, "fusion_lon": 0.0, "bike_id": "ad348c382804cb317e9a37a538793c69", "type": "electric_scooter", "name": "ad348c382804cb317e9a37a538793c69", "rental_uris": {"android": "https://dc.lft.to/lastmile_qr_scan", "ios": "https://dc.lft.to/lastmile_qr_scan"}, "is_disabled": 0, "fusion_lat": 0.0, "lat": 38.9241865, "is_reserved": 0}, {"lon": -77.07659383333333, "fusion_lon": 0.0, "bike_id": "934d160a09907647b2fba3c9c361699e", "type": "electric_scooter", "name": "934d160a09907647b2fba3c9c361699e", "rental_uris": {"android": "https://dc.lft.to/lastmile_qr_scan", "ios": "https://dc.lft.to/lastmile_qr_scan"}, "is_disabled": 0, "fusion_lat": 0.0, "lat": 38.943307, "is_reserved": 0}, {"lon": -77.02917416666666, "fusion_lon": 0.0, "bike_id": "6bd8a1f7b14667e056c3106c1814b381", "type": "electric_scooter", "name": "6bd8a1f7b14667e056c3106c1814b381", "rental_uris": {"android": "https://dc.lft.to/lastmile_qr_scan", "ios": "https://dc.lft.to/lastmile_qr_scan"}, "is_disabled": 0, "fusion_lat": 0.0, "lat": 38.9172545, "is_reserved": 0}, {"lon": -77.018354, "fusion_lon": 0.0, "bike_id": "b09d3c2081d1cdce7ae99a907893f307", "type": "electric_scooter", "name": "b09d3c2081d1cdce7ae99a907893f307", "rental_uris": {"android": "https://dc.lft.to/lastmile_qr_scan", "ios": "https://dc.lft.to/lastmile_qr_scan"}, "is_disabled": 0, "fusion_lat": 0.0, "lat": 38.90268716666667, "is_reserved": 0}, {"lon": -76.96703983333333, "fusion_lon": 0.0, "bike_id": "bb33b0bcaec88280b9c3be179a64bfea", "type": "electric_scooter", "name": "bb33b0bcaec88280b9c3be179a64bfea", "rental_uris": {"android": "https://dc.lft.to/lastmile_qr_scan", "ios": "https://dc.lft.to/lastmile_qr_scan"}, "is_disabled": 0, "fusion_lat": 0.0, "lat": 38.86029333333333, "is_reserved": 0}, {"lon": -77.02501666666667, "fusion_lon": 0.0, "bike_id": "0ad20985b3d58872c48f973c1f967bb6", "type": "electric_scooter", "name": "0ad20985b3d58872c48f973c1f967bb6", "rental_uris": {"android": "https://dc.lft.to/lastmile_qr_scan", "ios": "https://dc.lft.to/lastmile_qr_scan"}, "is_disabled": 0, "fusion_lat": 0.0, "lat": 38.920175, "is_reserved": 0}, {"lon": -77.01783433333334, "fusion_lon": 0.0, "bike_id": "2b0107e1e910abd825a6a7978cab2488", "type": "electric_scooter", "name": "2b0107e1e910abd825a6a7978cab2488", "rental_uris": {"android": "https://dc.lft.to/lastmile_qr_scan", "ios": "https://dc.lft.to/lastmile_qr_scan"}, "is_disabled": 0, "fusion_lat": 0.0, "lat": 38.877063666666665, "is_reserved": 0}, {"lon": -77.05046416666667, "fusion_lon": 0.0, "bike_id": "6c598c32ed98815a3900f59b2b7a91b1", "type": "electric_scooter", "name": "6c598c32ed98815a3900f59b2b7a91b1", "rental_uris": {"android": "https://dc.lft.to/lastmile_qr_scan", "ios": "https://dc.lft.to/lastmile_qr_scan"}, "is_disabled": 0, "fusion_lat": 0.0, "lat": 38.923593333333336, "is_reserved": 0}, {"lon": -77.02278966666667, "fusion_lon": 0.0, "bike_id": "dfd623d8bf7b377cf8f725f4833a44fd", "type": "electric_scooter", "name": "dfd623d8bf7b377cf8f725f4833a44fd", "rental_uris": {"android": "https://dc.lft.to/lastmile_qr_scan", "ios": "https://dc.lft.to/lastmile_qr_scan"}, "is_disabled": 0, "fusion_lat": 0.0, "lat": 38.9178515, "is_reserved": 0}, {"lon": -77.0487525, "fusion_lon": 0.0, "bike_id": "f68b0eb87ccef0b78760f3e50c4c560e", "type": "electric_scooter", "name": "f68b0eb87ccef0b78760f3e50c4c560e", "rental_uris": {"android": "https://dc.lft.to/lastmile_qr_scan", "ios": "https://dc.lft.to/lastmile_qr_scan"}, "is_disabled": 0, "fusion_lat": 0.0, "lat": 38.90975666666667, "is_reserved": 0}, {"lon": -77.0359255, "fusion_lon": 0.0, "bike_id": "100830c54dd46069d6f67c774fcf6ac8", "type": "electric_scooter", "name": "100830c54dd46069d6f67c774fcf6ac8", "rental_uris": {"android": "https://dc.lft.to/lastmile_qr_scan", "ios": "https://dc.lft.to/lastmile_qr_scan"}, "is_disabled": 0, "fusion_lat": 0.0, "lat": 38.931479, "is_reserved": 0}, {"lon": -77.09712683333333, "fusion_lon": 0.0, "bike_id": "a935aec161f14dede89261712cca0855", "type": "electric_scooter", "name": "a935aec161f14dede89261712cca0855", "rental_uris": {"android": "https://dc.lft.to/lastmile_qr_scan", "ios": "https://dc.lft.to/lastmile_qr_scan"}, "is_disabled": 0, "fusion_lat": 0.0, "lat": 38.950971, "is_reserved": 0}, {"lon": -77.036432, "fusion_lon": 0.0, "bike_id": "0c8eba9b3c3239098b6b012978554dcc", "type": "electric_scooter", "name": "0c8eba9b3c3239098b6b012978554dcc", "rental_uris": {"android": "https://dc.lft.to/lastmile_qr_scan", "ios": "https://dc.lft.to/lastmile_qr_scan"}, "is_disabled": 0, "fusion_lat": 0.0, "lat": 38.91817866666667, "is_reserved": 0}, {"lon": -77.0247195, "fusion_lon": 0.0, "bike_id": "08aa18ba4515a52eadfea1e8fc9383f7", "type": "electric_scooter", "name": "08aa18ba4515a52eadfea1e8fc9383f7", "rental_uris": {"android": "https://dc.lft.to/lastmile_qr_scan", "ios": "https://dc.lft.to/lastmile_qr_scan"}, "is_disabled": 0, "fusion_lat": 0.0, "lat": 38.91878166666667, "is_reserved": 0}, {"lon": -77.0121405, "fusion_lon": 0.0, "bike_id": "7ac1210e820c98a5cbeb69bd45b9d303", "type": "electric_scooter", "name": "7ac1210e820c98a5cbeb69bd45b9d303", "rental_uris": {"android": "https://dc.lft.to/lastmile_qr_scan", "ios": "https://dc.lft.to/lastmile_qr_scan"}, "is_disabled": 0, "fusion_lat": 0.0, "lat": 38.90028316666667, "is_reserved": 0}, {"lon": -77.00756366666667, "fusion_lon": 0.0, "bike_id": "4c52f8293d9e14513f236928e1e7ae1a", "type": "electric_scooter", "name": "4c52f8293d9e14513f236928e1e7ae1a", "rental_uris": {"android": "https://dc.lft.to/lastmile_qr_scan", "ios": "https://dc.lft.to/lastmile_qr_scan"}, "is_disabled": 0, "fusion_lat": 0.0, "lat": 38.8710815, "is_reserved": 0}, {"lon": -76.98195683333333, "fusion_lon": 0.0, "bike_id": "f51a3ba371895cf678309293ed5a5ae9", "type": "electric_bike", "name": "f51a3ba371895cf678309293ed5a5ae9", "rental_uris": {"android": "https://dc.lft.to/lastmile_qr_scan", "ios": "https://dc.lft.to/lastmile_qr_scan"}, "is_disabled": 0, "fusion_lat": 0.0, "lat": 38.98500633333333, "is_reserved": 0}, {"lon": -77.02534466666667, "fusion_lon": 0.0, "bike_id": "4513fa9aaecd3e70dfd812c474e6d339", "type": "electric_scooter", "name": "4513fa9aaecd3e70dfd812c474e6d339", "rental_uris": {"android": "https://dc.lft.to/lastmile_qr_scan", "ios": "https://dc.lft.to/lastmile_qr_scan"}, "is_disabled": 0, "fusion_lat": 0.0, "lat": 38.946230166666666, "is_reserved": 0}, {"lon": -77.02694233333334, "fusion_lon": 0.0, "bike_id": "df8c3cba6646a51b607f0f83b46d5378", "type": "electric_scooter", "name": "df8c3cba6646a51b607f0f83b46d5378", "rental_uris": {"android": "https://dc.lft.to/lastmile_qr_scan", "ios": "https://dc.lft.to/lastmile_qr_scan"}, "is_disabled": 0, "fusion_lat": 0.0, "lat": 38.9084135, "is_reserved": 0}, {"lon": -77.023769, "fusion_lon": 0.0, "bike_id": "8fda6b5ce971bf5f3a79ebea8b7501be", "type": "electric_scooter", "name": "8fda6b5ce971bf5f3a79ebea8b7501be", "rental_uris": {"android": "https://dc.lft.to/lastmile_qr_scan", "ios": "https://dc.lft.to/lastmile_qr_scan"}, "is_disabled": 0, "fusion_lat": 0.0, "lat": 38.906994833333336, "is_reserved": 0}, {"lon": -77.024577, "fusion_lon": 0.0, "bike_id": "64a0eb918b4bfc65e8dafa4e136c6916", "type": "electric_scooter", "name": "64a0eb918b4bfc65e8dafa4e136c6916", "rental_uris": {"android": "https://dc.lft.to/lastmile_qr_scan", "ios": "https://dc.lft.to/lastmile_qr_scan"}, "is_disabled": 0, "fusion_lat": 0.0, "lat": 38.90318633333333, "is_reserved": 0}, {"lon": -77.03591133333333, "fusion_lon": 0.0, "bike_id": "47356f2d81eaa6c47ac1458bbd4a93c3", "type": "electric_scooter", "name": "47356f2d81eaa6c47ac1458bbd4a93c3", "rental_uris": {"android": "https://dc.lft.to/lastmile_qr_scan", "ios": "https://dc.lft.to/lastmile_qr_scan"}, "is_disabled": 0, "fusion_lat": 0.0, "lat": 38.9314345, "is_reserved": 0}, {"lon": -76.983205, "fusion_lon": 0.0, "bike_id": "0beb1f6e597e1ab06982c1ec2236c787", "type": "electric_scooter", "name": "0beb1f6e597e1ab06982c1ec2236c787", "rental_uris": {"android": "https://dc.lft.to/lastmile_qr_scan", "ios": "https://dc.lft.to/lastmile_qr_scan"}, "is_disabled": 0, "fusion_lat": 0.0, "lat": 38.9043615, "is_reserved": 0}, {"lon": -77.00343133333334, "fusion_lon": 0.0, "bike_id": "65e8706619ee52037011e7006dfb4288", "type": "electric_scooter", "name": "65e8706619ee52037011e7006dfb4288", "rental_uris": {"android": "https://dc.lft.to/lastmile_qr_scan", "ios": "https://dc.lft.to/lastmile_qr_scan"}, "is_disabled": 0, "fusion_lat": 0.0, "lat": 38.894630166666666, "is_reserved": 0}, {"lon": -77.00597983333333, "fusion_lon": 0.0, "bike_id": "0dcdf01becd2b750217aefb83bd2cbdb", "type": "electric_scooter", "name": "0dcdf01becd2b750217aefb83bd2cbdb", "rental_uris": {"android": "https://dc.lft.to/lastmile_qr_scan", "ios": "https://dc.lft.to/lastmile_qr_scan"}, "is_disabled": 0, "fusion_lat": 0.0, "lat": 38.905601, "is_reserved": 0}, {"lon": -77.005754, "fusion_lon": 0.0, "bike_id": "c323e6030cfabf2f166df560a8bbdb1d", "type": "electric_scooter", "name": "c323e6030cfabf2f166df560a8bbdb1d", "rental_uris": {"android": "https://dc.lft.to/lastmile_qr_scan", "ios": "https://dc.lft.to/lastmile_qr_scan"}, "is_disabled": 0, "fusion_lat": 0.0, "lat": 38.876629, "is_reserved": 0}, {"lon": -77.05135433333334, "fusion_lon": 0.0, "bike_id": "6adfb7b529a2b43459c4aba93e8105c4", "type": "electric_scooter", "name": "6adfb7b529a2b43459c4aba93e8105c4", "rental_uris": {"android": "https://dc.lft.to/lastmile_qr_scan", "ios": "https://dc.lft.to/lastmile_qr_scan"}, "is_disabled": 0, "fusion_lat": 0.0, "lat": 38.925191833333336, "is_reserved": 0}, {"lon": -77.05343683333334, "fusion_lon": 0.0, "bike_id": "5c004b025853e3846d0596ea5ae1ec98", "type": "electric_scooter", "name": "5c004b025853e3846d0596ea5ae1ec98", "rental_uris": {"android": "https://dc.lft.to/lastmile_qr_scan", "ios": "https://dc.lft.to/lastmile_qr_scan"}, "is_disabled": 0, "fusion_lat": 0.0, "lat": 38.92727166666667, "is_reserved": 0}, {"lon": -77.0346765, "fusion_lon": 0.0, "bike_id": "2bd1a1863ab91c4046495ec1aaf4ad1f", "type": "electric_scooter", "name": "2bd1a1863ab91c4046495ec1aaf4ad1f", "rental_uris": {"android": "https://dc.lft.to/lastmile_qr_scan", "ios": "https://dc.lft.to/lastmile_qr_scan"}, "is_disabled": 0, "fusion_lat": 0.0, "lat": 38.905590833333335, "is_reserved": 0}, {"lon": -77.0546265, "fusion_lon": 0.0, "bike_id": "c2e032fa789e2c84acdf12b2eac8d47d", "type": "electric_scooter", "name": "c2e032fa789e2c84acdf12b2eac8d47d", "rental_uris": {"android": "https://dc.lft.to/lastmile_qr_scan", "ios": "https://dc.lft.to/lastmile_qr_scan"}, "is_disabled": 0, "fusion_lat": 0.0, "lat": 38.90248783333333, "is_reserved": 0}, {"lon": -77.04802033333333, "fusion_lon": 0.0, "bike_id": "0dd9951d50d4ea20c9f60aa03cd52aeb", "type": "electric_scooter", "name": "0dd9951d50d4ea20c9f60aa03cd52aeb", "rental_uris": {"android": "https://dc.lft.to/lastmile_qr_scan", "ios": "https://dc.lft.to/lastmile_qr_scan"}, "is_disabled": 0, "fusion_lat": 0.0, "lat": 38.92039883333333, "is_reserved": 0}, {"lon": -77.024614, "fusion_lon": 0.0, "bike_id": "afae2d6c5803eb1746cc6af15131f376", "type": "electric_scooter", "name": "afae2d6c5803eb1746cc6af15131f376", "rental_uris": {"android": "https://dc.lft.to/lastmile_qr_scan", "ios": "https://dc.lft.to/lastmile_qr_scan"}, "is_disabled": 0, "fusion_lat": 0.0, "lat": 38.93852116666667, "is_reserved": 0}, {"lon": -77.07307766666666, "fusion_lon": 0.0, "bike_id": "b50b25bfd195adc41d0eb0585e7819b6", "type": "electric_scooter", "name": "b50b25bfd195adc41d0eb0585e7819b6", "rental_uris": {"android": "https://dc.lft.to/lastmile_qr_scan", "ios": "https://dc.lft.to/lastmile_qr_scan"}, "is_disabled": 0, "fusion_lat": 0.0, "lat": 38.926728833333335, "is_reserved": 0}, {"lon": -77.02629116666667, "fusion_lon": 0.0, "bike_id": "63be4f85e9598ef282b6727de6618e12", "type": "electric_scooter", "name": "63be4f85e9598ef282b6727de6618e12", "rental_uris": {"android": "https://dc.lft.to/lastmile_qr_scan", "ios": "https://dc.lft.to/lastmile_qr_scan"}, "is_disabled": 0, "fusion_lat": 0.0, "lat": 38.887660333333336, "is_reserved": 0}, {"lon": -77.0227585, "fusion_lon": 0.0, "bike_id": "90deef0f930871474c2020a238bbbd1f", "type": "electric_scooter", "name": "90deef0f930871474c2020a238bbbd1f", "rental_uris": {"android": "https://dc.lft.to/lastmile_qr_scan", "ios": "https://dc.lft.to/lastmile_qr_scan"}, "is_disabled": 0, "fusion_lat": 0.0, "lat": 38.9141585, "is_reserved": 0}, {"lon": -77.015296, "fusion_lon": 0.0, "bike_id": "33140c416b503baacf8c7f7593bb930f", "type": "electric_scooter", "name": "33140c416b503baacf8c7f7593bb930f", "rental_uris": {"android": "https://dc.lft.to/lastmile_qr_scan", "ios": "https://dc.lft.to/lastmile_qr_scan"}, "is_disabled": 0, "fusion_lat": 0.0, "lat": 38.90256516666667, "is_reserved": 0}, {"lon": -77.03915766666667, "fusion_lon": 0.0, "bike_id": "d4809ab10f91537170d63fbf878fdc8c", "type": "electric_scooter", "name": "d4809ab10f91537170d63fbf878fdc8c", "rental_uris": {"android": "https://dc.lft.to/lastmile_qr_scan", "ios": "https://dc.lft.to/lastmile_qr_scan"}, "is_disabled": 0, "fusion_lat": 0.0, "lat": 38.91109333333333, "is_reserved": 0}, {"lon": -77.03855016666667, "fusion_lon": 0.0, "bike_id": "c337f13ae853886d1a4f175266f4ed8f", "type": "electric_scooter", "name": "c337f13ae853886d1a4f175266f4ed8f", "rental_uris": {"android": "https://dc.lft.to/lastmile_qr_scan", "ios": "https://dc.lft.to/lastmile_qr_scan"}, "is_disabled": 0, "fusion_lat": 0.0, "lat": 38.91767, "is_reserved": 0}, {"lon": -77.0572995, "fusion_lon": 0.0, "bike_id": "0633ff39bbaa402d5cdbbcf2552d47c0", "type": "electric_scooter", "name": "0633ff39bbaa402d5cdbbcf2552d47c0", "rental_uris": {"android": "https://dc.lft.to/lastmile_qr_scan", "ios": "https://dc.lft.to/lastmile_qr_scan"}, "is_disabled": 0, "fusion_lat": 0.0, "lat": 38.933595333333336, "is_reserved": 0}, {"lon": -77.01775066666667, "fusion_lon": 0.0, "bike_id": "9c69356aeec9f46a161fa6d6224e61e7", "type": "electric_scooter", "name": "9c69356aeec9f46a161fa6d6224e61e7", "rental_uris": {"android": "https://dc.lft.to/lastmile_qr_scan", "ios": "https://dc.lft.to/lastmile_qr_scan"}, "is_disabled": 0, "fusion_lat": 0.0, "lat": 38.8871215, "is_reserved": 0}, {"lon": -76.92596583333334, "fusion_lon": 0.0, "bike_id": "61466162ad9bd1cd94d9f02c6f87bf24", "type": "electric_scooter", "name": "61466162ad9bd1cd94d9f02c6f87bf24", "rental_uris": {"android": "https://dc.lft.to/lastmile_qr_scan", "ios": "https://dc.lft.to/lastmile_qr_scan"}, "is_disabled": 0, "fusion_lat": 0.0, "lat": 38.893547, "is_reserved": 0}, {"lon": -77.09669616666666, "fusion_lon": 0.0, "bike_id": "3b2f00bfd62044a1044994a86c83d6e5", "type": "electric_bike", "name": "3b2f00bfd62044a1044994a86c83d6e5", "rental_uris": {"android": "https://dc.lft.to/lastmile_qr_scan", "ios": "https://dc.lft.to/lastmile_qr_scan"}, "is_disabled": 0, "fusion_lat": 0.0, "lat": 38.946156, "is_reserved": 0}, {"lon": -77.02591016666666, "fusion_lon": 0.0, "bike_id": "e974b33736c362900d704a5d7eb4b2d9", "type": "electric_scooter", "name": "e974b33736c362900d704a5d7eb4b2d9", "rental_uris": {"android": "https://dc.lft.to/lastmile_qr_scan", "ios": "https://dc.lft.to/lastmile_qr_scan"}, "is_disabled": 0, "fusion_lat": 0.0, "lat": 38.963903333333334, "is_reserved": 0}, {"lon": -77.02384583333334, "fusion_lon": 0.0, "bike_id": "96c553e56a2a30e858070cc5de239273", "type": "electric_scooter", "name": "96c553e56a2a30e858070cc5de239273", "rental_uris": {"android": "https://dc.lft.to/lastmile_qr_scan", "ios": "https://dc.lft.to/lastmile_qr_scan"}, "is_disabled": 0, "fusion_lat": 0.0, "lat": 38.892276, "is_reserved": 0}, {"lon": -77.01277, "fusion_lon": 0.0, "bike_id": "12f52eec59c29a19b00bf44472c9e098", "type": "electric_scooter", "name": "12f52eec59c29a19b00bf44472c9e098", "rental_uris": {"android": "https://dc.lft.to/lastmile_qr_scan", "ios": "https://dc.lft.to/lastmile_qr_scan"}, "is_disabled": 0, "fusion_lat": 0.0, "lat": 38.87299683333333, "is_reserved": 0}, {"lon": -76.997714, "fusion_lon": 0.0, "bike_id": "d45603d2bf10019591d4bb94659ba41d", "type": "electric_scooter", "name": "d45603d2bf10019591d4bb94659ba41d", "rental_uris": {"android": "https://dc.lft.to/lastmile_qr_scan", "ios": "https://dc.lft.to/lastmile_qr_scan"}, "is_disabled": 0, "fusion_lat": 0.0, "lat": 38.91115166666667, "is_reserved": 0}, {"lon": -77.01834416666667, "fusion_lon": 0.0, "bike_id": "a2954a1bfc496ba0f40dd73217729bc6", "type": "electric_scooter", "name": "a2954a1bfc496ba0f40dd73217729bc6", "rental_uris": {"android": "https://dc.lft.to/lastmile_qr_scan", "ios": "https://dc.lft.to/lastmile_qr_scan"}, "is_disabled": 0, "fusion_lat": 0.0, "lat": 38.901105666666666, "is_reserved": 0}, {"lon": -77.0346785, "fusion_lon": 0.0, "bike_id": "d36256236f11a927df78319a769c7475", "type": "electric_scooter", "name": "d36256236f11a927df78319a769c7475", "rental_uris": {"android": "https://dc.lft.to/lastmile_qr_scan", "ios": "https://dc.lft.to/lastmile_qr_scan"}, "is_disabled": 0, "fusion_lat": 0.0, "lat": 38.90375366666667, "is_reserved": 0}, {"lon": -77.04980283333333, "fusion_lon": 0.0, "bike_id": "54df342120a008da090d35588ba913e3", "type": "electric_scooter", "name": "54df342120a008da090d35588ba913e3", "rental_uris": {"android": "https://dc.lft.to/lastmile_qr_scan", "ios": "https://dc.lft.to/lastmile_qr_scan"}, "is_disabled": 0, "fusion_lat": 0.0, "lat": 38.9178935, "is_reserved": 0}, {"lon": -77.0248205, "fusion_lon": 0.0, "bike_id": "1232a82c3652bd8e191953beb5b6d4e6", "type": "electric_scooter", "name": "1232a82c3652bd8e191953beb5b6d4e6", "rental_uris": {"android": "https://dc.lft.to/lastmile_qr_scan", "ios": "https://dc.lft.to/lastmile_qr_scan"}, "is_disabled": 0, "fusion_lat": 0.0, "lat": 38.93102433333333, "is_reserved": 0}, {"lon": -77.0295435, "fusion_lon": 0.0, "bike_id": "ba4da34f0df4f6a89fa3bca4328c6619", "type": "electric_scooter", "name": "ba4da34f0df4f6a89fa3bca4328c6619", "rental_uris": {"android": "https://dc.lft.to/lastmile_qr_scan", "ios": "https://dc.lft.to/lastmile_qr_scan"}, "is_disabled": 0, "fusion_lat": 0.0, "lat": 38.92268416666667, "is_reserved": 0}, {"lon": -77.03304466666667, "fusion_lon": 0.0, "bike_id": "b499e0ef1380e86d8f6e6735d0caf666", "type": "electric_scooter", "name": "b499e0ef1380e86d8f6e6735d0caf666", "rental_uris": {"android": "https://dc.lft.to/lastmile_qr_scan", "ios": "https://dc.lft.to/lastmile_qr_scan"}, "is_disabled": 0, "fusion_lat": 0.0, "lat": 38.956328166666665, "is_reserved": 0}, {"lon": -77.01961716666666, "fusion_lon": 0.0, "bike_id": "c966a78cbf3e6ffda9e2c4acbd708854", "type": "electric_scooter", "name": "c966a78cbf3e6ffda9e2c4acbd708854", "rental_uris": {"android": "https://dc.lft.to/lastmile_qr_scan", "ios": "https://dc.lft.to/lastmile_qr_scan"}, "is_disabled": 0, "fusion_lat": 0.0, "lat": 38.89366916666667, "is_reserved": 0}, {"lon": -76.98694, "fusion_lon": 0.0, "bike_id": "730c0093e05f0c166b2f36dc3ae9350b", "type": "electric_scooter", "name": "730c0093e05f0c166b2f36dc3ae9350b", "rental_uris": {"android": "https://dc.lft.to/lastmile_qr_scan", "ios": "https://dc.lft.to/lastmile_qr_scan"}, "is_disabled": 0, "fusion_lat": 0.0, "lat": 38.867209, "is_reserved": 0}, {"lon": -77.027109, "fusion_lon": 0.0, "bike_id": "16f885dd79cbef201c6abfbf5a61b0ec", "type": "electric_scooter", "name": "16f885dd79cbef201c6abfbf5a61b0ec", "rental_uris": {"android": "https://dc.lft.to/lastmile_qr_scan", "ios": "https://dc.lft.to/lastmile_qr_scan"}, "is_disabled": 0, "fusion_lat": 0.0, "lat": 38.881267666666666, "is_reserved": 0}, {"lon": -77.02899683333334, "fusion_lon": 0.0, "bike_id": "56b33a799292f54b53791c0e8471cfcd", "type": "electric_scooter", "name": "56b33a799292f54b53791c0e8471cfcd", "rental_uris": {"android": "https://dc.lft.to/lastmile_qr_scan", "ios": "https://dc.lft.to/lastmile_qr_scan"}, "is_disabled": 0, "fusion_lat": 0.0, "lat": 38.9045465, "is_reserved": 0}, {"lon": -77.03816833333333, "fusion_lon": 0.0, "bike_id": "97b34b0d4047decd235a652d7949ae1c", "type": "electric_scooter", "name": "97b34b0d4047decd235a652d7949ae1c", "rental_uris": {"android": "https://dc.lft.to/lastmile_qr_scan", "ios": "https://dc.lft.to/lastmile_qr_scan"}, "is_disabled": 0, "fusion_lat": 0.0, "lat": 38.906855166666666, "is_reserved": 0}, {"lon": -77.017467, "fusion_lon": 0.0, "bike_id": "05073e76d9c84e47df87228388cef62b", "type": "electric_scooter", "name": "05073e76d9c84e47df87228388cef62b", "rental_uris": {"android": "https://dc.lft.to/lastmile_qr_scan", "ios": "https://dc.lft.to/lastmile_qr_scan"}, "is_disabled": 0, "fusion_lat": 0.0, "lat": 38.90251166666667, "is_reserved": 0}, {"lon": -77.00299583333333, "fusion_lon": 0.0, "bike_id": "c5bb8c7bee05ddb1040a1d380f7d42b8", "type": "electric_scooter", "name": "c5bb8c7bee05ddb1040a1d380f7d42b8", "rental_uris": {"android": "https://dc.lft.to/lastmile_qr_scan", "ios": "https://dc.lft.to/lastmile_qr_scan"}, "is_disabled": 0, "fusion_lat": 0.0, "lat": 38.877239, "is_reserved": 0}, {"lon": -77.00328066666667, "fusion_lon": 0.0, "bike_id": "b6b500a9f6e8c7cfcecf030216c721fb", "type": "electric_scooter", "name": "b6b500a9f6e8c7cfcecf030216c721fb", "rental_uris": {"android": "https://dc.lft.to/lastmile_qr_scan", "ios": "https://dc.lft.to/lastmile_qr_scan"}, "is_disabled": 0, "fusion_lat": 0.0, "lat": 38.884996666666666, "is_reserved": 0}, {"lon": -77.02696283333333, "fusion_lon": 0.0, "bike_id": "f54b65990bf2ab69cefc794e1b8d2ac7", "type": "electric_scooter", "name": "f54b65990bf2ab69cefc794e1b8d2ac7", "rental_uris": {"android": "https://dc.lft.to/lastmile_qr_scan", "ios": "https://dc.lft.to/lastmile_qr_scan"}, "is_disabled": 0, "fusion_lat": 0.0, "lat": 38.926772666666665, "is_reserved": 0}, {"lon": -77.0159725, "fusion_lon": 0.0, "bike_id": "95fde368d4c7eba188b805ce5f0fa319", "type": "electric_scooter", "name": "95fde368d4c7eba188b805ce5f0fa319", "rental_uris": {"android": "https://dc.lft.to/lastmile_qr_scan", "ios": "https://dc.lft.to/lastmile_qr_scan"}, "is_disabled": 0, "fusion_lat": 0.0, "lat": 38.90327416666667, "is_reserved": 0}, {"lon": -77.021569, "fusion_lon": 0.0, "bike_id": "fd70924247f12b2765cb421b8ed49bbf", "type": "electric_scooter", "name": "fd70924247f12b2765cb421b8ed49bbf", "rental_uris": {"android": "https://dc.lft.to/lastmile_qr_scan", "ios": "https://dc.lft.to/lastmile_qr_scan"}, "is_disabled": 0, "fusion_lat": 0.0, "lat": 38.926043, "is_reserved": 0}, {"lon": -77.04184416666666, "fusion_lon": 0.0, "bike_id": "a9f7e8ce499a931b8e367ed6af0dc754", "type": "electric_scooter", "name": "a9f7e8ce499a931b8e367ed6af0dc754", "rental_uris": {"android": "https://dc.lft.to/lastmile_qr_scan", "ios": "https://dc.lft.to/lastmile_qr_scan"}, "is_disabled": 0, "fusion_lat": 0.0, "lat": 38.92045233333333, "is_reserved": 0}, {"lon": -77.00230283333333, "fusion_lon": 0.0, "bike_id": "a2399d6ca3d8f825b20d9d99057c100b", "type": "electric_scooter", "name": "a2399d6ca3d8f825b20d9d99057c100b", "rental_uris": {"android": "https://dc.lft.to/lastmile_qr_scan", "ios": "https://dc.lft.to/lastmile_qr_scan"}, "is_disabled": 0, "fusion_lat": 0.0, "lat": 38.88508316666667, "is_reserved": 0}, {"lon": -77.02212416666667, "fusion_lon": 0.0, "bike_id": "2378f9eab11003baf38f67189df53183", "type": "electric_scooter", "name": "2378f9eab11003baf38f67189df53183", "rental_uris": {"android": "https://dc.lft.to/lastmile_qr_scan", "ios": "https://dc.lft.to/lastmile_qr_scan"}, "is_disabled": 0, "fusion_lat": 0.0, "lat": 38.92791733333333, "is_reserved": 0}, {"lon": -77.0248055, "fusion_lon": 0.0, "bike_id": "2fc662d9c0cf0f575282b29a89dcf59b", "type": "electric_scooter", "name": "2fc662d9c0cf0f575282b29a89dcf59b", "rental_uris": {"android": "https://dc.lft.to/lastmile_qr_scan", "ios": "https://dc.lft.to/lastmile_qr_scan"}, "is_disabled": 0, "fusion_lat": 0.0, "lat": 38.939642666666664, "is_reserved": 0}, {"lon": -76.9854355, "fusion_lon": 0.0, "bike_id": "5409a61c4189533815bb08362066f40e", "type": "electric_scooter", "name": "5409a61c4189533815bb08362066f40e", "rental_uris": {"android": "https://dc.lft.to/lastmile_qr_scan", "ios": "https://dc.lft.to/lastmile_qr_scan"}, "is_disabled": 0, "fusion_lat": 0.0, "lat": 38.86685, "is_reserved": 0}, {"lon": -77.0358155, "fusion_lon": 0.0, "bike_id": "36670375b2cba24e3352a5fe0c86a72b", "type": "electric_scooter", "name": "36670375b2cba24e3352a5fe0c86a72b", "rental_uris": {"android": "https://dc.lft.to/lastmile_qr_scan", "ios": "https://dc.lft.to/lastmile_qr_scan"}, "is_disabled": 0, "fusion_lat": 0.0, "lat": 38.90404633333333, "is_reserved": 0}, {"lon": -77.00953616666666, "fusion_lon": 0.0, "bike_id": "7b944a77a6a0b7af9d6cc8d442e06749", "type": "electric_scooter", "name": "7b944a77a6a0b7af9d6cc8d442e06749", "rental_uris": {"android": "https://dc.lft.to/lastmile_qr_scan", "ios": "https://dc.lft.to/lastmile_qr_scan"}, "is_disabled": 0, "fusion_lat": 0.0, "lat": 38.897415333333335, "is_reserved": 0}, {"lon": -77.03121383333334, "fusion_lon": 0.0, "bike_id": "86eae9e6c33850e0d589f4edc22cf9a3", "type": "electric_scooter", "name": "86eae9e6c33850e0d589f4edc22cf9a3", "rental_uris": {"android": "https://dc.lft.to/lastmile_qr_scan", "ios": "https://dc.lft.to/lastmile_qr_scan"}, "is_disabled": 0, "fusion_lat": 0.0, "lat": 38.90426033333333, "is_reserved": 0}, {"lon": -77.0848955, "fusion_lon": 0.0, "bike_id": "44e2c73e4abf52282d3fc2b1f0e60d5c", "type": "electric_scooter", "name": "44e2c73e4abf52282d3fc2b1f0e60d5c", "rental_uris": {"android": "https://dc.lft.to/lastmile_qr_scan", "ios": "https://dc.lft.to/lastmile_qr_scan"}, "is_disabled": 0, "fusion_lat": 0.0, "lat": 38.93905433333333, "is_reserved": 0}, {"lon": -77.0365615, "fusion_lon": 0.0, "bike_id": "5300cd50b191930b6ab8ec9405916085", "type": "electric_scooter", "name": "5300cd50b191930b6ab8ec9405916085", "rental_uris": {"android": "https://dc.lft.to/lastmile_qr_scan", "ios": "https://dc.lft.to/lastmile_qr_scan"}, "is_disabled": 0, "fusion_lat": 0.0, "lat": 38.9154275, "is_reserved": 0}, {"lon": -76.99913766666667, "fusion_lon": 0.0, "bike_id": "66fccc19249837e12081b655836cb5d1", "type": "electric_scooter", "name": "66fccc19249837e12081b655836cb5d1", "rental_uris": {"android": "https://dc.lft.to/lastmile_qr_scan", "ios": "https://dc.lft.to/lastmile_qr_scan"}, "is_disabled": 0, "fusion_lat": 0.0, "lat": 38.909243000000004, "is_reserved": 0}, {"lon": -77.00491083333333, "fusion_lon": 0.0, "bike_id": "3a6aaa954fd7edb821da42be29c1d57a", "type": "electric_scooter", "name": "3a6aaa954fd7edb821da42be29c1d57a", "rental_uris": {"android": "https://dc.lft.to/lastmile_qr_scan", "ios": "https://dc.lft.to/lastmile_qr_scan"}, "is_disabled": 0, "fusion_lat": 0.0, "lat": 38.87458383333333, "is_reserved": 0}, {"lon": -77.03214016666666, "fusion_lon": 0.0, "bike_id": "3f9067351a724fce3ee2ab3373c35b62", "type": "electric_scooter", "name": "3f9067351a724fce3ee2ab3373c35b62", "rental_uris": {"android": "https://dc.lft.to/lastmile_qr_scan", "ios": "https://dc.lft.to/lastmile_qr_scan"}, "is_disabled": 0, "fusion_lat": 0.0, "lat": 38.9278235, "is_reserved": 0}, {"lon": -77.02497333333334, "fusion_lon": 0.0, "bike_id": "5f569b8a2f9eee9b6c75c9f8780c44c2", "type": "electric_scooter", "name": "5f569b8a2f9eee9b6c75c9f8780c44c2", "rental_uris": {"android": "https://dc.lft.to/lastmile_qr_scan", "ios": "https://dc.lft.to/lastmile_qr_scan"}, "is_disabled": 0, "fusion_lat": 0.0, "lat": 38.940907833333334, "is_reserved": 0}, {"lon": -77.0236525, "fusion_lon": 0.0, "bike_id": "8a23d51d52c72d944bb939eb986b429f", "type": "electric_scooter", "name": "8a23d51d52c72d944bb939eb986b429f", "rental_uris": {"android": "https://dc.lft.to/lastmile_qr_scan", "ios": "https://dc.lft.to/lastmile_qr_scan"}, "is_disabled": 0, "fusion_lat": 0.0, "lat": 38.93738916666667, "is_reserved": 0}, {"lon": -77.0393115, "fusion_lon": 0.0, "bike_id": "52a54f078d031de8d121729b6a150c46", "type": "electric_scooter", "name": "52a54f078d031de8d121729b6a150c46", "rental_uris": {"android": "https://dc.lft.to/lastmile_qr_scan", "ios": "https://dc.lft.to/lastmile_qr_scan"}, "is_disabled": 0, "fusion_lat": 0.0, "lat": 38.90489266666667, "is_reserved": 0}, {"lon": -77.0435365, "fusion_lon": 0.0, "bike_id": "bd22d5268a7edd342175dccc1cf40d0c", "type": "electric_scooter", "name": "bd22d5268a7edd342175dccc1cf40d0c", "rental_uris": {"android": "https://dc.lft.to/lastmile_qr_scan", "ios": "https://dc.lft.to/lastmile_qr_scan"}, "is_disabled": 0, "fusion_lat": 0.0, "lat": 38.908306, "is_reserved": 0}, {"lon": -77.03829516666667, "fusion_lon": 0.0, "bike_id": "8a378b0417f31556c96362c8060f8051", "type": "electric_scooter", "name": "8a378b0417f31556c96362c8060f8051", "rental_uris": {"android": "https://dc.lft.to/lastmile_qr_scan", "ios": "https://dc.lft.to/lastmile_qr_scan"}, "is_disabled": 0, "fusion_lat": 0.0, "lat": 38.91495833333333, "is_reserved": 0}, {"lon": -77.04037933333333, "fusion_lon": 0.0, "bike_id": "44e013fd3edd81150665f7e070ddf811", "type": "electric_scooter", "name": "44e013fd3edd81150665f7e070ddf811", "rental_uris": {"android": "https://dc.lft.to/lastmile_qr_scan", "ios": "https://dc.lft.to/lastmile_qr_scan"}, "is_disabled": 0, "fusion_lat": 0.0, "lat": 38.8967335, "is_reserved": 0}, {"lon": -77.02486516666667, "fusion_lon": 0.0, "bike_id": "93763d0fa62e6575378f5a49ace05ab9", "type": "electric_scooter", "name": "93763d0fa62e6575378f5a49ace05ab9", "rental_uris": {"android": "https://dc.lft.to/lastmile_qr_scan", "ios": "https://dc.lft.to/lastmile_qr_scan"}, "is_disabled": 0, "fusion_lat": 0.0, "lat": 38.916948, "is_reserved": 0}, {"lon": -77.04951433333333, "fusion_lon": 0.0, "bike_id": "295cf7ca5b1cde4e351ccee7569e73c5", "type": "electric_bike", "name": "295cf7ca5b1cde4e351ccee7569e73c5", "rental_uris": {"android": "https://dc.lft.to/lastmile_qr_scan", "ios": "https://dc.lft.to/lastmile_qr_scan"}, "is_disabled": 0, "fusion_lat": 0.0, "lat": 38.8546105, "is_reserved": 0}, {"lon": -77.04255266666667, "fusion_lon": 0.0, "bike_id": "cc55beb692deca4b7735608a03a843ca", "type": "electric_scooter", "name": "cc55beb692deca4b7735608a03a843ca", "rental_uris": {"android": "https://dc.lft.to/lastmile_qr_scan", "ios": "https://dc.lft.to/lastmile_qr_scan"}, "is_disabled": 0, "fusion_lat": 0.0, "lat": 38.9224295, "is_reserved": 0}, {"lon": -77.0504445, "fusion_lon": 0.0, "bike_id": "1346bb1383f43dd07fba47b436bb365f", "type": "electric_scooter", "name": "1346bb1383f43dd07fba47b436bb365f", "rental_uris": {"android": "https://dc.lft.to/lastmile_qr_scan", "ios": "https://dc.lft.to/lastmile_qr_scan"}, "is_disabled": 0, "fusion_lat": 0.0, "lat": 38.923609666666664, "is_reserved": 0}, {"lon": -77.045221, "fusion_lon": 0.0, "bike_id": "3d1e6f4671fab107b17a82ef72bd68aa", "type": "electric_scooter", "name": "3d1e6f4671fab107b17a82ef72bd68aa", "rental_uris": {"android": "https://dc.lft.to/lastmile_qr_scan", "ios": "https://dc.lft.to/lastmile_qr_scan"}, "is_disabled": 0, "fusion_lat": 0.0, "lat": 38.89958983333333, "is_reserved": 0}, {"lon": -77.05005383333334, "fusion_lon": 0.0, "bike_id": "8f5153a92416ee314123e6a607668580", "type": "electric_scooter", "name": "8f5153a92416ee314123e6a607668580", "rental_uris": {"android": "https://dc.lft.to/lastmile_qr_scan", "ios": "https://dc.lft.to/lastmile_qr_scan"}, "is_disabled": 0, "fusion_lat": 0.0, "lat": 38.9009015, "is_reserved": 0}, {"lon": -77.02926283333333, "fusion_lon": 0.0, "bike_id": "1257dcd84ae59639aa4088d0803525aa", "type": "electric_scooter", "name": "1257dcd84ae59639aa4088d0803525aa", "rental_uris": {"android": "https://dc.lft.to/lastmile_qr_scan", "ios": "https://dc.lft.to/lastmile_qr_scan"}, "is_disabled": 0, "fusion_lat": 0.0, "lat": 38.91684683333333, "is_reserved": 0}, {"lon": -77.04261116666666, "fusion_lon": 0.0, "bike_id": "b6205fcabb05d245f8060459e9c4f78d", "type": "electric_scooter", "name": "b6205fcabb05d245f8060459e9c4f78d", "rental_uris": {"android": "https://dc.lft.to/lastmile_qr_scan", "ios": "https://dc.lft.to/lastmile_qr_scan"}, "is_disabled": 0, "fusion_lat": 0.0, "lat": 38.90657316666667, "is_reserved": 0}, {"lon": -77.02704966666667, "fusion_lon": 0.0, "bike_id": "23ce5425960510998c52be9cad64c765", "type": "electric_scooter", "name": "23ce5425960510998c52be9cad64c765", "rental_uris": {"android": "https://dc.lft.to/lastmile_qr_scan", "ios": "https://dc.lft.to/lastmile_qr_scan"}, "is_disabled": 0, "fusion_lat": 0.0, "lat": 38.949797, "is_reserved": 0}, {"lon": -76.989619, "fusion_lon": 0.0, "bike_id": "3e791e330b6953bbb7f77d2e035dce69", "type": "electric_scooter", "name": "3e791e330b6953bbb7f77d2e035dce69", "rental_uris": {"android": "https://dc.lft.to/lastmile_qr_scan", "ios": "https://dc.lft.to/lastmile_qr_scan"}, "is_disabled": 0, "fusion_lat": 0.0, "lat": 38.85877516666667, "is_reserved": 0}, {"lon": -77.04159533333333, "fusion_lon": 0.0, "bike_id": "4bd0954350d8ba2f4fa8d8861794a339", "type": "electric_scooter", "name": "4bd0954350d8ba2f4fa8d8861794a339", "rental_uris": {"android": "https://dc.lft.to/lastmile_qr_scan", "ios": "https://dc.lft.to/lastmile_qr_scan"}, "is_disabled": 0, "fusion_lat": 0.0, "lat": 38.91508683333333, "is_reserved": 0}, {"lon": -77.03537016666667, "fusion_lon": 0.0, "bike_id": "cb548cabc0f3091aeabf290678aacd95", "type": "electric_scooter", "name": "cb548cabc0f3091aeabf290678aacd95", "rental_uris": {"android": "https://dc.lft.to/lastmile_qr_scan", "ios": "https://dc.lft.to/lastmile_qr_scan"}, "is_disabled": 0, "fusion_lat": 0.0, "lat": 38.92541133333334, "is_reserved": 0}, {"lon": -77.01221033333333, "fusion_lon": 0.0, "bike_id": "b844806099873b384a0928434013759d", "type": "electric_scooter", "name": "b844806099873b384a0928434013759d", "rental_uris": {"android": "https://dc.lft.to/lastmile_qr_scan", "ios": "https://dc.lft.to/lastmile_qr_scan"}, "is_disabled": 0, "fusion_lat": 0.0, "lat": 38.91346133333333, "is_reserved": 0}, {"lon": -77.0319085, "fusion_lon": 0.0, "bike_id": "7d666eb168f761fc43c2c586034ba096", "type": "electric_scooter", "name": "7d666eb168f761fc43c2c586034ba096", "rental_uris": {"android": "https://dc.lft.to/lastmile_qr_scan", "ios": "https://dc.lft.to/lastmile_qr_scan"}, "is_disabled": 0, "fusion_lat": 0.0, "lat": 38.9182715, "is_reserved": 0}, {"lon": -77.02191083333334, "fusion_lon": 0.0, "bike_id": "c0994bd0c0129c5e32296b5c0e1c834a", "type": "electric_scooter", "name": "c0994bd0c0129c5e32296b5c0e1c834a", "rental_uris": {"android": "https://dc.lft.to/lastmile_qr_scan", "ios": "https://dc.lft.to/lastmile_qr_scan"}, "is_disabled": 0, "fusion_lat": 0.0, "lat": 38.902305, "is_reserved": 0}, {"lon": -77.0322115, "fusion_lon": 0.0, "bike_id": "b03d99b5bf7d28a67442ebdad85d6299", "type": "electric_scooter", "name": "b03d99b5bf7d28a67442ebdad85d6299", "rental_uris": {"android": "https://dc.lft.to/lastmile_qr_scan", "ios": "https://dc.lft.to/lastmile_qr_scan"}, "is_disabled": 0, "fusion_lat": 0.0, "lat": 38.901442, "is_reserved": 0}, {"lon": -77.0311225, "fusion_lon": 0.0, "bike_id": "448bacb6e5ae25111dba677d450c01b5", "type": "electric_scooter", "name": "448bacb6e5ae25111dba677d450c01b5", "rental_uris": {"android": "https://dc.lft.to/lastmile_qr_scan", "ios": "https://dc.lft.to/lastmile_qr_scan"}, "is_disabled": 0, "fusion_lat": 0.0, "lat": 38.883094, "is_reserved": 0}, {"lon": -77.02798933333334, "fusion_lon": 0.0, "bike_id": "77ee7416229a0c9ef4f91840d3f91d4a", "type": "electric_scooter", "name": "77ee7416229a0c9ef4f91840d3f91d4a", "rental_uris": {"android": "https://dc.lft.to/lastmile_qr_scan", "ios": "https://dc.lft.to/lastmile_qr_scan"}, "is_disabled": 0, "fusion_lat": 0.0, "lat": 38.902482666666664, "is_reserved": 0}, {"lon": -77.048509, "fusion_lon": 0.0, "bike_id": "dbd59c487ecacce84e33b1810be05f09", "type": "electric_scooter", "name": "dbd59c487ecacce84e33b1810be05f09", "rental_uris": {"android": "https://dc.lft.to/lastmile_qr_scan", "ios": "https://dc.lft.to/lastmile_qr_scan"}, "is_disabled": 0, "fusion_lat": 0.0, "lat": 38.91523316666667, "is_reserved": 0}, {"lon": -77.03039983333333, "fusion_lon": 0.0, "bike_id": "aebde72c93622c594b2f5903b423e663", "type": "electric_scooter", "name": "aebde72c93622c594b2f5903b423e663", "rental_uris": {"android": "https://dc.lft.to/lastmile_qr_scan", "ios": "https://dc.lft.to/lastmile_qr_scan"}, "is_disabled": 0, "fusion_lat": 0.0, "lat": 38.922554, "is_reserved": 0}, {"lon": -77.01190866666667, "fusion_lon": 0.0, "bike_id": "df03ee63be43d6120bb1fec536528dde", "type": "electric_scooter", "name": "df03ee63be43d6120bb1fec536528dde", "rental_uris": {"android": "https://dc.lft.to/lastmile_qr_scan", "ios": "https://dc.lft.to/lastmile_qr_scan"}, "is_disabled": 0, "fusion_lat": 0.0, "lat": 38.9001745, "is_reserved": 0}, {"lon": -76.983372, "fusion_lon": 0.0, "bike_id": "d17498e46053bbe0f0bc5dc5badf7193", "type": "electric_scooter", "name": "d17498e46053bbe0f0bc5dc5badf7193", "rental_uris": {"android": "https://dc.lft.to/lastmile_qr_scan", "ios": "https://dc.lft.to/lastmile_qr_scan"}, "is_disabled": 0, "fusion_lat": 0.0, "lat": 38.865637666666665, "is_reserved": 0}, {"lon": -77.03545366666667, "fusion_lon": 0.0, "bike_id": "bfa2d4ba4f492f33ade0522192eb9f42", "type": "electric_scooter", "name": "bfa2d4ba4f492f33ade0522192eb9f42", "rental_uris": {"android": "https://dc.lft.to/lastmile_qr_scan", "ios": "https://dc.lft.to/lastmile_qr_scan"}, "is_disabled": 0, "fusion_lat": 0.0, "lat": 38.90271516666667, "is_reserved": 0}, {"lon": -77.0775295, "fusion_lon": 0.0, "bike_id": "e788858a4170c4007b0607df71e206d4", "type": "electric_scooter", "name": "e788858a4170c4007b0607df71e206d4", "rental_uris": {"android": "https://dc.lft.to/lastmile_qr_scan", "ios": "https://dc.lft.to/lastmile_qr_scan"}, "is_disabled": 0, "fusion_lat": 0.0, "lat": 38.91999833333333, "is_reserved": 0}, {"lon": -77.0370215, "fusion_lon": 0.0, "bike_id": "19554d1b5eeed83953108491e67fbae2", "type": "electric_bike", "name": "19554d1b5eeed83953108491e67fbae2", "rental_uris": {"android": "https://dc.lft.to/lastmile_qr_scan", "ios": "https://dc.lft.to/lastmile_qr_scan"}, "is_disabled": 0, "fusion_lat": 0.0, "lat": 38.935553666666664, "is_reserved": 0}, {"lon": -77.038883, "fusion_lon": 0.0, "bike_id": "bd5959067bb07113bf0586983a4a175d", "type": "electric_scooter", "name": "bd5959067bb07113bf0586983a4a175d", "rental_uris": {"android": "https://dc.lft.to/lastmile_qr_scan", "ios": "https://dc.lft.to/lastmile_qr_scan"}, "is_disabled": 0, "fusion_lat": 0.0, "lat": 38.92213433333333, "is_reserved": 0}, {"lon": -77.03183583333333, "fusion_lon": 0.0, "bike_id": "003e5d89ce101edced3efc379c1abaf1", "type": "electric_scooter", "name": "003e5d89ce101edced3efc379c1abaf1", "rental_uris": {"android": "https://dc.lft.to/lastmile_qr_scan", "ios": "https://dc.lft.to/lastmile_qr_scan"}, "is_disabled": 0, "fusion_lat": 0.0, "lat": 38.91964766666667, "is_reserved": 0}, {"lon": -77.05918866666667, "fusion_lon": 0.0, "bike_id": "81d91eb660e3fecdf83dc1b79360d941", "type": "electric_scooter", "name": "81d91eb660e3fecdf83dc1b79360d941", "rental_uris": {"android": "https://dc.lft.to/lastmile_qr_scan", "ios": "https://dc.lft.to/lastmile_qr_scan"}, "is_disabled": 0, "fusion_lat": 0.0, "lat": 38.9027635, "is_reserved": 0}, {"lon": -77.028171, "fusion_lon": 0.0, "bike_id": "93ba18da197c41a4966c0d05e35902e7", "type": "electric_scooter", "name": "93ba18da197c41a4966c0d05e35902e7", "rental_uris": {"android": "https://dc.lft.to/lastmile_qr_scan", "ios": "https://dc.lft.to/lastmile_qr_scan"}, "is_disabled": 0, "fusion_lat": 0.0, "lat": 38.89334433333333, "is_reserved": 0}, {"lon": -77.03198183333333, "fusion_lon": 0.0, "bike_id": "3c9e2e8e3c2a9197d95fc8e9f3e6a716", "type": "electric_scooter", "name": "3c9e2e8e3c2a9197d95fc8e9f3e6a716", "rental_uris": {"android": "https://dc.lft.to/lastmile_qr_scan", "ios": "https://dc.lft.to/lastmile_qr_scan"}, "is_disabled": 0, "fusion_lat": 0.0, "lat": 38.918473, "is_reserved": 0}, {"lon": -77.01460666666667, "fusion_lon": 0.0, "bike_id": "439d7442621b2a4cebf1a6f92168fdce", "type": "electric_scooter", "name": "439d7442621b2a4cebf1a6f92168fdce", "rental_uris": {"android": "https://dc.lft.to/lastmile_qr_scan", "ios": "https://dc.lft.to/lastmile_qr_scan"}, "is_disabled": 0, "fusion_lat": 0.0, "lat": 38.915847666666664, "is_reserved": 0}, {"lon": -77.00202466666667, "fusion_lon": 0.0, "bike_id": "2c3d99a296238878700a514f3f7ec48f", "type": "electric_scooter", "name": "2c3d99a296238878700a514f3f7ec48f", "rental_uris": {"android": "https://dc.lft.to/lastmile_qr_scan", "ios": "https://dc.lft.to/lastmile_qr_scan"}, "is_disabled": 0, "fusion_lat": 0.0, "lat": 38.9023505, "is_reserved": 0}, {"lon": -77.02230783333333, "fusion_lon": 0.0, "bike_id": "a615d3816f2b1e3bea1b83387a593520", "type": "electric_scooter", "name": "a615d3816f2b1e3bea1b83387a593520", "rental_uris": {"android": "https://dc.lft.to/lastmile_qr_scan", "ios": "https://dc.lft.to/lastmile_qr_scan"}, "is_disabled": 0, "fusion_lat": 0.0, "lat": 38.89221966666667, "is_reserved": 0}, {"lon": -77.03919183333333, "fusion_lon": 0.0, "bike_id": "6dde3e5f4ae5e22d129021e7444e02fa", "type": "electric_scooter", "name": "6dde3e5f4ae5e22d129021e7444e02fa", "rental_uris": {"android": "https://dc.lft.to/lastmile_qr_scan", "ios": "https://dc.lft.to/lastmile_qr_scan"}, "is_disabled": 0, "fusion_lat": 0.0, "lat": 38.912619666666664, "is_reserved": 0}, {"lon": -77.03842533333334, "fusion_lon": 0.0, "bike_id": "35039463cb74037c92da99d8efc114d0", "type": "electric_scooter", "name": "35039463cb74037c92da99d8efc114d0", "rental_uris": {"android": "https://dc.lft.to/lastmile_qr_scan", "ios": "https://dc.lft.to/lastmile_qr_scan"}, "is_disabled": 0, "fusion_lat": 0.0, "lat": 38.94193166666667, "is_reserved": 0}, {"lon": -76.9997685, "fusion_lon": 0.0, "bike_id": "0cb1061f1f3931ad385e04a22ad378d7", "type": "electric_scooter", "name": "0cb1061f1f3931ad385e04a22ad378d7", "rental_uris": {"android": "https://dc.lft.to/lastmile_qr_scan", "ios": "https://dc.lft.to/lastmile_qr_scan"}, "is_disabled": 0, "fusion_lat": 0.0, "lat": 38.90694233333333, "is_reserved": 0},