{"data": {"bikes": [{"lat": 38.89826216666667, "fusion_lat": 0.0, "type": "electric_scooter", "bike_id": "9b377ec97a3d87644948f678bbed1faa", "rental_uris": {"ios": "https://dc.lft.to/lastmile_qr_scan", "android": "https://dc.lft.to/lastmile_qr_scan"}, "fusion_lon": 0.0, "lon": -76.94641116666666, "name": "9b377ec97a3d87644948f678bbed1faa", "is_reserved": 0, "is_disabled": 0}, {"lat": 38.89001, "fusion_lat": 0.0, "type": "electric_scooter", "bike_id": "4ff6f9574bc3399856d7b5baad6d73c6", "rental_uris": {"ios": "https://dc.lft.to/lastmile_qr_scan", "android": "https://dc.lft.to/lastmile_qr_scan"}, "fusion_lon": 0.0, "lon": -76.9836745, "name": "4ff6f9574bc3399856d7b5baad6d73c6", "is_reserved": 0, "is_disabled": 0}, {"lat": 38.894813166666665, "fusion_lat": 0.0, "type": "electric_scooter", "bike_id": "71a2e2644d52e11f5bb187fe910c5a59", "rental_uris": {"ios": "https://dc.lft.to/lastmile_qr_scan", "android": "https://dc.lft.to/lastmile_qr_scan"}, "fusion_lon": 0.0, "lon": -77.02851183333334, "name": "71a2e2644d52e11f5bb187fe910c5a59", "is_reserved": 0, "is_disabled": 0}, {"lat": 38.92420466666667, "fusion_lat": 0.0, "type": "electric_scooter", "bike_id": "02f14ecd2d9bbd72284f67463b1d398a", "rental_uris": {"ios": "https://dc.lft.to/lastmile_qr_scan", "android": "https://dc.lft.to/lastmile_qr_scan"}, "fusion_lon": 0.0, "lon": -77.051878, "name": "02f14ecd2d9bbd72284f67463b1d398a", "is_reserved": 0, "is_disabled": 0}, {"lat": 38.91205383333333, "fusion_lat": 0.0, "type": "electric_scooter", "bike_id": "d346ac9cf11ff1f5083d7705eba37bb7", "rental_uris": {"ios": "https://dc.lft.to/lastmile_qr_scan", "android": "https://dc.lft.to/lastmile_qr_scan"}, "fusion_lon": 0.0, "lon": -77.07311783333333, "name": "d346ac9cf11ff1f5083d7705eba37bb7", "is_reserved": 0, "is_disabled": 0}, {"lat": 38.892324, "fusion_lat": 0.0, "type": "electric_scooter", "bike_id": "f019de06b9d60fcd12d31f1ac4363cd7", "rental_uris": {"ios": "https://dc.lft.to/lastmile_qr_scan", "android": "https://dc.lft.to/lastmile_qr_scan"}, "fusion_lon": 0.0, "lon": -77.024164, "name": "f019de06b9d60fcd12d31f1ac4363cd7", "is_reserved": 0, "is_disabled": 0}, {"lat": 38.90038083333334, "fusion_lat": 0.0, "type": "electric_scooter", "bike_id": "d92542cba264eaba960028fc436dc93a", "rental_uris": {"ios": "https://dc.lft.to/lastmile_qr_scan", "android": "https://dc.lft.to/lastmile_qr_scan"}, "fusion_lon": 0.0, "lon": -77.01180983333333, "name": "d92542cba264eaba960028fc436dc93a", "is_reserved": 0, "is_disabled": 0}, {"lat": 38.903635666666666, "fusion_lat": 0.0, "type": "electric_scooter", "bike_id": "3e3aba0d46976f25c206e574c602a31e", "rental_uris": {"ios": "https://dc.lft.to/lastmile_qr_scan", "android": "https://dc.lft.to/lastmile_qr_scan"}, "fusion_lon": 0.0, "lon": -77.03566883333333, "name": "3e3aba0d46976f25c206e574c602a31e", "is_reserved": 0, "is_disabled": 0}, {"lat": 38.90941733333333, "fusion_lat": 0.0, "type": "electric_scooter", "bike_id": "69f0f38e9db046efbafb4239e7060129", "rental_uris": {"ios": "https://dc.lft.to/lastmile_qr_scan", "android": "https://dc.lft.to/lastmile_qr_scan"}, "fusion_lon": 0.0, "lon": -77.02704233333333, "name": "69f0f38e9db046efbafb4239e7060129", "is_reserved": 0, "is_disabled": 0}, {"lat": 38.87391383333333, "fusion_lat": 0.0, "type": "electric_scooter", "bike_id": "e77e66dde119434538f7be0256152ba1", "rental_uris": {"ios": "https://dc.lft.to/lastmile_qr_scan", "android": "https://dc.lft.to/lastmile_qr_scan"}, "fusion_lon": 0.0, "lon": -77.01455816666666, "name": "e77e66dde119434538f7be0256152ba1", "is_reserved": 0, "is_disabled": 0}, {"lat": 38.9266415, "fusion_lat": 0.0, "type": "electric_scooter", "bike_id": "64d34d2cce70235975ce31a57f2a3ff5", "rental_uris": {"ios": "https://dc.lft.to/lastmile_qr_scan", "android": "https://dc.lft.to/lastmile_qr_scan"}, "fusion_lon": 0.0, "lon": -77.02581316666667, "name": "64d34d2cce70235975ce31a57f2a3ff5", "is_reserved": 0, "is_disabled": 0}, {"lat": 38.83608616666667, "fusion_lat": 0.0, "type": "electric_bike", "bike_id": "12a2e936997ce4f6e07a9d6dc2d19283", "rental_uris": {"ios": "https://dc.lft.to/lastmile_qr_scan", "android": "https://dc.lft.to/lastmile_qr_scan"}, "fusion_lon": 0.0, "lon": -77.003786, "name": "12a2e936997ce4f6e07a9d6dc2d19283", "is_reserved": 0, "is_disabled": 0}, {"lat": 38.907881333333336, "fusion_lat": 0.0, "type": "electric_scooter", "bike_id": "1f1664c452a950dd93ba32207a11a967", "rental_uris": {"ios": "https://dc.lft.to/lastmile_qr_scan", "android": "https://dc.lft.to/lastmile_qr_scan"}, "fusion_lon": 0.0, "lon": -77.06359916666666, "name": "1f1664c452a950dd93ba32207a11a967", "is_reserved": 0, "is_disabled": 0}, {"lat": 38.926597666666666, "fusion_lat": 0.0, "type": "electric_scooter", "bike_id": "db27186393ceeafee468691bd7109697", "rental_uris": {"ios": "https://dc.lft.to/lastmile_qr_scan", "android": "https://dc.lft.to/lastmile_qr_scan"}, "fusion_lon": 0.0, "lon": -77.024211, "name": "db27186393ceeafee468691bd7109697", "is_reserved": 0, "is_disabled": 0}, {"lat": 38.87629616666667, "fusion_lat": 0.0, "type": "electric_scooter", "bike_id": "61d3e1ea73a3a3ac76c9b7389579efdf", "rental_uris": {"ios": "https://dc.lft.to/lastmile_qr_scan", "android": "https://dc.lft.to/lastmile_qr_scan"}, "fusion_lon": 0.0, "lon": -77.01481983333333, "name": "61d3e1ea73a3a3ac76c9b7389579efdf", "is_reserved": 0, "is_disabled": 0}, {"lat": 38.87545216666667, "fusion_lat": 0.0, "type": "electric_scooter", "bike_id": "0d39b8e45d345d8501d7f5a2d6378005", "rental_uris": {"ios": "https://dc.lft.to/lastmile_qr_scan", "android": "https://dc.lft.to/lastmile_qr_scan"}, "fusion_lon": 0.0, "lon": -77.00534616666667, "name": "0d39b8e45d345d8501d7f5a2d6378005", "is_reserved": 0, "is_disabled": 0}, {"lat": 38.909453, "fusion_lat": 0.0, "type": "electric_scooter", "bike_id": "62746b239ff170aa407d9feb63000966", "rental_uris": {"ios": "https://dc.lft.to/lastmile_qr_scan", "android": "https://dc.lft.to/lastmile_qr_scan"}, "fusion_lon": 0.0, "lon": -77.02292533333333, "name": "62746b239ff170aa407d9feb63000966", "is_reserved": 0, "is_disabled": 0}, {"lat": 38.90503916666667, "fusion_lat": 0.0, "type": "electric_scooter", "bike_id": "15a2fdb70907ca9fdc9d9cab8a16183d", "rental_uris": {"ios": "https://dc.lft.to/lastmile_qr_scan", "android": "https://dc.lft.to/lastmile_qr_scan"}, "fusion_lon": 0.0, "lon": -77.06018583333334, "name": "15a2fdb70907ca9fdc9d9cab8a16183d", "is_reserved": 0, "is_disabled": 0}, {"lat": 38.91695166666667, "fusion_lat": 0.0, "type": "electric_scooter", "bike_id": "a529b6f217ec91302975974fb65c76d0", "rental_uris": {"ios": "https://dc.lft.to/lastmile_qr_scan", "android": "https://dc.lft.to/lastmile_qr_scan"}, "fusion_lon": 0.0, "lon": -77.04107516666667, "name": "a529b6f217ec91302975974fb65c76d0", "is_reserved": 0, "is_disabled": 0}, {"lat": 38.883249, "fusion_lat": 0.0, "type": "electric_scooter", "bike_id": "eac9000320b0ce788cbbf9ffc6eb02d0", "rental_uris": {"ios": "https://dc.lft.to/lastmile_qr_scan", "android": "https://dc.lft.to/lastmile_qr_scan"}, "fusion_lon": 0.0, "lon": -77.011387, "name": "eac9000320b0ce788cbbf9ffc6eb02d0", "is_reserved": 0, "is_disabled": 0}, {"lat": 38.9072725, "fusion_lat": 0.0, "type": "electric_scooter", "bike_id": "f73217ecbe40814f59365489bb29e919", "rental_uris": {"ios": "https://dc.lft.to/lastmile_qr_scan", "android": "https://dc.lft.to/lastmile_qr_scan"}, "fusion_lon": 0.0, "lon": -77.025864, "name": "f73217ecbe40814f59365489bb29e919", "is_reserved": 0, "is_disabled": 0}, {"lat": 38.989897666666664, "fusion_lat": 0.0, "type": "electric_bike", "bike_id": "f24c5c7e4443d6972a27fa1bf2ee2971", "rental_uris": {"ios": "https://dc.lft.to/lastmile_qr_scan", "android": "https://dc.lft.to/lastmile_qr_scan"}, "fusion_lon": 0.0, "lon": -77.09631333333333, "name": "f24c5c7e4443d6972a27fa1bf2ee2971", "is_reserved": 0, "is_disabled": 0}, {"lat": 38.92495266666667, "fusion_lat": 0.0, "type": "electric_scooter", "bike_id": "7a1fcb2361be3c694d86e3c8bc653379", "rental_uris": {"ios": "https://dc.lft.to/lastmile_qr_scan", "android": "https://dc.lft.to/lastmile_qr_scan"}, "fusion_lon": 0.0, "lon": -77.03911283333333, "name": "7a1fcb2361be3c694d86e3c8bc653379", "is_reserved": 0, "is_disabled": 0}, {"lat": 39.014139666666665, "fusion_lat": 0.0, "type": "electric_bike", "bike_id": "e1211e632fcd0f249614a575cfd395a8", "rental_uris": {"ios": "https://dc.lft.to/lastmile_qr_scan", "android": "https://dc.lft.to/lastmile_qr_scan"}, "fusion_lon": 0.0, "lon": -77.04494733333334, "name": "e1211e632fcd0f249614a575cfd395a8", "is_reserved": 0, "is_disabled": 0}, {"lat": 38.898169, "fusion_lat": 0.0, "type": "electric_scooter", "bike_id": "ded8f0fc666e59d21b128d3e996d02ef", "rental_uris": {"ios": "https://dc.lft.to/lastmile_qr_scan", "android": "https://dc.lft.to/lastmile_qr_scan"}, "fusion_lon": 0.0, "lon": -77.03156533333333, "name": "ded8f0fc666e59d21b128d3e996d02ef", "is_reserved": 0, "is_disabled": 0}, {"lat": 38.8737475, "fusion_lat": 0.0, "type": "electric_scooter", "bike_id": "6365c84571bb2cd176798367062f7bd6", "rental_uris": {"ios": "https://dc.lft.to/lastmile_qr_scan", "android": "https://dc.lft.to/lastmile_qr_scan"}, "fusion_lon": 0.0, "lon": -77.00169, "name": "6365c84571bb2cd176798367062f7bd6", "is_reserved": 0, "is_disabled": 0}, {"lat": 38.90668216666667, "fusion_lat": 0.0, "type": "electric_scooter", "bike_id": "28ad41f13bb18891e5404ad83206f4b0", "rental_uris": {"ios": "https://dc.lft.to/lastmile_qr_scan", "android": "https://dc.lft.to/lastmile_qr_scan"}, "fusion_lon": 0.0, "lon": -77.03919216666667, "name": "28ad41f13bb18891e5404ad83206f4b0", "is_reserved": 0, "is_disabled": 0}, {"lat": 38.88133083333334, "fusion_lat": 0.0, "type": "electric_bike", "bike_id": "657ba58178247513051ff45a709c8b62", "rental_uris": {"ios": "https://dc.lft.to/lastmile_qr_scan", "android": "https://dc.lft.to/lastmile_qr_scan"}, "fusion_lon": 0.0, "lon": -76.995497, "name": "657ba58178247513051ff45a709c8b62", "is_reserved": 0, "is_disabled": 0}, {"lat": 38.93423283333333, "fusion_lat": 0.0, "type": "electric_scooter", "bike_id": "0ac283d3f93f4b7b8114e3bfcfba9efe", "rental_uris": {"ios": "https://dc.lft.to/lastmile_qr_scan", "android": "https://dc.lft.to/lastmile_qr_scan"}, "fusion_lon": 0.0, "lon": -77.040004, "name": "0ac283d3f93f4b7b8114e3bfcfba9efe", "is_reserved": 0, "is_disabled": 0}, {"lat": 38.89362833333333, "fusion_lat": 0.0, "type": "electric_scooter", "bike_id": "72bade1ce321a12a5609998caf84db3c", "rental_uris": {"ios": "https://dc.lft.to/lastmile_qr_scan", "android": "https://dc.lft.to/lastmile_qr_scan"}, "fusion_lon": 0.0, "lon": -77.07519966666666, "name": "72bade1ce321a12a5609998caf84db3c", "is_reserved": 0, "is_disabled": 0}, {"lat": 38.89351166666667, "fusion_lat": 0.0, "type": "electric_scooter", "bike_id": "3236bbe784754b2145728d87ca1aca12", "rental_uris": {"ios": "https://dc.lft.to/lastmile_qr_scan", "android": "https://dc.lft.to/lastmile_qr_scan"}, "fusion_lon": 0.0, "lon": -76.98654533333334, "name": "3236bbe784754b2145728d87ca1aca12", "is_reserved": 0, "is_disabled": 0}, {"lat": 38.92176966666667, "fusion_lat": 0.0, "type": "electric_scooter", "bike_id": "c7053c8c3da9a9f5bb8b3ecaf899787b", "rental_uris": {"ios": "https://dc.lft.to/lastmile_qr_scan", "android": "https://dc.lft.to/lastmile_qr_scan"}, "fusion_lon": 0.0, "lon": -77.03827383333334, "name": "c7053c8c3da9a9f5bb8b3ecaf899787b", "is_reserved": 0, "is_disabled": 0}, {"lat": 38.917242333333334, "fusion_lat": 0.0, "type": "electric_scooter", "bike_id": "f04920e63c720bea8421e5ad698d3be8", "rental_uris": {"ios": "https://dc.lft.to/lastmile_qr_scan", "android": "https://dc.lft.to/lastmile_qr_scan"}, "fusion_lon": 0.0, "lon": -77.02700766666666, "name": "f04920e63c720bea8421e5ad698d3be8", "is_reserved": 0, "is_disabled": 0}, {"lat": 38.9066045, "fusion_lat": 0.0, "type": "electric_scooter", "bike_id": "1abf80352e4e96333d1efe791bf7b394", "rental_uris": {"ios": "https://dc.lft.to/lastmile_qr_scan", "android": "https://dc.lft.to/lastmile_qr_scan"}, "fusion_lon": 0.0, "lon": -77.02692633333334, "name": "1abf80352e4e96333d1efe791bf7b394", "is_reserved": 0, "is_disabled": 0}, {"lat": 38.95802116666667, "fusion_lat": 0.0, "type": "electric_scooter", "bike_id": "d399177f9abd82c679151d06caccd800", "rental_uris": {"ios": "https://dc.lft.to/lastmile_qr_scan", "android": "https://dc.lft.to/lastmile_qr_scan"}, "fusion_lon": 0.0, "lon": -77.01511033333334, "name": "d399177f9abd82c679151d06caccd800", "is_reserved": 0, "is_disabled": 0}, {"lat": 38.898287833333335, "fusion_lat": 0.0, "type": "electric_scooter", "bike_id": "cdbb361afec7541f80891af006f836be", "rental_uris": {"ios": "https://dc.lft.to/lastmile_qr_scan", "android": "https://dc.lft.to/lastmile_qr_scan"}, "fusion_lon": 0.0, "lon": -76.94651583333334, "name": "cdbb361afec7541f80891af006f836be", "is_reserved": 0, "is_disabled": 0}, {"lat": 38.92398816666667, "fusion_lat": 0.0, "type": "electric_scooter", "bike_id": "456018680a63cea8898f1d86fc6f8444", "rental_uris": {"ios": "https://dc.lft.to/lastmile_qr_scan", "android": "https://dc.lft.to/lastmile_qr_scan"}, "fusion_lon": 0.0, "lon": -77.02542533333333, "name": "456018680a63cea8898f1d86fc6f8444", "is_reserved": 0, "is_disabled": 0}, {"lat": 38.91589883333333, "fusion_lat": 0.0, "type": "electric_scooter", "bike_id": "5f70ae5a8ecadb0a32095940d70c2af5", "rental_uris": {"ios": "https://dc.lft.to/lastmile_qr_scan", "android": "https://dc.lft.to/lastmile_qr_scan"}, "fusion_lon": 0.0, "lon": -77.0416725, "name": "5f70ae5a8ecadb0a32095940d70c2af5", "is_reserved": 0, "is_disabled": 0}, {"lat": 38.92612483333333, "fusion_lat": 0.0, "type": "electric_scooter", "bike_id": "2a1e9718d7e3df9811aaa14dab260ba0", "rental_uris": {"ios": "https://dc.lft.to/lastmile_qr_scan", "android": "https://dc.lft.to/lastmile_qr_scan"}, "fusion_lon": 0.0, "lon": -77.02162083333333, "name": "2a1e9718d7e3df9811aaa14dab260ba0", "is_reserved": 0, "is_disabled": 0}, {"lat": 38.90004833333333, "fusion_lat": 0.0, "type": "electric_scooter", "bike_id": "7acd52419d9350003cb0bbf6d19265d8", "rental_uris": {"ios": "https://dc.lft.to/lastmile_qr_scan", "android": "https://dc.lft.to/lastmile_qr_scan"}, "fusion_lon": 0.0, "lon": -76.99322366666667, "name": "7acd52419d9350003cb0bbf6d19265d8", "is_reserved": 0, "is_disabled": 0}, {"lat": 38.916298833333336, "fusion_lat": 0.0, "type": "electric_scooter", "bike_id": "b4bcf2cd9eb5c8ee9c5019686b89411b", "rental_uris": {"ios": "https://dc.lft.to/lastmile_qr_scan", "android": "https://dc.lft.to/lastmile_qr_scan"}, "fusion_lon": 0.0, "lon": -77.05074366666666, "name": "b4bcf2cd9eb5c8ee9c5019686b89411b", "is_reserved": 0, "is_disabled": 0}, {"lat": 38.9027645, "fusion_lat": 0.0, "type": "electric_scooter", "bike_id": "2b5c5f26b3571ff88a92f3581e201798", "rental_uris": {"ios": "https://dc.lft.to/lastmile_qr_scan", "android": "https://dc.lft.to/lastmile_qr_scan"}, "fusion_lon": 0.0, "lon": -77.04606066666666, "name": "2b5c5f26b3571ff88a92f3581e201798", "is_reserved": 0, "is_disabled": 0}, {"lat": 38.905813333333334, "fusion_lat": 0.0, "type": "electric_scooter", "bike_id": "cf0a28494ddcba7c0b12dff9cd2e4cd9", "rental_uris": {"ios": "https://dc.lft.to/lastmile_qr_scan", "android": "https://dc.lft.to/lastmile_qr_scan"}, "fusion_lon": 0.0, "lon": -77.05130016666666, "name": "cf0a28494ddcba7c0b12dff9cd2e4cd9", "is_reserved": 0, "is_disabled": 0}, {"lat": 38.925942, "fusion_lat": 0.0, "type": "electric_scooter", "bike_id": "4fa9391c0c6c32a3190a3535a826a4fc", "rental_uris": {"ios": "https://dc.lft.to/lastmile_qr_scan", "android": "https://dc.lft.to/lastmile_qr_scan"}, "fusion_lon": 0.0, "lon": -77.03636733333333, "name": "4fa9391c0c6c32a3190a3535a826a4fc", "is_reserved": 0, "is_disabled": 0}, {"lat": 38.8801945, "fusion_lat": 0.0, "type": "electric_scooter", "bike_id": "0e9158b2a3a0093f1c9edbcb0bea686c", "rental_uris": {"ios": "https://dc.lft.to/lastmile_qr_scan", "android": "https://dc.lft.to/lastmile_qr_scan"}, "fusion_lon": 0.0, "lon": -76.9806575, "name": "0e9158b2a3a0093f1c9edbcb0bea686c", "is_reserved": 0, "is_disabled": 0}, {"lat": 38.923100166666664, "fusion_lat": 0.0, "type": "electric_scooter", "bike_id": "ac3340d6c6d9a0217ee96f11da15b6b3", "rental_uris": {"ios": "https://dc.lft.to/lastmile_qr_scan", "android": "https://dc.lft.to/lastmile_qr_scan"}, "fusion_lon": 0.0, "lon": -77.03910266666666, "name": "ac3340d6c6d9a0217ee96f11da15b6b3", "is_reserved": 0, "is_disabled": 0}, {"lat": 38.88744116666667, "fusion_lat": 0.0, "type": "electric_scooter", "bike_id": "fb6f7b10395df635cb1ef594474b1260", "rental_uris": {"ios": "https://dc.lft.to/lastmile_qr_scan", "android": "https://dc.lft.to/lastmile_qr_scan"}, "fusion_lon": 0.0, "lon": -77.0139805, "name": "fb6f7b10395df635cb1ef594474b1260", "is_reserved": 0, "is_disabled": 0}, {"lat": 38.8873475, "fusion_lat": 0.0, "type": "electric_scooter", "bike_id": "06f014ecf16fd8bb0d3fd5d4d25a9fe5", "rental_uris": {"ios": "https://dc.lft.to/lastmile_qr_scan", "android": "https://dc.lft.to/lastmile_qr_scan"}, "fusion_lon": 0.0, "lon": -77.03172683333334, "name": "06f014ecf16fd8bb0d3fd5d4d25a9fe5", "is_reserved": 0, "is_disabled": 0}, {"lat": 38.962229666666666, "fusion_lat": 0.0, "type": "electric_bike", "bike_id": "dd23d48f26914c25e397d5a5f793acc0", "rental_uris": {"ios": "https://dc.lft.to/lastmile_qr_scan", "android": "https://dc.lft.to/lastmile_qr_scan"}, "fusion_lon": 0.0, "lon": -77.02627133333333, "name": "dd23d48f26914c25e397d5a5f793acc0", "is_reserved": 0, "is_disabled": 0}, {"lat": 38.88733216666667, "fusion_lat": 0.0, "type": "electric_scooter", "bike_id": "95b20413aeb10b321c36fa7a1d8f2d06", "rental_uris": {"ios": "https://dc.lft.to/lastmile_qr_scan", "android": "https://dc.lft.to/lastmile_qr_scan"}, "fusion_lon": 0.0, "lon": -77.013863, "name": "95b20413aeb10b321c36fa7a1d8f2d06", "is_reserved": 0, "is_disabled": 0}, {"lat": 38.909407333333334, "fusion_lat": 0.0, "type": "electric_scooter", "bike_id": "03366e7ac7353c89905ce047611fb5da", "rental_uris": {"ios": "https://dc.lft.to/lastmile_qr_scan", "android": "https://dc.lft.to/lastmile_qr_scan"}, "fusion_lon": 0.0, "lon": -77.03206316666666, "name": "03366e7ac7353c89905ce047611fb5da", "is_reserved": 0, "is_disabled": 0}, {"lat": 38.957648166666665, "fusion_lat": 0.0, "type": "electric_scooter", "bike_id": "1b5bd66b592690be99bd441c13f7ae2c", "rental_uris": {"ios": "https://dc.lft.to/lastmile_qr_scan", "android": "https://dc.lft.to/lastmile_qr_scan"}, "fusion_lon": 0.0, "lon": -77.0149585, "name": "1b5bd66b592690be99bd441c13f7ae2c", "is_reserved": 0, "is_disabled": 0}, {"lat": 38.917475, "fusion_lat": 0.0, "type": "electric_scooter", "bike_id": "30a7e5bb230f95597b868c388524bee7", "rental_uris": {"ios": "https://dc.lft.to/lastmile_qr_scan", "android": "https://dc.lft.to/lastmile_qr_scan"}, "fusion_lon": 0.0, "lon": -77.06937866666667, "name": "30a7e5bb230f95597b868c388524bee7", "is_reserved": 0, "is_disabled": 0}, {"lat": 38.915698666666664, "fusion_lat": 0.0, "type": "electric_scooter", "bike_id": "c5f72674a1bcbf9db2ddf0b2aa3a5861", "rental_uris": {"ios": "https://dc.lft.to/lastmile_qr_scan", "android": "https://dc.lft.to/lastmile_qr_scan"}, "fusion_lon": 0.0, "lon": -77.021962, "name": "c5f72674a1bcbf9db2ddf0b2aa3a5861", "is_reserved": 0, "is_disabled": 0}, {"lat": 38.923405333333335, "fusion_lat": 0.0, "type": "electric_scooter", "bike_id": "09ce70f9441c275517901d72dfc0e440", "rental_uris": {"ios": "https://dc.lft.to/lastmile_qr_scan", "android": "https://dc.lft.to/lastmile_qr_scan"}, "fusion_lon": 0.0, "lon": -77.00913633333333, "name": "09ce70f9441c275517901d72dfc0e440", "is_reserved": 0, "is_disabled": 0}, {"lat": 38.91765, "fusion_lat": 0.0, "type": "electric_scooter", "bike_id": "a0ca7b0fb1558a7c57c6655dcee6c524", "rental_uris": {"ios": "https://dc.lft.to/lastmile_qr_scan", "android": "https://dc.lft.to/lastmile_qr_scan"}, "fusion_lon": 0.0, "lon": -77.03204133333334, "name": "a0ca7b0fb1558a7c57c6655dcee6c524", "is_reserved": 0, "is_disabled": 0}, {"lat": 38.88480783333333, "fusion_lat": 0.0, "type": "electric_scooter", "bike_id": "84fb428e12cf47ce591443aeedbde198", "rental_uris": {"ios": "https://dc.lft.to/lastmile_qr_scan", "android": "https://dc.lft.to/lastmile_qr_scan"}, "fusion_lon": 0.0, "lon": -76.9970065, "name": "84fb428e12cf47ce591443aeedbde198", "is_reserved": 0, "is_disabled": 0}, {"lat": 38.906291833333334, "fusion_lat": 0.0, "type": "electric_scooter", "bike_id": "d32a0dca06126d318e1f00ddd183dd80", "rental_uris": {"ios": "https://dc.lft.to/lastmile_qr_scan", "android": "https://dc.lft.to/lastmile_qr_scan"}, "fusion_lon": 0.0, "lon": -77.0513005, "name": "d32a0dca06126d318e1f00ddd183dd80", "is_reserved": 0, "is_disabled": 0}, {"lat": 38.90720616666667, "fusion_lat": 0.0, "type": "electric_scooter", "bike_id": "283f177adae7c08a311a4f7c116e6c2b", "rental_uris": {"ios": "https://dc.lft.to/lastmile_qr_scan", "android": "https://dc.lft.to/lastmile_qr_scan"}, "fusion_lon": 0.0, "lon": -77.04357533333334, "name": "283f177adae7c08a311a4f7c116e6c2b", "is_reserved": 0, "is_disabled": 0}, {"lat": 38.901631, "fusion_lat": 0.0, "type": "electric_scooter", "bike_id": "3efae24048391452a01cf601a4c860a0", "rental_uris": {"ios": "https://dc.lft.to/lastmile_qr_scan", "android": "https://dc.lft.to/lastmile_qr_scan"}, "fusion_lon": 0.0, "lon": -77.046603, "name": "3efae24048391452a01cf601a4c860a0", "is_reserved": 0, "is_disabled": 0}, {"lat": 38.90029916666667, "fusion_lat": 0.0, "type": "electric_scooter", "bike_id": "1a117d2af1b349f35209dd2443fa991c", "rental_uris": {"ios": "https://dc.lft.to/lastmile_qr_scan", "android": "https://dc.lft.to/lastmile_qr_scan"}, "fusion_lon": 0.0, "lon": -76.9918965, "name": "1a117d2af1b349f35209dd2443fa991c", "is_reserved": 0, "is_disabled": 0}, {"lat": 38.8749185, "fusion_lat": 0.0, "type": "electric_scooter", "bike_id": "46379315cfb1e709f8c6296645855d18", "rental_uris": {"ios": "https://dc.lft.to/lastmile_qr_scan", "android": "https://dc.lft.to/lastmile_qr_scan"}, "fusion_lon": 0.0, "lon": -77.00172116666667, "name": "46379315cfb1e709f8c6296645855d18", "is_reserved": 0, "is_disabled": 0}, {"lat": 38.909478666666665, "fusion_lat": 0.0, "type": "electric_scooter", "bike_id": "bf26bacdd1db039f99d13307c10ef346", "rental_uris": {"ios": "https://dc.lft.to/lastmile_qr_scan", "android": "https://dc.lft.to/lastmile_qr_scan"}, "fusion_lon": 0.0, "lon": -77.0345125, "name": "bf26bacdd1db039f99d13307c10ef346", "is_reserved": 0, "is_disabled": 0}, {"lat": 38.91976316666667, "fusion_lat": 0.0, "type": "electric_scooter", "bike_id": "5722d8b2c4890abc9d6d8474d332b37f", "rental_uris": {"ios": "https://dc.lft.to/lastmile_qr_scan", "android": "https://dc.lft.to/lastmile_qr_scan"}, "fusion_lon": 0.0, "lon": -77.0417685, "name": "5722d8b2c4890abc9d6d8474d332b37f", "is_reserved": 0, "is_disabled": 0}, {"lat": 38.903054166666664, "fusion_lat": 0.0, "type": "electric_scooter", "bike_id": "55e1bc20d695c2e143eea034585d5da5", "rental_uris": {"ios": "https://dc.lft.to/lastmile_qr_scan", "android": "https://dc.lft.to/lastmile_qr_scan"}, "fusion_lon": 0.0, "lon": -77.061147, "name": "55e1bc20d695c2e143eea034585d5da5", "is_reserved": 0, "is_disabled": 0}, {"lat": 38.873977, "fusion_lat": 0.0, "type": "electric_scooter", "bike_id": "3413ff4dcd83dd35f2e4fcbf839bcdc6", "rental_uris": {"ios": "https://dc.lft.to/lastmile_qr_scan", "android": "https://dc.lft.to/lastmile_qr_scan"}, "fusion_lon": 0.0, "lon": -77.00029866666667, "name": "3413ff4dcd83dd35f2e4fcbf839bcdc6", "is_reserved": 0, "is_disabled": 0}, {"lat": 38.877993000000004, "fusion_lat": 0.0, "type": "electric_scooter", "bike_id": "f6effe06c585d71c6f075f639ad22e75", "rental_uris": {"ios": "https://dc.lft.to/lastmile_qr_scan", "android": "https://dc.lft.to/lastmile_qr_scan"}, "fusion_lon": 0.0, "lon": -77.003579, "name": "f6effe06c585d71c6f075f639ad22e75", "is_reserved": 0, "is_disabled": 0}, {"lat": 38.924983, "fusion_lat": 0.0, "type": "electric_scooter", "bike_id": "cf5bb9ebea7c2c4948e4954b01fd0037", "rental_uris": {"ios": "https://dc.lft.to/lastmile_qr_scan", "android": "https://dc.lft.to/lastmile_qr_scan"}, "fusion_lon": 0.0, "lon": -77.0244595, "name": "cf5bb9ebea7c2c4948e4954b01fd0037", "is_reserved": 0, "is_disabled": 0}, {"lat": 38.8982175, "fusion_lat": 0.0, "type": "electric_bike", "bike_id": "7978ca0a56ecde512a9e874bfbb128ea", "rental_uris": {"ios": "https://dc.lft.to/lastmile_qr_scan", "android": "https://dc.lft.to/lastmile_qr_scan"}, "fusion_lon": 0.0, "lon": -77.006016, "name": "7978ca0a56ecde512a9e874bfbb128ea", "is_reserved": 0, "is_disabled": 0}, {"lat": 38.9157295, "fusion_lat": 0.0, "type": "electric_scooter", "bike_id": "ef490be07436763c7f48913f09c09f91", "rental_uris": {"ios": "https://dc.lft.to/lastmile_qr_scan", "android": "https://dc.lft.to/lastmile_qr_scan"}, "fusion_lon": 0.0, "lon": -77.02190566666667, "name": "ef490be07436763c7f48913f09c09f91", "is_reserved": 0, "is_disabled": 0}, {"lat": 38.91281133333333, "fusion_lat": 0.0, "type": "electric_scooter", "bike_id": "a412cfd5a657fc6d351fd282292b55fc", "rental_uris": {"ios": "https://dc.lft.to/lastmile_qr_scan", "android": "https://dc.lft.to/lastmile_qr_scan"}, "fusion_lon": 0.0, "lon": -77.04510016666667, "name": "a412cfd5a657fc6d351fd282292b55fc", "is_reserved": 0, "is_disabled": 0}, {"lat": 38.895982333333336, "fusion_lat": 0.0, "type": "electric_scooter", "bike_id": "322fec76053b702ca187c0dcce544d79", "rental_uris": {"ios": "https://dc.lft.to/lastmile_qr_scan", "android": "https://dc.lft.to/lastmile_qr_scan"}, "fusion_lon": 0.0, "lon": -77.00904066666666, "name": "322fec76053b702ca187c0dcce544d79", "is_reserved": 0, "is_disabled": 0}, {"lat": 38.9213915, "fusion_lat": 0.0, "type": "electric_scooter", "bike_id": "f0a66a910dfe927ad8567a9d6ba51f4d", "rental_uris": {"ios": "https://dc.lft.to/lastmile_qr_scan", "android": "https://dc.lft.to/lastmile_qr_scan"}, "fusion_lon": 0.0, "lon": -77.04367583333334, "name": "f0a66a910dfe927ad8567a9d6ba51f4d", "is_reserved": 0, "is_disabled": 0}, {"lat": 38.887358, "fusion_lat": 0.0, "type": "electric_scooter", "bike_id": "b2b937a75143ca69861e300dc4aa625b", "rental_uris": {"ios": "https://dc.lft.to/lastmile_qr_scan", "android": "https://dc.lft.to/lastmile_qr_scan"}, "fusion_lon": 0.0, "lon": -77.00339633333333, "name": "b2b937a75143ca69861e300dc4aa625b", "is_reserved": 0, "is_disabled": 0}, {"lat": 38.907874666666665, "fusion_lat": 0.0, "type": "electric_scooter", "bike_id": "f9493190ecd43c5b9cc1c92babffe546", "rental_uris": {"ios": "https://dc.lft.to/lastmile_qr_scan", "android": "https://dc.lft.to/lastmile_qr_scan"}, "fusion_lon": 0.0, "lon": -77.06414583333333, "name": "f9493190ecd43c5b9cc1c92babffe546", "is_reserved": 0, "is_disabled": 0}, {"lat": 38.8992515, "fusion_lat": 0.0, "type": "electric_scooter", "bike_id": "60ad0158f702163193d7dc009936349b", "rental_uris": {"ios": "https://dc.lft.to/lastmile_qr_scan", "android": "https://dc.lft.to/lastmile_qr_scan"}, "fusion_lon": 0.0, "lon": -77.012678, "name": "60ad0158f702163193d7dc009936349b", "is_reserved": 0, "is_disabled": 0}, {"lat": 38.83628266666667, "fusion_lat": 0.0, "type": "electric_bike", "bike_id": "e914ced19590b1ddab2c74f9ca91366d", "rental_uris": {"ios": "https://dc.lft.to/lastmile_qr_scan", "android": "https://dc.lft.to/lastmile_qr_scan"}, "fusion_lon": 0.0, "lon": -77.06943566666666, "name": "e914ced19590b1ddab2c74f9ca91366d", "is_reserved": 0, "is_disabled": 0}, {"lat": 38.89536666666667, "fusion_lat": 0.0, "type": "electric_scooter", "bike_id": "a0837bd8f15969b01ed8063a8dd042c8", "rental_uris": {"ios": "https://dc.lft.to/lastmile_qr_scan", "android": "https://dc.lft.to/lastmile_qr_scan"}, "fusion_lon": 0.0, "lon": -77.00357283333334, "name": "a0837bd8f15969b01ed8063a8dd042c8", "is_reserved": 0, "is_disabled": 0}, {"lat": 38.917097, "fusion_lat": 0.0, "type": "electric_scooter", "bike_id": "2a4d1bfd0366511b57a2b8345ad29da5", "rental_uris": {"ios": "https://dc.lft.to/lastmile_qr_scan", "android": "https://dc.lft.to/lastmile_qr_scan"}, "fusion_lon": 0.0, "lon": -77.02958866666667, "name": "2a4d1bfd0366511b57a2b8345ad29da5", "is_reserved": 0, "is_disabled": 0}, {"lat": 38.918513833333336, "fusion_lat": 0.0, "type": "electric_bike", "bike_id": "ae788963d2d87bf37a3f6beb19c3f6bc", "rental_uris": {"ios": "https://dc.lft.to/lastmile_qr_scan", "android": "https://dc.lft.to/lastmile_qr_scan"}, "fusion_lon": 0.0, "lon": -76.96085316666667, "name": "ae788963d2d87bf37a3f6beb19c3f6bc", "is_reserved": 0, "is_disabled": 0}, {"lat": 38.9066085, "fusion_lat": 0.0, "type": "electric_scooter", "bike_id": "6fca361b6d286f15d7a808e6f16b6470", "rental_uris": {"ios": "https://dc.lft.to/lastmile_qr_scan", "android": "https://dc.lft.to/lastmile_qr_scan"}, "fusion_lon": 0.0, "lon": -77.009621, "name": "6fca361b6d286f15d7a808e6f16b6470", "is_reserved": 0, "is_disabled": 0}, {"lat": 38.96145333333333, "fusion_lat": 0.0, "type": "electric_scooter", "bike_id": "95a3235f8b9222dabe3e8d815d61c840", "rental_uris": {"ios": "https://dc.lft.to/lastmile_qr_scan", "android": "https://dc.lft.to/lastmile_qr_scan"}, "fusion_lon": 0.0, "lon": -77.02791016666667, "name": "95a3235f8b9222dabe3e8d815d61c840", "is_reserved": 0, "is_disabled": 0}, {"lat": 38.88739133333333, "fusion_lat": 0.0, "type": "electric_scooter", "bike_id": "7dfa408990f16486d8101fd61d297ad6", "rental_uris": {"ios": "https://dc.lft.to/lastmile_qr_scan", "android": "https://dc.lft.to/lastmile_qr_scan"}, "fusion_lon": 0.0, "lon": -77.02566966666667, "name": "7dfa408990f16486d8101fd61d297ad6", "is_reserved": 0, "is_disabled": 0}, {"lat": 38.919419500000004, "fusion_lat": 0.0, "type": "electric_scooter", "bike_id": "8a775264de5cc259c9c85accb546e804", "rental_uris": {"ios": "https://dc.lft.to/lastmile_qr_scan", "android": "https://dc.lft.to/lastmile_qr_scan"}, "fusion_lon": 0.0, "lon": -77.02481666666667, "name": "8a775264de5cc259c9c85accb546e804", "is_reserved": 0, "is_disabled": 0}, {"lat": 38.95037083333333, "fusion_lat": 0.0, "type": "electric_scooter", "bike_id": "6ee31c6a73889c4010afdccd642018f8", "rental_uris": {"ios": "https://dc.lft.to/lastmile_qr_scan", "android": "https://dc.lft.to/lastmile_qr_scan"}, "fusion_lon": 0.0, "lon": -77.02729983333333, "name": "6ee31c6a73889c4010afdccd642018f8", "is_reserved": 0, "is_disabled": 0}, {"lat": 38.884167166666664, "fusion_lat": 0.0, "type": "electric_scooter", "bike_id": "40574fc012b42ae5ab41f7361aa5e16c", "rental_uris": {"ios": "https://dc.lft.to/lastmile_qr_scan", "android": "https://dc.lft.to/lastmile_qr_scan"}, "fusion_lon": 0.0, "lon": -76.94203116666667, "name": "40574fc012b42ae5ab41f7361aa5e16c", "is_reserved": 0, "is_disabled": 0}, {"lat": 38.9279035, "fusion_lat": 0.0, "type": "electric_bike", "bike_id": "7daed8c820122b7fa20bd765d4a0a67d", "rental_uris": {"ios": "https://dc.lft.to/lastmile_qr_scan", "android": "https://dc.lft.to/lastmile_qr_scan"}, "fusion_lon": 0.0, "lon": -77.03599666666666, "name": "7daed8c820122b7fa20bd765d4a0a67d", "is_reserved": 0, "is_disabled": 0}, {"lat": 38.9234475, "fusion_lat": 0.0, "type": "electric_scooter", "bike_id": "5d19a19709d12ed3b2fd564db3c3f29e", "rental_uris": {"ios": "https://dc.lft.to/lastmile_qr_scan", "android": "https://dc.lft.to/lastmile_qr_scan"}, "fusion_lon": 0.0, "lon": -77.05163133333333, "name": "5d19a19709d12ed3b2fd564db3c3f29e", "is_reserved": 0, "is_disabled": 0}, {"lat": 38.92603366666667, "fusion_lat": 0.0, "type": "electric_scooter", "bike_id": "b0818df02898aab7c790ce85eb2602b5", "rental_uris": {"ios": "https://dc.lft.to/lastmile_qr_scan", "android": "https://dc.lft.to/lastmile_qr_scan"}, "fusion_lon": 0.0, "lon": -77.02155416666666, "name": "b0818df02898aab7c790ce85eb2602b5", "is_reserved": 0, "is_disabled": 0}, {"lat": 38.8970275, "fusion_lat": 0.0, "type": "electric_scooter", "bike_id": "3705576de5669020117661dc192ace2f", "rental_uris": {"ios": "https://dc.lft.to/lastmile_qr_scan", "android": "https://dc.lft.to/lastmile_qr_scan"}, "fusion_lon": 0.0, "lon": -77.04350783333334, "name": "3705576de5669020117661dc192ace2f", "is_reserved": 0, "is_disabled": 0}, {"lat": 38.906432833333334, "fusion_lat": 0.0, "type": "electric_scooter", "bike_id": "c61305d9e5c101f67d656b7fbbf11f4a", "rental_uris": {"ios": "https://dc.lft.to/lastmile_qr_scan", "android": "https://dc.lft.to/lastmile_qr_scan"}, "fusion_lon": 0.0, "lon": -77.0385695, "name": "c61305d9e5c101f67d656b7fbbf11f4a", "is_reserved": 0, "is_disabled": 0}, {"lat": 38.910994, "fusion_lat": 0.0, "type": "electric_scooter", "bike_id": "e0efc400dd612534a5ded0b3cbc85c3c", "rental_uris": {"ios": "https://dc.lft.to/lastmile_qr_scan", "android": "https://dc.lft.to/lastmile_qr_scan"}, "fusion_lon": 0.0, "lon": -77.07351866666667, "name": "e0efc400dd612534a5ded0b3cbc85c3c", "is_reserved": 0, "is_disabled": 0}, {"lat": 38.88730133333333, "fusion_lat": 0.0, "type": "electric_scooter", "bike_id": "1304d217114af57275aff882c98add10", "rental_uris": {"ios": "https://dc.lft.to/lastmile_qr_scan", "android": "https://dc.lft.to/lastmile_qr_scan"}, "fusion_lon": 0.0, "lon": -76.9835725, "name": "1304d217114af57275aff882c98add10", "is_reserved": 0, "is_disabled": 0}, {"lat": 38.9037805, "fusion_lat": 0.0, "type": "electric_scooter", "bike_id": "b9ba3f96f159ae7b18fe2d37cf6455bc", "rental_uris": {"ios": "https://dc.lft.to/lastmile_qr_scan", "android": "https://dc.lft.to/lastmile_qr_scan"}, "fusion_lon": 0.0, "lon": -76.9894425, "name": "b9ba3f96f159ae7b18fe2d37cf6455bc", "is_reserved": 0, "is_disabled": 0}, {"lat": 38.875182333333335, "fusion_lat": 0.0, "type": "electric_scooter", "bike_id": "c0ed4a22d894827732271a89564b8768", "rental_uris": {"ios": "https://dc.lft.to/lastmile_qr_scan", "android": "https://dc.lft.to/lastmile_qr_scan"}, "fusion_lon": 0.0, "lon": -77.00045466666667, "name": "c0ed4a22d894827732271a89564b8768", "is_reserved": 0, "is_disabled": 0}, {"lat": 38.9133565, "fusion_lat": 0.0, "type": "electric_scooter", "bike_id": "b50faa9a48c6943d0ceb6699a5a4dd24", "rental_uris": {"ios": "https://dc.lft.to/lastmile_qr_scan", "android": "https://dc.lft.to/lastmile_qr_scan"}, "fusion_lon": 0.0, "lon": -77.0162365, "name": "b50faa9a48c6943d0ceb6699a5a4dd24", "is_reserved": 0, "is_disabled": 0}, {"lat": 38.89926233333333, "fusion_lat": 0.0, "type": "electric_scooter", "bike_id": "2ca737f5cab51d350c18d97aa25bb2c7", "rental_uris": {"ios": "https://dc.lft.to/lastmile_qr_scan", "android": "https://dc.lft.to/lastmile_qr_scan"}, "fusion_lon": 0.0, "lon": -77.027997, "name": "2ca737f5cab51d350c18d97aa25bb2c7", "is_reserved": 0, "is_disabled": 0}, {"lat": 38.9132945, "fusion_lat": 0.0, "type": "electric_scooter", "bike_id": "939cb03890cd7c864846a825c0d47fd0", "rental_uris": {"ios": "https://dc.lft.to/lastmile_qr_scan", "android": "https://dc.lft.to/lastmile_qr_scan"}, "fusion_lon": 0.0, "lon": -77.04858666666667, "name": "939cb03890cd7c864846a825c0d47fd0", "is_reserved": 0, "is_disabled": 0}, {"lat": 38.93279783333333, "fusion_lat": 0.0, "type": "electric_scooter", "bike_id": "88237354fa9ddca3b2570b362205d887", "rental_uris": {"ios": "https://dc.lft.to/lastmile_qr_scan", "android": "https://dc.lft.to/lastmile_qr_scan"}, "fusion_lon": 0.0, "lon": -77.0254305, "name": "88237354fa9ddca3b2570b362205d887", "is_reserved": 0, "is_disabled": 0}, {"lat": 38.892231, "fusion_lat": 0.0, "type": "electric_scooter", "bike_id": "56dbeeda73cc00f3e15771e613305bd8", "rental_uris": {"ios": "https://dc.lft.to/lastmile_qr_scan", "android": "https://dc.lft.to/lastmile_qr_scan"}, "fusion_lon": 0.0, "lon": -77.04195716666666, "name": "56dbeeda73cc00f3e15771e613305bd8", "is_reserved": 0, "is_disabled": 0}, {"lat": 38.9177725, "fusion_lat": 0.0, "type": "electric_scooter", "bike_id": "e8f7aacb07a450deb21b97547129cc22", "rental_uris": {"ios": "https://dc.lft.to/lastmile_qr_scan", "android": "https://dc.lft.to/lastmile_qr_scan"}, "fusion_lon": 0.0, "lon": -77.040558, "name": "e8f7aacb07a450deb21b97547129cc22", "is_reserved": 0, "is_disabled": 0}, {"lat": 38.918421333333335, "fusion_lat": 0.0, "type": "electric_scooter", "bike_id": "3db41de2d0cbc3a09c040db825d232b8", "rental_uris": {"ios": "https://dc.lft.to/lastmile_qr_scan", "android": "https://dc.lft.to/lastmile_qr_scan"}, "fusion_lon": 0.0, "lon": -77.041701, "name": "3db41de2d0cbc3a09c040db825d232b8", "is_reserved": 0, "is_disabled": 0}, {"lat": 39.01071916666667, "fusion_lat": 0.0, "type": "electric_bike", "bike_id": "9c8db531073a6da6fc4fbcdd68393687", "rental_uris": {"ios": "https://dc.lft.to/lastmile_qr_scan", "android": "https://dc.lft.to/lastmile_qr_scan"}, "fusion_lon": 0.0, "lon": -76.91052916666666, "name": "9c8db531073a6da6fc4fbcdd68393687", "is_reserved": 0, "is_disabled": 0}, {"lat": 38.8973935, "fusion_lat": 0.0, "type": "electric_scooter", "bike_id": "11af6d469a83990d391cccd92bc741f7", "rental_uris": {"ios": "https://dc.lft.to/lastmile_qr_scan", "android": "https://dc.lft.to/lastmile_qr_scan"}, "fusion_lon": 0.0, "lon": -77.02097833333333, "name": "11af6d469a83990d391cccd92bc741f7", "is_reserved": 0, "is_disabled": 0}, {"lat": 38.91808116666667, "fusion_lat": 0.0, "type": "electric_scooter", "bike_id": "e5f1e4ea8eeef22af72a45daf837aab2", "rental_uris": {"ios": "https://dc.lft.to/lastmile_qr_scan", "android": "https://dc.lft.to/lastmile_qr_scan"}, "fusion_lon": 0.0, "lon": -77.02678666666667, "name": "e5f1e4ea8eeef22af72a45daf837aab2", "is_reserved": 0, "is_disabled": 0}, {"lat": 38.90571966666667, "fusion_lat": 0.0, "type": "electric_scooter", "bike_id": "8f0f88edb97e3a8f6a0f60ae92b3c055", "rental_uris": {"ios": "https://dc.lft.to/lastmile_qr_scan", "android": "https://dc.lft.to/lastmile_qr_scan"}, "fusion_lon": 0.0, "lon": -77.04126116666667, "name": "8f0f88edb97e3a8f6a0f60ae92b3c055", "is_reserved": 0, "is_disabled": 0}, {"lat": 38.89854366666667, "fusion_lat": 0.0, "type": "electric_scooter", "bike_id": "e1ecf0af4e0d912648dbc9a4fe8e300d", "rental_uris": {"ios": "https://dc.lft.to/lastmile_qr_scan", "android": "https://dc.lft.to/lastmile_qr_scan"}, "fusion_lon": 0.0, "lon": -77.0334975, "name": "e1ecf0af4e0d912648dbc9a4fe8e300d", "is_reserved": 0, "is_disabled": 0}, {"lat": 38.8919565, "fusion_lat": 0.0, "type": "electric_scooter", "bike_id": "c2ac8dbec71412beb9e2e84ed899e1ce", "rental_uris": {"ios": "https://dc.lft.to/lastmile_qr_scan", "android": "https://dc.lft.to/lastmile_qr_scan"}, "fusion_lon": 0.0, "lon": -76.99380216666667, "name": "c2ac8dbec71412beb9e2e84ed899e1ce", "is_reserved": 0, "is_disabled": 0}, {"lat": 38.8762065, "fusion_lat": 0.0, "type": "electric_scooter", "bike_id": "e3033acfb511c493bc0041a5a236ecda", "rental_uris": {"ios": "https://dc.lft.to/lastmile_qr_scan", "android": "https://dc.lft.to/lastmile_qr_scan"}, "fusion_lon": 0.0, "lon": -77.0012365, "name": "e3033acfb511c493bc0041a5a236ecda", "is_reserved": 0, "is_disabled": 0}, {"lat": 38.9306115, "fusion_lat": 0.0, "type": "electric_scooter", "bike_id": "74b20080faf188aa2c1a558cbace52d4", "rental_uris": {"ios": "https://dc.lft.to/lastmile_qr_scan", "android": "https://dc.lft.to/lastmile_qr_scan"}, "fusion_lon": 0.0, "lon": -77.0321665, "name": "74b20080faf188aa2c1a558cbace52d4", "is_reserved": 0, "is_disabled": 0}, {"lat": 38.9001065, "fusion_lat": 0.0, "type": "electric_scooter", "bike_id": "5454d4a0b3d7b6396eebe3e8fee01e59", "rental_uris": {"ios": "https://dc.lft.to/lastmile_qr_scan", "android": "https://dc.lft.to/lastmile_qr_scan"}, "fusion_lon": 0.0, "lon": -77.012568, "name": "5454d4a0b3d7b6396eebe3e8fee01e59", "is_reserved": 0, "is_disabled": 0}, {"lat": 38.899086833333335, "fusion_lat": 0.0, "type": "electric_scooter", "bike_id": "03346c5176d15ef3549cd1a6873c1f88", "rental_uris": {"ios": "https://dc.lft.to/lastmile_qr_scan", "android": "https://dc.lft.to/lastmile_qr_scan"}, "fusion_lon": 0.0, "lon": -77.0034295, "name": "03346c5176d15ef3549cd1a6873c1f88", "is_reserved": 0, "is_disabled": 0}, {"lat": 38.8867815, "fusion_lat": 0.0, "type": "electric_scooter", "bike_id": "a8dacafe78c4f32e3aa736f2d2227755", "rental_uris": {"ios": "https://dc.lft.to/lastmile_qr_scan", "android": "https://dc.lft.to/lastmile_qr_scan"}, "fusion_lon": 0.0, "lon": -77.0019905, "name": "a8dacafe78c4f32e3aa736f2d2227755", "is_reserved": 0, "is_disabled": 0}, {"lat": 38.9124235, "fusion_lat": 0.0, "type": "electric_scooter", "bike_id": "10f9b4858bcc1965a9c4727a7b2d4e2e", "rental_uris": {"ios": "https://dc.lft.to/lastmile_qr_scan", "android": "https://dc.lft.to/lastmile_qr_scan"}, "fusion_lon": 0.0, "lon": -77.03838316666666, "name": "10f9b4858bcc1965a9c4727a7b2d4e2e", "is_reserved": 0, "is_disabled": 0}, {"lat": 38.90575066666667, "fusion_lat": 0.0, "type": "electric_scooter", "bike_id": "df4d48a3f009b5c1942945437595b3b8", "rental_uris": {"ios": "https://dc.lft.to/lastmile_qr_scan", "android": "https://dc.lft.to/lastmile_qr_scan"}, "fusion_lon": 0.0, "lon": -77.00599, "name": "df4d48a3f009b5c1942945437595b3b8", "is_reserved": 0, "is_disabled": 0}, {"lat": 38.922529, "fusion_lat": 0.0, "type": "electric_scooter", "bike_id": "a68e361a72572ea123c4cc5e6276a14c", "rental_uris": {"ios": "https://dc.lft.to/lastmile_qr_scan", "android": "https://dc.lft.to/lastmile_qr_scan"}, "fusion_lon": 0.0, "lon": -77.03519383333334, "name": "a68e361a72572ea123c4cc5e6276a14c", "is_reserved": 0, "is_disabled": 0}, {"lat": 38.9002275, "fusion_lat": 0.0, "type": "electric_scooter", "bike_id": "4f0941b52db96b0d91e6008b7d023ebd", "rental_uris": {"ios": "https://dc.lft.to/lastmile_qr_scan", "android": "https://dc.lft.to/lastmile_qr_scan"}, "fusion_lon": 0.0, "lon": -77.00211333333333, "name": "4f0941b52db96b0d91e6008b7d023ebd", "is_reserved": 0, "is_disabled": 0}, {"lat": 38.90304166666667, "fusion_lat": 0.0, "type": "electric_scooter", "bike_id": "44af3376958ab31345b42df4e5519137", "rental_uris": {"ios": "https://dc.lft.to/lastmile_qr_scan", "android": "https://dc.lft.to/lastmile_qr_scan"}, "fusion_lon": 0.0, "lon": -77.0397875, "name": "44af3376958ab31345b42df4e5519137", "is_reserved": 0, "is_disabled": 0}, {"lat": 38.88312883333333, "fusion_lat": 0.0, "type": "electric_bike", "bike_id": "bec2cc8cb223e544d14372ceaf3b44bc", "rental_uris": {"ios": "https://dc.lft.to/lastmile_qr_scan", "android": "https://dc.lft.to/lastmile_qr_scan"}, "fusion_lon": 0.0, "lon": -77.106612, "name": "bec2cc8cb223e544d14372ceaf3b44bc", "is_reserved": 0, "is_disabled": 0}, {"lat": 38.90391433333333, "fusion_lat": 0.0, "type": "electric_scooter", "bike_id": "4c67c2050b8db3cff2f83cb34c305a1c", "rental_uris": {"ios": "https://dc.lft.to/lastmile_qr_scan", "android": "https://dc.lft.to/lastmile_qr_scan"}, "fusion_lon": 0.0, "lon": -77.06004666666666, "name": "4c67c2050b8db3cff2f83cb34c305a1c", "is_reserved": 0, "is_disabled": 0}, {"lat": 38.93473933333333, "fusion_lat": 0.0, "type": "electric_scooter", "bike_id": "ed1770c87aedf7bf13baf65e8fc0766e", "rental_uris": {"ios": "https://dc.lft.to/lastmile_qr_scan", "android": "https://dc.lft.to/lastmile_qr_scan"}, "fusion_lon": 0.0, "lon": -77.07275416666667, "name": "ed1770c87aedf7bf13baf65e8fc0766e", "is_reserved": 0, "is_disabled": 0}, {"lat": 38.919071833333334, "fusion_lat": 0.0, "type": "electric_scooter", "bike_id": "9c137d50e4c67bb0f39f3650a56b3742", "rental_uris": {"ios": "https://dc.lft.to/lastmile_qr_scan", "android": "https://dc.lft.to/lastmile_qr_scan"}, "fusion_lon": 0.0, "lon": -77.02471733333333, "name": "9c137d50e4c67bb0f39f3650a56b3742", "is_reserved": 0, "is_disabled": 0}, {"lat": 38.9215495, "fusion_lat": 0.0, "type": "electric_scooter", "bike_id": "8d679a44486a6f872ec53551ddf2d2c2", "rental_uris": {"ios": "https://dc.lft.to/lastmile_qr_scan", "android": "https://dc.lft.to/lastmile_qr_scan"}, "fusion_lon": 0.0, "lon": -77.02021766666667, "name": "8d679a44486a6f872ec53551ddf2d2c2", "is_reserved": 0, "is_disabled": 0}, {"lat": 38.918219, "fusion_lat": 0.0, "type": "electric_scooter", "bike_id": "819bb436742a13118a4227ffe6760338", "rental_uris": {"ios": "https://dc.lft.to/lastmile_qr_scan", "android": "https://dc.lft.to/lastmile_qr_scan"}, "fusion_lon": 0.0, "lon": -77.02419266666666, "name": "819bb436742a13118a4227ffe6760338", "is_reserved": 0, "is_disabled": 0}, {"lat": 38.90533416666667, "fusion_lat": 0.0, "type": "electric_scooter", "bike_id": "8e2a573c03c8399ee1735874b41d47c7", "rental_uris": {"ios": "https://dc.lft.to/lastmile_qr_scan", "android": "https://dc.lft.to/lastmile_qr_scan"}, "fusion_lon": 0.0, "lon": -77.0502985, "name": "8e2a573c03c8399ee1735874b41d47c7", "is_reserved": 0, "is_disabled": 0}, {"lat": 38.89501166666667, "fusion_lat": 0.0, "type": "electric_scooter", "bike_id": "fb332edfb923b745b0cd0efecefe6965", "rental_uris": {"ios": "https://dc.lft.to/lastmile_qr_scan", "android": "https://dc.lft.to/lastmile_qr_scan"}, "fusion_lon": 0.0, "lon": -77.01085333333333, "name": "fb332edfb923b745b0cd0efecefe6965", "is_reserved": 0, "is_disabled": 0}, {"lat": 38.8994505, "fusion_lat": 0.0, "type": "electric_scooter", "bike_id": "f4398baa3d377a4da112aae18947ddbc", "rental_uris": {"ios": "https://dc.lft.to/lastmile_qr_scan", "android": "https://dc.lft.to/lastmile_qr_scan"}, "fusion_lon": 0.0, "lon": -77.0448645, "name": "f4398baa3d377a4da112aae18947ddbc", "is_reserved": 0, "is_disabled": 0}, {"lat": 38.926263666666664, "fusion_lat": 0.0, "type": "electric_scooter", "bike_id": "567c3f78fb2bdc37479a9e935b763dc1", "rental_uris": {"ios": "https://dc.lft.to/lastmile_qr_scan", "android": "https://dc.lft.to/lastmile_qr_scan"}, "fusion_lon": 0.0, "lon": -77.03526216666667, "name": "567c3f78fb2bdc37479a9e935b763dc1", "is_reserved": 0, "is_disabled": 0}, {"lat": 38.887267666666666, "fusion_lat": 0.0, "type": "electric_scooter", "bike_id": "8a33ce8415e1cd0b0efeb558abc9e78f", "rental_uris": {"ios": "https://dc.lft.to/lastmile_qr_scan", "android": "https://dc.lft.to/lastmile_qr_scan"}, "fusion_lon": 0.0, "lon": -77.02831916666666, "name": "8a33ce8415e1cd0b0efeb558abc9e78f", "is_reserved": 0, "is_disabled": 0}, {"lat": 38.877008833333335, "fusion_lat": 0.0, "type": "electric_scooter", "bike_id": "866badfd1ebd437d90e04e67b4179310", "rental_uris": {"ios": "https://dc.lft.to/lastmile_qr_scan", "android": "https://dc.lft.to/lastmile_qr_scan"}, "fusion_lon": 0.0, "lon": -77.01835366666667, "name": "866badfd1ebd437d90e04e67b4179310", "is_reserved": 0, "is_disabled": 0}, {"lat": 38.90229033333333, "fusion_lat": 0.0, "type": "electric_scooter", "bike_id": "fda5f2b5845ddab87c57c8232d2eaffd", "rental_uris": {"ios": "https://dc.lft.to/lastmile_qr_scan", "android": "https://dc.lft.to/lastmile_qr_scan"}, "fusion_lon": 0.0, "lon": -77.0336915, "name": "fda5f2b5845ddab87c57c8232d2eaffd", "is_reserved": 0, "is_disabled": 0}, {"lat": 38.9021035, "fusion_lat": 0.0, "type": "electric_scooter", "bike_id": "3e9009484e46792c60ecbf4f1f0e3b10", "rental_uris": {"ios": "https://dc.lft.to/lastmile_qr_scan", "android": "https://dc.lft.to/lastmile_qr_scan"}, "fusion_lon": 0.0, "lon": -77.0234345, "name": "3e9009484e46792c60ecbf4f1f0e3b10", "is_reserved": 0, "is_disabled": 0}, {"lat": 38.91711383333333, "fusion_lat": 0.0, "type": "electric_scooter", "bike_id": "86d389ebab2558cb01436134d92e5624", "rental_uris": {"ios": "https://dc.lft.to/lastmile_qr_scan", "android": "https://dc.lft.to/lastmile_qr_scan"}, "fusion_lon": 0.0, "lon": -76.97646966666667, "name": "86d389ebab2558cb01436134d92e5624", "is_reserved": 0, "is_disabled": 0}, {"lat": 38.92242816666667, "fusion_lat": 0.0, "type": "electric_scooter", "bike_id": "e72489b6bcbc40e920574a756dc6fc64", "rental_uris": {"ios": "https://dc.lft.to/lastmile_qr_scan", "android": "https://dc.lft.to/lastmile_qr_scan"}, "fusion_lon": 0.0, "lon": -77.07311716666666, "name": "e72489b6bcbc40e920574a756dc6fc64", "is_reserved": 0, "is_disabled": 0}, {"lat": 38.95654783333333, "fusion_lat": 0.0, "type": "electric_scooter", "bike_id": "bcb70d920b3d2d648a35bb1f85070816", "rental_uris": {"ios": "https://dc.lft.to/lastmile_qr_scan", "android": "https://dc.lft.to/lastmile_qr_scan"}, "fusion_lon": 0.0, "lon": -77.0196565, "name": "bcb70d920b3d2d648a35bb1f85070816", "is_reserved": 0, "is_disabled": 0}, {"lat": 38.8976995, "fusion_lat": 0.0, "type": "electric_scooter", "bike_id": "eca32afc2a8d2928f7daa9b72d958e77", "rental_uris": {"ios": "https://dc.lft.to/lastmile_qr_scan", "android": "https://dc.lft.to/lastmile_qr_scan"}, "fusion_lon": 0.0, "lon": -77.05450516666667, "name": "eca32afc2a8d2928f7daa9b72d958e77", "is_reserved": 0, "is_disabled": 0}, {"lat": 38.92770683333333, "fusion_lat": 0.0, "type": "electric_scooter", "bike_id": "c498f50b07d2ee22961ded9d36a72855", "rental_uris": {"ios": "https://dc.lft.to/lastmile_qr_scan", "android": "https://dc.lft.to/lastmile_qr_scan"}, "fusion_lon": 0.0, "lon": -77.03247333333333, "name": "c498f50b07d2ee22961ded9d36a72855", "is_reserved": 0, "is_disabled": 0}, {"lat": 38.89610966666667, "fusion_lat": 0.0, "type": "electric_scooter", "bike_id": "7e41199befd234bd304fd49b235da04a", "rental_uris": {"ios": "https://dc.lft.to/lastmile_qr_scan", "android": "https://dc.lft.to/lastmile_qr_scan"}, "fusion_lon": 0.0, "lon": -77.00927516666667, "name": "7e41199befd234bd304fd49b235da04a", "is_reserved": 0, "is_disabled": 0}, {"lat": 38.9105135, "fusion_lat": 0.0, "type": "electric_scooter", "bike_id": "fb84ae31736d82c3efde762682fcb51f", "rental_uris": {"ios": "https://dc.lft.to/lastmile_qr_scan", "android": "https://dc.lft.to/lastmile_qr_scan"}, "fusion_lon": 0.0, "lon": -77.04340383333333, "name": "fb84ae31736d82c3efde762682fcb51f", "is_reserved": 0, "is_disabled": 0}, {"lat": 38.8922975, "fusion_lat": 0.0, "type": "electric_scooter", "bike_id": "8bca4d4a6bf8644d604d50e77cf78c3b", "rental_uris": {"ios": "https://dc.lft.to/lastmile_qr_scan", "android": "https://dc.lft.to/lastmile_qr_scan"}, "fusion_lon": 0.0, "lon": -77.02784716666666, "name": "8bca4d4a6bf8644d604d50e77cf78c3b", "is_reserved": 0, "is_disabled": 0}, {"lat": 38.917974666666666, "fusion_lat": 0.0, "type": "electric_scooter", "bike_id": "ccb4d46145fd8f58dd95a29b7074c8be", "rental_uris": {"ios": "https://dc.lft.to/lastmile_qr_scan", "android": "https://dc.lft.to/lastmile_qr_scan"}, "fusion_lon": 0.0, "lon": -77.02484866666667, "name": "ccb4d46145fd8f58dd95a29b7074c8be", "is_reserved": 0, "is_disabled": 0}, {"lat": 38.93703516666667, "fusion_lat": 0.0, "type": "electric_scooter", "bike_id": "1d9d751e70121b0fe5616e5373dc60cd", "rental_uris": {"ios": "https://dc.lft.to/lastmile_qr_scan", "android": "https://dc.lft.to/lastmile_qr_scan"}, "fusion_lon": 0.0, "lon": -77.02400383333334, "name": "1d9d751e70121b0fe5616e5373dc60cd", "is_reserved": 0, "is_disabled": 0}, {"lat": 38.956778, "fusion_lat": 0.0, "type": "electric_scooter", "bike_id": "8f90f42876a4c3a468138b0c6c7ae67c", "rental_uris": {"ios": "https://dc.lft.to/lastmile_qr_scan", "android": "https://dc.lft.to/lastmile_qr_scan"}, "fusion_lon": 0.0, "lon": -77.01360483333333, "name": "8f90f42876a4c3a468138b0c6c7ae67c", "is_reserved": 0, "is_disabled": 0}, {"lat": 38.9004445, "fusion_lat": 0.0, "type": "electric_scooter", "bike_id": "a4c89acff3e89e3e5b5e7b321748808f", "rental_uris": {"ios": "https://dc.lft.to/lastmile_qr_scan", "android": "https://dc.lft.to/lastmile_qr_scan"}, "fusion_lon": 0.0, "lon": -77.021968, "name": "a4c89acff3e89e3e5b5e7b321748808f", "is_reserved": 0, "is_disabled": 0}, {"lat": 38.91796683333333, "fusion_lat": 0.0, "type": "electric_scooter", "bike_id": "be604234511e3d17397715809315eddf", "rental_uris": {"ios": "https://dc.lft.to/lastmile_qr_scan", "android": "https://dc.lft.to/lastmile_qr_scan"}, "fusion_lon": 0.0, "lon": -77.0269715, "name": "be604234511e3d17397715809315eddf", "is_reserved": 0, "is_disabled": 0}, {"lat": 38.924666333333334, "fusion_lat": 0.0, "type": "electric_scooter", "bike_id": "42dcad1b592969f1b6b89dc061ee8e16", "rental_uris": {"ios": "https://dc.lft.to/lastmile_qr_scan", "android": "https://dc.lft.to/lastmile_qr_scan"}, "fusion_lon": 0.0, "lon": -77.0214855, "name": "42dcad1b592969f1b6b89dc061ee8e16", "is_reserved": 0, "is_disabled": 0}, {"lat": 38.88729466666667, "fusion_lat": 0.0, "type": "electric_scooter", "bike_id": "e8a7e49f494d387b4cf933430f03136e", "rental_uris": {"ios": "https://dc.lft.to/lastmile_qr_scan", "android": "https://dc.lft.to/lastmile_qr_scan"}, "fusion_lon": 0.0, "lon": -77.02383383333333, "name": "e8a7e49f494d387b4cf933430f03136e", "is_reserved": 0, "is_disabled": 0}, {"lat": 38.88746583333333, "fusion_lat": 0.0, "type": "electric_scooter", "bike_id": "a7e0d4eb7fca6004c594f69a583083a7", "rental_uris": {"ios": "https://dc.lft.to/lastmile_qr_scan", "android": "https://dc.lft.to/lastmile_qr_scan"}, "fusion_lon": 0.0, "lon": -77.01777233333334, "name": "a7e0d4eb7fca6004c594f69a583083a7", "is_reserved": 0, "is_disabled": 0}, {"lat": 38.80641416666667, "fusion_lat": 0.0, "type": "electric_bike", "bike_id": "3ed369c6d17a78cf87b422b122df2224", "rental_uris": {"ios": "https://dc.lft.to/lastmile_qr_scan", "android": "https://dc.lft.to/lastmile_qr_scan"}, "fusion_lon": 0.0, "lon": -77.06247833333333, "name": "3ed369c6d17a78cf87b422b122df2224", "is_reserved": 0, "is_disabled": 0}, {"lat": 38.900722333333334, "fusion_lat": 0.0, "type": "electric_scooter", "bike_id": "afa7c4f52cbb1f7249ae979e87d3bdfb", "rental_uris": {"ios": "https://dc.lft.to/lastmile_qr_scan", "android": "https://dc.lft.to/lastmile_qr_scan"}, "fusion_lon": 0.0, "lon": -77.017769, "name": "afa7c4f52cbb1f7249ae979e87d3bdfb", "is_reserved": 0, "is_disabled": 0}, {"lat": 38.9207595, "fusion_lat": 0.0, "type": "electric_scooter", "bike_id": "03e5754daf0e2753cb610b8020d45859", "rental_uris": {"ios": "https://dc.lft.to/lastmile_qr_scan", "android": "https://dc.lft.to/lastmile_qr_scan"}, "fusion_lon": 0.0, "lon": -77.02311833333333, "name": "03e5754daf0e2753cb610b8020d45859", "is_reserved": 0, "is_disabled": 0}, {"lat": 38.8350625, "fusion_lat": 0.0, "type": "electric_bike", "bike_id": "207158f7befecac57bc1e086dc7b1843", "rental_uris": {"ios": "https://dc.lft.to/lastmile_qr_scan", "android": "https://dc.lft.to/lastmile_qr_scan"}, "fusion_lon": 0.0, "lon": -76.9868035, "name": "207158f7befecac57bc1e086dc7b1843", "is_reserved": 0, "is_disabled": 0}, {"lat": 38.9340925, "fusion_lat": 0.0, "type": "electric_scooter", "bike_id": "aaa035ad6ca121a3c2494aedf7aaabf2", "rental_uris": {"ios": "https://dc.lft.to/lastmile_qr_scan", "android": "https://dc.lft.to/lastmile_qr_scan"}, "fusion_lon": 0.0, "lon": -77.01980866666666, "name": "aaa035ad6ca121a3c2494aedf7aaabf2", "is_reserved": 0, "is_disabled": 0}, {"lat": 38.9246775, "fusion_lat": 0.0, "type": "electric_scooter", "bike_id": "d8b89daa7ef0a553ee8a9c0e2e8c8f60", "rental_uris": {"ios": "https://dc.lft.to/lastmile_qr_scan", "android": "https://dc.lft.to/lastmile_qr_scan"}, "fusion_lon": 0.0, "lon": -77.02248533333334, "name": "d8b89daa7ef0a553ee8a9c0e2e8c8f60", "is_reserved": 0, "is_disabled": 0}, {"lat": 38.90015733333333, "fusion_lat": 0.0, "type": "electric_bike", "bike_id": "d6e94dbbb265dce27930bad81029d281", "rental_uris": {"ios": "https://dc.lft.to/lastmile_qr_scan", "android": "https://dc.lft.to/lastmile_qr_scan"}, "fusion_lon": 0.0, "lon": -76.9977215, "name": "d6e94dbbb265dce27930bad81029d281", "is_reserved": 0, "is_disabled": 0}, {"lat": 38.900445166666664, "fusion_lat": 0.0, "type": "electric_scooter", "bike_id": "030c1e226fb93a1a4f844703f367cda7", "rental_uris": {"ios": "https://dc.lft.to/lastmile_qr_scan", "android": "https://dc.lft.to/lastmile_qr_scan"}, "fusion_lon": 0.0, "lon": -77.04656816666666, "name": "030c1e226fb93a1a4f844703f367cda7", "is_reserved": 0, "is_disabled": 0}, {"lat": 38.916911666666664, "fusion_lat": 0.0, "type": "electric_scooter", "bike_id": "b87052f3a43a4894187a46b23bea2d21", "rental_uris": {"ios": "https://dc.lft.to/lastmile_qr_scan", "android": "https://dc.lft.to/lastmile_qr_scan"}, "fusion_lon": 0.0, "lon": -77.009243, "name": "b87052f3a43a4894187a46b23bea2d21", "is_reserved": 0, "is_disabled": 0}, {"lat": 38.935844833333334, "fusion_lat": 0.0, "type": "electric_scooter", "bike_id": "e4791b96b84c7304f7d5b090ef86d2ae", "rental_uris": {"ios": "https://dc.lft.to/lastmile_qr_scan", "android": "https://dc.lft.to/lastmile_qr_scan"}, "fusion_lon": 0.0, "lon": -77.0379475, "name": "e4791b96b84c7304f7d5b090ef86d2ae", "is_reserved": 0, "is_disabled": 0}, {"lat": 38.89235466666667, "fusion_lat": 0.0, "type": "electric_scooter", "bike_id": "d292529f61f08fa996bcee1428792127", "rental_uris": {"ios": "https://dc.lft.to/lastmile_qr_scan", "android": "https://dc.lft.to/lastmile_qr_scan"}, "fusion_lon": 0.0, "lon": -77.0261375, "name": "d292529f61f08fa996bcee1428792127", "is_reserved": 0, "is_disabled": 0}, {"lat": 38.88997033333333, "fusion_lat": 0.0, "type": "electric_scooter", "bike_id": "03feef0463aa0578f14b3fe13f0ccad8", "rental_uris": {"ios": "https://dc.lft.to/lastmile_qr_scan", "android": "https://dc.lft.to/lastmile_qr_scan"}, "fusion_lon": 0.0, "lon": -76.95433266666667, "name": "03feef0463aa0578f14b3fe13f0ccad8", "is_reserved": 0, "is_disabled": 0}, {"lat": 38.910055666666665, "fusion_lat": 0.0, "type": "electric_scooter", "bike_id": "a734d57bb62d2bf6fd30490faf5bca5a", "rental_uris": {"ios": "https://dc.lft.to/lastmile_qr_scan", "android": "https://dc.lft.to/lastmile_qr_scan"}, "fusion_lon": 0.0, "lon": -77.02095016666667, "name": "a734d57bb62d2bf6fd30490faf5bca5a", "is_reserved": 0, "is_disabled": 0}, {"lat": 38.922528666666665, "fusion_lat": 0.0, "type": "electric_scooter", "bike_id": "169ecd42339a6a71e8965dbe1faef2a4", "rental_uris": {"ios": "https://dc.lft.to/lastmile_qr_scan", "android": "https://dc.lft.to/lastmile_qr_scan"}, "fusion_lon": 0.0, "lon": -77.0210395, "name": "169ecd42339a6a71e8965dbe1faef2a4", "is_reserved": 0, "is_disabled": 0}, {"lat": 38.97369333333333, "fusion_lat": 0.0, "type": "electric_scooter", "bike_id": "345fc3f2a89c63de4d25b15e964d6a42", "rental_uris": {"ios": "https://dc.lft.to/lastmile_qr_scan", "android": "https://dc.lft.to/lastmile_qr_scan"}, "fusion_lon": 0.0, "lon": -77.01863016666667, "name": "345fc3f2a89c63de4d25b15e964d6a42", "is_reserved": 0, "is_disabled": 0}, {"lat": 38.899824, "fusion_lat": 0.0, "type": "electric_scooter", "bike_id": "bb952c60cc8db1e62e19865f8d38e485", "rental_uris": {"ios": "https://dc.lft.to/lastmile_qr_scan", "android": "https://dc.lft.to/lastmile_qr_scan"}, "fusion_lon": 0.0, "lon": -76.98556816666667, "name": "bb952c60cc8db1e62e19865f8d38e485", "is_reserved": 0, "is_disabled": 0}, {"lat": 38.90926283333334, "fusion_lat": 0.0, "type": "electric_scooter", "bike_id": "7157a9b04bc8f2270f6c42efd87ab709", "rental_uris": {"ios": "https://dc.lft.to/lastmile_qr_scan", "android": "https://dc.lft.to/lastmile_qr_scan"}, "fusion_lon": 0.0, "lon": -77.03960433333333, "name": "7157a9b04bc8f2270f6c42efd87ab709", "is_reserved": 0, "is_disabled": 0}, {"lat": 38.89981016666667, "fusion_lat": 0.0, "type": "electric_scooter", "bike_id": "26326416b773fc063a0525dcc1b946e4", "rental_uris": {"ios": "https://dc.lft.to/lastmile_qr_scan", "android": "https://dc.lft.to/lastmile_qr_scan"}, "fusion_lon": 0.0, "lon": -77.02272833333333, "name": "26326416b773fc063a0525dcc1b946e4", "is_reserved": 0, "is_disabled": 0}, {"lat": 38.89776883333333, "fusion_lat": 0.0, "type": "electric_scooter", "bike_id": "dfee94e73870f6a1ced334026f9b04db", "rental_uris": {"ios": "https://dc.lft.to/lastmile_qr_scan", "android": "https://dc.lft.to/lastmile_qr_scan"}, "fusion_lon": 0.0, "lon": -77.00908316666667, "name": "dfee94e73870f6a1ced334026f9b04db", "is_reserved": 0, "is_disabled": 0}, {"lat": 38.90942666666667, "fusion_lat": 0.0, "type": "electric_scooter", "bike_id": "405b772ce23d47e998b1226702215475", "rental_uris": {"ios": "https://dc.lft.to/lastmile_qr_scan", "android": "https://dc.lft.to/lastmile_qr_scan"}, "fusion_lon": 0.0, "lon": -77.04398483333334, "name": "405b772ce23d47e998b1226702215475", "is_reserved": 0, "is_disabled": 0}, {"lat": 38.890107666666665, "fusion_lat": 0.0, "type": "electric_scooter", "bike_id": "b528dd626022c264a9afa0b65a0feecf", "rental_uris": {"ios": "https://dc.lft.to/lastmile_qr_scan", "android": "https://dc.lft.to/lastmile_qr_scan"}, "fusion_lon": 0.0, "lon": -76.9373575, "name": "b528dd626022c264a9afa0b65a0feecf", "is_reserved": 0, "is_disabled": 0}, {"lat": 38.904989666666665, "fusion_lat": 0.0, "type": "electric_scooter", "bike_id": "c199d1492a8993bf6a6f5b1c8aae8db0", "rental_uris": {"ios": "https://dc.lft.to/lastmile_qr_scan", "android": "https://dc.lft.to/lastmile_qr_scan"}, "fusion_lon": 0.0, "lon": -77.0482865, "name": "c199d1492a8993bf6a6f5b1c8aae8db0", "is_reserved": 0, "is_disabled": 0}, {"lat": 38.922576666666664, "fusion_lat": 0.0, "type": "electric_scooter", "bike_id": "3aaf44bf290005cefe2e9813880321d4", "rental_uris": {"ios": "https://dc.lft.to/lastmile_qr_scan", "android": "https://dc.lft.to/lastmile_qr_scan"}, "fusion_lon": 0.0, "lon": -77.02103916666667, "name": "3aaf44bf290005cefe2e9813880321d4", "is_reserved": 0, "is_disabled": 0}, {"lat": 38.902757666666666, "fusion_lat": 0.0, "type": "electric_scooter", "bike_id": "11cea7c121e97a9475b7e0bb84414b87", "rental_uris": {"ios": "https://dc.lft.to/lastmile_qr_scan", "android": "https://dc.lft.to/lastmile_qr_scan"}, "fusion_lon": 0.0, "lon": -77.034343, "name": "11cea7c121e97a9475b7e0bb84414b87", "is_reserved": 0, "is_disabled": 0}, {"lat": 38.88541433333333, "fusion_lat": 0.0, "type": "electric_scooter", "bike_id": "2715a7c61754ea1306ca4ea9c125f1a7", "rental_uris": {"ios": "https://dc.lft.to/lastmile_qr_scan", "android": "https://dc.lft.to/lastmile_qr_scan"}, "fusion_lon": 0.0, "lon": -76.978868, "name": "2715a7c61754ea1306ca4ea9c125f1a7", "is_reserved": 0, "is_disabled": 0}, {"lat": 38.89193733333333, "fusion_lat": 0.0, "type": "electric_scooter", "bike_id": "a4c3c6085c704eb78506c0a87397c454", "rental_uris": {"ios": "https://dc.lft.to/lastmile_qr_scan", "android": "https://dc.lft.to/lastmile_qr_scan"}, "fusion_lon": 0.0, "lon": -77.00291466666667, "name": "a4c3c6085c704eb78506c0a87397c454", "is_reserved": 0, "is_disabled": 0}, {"lat": 38.92322466666667, "fusion_lat": 0.0, "type": "electric_scooter", "bike_id": "61fb2621351ae857652c8c74eb400a5c", "rental_uris": {"ios": "https://dc.lft.to/lastmile_qr_scan", "android": "https://dc.lft.to/lastmile_qr_scan"}, "fusion_lon": 0.0, "lon": -77.03037916666666, "name": "61fb2621351ae857652c8c74eb400a5c", "is_reserved": 0, "is_disabled": 0}, {"lat": 38.9246385, "fusion_lat": 0.0, "type": "electric_scooter", "bike_id": "8001fda831ee4f0e62f1955515fba93d", "rental_uris": {"ios": "https://dc.lft.to/lastmile_qr_scan", "android": "https://dc.lft.to/lastmile_qr_scan"}, "fusion_lon": 0.0, "lon": -77.02249516666667, "name": "8001fda831ee4f0e62f1955515fba93d", "is_reserved": 0, "is_disabled": 0}, {"lat": 38.89783283333333, "fusion_lat": 0.0, "type": "electric_scooter", "bike_id": "bec019c55e9899614a251c6ab0dc18f4", "rental_uris": {"ios": "https://dc.lft.to/lastmile_qr_scan", "android": "https://dc.lft.to/lastmile_qr_scan"}, "fusion_lon": 0.0, "lon": -77.03161233333333, "name": "bec019c55e9899614a251c6ab0dc18f4", "is_reserved": 0, "is_disabled": 0}, {"lat": 38.910483, "fusion_lat": 0.0, "type": "electric_scooter", "bike_id": "fb2477b5d440d7b7fc59cfd86670bac5", "rental_uris": {"ios": "https://dc.lft.to/lastmile_qr_scan", "android": "https://dc.lft.to/lastmile_qr_scan"}, "fusion_lon": 0.0, "lon": -77.043406, "name": "fb2477b5d440d7b7fc59cfd86670bac5", "is_reserved": 0, "is_disabled": 0}, {"lat": 38.9245265, "fusion_lat": 0.0, "type": "electric_scooter", "bike_id": "95bce5851ad763fafaa381b06cd583c8", "rental_uris": {"ios": "https://dc.lft.to/lastmile_qr_scan", "android": "https://dc.lft.to/lastmile_qr_scan"}, "fusion_lon": 0.0, "lon": -77.04039466666667, "name": "95bce5851ad763fafaa381b06cd583c8", "is_reserved": 0, "is_disabled": 0}, {"lat": 38.918232833333334, "fusion_lat": 0.0, "type": "electric_scooter", "bike_id": "339ccc620d59fd1c6d731a5c9b3229bf", "rental_uris": {"ios": "https://dc.lft.to/lastmile_qr_scan", "android": "https://dc.lft.to/lastmile_qr_scan"}, "fusion_lon": 0.0, "lon": -77.0242075, "name": "339ccc620d59fd1c6d731a5c9b3229bf", "is_reserved": 0, "is_disabled": 0}, {"lat": 38.92497133333333, "fusion_lat": 0.0, "type": "electric_scooter", "bike_id": "d7b6e42477edee212b77712074a45d46", "rental_uris": {"ios": "https://dc.lft.to/lastmile_qr_scan", "android": "https://dc.lft.to/lastmile_qr_scan"}, "fusion_lon": 0.0, "lon": -77.02275383333334, "name": "d7b6e42477edee212b77712074a45d46", "is_reserved": 0, "is_disabled": 0}, {"lat": 38.888229833333334, "fusion_lat": 0.0, "type": "electric_scooter", "bike_id": "864223ff3b168e0664f2d44c411e7284", "rental_uris": {"ios": "https://dc.lft.to/lastmile_qr_scan", "android": "https://dc.lft.to/lastmile_qr_scan"}, "fusion_lon": 0.0, "lon": -76.9771885, "name": "864223ff3b168e0664f2d44c411e7284", "is_reserved": 0, "is_disabled": 0}, {"lat": 38.904740333333336, "fusion_lat": 0.0, "type": "electric_scooter", "bike_id": "1451e4f0cf181d3fd9935f2e1617158a", "rental_uris": {"ios": "https://dc.lft.to/lastmile_qr_scan", "android": "https://dc.lft.to/lastmile_qr_scan"}, "fusion_lon": 0.0, "lon": -77.035604, "name": "1451e4f0cf181d3fd9935f2e1617158a", "is_reserved": 0, "is_disabled": 0}, {"lat": 38.894405, "fusion_lat": 0.0, "type": "electric_scooter", "bike_id": "6d65ffde8ec4df1009f0394f61de7ba3", "rental_uris": {"ios": "https://dc.lft.to/lastmile_qr_scan", "android": "https://dc.lft.to/lastmile_qr_scan"}, "fusion_lon": 0.0, "lon": -76.9781325, "name": "6d65ffde8ec4df1009f0394f61de7ba3", "is_reserved": 0, "is_disabled": 0}, {"lat": 38.955981333333334, "fusion_lat": 0.0, "type": "electric_bike", "bike_id": "e96ebe89c018cc05690655119c0b561c", "rental_uris": {"ios": "https://dc.lft.to/lastmile_qr_scan", "android": "https://dc.lft.to/lastmile_qr_scan"}, "fusion_lon": 0.0, "lon": -77.01010316666667, "name": "e96ebe89c018cc05690655119c0b561c", "is_reserved": 0, "is_disabled": 0}, {"lat": 38.9164095, "fusion_lat": 0.0, "type": "electric_scooter", "bike_id": "9ad9ee17191cb7ac7b463f05333e5be7", "rental_uris": {"ios": "https://dc.lft.to/lastmile_qr_scan", "android": "https://dc.lft.to/lastmile_qr_scan"}, "fusion_lon": 0.0, "lon": -77.0226185, "name": "9ad9ee17191cb7ac7b463f05333e5be7", "is_reserved": 0, "is_disabled": 0}, {"lat": 38.911871833333336, "fusion_lat": 0.0, "type": "electric_scooter", "bike_id": "9549be0ca1f09860a371412f17f50e7c", "rental_uris": {"ios": "https://dc.lft.to/lastmile_qr_scan", "android": "https://dc.lft.to/lastmile_qr_scan"}, "fusion_lon": 0.0, "lon": -77.00457883333333, "name": "9549be0ca1f09860a371412f17f50e7c", "is_reserved": 0, "is_disabled": 0}, {"lat": 38.926735, "fusion_lat": 0.0, "type": "electric_scooter", "bike_id": "ac4dae1810eed3916fe7c463b061819f", "rental_uris": {"ios": "https://dc.lft.to/lastmile_qr_scan", "android": "https://dc.lft.to/lastmile_qr_scan"}, "fusion_lon": 0.0, "lon": -77.02293416666667, "name": "ac4dae1810eed3916fe7c463b061819f", "is_reserved": 0, "is_disabled": 0}, {"lat": 38.89534366666667, "fusion_lat": 0.0, "type": "electric_scooter", "bike_id": "f9bd70f8d0c09d7fc60579766e9811b5", "rental_uris": {"ios": "https://dc.lft.to/lastmile_qr_scan", "android": "https://dc.lft.to/lastmile_qr_scan"}, "fusion_lon": 0.0, "lon": -76.98338983333333, "name": "f9bd70f8d0c09d7fc60579766e9811b5", "is_reserved": 0, "is_disabled": 0}, {"lat": 38.9001195, "fusion_lat": 0.0, "type": "electric_scooter", "bike_id": "2f92aef698d81685009fd54be1e42ea8", "rental_uris": {"ios": "https://dc.lft.to/lastmile_qr_scan", "android": "https://dc.lft.to/lastmile_qr_scan"}, "fusion_lon": 0.0, "lon": -76.99865433333333, "name": "2f92aef698d81685009fd54be1e42ea8", "is_reserved": 0, "is_disabled": 0}, {"lat": 38.90352983333333, "fusion_lat": 0.0, "type": "electric_scooter", "bike_id": "9357ba636d2cf92607fac296d6a96a59", "rental_uris": {"ios": "https://dc.lft.to/lastmile_qr_scan", "android": "https://dc.lft.to/lastmile_qr_scan"}, "fusion_lon": 0.0, "lon": -77.007439, "name": "9357ba636d2cf92607fac296d6a96a59", "is_reserved": 0, "is_disabled": 0}, {"lat": 38.91564316666667, "fusion_lat": 0.0, "type": "electric_scooter", "bike_id": "6033a28ffaaf35df5395e32a17954d2f", "rental_uris": {"ios": "https://dc.lft.to/lastmile_qr_scan", "android": "https://dc.lft.to/lastmile_qr_scan"}, "fusion_lon": 0.0, "lon": -77.02003983333333, "name": "6033a28ffaaf35df5395e32a17954d2f", "is_reserved": 0, "is_disabled": 0}, {"lat": 38.88764666666667, "fusion_lat": 0.0, "type": "electric_scooter", "bike_id": "3e42a9fcbf93a4dd61232055b09b23bc", "rental_uris": {"ios": "https://dc.lft.to/lastmile_qr_scan", "android": "https://dc.lft.to/lastmile_qr_scan"}, "fusion_lon": 0.0, "lon": -77.00190083333334, "name": "3e42a9fcbf93a4dd61232055b09b23bc", "is_reserved": 0, "is_disabled": 0}, {"lat": 38.925876, "fusion_lat": 0.0, "type": "electric_scooter", "bike_id": "8148d4c1f6d8997e2696e238d510a56e", "rental_uris": {"ios": "https://dc.lft.to/lastmile_qr_scan", "android": "https://dc.lft.to/lastmile_qr_scan"}, "fusion_lon": 0.0, "lon": -77.03192866666667, "name": "8148d4c1f6d8997e2696e238d510a56e", "is_reserved": 0, "is_disabled": 0}, {"lat": 38.917077666666664, "fusion_lat": 0.0, "type": "electric_scooter", "bike_id": "4adf2061e8dbe681de3fa9a57b39ef4f", "rental_uris": {"ios": "https://dc.lft.to/lastmile_qr_scan", "android": "https://dc.lft.to/lastmile_qr_scan"}, "fusion_lon": 0.0, "lon": -77.03331883333334, "name": "4adf2061e8dbe681de3fa9a57b39ef4f", "is_reserved": 0, "is_disabled": 0}, {"lat": 38.904027166666665, "fusion_lat": 0.0, "type": "electric_scooter", "bike_id": "c0802b4aaa54d31b8827cf983bd4190d", "rental_uris": {"ios": "https://dc.lft.to/lastmile_qr_scan", "android": "https://dc.lft.to/lastmile_qr_scan"}, "fusion_lon": 0.0, "lon": -76.97327933333334, "name": "c0802b4aaa54d31b8827cf983bd4190d", "is_reserved": 0, "is_disabled": 0}, {"lat": 38.92143883333333, "fusion_lat": 0.0, "type": "electric_scooter", "bike_id": "049a11bbb87ec2edc8ccf57ba0081095", "rental_uris": {"ios": "https://dc.lft.to/lastmile_qr_scan", "android": "https://dc.lft.to/lastmile_qr_scan"}, "fusion_lon": 0.0, "lon": -77.01209366666667, "name": "049a11bbb87ec2edc8ccf57ba0081095", "is_reserved": 0, "is_disabled": 0}, {"lat": 38.90281933333333, "fusion_lat": 0.0, "type": "electric_scooter", "bike_id": "d4b6e73d7c93faa6dfca24c57d540f13", "rental_uris": {"ios": "https://dc.lft.to/lastmile_qr_scan", "android": "https://dc.lft.to/lastmile_qr_scan"}, "fusion_lon": 0.0, "lon": -77.04236883333333, "name": "d4b6e73d7c93faa6dfca24c57d540f13", "is_reserved": 0, "is_disabled": 0}, {"lat": 38.909438333333334, "fusion_lat": 0.0, "type": "electric_scooter", "bike_id": "abe4f75f39a59f0482d579e6664a301a", "rental_uris": {"ios": "https://dc.lft.to/lastmile_qr_scan", "android": "https://dc.lft.to/lastmile_qr_scan"}, "fusion_lon": 0.0, "lon": -77.0268845, "name": "abe4f75f39a59f0482d579e6664a301a", "is_reserved": 0, "is_disabled": 0}, {"lat": 38.911162, "fusion_lat": 0.0, "type": "electric_scooter", "bike_id": "96b7d7bb12c977fb3424afb41d183566", "rental_uris": {"ios": "https://dc.lft.to/lastmile_qr_scan", "android": "https://dc.lft.to/lastmile_qr_scan"}, "fusion_lon": 0.0, "lon": -77.04540433333334, "name": "96b7d7bb12c977fb3424afb41d183566", "is_reserved": 0, "is_disabled": 0}, {"lat": 38.93471133333333, "fusion_lat": 0.0, "type": "electric_scooter", "bike_id": "a3545f736c14c31ae70cbb165d62dbb7", "rental_uris": {"ios": "https://dc.lft.to/lastmile_qr_scan", "android": "https://dc.lft.to/lastmile_qr_scan"}, "fusion_lon": 0.0, "lon": -77.07277983333333, "name": "a3545f736c14c31ae70cbb165d62dbb7", "is_reserved": 0, "is_disabled": 0}, {"lat": 38.8755885, "fusion_lat": 0.0, "type": "electric_scooter", "bike_id": "6cb4760026943a9797506084ec9016d3", "rental_uris": {"ios": "https://dc.lft.to/lastmile_qr_scan", "android": "https://dc.lft.to/lastmile_qr_scan"}, "fusion_lon": 0.0, "lon": -77.005587, "name": "6cb4760026943a9797506084ec9016d3", "is_reserved": 0, "is_disabled": 0}, {"lat": 38.91180133333334, "fusion_lat": 0.0, "type": "electric_scooter", "bike_id": "bbe5b75f7a9532680bc5c3c8f8364191", "rental_uris": {"ios": "https://dc.lft.to/lastmile_qr_scan", "android": "https://dc.lft.to/lastmile_qr_scan"}, "fusion_lon": 0.0, "lon": -77.03500316666667, "name": "bbe5b75f7a9532680bc5c3c8f8364191", "is_reserved": 0, "is_disabled": 0}, {"lat": 38.8922105, "fusion_lat": 0.0, "type": "electric_scooter", "bike_id": "36ecf4a2262071e2efd51009340ae86a", "rental_uris": {"ios": "https://dc.lft.to/lastmile_qr_scan", "android": "https://dc.lft.to/lastmile_qr_scan"}, "fusion_lon": 0.0, "lon": -77.02772533333334, "name": "36ecf4a2262071e2efd51009340ae86a", "is_reserved": 0, "is_disabled": 0}, {"lat": 38.899150666666664, "fusion_lat": 0.0, "type": "electric_scooter", "bike_id": "cc461dc759c763a9d6557cad894b8f95", "rental_uris": {"ios": "https://dc.lft.to/lastmile_qr_scan", "android": "https://dc.lft.to/lastmile_qr_scan"}, "fusion_lon": 0.0, "lon": -77.04137016666667, "name": "cc461dc759c763a9d6557cad894b8f95", "is_reserved": 0, "is_disabled": 0}, {"lat": 38.910585166666664, "fusion_lat": 0.0, "type": "electric_scooter", "bike_id": "81816d5d82dceaa40bbf824c7652e379", "rental_uris": {"ios": "https://dc.lft.to/lastmile_qr_scan", "android": "https://dc.lft.to/lastmile_qr_scan"}, "fusion_lon": 0.0, "lon": -77.03426183333333, "name": "81816d5d82dceaa40bbf824c7652e379", "is_reserved": 0, "is_disabled": 0}, {"lat": 38.896840166666664, "fusion_lat": 0.0, "type": "electric_scooter", "bike_id": "98fd147f1022c536b34d24e48904ea9b", "rental_uris": {"ios": "https://dc.lft.to/lastmile_qr_scan", "android": "https://dc.lft.to/lastmile_qr_scan"}, "fusion_lon": 0.0, "lon": -76.93710466666667, "name": "98fd147f1022c536b34d24e48904ea9b", "is_reserved": 0, "is_disabled": 0}, {"lat": 38.90528166666667, "fusion_lat": 0.0, "type": "electric_scooter", "bike_id": "a215134f2bd938a911b0ca63d69f6405", "rental_uris": {"ios": "https://dc.lft.to/lastmile_qr_scan", "android": "https://dc.lft.to/lastmile_qr_scan"}, "fusion_lon": 0.0, "lon": -77.02966266666667, "name": "a215134f2bd938a911b0ca63d69f6405", "is_reserved": 0, "is_disabled": 0}, {"lat": 38.90289083333333, "fusion_lat": 0.0, "type": "electric_scooter", "bike_id": "d4337cc69d2c51423273a997ebbdd519", "rental_uris": {"ios": "https://dc.lft.to/lastmile_qr_scan", "android": "https://dc.lft.to/lastmile_qr_scan"}, "fusion_lon": 0.0, "lon": -77.046565, "name": "d4337cc69d2c51423273a997ebbdd519", "is_reserved": 0, "is_disabled": 0}, {"lat": 38.917959333333336, "fusion_lat": 0.0, "type": "electric_scooter", "bike_id": "c4e0f9b2c317b1257b9c63d704956005", "rental_uris": {"ios": "https://dc.lft.to/lastmile_qr_scan", "android": "https://dc.lft.to/lastmile_qr_scan"}, "fusion_lon": 0.0, "lon": -77.02484683333333, "name": "c4e0f9b2c317b1257b9c63d704956005", "is_reserved": 0, "is_disabled": 0}, {"lat": 38.925815166666666, "fusion_lat": 0.0, "type": "electric_scooter", "bike_id": "8fe4cd1096f61f10432ef2b4ea8be4a3", "rental_uris": {"ios": "https://dc.lft.to/lastmile_qr_scan", "android": "https://dc.lft.to/lastmile_qr_scan"}, "fusion_lon": 0.0, "lon": -77.0968825, "name": "8fe4cd1096f61f10432ef2b4ea8be4a3", "is_reserved": 0, "is_disabled": 0}, {"lat": 38.92352666666667, "fusion_lat": 0.0, "type": "electric_scooter", "bike_id": "e1fc5abdf8d59d2b2d5e9549943921e8", "rental_uris": {"ios": "https://dc.lft.to/lastmile_qr_scan", "android": "https://dc.lft.to/lastmile_qr_scan"}, "fusion_lon": 0.0, "lon": -77.00329583333334, "name": "e1fc5abdf8d59d2b2d5e9549943921e8", "is_reserved": 0, "is_disabled": 0}, {"lat": 38.875801833333334, "fusion_lat": 0.0, "type": "electric_bike", "bike_id": "55c33b707371f45082922e225c3c6552", "rental_uris": {"ios": "https://dc.lft.to/lastmile_qr_scan", "android": "https://dc.lft.to/lastmile_qr_scan"}, "fusion_lon": 0.0, "lon": -77.23408133333334, "name": "55c33b707371f45082922e225c3c6552", "is_reserved": 0, "is_disabled": 0}, {"lat": 38.950541666666666, "fusion_lat": 0.0, "type": "electric_scooter", "bike_id": "e29927b884dec7202c764dbf0b814c3a", "rental_uris": {"ios": "https://dc.lft.to/lastmile_qr_scan", "android": "https://dc.lft.to/lastmile_qr_scan"}, "fusion_lon": 0.0, "lon": -77.08023483333334, "name": "e29927b884dec7202c764dbf0b814c3a", "is_reserved": 0, "is_disabled": 0}, {"lat": 38.93444, "fusion_lat": 0.0, "type": "electric_scooter", "bike_id": "eb0fc9d518adb88cd9bb666fbe8ca59f", "rental_uris": {"ios": "https://dc.lft.to/lastmile_qr_scan", "android": "https://dc.lft.to/lastmile_qr_scan"}, "fusion_lon": 0.0, "lon": -77.09060166666667, "name": "eb0fc9d518adb88cd9bb666fbe8ca59f", "is_reserved": 0, "is_disabled": 0}, {"lat": 38.917040666666665, "fusion_lat": 0.0, "type": "electric_scooter", "bike_id": "82ec7372041436d6d72a3f1d072f5698", "rental_uris": {"ios": "https://dc.lft.to/lastmile_qr_scan", "android": "https://dc.lft.to/lastmile_qr_scan"}, "fusion_lon": 0.0, "lon": -77.02589666666667, "name": "82ec7372041436d6d72a3f1d072f5698", "is_reserved": 0, "is_disabled": 0}, {"lat": 38.915202666666666, "fusion_lat": 0.0, "type": "electric_scooter", "bike_id": "e7422dc04e428307513469f92f75ad72", "rental_uris": {"ios": "https://dc.lft.to/lastmile_qr_scan", "android": "https://dc.lft.to/lastmile_qr_scan"}, "fusion_lon": 0.0, "lon": -77.04863383333333, "name": "e7422dc04e428307513469f92f75ad72", "is_reserved": 0, "is_disabled": 0}, {"lat": 38.91752, "fusion_lat": 0.0, "type": "electric_scooter", "bike_id": "0dc5121e7029954ade96966d3127115b", "rental_uris": {"ios": "https://dc.lft.to/lastmile_qr_scan", "android": "https://dc.lft.to/lastmile_qr_scan"}, "fusion_lon": 0.0, "lon": -77.0364015, "name": "0dc5121e7029954ade96966d3127115b", "is_reserved": 0, "is_disabled": 0}, {"lat": 38.899004166666664, "fusion_lat": 0.0, "type": "electric_scooter", "bike_id": "3de142596a67ad97a1189c4b8aa30cb7", "rental_uris": {"ios": "https://dc.lft.to/lastmile_qr_scan", "android": "https://dc.lft.to/lastmile_qr_scan"}, "fusion_lon": 0.0, "lon": -76.99953783333333, "name": "3de142596a67ad97a1189c4b8aa30cb7", "is_reserved": 0, "is_disabled": 0}, {"lat": 38.8978455, "fusion_lat": 0.0, "type": "electric_scooter", "bike_id": "c1a7741ba93b2a02d324d9f299fdc0ee", "rental_uris": {"ios": "https://dc.lft.to/lastmile_qr_scan", "android": "https://dc.lft.to/lastmile_qr_scan"}, "fusion_lon": 0.0, "lon": -77.02788316666667, "name": "c1a7741ba93b2a02d324d9f299fdc0ee", "is_reserved": 0, "is_disabled": 0}, {"lat": 38.909440833333335, "fusion_lat": 0.0, "type": "electric_scooter", "bike_id": "5f9f07f7fec8363b3c57d39cf3cee389", "rental_uris": {"ios": "https://dc.lft.to/lastmile_qr_scan", "android": "https://dc.lft.to/lastmile_qr_scan"}, "fusion_lon": 0.0, "lon": -77.03944683333333, "name": "5f9f07f7fec8363b3c57d39cf3cee389", "is_reserved": 0, "is_disabled": 0}, {"lat": 38.88516583333333, "fusion_lat": 0.0, "type": "electric_scooter", "bike_id": "3139d2d561e4509148c798d3118da7f6", "rental_uris": {"ios": "https://dc.lft.to/lastmile_qr_scan", "android": "https://dc.lft.to/lastmile_qr_scan"}, "fusion_lon": 0.0, "lon": -77.011255, "name": "3139d2d561e4509148c798d3118da7f6", "is_reserved": 0, "is_disabled": 0}, {"lat": 38.910219833333336, "fusion_lat": 0.0, "type": "electric_scooter", "bike_id": "19c1b610cdc53863d472d6d97c76271f", "rental_uris": {"ios": "https://dc.lft.to/lastmile_qr_scan", "android": "https://dc.lft.to/lastmile_qr_scan"}, "fusion_lon": 0.0, "lon": -77.02391133333333, "name": "19c1b610cdc53863d472d6d97c76271f", "is_reserved": 0, "is_disabled": 0}, {"lat": 38.93069, "fusion_lat": 0.0, "type": "electric_scooter", "bike_id": "29ef925f12a02b2d1bfd0c01e94ca1e8", "rental_uris": {"ios": "https://dc.lft.to/lastmile_qr_scan", "android": "https://dc.lft.to/lastmile_qr_scan"}, "fusion_lon": 0.0, "lon": -77.02356666666667, "name": "29ef925f12a02b2d1bfd0c01e94ca1e8", "is_reserved": 0, "is_disabled": 0}, {"lat": 38.89229133333333, "fusion_lat": 0.0, "type": "electric_scooter", "bike_id": "e679c91b35c8c067116e165bacb64186", "rental_uris": {"ios": "https://dc.lft.to/lastmile_qr_scan", "android": "https://dc.lft.to/lastmile_qr_scan"}, "fusion_lon": 0.0, "lon": -77.02805166666667, "name": "e679c91b35c8c067116e165bacb64186", "is_reserved": 0, "is_disabled": 0}, {"lat": 38.914183333333334, "fusion_lat": 0.0, "type": "electric_scooter", "bike_id": "e1e188721e5ba81cf70e2dfd4a811545", "rental_uris": {"ios": "https://dc.lft.to/lastmile_qr_scan", "android": "https://dc.lft.to/lastmile_qr_scan"}, "fusion_lon": 0.0, "lon": -77.01076366666666, "name": "e1e188721e5ba81cf70e2dfd4a811545", "is_reserved": 0, "is_disabled": 0}, {"lat": 38.90267016666667, "fusion_lat": 0.0, "type": "electric_scooter", "bike_id": "413864c66ae563cb751f57c35b9a6a3d", "rental_uris": {"ios": "https://dc.lft.to/lastmile_qr_scan", "android": "https://dc.lft.to/lastmile_qr_scan"}, "fusion_lon": 0.0, "lon": -77.03479383333334, "name": "413864c66ae563cb751f57c35b9a6a3d", "is_reserved": 0, "is_disabled": 0}, {"lat": 38.902706, "fusion_lat": 0.0, "type": "electric_scooter", "bike_id": "2c2086f3786532c79d583df4fa6f031a", "rental_uris": {"ios": "https://dc.lft.to/lastmile_qr_scan", "android": "https://dc.lft.to/lastmile_qr_scan"}, "fusion_lon": 0.0, "lon": -77.02012816666667, "name": "2c2086f3786532c79d583df4fa6f031a", "is_reserved": 0, "is_disabled": 0}, {"lat": 38.83585466666667, "fusion_lat": 0.0, "type": "electric_bike", "bike_id": "d63aaff1e6208668d9e5f95498e1d200", "rental_uris": {"ios": "https://dc.lft.to/lastmile_qr_scan", "android": "https://dc.lft.to/lastmile_qr_scan"}, "fusion_lon": 0.0, "lon": -77.001155, "name": "d63aaff1e6208668d9e5f95498e1d200", "is_reserved": 0, "is_disabled": 0}, {"lat": 38.94407916666667, "fusion_lat": 0.0, "type": "electric_scooter", "bike_id": "26d196cfe92123476580f9a61f11cbde", "rental_uris": {"ios": "https://dc.lft.to/lastmile_qr_scan", "android": "https://dc.lft.to/lastmile_qr_scan"}, "fusion_lon": 0.0, "lon": -77.039069, "name": "26d196cfe92123476580f9a61f11cbde", "is_reserved": 0, "is_disabled": 0}, {"lat": 38.8986735, "fusion_lat": 0.0, "type": "electric_scooter", "bike_id": "c62be8e0ad6ffca6b05994b6fd883f38", "rental_uris": {"ios": "https://dc.lft.to/lastmile_qr_scan", "android": "https://dc.lft.to/lastmile_qr_scan"}, "fusion_lon": 0.0, "lon": -76.94661433333333, "name": "c62be8e0ad6ffca6b05994b6fd883f38", "is_reserved": 0, "is_disabled": 0}, {"lat": 38.8310645, "fusion_lat": 0.0, "type": "electric_bike", "bike_id": "12f9b7efa90a6d081902d7de25b895ca", "rental_uris": {"ios": "https://dc.lft.to/lastmile_qr_scan", "android": "https://dc.lft.to/lastmile_qr_scan"}, "fusion_lon": 0.0, "lon": -77.11283866666666, "name": "12f9b7efa90a6d081902d7de25b895ca", "is_reserved": 0, "is_disabled": 0}, {"lat": 38.910724, "fusion_lat": 0.0, "type": "electric_scooter", "bike_id": "b7c2edfc7f045bf2bcf86e3b23c5c024", "rental_uris": {"ios": "https://dc.lft.to/lastmile_qr_scan", "android": "https://dc.lft.to/lastmile_qr_scan"}, "fusion_lon": 0.0, "lon": -77.0271595, "name": "b7c2edfc7f045bf2bcf86e3b23c5c024", "is_reserved": 0, "is_disabled": 0}, {"lat": 38.9181905, "fusion_lat": 0.0, "type": "electric_scooter", "bike_id": "5de1b438cbae7fb2f1791ff4e2692134", "rental_uris": {"ios": "https://dc.lft.to/lastmile_qr_scan", "android": "https://dc.lft.to/lastmile_qr_scan"}, "fusion_lon": 0.0, "lon": -77.04173833333333, "name": "5de1b438cbae7fb2f1791ff4e2692134", "is_reserved": 0, "is_disabled": 0}, {"lat": 38.880262333333334, "fusion_lat": 0.0, "type": "electric_scooter", "bike_id": "dc867574c8d12b588156ffb82a6abab3", "rental_uris": {"ios": "https://dc.lft.to/lastmile_qr_scan", "android": "https://dc.lft.to/lastmile_qr_scan"}, "fusion_lon": 0.0, "lon": -77.005843, "name": "dc867574c8d12b588156ffb82a6abab3", "is_reserved": 0, "is_disabled": 0}, {"lat": 38.8968415, "fusion_lat": 0.0, "type": "electric_scooter", "bike_id": "2071211fd370048f3e1f11c70346c756", "rental_uris": {"ios": "https://dc.lft.to/lastmile_qr_scan", "android": "https://dc.lft.to/lastmile_qr_scan"}, "fusion_lon": 0.0, "lon": -77.026769, "name": "2071211fd370048f3e1f11c70346c756", "is_reserved": 0, "is_disabled": 0}, {"lat": 38.921607333333334, "fusion_lat": 0.0, "type": "electric_scooter", "bike_id": "2e128533f37b2b40b286bca448506007", "rental_uris": {"ios": "https://dc.lft.to/lastmile_qr_scan", "android": "https://dc.lft.to/lastmile_qr_scan"}, "fusion_lon": 0.0, "lon": -77.04022283333333, "name": "2e128533f37b2b40b286bca448506007", "is_reserved": 0, "is_disabled": 0}, {"lat": 38.91247233333333, "fusion_lat": 0.0, "type": "electric_scooter", "bike_id": "ae527e60f58aed8edafac410406a2643", "rental_uris": {"ios": "https://dc.lft.to/lastmile_qr_scan", "android": "https://dc.lft.to/lastmile_qr_scan"}, "fusion_lon": 0.0, "lon": -77.03803333333333, "name": "ae527e60f58aed8edafac410406a2643", "is_reserved": 0, "is_disabled": 0}, {"lat": 38.89738716666667, "fusion_lat": 0.0, "type": "electric_scooter", "bike_id": "1484e4c05a9ba879c6cbd3f631a78aa1", "rental_uris": {"ios": "https://dc.lft.to/lastmile_qr_scan", "android": "https://dc.lft.to/lastmile_qr_scan"}, "fusion_lon": 0.0, "lon": -77.00139366666667, "name": "1484e4c05a9ba879c6cbd3f631a78aa1", "is_reserved": 0, "is_disabled": 0}, {"lat": 38.92868216666667, "fusion_lat": 0.0, "type": "electric_scooter", "bike_id": "ff58cb3c99c4ec0e8427e96d503af3aa", "rental_uris": {"ios": "https://dc.lft.to/lastmile_qr_scan", "android": "https://dc.lft.to/lastmile_qr_scan"}, "fusion_lon": 0.0, "lon": -77.03237683333333, "name": "ff58cb3c99c4ec0e8427e96d503af3aa", "is_reserved": 0, "is_disabled": 0}, {"lat": 38.90488166666667, "fusion_lat": 0.0, "type": "electric_scooter", "bike_id": "dfb1b39e828fc76fb3021c68b1012f65", "rental_uris": {"ios": "https://dc.lft.to/lastmile_qr_scan", "android": "https://dc.lft.to/lastmile_qr_scan"}, "fusion_lon": 0.0, "lon": -77.0179215, "name": "dfb1b39e828fc76fb3021c68b1012f65", "is_reserved": 0, "is_disabled": 0}, {"lat": 38.9289445, "fusion_lat": 0.0, "type": "electric_scooter", "bike_id": "a31f7d714d15953524d1df6ae06da8de", "rental_uris": {"ios": "https://dc.lft.to/lastmile_qr_scan", "android": "https://dc.lft.to/lastmile_qr_scan"}, "fusion_lon": 0.0, "lon": -77.05805116666667, "name": "a31f7d714d15953524d1df6ae06da8de", "is_reserved": 0, "is_disabled": 0}, {"lat": 38.900171666666665, "fusion_lat": 0.0, "type": "electric_scooter", "bike_id": "0ff2a8a82d8ec59c55f5a969b28c556f", "rental_uris": {"ios": "https://dc.lft.to/lastmile_qr_scan", "android": "https://dc.lft.to/lastmile_qr_scan"}, "fusion_lon": 0.0, "lon": -76.9986485, "name": "0ff2a8a82d8ec59c55f5a969b28c556f", "is_reserved": 0, "is_disabled": 0}, {"lat": 38.92493266666666, "fusion_lat": 0.0, "type": "electric_scooter", "bike_id": "222ac55836afb1883939058471d0419e", "rental_uris": {"ios": "https://dc.lft.to/lastmile_qr_scan", "android": "https://dc.lft.to/lastmile_qr_scan"}, "fusion_lon": 0.0, "lon": -77.024001, "name": "222ac55836afb1883939058471d0419e", "is_reserved": 0, "is_disabled": 0}, {"lat": 38.961353, "fusion_lat": 0.0, "type": "electric_scooter", "bike_id": "c9dd7ddbb56346894893c89ad9929ca8", "rental_uris": {"ios": "https://dc.lft.to/lastmile_qr_scan", "android": "https://dc.lft.to/lastmile_qr_scan"}, "fusion_lon": 0.0, "lon": -77.02818833333333, "name": "c9dd7ddbb56346894893c89ad9929ca8", "is_reserved": 0, "is_disabled": 0}, {"lat": 38.910021666666665, "fusion_lat": 0.0, "type": "electric_scooter", "bike_id": "f74272f0e627b3a264f8f33c64b9673a", "rental_uris": {"ios": "https://dc.lft.to/lastmile_qr_scan", "android": "https://dc.lft.to/lastmile_qr_scan"}, "fusion_lon": 0.0, "lon": -77.04005783333334, "name": "f74272f0e627b3a264f8f33c64b9673a", "is_reserved": 0, "is_disabled": 0}, {"lat": 38.9425745, "fusion_lat": 0.0, "type": "electric_scooter", "bike_id": "4ad20a4f0df0f98e08b708a7d3d46ce6", "rental_uris": {"ios": "https://dc.lft.to/lastmile_qr_scan", "android": "https://dc.lft.to/lastmile_qr_scan"}, "fusion_lon": 0.0, "lon": -77.04133166666666, "name": "4ad20a4f0df0f98e08b708a7d3d46ce6", "is_reserved": 0, "is_disabled": 0}, {"lat": 38.98041083333333, "fusion_lat": 0.0, "type": "electric_bike", "bike_id": "6daf6ad4b3d4953da9fa49299ebd0a49", "rental_uris": {"ios": "https://dc.lft.to/lastmile_qr_scan", "android": "https://dc.lft.to/lastmile_qr_scan"}, "fusion_lon": 0.0, "lon": -76.95786283333334, "name": "6daf6ad4b3d4953da9fa49299ebd0a49", "is_reserved": 0, "is_disabled": 0}, {"lat": 38.9073995, "fusion_lat": 0.0, "type": "electric_scooter", "bike_id": "30d8f8f8b1ef29c82bb8118141cd78b4", "rental_uris": {"ios": "https://dc.lft.to/lastmile_qr_scan", "android": "https://dc.lft.to/lastmile_qr_scan"}, "fusion_lon": 0.0, "lon": -77.04146133333333, "name": "30d8f8f8b1ef29c82bb8118141cd78b4", "is_reserved": 0, "is_disabled": 0}, {"lat": 38.896108166666664, "fusion_lat": 0.0, "type": "electric_scooter", "bike_id": "1a9e5fa1d2bffc73b029ee25bcf8da89", "rental_uris": {"ios": "https://dc.lft.to/lastmile_qr_scan", "android": "https://dc.lft.to/lastmile_qr_scan"}, "fusion_lon": 0.0, "lon": -77.02937666666666, "name": "1a9e5fa1d2bffc73b029ee25bcf8da89", "is_reserved": 0, "is_disabled": 0}, {"lat": 38.93451833333334, "fusion_lat": 0.0, "type": "electric_scooter", "bike_id": "ddb678ac37be47b0fac7d135a291ac35", "rental_uris": {"ios": "https://dc.lft.to/lastmile_qr_scan", "android": "https://dc.lft.to/lastmile_qr_scan"}, "fusion_lon": 0.0, "lon": -77.02912283333333, "name": "ddb678ac37be47b0fac7d135a291ac35", "is_reserved": 0, "is_disabled": 0}, {"lat": 38.89931033333333, "fusion_lat": 0.0, "type": "electric_scooter", "bike_id": "0d291e3641408e96521e8e89f7e22145", "rental_uris": {"ios": "https://dc.lft.to/lastmile_qr_scan", "android": "https://dc.lft.to/lastmile_qr_scan"}, "fusion_lon": 0.0, "lon": -77.01275516666666, "name": "0d291e3641408e96521e8e89f7e22145", "is_reserved": 0, "is_disabled": 0}, {"lat": 38.8970375, "fusion_lat": 0.0, "type": "electric_scooter", "bike_id": "caef24c6e8580ffa9b7690701309413c", "rental_uris": {"ios": "https://dc.lft.to/lastmile_qr_scan", "android": "https://dc.lft.to/lastmile_qr_scan"}, "fusion_lon": 0.0, "lon": -76.93574366666667, "name": "caef24c6e8580ffa9b7690701309413c", "is_reserved": 0, "is_disabled": 0}, {"lat": 38.91593133333333, "fusion_lat": 0.0, "type": "electric_scooter", "bike_id": "8bb4df33860f806d689c5e3be9029745", "rental_uris": {"ios": "https://dc.lft.to/lastmile_qr_scan", "android": "https://dc.lft.to/lastmile_qr_scan"}, "fusion_lon": 0.0, "lon": -77.031965, "name": "8bb4df33860f806d689c5e3be9029745", "is_reserved": 0, "is_disabled": 0}, {"lat": 38.963948, "fusion_lat": 0.0, "type": "electric_scooter", "bike_id": "7b0de3cb0ac0ae2cca6290ff1808bcc7", "rental_uris": {"ios": "https://dc.lft.to/lastmile_qr_scan", "android": "https://dc.lft.to/lastmile_qr_scan"}, "fusion_lon": 0.0, "lon": -77.02589583333334, "name": "7b0de3cb0ac0ae2cca6290ff1808bcc7", "is_reserved": 0, "is_disabled": 0}, {"lat": 38.90095766666666, "fusion_lat": 0.0, "type": "electric_scooter", "bike_id": "9bd67d8087dbfbd8250fb87c03e0f16e", "rental_uris": {"ios": "https://dc.lft.to/lastmile_qr_scan", "android": "https://dc.lft.to/lastmile_qr_scan"}, "fusion_lon": 0.0, "lon": -77.02324116666666, "name": "9bd67d8087dbfbd8250fb87c03e0f16e", "is_reserved": 0, "is_disabled": 0}, {"lat": 38.900454333333336, "fusion_lat": 0.0, "type": "electric_scooter", "bike_id": "fdb1292b79eb7c1702cb94069a2a20f0", "rental_uris": {"ios": "https://dc.lft.to/lastmile_qr_scan", "android": "https://dc.lft.to/lastmile_qr_scan"}, "fusion_lon": 0.0, "lon": -77.02617583333334, "name": "fdb1292b79eb7c1702cb94069a2a20f0", "is_reserved": 0, "is_disabled": 0}, {"lat": 38.87660366666667, "fusion_lat": 0.0, "type": "electric_scooter", "bike_id": "e8115bd92edfea7e9213f7a923eac112", "rental_uris": {"ios": "https://dc.lft.to/lastmile_qr_scan", "android": "https://dc.lft.to/lastmile_qr_scan"}, "fusion_lon": 0.0, "lon": -77.00071616666666, "name": "e8115bd92edfea7e9213f7a923eac112", "is_reserved": 0, "is_disabled": 0}, {"lat": 38.918159, "fusion_lat": 0.0, "type": "electric_scooter", "bike_id": "71ff799cbcf8b43aad8668c26f611439", "rental_uris": {"ios": "https://dc.lft.to/lastmile_qr_scan", "android": "https://dc.lft.to/lastmile_qr_scan"}, "fusion_lon": 0.0, "lon": -77.0356415, "name": "71ff799cbcf8b43aad8668c26f611439", "is_reserved": 0, "is_disabled": 0}, {"lat": 38.926944, "fusion_lat": 0.0, "type": "electric_scooter", "bike_id": "fcb7ab4caa48caca7137c9a1d12267d4", "rental_uris": {"ios": "https://dc.lft.to/lastmile_qr_scan", "android": "https://dc.lft.to/lastmile_qr_scan"}, "fusion_lon": 0.0, "lon": -76.99755816666666, "name": "fcb7ab4caa48caca7137c9a1d12267d4", "is_reserved": 0, "is_disabled": 0}, {"lat": 38.93259416666667, "fusion_lat": 0.0, "type": "electric_scooter", "bike_id": "f67f66c1fbb9e1e923a509d8da489788", "rental_uris": {"ios": "https://dc.lft.to/lastmile_qr_scan", "android": "https://dc.lft.to/lastmile_qr_scan"}, "fusion_lon": 0.0, "lon": -77.02086283333334, "name": "f67f66c1fbb9e1e923a509d8da489788", "is_reserved": 0, "is_disabled": 0}, {"lat": 38.89725816666667, "fusion_lat": 0.0, "type": "electric_scooter", "bike_id": "0351ae2ca8306b5e840c4760f010b750", "rental_uris": {"ios": "https://dc.lft.to/lastmile_qr_scan", "android": "https://dc.lft.to/lastmile_qr_scan"}, "fusion_lon": 0.0, "lon": -77.0269475, "name": "0351ae2ca8306b5e840c4760f010b750", "is_reserved": 0, "is_disabled": 0}, {"lat": 38.9067055, "fusion_lat": 0.0, "type": "electric_bike", "bike_id": "2ed59e733c79170fd00268e9c1d04cca", "rental_uris": {"ios": "https://dc.lft.to/lastmile_qr_scan", "android": "https://dc.lft.to/lastmile_qr_scan"}, "fusion_lon": 0.0, "lon": -77.03514316666667, "name": "2ed59e733c79170fd00268e9c1d04cca", "is_reserved": 0, "is_disabled": 0}, {"lat": 38.908718666666665, "fusion_lat": 0.0, "type": "electric_scooter", "bike_id": "5d5664e995c88797a51a3342bbb983bb", "rental_uris": {"ios": "https://dc.lft.to/lastmile_qr_scan", "android": "https://dc.lft.to/lastmile_qr_scan"}, "fusion_lon": 0.0, "lon": -77.0401295, "name": "5d5664e995c88797a51a3342bbb983bb", "is_reserved": 0, "is_disabled": 0}, {"lat": 38.90938116666667, "fusion_lat": 0.0, "type": "electric_scooter", "bike_id": "6d164729024d183e8536b26d8bba2566", "rental_uris": {"ios": "https://dc.lft.to/lastmile_qr_scan", "android": "https://dc.lft.to/lastmile_qr_scan"}, "fusion_lon": 0.0, "lon": -77.0345105, "name": "6d164729024d183e8536b26d8bba2566", "is_reserved": 0, "is_disabled": 0}, {"lat": 38.9072825, "fusion_lat": 0.0, "type": "electric_scooter", "bike_id": "2da012fb860377896dd7016bd669328e", "rental_uris": {"ios": "https://dc.lft.to/lastmile_qr_scan", "android": "https://dc.lft.to/lastmile_qr_scan"}, "fusion_lon": 0.0, "lon": -77.04325816666666, "name": "2da012fb860377896dd7016bd669328e", "is_reserved": 0, "is_disabled": 0}, {"lat": 38.906595833333334, "fusion_lat": 0.0, "type": "electric_scooter", "bike_id": "7a802df309178d513aa84ff63648e1ec", "rental_uris": {"ios": "https://dc.lft.to/lastmile_qr_scan", "android": "https://dc.lft.to/lastmile_qr_scan"}, "fusion_lon": 0.0, "lon": -77.04322083333334, "name": "7a802df309178d513aa84ff63648e1ec", "is_reserved": 0, "is_disabled": 0}, {"lat": 38.927516, "fusion_lat": 0.0, "type": "electric_scooter", "bike_id": "69c4baa2100be2f1db33132710fd6eea", "rental_uris": {"ios": "https://dc.lft.to/lastmile_qr_scan", "android": "https://dc.lft.to/lastmile_qr_scan"}, "fusion_lon": 0.0, "lon": -77.03349583333333, "name": "69c4baa2100be2f1db33132710fd6eea", "is_reserved": 0, "is_disabled": 0}, {"lat": 38.916765166666664, "fusion_lat": 0.0, "type": "electric_scooter", "bike_id": "ba9be5a436cfa2d73c106538b619bb8c", "rental_uris": {"ios": "https://dc.lft.to/lastmile_qr_scan", "android": "https://dc.lft.to/lastmile_qr_scan"}, "fusion_lon": 0.0, "lon": -77.029498, "name": "ba9be5a436cfa2d73c106538b619bb8c", "is_reserved": 0, "is_disabled": 0}, {"lat": 38.946504166666664, "fusion_lat": 0.0, "type": "electric_scooter", "bike_id": "c1e0e43edddebb327ea0665134b12581", "rental_uris": {"ios": "https://dc.lft.to/lastmile_qr_scan", "android": "https://dc.lft.to/lastmile_qr_scan"}, "fusion_lon": 0.0, "lon": -77.0296415, "name": "c1e0e43edddebb327ea0665134b12581", "is_reserved": 0, "is_disabled": 0}, {"lat": 38.924393, "fusion_lat": 0.0, "type": "electric_scooter", "bike_id": "f33e5c9790f9e359613d5169d9c7b62b", "rental_uris": {"ios": "https://dc.lft.to/lastmile_qr_scan", "android": "https://dc.lft.to/lastmile_qr_scan"}, "fusion_lon": 0.0, "lon": -77.02031533333333, "name": "f33e5c9790f9e359613d5169d9c7b62b", "is_reserved": 0, "is_disabled": 0}, {"lat": 38.892307, "fusion_lat": 0.0, "type": "electric_scooter", "bike_id": "d223838e52c9710a7bf49547a8b9d75f", "rental_uris": {"ios": "https://dc.lft.to/lastmile_qr_scan", "android": "https://dc.lft.to/lastmile_qr_scan"}, "fusion_lon": 0.0, "lon": -77.04870383333333, "name": "d223838e52c9710a7bf49547a8b9d75f", "is_reserved": 0, "is_disabled": 0}, {"lat": 38.950000833333334, "fusion_lat": 0.0, "type": "electric_scooter", "bike_id": "041b3236384d6389fec675d51b0d51a4", "rental_uris": {"ios": "https://dc.lft.to/lastmile_qr_scan", "android": "https://dc.lft.to/lastmile_qr_scan"}, "fusion_lon": 0.0, "lon": -77.080626, "name": "041b3236384d6389fec675d51b0d51a4", "is_reserved": 0, "is_disabled": 0}, {"lat": 38.90502383333333, "fusion_lat": 0.0, "type": "electric_scooter", "bike_id": "e9bf6c7b415c668b922c24b067992e56", "rental_uris": {"ios": "https://dc.lft.to/lastmile_qr_scan", "android": "https://dc.lft.to/lastmile_qr_scan"}, "fusion_lon": 0.0, "lon": -77.04837633333334, "name": "e9bf6c7b415c668b922c24b067992e56", "is_reserved": 0, "is_disabled": 0}, {"lat": 38.847572166666666, "fusion_lat": 0.0, "type": "electric_scooter", "bike_id": "3956f3f14b4babe464d37d75a67f6495", "rental_uris": {"ios": "https://dc.lft.to/lastmile_qr_scan", "android": "https://dc.lft.to/lastmile_qr_scan"}, "fusion_lon": 0.0, "lon": -76.99499583333333, "name": "3956f3f14b4babe464d37d75a67f6495", "is_reserved": 0, "is_disabled": 0}, {"lat": 38.99438216666667, "fusion_lat": 0.0, "type": "electric_bike", "bike_id": "11f99430943cf3ca92632dbce1ca9b95", "rental_uris": {"ios": "https://dc.lft.to/lastmile_qr_scan", "android": "https://dc.lft.to/lastmile_qr_scan"}, "fusion_lon": 0.0, "lon": -77.02659316666667, "name": "11f99430943cf3ca92632dbce1ca9b95", "is_reserved": 0, "is_disabled": 0}, {"lat": 38.878885, "fusion_lat": 0.0, "type": "electric_scooter", "bike_id": "a5d35835ada471dcf3fcc7046d79f76b", "rental_uris": {"ios": "https://dc.lft.to/lastmile_qr_scan", "android": "https://dc.lft.to/lastmile_qr_scan"}, "fusion_lon": 0.0, "lon": -77.02298916666666, "name": "a5d35835ada471dcf3fcc7046d79f76b", "is_reserved": 0, "is_disabled": 0}, {"lat": 38.89972433333333, "fusion_lat": 0.0, "type": "electric_scooter", "bike_id": "af31f0c01b16f09940c3839eddca17ba", "rental_uris": {"ios": "https://dc.lft.to/lastmile_qr_scan", "android": "https://dc.lft.to/lastmile_qr_scan"}, "fusion_lon": 0.0, "lon": -76.98544633333333, "name": "af31f0c01b16f09940c3839eddca17ba", "is_reserved": 0, "is_disabled": 0}, {"lat": 38.915747, "fusion_lat": 0.0, "type": "electric_scooter", "bike_id": "32886d01937708fec4c0467b1b855b7a", "rental_uris": {"ios": "https://dc.lft.to/lastmile_qr_scan", "android": "https://dc.lft.to/lastmile_qr_scan"}, "fusion_lon": 0.0, "lon": -77.019076, "name": "32886d01937708fec4c0467b1b855b7a", "is_reserved": 0, "is_disabled": 0}, {"lat": 39.05254083333333, "fusion_lat": 0.0, "type": "electric_bike", "bike_id": "8a39ec471f7d2858129e67681b61edc0", "rental_uris": {"ios": "https://dc.lft.to/lastmile_qr_scan", "android": "https://dc.lft.to/lastmile_qr_scan"}, "fusion_lon": 0.0, "lon": -77.08061666666667, "name": "8a39ec471f7d2858129e67681b61edc0", "is_reserved": 0, "is_disabled": 0}, {"lat": 38.922262333333336, "fusion_lat": 0.0, "type": "electric_scooter", "bike_id": "3d7f63ca1ba7e36d187682759a129839", "rental_uris": {"ios": "https://dc.lft.to/lastmile_qr_scan", "android": "https://dc.lft.to/lastmile_qr_scan"}, "fusion_lon": 0.0, "lon": -77.02115666666667, "name": "3d7f63ca1ba7e36d187682759a129839", "is_reserved": 0, "is_disabled": 0}, {"lat": 38.868929333333334, "fusion_lat": 0.0, "type": "electric_bike", "bike_id": "bbe4bbfa192cbb425e2cd5e2a913a81e", "rental_uris": {"ios": "https://dc.lft.to/lastmile_qr_scan", "android": "https://dc.lft.to/lastmile_qr_scan"}, "fusion_lon": 0.0, "lon": -76.98519616666667, "name": "bbe4bbfa192cbb425e2cd5e2a913a81e", "is_reserved": 0, "is_disabled": 0},