{"data": {"bikes": [{"fusion_lat": 0.0, "lat": 38.83548, "rental_uris": {"ios": "https://dc.lft.to/lastmile_qr_scan", "android": "https://dc.lft.to/lastmile_qr_scan"}, "name": "f1baacf046fbc2fc39575104b868cb2e", "type": "electric_bike", "fusion_lon": 0.0, "is_disabled": 0, "is_reserved": 0, "bike_id": "f1baacf046fbc2fc39575104b868cb2e", "lon": -76.98722183333334}, {"fusion_lat": 0.0, "lat": 38.843948833333336, "rental_uris": {"ios": "https://dc.lft.to/lastmile_qr_scan", "android": "https://dc.lft.to/lastmile_qr_scan"}, "name": "3cab2e35becce2daf4fe7b954b457277", "type": "electric_scooter", "fusion_lon": 0.0, "is_disabled": 0, "is_reserved": 0, "bike_id": "3cab2e35becce2daf4fe7b954b457277", "lon": -76.9895255}, {"fusion_lat": 0.0, "lat": 38.91556083333333, "rental_uris": {"ios": "https://dc.lft.to/lastmile_qr_scan", "android": "https://dc.lft.to/lastmile_qr_scan"}, "name": "88ac4500fe035b7917b7e195dfcd2e5a", "type": "electric_scooter", "fusion_lon": 0.0, "is_disabled": 0, "is_reserved": 0, "bike_id": "88ac4500fe035b7917b7e195dfcd2e5a", "lon": -77.031742}, {"fusion_lat": 0.0, "lat": 38.886395, "rental_uris": {"ios": "https://dc.lft.to/lastmile_qr_scan", "android": "https://dc.lft.to/lastmile_qr_scan"}, "name": "45b4dbd62f83faf22a633dac8704908e", "type": "electric_scooter", "fusion_lon": 0.0, "is_disabled": 0, "is_reserved": 0, "bike_id": "45b4dbd62f83faf22a633dac8704908e", "lon": -77.01555}, {"fusion_lat": 0.0, "lat": 38.905712, "rental_uris": {"ios": "https://dc.lft.to/lastmile_qr_scan", "android": "https://dc.lft.to/lastmile_qr_scan"}, "name": "6f5b53f3f7fbd5528fc5bbfe57ce8ba3", "type": "electric_scooter", "fusion_lon": 0.0, "is_disabled": 0, "is_reserved": 0, "bike_id": "6f5b53f3f7fbd5528fc5bbfe57ce8ba3", "lon": -77.02413833333334}, {"fusion_lat": 0.0, "lat": 38.87899766666666, "rental_uris": {"ios": "https://dc.lft.to/lastmile_qr_scan", "android": "https://dc.lft.to/lastmile_qr_scan"}, "name": "0d245b02f8219d9f092c9868f81e1774", "type": "electric_scooter", "fusion_lon": 0.0, "is_disabled": 0, "is_reserved": 0, "bike_id": "0d245b02f8219d9f092c9868f81e1774", "lon": -77.02192266666667}, {"fusion_lat": 0.0, "lat": 38.90776233333333, "rental_uris": {"ios": "https://dc.lft.to/lastmile_qr_scan", "android": "https://dc.lft.to/lastmile_qr_scan"}, "name": "e06a0e01915c8d22a1428fb03fc84433", "type": "electric_scooter", "fusion_lon": 0.0, "is_disabled": 0, "is_reserved": 0, "bike_id": "e06a0e01915c8d22a1428fb03fc84433", "lon": -77.04249416666667}, {"fusion_lat": 0.0, "lat": 38.99052533333333, "rental_uris": {"ios": "https://dc.lft.to/lastmile_qr_scan", "android": "https://dc.lft.to/lastmile_qr_scan"}, "name": "da0bbe5aa50095dbde9c559433ffd1ca", "type": "electric_bike", "fusion_lon": 0.0, "is_disabled": 0, "is_reserved": 0, "bike_id": "da0bbe5aa50095dbde9c559433ffd1ca", "lon": -77.0386555}, {"fusion_lat": 0.0, "lat": 38.892250833333335, "rental_uris": {"ios": "https://dc.lft.to/lastmile_qr_scan", "android": "https://dc.lft.to/lastmile_qr_scan"}, "name": "65954bc18f9687c2ca3f2343dca23426", "type": "electric_scooter", "fusion_lon": 0.0, "is_disabled": 0, "is_reserved": 0, "bike_id": "65954bc18f9687c2ca3f2343dca23426", "lon": -77.0477025}, {"fusion_lat": 0.0, "lat": 38.916934166666664, "rental_uris": {"ios": "https://dc.lft.to/lastmile_qr_scan", "android": "https://dc.lft.to/lastmile_qr_scan"}, "name": "4b93ae3e9a22582bd18f31be3398cae6", "type": "electric_scooter", "fusion_lon": 0.0, "is_disabled": 0, "is_reserved": 0, "bike_id": "4b93ae3e9a22582bd18f31be3398cae6", "lon": -77.01197666666667}, {"fusion_lat": 0.0, "lat": 38.91560883333333, "rental_uris": {"ios": "https://dc.lft.to/lastmile_qr_scan", "android": "https://dc.lft.to/lastmile_qr_scan"}, "name": "9743a733052e68682d884ac36677d5b4", "type": "electric_scooter", "fusion_lon": 0.0, "is_disabled": 0, "is_reserved": 0, "bike_id": "9743a733052e68682d884ac36677d5b4", "lon": -77.03232516666667}, {"fusion_lat": 0.0, "lat": 38.907377, "rental_uris": {"ios": "https://dc.lft.to/lastmile_qr_scan", "android": "https://dc.lft.to/lastmile_qr_scan"}, "name": "14900275321980b5dbb1016f065e234c", "type": "electric_scooter", "fusion_lon": 0.0, "is_disabled": 0, "is_reserved": 0, "bike_id": "14900275321980b5dbb1016f065e234c", "lon": -77.00132966666666}, {"fusion_lat": 0.0, "lat": 38.915695, "rental_uris": {"ios": "https://dc.lft.to/lastmile_qr_scan", "android": "https://dc.lft.to/lastmile_qr_scan"}, "name": "f39355ef81c64f72cf057b87e0914aca", "type": "electric_scooter", "fusion_lon": 0.0, "is_disabled": 0, "is_reserved": 0, "bike_id": "f39355ef81c64f72cf057b87e0914aca", "lon": -77.02128216666667}, {"fusion_lat": 0.0, "lat": 38.923694833333336, "rental_uris": {"ios": "https://dc.lft.to/lastmile_qr_scan", "android": "https://dc.lft.to/lastmile_qr_scan"}, "name": "9eeef717a5de19d3ea5e640cd17dd090", "type": "electric_scooter", "fusion_lon": 0.0, "is_disabled": 0, "is_reserved": 0, "bike_id": "9eeef717a5de19d3ea5e640cd17dd090", "lon": -77.019632}, {"fusion_lat": 0.0, "lat": 38.87682316666667, "rental_uris": {"ios": "https://dc.lft.to/lastmile_qr_scan", "android": "https://dc.lft.to/lastmile_qr_scan"}, "name": "bd62e16a080c26e59ade0726f043889f", "type": "electric_scooter", "fusion_lon": 0.0, "is_disabled": 0, "is_reserved": 0, "bike_id": "bd62e16a080c26e59ade0726f043889f", "lon": -77.01765633333333}, {"fusion_lat": 0.0, "lat": 38.9198995, "rental_uris": {"ios": "https://dc.lft.to/lastmile_qr_scan", "android": "https://dc.lft.to/lastmile_qr_scan"}, "name": "f17540f12c89195f0691b7483eea0611", "type": "electric_scooter", "fusion_lon": 0.0, "is_disabled": 0, "is_reserved": 0, "bike_id": "f17540f12c89195f0691b7483eea0611", "lon": -77.02540983333333}, {"fusion_lat": 0.0, "lat": 38.892242333333336, "rental_uris": {"ios": "https://dc.lft.to/lastmile_qr_scan", "android": "https://dc.lft.to/lastmile_qr_scan"}, "name": "2dcdbeb184b581fade5bf426eb36f5ac", "type": "electric_scooter", "fusion_lon": 0.0, "is_disabled": 0, "is_reserved": 0, "bike_id": "2dcdbeb184b581fade5bf426eb36f5ac", "lon": -77.04771166666667}, {"fusion_lat": 0.0, "lat": 38.919819, "rental_uris": {"ios": "https://dc.lft.to/lastmile_qr_scan", "android": "https://dc.lft.to/lastmile_qr_scan"}, "name": "96ad3c7d0d79eb8f664938b930ee1236", "type": "electric_scooter", "fusion_lon": 0.0, "is_disabled": 0, "is_reserved": 0, "bike_id": "96ad3c7d0d79eb8f664938b930ee1236", "lon": -77.023811}, {"fusion_lat": 0.0, "lat": 38.8860465, "rental_uris": {"ios": "https://dc.lft.to/lastmile_qr_scan", "android": "https://dc.lft.to/lastmile_qr_scan"}, "name": "0e7610e1472e93f85342ee55b1b33cb5", "type": "electric_scooter", "fusion_lon": 0.0, "is_disabled": 0, "is_reserved": 0, "bike_id": "0e7610e1472e93f85342ee55b1b33cb5", "lon": -77.03205966666667}, {"fusion_lat": 0.0, "lat": 38.954841, "rental_uris": {"ios": "https://dc.lft.to/lastmile_qr_scan", "android": "https://dc.lft.to/lastmile_qr_scan"}, "name": "368233f528ee1045a0d437f4af62efc5", "type": "electric_bike", "fusion_lon": 0.0, "is_disabled": 0, "is_reserved": 0, "bike_id": "368233f528ee1045a0d437f4af62efc5", "lon": -77.02664683333333}, {"fusion_lat": 0.0, "lat": 38.9200895, "rental_uris": {"ios": "https://dc.lft.to/lastmile_qr_scan", "android": "https://dc.lft.to/lastmile_qr_scan"}, "name": "75b2901ad17d7d6ab858e462fb906e27", "type": "electric_bike", "fusion_lon": 0.0, "is_disabled": 0, "is_reserved": 0, "bike_id": "75b2901ad17d7d6ab858e462fb906e27", "lon": -77.03191216666667}, {"fusion_lat": 0.0, "lat": 38.905175666666665, "rental_uris": {"ios": "https://dc.lft.to/lastmile_qr_scan", "android": "https://dc.lft.to/lastmile_qr_scan"}, "name": "1f611cd58c75576efd3df6390f9ddbee", "type": "electric_scooter", "fusion_lon": 0.0, "is_disabled": 0, "is_reserved": 0, "bike_id": "1f611cd58c75576efd3df6390f9ddbee", "lon": -77.06544633333333}, {"fusion_lat": 0.0, "lat": 38.8393825, "rental_uris": {"ios": "https://dc.lft.to/lastmile_qr_scan", "android": "https://dc.lft.to/lastmile_qr_scan"}, "name": "03d5d1a030479001850a81c8154264f7", "type": "electric_bike", "fusion_lon": 0.0, "is_disabled": 0, "is_reserved": 0, "bike_id": "03d5d1a030479001850a81c8154264f7", "lon": -77.07895533333334}, {"fusion_lat": 0.0, "lat": 38.924619, "rental_uris": {"ios": "https://dc.lft.to/lastmile_qr_scan", "android": "https://dc.lft.to/lastmile_qr_scan"}, "name": "f733c4408ae23b72c8fdeb93a0a6c0d7", "type": "electric_scooter", "fusion_lon": 0.0, "is_disabled": 0, "is_reserved": 0, "bike_id": "f733c4408ae23b72c8fdeb93a0a6c0d7", "lon": -77.05234233333333}, {"fusion_lat": 0.0, "lat": 38.9204855, "rental_uris": {"ios": "https://dc.lft.to/lastmile_qr_scan", "android": "https://dc.lft.to/lastmile_qr_scan"}, "name": "83d4bdf35d02953029b9ace611884237", "type": "electric_scooter", "fusion_lon": 0.0, "is_disabled": 0, "is_reserved": 0, "bike_id": "83d4bdf35d02953029b9ace611884237", "lon": -77.03457066666667}, {"fusion_lat": 0.0, "lat": 38.89759133333333, "rental_uris": {"ios": "https://dc.lft.to/lastmile_qr_scan", "android": "https://dc.lft.to/lastmile_qr_scan"}, "name": "8d1c9398a3bc95925067dab5a7675c81", "type": "electric_scooter", "fusion_lon": 0.0, "is_disabled": 0, "is_reserved": 0, "bike_id": "8d1c9398a3bc95925067dab5a7675c81", "lon": -77.03246966666667}, {"fusion_lat": 0.0, "lat": 38.92420466666667, "rental_uris": {"ios": "https://dc.lft.to/lastmile_qr_scan", "android": "https://dc.lft.to/lastmile_qr_scan"}, "name": "9ddf2fa5c079cce9464d35bf42850628", "type": "electric_scooter", "fusion_lon": 0.0, "is_disabled": 0, "is_reserved": 0, "bike_id": "9ddf2fa5c079cce9464d35bf42850628", "lon": -77.01948516666667}, {"fusion_lat": 0.0, "lat": 38.926021, "rental_uris": {"ios": "https://dc.lft.to/lastmile_qr_scan", "android": "https://dc.lft.to/lastmile_qr_scan"}, "name": "fe0785cfc6bbbac29eea29a848c1c4fe", "type": "electric_scooter", "fusion_lon": 0.0, "is_disabled": 0, "is_reserved": 0, "bike_id": "fe0785cfc6bbbac29eea29a848c1c4fe", "lon": -77.023797}, {"fusion_lat": 0.0, "lat": 38.9309015, "rental_uris": {"ios": "https://dc.lft.to/lastmile_qr_scan", "android": "https://dc.lft.to/lastmile_qr_scan"}, "name": "7913424a81cd1bbcbfe7117054ebe399", "type": "electric_scooter", "fusion_lon": 0.0, "is_disabled": 0, "is_reserved": 0, "bike_id": "7913424a81cd1bbcbfe7117054ebe399", "lon": -77.03816983333333}, {"fusion_lat": 0.0, "lat": 38.88742283333333, "rental_uris": {"ios": "https://dc.lft.to/lastmile_qr_scan", "android": "https://dc.lft.to/lastmile_qr_scan"}, "name": "9256f53ac7e0f69cfbf120906905df24", "type": "electric_scooter", "fusion_lon": 0.0, "is_disabled": 0, "is_reserved": 0, "bike_id": "9256f53ac7e0f69cfbf120906905df24", "lon": -77.02585933333333}, {"fusion_lat": 0.0, "lat": 38.9072785, "rental_uris": {"ios": "https://dc.lft.to/lastmile_qr_scan", "android": "https://dc.lft.to/lastmile_qr_scan"}, "name": "86ef1c8bf927599e2971b95c743f0906", "type": "electric_scooter", "fusion_lon": 0.0, "is_disabled": 0, "is_reserved": 0, "bike_id": "86ef1c8bf927599e2971b95c743f0906", "lon": -76.9976885}, {"fusion_lat": 0.0, "lat": 38.90364833333334, "rental_uris": {"ios": "https://dc.lft.to/lastmile_qr_scan", "android": "https://dc.lft.to/lastmile_qr_scan"}, "name": "ba9bf93398404991b062b22564ec7c78", "type": "electric_scooter", "fusion_lon": 0.0, "is_disabled": 0, "is_reserved": 0, "bike_id": "ba9bf93398404991b062b22564ec7c78", "lon": -77.0396125}, {"fusion_lat": 0.0, "lat": 38.92202783333333, "rental_uris": {"ios": "https://dc.lft.to/lastmile_qr_scan", "android": "https://dc.lft.to/lastmile_qr_scan"}, "name": "94de17b1bb08d1f9404f85ba038f8671", "type": "electric_scooter", "fusion_lon": 0.0, "is_disabled": 0, "is_reserved": 0, "bike_id": "94de17b1bb08d1f9404f85ba038f8671", "lon": -77.0425335}, {"fusion_lat": 0.0, "lat": 38.8922525, "rental_uris": {"ios": "https://dc.lft.to/lastmile_qr_scan", "android": "https://dc.lft.to/lastmile_qr_scan"}, "name": "e4f62bfe2a68fc064728bf76ce2d92bd", "type": "electric_scooter", "fusion_lon": 0.0, "is_disabled": 0, "is_reserved": 0, "bike_id": "e4f62bfe2a68fc064728bf76ce2d92bd", "lon": -77.04870966666667}, {"fusion_lat": 0.0, "lat": 38.95970616666666, "rental_uris": {"ios": "https://dc.lft.to/lastmile_qr_scan", "android": "https://dc.lft.to/lastmile_qr_scan"}, "name": "03d34a5144f074e74ad4005a327b97bf", "type": "electric_bike", "fusion_lon": 0.0, "is_disabled": 0, "is_reserved": 0, "bike_id": "03d34a5144f074e74ad4005a327b97bf", "lon": -76.981633}, {"fusion_lat": 0.0, "lat": 38.91191, "rental_uris": {"ios": "https://dc.lft.to/lastmile_qr_scan", "android": "https://dc.lft.to/lastmile_qr_scan"}, "name": "9c0c1cee46f22414247355b90bb0f838", "type": "electric_scooter", "fusion_lon": 0.0, "is_disabled": 0, "is_reserved": 0, "bike_id": "9c0c1cee46f22414247355b90bb0f838", "lon": -77.032508}, {"fusion_lat": 0.0, "lat": 38.9171075, "rental_uris": {"ios": "https://dc.lft.to/lastmile_qr_scan", "android": "https://dc.lft.to/lastmile_qr_scan"}, "name": "335aecaa1f41c837e47ee42c81569b41", "type": "electric_scooter", "fusion_lon": 0.0, "is_disabled": 0, "is_reserved": 0, "bike_id": "335aecaa1f41c837e47ee42c81569b41", "lon": -77.02826033333334}, {"fusion_lat": 0.0, "lat": 38.91095933333333, "rental_uris": {"ios": "https://dc.lft.to/lastmile_qr_scan", "android": "https://dc.lft.to/lastmile_qr_scan"}, "name": "c9eb5f40ee2271138236d1075d3a9374", "type": "electric_scooter", "fusion_lon": 0.0, "is_disabled": 0, "is_reserved": 0, "bike_id": "c9eb5f40ee2271138236d1075d3a9374", "lon": -77.03198333333333}, {"fusion_lat": 0.0, "lat": 38.898476, "rental_uris": {"ios": "https://dc.lft.to/lastmile_qr_scan", "android": "https://dc.lft.to/lastmile_qr_scan"}, "name": "6b003e0b79ccfe9c60e67686a067fb0b", "type": "electric_scooter", "fusion_lon": 0.0, "is_disabled": 0, "is_reserved": 0, "bike_id": "6b003e0b79ccfe9c60e67686a067fb0b", "lon": -77.03279333333333}, {"fusion_lat": 0.0, "lat": 38.95762233333333, "rental_uris": {"ios": "https://dc.lft.to/lastmile_qr_scan", "android": "https://dc.lft.to/lastmile_qr_scan"}, "name": "9060a8151517a121ca9b21367b8b4929", "type": "electric_bike", "fusion_lon": 0.0, "is_disabled": 0, "is_reserved": 0, "bike_id": "9060a8151517a121ca9b21367b8b4929", "lon": -76.980889}, {"fusion_lat": 0.0, "lat": 38.91403566666666, "rental_uris": {"ios": "https://dc.lft.to/lastmile_qr_scan", "android": "https://dc.lft.to/lastmile_qr_scan"}, "name": "165ee0ac4f80b917ea4fdb5cbd754baa", "type": "electric_scooter", "fusion_lon": 0.0, "is_disabled": 0, "is_reserved": 0, "bike_id": "165ee0ac4f80b917ea4fdb5cbd754baa", "lon": -77.03227266666667}, {"fusion_lat": 0.0, "lat": 38.91740766666667, "rental_uris": {"ios": "https://dc.lft.to/lastmile_qr_scan", "android": "https://dc.lft.to/lastmile_qr_scan"}, "name": "87596ce685111e0e18fb62ca5f383c39", "type": "electric_scooter", "fusion_lon": 0.0, "is_disabled": 0, "is_reserved": 0, "bike_id": "87596ce685111e0e18fb62ca5f383c39", "lon": -77.03179233333333}, {"fusion_lat": 0.0, "lat": 38.9260895, "rental_uris": {"ios": "https://dc.lft.to/lastmile_qr_scan", "android": "https://dc.lft.to/lastmile_qr_scan"}, "name": "6e48576f2fbf13adf3b93cc6ca2f2382", "type": "electric_scooter", "fusion_lon": 0.0, "is_disabled": 0, "is_reserved": 0, "bike_id": "6e48576f2fbf13adf3b93cc6ca2f2382", "lon": -77.0221505}, {"fusion_lat": 0.0, "lat": 38.884893, "rental_uris": {"ios": "https://dc.lft.to/lastmile_qr_scan", "android": "https://dc.lft.to/lastmile_qr_scan"}, "name": "ed5a09bddcb04b12f719ccda27b5f042", "type": "electric_scooter", "fusion_lon": 0.0, "is_disabled": 0, "is_reserved": 0, "bike_id": "ed5a09bddcb04b12f719ccda27b5f042", "lon": -77.00709316666666}, {"fusion_lat": 0.0, "lat": 38.91219066666667, "rental_uris": {"ios": "https://dc.lft.to/lastmile_qr_scan", "android": "https://dc.lft.to/lastmile_qr_scan"}, "name": "fb3a5e75b5dd9c7a8edaee2b068fbd35", "type": "electric_scooter", "fusion_lon": 0.0, "is_disabled": 0, "is_reserved": 0, "bike_id": "fb3a5e75b5dd9c7a8edaee2b068fbd35", "lon": -77.0450275}, {"fusion_lat": 0.0, "lat": 38.921205666666665, "rental_uris": {"ios": "https://dc.lft.to/lastmile_qr_scan", "android": "https://dc.lft.to/lastmile_qr_scan"}, "name": "3a9a0d30e58577af68abfa47008d6b67", "type": "electric_scooter", "fusion_lon": 0.0, "is_disabled": 0, "is_reserved": 0, "bike_id": "3a9a0d30e58577af68abfa47008d6b67", "lon": -77.00917333333334}, {"fusion_lat": 0.0, "lat": 38.9231695, "rental_uris": {"ios": "https://dc.lft.to/lastmile_qr_scan", "android": "https://dc.lft.to/lastmile_qr_scan"}, "name": "6fab8cab24e789a58cd3d970434954a9", "type": "electric_scooter", "fusion_lon": 0.0, "is_disabled": 0, "is_reserved": 0, "bike_id": "6fab8cab24e789a58cd3d970434954a9", "lon": -77.04015616666666}, {"fusion_lat": 0.0, "lat": 38.867219, "rental_uris": {"ios": "https://dc.lft.to/lastmile_qr_scan", "android": "https://dc.lft.to/lastmile_qr_scan"}, "name": "96d8f7fa904e7b8a7fe3a73cdc97df59", "type": "electric_scooter", "fusion_lon": 0.0, "is_disabled": 0, "is_reserved": 0, "bike_id": "96d8f7fa904e7b8a7fe3a73cdc97df59", "lon": -76.98698066666667}, {"fusion_lat": 0.0, "lat": 38.90719133333333, "rental_uris": {"ios": "https://dc.lft.to/lastmile_qr_scan", "android": "https://dc.lft.to/lastmile_qr_scan"}, "name": "eaf7673f5c27d0d95970d6973097bdfd", "type": "electric_scooter", "fusion_lon": 0.0, "is_disabled": 0, "is_reserved": 0, "bike_id": "eaf7673f5c27d0d95970d6973097bdfd", "lon": -77.02563933333333}, {"fusion_lat": 0.0, "lat": 38.912925666666666, "rental_uris": {"ios": "https://dc.lft.to/lastmile_qr_scan", "android": "https://dc.lft.to/lastmile_qr_scan"}, "name": "6ffbd83ea5da4d86afd52fc4cf5f0277", "type": "electric_scooter", "fusion_lon": 0.0, "is_disabled": 0, "is_reserved": 0, "bike_id": "6ffbd83ea5da4d86afd52fc4cf5f0277", "lon": -77.04870033333333}, {"fusion_lat": 0.0, "lat": 38.90204283333333, "rental_uris": {"ios": "https://dc.lft.to/lastmile_qr_scan", "android": "https://dc.lft.to/lastmile_qr_scan"}, "name": "21825cc0b0562f21a4b66f8c59a140a3", "type": "electric_scooter", "fusion_lon": 0.0, "is_disabled": 0, "is_reserved": 0, "bike_id": "21825cc0b0562f21a4b66f8c59a140a3", "lon": -76.982063}, {"fusion_lat": 0.0, "lat": 38.884526, "rental_uris": {"ios": "https://dc.lft.to/lastmile_qr_scan", "android": "https://dc.lft.to/lastmile_qr_scan"}, "name": "9588263f1aa0217e6edd4e3ea1ee9b71", "type": "electric_scooter", "fusion_lon": 0.0, "is_disabled": 0, "is_reserved": 0, "bike_id": "9588263f1aa0217e6edd4e3ea1ee9b71", "lon": -76.95096133333334}, {"fusion_lat": 0.0, "lat": 38.914101333333335, "rental_uris": {"ios": "https://dc.lft.to/lastmile_qr_scan", "android": "https://dc.lft.to/lastmile_qr_scan"}, "name": "277eeebc20410290220e9bcfc9b5372d", "type": "electric_scooter", "fusion_lon": 0.0, "is_disabled": 0, "is_reserved": 0, "bike_id": "277eeebc20410290220e9bcfc9b5372d", "lon": -77.01556616666667}, {"fusion_lat": 0.0, "lat": 38.93191783333333, "rental_uris": {"ios": "https://dc.lft.to/lastmile_qr_scan", "android": "https://dc.lft.to/lastmile_qr_scan"}, "name": "750d629dec906d71f409735e38f37c6c", "type": "electric_scooter", "fusion_lon": 0.0, "is_disabled": 0, "is_reserved": 0, "bike_id": "750d629dec906d71f409735e38f37c6c", "lon": -77.04294033333333}, {"fusion_lat": 0.0, "lat": 38.9027025, "rental_uris": {"ios": "https://dc.lft.to/lastmile_qr_scan", "android": "https://dc.lft.to/lastmile_qr_scan"}, "name": "b973d0bbc41ae20a2453a1824c19ff92", "type": "electric_scooter", "fusion_lon": 0.0, "is_disabled": 0, "is_reserved": 0, "bike_id": "b973d0bbc41ae20a2453a1824c19ff92", "lon": -77.03142233333334}, {"fusion_lat": 0.0, "lat": 38.8928625, "rental_uris": {"ios": "https://dc.lft.to/lastmile_qr_scan", "android": "https://dc.lft.to/lastmile_qr_scan"}, "name": "7ecd7a3128c56a529dda308b3612d207", "type": "electric_scooter", "fusion_lon": 0.0, "is_disabled": 0, "is_reserved": 0, "bike_id": "7ecd7a3128c56a529dda308b3612d207", "lon": -76.9830345}, {"fusion_lat": 0.0, "lat": 38.96149, "rental_uris": {"ios": "https://dc.lft.to/lastmile_qr_scan", "android": "https://dc.lft.to/lastmile_qr_scan"}, "name": "9f4aaa14bc64e596c4efe6e1a124ad46", "type": "electric_scooter", "fusion_lon": 0.0, "is_disabled": 0, "is_reserved": 0, "bike_id": "9f4aaa14bc64e596c4efe6e1a124ad46", "lon": -77.02825683333333}, {"fusion_lat": 0.0, "lat": 38.94325166666667, "rental_uris": {"ios": "https://dc.lft.to/lastmile_qr_scan", "android": "https://dc.lft.to/lastmile_qr_scan"}, "name": "0503c4679ba07b4a94cd6f3e9cafe64a", "type": "electric_scooter", "fusion_lon": 0.0, "is_disabled": 0, "is_reserved": 0, "bike_id": "0503c4679ba07b4a94cd6f3e9cafe64a", "lon": -77.01310216666667}, {"fusion_lat": 0.0, "lat": 38.861782166666664, "rental_uris": {"ios": "https://dc.lft.to/lastmile_qr_scan", "android": "https://dc.lft.to/lastmile_qr_scan"}, "name": "61b11c97f356343189342426b575c27d", "type": "electric_scooter", "fusion_lon": 0.0, "is_disabled": 0, "is_reserved": 0, "bike_id": "61b11c97f356343189342426b575c27d", "lon": -76.98366083333333}, {"fusion_lat": 0.0, "lat": 38.919114666666665, "rental_uris": {"ios": "https://dc.lft.to/lastmile_qr_scan", "android": "https://dc.lft.to/lastmile_qr_scan"}, "name": "a627e91f8cdcab7dc1c276cb3768513b", "type": "electric_scooter", "fusion_lon": 0.0, "is_disabled": 0, "is_reserved": 0, "bike_id": "a627e91f8cdcab7dc1c276cb3768513b", "lon": -77.0343745}, {"fusion_lat": 0.0, "lat": 38.941055, "rental_uris": {"ios": "https://dc.lft.to/lastmile_qr_scan", "android": "https://dc.lft.to/lastmile_qr_scan"}, "name": "a647e521fe4cb840abd6ec706b31c0a1", "type": "electric_scooter", "fusion_lon": 0.0, "is_disabled": 0, "is_reserved": 0, "bike_id": "a647e521fe4cb840abd6ec706b31c0a1", "lon": -77.07598966666667}, {"fusion_lat": 0.0, "lat": 38.941302666666665, "rental_uris": {"ios": "https://dc.lft.to/lastmile_qr_scan", "android": "https://dc.lft.to/lastmile_qr_scan"}, "name": "acbd3def3cb31c4841c33ced33df454d", "type": "electric_scooter", "fusion_lon": 0.0, "is_disabled": 0, "is_reserved": 0, "bike_id": "acbd3def3cb31c4841c33ced33df454d", "lon": -77.01540666666666}, {"fusion_lat": 0.0, "lat": 38.90070933333333, "rental_uris": {"ios": "https://dc.lft.to/lastmile_qr_scan", "android": "https://dc.lft.to/lastmile_qr_scan"}, "name": "e86d1c42b3368aba2b7042c6cbda857d", "type": "electric_scooter", "fusion_lon": 0.0, "is_disabled": 0, "is_reserved": 0, "bike_id": "e86d1c42b3368aba2b7042c6cbda857d", "lon": -77.04344383333333}, {"fusion_lat": 0.0, "lat": 38.883905166666665, "rental_uris": {"ios": "https://dc.lft.to/lastmile_qr_scan", "android": "https://dc.lft.to/lastmile_qr_scan"}, "name": "01980659896bcbe08c66554db5ed511c", "type": "electric_scooter", "fusion_lon": 0.0, "is_disabled": 0, "is_reserved": 0, "bike_id": "01980659896bcbe08c66554db5ed511c", "lon": -77.019377}, {"fusion_lat": 0.0, "lat": 38.9016525, "rental_uris": {"ios": "https://dc.lft.to/lastmile_qr_scan", "android": "https://dc.lft.to/lastmile_qr_scan"}, "name": "56c8e63e216d258c95c17112d56b5236", "type": "electric_scooter", "fusion_lon": 0.0, "is_disabled": 0, "is_reserved": 0, "bike_id": "56c8e63e216d258c95c17112d56b5236", "lon": -77.01317283333333}, {"fusion_lat": 0.0, "lat": 38.915511333333335, "rental_uris": {"ios": "https://dc.lft.to/lastmile_qr_scan", "android": "https://dc.lft.to/lastmile_qr_scan"}, "name": "0edabf1e0e0fc8ffdbdf88ad1a08f9e8", "type": "electric_scooter", "fusion_lon": 0.0, "is_disabled": 0, "is_reserved": 0, "bike_id": "0edabf1e0e0fc8ffdbdf88ad1a08f9e8", "lon": -77.04158733333334}, {"fusion_lat": 0.0, "lat": 38.920860166666664, "rental_uris": {"ios": "https://dc.lft.to/lastmile_qr_scan", "android": "https://dc.lft.to/lastmile_qr_scan"}, "name": "24bf8105e3ea30b3823c8568726afecb", "type": "electric_scooter", "fusion_lon": 0.0, "is_disabled": 0, "is_reserved": 0, "bike_id": "24bf8105e3ea30b3823c8568726afecb", "lon": -77.01389983333334}, {"fusion_lat": 0.0, "lat": 38.87393733333333, "rental_uris": {"ios": "https://dc.lft.to/lastmile_qr_scan", "android": "https://dc.lft.to/lastmile_qr_scan"}, "name": "5e6b1c035782c33ecc2b8a760f17bc2e", "type": "electric_scooter", "fusion_lon": 0.0, "is_disabled": 0, "is_reserved": 0, "bike_id": "5e6b1c035782c33ecc2b8a760f17bc2e", "lon": -77.0002475}, {"fusion_lat": 0.0, "lat": 38.93355016666667, "rental_uris": {"ios": "https://dc.lft.to/lastmile_qr_scan", "android": "https://dc.lft.to/lastmile_qr_scan"}, "name": "a1475e2c39a6a2dba04d04e0732c28da", "type": "electric_bike", "fusion_lon": 0.0, "is_disabled": 0, "is_reserved": 0, "bike_id": "a1475e2c39a6a2dba04d04e0732c28da", "lon": -77.07102266666666}, {"fusion_lat": 0.0, "lat": 38.876756666666665, "rental_uris": {"ios": "https://dc.lft.to/lastmile_qr_scan", "android": "https://dc.lft.to/lastmile_qr_scan"}, "name": "f1563c7ecb37c9799d46fd9769f2a8b0", "type": "electric_scooter", "fusion_lon": 0.0, "is_disabled": 0, "is_reserved": 0, "bike_id": "f1563c7ecb37c9799d46fd9769f2a8b0", "lon": -77.00888133333333}, {"fusion_lat": 0.0, "lat": 38.900622, "rental_uris": {"ios": "https://dc.lft.to/lastmile_qr_scan", "android": "https://dc.lft.to/lastmile_qr_scan"}, "name": "4ad0f4c10de5f6993b4d38eba2b757e4", "type": "electric_scooter", "fusion_lon": 0.0, "is_disabled": 0, "is_reserved": 0, "bike_id": "4ad0f4c10de5f6993b4d38eba2b757e4", "lon": -77.04535666666666}, {"fusion_lat": 0.0, "lat": 38.91006466666666, "rental_uris": {"ios": "https://dc.lft.to/lastmile_qr_scan", "android": "https://dc.lft.to/lastmile_qr_scan"}, "name": "ce8e62dfa3b3abbda258c705f8846d12", "type": "electric_scooter", "fusion_lon": 0.0, "is_disabled": 0, "is_reserved": 0, "bike_id": "ce8e62dfa3b3abbda258c705f8846d12", "lon": -76.99406366666666}, {"fusion_lat": 0.0, "lat": 38.902389166666666, "rental_uris": {"ios": "https://dc.lft.to/lastmile_qr_scan", "android": "https://dc.lft.to/lastmile_qr_scan"}, "name": "043b761394113ebcd1953d35d50ff615", "type": "electric_scooter", "fusion_lon": 0.0, "is_disabled": 0, "is_reserved": 0, "bike_id": "043b761394113ebcd1953d35d50ff615", "lon": -77.05944333333333}, {"fusion_lat": 0.0, "lat": 38.93374883333333, "rental_uris": {"ios": "https://dc.lft.to/lastmile_qr_scan", "android": "https://dc.lft.to/lastmile_qr_scan"}, "name": "20a484f737480b3249aa3a6dbcfa2b77", "type": "electric_scooter", "fusion_lon": 0.0, "is_disabled": 0, "is_reserved": 0, "bike_id": "20a484f737480b3249aa3a6dbcfa2b77", "lon": -77.02390516666667}, {"fusion_lat": 0.0, "lat": 38.917398, "rental_uris": {"ios": "https://dc.lft.to/lastmile_qr_scan", "android": "https://dc.lft.to/lastmile_qr_scan"}, "name": "544265e90e1df5297b0c54ac2cb8c9e9", "type": "electric_scooter", "fusion_lon": 0.0, "is_disabled": 0, "is_reserved": 0, "bike_id": "544265e90e1df5297b0c54ac2cb8c9e9", "lon": -77.03445966666666}, {"fusion_lat": 0.0, "lat": 38.89857883333333, "rental_uris": {"ios": "https://dc.lft.to/lastmile_qr_scan", "android": "https://dc.lft.to/lastmile_qr_scan"}, "name": "3b12de23207cf065757f7278ddbd520f", "type": "electric_scooter", "fusion_lon": 0.0, "is_disabled": 0, "is_reserved": 0, "bike_id": "3b12de23207cf065757f7278ddbd520f", "lon": -77.03934383333333}, {"fusion_lat": 0.0, "lat": 38.88526916666667, "rental_uris": {"ios": "https://dc.lft.to/lastmile_qr_scan", "android": "https://dc.lft.to/lastmile_qr_scan"}, "name": "737f3d26d4279febfb4c3d3b769b7bee", "type": "electric_scooter", "fusion_lon": 0.0, "is_disabled": 0, "is_reserved": 0, "bike_id": "737f3d26d4279febfb4c3d3b769b7bee", "lon": -77.01524033333334}, {"fusion_lat": 0.0, "lat": 38.887191666666666, "rental_uris": {"ios": "https://dc.lft.to/lastmile_qr_scan", "android": "https://dc.lft.to/lastmile_qr_scan"}, "name": "52aa80c09e1354fa2a89bd3112c8f1b3", "type": "electric_scooter", "fusion_lon": 0.0, "is_disabled": 0, "is_reserved": 0, "bike_id": "52aa80c09e1354fa2a89bd3112c8f1b3", "lon": -76.99685216666667}, {"fusion_lat": 0.0, "lat": 38.90265383333333, "rental_uris": {"ios": "https://dc.lft.to/lastmile_qr_scan", "android": "https://dc.lft.to/lastmile_qr_scan"}, "name": "a9b0c13fb7e8af15aadf798a9edf5a40", "type": "electric_scooter", "fusion_lon": 0.0, "is_disabled": 0, "is_reserved": 0, "bike_id": "a9b0c13fb7e8af15aadf798a9edf5a40", "lon": -77.0200585}, {"fusion_lat": 0.0, "lat": 38.93025183333334, "rental_uris": {"ios": "https://dc.lft.to/lastmile_qr_scan", "android": "https://dc.lft.to/lastmile_qr_scan"}, "name": "82745325b2a65d6227c0549d68998fc7", "type": "electric_scooter", "fusion_lon": 0.0, "is_disabled": 0, "is_reserved": 0, "bike_id": "82745325b2a65d6227c0549d68998fc7", "lon": -77.03302566666666}, {"fusion_lat": 0.0, "lat": 38.935256833333334, "rental_uris": {"ios": "https://dc.lft.to/lastmile_qr_scan", "android": "https://dc.lft.to/lastmile_qr_scan"}, "name": "d39fabf24b48582e995d4983a47ad206", "type": "electric_scooter", "fusion_lon": 0.0, "is_disabled": 0, "is_reserved": 0, "bike_id": "d39fabf24b48582e995d4983a47ad206", "lon": -77.0765635}, {"fusion_lat": 0.0, "lat": 38.90154733333333, "rental_uris": {"ios": "https://dc.lft.to/lastmile_qr_scan", "android": "https://dc.lft.to/lastmile_qr_scan"}, "name": "bcaa648fcc5f15d1c621fde5179c05cb", "type": "electric_scooter", "fusion_lon": 0.0, "is_disabled": 0, "is_reserved": 0, "bike_id": "bcaa648fcc5f15d1c621fde5179c05cb", "lon": -77.02017916666667}, {"fusion_lat": 0.0, "lat": 38.9247205, "rental_uris": {"ios": "https://dc.lft.to/lastmile_qr_scan", "android": "https://dc.lft.to/lastmile_qr_scan"}, "name": "b958163fcdd96280488e5fc294efa268", "type": "electric_scooter", "fusion_lon": 0.0, "is_disabled": 0, "is_reserved": 0, "bike_id": "b958163fcdd96280488e5fc294efa268", "lon": -77.022191}, {"fusion_lat": 0.0, "lat": 38.911257666666664, "rental_uris": {"ios": "https://dc.lft.to/lastmile_qr_scan", "android": "https://dc.lft.to/lastmile_qr_scan"}, "name": "a31e470b27a16390297b3aeaeb6c9550", "type": "electric_scooter", "fusion_lon": 0.0, "is_disabled": 0, "is_reserved": 0, "bike_id": "a31e470b27a16390297b3aeaeb6c9550", "lon": -77.03839966666666}, {"fusion_lat": 0.0, "lat": 38.9289675, "rental_uris": {"ios": "https://dc.lft.to/lastmile_qr_scan", "android": "https://dc.lft.to/lastmile_qr_scan"}, "name": "f78027727a69aab14f35404dddfe810e", "type": "electric_scooter", "fusion_lon": 0.0, "is_disabled": 0, "is_reserved": 0, "bike_id": "f78027727a69aab14f35404dddfe810e", "lon": -77.0325745}, {"fusion_lat": 0.0, "lat": 38.89505233333333, "rental_uris": {"ios": "https://dc.lft.to/lastmile_qr_scan", "android": "https://dc.lft.to/lastmile_qr_scan"}, "name": "415f2270f91dfa5c2f6fcb05c5094796", "type": "electric_scooter", "fusion_lon": 0.0, "is_disabled": 0, "is_reserved": 0, "bike_id": "415f2270f91dfa5c2f6fcb05c5094796", "lon": -76.93475766666667}, {"fusion_lat": 0.0, "lat": 38.8874075, "rental_uris": {"ios": "https://dc.lft.to/lastmile_qr_scan", "android": "https://dc.lft.to/lastmile_qr_scan"}, "name": "8fdf6aabb82fa552674e7edfbb6f3f3a", "type": "electric_scooter", "fusion_lon": 0.0, "is_disabled": 0, "is_reserved": 0, "bike_id": "8fdf6aabb82fa552674e7edfbb6f3f3a", "lon": -77.0258405}, {"fusion_lat": 0.0, "lat": 38.898683, "rental_uris": {"ios": "https://dc.lft.to/lastmile_qr_scan", "android": "https://dc.lft.to/lastmile_qr_scan"}, "name": "1f0bd1c9cddadca82a5ec4941f935d1e", "type": "electric_scooter", "fusion_lon": 0.0, "is_disabled": 0, "is_reserved": 0, "bike_id": "1f0bd1c9cddadca82a5ec4941f935d1e", "lon": -76.94635233333334}, {"fusion_lat": 0.0, "lat": 38.90387, "rental_uris": {"ios": "https://dc.lft.to/lastmile_qr_scan", "android": "https://dc.lft.to/lastmile_qr_scan"}, "name": "213d8770e3822ea17bf69d34a277b534", "type": "electric_scooter", "fusion_lon": 0.0, "is_disabled": 0, "is_reserved": 0, "bike_id": "213d8770e3822ea17bf69d34a277b534", "lon": -77.04150133333333}, {"fusion_lat": 0.0, "lat": 38.9176925, "rental_uris": {"ios": "https://dc.lft.to/lastmile_qr_scan", "android": "https://dc.lft.to/lastmile_qr_scan"}, "name": "5b949a2c3b1fe7eff804c854f00862de", "type": "electric_scooter", "fusion_lon": 0.0, "is_disabled": 0, "is_reserved": 0, "bike_id": "5b949a2c3b1fe7eff804c854f00862de", "lon": -77.047776}, {"fusion_lat": 0.0, "lat": 38.90864216666667, "rental_uris": {"ios": "https://dc.lft.to/lastmile_qr_scan", "android": "https://dc.lft.to/lastmile_qr_scan"}, "name": "f134255a5df80ad0874d26fb5ccc1903", "type": "electric_scooter", "fusion_lon": 0.0, "is_disabled": 0, "is_reserved": 0, "bike_id": "f134255a5df80ad0874d26fb5ccc1903", "lon": -77.04272583333334}, {"fusion_lat": 0.0, "lat": 38.913705666666665, "rental_uris": {"ios": "https://dc.lft.to/lastmile_qr_scan", "android": "https://dc.lft.to/lastmile_qr_scan"}, "name": "39ecbd939b2f94a0872978bd3d4528b8", "type": "electric_scooter", "fusion_lon": 0.0, "is_disabled": 0, "is_reserved": 0, "bike_id": "39ecbd939b2f94a0872978bd3d4528b8", "lon": -77.02182666666667}, {"fusion_lat": 0.0, "lat": 38.935356, "rental_uris": {"ios": "https://dc.lft.to/lastmile_qr_scan", "android": "https://dc.lft.to/lastmile_qr_scan"}, "name": "8395a3c9629d06ece01befb02e7e3072", "type": "electric_scooter", "fusion_lon": 0.0, "is_disabled": 0, "is_reserved": 0, "bike_id": "8395a3c9629d06ece01befb02e7e3072", "lon": -77.023466}, {"fusion_lat": 0.0, "lat": 38.915615, "rental_uris": {"ios": "https://dc.lft.to/lastmile_qr_scan", "android": "https://dc.lft.to/lastmile_qr_scan"}, "name": "8eaf6001aed7445c40081083fa3b8615", "type": "electric_scooter", "fusion_lon": 0.0, "is_disabled": 0, "is_reserved": 0, "bike_id": "8eaf6001aed7445c40081083fa3b8615", "lon": -77.012046}, {"fusion_lat": 0.0, "lat": 38.920424833333335, "rental_uris": {"ios": "https://dc.lft.to/lastmile_qr_scan", "android": "https://dc.lft.to/lastmile_qr_scan"}, "name": "ac25d8ec8c5794f3ff94dc382782fa07", "type": "electric_scooter", "fusion_lon": 0.0, "is_disabled": 0, "is_reserved": 0, "bike_id": "ac25d8ec8c5794f3ff94dc382782fa07", "lon": -77.01668933333333}, {"fusion_lat": 0.0, "lat": 38.892397, "rental_uris": {"ios": "https://dc.lft.to/lastmile_qr_scan", "android": "https://dc.lft.to/lastmile_qr_scan"}, "name": "b2788e271bef6827e9454fc36f5d47d0", "type": "electric_scooter", "fusion_lon": 0.0, "is_disabled": 0, "is_reserved": 0, "bike_id": "b2788e271bef6827e9454fc36f5d47d0", "lon": -77.02181183333333}, {"fusion_lat": 0.0, "lat": 38.887485833333336, "rental_uris": {"ios": "https://dc.lft.to/lastmile_qr_scan", "android": "https://dc.lft.to/lastmile_qr_scan"}, "name": "6acdc8a2ac0b58f234141ee7e400509a", "type": "electric_scooter", "fusion_lon": 0.0, "is_disabled": 0, "is_reserved": 0, "bike_id": "6acdc8a2ac0b58f234141ee7e400509a", "lon": -77.02842}, {"fusion_lat": 0.0, "lat": 38.921527, "rental_uris": {"ios": "https://dc.lft.to/lastmile_qr_scan", "android": "https://dc.lft.to/lastmile_qr_scan"}, "name": "fdf2add82b73c1e9009b0ac18d95a6dc", "type": "electric_scooter", "fusion_lon": 0.0, "is_disabled": 0, "is_reserved": 0, "bike_id": "fdf2add82b73c1e9009b0ac18d95a6dc", "lon": -77.0422835}, {"fusion_lat": 0.0, "lat": 38.904771833333335, "rental_uris": {"ios": "https://dc.lft.to/lastmile_qr_scan", "android": "https://dc.lft.to/lastmile_qr_scan"}, "name": "7e242489c0260e026e01698effa8b060", "type": "electric_scooter", "fusion_lon": 0.0, "is_disabled": 0, "is_reserved": 0, "bike_id": "7e242489c0260e026e01698effa8b060", "lon": -76.98232533333334}, {"fusion_lat": 0.0, "lat": 38.925549, "rental_uris": {"ios": "https://dc.lft.to/lastmile_qr_scan", "android": "https://dc.lft.to/lastmile_qr_scan"}, "name": "6d6757727a110a4a2cb90405f27adf34", "type": "electric_scooter", "fusion_lon": 0.0, "is_disabled": 0, "is_reserved": 0, "bike_id": "6d6757727a110a4a2cb90405f27adf34", "lon": -77.00064033333334}, {"fusion_lat": 0.0, "lat": 38.902346333333334, "rental_uris": {"ios": "https://dc.lft.to/lastmile_qr_scan", "android": "https://dc.lft.to/lastmile_qr_scan"}, "name": "6fc1fc697d8d2af986767c716af21808", "type": "electric_scooter", "fusion_lon": 0.0, "is_disabled": 0, "is_reserved": 0, "bike_id": "6fc1fc697d8d2af986767c716af21808", "lon": -77.02113883333334}, {"fusion_lat": 0.0, "lat": 38.91709316666667, "rental_uris": {"ios": "https://dc.lft.to/lastmile_qr_scan", "android": "https://dc.lft.to/lastmile_qr_scan"}, "name": "530501e71d467436cf0f581cfd502285", "type": "electric_scooter", "fusion_lon": 0.0, "is_disabled": 0, "is_reserved": 0, "bike_id": "530501e71d467436cf0f581cfd502285", "lon": -77.04122566666666}, {"fusion_lat": 0.0, "lat": 38.92360766666667, "rental_uris": {"ios": "https://dc.lft.to/lastmile_qr_scan", "android": "https://dc.lft.to/lastmile_qr_scan"}, "name": "0f4785c21751575d2a80b2384263e767", "type": "electric_scooter", "fusion_lon": 0.0, "is_disabled": 0, "is_reserved": 0, "bike_id": "0f4785c21751575d2a80b2384263e767", "lon": -77.0511885}, {"fusion_lat": 0.0, "lat": 38.916731666666664, "rental_uris": {"ios": "https://dc.lft.to/lastmile_qr_scan", "android": "https://dc.lft.to/lastmile_qr_scan"}, "name": "e13e58e659044f5a0c568165e088523b", "type": "electric_scooter", "fusion_lon": 0.0, "is_disabled": 0, "is_reserved": 0, "bike_id": "e13e58e659044f5a0c568165e088523b", "lon": -77.02386016666667}, {"fusion_lat": 0.0, "lat": 38.914236833333334, "rental_uris": {"ios": "https://dc.lft.to/lastmile_qr_scan", "android": "https://dc.lft.to/lastmile_qr_scan"}, "name": "a90e6e98494f6e03787478b71c290cbb", "type": "electric_scooter", "fusion_lon": 0.0, "is_disabled": 0, "is_reserved": 0, "bike_id": "a90e6e98494f6e03787478b71c290cbb", "lon": -77.03179966666667}, {"fusion_lat": 0.0, "lat": 38.875524666666664, "rental_uris": {"ios": "https://dc.lft.to/lastmile_qr_scan", "android": "https://dc.lft.to/lastmile_qr_scan"}, "name": "4f927e5e67b5864dd4cd396e0329a94d", "type": "electric_scooter", "fusion_lon": 0.0, "is_disabled": 0, "is_reserved": 0, "bike_id": "4f927e5e67b5864dd4cd396e0329a94d", "lon": -77.00562133333334}, {"fusion_lat": 0.0, "lat": 38.91480333333333, "rental_uris": {"ios": "https://dc.lft.to/lastmile_qr_scan", "android": "https://dc.lft.to/lastmile_qr_scan"}, "name": "134d1ae0281fc5e3d65029d8fdd8aa43", "type": "electric_scooter", "fusion_lon": 0.0, "is_disabled": 0, "is_reserved": 0, "bike_id": "134d1ae0281fc5e3d65029d8fdd8aa43", "lon": -77.00877666666666}, {"fusion_lat": 0.0, "lat": 38.952378333333336, "rental_uris": {"ios": "https://dc.lft.to/lastmile_qr_scan", "android": "https://dc.lft.to/lastmile_qr_scan"}, "name": "45083ae6946c047531516d40a04b29c0", "type": "electric_bike", "fusion_lon": 0.0, "is_disabled": 0, "is_reserved": 0, "bike_id": "45083ae6946c047531516d40a04b29c0", "lon": -77.00268233333334}, {"fusion_lat": 0.0, "lat": 38.887222333333334, "rental_uris": {"ios": "https://dc.lft.to/lastmile_qr_scan", "android": "https://dc.lft.to/lastmile_qr_scan"}, "name": "11d4f8ea4d0bfe57d842ac3e1cef9350", "type": "electric_scooter", "fusion_lon": 0.0, "is_disabled": 0, "is_reserved": 0, "bike_id": "11d4f8ea4d0bfe57d842ac3e1cef9350", "lon": -76.99613}, {"fusion_lat": 0.0, "lat": 38.95616166666667, "rental_uris": {"ios": "https://dc.lft.to/lastmile_qr_scan", "android": "https://dc.lft.to/lastmile_qr_scan"}, "name": "5387a9339cfff025d6d213bba5fb1344", "type": "electric_scooter", "fusion_lon": 0.0, "is_disabled": 0, "is_reserved": 0, "bike_id": "5387a9339cfff025d6d213bba5fb1344", "lon": -77.028168}, {"fusion_lat": 0.0, "lat": 38.935393166666664, "rental_uris": {"ios": "https://dc.lft.to/lastmile_qr_scan", "android": "https://dc.lft.to/lastmile_qr_scan"}, "name": "69b30d04caaf2ce8bfafa81567f0a37f", "type": "electric_scooter", "fusion_lon": 0.0, "is_disabled": 0, "is_reserved": 0, "bike_id": "69b30d04caaf2ce8bfafa81567f0a37f", "lon": -77.0582065}, {"fusion_lat": 0.0, "lat": 38.93482766666666, "rental_uris": {"ios": "https://dc.lft.to/lastmile_qr_scan", "android": "https://dc.lft.to/lastmile_qr_scan"}, "name": "9ea90aaacab70defbd38b909b3964120", "type": "electric_scooter", "fusion_lon": 0.0, "is_disabled": 0, "is_reserved": 0, "bike_id": "9ea90aaacab70defbd38b909b3964120", "lon": -77.045287}, {"fusion_lat": 0.0, "lat": 39.08442683333333, "rental_uris": {"ios": "https://dc.lft.to/lastmile_qr_scan", "android": "https://dc.lft.to/lastmile_qr_scan"}, "name": "eea9d4af3d88c0ba52ba754c8b86e076", "type": "electric_bike", "fusion_lon": 0.0, "is_disabled": 0, "is_reserved": 0, "bike_id": "eea9d4af3d88c0ba52ba754c8b86e076", "lon": -76.9518895}, {"fusion_lat": 0.0, "lat": 38.90688733333333, "rental_uris": {"ios": "https://dc.lft.to/lastmile_qr_scan", "android": "https://dc.lft.to/lastmile_qr_scan"}, "name": "b58163336cdda546f8a5f8b2232733d0", "type": "electric_scooter", "fusion_lon": 0.0, "is_disabled": 0, "is_reserved": 0, "bike_id": "b58163336cdda546f8a5f8b2232733d0", "lon": -77.057193}, {"fusion_lat": 0.0, "lat": 38.89352683333333, "rental_uris": {"ios": "https://dc.lft.to/lastmile_qr_scan", "android": "https://dc.lft.to/lastmile_qr_scan"}, "name": "dd443620e6f8e2df4d34f3ebbaf54e77", "type": "electric_bike", "fusion_lon": 0.0, "is_disabled": 0, "is_reserved": 0, "bike_id": "dd443620e6f8e2df4d34f3ebbaf54e77", "lon": -77.18737816666666}, {"fusion_lat": 0.0, "lat": 38.892449666666664, "rental_uris": {"ios": "https://dc.lft.to/lastmile_qr_scan", "android": "https://dc.lft.to/lastmile_qr_scan"}, "name": "fa00fea0109c990a810ad1ed3ab50d91", "type": "electric_scooter", "fusion_lon": 0.0, "is_disabled": 0, "is_reserved": 0, "bike_id": "fa00fea0109c990a810ad1ed3ab50d91", "lon": -77.03955333333333}, {"fusion_lat": 0.0, "lat": 38.918802666666664, "rental_uris": {"ios": "https://dc.lft.to/lastmile_qr_scan", "android": "https://dc.lft.to/lastmile_qr_scan"}, "name": "da374bffdeac695fadd49146ce5d87c9", "type": "electric_scooter", "fusion_lon": 0.0, "is_disabled": 0, "is_reserved": 0, "bike_id": "da374bffdeac695fadd49146ce5d87c9", "lon": -77.04177333333334}, {"fusion_lat": 0.0, "lat": 38.92659866666666, "rental_uris": {"ios": "https://dc.lft.to/lastmile_qr_scan", "android": "https://dc.lft.to/lastmile_qr_scan"}, "name": "1e31334325ca924dbe3c865e757a704a", "type": "electric_scooter", "fusion_lon": 0.0, "is_disabled": 0, "is_reserved": 0, "bike_id": "1e31334325ca924dbe3c865e757a704a", "lon": -77.042828}, {"fusion_lat": 0.0, "lat": 38.920400666666666, "rental_uris": {"ios": "https://dc.lft.to/lastmile_qr_scan", "android": "https://dc.lft.to/lastmile_qr_scan"}, "name": "bd85f94756071dbae82c7d202edb4736", "type": "electric_scooter", "fusion_lon": 0.0, "is_disabled": 0, "is_reserved": 0, "bike_id": "bd85f94756071dbae82c7d202edb4736", "lon": -77.03389316666667}, {"fusion_lat": 0.0, "lat": 38.9002515, "rental_uris": {"ios": "https://dc.lft.to/lastmile_qr_scan", "android": "https://dc.lft.to/lastmile_qr_scan"}, "name": "73df2ce3d6202efd0cfa0f1ba3b4af10", "type": "electric_scooter", "fusion_lon": 0.0, "is_disabled": 0, "is_reserved": 0, "bike_id": "73df2ce3d6202efd0cfa0f1ba3b4af10", "lon": -76.987876}, {"fusion_lat": 0.0, "lat": 38.8443745, "rental_uris": {"ios": "https://dc.lft.to/lastmile_qr_scan", "android": "https://dc.lft.to/lastmile_qr_scan"}, "name": "94b7b40b05f6c5d2c0bc3f4504246c0e", "type": "electric_scooter", "fusion_lon": 0.0, "is_disabled": 0, "is_reserved": 0, "bike_id": "94b7b40b05f6c5d2c0bc3f4504246c0e", "lon": -76.9977775}, {"fusion_lat": 0.0, "lat": 38.9041605, "rental_uris": {"ios": "https://dc.lft.to/lastmile_qr_scan", "android": "https://dc.lft.to/lastmile_qr_scan"}, "name": "6c878d36d591d17a09a195f4fd0b11eb", "type": "electric_scooter", "fusion_lon": 0.0, "is_disabled": 0, "is_reserved": 0, "bike_id": "6c878d36d591d17a09a195f4fd0b11eb", "lon": -77.04640083333334}, {"fusion_lat": 0.0, "lat": 38.902742333333336, "rental_uris": {"ios": "https://dc.lft.to/lastmile_qr_scan", "android": "https://dc.lft.to/lastmile_qr_scan"}, "name": "22ecc194d943a9e8589604840fec367c", "type": "electric_scooter", "fusion_lon": 0.0, "is_disabled": 0, "is_reserved": 0, "bike_id": "22ecc194d943a9e8589604840fec367c", "lon": -77.03143383333334}, {"fusion_lat": 0.0, "lat": 38.85552633333333, "rental_uris": {"ios": "https://dc.lft.to/lastmile_qr_scan", "android": "https://dc.lft.to/lastmile_qr_scan"}, "name": "20c9282611a1fd62f622f6c415776240", "type": "electric_scooter", "fusion_lon": 0.0, "is_disabled": 0, "is_reserved": 0, "bike_id": "20c9282611a1fd62f622f6c415776240", "lon": -76.98754833333334}, {"fusion_lat": 0.0, "lat": 38.917123, "rental_uris": {"ios": "https://dc.lft.to/lastmile_qr_scan", "android": "https://dc.lft.to/lastmile_qr_scan"}, "name": "1f7e2b1355bc1bef530fa45ba17be28d", "type": "electric_scooter", "fusion_lon": 0.0, "is_disabled": 0, "is_reserved": 0, "bike_id": "1f7e2b1355bc1bef530fa45ba17be28d", "lon": -77.03866266666667}, {"fusion_lat": 0.0, "lat": 38.931680666666665, "rental_uris": {"ios": "https://dc.lft.to/lastmile_qr_scan", "android": "https://dc.lft.to/lastmile_qr_scan"}, "name": "901f257604cab783b5696c5d1975a79c", "type": "electric_scooter", "fusion_lon": 0.0, "is_disabled": 0, "is_reserved": 0, "bike_id": "901f257604cab783b5696c5d1975a79c", "lon": -77.07067616666667}, {"fusion_lat": 0.0, "lat": 38.9041575, "rental_uris": {"ios": "https://dc.lft.to/lastmile_qr_scan", "android": "https://dc.lft.to/lastmile_qr_scan"}, "name": "59fe9efefd3f4a2a33bd77ead78f1dbe", "type": "electric_scooter", "fusion_lon": 0.0, "is_disabled": 0, "is_reserved": 0, "bike_id": "59fe9efefd3f4a2a33bd77ead78f1dbe", "lon": -77.043517}, {"fusion_lat": 0.0, "lat": 38.901098, "rental_uris": {"ios": "https://dc.lft.to/lastmile_qr_scan", "android": "https://dc.lft.to/lastmile_qr_scan"}, "name": "cf6ba078fa07fd93c958e3b0eac710e3", "type": "electric_scooter", "fusion_lon": 0.0, "is_disabled": 0, "is_reserved": 0, "bike_id": "cf6ba078fa07fd93c958e3b0eac710e3", "lon": -77.04483616666667}, {"fusion_lat": 0.0, "lat": 38.931063, "rental_uris": {"ios": "https://dc.lft.to/lastmile_qr_scan", "android": "https://dc.lft.to/lastmile_qr_scan"}, "name": "c250d6b51cc4b4b6b62bab7e7bab184a", "type": "electric_scooter", "fusion_lon": 0.0, "is_disabled": 0, "is_reserved": 0, "bike_id": "c250d6b51cc4b4b6b62bab7e7bab184a", "lon": -77.0211945}, {"fusion_lat": 0.0, "lat": 38.897443, "rental_uris": {"ios": "https://dc.lft.to/lastmile_qr_scan", "android": "https://dc.lft.to/lastmile_qr_scan"}, "name": "e195820b8ba3f1a5c35d4d19222c071e", "type": "electric_scooter", "fusion_lon": 0.0, "is_disabled": 0, "is_reserved": 0, "bike_id": "e195820b8ba3f1a5c35d4d19222c071e", "lon": -77.00915066666667}, {"fusion_lat": 0.0, "lat": 38.919930666666666, "rental_uris": {"ios": "https://dc.lft.to/lastmile_qr_scan", "android": "https://dc.lft.to/lastmile_qr_scan"}, "name": "5c34216acf7df6d6379290ee92041cb8", "type": "electric_scooter", "fusion_lon": 0.0, "is_disabled": 0, "is_reserved": 0, "bike_id": "5c34216acf7df6d6379290ee92041cb8", "lon": -76.973097}, {"fusion_lat": 0.0, "lat": 38.8972855, "rental_uris": {"ios": "https://dc.lft.to/lastmile_qr_scan", "android": "https://dc.lft.to/lastmile_qr_scan"}, "name": "038ef10fc18d836d2594fadd8780695c", "type": "electric_scooter", "fusion_lon": 0.0, "is_disabled": 0, "is_reserved": 0, "bike_id": "038ef10fc18d836d2594fadd8780695c", "lon": -77.04370266666666}, {"fusion_lat": 0.0, "lat": 38.91709266666667, "rental_uris": {"ios": "https://dc.lft.to/lastmile_qr_scan", "android": "https://dc.lft.to/lastmile_qr_scan"}, "name": "156a6f423b50103a8356050749a7e2c4", "type": "electric_scooter", "fusion_lon": 0.0, "is_disabled": 0, "is_reserved": 0, "bike_id": "156a6f423b50103a8356050749a7e2c4", "lon": -77.038634}, {"fusion_lat": 0.0, "lat": 38.887059, "rental_uris": {"ios": "https://dc.lft.to/lastmile_qr_scan", "android": "https://dc.lft.to/lastmile_qr_scan"}, "name": "397438cd0cd12748f4c6451e07708563", "type": "electric_scooter", "fusion_lon": 0.0, "is_disabled": 0, "is_reserved": 0, "bike_id": "397438cd0cd12748f4c6451e07708563", "lon": -77.01375883333333}, {"fusion_lat": 0.0, "lat": 38.883595166666666, "rental_uris": {"ios": "https://dc.lft.to/lastmile_qr_scan", "android": "https://dc.lft.to/lastmile_qr_scan"}, "name": "0f57cb38212899bd927e8e0adf43b06e", "type": "electric_bike", "fusion_lon": 0.0, "is_disabled": 0, "is_reserved": 0, "bike_id": "0f57cb38212899bd927e8e0adf43b06e", "lon": -76.98214616666667}, {"fusion_lat": 0.0, "lat": 38.925087, "rental_uris": {"ios": "https://dc.lft.to/lastmile_qr_scan", "android": "https://dc.lft.to/lastmile_qr_scan"}, "name": "e1454d8dccbb7d268a9193419c8ab2dd", "type": "electric_scooter", "fusion_lon": 0.0, "is_disabled": 0, "is_reserved": 0, "bike_id": "e1454d8dccbb7d268a9193419c8ab2dd", "lon": -77.0022105}, {"fusion_lat": 0.0, "lat": 38.9204715, "rental_uris": {"ios": "https://dc.lft.to/lastmile_qr_scan", "android": "https://dc.lft.to/lastmile_qr_scan"}, "name": "922c874b9ba77f5c970eca74ab0bb372", "type": "electric_scooter", "fusion_lon": 0.0, "is_disabled": 0, "is_reserved": 0, "bike_id": "922c874b9ba77f5c970eca74ab0bb372", "lon": -77.0257405}, {"fusion_lat": 0.0, "lat": 38.9170505, "rental_uris": {"ios": "https://dc.lft.to/lastmile_qr_scan", "android": "https://dc.lft.to/lastmile_qr_scan"}, "name": "571f5b39d00311c544c9489cc01e0f5e", "type": "electric_scooter", "fusion_lon": 0.0, "is_disabled": 0, "is_reserved": 0, "bike_id": "571f5b39d00311c544c9489cc01e0f5e", "lon": -77.02279133333333}, {"fusion_lat": 0.0, "lat": 38.87712716666667, "rental_uris": {"ios": "https://dc.lft.to/lastmile_qr_scan", "android": "https://dc.lft.to/lastmile_qr_scan"}, "name": "542d5549eae675346a0fd823f3451325", "type": "electric_scooter", "fusion_lon": 0.0, "is_disabled": 0, "is_reserved": 0, "bike_id": "542d5549eae675346a0fd823f3451325", "lon": -77.00438133333333}, {"fusion_lat": 0.0, "lat": 38.895443, "rental_uris": {"ios": "https://dc.lft.to/lastmile_qr_scan", "android": "https://dc.lft.to/lastmile_qr_scan"}, "name": "5ae6fee497312c74af2c12a9cf3b0236", "type": "electric_scooter", "fusion_lon": 0.0, "is_disabled": 0, "is_reserved": 0, "bike_id": "5ae6fee497312c74af2c12a9cf3b0236", "lon": -77.0484615}, {"fusion_lat": 0.0, "lat": 38.8874685, "rental_uris": {"ios": "https://dc.lft.to/lastmile_qr_scan", "android": "https://dc.lft.to/lastmile_qr_scan"}, "name": "2c18347ceece4f23208daf0401d0a546", "type": "electric_scooter", "fusion_lon": 0.0, "is_disabled": 0, "is_reserved": 0, "bike_id": "2c18347ceece4f23208daf0401d0a546", "lon": -77.02840633333334}, {"fusion_lat": 0.0, "lat": 38.8645325, "rental_uris": {"ios": "https://dc.lft.to/lastmile_qr_scan", "android": "https://dc.lft.to/lastmile_qr_scan"}, "name": "6e1fcde9b16ca102516c744448dbec8d", "type": "electric_bike", "fusion_lon": 0.0, "is_disabled": 0, "is_reserved": 0, "bike_id": "6e1fcde9b16ca102516c744448dbec8d", "lon": -77.10685733333334}, {"fusion_lat": 0.0, "lat": 38.919783, "rental_uris": {"ios": "https://dc.lft.to/lastmile_qr_scan", "android": "https://dc.lft.to/lastmile_qr_scan"}, "name": "0ac0a5fb6f88995df75b13a5d8b75e52", "type": "electric_scooter", "fusion_lon": 0.0, "is_disabled": 0, "is_reserved": 0, "bike_id": "0ac0a5fb6f88995df75b13a5d8b75e52", "lon": -77.02179516666666}, {"fusion_lat": 0.0, "lat": 38.8769845, "rental_uris": {"ios": "https://dc.lft.to/lastmile_qr_scan", "android": "https://dc.lft.to/lastmile_qr_scan"}, "name": "f615735908bb7dc214cc76a47c8279c6", "type": "electric_scooter", "fusion_lon": 0.0, "is_disabled": 0, "is_reserved": 0, "bike_id": "f615735908bb7dc214cc76a47c8279c6", "lon": -77.00440316666666}, {"fusion_lat": 0.0, "lat": 38.9347445, "rental_uris": {"ios": "https://dc.lft.to/lastmile_qr_scan", "android": "https://dc.lft.to/lastmile_qr_scan"}, "name": "99b8311db9f935049d152b68e29bd400", "type": "electric_scooter", "fusion_lon": 0.0, "is_disabled": 0, "is_reserved": 0, "bike_id": "99b8311db9f935049d152b68e29bd400", "lon": -77.08661516666666}, {"fusion_lat": 0.0, "lat": 38.939308, "rental_uris": {"ios": "https://dc.lft.to/lastmile_qr_scan", "android": "https://dc.lft.to/lastmile_qr_scan"}, "name": "9f9beb416c6e6677b5a722269d21225c", "type": "electric_scooter", "fusion_lon": 0.0, "is_disabled": 0, "is_reserved": 0, "bike_id": "9f9beb416c6e6677b5a722269d21225c", "lon": -77.027915}, {"fusion_lat": 0.0, "lat": 38.9063295, "rental_uris": {"ios": "https://dc.lft.to/lastmile_qr_scan", "android": "https://dc.lft.to/lastmile_qr_scan"}, "name": "dfbb8439a46717c2b9e56c3aac6190ef", "type": "electric_scooter", "fusion_lon": 0.0, "is_disabled": 0, "is_reserved": 0, "bike_id": "dfbb8439a46717c2b9e56c3aac6190ef", "lon": -77.01003283333333}, {"fusion_lat": 0.0, "lat": 38.93434083333333, "rental_uris": {"ios": "https://dc.lft.to/lastmile_qr_scan", "android": "https://dc.lft.to/lastmile_qr_scan"}, "name": "076ed909055b98b8df382551ce9363cc", "type": "electric_scooter", "fusion_lon": 0.0, "is_disabled": 0, "is_reserved": 0, "bike_id": "076ed909055b98b8df382551ce9363cc", "lon": -77.05584583333334}, {"fusion_lat": 0.0, "lat": 38.90086316666667, "rental_uris": {"ios": "https://dc.lft.to/lastmile_qr_scan", "android": "https://dc.lft.to/lastmile_qr_scan"}, "name": "fdedc9ce20c25fb1f7a12626c49ca6db", "type": "electric_scooter", "fusion_lon": 0.0, "is_disabled": 0, "is_reserved": 0, "bike_id": "fdedc9ce20c25fb1f7a12626c49ca6db", "lon": -77.02691466666667}, {"fusion_lat": 0.0, "lat": 38.91111166666666, "rental_uris": {"ios": "https://dc.lft.to/lastmile_qr_scan", "android": "https://dc.lft.to/lastmile_qr_scan"}, "name": "1f1fc4b0a0027efda5e51e75062fdc83", "type": "electric_scooter", "fusion_lon": 0.0, "is_disabled": 0, "is_reserved": 0, "bike_id": "1f1fc4b0a0027efda5e51e75062fdc83", "lon": -77.04499633333333}, {"fusion_lat": 0.0, "lat": 38.92443516666667, "rental_uris": {"ios": "https://dc.lft.to/lastmile_qr_scan", "android": "https://dc.lft.to/lastmile_qr_scan"}, "name": "cecb1761a6ada9203e174931259a8f43", "type": "electric_scooter", "fusion_lon": 0.0, "is_disabled": 0, "is_reserved": 0, "bike_id": "cecb1761a6ada9203e174931259a8f43", "lon": -77.04030766666666}, {"fusion_lat": 0.0, "lat": 38.897308, "rental_uris": {"ios": "https://dc.lft.to/lastmile_qr_scan", "android": "https://dc.lft.to/lastmile_qr_scan"}, "name": "881210781d33327c0e6e461f12ca8348", "type": "electric_scooter", "fusion_lon": 0.0, "is_disabled": 0, "is_reserved": 0, "bike_id": "881210781d33327c0e6e461f12ca8348", "lon": -77.00888783333333}, {"fusion_lat": 0.0, "lat": 38.897004, "rental_uris": {"ios": "https://dc.lft.to/lastmile_qr_scan", "android": "https://dc.lft.to/lastmile_qr_scan"}, "name": "ff88f542d1b1a3e2eb45e7c44ee469a4", "type": "electric_scooter", "fusion_lon": 0.0, "is_disabled": 0, "is_reserved": 0, "bike_id": "ff88f542d1b1a3e2eb45e7c44ee469a4", "lon": -77.00757}, {"fusion_lat": 0.0, "lat": 38.918712166666666, "rental_uris": {"ios": "https://dc.lft.to/lastmile_qr_scan", "android": "https://dc.lft.to/lastmile_qr_scan"}, "name": "6d699bc1dc09fa9da999ea20c924cb85", "type": "electric_scooter", "fusion_lon": 0.0, "is_disabled": 0, "is_reserved": 0, "bike_id": "6d699bc1dc09fa9da999ea20c924cb85", "lon": -77.03670416666667}, {"fusion_lat": 0.0, "lat": 38.912551666666666, "rental_uris": {"ios": "https://dc.lft.to/lastmile_qr_scan", "android": "https://dc.lft.to/lastmile_qr_scan"}, "name": "9ab08c8cfbfde1af6411142628b3bf80", "type": "electric_scooter", "fusion_lon": 0.0, "is_disabled": 0, "is_reserved": 0, "bike_id": "9ab08c8cfbfde1af6411142628b3bf80", "lon": -77.03932033333334}, {"fusion_lat": 0.0, "lat": 38.9087845, "rental_uris": {"ios": "https://dc.lft.to/lastmile_qr_scan", "android": "https://dc.lft.to/lastmile_qr_scan"}, "name": "63c92fec709accb6201cb535ed9ff24b", "type": "electric_scooter", "fusion_lon": 0.0, "is_disabled": 0, "is_reserved": 0, "bike_id": "63c92fec709accb6201cb535ed9ff24b", "lon": -77.07522833333333}, {"fusion_lat": 0.0, "lat": 38.92858916666667, "rental_uris": {"ios": "https://dc.lft.to/lastmile_qr_scan", "android": "https://dc.lft.to/lastmile_qr_scan"}, "name": "3a08989b74a9ff2233056b189708dca9", "type": "electric_bike", "fusion_lon": 0.0, "is_disabled": 0, "is_reserved": 0, "bike_id": "3a08989b74a9ff2233056b189708dca9", "lon": -77.03286683333333}, {"fusion_lat": 0.0, "lat": 38.911272, "rental_uris": {"ios": "https://dc.lft.to/lastmile_qr_scan", "android": "https://dc.lft.to/lastmile_qr_scan"}, "name": "6f6f5af4708fc2c677b7f587c4ee3c19", "type": "electric_scooter", "fusion_lon": 0.0, "is_disabled": 0, "is_reserved": 0, "bike_id": "6f6f5af4708fc2c677b7f587c4ee3c19", "lon": -77.02722766666666}, {"fusion_lat": 0.0, "lat": 38.875639666666665, "rental_uris": {"ios": "https://dc.lft.to/lastmile_qr_scan", "android": "https://dc.lft.to/lastmile_qr_scan"}, "name": "568c08428fc3be5383c254196095a9a4", "type": "electric_scooter", "fusion_lon": 0.0, "is_disabled": 0, "is_reserved": 0, "bike_id": "568c08428fc3be5383c254196095a9a4", "lon": -77.00575616666667}, {"fusion_lat": 0.0, "lat": 38.8957765, "rental_uris": {"ios": "https://dc.lft.to/lastmile_qr_scan", "android": "https://dc.lft.to/lastmile_qr_scan"}, "name": "6833376077b2026ede7964f50fe068c2", "type": "electric_scooter", "fusion_lon": 0.0, "is_disabled": 0, "is_reserved": 0, "bike_id": "6833376077b2026ede7964f50fe068c2", "lon": -77.02287433333333}, {"fusion_lat": 0.0, "lat": 38.87896166666667, "rental_uris": {"ios": "https://dc.lft.to/lastmile_qr_scan", "android": "https://dc.lft.to/lastmile_qr_scan"}, "name": "0b18fcac9511035d057144dd7b5a6b90", "type": "electric_scooter", "fusion_lon": 0.0, "is_disabled": 0, "is_reserved": 0, "bike_id": "0b18fcac9511035d057144dd7b5a6b90", "lon": -76.98683}, {"fusion_lat": 0.0, "lat": 38.92421016666667, "rental_uris": {"ios": "https://dc.lft.to/lastmile_qr_scan", "android": "https://dc.lft.to/lastmile_qr_scan"}, "name": "e885b0e6fd9862def391c31b11aedafb", "type": "electric_scooter", "fusion_lon": 0.0, "is_disabled": 0, "is_reserved": 0, "bike_id": "e885b0e6fd9862def391c31b11aedafb", "lon": -77.02037166666666}, {"fusion_lat": 0.0, "lat": 38.901414, "rental_uris": {"ios": "https://dc.lft.to/lastmile_qr_scan", "android": "https://dc.lft.to/lastmile_qr_scan"}, "name": "23a827d0fe78577354df710f342bdbd1", "type": "electric_scooter", "fusion_lon": 0.0, "is_disabled": 0, "is_reserved": 0, "bike_id": "23a827d0fe78577354df710f342bdbd1", "lon": -77.0423425}, {"fusion_lat": 0.0, "lat": 38.8989825, "rental_uris": {"ios": "https://dc.lft.to/lastmile_qr_scan", "android": "https://dc.lft.to/lastmile_qr_scan"}, "name": "bb958894920f64d4fea1f78929fdf6a4", "type": "electric_scooter", "fusion_lon": 0.0, "is_disabled": 0, "is_reserved": 0, "bike_id": "bb958894920f64d4fea1f78929fdf6a4", "lon": -77.002173}, {"fusion_lat": 0.0, "lat": 38.90977016666667, "rental_uris": {"ios": "https://dc.lft.to/lastmile_qr_scan", "android": "https://dc.lft.to/lastmile_qr_scan"}, "name": "81b9e73c12f73e62061fcdaff7639e60", "type": "electric_bike", "fusion_lon": 0.0, "is_disabled": 0, "is_reserved": 0, "bike_id": "81b9e73c12f73e62061fcdaff7639e60", "lon": -77.032184}, {"fusion_lat": 0.0, "lat": 38.8983445, "rental_uris": {"ios": "https://dc.lft.to/lastmile_qr_scan", "android": "https://dc.lft.to/lastmile_qr_scan"}, "name": "0febeeb6c3d2bb4a23466a517479e462", "type": "electric_scooter", "fusion_lon": 0.0, "is_disabled": 0, "is_reserved": 0, "bike_id": "0febeeb6c3d2bb4a23466a517479e462", "lon": -77.03173533333333}, {"fusion_lat": 0.0, "lat": 38.904121, "rental_uris": {"ios": "https://dc.lft.to/lastmile_qr_scan", "android": "https://dc.lft.to/lastmile_qr_scan"}, "name": "f956307e4c90ac5b4913ab57287fea3f", "type": "electric_scooter", "fusion_lon": 0.0, "is_disabled": 0, "is_reserved": 0, "bike_id": "f956307e4c90ac5b4913ab57287fea3f", "lon": -76.9733065}, {"fusion_lat": 0.0, "lat": 38.903772833333335, "rental_uris": {"ios": "https://dc.lft.to/lastmile_qr_scan", "android": "https://dc.lft.to/lastmile_qr_scan"}, "name": "a2a42fb5de97a5b26101303be19dcf41", "type": "electric_scooter", "fusion_lon": 0.0, "is_disabled": 0, "is_reserved": 0, "bike_id": "a2a42fb5de97a5b26101303be19dcf41", "lon": -76.99829083333333}, {"fusion_lat": 0.0, "lat": 38.91679333333333, "rental_uris": {"ios": "https://dc.lft.to/lastmile_qr_scan", "android": "https://dc.lft.to/lastmile_qr_scan"}, "name": "0f7eab72911267293f3204f9ae55320c", "type": "electric_scooter", "fusion_lon": 0.0, "is_disabled": 0, "is_reserved": 0, "bike_id": "0f7eab72911267293f3204f9ae55320c", "lon": -77.02968683333333}, {"fusion_lat": 0.0, "lat": 38.8985165, "rental_uris": {"ios": "https://dc.lft.to/lastmile_qr_scan", "android": "https://dc.lft.to/lastmile_qr_scan"}, "name": "4ef07cccbdd27f51febd22e158a75d20", "type": "electric_scooter", "fusion_lon": 0.0, "is_disabled": 0, "is_reserved": 0, "bike_id": "4ef07cccbdd27f51febd22e158a75d20", "lon": -77.039582}, {"fusion_lat": 0.0, "lat": 38.93247, "rental_uris": {"ios": "https://dc.lft.to/lastmile_qr_scan", "android": "https://dc.lft.to/lastmile_qr_scan"}, "name": "fa65b0d7fbc6696b9c522483127dd035", "type": "electric_scooter", "fusion_lon": 0.0, "is_disabled": 0, "is_reserved": 0, "bike_id": "fa65b0d7fbc6696b9c522483127dd035", "lon": -76.99705283333333}, {"fusion_lat": 0.0, "lat": 38.9288425, "rental_uris": {"ios": "https://dc.lft.to/lastmile_qr_scan", "android": "https://dc.lft.to/lastmile_qr_scan"}, "name": "41be36e46751c54573e4b4eb48a54389", "type": "electric_scooter", "fusion_lon": 0.0, "is_disabled": 0, "is_reserved": 0, "bike_id": "41be36e46751c54573e4b4eb48a54389", "lon": -77.02703133333333}, {"fusion_lat": 0.0, "lat": 38.90731016666667, "rental_uris": {"ios": "https://dc.lft.to/lastmile_qr_scan", "android": "https://dc.lft.to/lastmile_qr_scan"}, "name": "6d25af9e1e93c7f20cd6d0d4c3c57794", "type": "electric_scooter", "fusion_lon": 0.0, "is_disabled": 0, "is_reserved": 0, "bike_id": "6d25af9e1e93c7f20cd6d0d4c3c57794", "lon": -77.04882083333334}, {"fusion_lat": 0.0, "lat": 38.902626, "rental_uris": {"ios": "https://dc.lft.to/lastmile_qr_scan", "android": "https://dc.lft.to/lastmile_qr_scan"}, "name": "bace023ad50cfb9454b343568a8cfa4b", "type": "electric_scooter", "fusion_lon": 0.0, "is_disabled": 0, "is_reserved": 0, "bike_id": "bace023ad50cfb9454b343568a8cfa4b", "lon": -76.97457183333333}, {"fusion_lat": 0.0, "lat": 38.89952316666667, "rental_uris": {"ios": "https://dc.lft.to/lastmile_qr_scan", "android": "https://dc.lft.to/lastmile_qr_scan"}, "name": "cc3589b7e2a5de3093153314491a478a", "type": "electric_scooter", "fusion_lon": 0.0, "is_disabled": 0, "is_reserved": 0, "bike_id": "cc3589b7e2a5de3093153314491a478a", "lon": -77.045708}, {"fusion_lat": 0.0, "lat": 38.91819533333334, "rental_uris": {"ios": "https://dc.lft.to/lastmile_qr_scan", "android": "https://dc.lft.to/lastmile_qr_scan"}, "name": "a240feacb9e759f72d4840f07fba080c", "type": "electric_scooter", "fusion_lon": 0.0, "is_disabled": 0, "is_reserved": 0, "bike_id": "a240feacb9e759f72d4840f07fba080c", "lon": -77.03256616666667}, {"fusion_lat": 0.0, "lat": 38.90861233333333, "rental_uris": {"ios": "https://dc.lft.to/lastmile_qr_scan", "android": "https://dc.lft.to/lastmile_qr_scan"}, "name": "2b3b8f578d24380b05149c0b63fc0cde", "type": "electric_scooter", "fusion_lon": 0.0, "is_disabled": 0, "is_reserved": 0, "bike_id": "2b3b8f578d24380b05149c0b63fc0cde", "lon": -76.99795883333333}, {"fusion_lat": 0.0, "lat": 38.8836415, "rental_uris": {"ios": "https://dc.lft.to/lastmile_qr_scan", "android": "https://dc.lft.to/lastmile_qr_scan"}, "name": "d5464a3016c7c9eeb7ebeef7afbf0167", "type": "electric_scooter", "fusion_lon": 0.0, "is_disabled": 0, "is_reserved": 0, "bike_id": "d5464a3016c7c9eeb7ebeef7afbf0167", "lon": -76.94152433333333}, {"fusion_lat": 0.0, "lat": 38.8849415, "rental_uris": {"ios": "https://dc.lft.to/lastmile_qr_scan", "android": "https://dc.lft.to/lastmile_qr_scan"}, "name": "807750240defb195c13a8c1938680738", "type": "electric_scooter", "fusion_lon": 0.0, "is_disabled": 0, "is_reserved": 0, "bike_id": "807750240defb195c13a8c1938680738", "lon": -77.02165216666667}, {"fusion_lat": 0.0, "lat": 38.86628783333333, "rental_uris": {"ios": "https://dc.lft.to/lastmile_qr_scan", "android": "https://dc.lft.to/lastmile_qr_scan"}, "name": "6d00a7f514cf11a73630dc014674b6b6", "type": "electric_scooter", "fusion_lon": 0.0, "is_disabled": 0, "is_reserved": 0, "bike_id": "6d00a7f514cf11a73630dc014674b6b6", "lon": -76.98712566666667}, {"fusion_lat": 0.0, "lat": 38.90522266666667, "rental_uris": {"ios": "https://dc.lft.to/lastmile_qr_scan", "android": "https://dc.lft.to/lastmile_qr_scan"}, "name": "5f486afd961b28ad44f541cb70be75e7", "type": "electric_scooter", "fusion_lon": 0.0, "is_disabled": 0, "is_reserved": 0, "bike_id": "5f486afd961b28ad44f541cb70be75e7", "lon": -77.0269055}, {"fusion_lat": 0.0, "lat": 38.81984833333333, "rental_uris": {"ios": "https://dc.lft.to/lastmile_qr_scan", "android": "https://dc.lft.to/lastmile_qr_scan"}, "name": "55ded6b4959a4c018fa810a64779e615", "type": "electric_bike", "fusion_lon": 0.0, "is_disabled": 0, "is_reserved": 0, "bike_id": "55ded6b4959a4c018fa810a64779e615", "lon": -76.99811716666666}, {"fusion_lat": 0.0, "lat": 38.912612833333334, "rental_uris": {"ios": "https://dc.lft.to/lastmile_qr_scan", "android": "https://dc.lft.to/lastmile_qr_scan"}, "name": "345dce3613ae6808bdd27e7faf691f8d", "type": "electric_scooter", "fusion_lon": 0.0, "is_disabled": 0, "is_reserved": 0, "bike_id": "345dce3613ae6808bdd27e7faf691f8d", "lon": -77.0411735}, {"fusion_lat": 0.0, "lat": 38.898301000000004, "rental_uris": {"ios": "https://dc.lft.to/lastmile_qr_scan", "android": "https://dc.lft.to/lastmile_qr_scan"}, "name": "eba10202ba209a098fba9b5ffa72f74c", "type": "electric_scooter", "fusion_lon": 0.0, "is_disabled": 0, "is_reserved": 0, "bike_id": "eba10202ba209a098fba9b5ffa72f74c", "lon": -77.01978183333334}, {"fusion_lat": 0.0, "lat": 38.90314583333333, "rental_uris": {"ios": "https://dc.lft.to/lastmile_qr_scan", "android": "https://dc.lft.to/lastmile_qr_scan"}, "name": "330e76a42b63262faba176b1655035de", "type": "electric_scooter", "fusion_lon": 0.0, "is_disabled": 0, "is_reserved": 0, "bike_id": "330e76a42b63262faba176b1655035de", "lon": -77.06029666666667}, {"fusion_lat": 0.0, "lat": 38.907332833333335, "rental_uris": {"ios": "https://dc.lft.to/lastmile_qr_scan", "android": "https://dc.lft.to/lastmile_qr_scan"}, "name": "bdc24e2ea5e9722b92aad0a749a31c82", "type": "electric_scooter", "fusion_lon": 0.0, "is_disabled": 0, "is_reserved": 0, "bike_id": "bdc24e2ea5e9722b92aad0a749a31c82", "lon": -77.00751233333334}, {"fusion_lat": 0.0, "lat": 38.898503833333336, "rental_uris": {"ios": "https://dc.lft.to/lastmile_qr_scan", "android": "https://dc.lft.to/lastmile_qr_scan"}, "name": "2a37d0f0201ca3af9fbab668b2978c10", "type": "electric_scooter", "fusion_lon": 0.0, "is_disabled": 0, "is_reserved": 0, "bike_id": "2a37d0f0201ca3af9fbab668b2978c10", "lon": -77.02371833333333}, {"fusion_lat": 0.0, "lat": 38.8906455, "rental_uris": {"ios": "https://dc.lft.to/lastmile_qr_scan", "android": "https://dc.lft.to/lastmile_qr_scan"}, "name": "7637de80104dc4b9a1ec0ee0b9736e6f", "type": "electric_bike", "fusion_lon": 0.0, "is_disabled": 0, "is_reserved": 0, "bike_id": "7637de80104dc4b9a1ec0ee0b9736e6f", "lon": -77.18433316666666}, {"fusion_lat": 0.0, "lat": 38.93078283333333, "rental_uris": {"ios": "https://dc.lft.to/lastmile_qr_scan", "android": "https://dc.lft.to/lastmile_qr_scan"}, "name": "ede786aa92be755611be9cae515762d9", "type": "electric_scooter", "fusion_lon": 0.0, "is_disabled": 0, "is_reserved": 0, "bike_id": "ede786aa92be755611be9cae515762d9", "lon": -77.03489166666667}, {"fusion_lat": 0.0, "lat": 38.91486716666667, "rental_uris": {"ios": "https://dc.lft.to/lastmile_qr_scan", "android": "https://dc.lft.to/lastmile_qr_scan"}, "name": "90a32b858e88a1f140da271c648881d4", "type": "electric_scooter", "fusion_lon": 0.0, "is_disabled": 0, "is_reserved": 0, "bike_id": "90a32b858e88a1f140da271c648881d4", "lon": -76.98359033333334}, {"fusion_lat": 0.0, "lat": 38.884888333333336, "rental_uris": {"ios": "https://dc.lft.to/lastmile_qr_scan", "android": "https://dc.lft.to/lastmile_qr_scan"}, "name": "90aa58842ee6a8d4a0302399c748843d", "type": "electric_bike", "fusion_lon": 0.0, "is_disabled": 0, "is_reserved": 0, "bike_id": "90aa58842ee6a8d4a0302399c748843d", "lon": -76.95662283333333}, {"fusion_lat": 0.0, "lat": 38.91040983333333, "rental_uris": {"ios": "https://dc.lft.to/lastmile_qr_scan", "android": "https://dc.lft.to/lastmile_qr_scan"}, "name": "4586f68ac937e72f82f6e0d49e0f1028", "type": "electric_scooter", "fusion_lon": 0.0, "is_disabled": 0, "is_reserved": 0, "bike_id": "4586f68ac937e72f82f6e0d49e0f1028", "lon": -77.07572816666666}, {"fusion_lat": 0.0, "lat": 38.88152983333333, "rental_uris": {"ios": "https://dc.lft.to/lastmile_qr_scan", "android": "https://dc.lft.to/lastmile_qr_scan"}, "name": "5d9188747ef6dddb6d99f637231446b1", "type": "electric_scooter", "fusion_lon": 0.0, "is_disabled": 0, "is_reserved": 0, "bike_id": "5d9188747ef6dddb6d99f637231446b1", "lon": -77.0274205}, {"fusion_lat": 0.0, "lat": 38.92343566666667, "rental_uris": {"ios": "https://dc.lft.to/lastmile_qr_scan", "android": "https://dc.lft.to/lastmile_qr_scan"}, "name": "255d3ffd7656cf3ab0e891f838e6139f", "type": "electric_scooter", "fusion_lon": 0.0, "is_disabled": 0, "is_reserved": 0, "bike_id": "255d3ffd7656cf3ab0e891f838e6139f", "lon": -77.0511455}, {"fusion_lat": 0.0, "lat": 38.88293216666667, "rental_uris": {"ios": "https://dc.lft.to/lastmile_qr_scan", "android": "https://dc.lft.to/lastmile_qr_scan"}, "name": "c00cdcf186a244b9445cba55ded17cb6", "type": "electric_scooter", "fusion_lon": 0.0, "is_disabled": 0, "is_reserved": 0, "bike_id": "c00cdcf186a244b9445cba55ded17cb6", "lon": -77.01747283333333}, {"fusion_lat": 0.0, "lat": 38.894566833333336, "rental_uris": {"ios": "https://dc.lft.to/lastmile_qr_scan", "android": "https://dc.lft.to/lastmile_qr_scan"}, "name": "3a7e22214ca49f4ff0d49c6d68ba47a0", "type": "electric_scooter", "fusion_lon": 0.0, "is_disabled": 0, "is_reserved": 0, "bike_id": "3a7e22214ca49f4ff0d49c6d68ba47a0", "lon": -77.016607}, {"fusion_lat": 0.0, "lat": 38.90731266666667, "rental_uris": {"ios": "https://dc.lft.to/lastmile_qr_scan", "android": "https://dc.lft.to/lastmile_qr_scan"}, "name": "4d49573a6a3e71662bf267e2fd54f529", "type": "electric_scooter", "fusion_lon": 0.0, "is_disabled": 0, "is_reserved": 0, "bike_id": "4d49573a6a3e71662bf267e2fd54f529", "lon": -77.00754116666667}, {"fusion_lat": 0.0, "lat": 38.90268716666667, "rental_uris": {"ios": "https://dc.lft.to/lastmile_qr_scan", "android": "https://dc.lft.to/lastmile_qr_scan"}, "name": "0290206c3cd83bd05e75f8e9434d11fd", "type": "electric_scooter", "fusion_lon": 0.0, "is_disabled": 0, "is_reserved": 0, "bike_id": "0290206c3cd83bd05e75f8e9434d11fd", "lon": -77.034337}, {"fusion_lat": 0.0, "lat": 38.92318016666667, "rental_uris": {"ios": "https://dc.lft.to/lastmile_qr_scan", "android": "https://dc.lft.to/lastmile_qr_scan"}, "name": "5e62197b1911e097f0a86f54a6923ecd", "type": "electric_scooter", "fusion_lon": 0.0, "is_disabled": 0, "is_reserved": 0, "bike_id": "5e62197b1911e097f0a86f54a6923ecd", "lon": -77.02905483333333}, {"fusion_lat": 0.0, "lat": 38.89728983333333, "rental_uris": {"ios": "https://dc.lft.to/lastmile_qr_scan", "android": "https://dc.lft.to/lastmile_qr_scan"}, "name": "e264e67cdfc2309ac68d68a9871b5c8c", "type": "electric_scooter", "fusion_lon": 0.0, "is_disabled": 0, "is_reserved": 0, "bike_id": "e264e67cdfc2309ac68d68a9871b5c8c", "lon": -76.99469616666667}, {"fusion_lat": 0.0, "lat": 38.900851333333335, "rental_uris": {"ios": "https://dc.lft.to/lastmile_qr_scan", "android": "https://dc.lft.to/lastmile_qr_scan"}, "name": "3b65f9dcf1b32301f0dd028275ceae3e", "type": "electric_scooter", "fusion_lon": 0.0, "is_disabled": 0, "is_reserved": 0, "bike_id": "3b65f9dcf1b32301f0dd028275ceae3e", "lon": -77.0262725}, {"fusion_lat": 0.0, "lat": 38.886154166666664, "rental_uris": {"ios": "https://dc.lft.to/lastmile_qr_scan", "android": "https://dc.lft.to/lastmile_qr_scan"}, "name": "78bb0284e838bcb734f14e224ac7ac7b", "type": "electric_scooter", "fusion_lon": 0.0, "is_disabled": 0, "is_reserved": 0, "bike_id": "78bb0284e838bcb734f14e224ac7ac7b", "lon": -77.01249533333333}, {"fusion_lat": 0.0, "lat": 38.88359766666667, "rental_uris": {"ios": "https://dc.lft.to/lastmile_qr_scan", "android": "https://dc.lft.to/lastmile_qr_scan"}, "name": "4aa5142dabf26c62a5e75a8c0c772dc5", "type": "electric_scooter", "fusion_lon": 0.0, "is_disabled": 0, "is_reserved": 0, "bike_id": "4aa5142dabf26c62a5e75a8c0c772dc5", "lon": -77.019602}, {"fusion_lat": 0.0, "lat": 38.9111465, "rental_uris": {"ios": "https://dc.lft.to/lastmile_qr_scan", "android": "https://dc.lft.to/lastmile_qr_scan"}, "name": "aba8012cf7cf4dc02a8013c434e06ded", "type": "electric_scooter", "fusion_lon": 0.0, "is_disabled": 0, "is_reserved": 0, "bike_id": "aba8012cf7cf4dc02a8013c434e06ded", "lon": -77.04284216666667}, {"fusion_lat": 0.0, "lat": 38.900148, "rental_uris": {"ios": "https://dc.lft.to/lastmile_qr_scan", "android": "https://dc.lft.to/lastmile_qr_scan"}, "name": "604765d8287978ed363b219a6548495f", "type": "electric_scooter", "fusion_lon": 0.0, "is_disabled": 0, "is_reserved": 0, "bike_id": "604765d8287978ed363b219a6548495f", "lon": -76.991688}, {"fusion_lat": 0.0, "lat": 38.88294783333333, "rental_uris": {"ios": "https://dc.lft.to/lastmile_qr_scan", "android": "https://dc.lft.to/lastmile_qr_scan"}, "name": "3e88d5db77adb2c167ffa1bbf4390c6f", "type": "electric_scooter", "fusion_lon": 0.0, "is_disabled": 0, "is_reserved": 0, "bike_id": "3e88d5db77adb2c167ffa1bbf4390c6f", "lon": -77.02478133333334}, {"fusion_lat": 0.0, "lat": 38.92712816666667, "rental_uris": {"ios": "https://dc.lft.to/lastmile_qr_scan", "android": "https://dc.lft.to/lastmile_qr_scan"}, "name": "6c8b37d721891fcf2a50bb44ca29ca74", "type": "electric_scooter", "fusion_lon": 0.0, "is_disabled": 0, "is_reserved": 0, "bike_id": "6c8b37d721891fcf2a50bb44ca29ca74", "lon": -77.01591866666666}, {"fusion_lat": 0.0, "lat": 38.913607, "rental_uris": {"ios": "https://dc.lft.to/lastmile_qr_scan", "android": "https://dc.lft.to/lastmile_qr_scan"}, "name": "8e48bf976a4910befe5800cd8f5e7480", "type": "electric_scooter", "fusion_lon": 0.0, "is_disabled": 0, "is_reserved": 0, "bike_id": "8e48bf976a4910befe5800cd8f5e7480", "lon": -77.03453166666667}, {"fusion_lat": 0.0, "lat": 38.813286833333336, "rental_uris": {"ios": "https://dc.lft.to/lastmile_qr_scan", "android": "https://dc.lft.to/lastmile_qr_scan"}, "name": "89131602788c8c28d651befa3662268d", "type": "electric_bike", "fusion_lon": 0.0, "is_disabled": 0, "is_reserved": 0, "bike_id": "89131602788c8c28d651befa3662268d", "lon": -77.05087366666666}, {"fusion_lat": 0.0, "lat": 38.84986583333333, "rental_uris": {"ios": "https://dc.lft.to/lastmile_qr_scan", "android": "https://dc.lft.to/lastmile_qr_scan"}, "name": "940cd708d60182f03ef482e2692b5a7c", "type": "electric_bike", "fusion_lon": 0.0, "is_disabled": 0, "is_reserved": 0, "bike_id": "940cd708d60182f03ef482e2692b5a7c", "lon": -77.09757533333334}, {"fusion_lat": 0.0, "lat": 38.93193566666667, "rental_uris": {"ios": "https://dc.lft.to/lastmile_qr_scan", "android": "https://dc.lft.to/lastmile_qr_scan"}, "name": "ff838270e480399e8efed277e7f93e3d", "type": "electric_bike", "fusion_lon": 0.0, "is_disabled": 0, "is_reserved": 0, "bike_id": "ff838270e480399e8efed277e7f93e3d", "lon": -77.22923466666667}, {"fusion_lat": 0.0, "lat": 38.914228333333334, "rental_uris": {"ios": "https://dc.lft.to/lastmile_qr_scan", "android": "https://dc.lft.to/lastmile_qr_scan"}, "name": "5723eb6188bbe9729f5d4db7aed04683", "type": "electric_scooter", "fusion_lon": 0.0, "is_disabled": 0, "is_reserved": 0, "bike_id": "5723eb6188bbe9729f5d4db7aed04683", "lon": -77.03182466666667}, {"fusion_lat": 0.0, "lat": 38.932425333333335, "rental_uris": {"ios": "https://dc.lft.to/lastmile_qr_scan", "android": "https://dc.lft.to/lastmile_qr_scan"}, "name": "b47abfdc3b0a3b69ab4d5d3fa030d08f", "type": "electric_scooter", "fusion_lon": 0.0, "is_disabled": 0, "is_reserved": 0, "bike_id": "b47abfdc3b0a3b69ab4d5d3fa030d08f", "lon": -77.034166}, {"fusion_lat": 0.0, "lat": 38.931892, "rental_uris": {"ios": "https://dc.lft.to/lastmile_qr_scan", "android": "https://dc.lft.to/lastmile_qr_scan"}, "name": "96b01c11eae2b03be900fcf55b1b5569", "type": "electric_scooter", "fusion_lon": 0.0, "is_disabled": 0, "is_reserved": 0, "bike_id": "96b01c11eae2b03be900fcf55b1b5569", "lon": -77.073425}, {"fusion_lat": 0.0, "lat": 38.91036416666667, "rental_uris": {"ios": "https://dc.lft.to/lastmile_qr_scan", "android": "https://dc.lft.to/lastmile_qr_scan"}, "name": "c2c9cba533ef50614e471ac0c4db37c1", "type": "electric_scooter", "fusion_lon": 0.0, "is_disabled": 0, "is_reserved": 0, "bike_id": "c2c9cba533ef50614e471ac0c4db37c1", "lon": -77.02927}, {"fusion_lat": 0.0, "lat": 38.90606, "rental_uris": {"ios": "https://dc.lft.to/lastmile_qr_scan", "android": "https://dc.lft.to/lastmile_qr_scan"}, "name": "7a304d769f3be7de362546a94734d75e", "type": "electric_scooter", "fusion_lon": 0.0, "is_disabled": 0, "is_reserved": 0, "bike_id": "7a304d769f3be7de362546a94734d75e", "lon": -77.0568765}, {"fusion_lat": 0.0, "lat": 38.898354499999996, "rental_uris": {"ios": "https://dc.lft.to/lastmile_qr_scan", "android": "https://dc.lft.to/lastmile_qr_scan"}, "name": "08b6716d9073b8e976b794dd52c5742c", "type": "electric_scooter", "fusion_lon": 0.0, "is_disabled": 0, "is_reserved": 0, "bike_id": "08b6716d9073b8e976b794dd52c5742c", "lon": -77.04172466666667}, {"fusion_lat": 0.0, "lat": 38.926717333333336, "rental_uris": {"ios": "https://dc.lft.to/lastmile_qr_scan", "android": "https://dc.lft.to/lastmile_qr_scan"}, "name": "9fe666e362f9dbba2f82d6dd1618b03c", "type": "electric_scooter", "fusion_lon": 0.0, "is_disabled": 0, "is_reserved": 0, "bike_id": "9fe666e362f9dbba2f82d6dd1618b03c", "lon": -77.01479183333333}, {"fusion_lat": 0.0, "lat": 38.89615283333333, "rental_uris": {"ios": "https://dc.lft.to/lastmile_qr_scan", "android": "https://dc.lft.to/lastmile_qr_scan"}, "name": "56ed1545d90a77bf311f7e93961b4891", "type": "electric_bike", "fusion_lon": 0.0, "is_disabled": 0, "is_reserved": 0, "bike_id": "56ed1545d90a77bf311f7e93961b4891", "lon": -76.90739983333333}, {"fusion_lat": 0.0, "lat": 38.80454566666667, "rental_uris": {"ios": "https://dc.lft.to/lastmile_qr_scan", "android": "https://dc.lft.to/lastmile_qr_scan"}, "name": "8309b60be982b7dcc1e89f2f5a0b83e1", "type": "electric_bike", "fusion_lon": 0.0, "is_disabled": 0, "is_reserved": 0, "bike_id": "8309b60be982b7dcc1e89f2f5a0b83e1", "lon": -77.05390316666667}, {"fusion_lat": 0.0, "lat": 38.931489166666665, "rental_uris": {"ios": "https://dc.lft.to/lastmile_qr_scan", "android": "https://dc.lft.to/lastmile_qr_scan"}, "name": "5c346d72d5ab864b735ddb23a2b11576", "type": "electric_scooter", "fusion_lon": 0.0, "is_disabled": 0, "is_reserved": 0, "bike_id": "5c346d72d5ab864b735ddb23a2b11576", "lon": -77.0418845}, {"fusion_lat": 0.0, "lat": 38.887211, "rental_uris": {"ios": "https://dc.lft.to/lastmile_qr_scan", "android": "https://dc.lft.to/lastmile_qr_scan"}, "name": "452abc4e3d2df2b057966d244b88a9ff", "type": "electric_scooter", "fusion_lon": 0.0, "is_disabled": 0, "is_reserved": 0, "bike_id": "452abc4e3d2df2b057966d244b88a9ff", "lon": -76.99682766666666}, {"fusion_lat": 0.0, "lat": 38.88153533333333, "rental_uris": {"ios": "https://dc.lft.to/lastmile_qr_scan", "android": "https://dc.lft.to/lastmile_qr_scan"}, "name": "2ec17899ea5ed3ba01faa1e1c7f78f0e", "type": "electric_scooter", "fusion_lon": 0.0, "is_disabled": 0, "is_reserved": 0, "bike_id": "2ec17899ea5ed3ba01faa1e1c7f78f0e", "lon": -77.02704033333333}, {"fusion_lat": 0.0, "lat": 38.905893166666665, "rental_uris": {"ios": "https://dc.lft.to/lastmile_qr_scan", "android": "https://dc.lft.to/lastmile_qr_scan"}, "name": "ba56efbcedce7919453cfc2fb961fca0", "type": "electric_bike", "fusion_lon": 0.0, "is_disabled": 0, "is_reserved": 0, "bike_id": "ba56efbcedce7919453cfc2fb961fca0", "lon": -77.04328933333333}, {"fusion_lat": 0.0, "lat": 38.857195, "rental_uris": {"ios": "https://dc.lft.to/lastmile_qr_scan", "android": "https://dc.lft.to/lastmile_qr_scan"}, "name": "48292fef447b7324c75ff39cbfd35398", "type": "electric_scooter", "fusion_lon": 0.0, "is_disabled": 0, "is_reserved": 0, "bike_id": "48292fef447b7324c75ff39cbfd35398", "lon": -76.98104266666667}, {"fusion_lat": 0.0, "lat": 38.90238333333333, "rental_uris": {"ios": "https://dc.lft.to/lastmile_qr_scan", "android": "https://dc.lft.to/lastmile_qr_scan"}, "name": "c91723a35a242bee69fa94af3360db0c", "type": "electric_scooter", "fusion_lon": 0.0, "is_disabled": 0, "is_reserved": 0, "bike_id": "c91723a35a242bee69fa94af3360db0c", "lon": -77.00203083333334}, {"fusion_lat": 0.0, "lat": 38.927197166666666, "rental_uris": {"ios": "https://dc.lft.to/lastmile_qr_scan", "android": "https://dc.lft.to/lastmile_qr_scan"}, "name": "6beb9edffedb20ea68ce3b504d2d84b7", "type": "electric_scooter", "fusion_lon": 0.0, "is_disabled": 0, "is_reserved": 0, "bike_id": "6beb9edffedb20ea68ce3b504d2d84b7", "lon": -77.0231015}, {"fusion_lat": 0.0, "lat": 38.9138815, "rental_uris": {"ios": "https://dc.lft.to/lastmile_qr_scan", "android": "https://dc.lft.to/lastmile_qr_scan"}, "name": "09828750115ca11ae345eec081a2755d", "type": "electric_scooter", "fusion_lon": 0.0, "is_disabled": 0, "is_reserved": 0, "bike_id": "09828750115ca11ae345eec081a2755d", "lon": -77.0320945}, {"fusion_lat": 0.0, "lat": 38.90340533333333, "rental_uris": {"ios": "https://dc.lft.to/lastmile_qr_scan", "android": "https://dc.lft.to/lastmile_qr_scan"}, "name": "a49c82554060469014dfbe11c9ff30e0", "type": "electric_scooter", "fusion_lon": 0.0, "is_disabled": 0, "is_reserved": 0, "bike_id": "a49c82554060469014dfbe11c9ff30e0", "lon": -77.02009183333334}, {"fusion_lat": 0.0, "lat": 38.9073865, "rental_uris": {"ios": "https://dc.lft.to/lastmile_qr_scan", "android": "https://dc.lft.to/lastmile_qr_scan"}, "name": "18e77d9c01e5e7798dde70e311afb838", "type": "electric_scooter", "fusion_lon": 0.0, "is_disabled": 0, "is_reserved": 0, "bike_id": "18e77d9c01e5e7798dde70e311afb838", "lon": -77.04274433333333}, {"fusion_lat": 0.0, "lat": 38.878450666666666, "rental_uris": {"ios": "https://dc.lft.to/lastmile_qr_scan", "android": "https://dc.lft.to/lastmile_qr_scan"}, "name": "313c21ccd1e86ed522ed3c7d08b8cefe", "type": "electric_scooter", "fusion_lon": 0.0, "is_disabled": 0, "is_reserved": 0, "bike_id": "313c21ccd1e86ed522ed3c7d08b8cefe", "lon": -77.0227805}, {"fusion_lat": 0.0, "lat": 38.92858616666667, "rental_uris": {"ios": "https://dc.lft.to/lastmile_qr_scan", "android": "https://dc.lft.to/lastmile_qr_scan"}, "name": "2694b8b3ff1f961f3a85655487fc7d1d", "type": "electric_scooter", "fusion_lon": 0.0, "is_disabled": 0, "is_reserved": 0, "bike_id": "2694b8b3ff1f961f3a85655487fc7d1d", "lon": -77.03319483333334}, {"fusion_lat": 0.0, "lat": 38.9040235, "rental_uris": {"ios": "https://dc.lft.to/lastmile_qr_scan", "android": "https://dc.lft.to/lastmile_qr_scan"}, "name": "ef3605eb5541c059c6014ffd428bf0e4", "type": "electric_scooter", "fusion_lon": 0.0, "is_disabled": 0, "is_reserved": 0, "bike_id": "ef3605eb5541c059c6014ffd428bf0e4", "lon": -77.040496}, {"fusion_lat": 0.0, "lat": 38.912391666666664, "rental_uris": {"ios": "https://dc.lft.to/lastmile_qr_scan", "android": "https://dc.lft.to/lastmile_qr_scan"}, "name": "927c44302417a2eb4a10c4b8768a0f3b", "type": "electric_scooter", "fusion_lon": 0.0, "is_disabled": 0, "is_reserved": 0, "bike_id": "927c44302417a2eb4a10c4b8768a0f3b", "lon": -77.04520033333333}, {"fusion_lat": 0.0, "lat": 38.92323183333333, "rental_uris": {"ios": "https://dc.lft.to/lastmile_qr_scan", "android": "https://dc.lft.to/lastmile_qr_scan"}, "name": "2c83abdfa90e5329ef461ea7122ba9c4", "type": "electric_scooter", "fusion_lon": 0.0, "is_disabled": 0, "is_reserved": 0, "bike_id": "2c83abdfa90e5329ef461ea7122ba9c4", "lon": -77.04184783333334}, {"fusion_lat": 0.0, "lat": 38.908424833333335, "rental_uris": {"ios": "https://dc.lft.to/lastmile_qr_scan", "android": "https://dc.lft.to/lastmile_qr_scan"}, "name": "eccba139a7e0b78f83ab377b6c37a5c2", "type": "electric_scooter", "fusion_lon": 0.0, "is_disabled": 0, "is_reserved": 0, "bike_id": "eccba139a7e0b78f83ab377b6c37a5c2", "lon": -77.018833}, {"fusion_lat": 0.0, "lat": 38.897813, "rental_uris": {"ios": "https://dc.lft.to/lastmile_qr_scan", "android": "https://dc.lft.to/lastmile_qr_scan"}, "name": "a1c39575eedcbfc833db5c154f61477c", "type": "electric_scooter", "fusion_lon": 0.0, "is_disabled": 0, "is_reserved": 0, "bike_id": "a1c39575eedcbfc833db5c154f61477c", "lon": -77.02186516666667}, {"fusion_lat": 0.0, "lat": 38.9177475, "rental_uris": {"ios": "https://dc.lft.to/lastmile_qr_scan", "android": "https://dc.lft.to/lastmile_qr_scan"}, "name": "ce4168133e8712f60bd4a1c90f73ec6d", "type": "electric_scooter", "fusion_lon": 0.0, "is_disabled": 0, "is_reserved": 0, "bike_id": "ce4168133e8712f60bd4a1c90f73ec6d", "lon": -77.0192375}, {"fusion_lat": 0.0, "lat": 38.892237, "rental_uris": {"ios": "https://dc.lft.to/lastmile_qr_scan", "android": "https://dc.lft.to/lastmile_qr_scan"}, "name": "34dcd9423188d65a5e111f747a81d72b", "type": "electric_scooter", "fusion_lon": 0.0, "is_disabled": 0, "is_reserved": 0, "bike_id": "34dcd9423188d65a5e111f747a81d72b", "lon": -77.04509933333334}, {"fusion_lat": 0.0, "lat": 38.8922095, "rental_uris": {"ios": "https://dc.lft.to/lastmile_qr_scan", "android": "https://dc.lft.to/lastmile_qr_scan"}, "name": "a3cfbdf706a54fb36dc3bac970ee9138", "type": "electric_scooter", "fusion_lon": 0.0, "is_disabled": 0, "is_reserved": 0, "bike_id": "a3cfbdf706a54fb36dc3bac970ee9138", "lon": -77.04771166666667}, {"fusion_lat": 0.0, "lat": 38.916025, "rental_uris": {"ios": "https://dc.lft.to/lastmile_qr_scan", "android": "https://dc.lft.to/lastmile_qr_scan"}, "name": "f26247eb018d8fcc753a7bc84761b388", "type": "electric_scooter", "fusion_lon": 0.0, "is_disabled": 0, "is_reserved": 0, "bike_id": "f26247eb018d8fcc753a7bc84761b388", "lon": -77.02197533333333}, {"fusion_lat": 0.0, "lat": 38.898322666666665, "rental_uris": {"ios": "https://dc.lft.to/lastmile_qr_scan", "android": "https://dc.lft.to/lastmile_qr_scan"}, "name": "9e0e9e3faa58a4fc8fbe2b67d9bbd03c", "type": "electric_bike", "fusion_lon": 0.0, "is_disabled": 0, "is_reserved": 0, "bike_id": "9e0e9e3faa58a4fc8fbe2b67d9bbd03c", "lon": -77.02460766666667}, {"fusion_lat": 0.0, "lat": 38.86564416666667, "rental_uris": {"ios": "https://dc.lft.to/lastmile_qr_scan", "android": "https://dc.lft.to/lastmile_qr_scan"}, "name": "abf9885fc9fa730e6b53c8a786eac4ca", "type": "electric_scooter", "fusion_lon": 0.0, "is_disabled": 0, "is_reserved": 0, "bike_id": "abf9885fc9fa730e6b53c8a786eac4ca", "lon": -76.98334733333333}, {"fusion_lat": 0.0, "lat": 38.87906616666667, "rental_uris": {"ios": "https://dc.lft.to/lastmile_qr_scan", "android": "https://dc.lft.to/lastmile_qr_scan"}, "name": "177f5c943e0f807e4850e5f1ef59fd51", "type": "electric_scooter", "fusion_lon": 0.0, "is_disabled": 0, "is_reserved": 0, "bike_id": "177f5c943e0f807e4850e5f1ef59fd51", "lon": -77.02201433333333}, {"fusion_lat": 0.0, "lat": 38.89982783333333, "rental_uris": {"ios": "https://dc.lft.to/lastmile_qr_scan", "android": "https://dc.lft.to/lastmile_qr_scan"}, "name": "abe0a9df2621bd7df449716b7906ea4c", "type": "electric_scooter", "fusion_lon": 0.0, "is_disabled": 0, "is_reserved": 0, "bike_id": "abe0a9df2621bd7df449716b7906ea4c", "lon": -77.00684833333334}, {"fusion_lat": 0.0, "lat": 38.904744666666666, "rental_uris": {"ios": "https://dc.lft.to/lastmile_qr_scan", "android": "https://dc.lft.to/lastmile_qr_scan"}, "name": "3a042aea6f11cb2c06ff7e896b8aa357", "type": "electric_scooter", "fusion_lon": 0.0, "is_disabled": 0, "is_reserved": 0, "bike_id": "3a042aea6f11cb2c06ff7e896b8aa357", "lon": -77.04349216666667}, {"fusion_lat": 0.0, "lat": 38.903877, "rental_uris": {"ios": "https://dc.lft.to/lastmile_qr_scan", "android": "https://dc.lft.to/lastmile_qr_scan"}, "name": "dc5f05968be7dbbcc14537e4c27e02d9", "type": "electric_scooter", "fusion_lon": 0.0, "is_disabled": 0, "is_reserved": 0, "bike_id": "dc5f05968be7dbbcc14537e4c27e02d9", "lon": -77.03626516666667}, {"fusion_lat": 0.0, "lat": 38.866818, "rental_uris": {"ios": "https://dc.lft.to/lastmile_qr_scan", "android": "https://dc.lft.to/lastmile_qr_scan"}, "name": "80280596e43e2250738c0519f707a8ef", "type": "electric_scooter", "fusion_lon": 0.0, "is_disabled": 0, "is_reserved": 0, "bike_id": "80280596e43e2250738c0519f707a8ef", "lon": -76.985648}, {"fusion_lat": 0.0, "lat": 38.898628, "rental_uris": {"ios": "https://dc.lft.to/lastmile_qr_scan", "android": "https://dc.lft.to/lastmile_qr_scan"}, "name": "df437951221436e91d91a328140f1e2b", "type": "electric_scooter", "fusion_lon": 0.0, "is_disabled": 0, "is_reserved": 0, "bike_id": "df437951221436e91d91a328140f1e2b", "lon": -76.94637116666667}, {"fusion_lat": 0.0, "lat": 38.899799333333334, "rental_uris": {"ios": "https://dc.lft.to/lastmile_qr_scan", "android": "https://dc.lft.to/lastmile_qr_scan"}, "name": "c0fa176f4610a70028bdca122a7c614f", "type": "electric_scooter", "fusion_lon": 0.0, "is_disabled": 0, "is_reserved": 0, "bike_id": "c0fa176f4610a70028bdca122a7c614f", "lon": -77.03083066666666}, {"fusion_lat": 0.0, "lat": 38.91189816666667, "rental_uris": {"ios": "https://dc.lft.to/lastmile_qr_scan", "android": "https://dc.lft.to/lastmile_qr_scan"}, "name": "a12ac9967a386e60d38e88f0d970b6e0", "type": "electric_bike", "fusion_lon": 0.0, "is_disabled": 0, "is_reserved": 0, "bike_id": "a12ac9967a386e60d38e88f0d970b6e0", "lon": -77.04445933333334}, {"fusion_lat": 0.0, "lat": 38.91722166666667, "rental_uris": {"ios": "https://dc.lft.to/lastmile_qr_scan", "android": "https://dc.lft.to/lastmile_qr_scan"}, "name": "462c7ae936cd62559048f0216e447597", "type": "electric_scooter", "fusion_lon": 0.0, "is_disabled": 0, "is_reserved": 0, "bike_id": "462c7ae936cd62559048f0216e447597", "lon": -77.022996}, {"fusion_lat": 0.0, "lat": 38.93459816666667, "rental_uris": {"ios": "https://dc.lft.to/lastmile_qr_scan", "android": "https://dc.lft.to/lastmile_qr_scan"}, "name": "bc95fc9d175394f963481f4982fb5d0f", "type": "electric_scooter", "fusion_lon": 0.0, "is_disabled": 0, "is_reserved": 0, "bike_id": "bc95fc9d175394f963481f4982fb5d0f", "lon": -77.0412295}, {"fusion_lat": 0.0, "lat": 38.93993833333333, "rental_uris": {"ios": "https://dc.lft.to/lastmile_qr_scan", "android": "https://dc.lft.to/lastmile_qr_scan"}, "name": "0acbac42b50c0335566152fc09f30495", "type": "electric_scooter", "fusion_lon": 0.0, "is_disabled": 0, "is_reserved": 0, "bike_id": "0acbac42b50c0335566152fc09f30495", "lon": -77.0198585}, {"fusion_lat": 0.0, "lat": 38.884853166666666, "rental_uris": {"ios": "https://dc.lft.to/lastmile_qr_scan", "android": "https://dc.lft.to/lastmile_qr_scan"}, "name": "af2e06d5032e3a3110139f56c30fd48d", "type": "electric_scooter", "fusion_lon": 0.0, "is_disabled": 0, "is_reserved": 0, "bike_id": "af2e06d5032e3a3110139f56c30fd48d", "lon": -77.00712083333333}, {"fusion_lat": 0.0, "lat": 38.928402, "rental_uris": {"ios": "https://dc.lft.to/lastmile_qr_scan", "android": "https://dc.lft.to/lastmile_qr_scan"}, "name": "c6e8b550491c84ea5f09bfa3c627dd18", "type": "electric_scooter", "fusion_lon": 0.0, "is_disabled": 0, "is_reserved": 0, "bike_id": "c6e8b550491c84ea5f09bfa3c627dd18", "lon": -77.03303816666667}, {"fusion_lat": 0.0, "lat": 38.90028083333333, "rental_uris": {"ios": "https://dc.lft.to/lastmile_qr_scan", "android": "https://dc.lft.to/lastmile_qr_scan"}, "name": "8d1c28ed054b573f160e6b432fe9fb38", "type": "electric_bike", "fusion_lon": 0.0, "is_disabled": 0, "is_reserved": 0, "bike_id": "8d1c28ed054b573f160e6b432fe9fb38", "lon": -76.98866233333334}, {"fusion_lat": 0.0, "lat": 38.8964915, "rental_uris": {"ios": "https://dc.lft.to/lastmile_qr_scan", "android": "https://dc.lft.to/lastmile_qr_scan"}, "name": "7084898da489fc60e2a39397d0d8a319", "type": "electric_bike", "fusion_lon": 0.0, "is_disabled": 0, "is_reserved": 0, "bike_id": "7084898da489fc60e2a39397d0d8a319", "lon": -76.9300185}, {"fusion_lat": 0.0, "lat": 38.956552, "rental_uris": {"ios": "https://dc.lft.to/lastmile_qr_scan", "android": "https://dc.lft.to/lastmile_qr_scan"}, "name": "0baa71fc27c3852a4e1a3dbc166f250b", "type": "electric_bike", "fusion_lon": 0.0, "is_disabled": 0, "is_reserved": 0, "bike_id": "0baa71fc27c3852a4e1a3dbc166f250b", "lon": -77.0126445}, {"fusion_lat": 0.0, "lat": 38.9032365, "rental_uris": {"ios": "https://dc.lft.to/lastmile_qr_scan", "android": "https://dc.lft.to/lastmile_qr_scan"}, "name": "120604bdee49c1c9a667b79df20c0419", "type": "electric_scooter", "fusion_lon": 0.0, "is_disabled": 0, "is_reserved": 0, "bike_id": "120604bdee49c1c9a667b79df20c0419", "lon": -76.97547733333333}, {"fusion_lat": 0.0, "lat": 38.919942, "rental_uris": {"ios": "https://dc.lft.to/lastmile_qr_scan", "android": "https://dc.lft.to/lastmile_qr_scan"}, "name": "29c7efaeee73c9efe87b701251a34045", "type": "electric_scooter", "fusion_lon": 0.0, "is_disabled": 0, "is_reserved": 0, "bike_id": "29c7efaeee73c9efe87b701251a34045", "lon": -77.02540966666666}, {"fusion_lat": 0.0, "lat": 38.910905166666666, "rental_uris": {"ios": "https://dc.lft.to/lastmile_qr_scan", "android": "https://dc.lft.to/lastmile_qr_scan"}, "name": "6c16e6596c20a0f5e1d8caea78173d6d", "type": "electric_scooter", "fusion_lon": 0.0, "is_disabled": 0, "is_reserved": 0, "bike_id": "6c16e6596c20a0f5e1d8caea78173d6d", "lon": -77.01622533333334}, {"fusion_lat": 0.0, "lat": 38.8963575, "rental_uris": {"ios": "https://dc.lft.to/lastmile_qr_scan", "android": "https://dc.lft.to/lastmile_qr_scan"}, "name": "9038a0d6b10ee0849db5adf6c90192da", "type": "electric_scooter", "fusion_lon": 0.0, "is_disabled": 0, "is_reserved": 0, "bike_id": "9038a0d6b10ee0849db5adf6c90192da", "lon": -77.04007966666667}, {"fusion_lat": 0.0, "lat": 38.936742, "rental_uris": {"ios": "https://dc.lft.to/lastmile_qr_scan", "android": "https://dc.lft.to/lastmile_qr_scan"}, "name": "3f694c6200b309aa0459204657d7dbcb", "type": "electric_scooter", "fusion_lon": 0.0, "is_disabled": 0, "is_reserved": 0, "bike_id": "3f694c6200b309aa0459204657d7dbcb", "lon": -77.03594833333334}, {"fusion_lat": 0.0, "lat": 38.93044183333333, "rental_uris": {"ios": "https://dc.lft.to/lastmile_qr_scan", "android": "https://dc.lft.to/lastmile_qr_scan"}, "name": "6155fc6667a983d6d25d2bfdb264088d", "type": "electric_scooter", "fusion_lon": 0.0, "is_disabled": 0, "is_reserved": 0, "bike_id": "6155fc6667a983d6d25d2bfdb264088d", "lon": -77.0319855}, {"fusion_lat": 0.0, "lat": 38.876465833333334, "rental_uris": {"ios": "https://dc.lft.to/lastmile_qr_scan", "android": "https://dc.lft.to/lastmile_qr_scan"}, "name": "d276fbff7155f19392d3620f7833d68e", "type": "electric_scooter", "fusion_lon": 0.0, "is_disabled": 0, "is_reserved": 0, "bike_id": "d276fbff7155f19392d3620f7833d68e", "lon": -77.00588566666667}, {"fusion_lat": 0.0, "lat": 38.900294, "rental_uris": {"ios": "https://dc.lft.to/lastmile_qr_scan", "android": "https://dc.lft.to/lastmile_qr_scan"}, "name": "729bc1471fb9fd1533ff88b72c76f93f", "type": "electric_scooter", "fusion_lon": 0.0, "is_disabled": 0, "is_reserved": 0, "bike_id": "729bc1471fb9fd1533ff88b72c76f93f", "lon": -77.05824016666666}, {"fusion_lat": 0.0, "lat": 38.97217833333333, "rental_uris": {"ios": "https://dc.lft.to/lastmile_qr_scan", "android": "https://dc.lft.to/lastmile_qr_scan"}, "name": "a670a6606c4764c44026aef9b5314660", "type": "electric_bike", "fusion_lon": 0.0, "is_disabled": 0, "is_reserved": 0, "bike_id": "a670a6606c4764c44026aef9b5314660", "lon": -77.01421716666667}, {"fusion_lat": 0.0, "lat": 38.945105166666664, "rental_uris": {"ios": "https://dc.lft.to/lastmile_qr_scan", "android": "https://dc.lft.to/lastmile_qr_scan"}, "name": "f9d8deeb9a174872318720df71a53078", "type": "electric_scooter", "fusion_lon": 0.0, "is_disabled": 0, "is_reserved": 0, "bike_id": "f9d8deeb9a174872318720df71a53078", "lon": -77.03356966666666}, {"fusion_lat": 0.0, "lat": 38.89283866666667, "rental_uris": {"ios": "https://dc.lft.to/lastmile_qr_scan", "android": "https://dc.lft.to/lastmile_qr_scan"}, "name": "37fa1209f324479759b2098f8b253f03", "type": "electric_scooter", "fusion_lon": 0.0, "is_disabled": 0, "is_reserved": 0, "bike_id": "37fa1209f324479759b2098f8b253f03", "lon": -77.050386}, {"fusion_lat": 0.0, "lat": 38.90392966666667, "rental_uris": {"ios": "https://dc.lft.to/lastmile_qr_scan", "android": "https://dc.lft.to/lastmile_qr_scan"}, "name": "9472eac3439b15888de29d0381fe692e", "type": "electric_scooter", "fusion_lon": 0.0, "is_disabled": 0, "is_reserved": 0, "bike_id": "9472eac3439b15888de29d0381fe692e", "lon": -77.0355325}, {"fusion_lat": 0.0, "lat": 38.79469383333333, "rental_uris": {"ios": "https://dc.lft.to/lastmile_qr_scan", "android": "https://dc.lft.to/lastmile_qr_scan"}, "name": "5262c773589f357f751c4dcb4bab362c", "type": "electric_bike", "fusion_lon": 0.0, "is_disabled": 0, "is_reserved": 0, "bike_id": "5262c773589f357f751c4dcb4bab362c", "lon": -76.99246516666666}, {"fusion_lat": 0.0, "lat": 38.900345333333334, "rental_uris": {"ios": "https://dc.lft.to/lastmile_qr_scan", "android": "https://dc.lft.to/lastmile_qr_scan"}, "name": "335ab440058f00ca27c9ffa70eaf9b59", "type": "electric_scooter", "fusion_lon": 0.0, "is_disabled": 0, "is_reserved": 0, "bike_id": "335ab440058f00ca27c9ffa70eaf9b59", "lon": -77.00178083333333}, {"fusion_lat": 0.0, "lat": 38.866912, "rental_uris": {"ios": "https://dc.lft.to/lastmile_qr_scan", "android": "https://dc.lft.to/lastmile_qr_scan"}, "name": "8b838ec37b8656026165dd0025ccc491", "type": "electric_scooter", "fusion_lon": 0.0, "is_disabled": 0, "is_reserved": 0, "bike_id": "8b838ec37b8656026165dd0025ccc491", "lon": -76.98541516666667}, {"fusion_lat": 0.0, "lat": 38.88607066666667, "rental_uris": {"ios": "https://dc.lft.to/lastmile_qr_scan", "android": "https://dc.lft.to/lastmile_qr_scan"}, "name": "eed7b93a718788cb961c9c0a84a04adb", "type": "electric_scooter", "fusion_lon": 0.0, "is_disabled": 0, "is_reserved": 0, "bike_id": "eed7b93a718788cb961c9c0a84a04adb", "lon": -76.99523266666667}, {"fusion_lat": 0.0, "lat": 38.88383283333334, "rental_uris": {"ios": "https://dc.lft.to/lastmile_qr_scan", "android": "https://dc.lft.to/lastmile_qr_scan"}, "name": "9d7a3abb26369d2afd4146d8f788e9ee", "type": "electric_scooter", "fusion_lon": 0.0, "is_disabled": 0, "is_reserved": 0, "bike_id": "9d7a3abb26369d2afd4146d8f788e9ee", "lon": -76.9952505}, {"fusion_lat": 0.0, "lat": 38.924271, "rental_uris": {"ios": "https://dc.lft.to/lastmile_qr_scan", "android": "https://dc.lft.to/lastmile_qr_scan"}, "name": "99ce22e9a21513187612e9cd50348c2b", "type": "electric_scooter", "fusion_lon": 0.0, "is_disabled": 0, "is_reserved": 0, "bike_id": "99ce22e9a21513187612e9cd50348c2b", "lon": -77.0517975}, {"fusion_lat": 0.0, "lat": 38.909601, "rental_uris": {"ios": "https://dc.lft.to/lastmile_qr_scan", "android": "https://dc.lft.to/lastmile_qr_scan"}, "name": "a1c3b8b5b94c13c177db1181c5a0634c", "type": "electric_scooter", "fusion_lon": 0.0, "is_disabled": 0, "is_reserved": 0, "bike_id": "a1c3b8b5b94c13c177db1181c5a0634c", "lon": -77.0328235}, {"fusion_lat": 0.0, "lat": 38.923297833333336, "rental_uris": {"ios": "https://dc.lft.to/lastmile_qr_scan", "android": "https://dc.lft.to/lastmile_qr_scan"}, "name": "fd13852b91a5b877109f821c02a58435", "type": "electric_scooter", "fusion_lon": 0.0, "is_disabled": 0, "is_reserved": 0, "bike_id": "fd13852b91a5b877109f821c02a58435", "lon": -77.053488}, {"fusion_lat": 0.0, "lat": 38.89354766666666, "rental_uris": {"ios": "https://dc.lft.to/lastmile_qr_scan", "android": "https://dc.lft.to/lastmile_qr_scan"}, "name": "ca19ad9d9f1dfc38aa13c957d4a16215", "type": "electric_bike", "fusion_lon": 0.0, "is_disabled": 0, "is_reserved": 0, "bike_id": "ca19ad9d9f1dfc38aa13c957d4a16215", "lon": -77.1874305}, {"fusion_lat": 0.0, "lat": 38.9077555, "rental_uris": {"ios": "https://dc.lft.to/lastmile_qr_scan", "android": "https://dc.lft.to/lastmile_qr_scan"}, "name": "a0dbc331a0dd70a0464572d986e472a1", "type": "electric_scooter", "fusion_lon": 0.0, "is_disabled": 0, "is_reserved": 0, "bike_id": "a0dbc331a0dd70a0464572d986e472a1", "lon": -77.0713725}, {"fusion_lat": 0.0, "lat": 38.901319, "rental_uris": {"ios": "https://dc.lft.to/lastmile_qr_scan", "android": "https://dc.lft.to/lastmile_qr_scan"}, "name": "c626f1409e12c04970566482796d6d31", "type": "electric_scooter", "fusion_lon": 0.0, "is_disabled": 0, "is_reserved": 0, "bike_id": "c626f1409e12c04970566482796d6d31", "lon": -77.00257116666667}, {"fusion_lat": 0.0, "lat": 38.905673166666666, "rental_uris": {"ios": "https://dc.lft.to/lastmile_qr_scan", "android": "https://dc.lft.to/lastmile_qr_scan"},