{"data": {"bikes": [{"lat": 38.8580795, "is_disabled": 0, "type": "electric_scooter", "lon": -76.98649783333333, "bike_id": "49b33b336f3d35d8a11e06179756dd03", "fusion_lat": 0.0, "name": "49b33b336f3d35d8a11e06179756dd03", "is_reserved": 0, "rental_uris": {"android": "https://dc.lft.to/lastmile_qr_scan", "ios": "https://dc.lft.to/lastmile_qr_scan"}, "fusion_lon": 0.0}, {"lat": 38.901526833333335, "is_disabled": 0, "type": "electric_scooter", "lon": -77.032834, "bike_id": "502a768532dfd7cf54d81e3291e9523c", "fusion_lat": 0.0, "name": "502a768532dfd7cf54d81e3291e9523c", "is_reserved": 0, "rental_uris": {"android": "https://dc.lft.to/lastmile_qr_scan", "ios": "https://dc.lft.to/lastmile_qr_scan"}, "fusion_lon": 0.0}, {"lat": 38.96609016666667, "is_disabled": 0, "type": "electric_scooter", "lon": -77.02050116666666, "bike_id": "60f04589684f4e5be34fa89f3334f945", "fusion_lat": 0.0, "name": "60f04589684f4e5be34fa89f3334f945", "is_reserved": 0, "rental_uris": {"android": "https://dc.lft.to/lastmile_qr_scan", "ios": "https://dc.lft.to/lastmile_qr_scan"}, "fusion_lon": 0.0}, {"lat": 38.90731683333333, "is_disabled": 0, "type": "electric_bike", "lon": -77.0107015, "bike_id": "16f4a800c79e51f8ad1ace8a28d44950", "fusion_lat": 0.0, "name": "16f4a800c79e51f8ad1ace8a28d44950", "is_reserved": 0, "rental_uris": {"android": "https://dc.lft.to/lastmile_qr_scan", "ios": "https://dc.lft.to/lastmile_qr_scan"}, "fusion_lon": 0.0}, {"lat": 38.9411875, "is_disabled": 0, "type": "electric_scooter", "lon": -77.00069383333333, "bike_id": "1a662ee843e5627ae19559f27dc7dc15", "fusion_lat": 0.0, "name": "1a662ee843e5627ae19559f27dc7dc15", "is_reserved": 0, "rental_uris": {"android": "https://dc.lft.to/lastmile_qr_scan", "ios": "https://dc.lft.to/lastmile_qr_scan"}, "fusion_lon": 0.0}, {"lat": 38.91187266666667, "is_disabled": 0, "type": "electric_scooter", "lon": -77.032063, "bike_id": "b9c7bfe07249a5d90ddebeae820cd0ad", "fusion_lat": 0.0, "name": "b9c7bfe07249a5d90ddebeae820cd0ad", "is_reserved": 0, "rental_uris": {"android": "https://dc.lft.to/lastmile_qr_scan", "ios": "https://dc.lft.to/lastmile_qr_scan"}, "fusion_lon": 0.0}, {"lat": 38.916875166666664, "is_disabled": 0, "type": "electric_scooter", "lon": -77.00199383333333, "bike_id": "05870c50c2ebd2940704841b86883e6a", "fusion_lat": 0.0, "name": "05870c50c2ebd2940704841b86883e6a", "is_reserved": 0, "rental_uris": {"android": "https://dc.lft.to/lastmile_qr_scan", "ios": "https://dc.lft.to/lastmile_qr_scan"}, "fusion_lon": 0.0}, {"lat": 38.95896316666666, "is_disabled": 0, "type": "electric_bike", "lon": -76.9248365, "bike_id": "11d1d5b6c2c1f62d454a7e93cc88e5cf", "fusion_lat": 0.0, "name": "11d1d5b6c2c1f62d454a7e93cc88e5cf", "is_reserved": 0, "rental_uris": {"android": "https://dc.lft.to/lastmile_qr_scan", "ios": "https://dc.lft.to/lastmile_qr_scan"}, "fusion_lon": 0.0}, {"lat": 38.925394, "is_disabled": 0, "type": "electric_scooter", "lon": -77.0263025, "bike_id": "cba59bfb523b0604febdb1313bafc7d9", "fusion_lat": 0.0, "name": "cba59bfb523b0604febdb1313bafc7d9", "is_reserved": 0, "rental_uris": {"android": "https://dc.lft.to/lastmile_qr_scan", "ios": "https://dc.lft.to/lastmile_qr_scan"}, "fusion_lon": 0.0}, {"lat": 38.883633333333336, "is_disabled": 0, "type": "electric_scooter", "lon": -76.94154583333334, "bike_id": "cccd359222cc1c4c921544ce93791a49", "fusion_lat": 0.0, "name": "cccd359222cc1c4c921544ce93791a49", "is_reserved": 0, "rental_uris": {"android": "https://dc.lft.to/lastmile_qr_scan", "ios": "https://dc.lft.to/lastmile_qr_scan"}, "fusion_lon": 0.0}, {"lat": 38.9076185, "is_disabled": 0, "type": "electric_scooter", "lon": -77.000979, "bike_id": "ef711477e29b2aaf73250f0f45c3461e", "fusion_lat": 0.0, "name": "ef711477e29b2aaf73250f0f45c3461e", "is_reserved": 0, "rental_uris": {"android": "https://dc.lft.to/lastmile_qr_scan", "ios": "https://dc.lft.to/lastmile_qr_scan"}, "fusion_lon": 0.0}, {"lat": 38.92027183333333, "is_disabled": 0, "type": "electric_scooter", "lon": -77.01323716666667, "bike_id": "81364cdcc5ce7a131ceb38ad4b48cddf", "fusion_lat": 0.0, "name": "81364cdcc5ce7a131ceb38ad4b48cddf", "is_reserved": 0, "rental_uris": {"android": "https://dc.lft.to/lastmile_qr_scan", "ios": "https://dc.lft.to/lastmile_qr_scan"}, "fusion_lon": 0.0}, {"lat": 38.944183333333335, "is_disabled": 0, "type": "electric_scooter", "lon": -77.0624625, "bike_id": "4bbbd6520a3c878790b171fc58443088", "fusion_lat": 0.0, "name": "4bbbd6520a3c878790b171fc58443088", "is_reserved": 0, "rental_uris": {"android": "https://dc.lft.to/lastmile_qr_scan", "ios": "https://dc.lft.to/lastmile_qr_scan"}, "fusion_lon": 0.0}, {"lat": 38.926174, "is_disabled": 0, "type": "electric_scooter", "lon": -77.04192533333334, "bike_id": "4d8e0aa9e5ac347269e58170b0aa3cb2", "fusion_lat": 0.0, "name": "4d8e0aa9e5ac347269e58170b0aa3cb2", "is_reserved": 0, "rental_uris": {"android": "https://dc.lft.to/lastmile_qr_scan", "ios": "https://dc.lft.to/lastmile_qr_scan"}, "fusion_lon": 0.0}, {"lat": 38.896149, "is_disabled": 0, "type": "electric_scooter", "lon": -77.04491316666666, "bike_id": "39dbd0cc156782d23c4a48e0803c143d", "fusion_lat": 0.0, "name": "39dbd0cc156782d23c4a48e0803c143d", "is_reserved": 0, "rental_uris": {"android": "https://dc.lft.to/lastmile_qr_scan", "ios": "https://dc.lft.to/lastmile_qr_scan"}, "fusion_lon": 0.0}, {"lat": 38.936035833333335, "is_disabled": 0, "type": "electric_scooter", "lon": -77.031743, "bike_id": "39c1d98ca0977475de77eab8f42aef80", "fusion_lat": 0.0, "name": "39c1d98ca0977475de77eab8f42aef80", "is_reserved": 0, "rental_uris": {"android": "https://dc.lft.to/lastmile_qr_scan", "ios": "https://dc.lft.to/lastmile_qr_scan"}, "fusion_lon": 0.0}, {"lat": 38.894945666666665, "is_disabled": 0, "type": "electric_scooter", "lon": -77.00206266666666, "bike_id": "70ba8cc86e16aff1ec45ad27c010e1e7", "fusion_lat": 0.0, "name": "70ba8cc86e16aff1ec45ad27c010e1e7", "is_reserved": 0, "rental_uris": {"android": "https://dc.lft.to/lastmile_qr_scan", "ios": "https://dc.lft.to/lastmile_qr_scan"}, "fusion_lon": 0.0}, {"lat": 38.921058333333335, "is_disabled": 0, "type": "electric_scooter", "lon": -76.994224, "bike_id": "780f80c400c9674d69c7e7542443b748", "fusion_lat": 0.0, "name": "780f80c400c9674d69c7e7542443b748", "is_reserved": 0, "rental_uris": {"android": "https://dc.lft.to/lastmile_qr_scan", "ios": "https://dc.lft.to/lastmile_qr_scan"}, "fusion_lon": 0.0}, {"lat": 38.902561666666664, "is_disabled": 0, "type": "electric_scooter", "lon": -77.0394925, "bike_id": "1826cadc7b410909b31d1c94c6c0812d", "fusion_lat": 0.0, "name": "1826cadc7b410909b31d1c94c6c0812d", "is_reserved": 0, "rental_uris": {"android": "https://dc.lft.to/lastmile_qr_scan", "ios": "https://dc.lft.to/lastmile_qr_scan"}, "fusion_lon": 0.0}, {"lat": 38.944553166666665, "is_disabled": 0, "type": "electric_scooter", "lon": -77.06034666666666, "bike_id": "678abdaf71fbd5f3d2e77e74bd2ad982", "fusion_lat": 0.0, "name": "678abdaf71fbd5f3d2e77e74bd2ad982", "is_reserved": 0, "rental_uris": {"android": "https://dc.lft.to/lastmile_qr_scan", "ios": "https://dc.lft.to/lastmile_qr_scan"}, "fusion_lon": 0.0}, {"lat": 38.91742083333333, "is_disabled": 0, "type": "electric_scooter", "lon": -77.03184266666666, "bike_id": "62f624c5d9a31195fd1553b918d1dd5f", "fusion_lat": 0.0, "name": "62f624c5d9a31195fd1553b918d1dd5f", "is_reserved": 0, "rental_uris": {"android": "https://dc.lft.to/lastmile_qr_scan", "ios": "https://dc.lft.to/lastmile_qr_scan"}, "fusion_lon": 0.0}, {"lat": 38.9245155, "is_disabled": 0, "type": "electric_scooter", "lon": -77.041985, "bike_id": "81e211257c6780d277ae98b67261d1c9", "fusion_lat": 0.0, "name": "81e211257c6780d277ae98b67261d1c9", "is_reserved": 0, "rental_uris": {"android": "https://dc.lft.to/lastmile_qr_scan", "ios": "https://dc.lft.to/lastmile_qr_scan"}, "fusion_lon": 0.0}, {"lat": 38.896836, "is_disabled": 0, "type": "electric_scooter", "lon": -76.93603983333334, "bike_id": "ad4bbae869d037a9daa1c48003743f5a", "fusion_lat": 0.0, "name": "ad4bbae869d037a9daa1c48003743f5a", "is_reserved": 0, "rental_uris": {"android": "https://dc.lft.to/lastmile_qr_scan", "ios": "https://dc.lft.to/lastmile_qr_scan"}, "fusion_lon": 0.0}, {"lat": 38.930653666666664, "is_disabled": 0, "type": "electric_scooter", "lon": -77.033958, "bike_id": "c6d29617c13baab84243c8806047c27b", "fusion_lat": 0.0, "name": "c6d29617c13baab84243c8806047c27b", "is_reserved": 0, "rental_uris": {"android": "https://dc.lft.to/lastmile_qr_scan", "ios": "https://dc.lft.to/lastmile_qr_scan"}, "fusion_lon": 0.0}, {"lat": 38.988185, "is_disabled": 0, "type": "electric_bike", "lon": -77.0265195, "bike_id": "a63d4e8dc29354733676369965837ea1", "fusion_lat": 0.0, "name": "a63d4e8dc29354733676369965837ea1", "is_reserved": 0, "rental_uris": {"android": "https://dc.lft.to/lastmile_qr_scan", "ios": "https://dc.lft.to/lastmile_qr_scan"}, "fusion_lon": 0.0}, {"lat": 38.930440833333336, "is_disabled": 0, "type": "electric_bike", "lon": -77.0729155, "bike_id": "dbb53f5f80fb4b712271828aafca00a2", "fusion_lat": 0.0, "name": "dbb53f5f80fb4b712271828aafca00a2", "is_reserved": 0, "rental_uris": {"android": "https://dc.lft.to/lastmile_qr_scan", "ios": "https://dc.lft.to/lastmile_qr_scan"}, "fusion_lon": 0.0}, {"lat": 38.88448966666667, "is_disabled": 0, "type": "electric_scooter", "lon": -76.95094583333334, "bike_id": "fb48fb85dbac0352272de027e3ed90bf", "fusion_lat": 0.0, "name": "fb48fb85dbac0352272de027e3ed90bf", "is_reserved": 0, "rental_uris": {"android": "https://dc.lft.to/lastmile_qr_scan", "ios": "https://dc.lft.to/lastmile_qr_scan"}, "fusion_lon": 0.0}, {"lat": 38.92120883333333, "is_disabled": 0, "type": "electric_scooter", "lon": -77.04174066666667, "bike_id": "1ba295ffc5d1d528161674c19658be53", "fusion_lat": 0.0, "name": "1ba295ffc5d1d528161674c19658be53", "is_reserved": 0, "rental_uris": {"android": "https://dc.lft.to/lastmile_qr_scan", "ios": "https://dc.lft.to/lastmile_qr_scan"}, "fusion_lon": 0.0}, {"lat": 38.9482335, "is_disabled": 0, "type": "electric_scooter", "lon": -76.99903016666667, "bike_id": "ee943f3aff81fe0cd3d324385ffc8642", "fusion_lat": 0.0, "name": "ee943f3aff81fe0cd3d324385ffc8642", "is_reserved": 0, "rental_uris": {"android": "https://dc.lft.to/lastmile_qr_scan", "ios": "https://dc.lft.to/lastmile_qr_scan"}, "fusion_lon": 0.0}, {"lat": 38.8874615, "is_disabled": 0, "type": "electric_scooter", "lon": -77.02567933333333, "bike_id": "8828da47d34c680b606b0d07f351bda0", "fusion_lat": 0.0, "name": "8828da47d34c680b606b0d07f351bda0", "is_reserved": 0, "rental_uris": {"android": "https://dc.lft.to/lastmile_qr_scan", "ios": "https://dc.lft.to/lastmile_qr_scan"}, "fusion_lon": 0.0}, {"lat": 38.897425, "is_disabled": 0, "type": "electric_scooter", "lon": -77.04757416666666, "bike_id": "0ecba8cd9020201c544a851c58db6a2a", "fusion_lat": 0.0, "name": "0ecba8cd9020201c544a851c58db6a2a", "is_reserved": 0, "rental_uris": {"android": "https://dc.lft.to/lastmile_qr_scan", "ios": "https://dc.lft.to/lastmile_qr_scan"}, "fusion_lon": 0.0}, {"lat": 38.8503285, "is_disabled": 0, "type": "electric_bike", "lon": -76.97291383333334, "bike_id": "d88a54e5c9890322e67b26d6f7cfcd9a", "fusion_lat": 0.0, "name": "d88a54e5c9890322e67b26d6f7cfcd9a", "is_reserved": 0, "rental_uris": {"android": "https://dc.lft.to/lastmile_qr_scan", "ios": "https://dc.lft.to/lastmile_qr_scan"}, "fusion_lon": 0.0}, {"lat": 38.902617166666666, "is_disabled": 0, "type": "electric_scooter", "lon": -77.05256983333334, "bike_id": "0f391c747de07a292d673c62fd236202", "fusion_lat": 0.0, "name": "0f391c747de07a292d673c62fd236202", "is_reserved": 0, "rental_uris": {"android": "https://dc.lft.to/lastmile_qr_scan", "ios": "https://dc.lft.to/lastmile_qr_scan"}, "fusion_lon": 0.0}, {"lat": 38.922433166666664, "is_disabled": 0, "type": "electric_scooter", "lon": -77.04569816666667, "bike_id": "e001bfdd8c1cf4d903b94d1281d840c3", "fusion_lat": 0.0, "name": "e001bfdd8c1cf4d903b94d1281d840c3", "is_reserved": 0, "rental_uris": {"android": "https://dc.lft.to/lastmile_qr_scan", "ios": "https://dc.lft.to/lastmile_qr_scan"}, "fusion_lon": 0.0}, {"lat": 38.908280166666664, "is_disabled": 0, "type": "electric_scooter", "lon": -77.06382083333334, "bike_id": "2dd99b762466bd33e788ccdbccffeabd", "fusion_lat": 0.0, "name": "2dd99b762466bd33e788ccdbccffeabd", "is_reserved": 0, "rental_uris": {"android": "https://dc.lft.to/lastmile_qr_scan", "ios": "https://dc.lft.to/lastmile_qr_scan"}, "fusion_lon": 0.0}, {"lat": 38.91931816666666, "is_disabled": 0, "type": "electric_scooter", "lon": -77.02299583333334, "bike_id": "bf7601ebbdd0db367010bf902f91036f", "fusion_lat": 0.0, "name": "bf7601ebbdd0db367010bf902f91036f", "is_reserved": 0, "rental_uris": {"android": "https://dc.lft.to/lastmile_qr_scan", "ios": "https://dc.lft.to/lastmile_qr_scan"}, "fusion_lon": 0.0}, {"lat": 38.90344833333333, "is_disabled": 0, "type": "electric_scooter", "lon": -77.053215, "bike_id": "51167a10499ee0936d589259f61c1699", "fusion_lat": 0.0, "name": "51167a10499ee0936d589259f61c1699", "is_reserved": 0, "rental_uris": {"android": "https://dc.lft.to/lastmile_qr_scan", "ios": "https://dc.lft.to/lastmile_qr_scan"}, "fusion_lon": 0.0}, {"lat": 38.9306635, "is_disabled": 0, "type": "electric_scooter", "lon": -76.990757, "bike_id": "1c562528746474e4dcc060c5cc474f47", "fusion_lat": 0.0, "name": "1c562528746474e4dcc060c5cc474f47", "is_reserved": 0, "rental_uris": {"android": "https://dc.lft.to/lastmile_qr_scan", "ios": "https://dc.lft.to/lastmile_qr_scan"}, "fusion_lon": 0.0}, {"lat": 38.8905145, "is_disabled": 0, "type": "electric_scooter", "lon": -76.9375005, "bike_id": "e29298c54e20450727a9d8e4b005c895", "fusion_lat": 0.0, "name": "e29298c54e20450727a9d8e4b005c895", "is_reserved": 0, "rental_uris": {"android": "https://dc.lft.to/lastmile_qr_scan", "ios": "https://dc.lft.to/lastmile_qr_scan"}, "fusion_lon": 0.0}, {"lat": 38.897187333333335, "is_disabled": 0, "type": "electric_scooter", "lon": -77.007939, "bike_id": "e3a9aebe2d55a77672030ea4ba74642d", "fusion_lat": 0.0, "name": "e3a9aebe2d55a77672030ea4ba74642d", "is_reserved": 0, "rental_uris": {"android": "https://dc.lft.to/lastmile_qr_scan", "ios": "https://dc.lft.to/lastmile_qr_scan"}, "fusion_lon": 0.0}, {"lat": 38.905621333333336, "is_disabled": 0, "type": "electric_scooter", "lon": -76.98141383333333, "bike_id": "cd78e38b2a6ebee37da02af12abaf082", "fusion_lat": 0.0, "name": "cd78e38b2a6ebee37da02af12abaf082", "is_reserved": 0, "rental_uris": {"android": "https://dc.lft.to/lastmile_qr_scan", "ios": "https://dc.lft.to/lastmile_qr_scan"}, "fusion_lon": 0.0}, {"lat": 38.936017666666665, "is_disabled": 0, "type": "electric_scooter", "lon": -77.05853016666667, "bike_id": "9bfadc0bdc04c127f7c0678c1cfd2494", "fusion_lat": 0.0, "name": "9bfadc0bdc04c127f7c0678c1cfd2494", "is_reserved": 0, "rental_uris": {"android": "https://dc.lft.to/lastmile_qr_scan", "ios": "https://dc.lft.to/lastmile_qr_scan"}, "fusion_lon": 0.0}, {"lat": 38.90896866666667, "is_disabled": 0, "type": "electric_scooter", "lon": -77.03211416666667, "bike_id": "07cb0f946f0df136c047836b3677d3b7", "fusion_lat": 0.0, "name": "07cb0f946f0df136c047836b3677d3b7", "is_reserved": 0, "rental_uris": {"android": "https://dc.lft.to/lastmile_qr_scan", "ios": "https://dc.lft.to/lastmile_qr_scan"}, "fusion_lon": 0.0}, {"lat": 38.90264, "is_disabled": 0, "type": "electric_scooter", "lon": -77.06241366666667, "bike_id": "db02c388b38658f8bc3c28e9af5488c8", "fusion_lat": 0.0, "name": "db02c388b38658f8bc3c28e9af5488c8", "is_reserved": 0, "rental_uris": {"android": "https://dc.lft.to/lastmile_qr_scan", "ios": "https://dc.lft.to/lastmile_qr_scan"}, "fusion_lon": 0.0}, {"lat": 38.8443325, "is_disabled": 0, "type": "electric_scooter", "lon": -76.9981295, "bike_id": "586e61efc60c34c1582586da69f04a1a", "fusion_lat": 0.0, "name": "586e61efc60c34c1582586da69f04a1a", "is_reserved": 0, "rental_uris": {"android": "https://dc.lft.to/lastmile_qr_scan", "ios": "https://dc.lft.to/lastmile_qr_scan"}, "fusion_lon": 0.0}, {"lat": 38.945985, "is_disabled": 0, "type": "electric_scooter", "lon": -77.07035, "bike_id": "c6bccbb992392598e532c7a4fdc9875a", "fusion_lat": 0.0, "name": "c6bccbb992392598e532c7a4fdc9875a", "is_reserved": 0, "rental_uris": {"android": "https://dc.lft.to/lastmile_qr_scan", "ios": "https://dc.lft.to/lastmile_qr_scan"}, "fusion_lon": 0.0}, {"lat": 38.85419183333333, "is_disabled": 0, "type": "electric_bike", "lon": -76.90968583333333, "bike_id": "63da7379d862696ef9c31c16a43902d3", "fusion_lat": 0.0, "name": "63da7379d862696ef9c31c16a43902d3", "is_reserved": 0, "rental_uris": {"android": "https://dc.lft.to/lastmile_qr_scan", "ios": "https://dc.lft.to/lastmile_qr_scan"}, "fusion_lon": 0.0}, {"lat": 38.810486166666664, "is_disabled": 0, "type": "electric_bike", "lon": -77.08505583333333, "bike_id": "e7dd3a0106b33624630188516bff21b8", "fusion_lat": 0.0, "name": "e7dd3a0106b33624630188516bff21b8", "is_reserved": 0, "rental_uris": {"android": "https://dc.lft.to/lastmile_qr_scan", "ios": "https://dc.lft.to/lastmile_qr_scan"}, "fusion_lon": 0.0}, {"lat": 38.91819316666667, "is_disabled": 0, "type": "electric_scooter", "lon": -77.0295185, "bike_id": "e948dc13ac9fd2704d42da124928f76f", "fusion_lat": 0.0, "name": "e948dc13ac9fd2704d42da124928f76f", "is_reserved": 0, "rental_uris": {"android": "https://dc.lft.to/lastmile_qr_scan", "ios": "https://dc.lft.to/lastmile_qr_scan"}, "fusion_lon": 0.0}, {"lat": 38.93861583333333, "is_disabled": 0, "type": "electric_scooter", "lon": -77.02591066666666, "bike_id": "740bbf212f60e6de951ae3bf90817f6c", "fusion_lat": 0.0, "name": "740bbf212f60e6de951ae3bf90817f6c", "is_reserved": 0, "rental_uris": {"android": "https://dc.lft.to/lastmile_qr_scan", "ios": "https://dc.lft.to/lastmile_qr_scan"}, "fusion_lon": 0.0}, {"lat": 38.911102166666666, "is_disabled": 0, "type": "electric_scooter", "lon": -77.02412883333334, "bike_id": "53e9131b983ccc5cdc27c3e14ab1b114", "fusion_lat": 0.0, "name": "53e9131b983ccc5cdc27c3e14ab1b114", "is_reserved": 0, "rental_uris": {"android": "https://dc.lft.to/lastmile_qr_scan", "ios": "https://dc.lft.to/lastmile_qr_scan"}, "fusion_lon": 0.0}, {"lat": 38.91748066666667, "is_disabled": 0, "type": "electric_bike", "lon": -77.028277, "bike_id": "c75172e8d819f4bd61287a774c1b68c4", "fusion_lat": 0.0, "name": "c75172e8d819f4bd61287a774c1b68c4", "is_reserved": 0, "rental_uris": {"android": "https://dc.lft.to/lastmile_qr_scan", "ios": "https://dc.lft.to/lastmile_qr_scan"}, "fusion_lon": 0.0}, {"lat": 38.953284833333335, "is_disabled": 0, "type": "electric_scooter", "lon": -77.027508, "bike_id": "6e83f21373ed02050cf760be4d061069", "fusion_lat": 0.0, "name": "6e83f21373ed02050cf760be4d061069", "is_reserved": 0, "rental_uris": {"android": "https://dc.lft.to/lastmile_qr_scan", "ios": "https://dc.lft.to/lastmile_qr_scan"}, "fusion_lon": 0.0}, {"lat": 39.03694433333333, "is_disabled": 0, "type": "electric_bike", "lon": -77.051399, "bike_id": "39dc6b1f46e227fef18c5a4c9308b54e", "fusion_lat": 0.0, "name": "39dc6b1f46e227fef18c5a4c9308b54e", "is_reserved": 0, "rental_uris": {"android": "https://dc.lft.to/lastmile_qr_scan", "ios": "https://dc.lft.to/lastmile_qr_scan"}, "fusion_lon": 0.0}, {"lat": 38.807527666666665, "is_disabled": 0, "type": "electric_bike", "lon": -77.09452466666667, "bike_id": "81a3a909536bd23365ce29fc4a95801d", "fusion_lat": 0.0, "name": "81a3a909536bd23365ce29fc4a95801d", "is_reserved": 0, "rental_uris": {"android": "https://dc.lft.to/lastmile_qr_scan", "ios": "https://dc.lft.to/lastmile_qr_scan"}, "fusion_lon": 0.0}, {"lat": 38.91388583333333, "is_disabled": 0, "type": "electric_scooter", "lon": -77.032064, "bike_id": "a0a6298a771afa422e32e96ef51482e1", "fusion_lat": 0.0, "name": "a0a6298a771afa422e32e96ef51482e1", "is_reserved": 0, "rental_uris": {"android": "https://dc.lft.to/lastmile_qr_scan", "ios": "https://dc.lft.to/lastmile_qr_scan"}, "fusion_lon": 0.0}, {"lat": 38.886017, "is_disabled": 0, "type": "electric_scooter", "lon": -76.99246133333334, "bike_id": "1f184f990191257913262e6b8cf4f906", "fusion_lat": 0.0, "name": "1f184f990191257913262e6b8cf4f906", "is_reserved": 0, "rental_uris": {"android": "https://dc.lft.to/lastmile_qr_scan", "ios": "https://dc.lft.to/lastmile_qr_scan"}, "fusion_lon": 0.0}, {"lat": 38.911243, "is_disabled": 0, "type": "electric_scooter", "lon": -77.04347116666666, "bike_id": "53e0377aaef7e752a88b926df714059f", "fusion_lat": 0.0, "name": "53e0377aaef7e752a88b926df714059f", "is_reserved": 0, "rental_uris": {"android": "https://dc.lft.to/lastmile_qr_scan", "ios": "https://dc.lft.to/lastmile_qr_scan"}, "fusion_lon": 0.0}, {"lat": 38.88468916666667, "is_disabled": 0, "type": "electric_scooter", "lon": -76.99275333333334, "bike_id": "12fe57d1fed801106635671189c946ce", "fusion_lat": 0.0, "name": "12fe57d1fed801106635671189c946ce", "is_reserved": 0, "rental_uris": {"android": "https://dc.lft.to/lastmile_qr_scan", "ios": "https://dc.lft.to/lastmile_qr_scan"}, "fusion_lon": 0.0}, {"lat": 38.8849005, "is_disabled": 0, "type": "electric_scooter", "lon": -77.0071165, "bike_id": "809431e86e097c0413dbbe3c5f8fd9a5", "fusion_lat": 0.0, "name": "809431e86e097c0413dbbe3c5f8fd9a5", "is_reserved": 0, "rental_uris": {"android": "https://dc.lft.to/lastmile_qr_scan", "ios": "https://dc.lft.to/lastmile_qr_scan"}, "fusion_lon": 0.0}, {"lat": 38.92408133333333, "is_disabled": 0, "type": "electric_scooter", "lon": -77.035323, "bike_id": "6c668d9e7c734aec535d61ca3e20ec00", "fusion_lat": 0.0, "name": "6c668d9e7c734aec535d61ca3e20ec00", "is_reserved": 0, "rental_uris": {"android": "https://dc.lft.to/lastmile_qr_scan", "ios": "https://dc.lft.to/lastmile_qr_scan"}, "fusion_lon": 0.0}, {"lat": 38.901125666666665, "is_disabled": 0, "type": "electric_scooter", "lon": -76.99548083333333, "bike_id": "be445876e6e3f500704cf939e6ead4b0", "fusion_lat": 0.0, "name": "be445876e6e3f500704cf939e6ead4b0", "is_reserved": 0, "rental_uris": {"android": "https://dc.lft.to/lastmile_qr_scan", "ios": "https://dc.lft.to/lastmile_qr_scan"}, "fusion_lon": 0.0}, {"lat": 38.9388475, "is_disabled": 0, "type": "electric_scooter", "lon": -77.03276966666667, "bike_id": "a0754e84ee9b7301c564b7a4d84fc17c", "fusion_lat": 0.0, "name": "a0754e84ee9b7301c564b7a4d84fc17c", "is_reserved": 0, "rental_uris": {"android": "https://dc.lft.to/lastmile_qr_scan", "ios": "https://dc.lft.to/lastmile_qr_scan"}, "fusion_lon": 0.0}, {"lat": 38.90054383333333, "is_disabled": 0, "type": "electric_scooter", "lon": -77.001969, "bike_id": "be208d7aaa0f2a99c7bf44a747c7e61f", "fusion_lat": 0.0, "name": "be208d7aaa0f2a99c7bf44a747c7e61f", "is_reserved": 0, "rental_uris": {"android": "https://dc.lft.to/lastmile_qr_scan", "ios": "https://dc.lft.to/lastmile_qr_scan"}, "fusion_lon": 0.0}, {"lat": 38.91895366666667, "is_disabled": 0, "type": "electric_scooter", "lon": -77.03899716666666, "bike_id": "a08c285c7df8d6c756fd30fd9ef8ac89", "fusion_lat": 0.0, "name": "a08c285c7df8d6c756fd30fd9ef8ac89", "is_reserved": 0, "rental_uris": {"android": "https://dc.lft.to/lastmile_qr_scan", "ios": "https://dc.lft.to/lastmile_qr_scan"}, "fusion_lon": 0.0}, {"lat": 38.90454483333333, "is_disabled": 0, "type": "electric_scooter", "lon": -76.99459366666666, "bike_id": "cb81f4d7bc9dca7801b27192b3122234", "fusion_lat": 0.0, "name": "cb81f4d7bc9dca7801b27192b3122234", "is_reserved": 0, "rental_uris": {"android": "https://dc.lft.to/lastmile_qr_scan", "ios": "https://dc.lft.to/lastmile_qr_scan"}, "fusion_lon": 0.0}, {"lat": 38.9160345, "is_disabled": 0, "type": "electric_scooter", "lon": -77.03845416666667, "bike_id": "13359e6a150c15da6fcc512c80c8da3c", "fusion_lat": 0.0, "name": "13359e6a150c15da6fcc512c80c8da3c", "is_reserved": 0, "rental_uris": {"android": "https://dc.lft.to/lastmile_qr_scan", "ios": "https://dc.lft.to/lastmile_qr_scan"}, "fusion_lon": 0.0}, {"lat": 38.91724933333333, "is_disabled": 0, "type": "electric_scooter", "lon": -77.02293466666667, "bike_id": "92dff35656c7bec18076052262879379", "fusion_lat": 0.0, "name": "92dff35656c7bec18076052262879379", "is_reserved": 0, "rental_uris": {"android": "https://dc.lft.to/lastmile_qr_scan", "ios": "https://dc.lft.to/lastmile_qr_scan"}, "fusion_lon": 0.0}, {"lat": 38.904702666666665, "is_disabled": 0, "type": "electric_scooter", "lon": -77.04060716666666, "bike_id": "08c9e19c5d063acf63a92e76ff25bc46", "fusion_lat": 0.0, "name": "08c9e19c5d063acf63a92e76ff25bc46", "is_reserved": 0, "rental_uris": {"android": "https://dc.lft.to/lastmile_qr_scan", "ios": "https://dc.lft.to/lastmile_qr_scan"}, "fusion_lon": 0.0}, {"lat": 38.904192333333334, "is_disabled": 0, "type": "electric_scooter", "lon": -77.06887633333334, "bike_id": "c032538b7a87c1f6be5a716847077741", "fusion_lat": 0.0, "name": "c032538b7a87c1f6be5a716847077741", "is_reserved": 0, "rental_uris": {"android": "https://dc.lft.to/lastmile_qr_scan", "ios": "https://dc.lft.to/lastmile_qr_scan"}, "fusion_lon": 0.0}, {"lat": 38.88665433333333, "is_disabled": 0, "type": "electric_bike", "lon": -77.16239633333333, "bike_id": "b547e971bbb703067a087cf6614aa71f", "fusion_lat": 0.0, "name": "b547e971bbb703067a087cf6614aa71f", "is_reserved": 0, "rental_uris": {"android": "https://dc.lft.to/lastmile_qr_scan", "ios": "https://dc.lft.to/lastmile_qr_scan"}, "fusion_lon": 0.0}, {"lat": 38.887416, "is_disabled": 0, "type": "electric_scooter", "lon": -77.01530533333333, "bike_id": "12024832c95bc2b241f7b2b3df61c8e9", "fusion_lat": 0.0, "name": "12024832c95bc2b241f7b2b3df61c8e9", "is_reserved": 0, "rental_uris": {"android": "https://dc.lft.to/lastmile_qr_scan", "ios": "https://dc.lft.to/lastmile_qr_scan"}, "fusion_lon": 0.0}, {"lat": 38.912898166666665, "is_disabled": 0, "type": "electric_scooter", "lon": -77.0238045, "bike_id": "1108f7b3282312eb275a65e53ef61563", "fusion_lat": 0.0, "name": "1108f7b3282312eb275a65e53ef61563", "is_reserved": 0, "rental_uris": {"android": "https://dc.lft.to/lastmile_qr_scan", "ios": "https://dc.lft.to/lastmile_qr_scan"}, "fusion_lon": 0.0}, {"lat": 38.911386666666665, "is_disabled": 0, "type": "electric_scooter", "lon": -77.02689683333334, "bike_id": "36a51f1bac18787a246336f89a6092e4", "fusion_lat": 0.0, "name": "36a51f1bac18787a246336f89a6092e4", "is_reserved": 0, "rental_uris": {"android": "https://dc.lft.to/lastmile_qr_scan", "ios": "https://dc.lft.to/lastmile_qr_scan"}, "fusion_lon": 0.0}, {"lat": 38.915367333333336, "is_disabled": 0, "type": "electric_scooter", "lon": -77.03796066666666, "bike_id": "0f8e29d860b483e074131af66af63a19", "fusion_lat": 0.0, "name": "0f8e29d860b483e074131af66af63a19", "is_reserved": 0, "rental_uris": {"android": "https://dc.lft.to/lastmile_qr_scan", "ios": "https://dc.lft.to/lastmile_qr_scan"}, "fusion_lon": 0.0}, {"lat": 38.928495166666664, "is_disabled": 0, "type": "electric_bike", "lon": -77.106732, "bike_id": "3844e2637fa7a5dc838c68b9fc819159", "fusion_lat": 0.0, "name": "3844e2637fa7a5dc838c68b9fc819159", "is_reserved": 0, "rental_uris": {"android": "https://dc.lft.to/lastmile_qr_scan", "ios": "https://dc.lft.to/lastmile_qr_scan"}, "fusion_lon": 0.0}, {"lat": 38.914927666666664, "is_disabled": 0, "type": "electric_scooter", "lon": -77.03261383333333, "bike_id": "03abfafd1909bc7dc9626ffa2206b768", "fusion_lat": 0.0, "name": "03abfafd1909bc7dc9626ffa2206b768", "is_reserved": 0, "rental_uris": {"android": "https://dc.lft.to/lastmile_qr_scan", "ios": "https://dc.lft.to/lastmile_qr_scan"}, "fusion_lon": 0.0}, {"lat": 38.89923533333334, "is_disabled": 0, "type": "electric_scooter", "lon": -77.0036595, "bike_id": "1e3798867a5da07b2c2445825e5765af", "fusion_lat": 0.0, "name": "1e3798867a5da07b2c2445825e5765af", "is_reserved": 0, "rental_uris": {"android": "https://dc.lft.to/lastmile_qr_scan", "ios": "https://dc.lft.to/lastmile_qr_scan"}, "fusion_lon": 0.0}, {"lat": 38.92536233333333, "is_disabled": 0, "type": "electric_scooter", "lon": -77.04422283333334, "bike_id": "77e577094591d543c4c54b2dc1901264", "fusion_lat": 0.0, "name": "77e577094591d543c4c54b2dc1901264", "is_reserved": 0, "rental_uris": {"android": "https://dc.lft.to/lastmile_qr_scan", "ios": "https://dc.lft.to/lastmile_qr_scan"}, "fusion_lon": 0.0}, {"lat": 38.9169265, "is_disabled": 0, "type": "electric_scooter", "lon": -77.03718083333334, "bike_id": "ff3c4a5fa48694a0cb00db74fcafd92b", "fusion_lat": 0.0, "name": "ff3c4a5fa48694a0cb00db74fcafd92b", "is_reserved": 0, "rental_uris": {"android": "https://dc.lft.to/lastmile_qr_scan", "ios": "https://dc.lft.to/lastmile_qr_scan"}, "fusion_lon": 0.0}, {"lat": 38.93204, "is_disabled": 0, "type": "electric_scooter", "lon": -77.03656916666667, "bike_id": "66b75fb162eb61d16f00df101d9e0935", "fusion_lat": 0.0, "name": "66b75fb162eb61d16f00df101d9e0935", "is_reserved": 0, "rental_uris": {"android": "https://dc.lft.to/lastmile_qr_scan", "ios": "https://dc.lft.to/lastmile_qr_scan"}, "fusion_lon": 0.0}, {"lat": 38.90037933333333, "is_disabled": 0, "type": "electric_scooter", "lon": -76.99368683333333, "bike_id": "a444e1cf56278fb5520a4aa214b2611f", "fusion_lat": 0.0, "name": "a444e1cf56278fb5520a4aa214b2611f", "is_reserved": 0, "rental_uris": {"android": "https://dc.lft.to/lastmile_qr_scan", "ios": "https://dc.lft.to/lastmile_qr_scan"}, "fusion_lon": 0.0}, {"lat": 38.9226075, "is_disabled": 0, "type": "electric_scooter", "lon": -77.04305916666667, "bike_id": "c0b3645c75814742a5130cff6c523269", "fusion_lat": 0.0, "name": "c0b3645c75814742a5130cff6c523269", "is_reserved": 0, "rental_uris": {"android": "https://dc.lft.to/lastmile_qr_scan", "ios": "https://dc.lft.to/lastmile_qr_scan"}, "fusion_lon": 0.0}, {"lat": 38.93641083333333, "is_disabled": 0, "type": "electric_scooter", "lon": -77.02476183333333, "bike_id": "ae54e025035840d8a77c55e68e443cc3", "fusion_lat": 0.0, "name": "ae54e025035840d8a77c55e68e443cc3", "is_reserved": 0, "rental_uris": {"android": "https://dc.lft.to/lastmile_qr_scan", "ios": "https://dc.lft.to/lastmile_qr_scan"}, "fusion_lon": 0.0}, {"lat": 38.893544166666665, "is_disabled": 0, "type": "electric_scooter", "lon": -77.04138733333333, "bike_id": "6a0a3a82ef404fba9878d4879cba3c1b", "fusion_lat": 0.0, "name": "6a0a3a82ef404fba9878d4879cba3c1b", "is_reserved": 0, "rental_uris": {"android": "https://dc.lft.to/lastmile_qr_scan", "ios": "https://dc.lft.to/lastmile_qr_scan"}, "fusion_lon": 0.0}, {"lat": 38.90571533333333, "is_disabled": 0, "type": "electric_scooter", "lon": -77.02492833333334, "bike_id": "8d740027977258c64e0fa46df8f05d4c", "fusion_lat": 0.0, "name": "8d740027977258c64e0fa46df8f05d4c", "is_reserved": 0, "rental_uris": {"android": "https://dc.lft.to/lastmile_qr_scan", "ios": "https://dc.lft.to/lastmile_qr_scan"}, "fusion_lon": 0.0}, {"lat": 38.898325166666666, "is_disabled": 0, "type": "electric_scooter", "lon": -76.931056, "bike_id": "e6a7bb10af421f7b5201ecd9d24a2363", "fusion_lat": 0.0, "name": "e6a7bb10af421f7b5201ecd9d24a2363", "is_reserved": 0, "rental_uris": {"android": "https://dc.lft.to/lastmile_qr_scan", "ios": "https://dc.lft.to/lastmile_qr_scan"}, "fusion_lon": 0.0}, {"lat": 38.92502233333333, "is_disabled": 0, "type": "electric_bike", "lon": -76.98224983333333, "bike_id": "d661c3c67fcad3a7801e27692cde009f", "fusion_lat": 0.0, "name": "d661c3c67fcad3a7801e27692cde009f", "is_reserved": 0, "rental_uris": {"android": "https://dc.lft.to/lastmile_qr_scan", "ios": "https://dc.lft.to/lastmile_qr_scan"}, "fusion_lon": 0.0}, {"lat": 38.90862633333333, "is_disabled": 0, "type": "electric_bike", "lon": -76.931634, "bike_id": "3cb2ad6ab9e364b4927121419aefbbb3", "fusion_lat": 0.0, "name": "3cb2ad6ab9e364b4927121419aefbbb3", "is_reserved": 0, "rental_uris": {"android": "https://dc.lft.to/lastmile_qr_scan", "ios": "https://dc.lft.to/lastmile_qr_scan"}, "fusion_lon": 0.0}, {"lat": 38.91179483333333, "is_disabled": 0, "type": "electric_scooter", "lon": -77.00649566666667, "bike_id": "e95280c049655fe35d2373dc66067ca2", "fusion_lat": 0.0, "name": "e95280c049655fe35d2373dc66067ca2", "is_reserved": 0, "rental_uris": {"android": "https://dc.lft.to/lastmile_qr_scan", "ios": "https://dc.lft.to/lastmile_qr_scan"}, "fusion_lon": 0.0}, {"lat": 38.96928833333333, "is_disabled": 0, "type": "electric_bike", "lon": -77.02616216666667, "bike_id": "b9768aed054a940c4faf22666ea71995", "fusion_lat": 0.0, "name": "b9768aed054a940c4faf22666ea71995", "is_reserved": 0, "rental_uris": {"android": "https://dc.lft.to/lastmile_qr_scan", "ios": "https://dc.lft.to/lastmile_qr_scan"}, "fusion_lon": 0.0}, {"lat": 38.90455766666667, "is_disabled": 0, "type": "electric_scooter", "lon": -76.9945745, "bike_id": "3fcd4adfd79cd23bc278d5cc2274b2f3", "fusion_lat": 0.0, "name": "3fcd4adfd79cd23bc278d5cc2274b2f3", "is_reserved": 0, "rental_uris": {"android": "https://dc.lft.to/lastmile_qr_scan", "ios": "https://dc.lft.to/lastmile_qr_scan"}, "fusion_lon": 0.0}, {"lat": 38.9034125, "is_disabled": 0, "type": "electric_scooter", "lon": -77.03431616666667, "bike_id": "39fb8e5725e3f4c37f24fbb197be4c5f", "fusion_lat": 0.0, "name": "39fb8e5725e3f4c37f24fbb197be4c5f", "is_reserved": 0, "rental_uris": {"android": "https://dc.lft.to/lastmile_qr_scan", "ios": "https://dc.lft.to/lastmile_qr_scan"}, "fusion_lon": 0.0}, {"lat": 38.90607516666667, "is_disabled": 0, "type": "electric_scooter", "lon": -77.06348383333334, "bike_id": "e88276c659dfee5b5afca0b06be06447", "fusion_lat": 0.0, "name": "e88276c659dfee5b5afca0b06be06447", "is_reserved": 0, "rental_uris": {"android": "https://dc.lft.to/lastmile_qr_scan", "ios": "https://dc.lft.to/lastmile_qr_scan"}, "fusion_lon": 0.0}, {"lat": 38.9308405, "is_disabled": 0, "type": "electric_scooter", "lon": -77.02557716666666, "bike_id": "84df4cf965f017914f2ff44238250d3c", "fusion_lat": 0.0, "name": "84df4cf965f017914f2ff44238250d3c", "is_reserved": 0, "rental_uris": {"android": "https://dc.lft.to/lastmile_qr_scan", "ios": "https://dc.lft.to/lastmile_qr_scan"}, "fusion_lon": 0.0}, {"lat": 38.892538, "is_disabled": 0, "type": "electric_scooter", "lon": -77.0489305, "bike_id": "23a7781f6fd1107eb42f268f05fde6ac", "fusion_lat": 0.0, "name": "23a7781f6fd1107eb42f268f05fde6ac", "is_reserved": 0, "rental_uris": {"android": "https://dc.lft.to/lastmile_qr_scan", "ios": "https://dc.lft.to/lastmile_qr_scan"}, "fusion_lon": 0.0}, {"lat": 38.93366366666667, "is_disabled": 0, "type": "electric_scooter", "lon": -77.057461, "bike_id": "4e5842e884fd673d9a7f9421787009a1", "fusion_lat": 0.0, "name": "4e5842e884fd673d9a7f9421787009a1", "is_reserved": 0, "rental_uris": {"android": "https://dc.lft.to/lastmile_qr_scan", "ios": "https://dc.lft.to/lastmile_qr_scan"}, "fusion_lon": 0.0}, {"lat": 38.932978, "is_disabled": 0, "type": "electric_scooter", "lon": -77.02193966666667, "bike_id": "491003601b09dcb6ea0db00ac9a77ba1", "fusion_lat": 0.0, "name": "491003601b09dcb6ea0db00ac9a77ba1", "is_reserved": 0, "rental_uris": {"android": "https://dc.lft.to/lastmile_qr_scan", "ios": "https://dc.lft.to/lastmile_qr_scan"}, "fusion_lon": 0.0}, {"lat": 38.901030666666664, "is_disabled": 0, "type": "electric_scooter", "lon": -77.05902133333333, "bike_id": "afa97f2b2fbc9314d257b7e47ddec2fb", "fusion_lat": 0.0, "name": "afa97f2b2fbc9314d257b7e47ddec2fb", "is_reserved": 0, "rental_uris": {"android": "https://dc.lft.to/lastmile_qr_scan", "ios": "https://dc.lft.to/lastmile_qr_scan"}, "fusion_lon": 0.0}, {"lat": 38.911909666666666, "is_disabled": 0, "type": "electric_scooter", "lon": -77.03621516666666, "bike_id": "4fc61bdf9174e7172bd16d59479650dc", "fusion_lat": 0.0, "name": "4fc61bdf9174e7172bd16d59479650dc", "is_reserved": 0, "rental_uris": {"android": "https://dc.lft.to/lastmile_qr_scan", "ios": "https://dc.lft.to/lastmile_qr_scan"}, "fusion_lon": 0.0}, {"lat": 38.92297, "is_disabled": 0, "type": "electric_scooter", "lon": -77.02332666666666, "bike_id": "5946404c56d1270309f7bedfdd079211", "fusion_lat": 0.0, "name": "5946404c56d1270309f7bedfdd079211", "is_reserved": 0, "rental_uris": {"android": "https://dc.lft.to/lastmile_qr_scan", "ios": "https://dc.lft.to/lastmile_qr_scan"}, "fusion_lon": 0.0}, {"lat": 38.89898683333333, "is_disabled": 0, "type": "electric_scooter", "lon": -77.07228616666667, "bike_id": "2ce2f5d7624969ca28ecb8fc0bff9157", "fusion_lat": 0.0, "name": "2ce2f5d7624969ca28ecb8fc0bff9157", "is_reserved": 0, "rental_uris": {"android": "https://dc.lft.to/lastmile_qr_scan", "ios": "https://dc.lft.to/lastmile_qr_scan"}, "fusion_lon": 0.0}, {"lat": 38.939782666666666, "is_disabled": 0, "type": "electric_scooter", "lon": -77.02625933333333, "bike_id": "c0951f4b06477afc473e38276ebcd93b", "fusion_lat": 0.0, "name": "c0951f4b06477afc473e38276ebcd93b", "is_reserved": 0, "rental_uris": {"android": "https://dc.lft.to/lastmile_qr_scan", "ios": "https://dc.lft.to/lastmile_qr_scan"}, "fusion_lon": 0.0}, {"lat": 38.9124625, "is_disabled": 0, "type": "electric_scooter", "lon": -77.04664833333334, "bike_id": "c76d3026f66458be5a9cd48f812319c4", "fusion_lat": 0.0, "name": "c76d3026f66458be5a9cd48f812319c4", "is_reserved": 0, "rental_uris": {"android": "https://dc.lft.to/lastmile_qr_scan", "ios": "https://dc.lft.to/lastmile_qr_scan"}, "fusion_lon": 0.0}, {"lat": 38.9335945, "is_disabled": 0, "type": "electric_bike", "lon": -77.09956033333333, "bike_id": "35e578b3a9db0130c8b5e0e4daee5782", "fusion_lat": 0.0, "name": "35e578b3a9db0130c8b5e0e4daee5782", "is_reserved": 0, "rental_uris": {"android": "https://dc.lft.to/lastmile_qr_scan", "ios": "https://dc.lft.to/lastmile_qr_scan"}, "fusion_lon": 0.0}, {"lat": 38.91004566666667, "is_disabled": 0, "type": "electric_scooter", "lon": -77.04424016666667, "bike_id": "830abb4d8ed9d6df0f3be4c198350bfd", "fusion_lat": 0.0, "name": "830abb4d8ed9d6df0f3be4c198350bfd", "is_reserved": 0, "rental_uris": {"android": "https://dc.lft.to/lastmile_qr_scan", "ios": "https://dc.lft.to/lastmile_qr_scan"}, "fusion_lon": 0.0}, {"lat": 38.89595666666666, "is_disabled": 0, "type": "electric_bike", "lon": -77.12675783333333, "bike_id": "4323789334e01d2204c26beb81ad16fc", "fusion_lat": 0.0, "name": "4323789334e01d2204c26beb81ad16fc", "is_reserved": 0, "rental_uris": {"android": "https://dc.lft.to/lastmile_qr_scan", "ios": "https://dc.lft.to/lastmile_qr_scan"}, "fusion_lon": 0.0}, {"lat": 38.922668333333334, "is_disabled": 0, "type": "electric_bike", "lon": -77.03285866666667, "bike_id": "5df764393bc2425387cdf5dae8309f01", "fusion_lat": 0.0, "name": "5df764393bc2425387cdf5dae8309f01", "is_reserved": 0, "rental_uris": {"android": "https://dc.lft.to/lastmile_qr_scan", "ios": "https://dc.lft.to/lastmile_qr_scan"}, "fusion_lon": 0.0}, {"lat": 38.910115, "is_disabled": 0, "type": "electric_scooter", "lon": -77.04443, "bike_id": "447cdf58573760ee5d6ca292165725a7", "fusion_lat": 0.0, "name": "447cdf58573760ee5d6ca292165725a7", "is_reserved": 0, "rental_uris": {"android": "https://dc.lft.to/lastmile_qr_scan", "ios": "https://dc.lft.to/lastmile_qr_scan"}, "fusion_lon": 0.0}, {"lat": 38.909597, "is_disabled": 0, "type": "electric_scooter", "lon": -77.02277316666667, "bike_id": "09c843f7e1455ff886ac1a8a20ac6839", "fusion_lat": 0.0, "name": "09c843f7e1455ff886ac1a8a20ac6839", "is_reserved": 0, "rental_uris": {"android": "https://dc.lft.to/lastmile_qr_scan", "ios": "https://dc.lft.to/lastmile_qr_scan"}, "fusion_lon": 0.0}, {"lat": 38.901557333333336, "is_disabled": 0, "type": "electric_scooter", "lon": -77.0385795, "bike_id": "4bce599e7a8f0335641afbbd1929fb35", "fusion_lat": 0.0, "name": "4bce599e7a8f0335641afbbd1929fb35", "is_reserved": 0, "rental_uris": {"android": "https://dc.lft.to/lastmile_qr_scan", "ios": "https://dc.lft.to/lastmile_qr_scan"}, "fusion_lon": 0.0}, {"lat": 38.865207, "is_disabled": 0, "type": "electric_scooter", "lon": -76.9902575, "bike_id": "727f87bc5889f2adc8b53d632bce6159", "fusion_lat": 0.0, "name": "727f87bc5889f2adc8b53d632bce6159", "is_reserved": 0, "rental_uris": {"android": "https://dc.lft.to/lastmile_qr_scan", "ios": "https://dc.lft.to/lastmile_qr_scan"}, "fusion_lon": 0.0}, {"lat": 38.914205, "is_disabled": 0, "type": "electric_scooter", "lon": -77.03183866666667, "bike_id": "caa2fb03114fbe0bb2ccb0e624f0c120", "fusion_lat": 0.0, "name": "caa2fb03114fbe0bb2ccb0e624f0c120", "is_reserved": 0, "rental_uris": {"android": "https://dc.lft.to/lastmile_qr_scan", "ios": "https://dc.lft.to/lastmile_qr_scan"}, "fusion_lon": 0.0}, {"lat": 38.9028485, "is_disabled": 0, "type": "electric_scooter", "lon": -77.03642383333333, "bike_id": "e8ea1125fe349bcc3f01d37795ff1990", "fusion_lat": 0.0, "name": "e8ea1125fe349bcc3f01d37795ff1990", "is_reserved": 0, "rental_uris": {"android": "https://dc.lft.to/lastmile_qr_scan", "ios": "https://dc.lft.to/lastmile_qr_scan"}, "fusion_lon": 0.0}, {"lat": 38.93210533333333, "is_disabled": 0, "type": "electric_scooter", "lon": -76.977657, "bike_id": "a9c3ffa45ec84494450d88a168606e0a", "fusion_lat": 0.0, "name": "a9c3ffa45ec84494450d88a168606e0a", "is_reserved": 0, "rental_uris": {"android": "https://dc.lft.to/lastmile_qr_scan", "ios": "https://dc.lft.to/lastmile_qr_scan"}, "fusion_lon": 0.0}, {"lat": 38.9230995, "is_disabled": 0, "type": "electric_scooter", "lon": -77.03964083333334, "bike_id": "28608ee8f9c92e4c1400d3e87819caf4", "fusion_lat": 0.0, "name": "28608ee8f9c92e4c1400d3e87819caf4", "is_reserved": 0, "rental_uris": {"android": "https://dc.lft.to/lastmile_qr_scan", "ios": "https://dc.lft.to/lastmile_qr_scan"}, "fusion_lon": 0.0}, {"lat": 38.905336166666665, "is_disabled": 0, "type": "electric_scooter", "lon": -77.057114, "bike_id": "39353974bc962192ca8eca8d1f29a080", "fusion_lat": 0.0, "name": "39353974bc962192ca8eca8d1f29a080", "is_reserved": 0, "rental_uris": {"android": "https://dc.lft.to/lastmile_qr_scan", "ios": "https://dc.lft.to/lastmile_qr_scan"}, "fusion_lon": 0.0}, {"lat": 38.92066966666667, "is_disabled": 0, "type": "electric_scooter", "lon": -77.03173816666667, "bike_id": "c2d3bb876b8d345c3dc29f8d4c5da750", "fusion_lat": 0.0, "name": "c2d3bb876b8d345c3dc29f8d4c5da750", "is_reserved": 0, "rental_uris": {"android": "https://dc.lft.to/lastmile_qr_scan", "ios": "https://dc.lft.to/lastmile_qr_scan"}, "fusion_lon": 0.0}, {"lat": 38.9141175, "is_disabled": 0, "type": "electric_scooter", "lon": -77.02915666666667, "bike_id": "991963b70556e78be3bcec2d591043fe", "fusion_lat": 0.0, "name": "991963b70556e78be3bcec2d591043fe", "is_reserved": 0, "rental_uris": {"android": "https://dc.lft.to/lastmile_qr_scan", "ios": "https://dc.lft.to/lastmile_qr_scan"}, "fusion_lon": 0.0}, {"lat": 38.859238, "is_disabled": 0, "type": "electric_scooter", "lon": -76.9897935, "bike_id": "c0daa5d65be0011e1330fc24865e6a65", "fusion_lat": 0.0, "name": "c0daa5d65be0011e1330fc24865e6a65", "is_reserved": 0, "rental_uris": {"android": "https://dc.lft.to/lastmile_qr_scan", "ios": "https://dc.lft.to/lastmile_qr_scan"}, "fusion_lon": 0.0}, {"lat": 38.93059, "is_disabled": 0, "type": "electric_scooter", "lon": -77.04033083333333, "bike_id": "4f9d957d6fdab955c1e704feaee31116", "fusion_lat": 0.0, "name": "4f9d957d6fdab955c1e704feaee31116", "is_reserved": 0, "rental_uris": {"android": "https://dc.lft.to/lastmile_qr_scan", "ios": "https://dc.lft.to/lastmile_qr_scan"}, "fusion_lon": 0.0}, {"lat": 38.9135935, "is_disabled": 0, "type": "electric_scooter", "lon": -77.06918683333333, "bike_id": "760b7fb62caf15c853a4a1193627292d", "fusion_lat": 0.0, "name": "760b7fb62caf15c853a4a1193627292d", "is_reserved": 0, "rental_uris": {"android": "https://dc.lft.to/lastmile_qr_scan", "ios": "https://dc.lft.to/lastmile_qr_scan"}, "fusion_lon": 0.0}, {"lat": 38.918145, "is_disabled": 0, "type": "electric_scooter", "lon": -77.0391355, "bike_id": "c10397ef8cf358ccd63b5c3fd46979da", "fusion_lat": 0.0, "name": "c10397ef8cf358ccd63b5c3fd46979da", "is_reserved": 0, "rental_uris": {"android": "https://dc.lft.to/lastmile_qr_scan", "ios": "https://dc.lft.to/lastmile_qr_scan"}, "fusion_lon": 0.0}, {"lat": 38.914234, "is_disabled": 0, "type": "electric_scooter", "lon": -77.02202766666667, "bike_id": "b03c85594cb8b86be871eb9b185b85db", "fusion_lat": 0.0, "name": "b03c85594cb8b86be871eb9b185b85db", "is_reserved": 0, "rental_uris": {"android": "https://dc.lft.to/lastmile_qr_scan", "ios": "https://dc.lft.to/lastmile_qr_scan"}, "fusion_lon": 0.0}, {"lat": 38.90857283333333, "is_disabled": 0, "type": "electric_scooter", "lon": -77.02294583333334, "bike_id": "96d51ac6363e7f9b4d44d997d98826b5", "fusion_lat": 0.0, "name": "96d51ac6363e7f9b4d44d997d98826b5", "is_reserved": 0, "rental_uris": {"android": "https://dc.lft.to/lastmile_qr_scan", "ios": "https://dc.lft.to/lastmile_qr_scan"}, "fusion_lon": 0.0}, {"lat": 38.903819666666664, "is_disabled": 0, "type": "electric_scooter", "lon": -77.03988683333333, "bike_id": "e20f5c088e1099c20f58666b7efb8cd3", "fusion_lat": 0.0, "name": "e20f5c088e1099c20f58666b7efb8cd3", "is_reserved": 0, "rental_uris": {"android": "https://dc.lft.to/lastmile_qr_scan", "ios": "https://dc.lft.to/lastmile_qr_scan"}, "fusion_lon": 0.0}, {"lat": 38.907719, "is_disabled": 0, "type": "electric_scooter", "lon": -76.98304483333334, "bike_id": "4052a0123d64377e2cb4f0d9814b1a51", "fusion_lat": 0.0, "name": "4052a0123d64377e2cb4f0d9814b1a51", "is_reserved": 0, "rental_uris": {"android": "https://dc.lft.to/lastmile_qr_scan", "ios": "https://dc.lft.to/lastmile_qr_scan"}, "fusion_lon": 0.0}, {"lat": 38.89743133333333, "is_disabled": 0, "type": "electric_scooter", "lon": -77.02492333333333, "bike_id": "16c8a81772c886d573e47da6d9eed7fb", "fusion_lat": 0.0, "name": "16c8a81772c886d573e47da6d9eed7fb", "is_reserved": 0, "rental_uris": {"android": "https://dc.lft.to/lastmile_qr_scan", "ios": "https://dc.lft.to/lastmile_qr_scan"}, "fusion_lon": 0.0}, {"lat": 38.91696916666667, "is_disabled": 0, "type": "electric_scooter", "lon": -77.03768183333334, "bike_id": "d7b22fde6dc1f2b62d4020c02f8e85bb", "fusion_lat": 0.0, "name": "d7b22fde6dc1f2b62d4020c02f8e85bb", "is_reserved": 0, "rental_uris": {"android": "https://dc.lft.to/lastmile_qr_scan", "ios": "https://dc.lft.to/lastmile_qr_scan"}, "fusion_lon": 0.0}, {"lat": 38.97279, "is_disabled": 0, "type": "electric_bike", "lon": -77.036298, "bike_id": "69b4300503ad795fed249fac0659099e", "fusion_lat": 0.0, "name": "69b4300503ad795fed249fac0659099e", "is_reserved": 0, "rental_uris": {"android": "https://dc.lft.to/lastmile_qr_scan", "ios": "https://dc.lft.to/lastmile_qr_scan"}, "fusion_lon": 0.0}, {"lat": 38.86745416666667, "is_disabled": 0, "type": "electric_scooter", "lon": -76.97662583333333, "bike_id": "cf5a44944fd3b8bb058caa3853e9e8b3", "fusion_lat": 0.0, "name": "cf5a44944fd3b8bb058caa3853e9e8b3", "is_reserved": 0, "rental_uris": {"android": "https://dc.lft.to/lastmile_qr_scan", "ios": "https://dc.lft.to/lastmile_qr_scan"}, "fusion_lon": 0.0}, {"lat": 38.951853166666666, "is_disabled": 0, "type": "electric_bike", "lon": -76.93542, "bike_id": "2da0aa94036241f8850eed177e1405bb", "fusion_lat": 0.0, "name": "2da0aa94036241f8850eed177e1405bb", "is_reserved": 0, "rental_uris": {"android": "https://dc.lft.to/lastmile_qr_scan", "ios": "https://dc.lft.to/lastmile_qr_scan"}, "fusion_lon": 0.0}, {"lat": 38.8625215, "is_disabled": 0, "type": "electric_scooter", "lon": -76.98696216666667, "bike_id": "ddeda39d9b016806ad3e1fd6dd27bd90", "fusion_lat": 0.0, "name": "ddeda39d9b016806ad3e1fd6dd27bd90", "is_reserved": 0, "rental_uris": {"android": "https://dc.lft.to/lastmile_qr_scan", "ios": "https://dc.lft.to/lastmile_qr_scan"}, "fusion_lon": 0.0}, {"lat": 38.902494833333336, "is_disabled": 0, "type": "electric_scooter", "lon": -77.0183605, "bike_id": "25077e97c68515d27524441aa35161d9", "fusion_lat": 0.0, "name": "25077e97c68515d27524441aa35161d9", "is_reserved": 0, "rental_uris": {"android": "https://dc.lft.to/lastmile_qr_scan", "ios": "https://dc.lft.to/lastmile_qr_scan"}, "fusion_lon": 0.0}, {"lat": 38.93210883333333, "is_disabled": 0, "type": "electric_scooter", "lon": -77.08491116666667, "bike_id": "b70a4f3297abf85bc02f33892b97dd82", "fusion_lat": 0.0, "name": "b70a4f3297abf85bc02f33892b97dd82", "is_reserved": 0, "rental_uris": {"android": "https://dc.lft.to/lastmile_qr_scan", "ios": "https://dc.lft.to/lastmile_qr_scan"}, "fusion_lon": 0.0}, {"lat": 38.87733466666667, "is_disabled": 0, "type": "electric_bike", "lon": -77.118492, "bike_id": "553a50ea503ee8d11e66de5062752540", "fusion_lat": 0.0, "name": "553a50ea503ee8d11e66de5062752540", "is_reserved": 0, "rental_uris": {"android": "https://dc.lft.to/lastmile_qr_scan", "ios": "https://dc.lft.to/lastmile_qr_scan"}, "fusion_lon": 0.0}, {"lat": 38.946321833333336, "is_disabled": 0, "type": "electric_scooter", "lon": -77.01843016666666, "bike_id": "209d77fa0be77a37455d57d2a1c4b963", "fusion_lat": 0.0, "name": "209d77fa0be77a37455d57d2a1c4b963", "is_reserved": 0, "rental_uris": {"android": "https://dc.lft.to/lastmile_qr_scan", "ios": "https://dc.lft.to/lastmile_qr_scan"}, "fusion_lon": 0.0}, {"lat": 38.90287466666667, "is_disabled": 0, "type": "electric_scooter", "lon": -77.06353883333334, "bike_id": "1fee9fbbd9a63e0a0d7776a6ffe1a521", "fusion_lat": 0.0, "name": "1fee9fbbd9a63e0a0d7776a6ffe1a521", "is_reserved": 0, "rental_uris": {"android": "https://dc.lft.to/lastmile_qr_scan", "ios": "https://dc.lft.to/lastmile_qr_scan"}, "fusion_lon": 0.0}, {"lat": 38.93113116666667, "is_disabled": 0, "type": "electric_scooter", "lon": -77.03393233333334, "bike_id": "e6b845f2d0ab41443f4f8695159396ba", "fusion_lat": 0.0, "name": "e6b845f2d0ab41443f4f8695159396ba", "is_reserved": 0, "rental_uris": {"android": "https://dc.lft.to/lastmile_qr_scan", "ios": "https://dc.lft.to/lastmile_qr_scan"}, "fusion_lon": 0.0}, {"lat": 38.9117165, "is_disabled": 0, "type": "electric_scooter", "lon": -77.038494, "bike_id": "5b0970c5d0cd4a109357077af93cbbb3", "fusion_lat": 0.0, "name": "5b0970c5d0cd4a109357077af93cbbb3", "is_reserved": 0, "rental_uris": {"android": "https://dc.lft.to/lastmile_qr_scan", "ios": "https://dc.lft.to/lastmile_qr_scan"}, "fusion_lon": 0.0}, {"lat": 38.911835333333336, "is_disabled": 0, "type": "electric_scooter", "lon": -77.04326033333334, "bike_id": "696f0cb1703b35cbb31cdca79fa9e4c2", "fusion_lat": 0.0, "name": "696f0cb1703b35cbb31cdca79fa9e4c2", "is_reserved": 0, "rental_uris": {"android": "https://dc.lft.to/lastmile_qr_scan", "ios": "https://dc.lft.to/lastmile_qr_scan"}, "fusion_lon": 0.0}, {"lat": 38.9170225, "is_disabled": 0, "type": "electric_scooter", "lon": -77.0246505, "bike_id": "db49b4cf498fc92e099863c9006149eb", "fusion_lat": 0.0, "name": "db49b4cf498fc92e099863c9006149eb", "is_reserved": 0, "rental_uris": {"android": "https://dc.lft.to/lastmile_qr_scan", "ios": "https://dc.lft.to/lastmile_qr_scan"}, "fusion_lon": 0.0}, {"lat": 38.92068716666667, "is_disabled": 0, "type": "electric_scooter", "lon": -77.01427383333333, "bike_id": "afb6c6f1b478892154931059dca6c6cb", "fusion_lat": 0.0, "name": "afb6c6f1b478892154931059dca6c6cb", "is_reserved": 0, "rental_uris": {"android": "https://dc.lft.to/lastmile_qr_scan", "ios": "https://dc.lft.to/lastmile_qr_scan"}, "fusion_lon": 0.0}, {"lat": 38.925672666666664, "is_disabled": 0, "type": "electric_scooter", "lon": -77.03770833333333, "bike_id": "bcb479abd19073ca2fdfda9e12a20f02", "fusion_lat": 0.0, "name": "bcb479abd19073ca2fdfda9e12a20f02", "is_reserved": 0, "rental_uris": {"android": "https://dc.lft.to/lastmile_qr_scan", "ios": "https://dc.lft.to/lastmile_qr_scan"}, "fusion_lon": 0.0}, {"lat": 38.84112233333333, "is_disabled": 0, "type": "electric_bike", "lon": -77.08946733333333, "bike_id": "1a3b91360031d64771ccb4b6de960c57", "fusion_lat": 0.0, "name": "1a3b91360031d64771ccb4b6de960c57", "is_reserved": 0, "rental_uris": {"android": "https://dc.lft.to/lastmile_qr_scan", "ios": "https://dc.lft.to/lastmile_qr_scan"}, "fusion_lon": 0.0}, {"lat": 38.934686666666664, "is_disabled": 0, "type": "electric_scooter", "lon": -77.0241575, "bike_id": "a109c4542a312f44304e3f8c90a3e10c", "fusion_lat": 0.0, "name": "a109c4542a312f44304e3f8c90a3e10c", "is_reserved": 0, "rental_uris": {"android": "https://dc.lft.to/lastmile_qr_scan", "ios": "https://dc.lft.to/lastmile_qr_scan"}, "fusion_lon": 0.0}, {"lat": 38.92115483333333, "is_disabled": 0, "type": "electric_bike", "lon": -76.985698, "bike_id": "9fb8c758c1b814a10660e9d156da9783", "fusion_lat": 0.0, "name": "9fb8c758c1b814a10660e9d156da9783", "is_reserved": 0, "rental_uris": {"android": "https://dc.lft.to/lastmile_qr_scan", "ios": "https://dc.lft.to/lastmile_qr_scan"}, "fusion_lon": 0.0}, {"lat": 38.89350366666667, "is_disabled": 0, "type": "electric_scooter", "lon": -77.041351, "bike_id": "9e65e50c984ba04a4f77fd10b87b8c97", "fusion_lat": 0.0, "name": "9e65e50c984ba04a4f77fd10b87b8c97", "is_reserved": 0, "rental_uris": {"android": "https://dc.lft.to/lastmile_qr_scan", "ios": "https://dc.lft.to/lastmile_qr_scan"}, "fusion_lon": 0.0}, {"lat": 38.91282983333333, "is_disabled": 0, "type": "electric_scooter", "lon": -77.03196916666667, "bike_id": "953986d852485ee91ae036ab97f6666f", "fusion_lat": 0.0, "name": "953986d852485ee91ae036ab97f6666f", "is_reserved": 0, "rental_uris": {"android": "https://dc.lft.to/lastmile_qr_scan", "ios": "https://dc.lft.to/lastmile_qr_scan"}, "fusion_lon": 0.0}, {"lat": 38.95905333333333, "is_disabled": 0, "type": "electric_bike", "lon": -76.9248465, "bike_id": "52403a6271638e12d782c515e83a882b", "fusion_lat": 0.0, "name": "52403a6271638e12d782c515e83a882b", "is_reserved": 0, "rental_uris": {"android": "https://dc.lft.to/lastmile_qr_scan", "ios": "https://dc.lft.to/lastmile_qr_scan"}, "fusion_lon": 0.0}, {"lat": 38.9298005, "is_disabled": 0, "type": "electric_bike", "lon": -77.02618983333333, "bike_id": "e5616b37e84116cf27369576fbb954c4", "fusion_lat": 0.0, "name": "e5616b37e84116cf27369576fbb954c4", "is_reserved": 0, "rental_uris": {"android": "https://dc.lft.to/lastmile_qr_scan", "ios": "https://dc.lft.to/lastmile_qr_scan"}, "fusion_lon": 0.0}, {"lat": 38.9141915, "is_disabled": 0, "type": "electric_scooter", "lon": -77.031842, "bike_id": "93a4e0f1f4b218b480df7c797982b709", "fusion_lat": 0.0, "name": "93a4e0f1f4b218b480df7c797982b709", "is_reserved": 0, "rental_uris": {"android": "https://dc.lft.to/lastmile_qr_scan", "ios": "https://dc.lft.to/lastmile_qr_scan"}, "fusion_lon": 0.0}, {"lat": 38.906774, "is_disabled": 0, "type": "electric_scooter", "lon": -77.02402316666667, "bike_id": "65886b23cf248cdcf5257500c5d0db6f", "fusion_lat": 0.0, "name": "65886b23cf248cdcf5257500c5d0db6f", "is_reserved": 0, "rental_uris": {"android": "https://dc.lft.to/lastmile_qr_scan", "ios": "https://dc.lft.to/lastmile_qr_scan"}, "fusion_lon": 0.0}, {"lat": 38.91749183333334, "is_disabled": 0, "type": "electric_scooter", "lon": -77.032046, "bike_id": "d271f620498ea3298a970b7af329495f", "fusion_lat": 0.0, "name": "d271f620498ea3298a970b7af329495f", "is_reserved": 0, "rental_uris": {"android": "https://dc.lft.to/lastmile_qr_scan", "ios": "https://dc.lft.to/lastmile_qr_scan"}, "fusion_lon": 0.0}, {"lat": 38.902522, "is_disabled": 0, "type": "electric_scooter", "lon": -77.05260633333333, "bike_id": "8f76075c7c3fd96a07a99cb9efdf5eb2", "fusion_lat": 0.0, "name": "8f76075c7c3fd96a07a99cb9efdf5eb2", "is_reserved": 0, "rental_uris": {"android": "https://dc.lft.to/lastmile_qr_scan", "ios": "https://dc.lft.to/lastmile_qr_scan"}, "fusion_lon": 0.0}, {"lat": 38.884803166666664, "is_disabled": 0, "type": "electric_scooter", "lon": -76.945239, "bike_id": "1bd02dc254bb81c3f2f48056a87cc149", "fusion_lat": 0.0, "name": "1bd02dc254bb81c3f2f48056a87cc149", "is_reserved": 0, "rental_uris": {"android": "https://dc.lft.to/lastmile_qr_scan", "ios": "https://dc.lft.to/lastmile_qr_scan"}, "fusion_lon": 0.0}, {"lat": 38.930788, "is_disabled": 0, "type": "electric_scooter", "lon": -77.07763416666667, "bike_id": "ad9663ed4a8e34fcb69ed0af6ba69d1f", "fusion_lat": 0.0, "name": "ad9663ed4a8e34fcb69ed0af6ba69d1f", "is_reserved": 0, "rental_uris": {"android": "https://dc.lft.to/lastmile_qr_scan", "ios": "https://dc.lft.to/lastmile_qr_scan"}, "fusion_lon": 0.0}, {"lat": 38.9002585, "is_disabled": 0, "type": "electric_scooter", "lon": -76.98368966666666, "bike_id": "d78df87631d9d99a02f4d5db3d616681", "fusion_lat": 0.0, "name": "d78df87631d9d99a02f4d5db3d616681", "is_reserved": 0, "rental_uris": {"android": "https://dc.lft.to/lastmile_qr_scan", "ios": "https://dc.lft.to/lastmile_qr_scan"}, "fusion_lon": 0.0}, {"lat": 38.91742466666667, "is_disabled": 0, "type": "electric_scooter", "lon": -77.03186683333334, "bike_id": "eeeb8227d40f4aa8aa98d61308441dd5", "fusion_lat": 0.0, "name": "eeeb8227d40f4aa8aa98d61308441dd5", "is_reserved": 0, "rental_uris": {"android": "https://dc.lft.to/lastmile_qr_scan", "ios": "https://dc.lft.to/lastmile_qr_scan"}, "fusion_lon": 0.0}, {"lat": 38.91780033333333, "is_disabled": 0, "type": "electric_scooter", "lon": -77.02230066666667, "bike_id": "188e0f8ea1d6b1f55ceb79c86214d728", "fusion_lat": 0.0, "name": "188e0f8ea1d6b1f55ceb79c86214d728", "is_reserved": 0, "rental_uris": {"android": "https://dc.lft.to/lastmile_qr_scan", "ios": "https://dc.lft.to/lastmile_qr_scan"}, "fusion_lon": 0.0}, {"lat": 38.91819266666667, "is_disabled": 0, "type": "electric_scooter", "lon": -77.03183083333333, "bike_id": "bce3141c3e75531ce6f456903b73c225", "fusion_lat": 0.0, "name": "bce3141c3e75531ce6f456903b73c225", "is_reserved": 0, "rental_uris": {"android": "https://dc.lft.to/lastmile_qr_scan", "ios": "https://dc.lft.to/lastmile_qr_scan"}, "fusion_lon": 0.0}, {"lat": 38.93425083333333, "is_disabled": 0, "type": "electric_scooter", "lon": -76.993426, "bike_id": "4a0a5790060695929b4c5128e2b553b3", "fusion_lat": 0.0, "name": "4a0a5790060695929b4c5128e2b553b3", "is_reserved": 0, "rental_uris": {"android": "https://dc.lft.to/lastmile_qr_scan", "ios": "https://dc.lft.to/lastmile_qr_scan"}, "fusion_lon": 0.0}, {"lat": 38.9314005, "is_disabled": 0, "type": "electric_scooter", "lon": -77.0214405, "bike_id": "b14f40fe88a12c55d52bbdb137a7d294", "fusion_lat": 0.0, "name": "b14f40fe88a12c55d52bbdb137a7d294", "is_reserved": 0, "rental_uris": {"android": "https://dc.lft.to/lastmile_qr_scan", "ios": "https://dc.lft.to/lastmile_qr_scan"}, "fusion_lon": 0.0}, {"lat": 38.9056235, "is_disabled": 0, "type": "electric_scooter", "lon": -77.01306366666667, "bike_id": "d4a6e00b2e89f646c484f29ccca842d9", "fusion_lat": 0.0, "name": "d4a6e00b2e89f646c484f29ccca842d9", "is_reserved": 0, "rental_uris": {"android": "https://dc.lft.to/lastmile_qr_scan", "ios": "https://dc.lft.to/lastmile_qr_scan"}, "fusion_lon": 0.0}, {"lat": 38.90270533333333, "is_disabled": 0, "type": "electric_scooter", "lon": -77.06004116666666, "bike_id": "7b3a055e0533f4110d99a4b96d1fdaa4", "fusion_lat": 0.0, "name": "7b3a055e0533f4110d99a4b96d1fdaa4", "is_reserved": 0, "rental_uris": {"android": "https://dc.lft.to/lastmile_qr_scan", "ios": "https://dc.lft.to/lastmile_qr_scan"}, "fusion_lon": 0.0}, {"lat": 38.867008, "is_disabled": 0, "type": "electric_scooter", "lon": -76.98708533333334, "bike_id": "5653d50c54cb8059c65560eed624e5ff", "fusion_lat": 0.0, "name": "5653d50c54cb8059c65560eed624e5ff", "is_reserved": 0, "rental_uris": {"android": "https://dc.lft.to/lastmile_qr_scan", "ios": "https://dc.lft.to/lastmile_qr_scan"}, "fusion_lon": 0.0}, {"lat": 38.909426833333335, "is_disabled": 0, "type": "electric_scooter", "lon": -76.98959166666667, "bike_id": "7453b4ccf555261b61091c4b81b47138", "fusion_lat": 0.0, "name": "7453b4ccf555261b61091c4b81b47138", "is_reserved": 0, "rental_uris": {"android": "https://dc.lft.to/lastmile_qr_scan", "ios": "https://dc.lft.to/lastmile_qr_scan"}, "fusion_lon": 0.0}, {"lat": 38.898364666666666, "is_disabled": 0, "type": "electric_scooter", "lon": -77.0261255, "bike_id": "23fbe754985176b826bce4cda3f34042", "fusion_lat": 0.0, "name": "23fbe754985176b826bce4cda3f34042", "is_reserved": 0, "rental_uris": {"android": "https://dc.lft.to/lastmile_qr_scan", "ios": "https://dc.lft.to/lastmile_qr_scan"}, "fusion_lon": 0.0}, {"lat": 38.957835, "is_disabled": 0, "type": "electric_bike", "lon": -77.02752716666667, "bike_id": "d1e3a68c8081639f4d8ce043fb1b9dbb", "fusion_lat": 0.0, "name": "d1e3a68c8081639f4d8ce043fb1b9dbb", "is_reserved": 0, "rental_uris": {"android": "https://dc.lft.to/lastmile_qr_scan", "ios": "https://dc.lft.to/lastmile_qr_scan"}, "fusion_lon": 0.0}, {"lat": 38.90083633333333, "is_disabled": 0, "type": "electric_scooter", "lon": -77.02712166666667, "bike_id": "373b945760c385b950c7acf630e8dd90", "fusion_lat": 0.0, "name": "373b945760c385b950c7acf630e8dd90", "is_reserved": 0, "rental_uris": {"android": "https://dc.lft.to/lastmile_qr_scan", "ios": "https://dc.lft.to/lastmile_qr_scan"}, "fusion_lon": 0.0}, {"lat": 38.90353116666667, "is_disabled": 0, "type": "electric_scooter", "lon": -77.01081833333333, "bike_id": "ec73c2c34dff1dc5ea948daa6b248cd5", "fusion_lat": 0.0, "name": "ec73c2c34dff1dc5ea948daa6b248cd5", "is_reserved": 0, "rental_uris": {"android": "https://dc.lft.to/lastmile_qr_scan", "ios": "https://dc.lft.to/lastmile_qr_scan"}, "fusion_lon": 0.0}, {"lat": 38.900139333333335, "is_disabled": 0, "type": "electric_scooter", "lon": -76.99901916666667, "bike_id": "49a07ab2172fca777f6ace702059051b", "fusion_lat": 0.0, "name": "49a07ab2172fca777f6ace702059051b", "is_reserved": 0, "rental_uris": {"android": "https://dc.lft.to/lastmile_qr_scan", "ios": "https://dc.lft.to/lastmile_qr_scan"}, "fusion_lon": 0.0}, {"lat": 38.8403385, "is_disabled": 0, "type": "electric_bike", "lon": -76.97576033333333, "bike_id": "afaded28c13dc88a1de6b2e8f2b418f9", "fusion_lat": 0.0, "name": "afaded28c13dc88a1de6b2e8f2b418f9", "is_reserved": 0, "rental_uris": {"android": "https://dc.lft.to/lastmile_qr_scan", "ios": "https://dc.lft.to/lastmile_qr_scan"}, "fusion_lon": 0.0}, {"lat": 38.9308595, "is_disabled": 0, "type": "electric_scooter", "lon": -77.07749016666666, "bike_id": "49a3067d3e4cfbff2d0a7aef9bfa0564", "fusion_lat": 0.0, "name": "49a3067d3e4cfbff2d0a7aef9bfa0564", "is_reserved": 0, "rental_uris": {"android": "https://dc.lft.to/lastmile_qr_scan", "ios": "https://dc.lft.to/lastmile_qr_scan"}, "fusion_lon": 0.0}, {"lat": 38.90048633333333, "is_disabled": 0, "type": "electric_scooter", "lon": -77.002194, "bike_id": "f7bd1decdd8c9df814ad77a84e02cbeb", "fusion_lat": 0.0, "name": "f7bd1decdd8c9df814ad77a84e02cbeb", "is_reserved": 0, "rental_uris": {"android": "https://dc.lft.to/lastmile_qr_scan", "ios": "https://dc.lft.to/lastmile_qr_scan"}, "fusion_lon": 0.0}, {"lat": 38.83673433333333, "is_disabled": 0, "type": "electric_scooter", "lon": -77.00571883333333, "bike_id": "f794cafe09abe41cd88af6371a02f623", "fusion_lat": 0.0, "name": "f794cafe09abe41cd88af6371a02f623", "is_reserved": 0, "rental_uris": {"android": "https://dc.lft.to/lastmile_qr_scan", "ios": "https://dc.lft.to/lastmile_qr_scan"}, "fusion_lon": 0.0}, {"lat": 38.907559666666664, "is_disabled": 0, "type": "electric_scooter", "lon": -77.03441016666666, "bike_id": "929c603d2290b0d701303cc11f58e2bf", "fusion_lat": 0.0, "name": "929c603d2290b0d701303cc11f58e2bf", "is_reserved": 0, "rental_uris": {"android": "https://dc.lft.to/lastmile_qr_scan", "ios": "https://dc.lft.to/lastmile_qr_scan"}, "fusion_lon": 0.0}, {"lat": 38.908662, "is_disabled": 0, "type": "electric_scooter", "lon": -77.04582133333334, "bike_id": "c50c428b48d14f8a34669d96b4e222ed", "fusion_lat": 0.0, "name": "c50c428b48d14f8a34669d96b4e222ed", "is_reserved": 0, "rental_uris": {"android": "https://dc.lft.to/lastmile_qr_scan", "ios": "https://dc.lft.to/lastmile_qr_scan"}, "fusion_lon": 0.0}, {"lat": 38.89980333333333, "is_disabled": 0, "type": "electric_scooter", "lon": -76.99493333333334, "bike_id": "4cc8dd31b262f6224e1469787b2c4449", "fusion_lat": 0.0, "name": "4cc8dd31b262f6224e1469787b2c4449", "is_reserved": 0, "rental_uris": {"android": "https://dc.lft.to/lastmile_qr_scan", "ios": "https://dc.lft.to/lastmile_qr_scan"}, "fusion_lon": 0.0}, {"lat": 38.908462666666665, "is_disabled": 0, "type": "electric_scooter", "lon": -77.04769933333333, "bike_id": "647d1460ee2949a63a989e6f2783c9ab", "fusion_lat": 0.0, "name": "647d1460ee2949a63a989e6f2783c9ab", "is_reserved": 0, "rental_uris": {"android": "https://dc.lft.to/lastmile_qr_scan", "ios": "https://dc.lft.to/lastmile_qr_scan"}, "fusion_lon": 0.0}, {"lat": 38.8701595, "is_disabled": 0, "type": "electric_bike", "lon": -76.96016766666666, "bike_id": "920ec496c85246b3cb8248283eb688f3", "fusion_lat": 0.0, "name": "920ec496c85246b3cb8248283eb688f3", "is_reserved": 0, "rental_uris": {"android": "https://dc.lft.to/lastmile_qr_scan", "ios": "https://dc.lft.to/lastmile_qr_scan"}, "fusion_lon": 0.0}, {"lat": 38.894996166666665, "is_disabled": 0, "type": "electric_scooter", "lon": -77.00325983333333, "bike_id": "ef98b12a97ad258d0e16ff174015bb71", "fusion_lat": 0.0, "name": "ef98b12a97ad258d0e16ff174015bb71", "is_reserved": 0, "rental_uris": {"android": "https://dc.lft.to/lastmile_qr_scan", "ios": "https://dc.lft.to/lastmile_qr_scan"}, "fusion_lon": 0.0}, {"lat": 38.9226645, "is_disabled": 0, "type": "electric_scooter", "lon": -77.02236233333333, "bike_id": "b2098bb81e8f913eb8ab38c721eff68d", "fusion_lat": 0.0, "name": "b2098bb81e8f913eb8ab38c721eff68d", "is_reserved": 0, "rental_uris": {"android": "https://dc.lft.to/lastmile_qr_scan", "ios": "https://dc.lft.to/lastmile_qr_scan"}, "fusion_lon": 0.0}, {"lat": 38.87065233333333, "is_disabled": 0, "type": "electric_scooter", "lon": -77.0083915, "bike_id": "97745322327f66a5c5972cbb44558ecd", "fusion_lat": 0.0, "name": "97745322327f66a5c5972cbb44558ecd", "is_reserved": 0, "rental_uris": {"android": "https://dc.lft.to/lastmile_qr_scan", "ios": "https://dc.lft.to/lastmile_qr_scan"}, "fusion_lon": 0.0}, {"lat": 38.8819035, "is_disabled": 0, "type": "electric_scooter", "lon": -76.99608083333334, "bike_id": "607934c0f6bbe6bcd9b51a437ae79c32", "fusion_lat": 0.0, "name": "607934c0f6bbe6bcd9b51a437ae79c32", "is_reserved": 0, "rental_uris": {"android": "https://dc.lft.to/lastmile_qr_scan", "ios": "https://dc.lft.to/lastmile_qr_scan"}, "fusion_lon": 0.0}, {"lat": 38.9256545, "is_disabled": 0, "type": "electric_scooter", "lon": -77.04374016666667, "bike_id": "8fb3e8cf5b0ddf18e7605a959d0a43e7", "fusion_lat": 0.0, "name": "8fb3e8cf5b0ddf18e7605a959d0a43e7", "is_reserved": 0, "rental_uris": {"android": "https://dc.lft.to/lastmile_qr_scan", "ios": "https://dc.lft.to/lastmile_qr_scan"}, "fusion_lon": 0.0}, {"lat": 38.962043333333334, "is_disabled": 0, "type": "electric_bike", "lon": -77.0350775, "bike_id": "010b276effa1616838729a733a21ff77", "fusion_lat": 0.0, "name": "010b276effa1616838729a733a21ff77", "is_reserved": 0, "rental_uris": {"android": "https://dc.lft.to/lastmile_qr_scan", "ios": "https://dc.lft.to/lastmile_qr_scan"}, "fusion_lon": 0.0}, {"lat": 38.94118, "is_disabled": 0, "type": "electric_scooter", "lon": -77.00044516666667, "bike_id": "cd97aff36a172cb7b3f05d4e1d971434", "fusion_lat": 0.0, "name": "cd97aff36a172cb7b3f05d4e1d971434", "is_reserved": 0, "rental_uris": {"android": "https://dc.lft.to/lastmile_qr_scan", "ios": "https://dc.lft.to/lastmile_qr_scan"}, "fusion_lon": 0.0}, {"lat": 38.895532333333335, "is_disabled": 0, "type": "electric_scooter", "lon": -77.0036545, "bike_id": "80ebfd3e14f5adc5b809903e92fba923", "fusion_lat": 0.0, "name": "80ebfd3e14f5adc5b809903e92fba923", "is_reserved": 0, "rental_uris": {"android": "https://dc.lft.to/lastmile_qr_scan", "ios": "https://dc.lft.to/lastmile_qr_scan"}, "fusion_lon": 0.0}, {"lat": 38.90790966666667, "is_disabled": 0, "type": "electric_scooter", "lon": -77.01099866666667, "bike_id": "992d021bcd2558c5a10f0f10a5016863", "fusion_lat": 0.0, "name": "992d021bcd2558c5a10f0f10a5016863", "is_reserved": 0, "rental_uris": {"android": "https://dc.lft.to/lastmile_qr_scan", "ios": "https://dc.lft.to/lastmile_qr_scan"}, "fusion_lon": 0.0}, {"lat": 38.871668666666665, "is_disabled": 0, "type": "electric_scooter", "lon": -77.0134975, "bike_id": "18152b323040d64e8b5dbd7dacb03049", "fusion_lat": 0.0, "name": "18152b323040d64e8b5dbd7dacb03049", "is_reserved": 0, "rental_uris": {"android": "https://dc.lft.to/lastmile_qr_scan", "ios": "https://dc.lft.to/lastmile_qr_scan"}, "fusion_lon": 0.0}, {"lat": 38.90004833333333, "is_disabled": 0, "type": "electric_scooter", "lon": -77.03308266666667, "bike_id": "06ef554286bb1730419eec77e98d8e5c", "fusion_lat": 0.0, "name": "06ef554286bb1730419eec77e98d8e5c", "is_reserved": 0, "rental_uris": {"android": "https://dc.lft.to/lastmile_qr_scan", "ios": "https://dc.lft.to/lastmile_qr_scan"}, "fusion_lon": 0.0}, {"lat": 38.813458, "is_disabled": 0, "type": "electric_bike", "lon": -77.04920183333333, "bike_id": "ca25e197ff2e9790a8839077ebcae1ba", "fusion_lat": 0.0, "name": "ca25e197ff2e9790a8839077ebcae1ba", "is_reserved": 0, "rental_uris": {"android": "https://dc.lft.to/lastmile_qr_scan", "ios": "https://dc.lft.to/lastmile_qr_scan"}, "fusion_lon": 0.0}, {"lat": 38.89615916666666, "is_disabled": 0, "type": "electric_scooter", "lon": -76.9565405, "bike_id": "39da09911307db4e596e2d0fdf51ec3f", "fusion_lat": 0.0, "name": "39da09911307db4e596e2d0fdf51ec3f", "is_reserved": 0, "rental_uris": {"android": "https://dc.lft.to/lastmile_qr_scan", "ios": "https://dc.lft.to/lastmile_qr_scan"}, "fusion_lon": 0.0}, {"lat": 38.9257565, "is_disabled": 0, "type": "electric_scooter", "lon": -77.04004783333333, "bike_id": "192e1395831e067f3be14cfdd444b091", "fusion_lat": 0.0, "name": "192e1395831e067f3be14cfdd444b091", "is_reserved": 0, "rental_uris": {"android": "https://dc.lft.to/lastmile_qr_scan", "ios": "https://dc.lft.to/lastmile_qr_scan"}, "fusion_lon": 0.0}, {"lat": 38.949085333333336, "is_disabled": 0, "type": "electric_scooter", "lon": -77.06614683333333, "bike_id": "cf641badd50e5c81c7837b58547f0cb6", "fusion_lat": 0.0, "name": "cf641badd50e5c81c7837b58547f0cb6", "is_reserved": 0, "rental_uris": {"android": "https://dc.lft.to/lastmile_qr_scan", "ios": "https://dc.lft.to/lastmile_qr_scan"}, "fusion_lon": 0.0}, {"lat": 38.9112095, "is_disabled": 0, "type": "electric_scooter", "lon": -77.038123, "bike_id": "a628c01d29d24411c8b06d28fc5df0f3", "fusion_lat": 0.0, "name": "a628c01d29d24411c8b06d28fc5df0f3", "is_reserved": 0, "rental_uris": {"android": "https://dc.lft.to/lastmile_qr_scan", "ios": "https://dc.lft.to/lastmile_qr_scan"}, "fusion_lon": 0.0}, {"lat": 38.92132616666667, "is_disabled": 0, "type": "electric_scooter", "lon": -77.04216983333333, "bike_id": "49dfba37e845a250df624b8b948799cf", "fusion_lat": 0.0, "name": "49dfba37e845a250df624b8b948799cf", "is_reserved": 0, "rental_uris": {"android": "https://dc.lft.to/lastmile_qr_scan", "ios": "https://dc.lft.to/lastmile_qr_scan"}, "fusion_lon": 0.0}, {"lat": 38.853126833333334, "is_disabled": 0, "type": "electric_scooter", "lon": -76.9801955, "bike_id": "93569266eb5e04dde287534ba838eac6", "fusion_lat": 0.0, "name": "93569266eb5e04dde287534ba838eac6", "is_reserved": 0, "rental_uris": {"android": "https://dc.lft.to/lastmile_qr_scan", "ios": "https://dc.lft.to/lastmile_qr_scan"}, "fusion_lon": 0.0}, {"lat": 38.90432666666667, "is_disabled": 0, "type": "electric_scooter", "lon": -77.00209616666666, "bike_id": "31b0b81ef62a9385848762e1df4bbabb", "fusion_lat": 0.0, "name": "31b0b81ef62a9385848762e1df4bbabb", "is_reserved": 0, "rental_uris": {"android": "https://dc.lft.to/lastmile_qr_scan", "ios": "https://dc.lft.to/lastmile_qr_scan"}, "fusion_lon": 0.0}, {"lat": 38.907265333333335, "is_disabled": 0, "type": "electric_scooter", "lon": -77.02981633333333, "bike_id": "5c03ab92ebcdb0c25cb7ad4bac022511", "fusion_lat": 0.0, "name": "5c03ab92ebcdb0c25cb7ad4bac022511", "is_reserved": 0, "rental_uris": {"android": "https://dc.lft.to/lastmile_qr_scan", "ios": "https://dc.lft.to/lastmile_qr_scan"}, "fusion_lon": 0.0}, {"lat": 38.92514966666667, "is_disabled": 0, "type": "electric_scooter", "lon": -77.02354566666666, "bike_id": "d1341fc85765d5ce724a8fb83b917c81", "fusion_lat": 0.0, "name": "d1341fc85765d5ce724a8fb83b917c81", "is_reserved": 0, "rental_uris": {"android": "https://dc.lft.to/lastmile_qr_scan", "ios": "https://dc.lft.to/lastmile_qr_scan"}, "fusion_lon": 0.0}, {"lat": 38.912921, "is_disabled": 0, "type": "electric_scooter", "lon": -77.03856066666667, "bike_id": "e4bbb00a649a9188dffaf64578857eaa", "fusion_lat": 0.0, "name": "e4bbb00a649a9188dffaf64578857eaa", "is_reserved": 0, "rental_uris": {"android": "https://dc.lft.to/lastmile_qr_scan", "ios": "https://dc.lft.to/lastmile_qr_scan"}, "fusion_lon": 0.0}, {"lat": 38.895251, "is_disabled": 0, "type": "electric_scooter", "lon": -77.000575, "bike_id": "e60e5d2f6ccdefbd075299b41b091de6", "fusion_lat": 0.0, "name": "e60e5d2f6ccdefbd075299b41b091de6", "is_reserved": 0, "rental_uris": {"android": "https://dc.lft.to/lastmile_qr_scan", "ios": "https://dc.lft.to/lastmile_qr_scan"}, "fusion_lon": 0.0}, {"lat": 38.871475833333335, "is_disabled": 0, "type": "electric_bike", "lon": -76.93665416666667, "bike_id": "f7a15501a1d44d511ae396500e32b0b0", "fusion_lat": 0.0, "name": "f7a15501a1d44d511ae396500e32b0b0", "is_reserved": 0, "rental_uris": {"android": "https://dc.lft.to/lastmile_qr_scan", "ios": "https://dc.lft.to/lastmile_qr_scan"}, "fusion_lon": 0.0}, {"lat": 38.863657833333335, "is_disabled": 0, "type": "electric_scooter", "lon": -76.99029233333333, "bike_id": "4fede29f591b6268ab525363c0e75803", "fusion_lat": 0.0, "name": "4fede29f591b6268ab525363c0e75803", "is_reserved": 0, "rental_uris": {"android": "https://dc.lft.to/lastmile_qr_scan", "ios": "https://dc.lft.to/lastmile_qr_scan"}, "fusion_lon": 0.0}, {"lat": 38.9212565, "is_disabled": 0, "type": "electric_scooter", "lon": -77.03658066666667, "bike_id": "635017878bcbbbdca7533a62d5d5b8fe", "fusion_lat": 0.0, "name": "635017878bcbbbdca7533a62d5d5b8fe", "is_reserved": 0, "rental_uris": {"android": "https://dc.lft.to/lastmile_qr_scan", "ios": "https://dc.lft.to/lastmile_qr_scan"}, "fusion_lon": 0.0}, {"lat": 38.935784, "is_disabled": 0, "type": "electric_bike", "lon": -77.10682866666667, "bike_id": "1cfd5d23baa6169b34959e6386d5671f", "fusion_lat": 0.0, "name": "1cfd5d23baa6169b34959e6386d5671f", "is_reserved": 0, "rental_uris": {"android": "https://dc.lft.to/lastmile_qr_scan", "ios": "https://dc.lft.to/lastmile_qr_scan"}, "fusion_lon": 0.0}, {"lat": 38.908598833333336, "is_disabled": 0, "type": "electric_scooter", "lon": -76.99793266666667, "bike_id": "a0918fff8b0f910f9e0243bbc91e434c", "fusion_lat": 0.0, "name": "a0918fff8b0f910f9e0243bbc91e434c", "is_reserved": 0, "rental_uris": {"android": "https://dc.lft.to/lastmile_qr_scan", "ios": "https://dc.lft.to/lastmile_qr_scan"}, "fusion_lon": 0.0}, {"lat": 38.90331583333333, "is_disabled": 0, "type": "electric_scooter", "lon": -76.97593183333333, "bike_id": "2b9752b9f1ef28ca249b2bf0cbb082ae", "fusion_lat": 0.0, "name": "2b9752b9f1ef28ca249b2bf0cbb082ae", "is_reserved": 0, "rental_uris": {"android": "https://dc.lft.to/lastmile_qr_scan", "ios": "https://dc.lft.to/lastmile_qr_scan"}, "fusion_lon": 0.0}, {"lat": 38.949515166666664, "is_disabled": 0, "type": "electric_scooter", "lon": -77.01581133333333, "bike_id": "2cb307288b2f24a9d39f5e05c9117d58", "fusion_lat": 0.0, "name": "2cb307288b2f24a9d39f5e05c9117d58", "is_reserved": 0, "rental_uris": {"android": "https://dc.lft.to/lastmile_qr_scan", "ios": "https://dc.lft.to/lastmile_qr_scan"}, "fusion_lon": 0.0}, {"lat": 38.9173955, "is_disabled": 0, "type": "electric_scooter", "lon": -77.03185316666666, "bike_id": "f412324f90627611a9b033a523c949ce", "fusion_lat": 0.0, "name": "f412324f90627611a9b033a523c949ce", "is_reserved": 0, "rental_uris": {"android": "https://dc.lft.to/lastmile_qr_scan", "ios": "https://dc.lft.to/lastmile_qr_scan"}, "fusion_lon": 0.0}, {"lat": 38.909499333333336, "is_disabled": 0, "type": "electric_scooter", "lon": -77.04653916666666, "bike_id": "afd7be5dfa264f343bc524e00c6ae6c6", "fusion_lat": 0.0, "name": "afd7be5dfa264f343bc524e00c6ae6c6", "is_reserved": 0, "rental_uris": {"android": "https://dc.lft.to/lastmile_qr_scan", "ios": "https://dc.lft.to/lastmile_qr_scan"}, "fusion_lon": 0.0}, {"lat": 38.91264566666667, "is_disabled": 0, "type": "electric_scooter", "lon": -77.02253083333333, "bike_id": "ae30eb27dedf192812928232218f6d43", "fusion_lat": 0.0, "name": "ae30eb27dedf192812928232218f6d43", "is_reserved": 0, "rental_uris": {"android": "https://dc.lft.to/lastmile_qr_scan", "ios": "https://dc.lft.to/lastmile_qr_scan"}, "fusion_lon": 0.0}, {"lat": 38.908764, "is_disabled": 0, "type": "electric_scooter", "lon": -76.985167, "bike_id": "afaa7a6d5bff045f618a6d16222a2b57", "fusion_lat": 0.0, "name": "afaa7a6d5bff045f618a6d16222a2b57", "is_reserved": 0, "rental_uris": {"android": "https://dc.lft.to/lastmile_qr_scan", "ios": "https://dc.lft.to/lastmile_qr_scan"}, "fusion_lon": 0.0}, {"lat": 38.950000833333334, "is_disabled": 0, "type": "electric_scooter", "lon": -77.08187733333334, "bike_id": "8664fb06aae256422ed00732741635ed", "fusion_lat": 0.0, "name": "8664fb06aae256422ed00732741635ed", "is_reserved": 0, "rental_uris": {"android": "https://dc.lft.to/lastmile_qr_scan", "ios": "https://dc.lft.to/lastmile_qr_scan"}, "fusion_lon": 0.0}, {"lat": 38.92308416666667, "is_disabled": 0, "type": "electric_scooter", "lon": -77.04211883333333, "bike_id": "4925ec207796ece82acf1ddab4a60386", "fusion_lat": 0.0, "name": "4925ec207796ece82acf1ddab4a60386", "is_reserved": 0, "rental_uris": {"android": "https://dc.lft.to/lastmile_qr_scan", "ios": "https://dc.lft.to/lastmile_qr_scan"}, "fusion_lon": 0.0}, {"lat": 38.925617333333335, "is_disabled": 0, "type": "electric_scooter", "lon": -76.969368, "bike_id": "6ef532c7defa4e008df0b3d22b85513d", "fusion_lat": 0.0, "name": "6ef532c7defa4e008df0b3d22b85513d", "is_reserved": 0, "rental_uris": {"android": "https://dc.lft.to/lastmile_qr_scan", "ios": "https://dc.lft.to/lastmile_qr_scan"}, "fusion_lon": 0.0}, {"lat": 38.92092016666667, "is_disabled": 0, "type": "electric_scooter", "lon": -77.02542383333333, "bike_id": "8f92f818bf0ae1eb50403bd03d11b7b9", "fusion_lat": 0.0, "name": "8f92f818bf0ae1eb50403bd03d11b7b9", "is_reserved": 0, "rental_uris": {"android": "https://dc.lft.to/lastmile_qr_scan", "ios": "https://dc.lft.to/lastmile_qr_scan"}, "fusion_lon": 0.0}, {"lat": 38.93091533333333, "is_disabled": 0, "type": "electric_scooter", "lon": -77.02361833333333, "bike_id": "9febee97ff320d0dc523e4565f4f5ae8", "fusion_lat": 0.0, "name": "9febee97ff320d0dc523e4565f4f5ae8", "is_reserved": 0, "rental_uris": {"android": "https://dc.lft.to/lastmile_qr_scan", "ios": "https://dc.lft.to/lastmile_qr_scan"}, "fusion_lon": 0.0}, {"lat": 38.894279833333336, "is_disabled": 0, "type": "electric_scooter", "lon": -77.02179083333333, "bike_id": "b5a5697a33c5e4dc3e9a3f2b998029cf", "fusion_lat": 0.0, "name": "b5a5697a33c5e4dc3e9a3f2b998029cf", "is_reserved": 0, "rental_uris": {"android": "https://dc.lft.to/lastmile_qr_scan", "ios": "https://dc.lft.to/lastmile_qr_scan"}, "fusion_lon": 0.0}, {"lat": 38.84507983333334, "is_disabled": 0, "type": "electric_bike", "lon": -76.99348316666666, "bike_id": "58d30bc2d6a5199d23c9879d09789061", "fusion_lat": 0.0, "name": "58d30bc2d6a5199d23c9879d09789061", "is_reserved": 0, "rental_uris": {"android": "https://dc.lft.to/lastmile_qr_scan", "ios": "https://dc.lft.to/lastmile_qr_scan"}, "fusion_lon": 0.0}, {"lat": 38.90443666666667, "is_disabled": 0, "type": "electric_scooter", "lon": -77.0611575, "bike_id": "fb0deaa2257f66ae00a2fabc8fefd7b8", "fusion_lat": 0.0, "name": "fb0deaa2257f66ae00a2fabc8fefd7b8", "is_reserved": 0, "rental_uris": {"android": "https://dc.lft.to/lastmile_qr_scan", "ios": "https://dc.lft.to/lastmile_qr_scan"}, "fusion_lon": 0.0}, {"lat": 38.91883216666667, "is_disabled": 0, "type": "electric_scooter", "lon": -77.0349815, "bike_id": "014df5871e61d8aa07a3996722744ddf", "fusion_lat": 0.0, "name": "014df5871e61d8aa07a3996722744ddf", "is_reserved": 0, "rental_uris": {"android": "https://dc.lft.to/lastmile_qr_scan", "ios": "https://dc.lft.to/lastmile_qr_scan"}, "fusion_lon": 0.0}, {"lat": 38.91706933333333, "is_disabled": 0, "type": "electric_scooter", "lon": -77.03348666666666, "bike_id": "88de9e7fc49c16819b5c7695058a1596", "fusion_lat": 0.0, "name": "88de9e7fc49c16819b5c7695058a1596", "is_reserved": 0, "rental_uris": {"android": "https://dc.lft.to/lastmile_qr_scan", "ios": "https://dc.lft.to/lastmile_qr_scan"}, "fusion_lon": 0.0}, {"lat": 38.91267583333333, "is_disabled": 0, "type": "electric_scooter", "lon": -77.02250683333334, "bike_id": "187de15694ffbc8dcf0f13af10f2306f", "fusion_lat": 0.0, "name": "187de15694ffbc8dcf0f13af10f2306f", "is_reserved": 0, "rental_uris": {"android": "https://dc.lft.to/lastmile_qr_scan", "ios": "https://dc.lft.to/lastmile_qr_scan"}, "fusion_lon": 0.0}, {"lat": 38.9058705, "is_disabled": 0, "type": "electric_scooter", "lon": -76.986183, "bike_id": "9dc3b89bf111da3cbc0ddb6a8dc09391", "fusion_lat": 0.0, "name": "9dc3b89bf111da3cbc0ddb6a8dc09391", "is_reserved": 0, "rental_uris": {"android": "https://dc.lft.to/lastmile_qr_scan", "ios": "https://dc.lft.to/lastmile_qr_scan"}, "fusion_lon": 0.0}, {"lat": 38.896562833333334, "is_disabled": 0, "type": "electric_scooter", "lon": -77.00517133333334, "bike_id": "f07a44d55546c80e07f1a21f1636ca70", "fusion_lat": 0.0, "name": "f07a44d55546c80e07f1a21f1636ca70", "is_reserved": 0, "rental_uris": {"android": "https://dc.lft.to/lastmile_qr_scan", "ios": "https://dc.lft.to/lastmile_qr_scan"}, "fusion_lon": 0.0}, {"lat": 38.912586166666664, "is_disabled": 0, "type": "electric_scooter", "lon": -77.05139233333334, "bike_id": "6b308d2b6492c6862a7e1d0ecb1390c4", "fusion_lat": 0.0, "name": "6b308d2b6492c6862a7e1d0ecb1390c4", "is_reserved": 0, "rental_uris": {"android": "https://dc.lft.to/lastmile_qr_scan", "ios": "https://dc.lft.to/lastmile_qr_scan"}, "fusion_lon": 0.0}, {"lat": 38.8670875, "is_disabled": 0, "type": "electric_scooter", "lon": -76.98726033333334, "bike_id": "27a605f19daa1191a1d68db99b5a27fd", "fusion_lat": 0.0, "name": "27a605f19daa1191a1d68db99b5a27fd", "is_reserved": 0, "rental_uris": {"android": "https://dc.lft.to/lastmile_qr_scan", "ios": "https://dc.lft.to/lastmile_qr_scan"}, "fusion_lon": 0.0}, {"lat": 38.90859866666667, "is_disabled": 0, "type": "electric_bike", "lon": -76.94003733333334, "bike_id": "15724d0ab3f2a09ce27174ea663df0d2", "fusion_lat": 0.0, "name": "15724d0ab3f2a09ce27174ea663df0d2", "is_reserved": 0, "rental_uris": {"android": "https://dc.lft.to/lastmile_qr_scan", "ios": "https://dc.lft.to/lastmile_qr_scan"}, "fusion_lon": 0.0}, {"lat": 38.903651333333336, "is_disabled": 0, "type": "electric_scooter", "lon": -77.04474883333333, "bike_id": "0529d4ce70ad734cc489e454067a6ee8", "fusion_lat": 0.0, "name": "0529d4ce70ad734cc489e454067a6ee8", "is_reserved": 0, "rental_uris": {"android": "https://dc.lft.to/lastmile_qr_scan", "ios": "https://dc.lft.to/lastmile_qr_scan"}, "fusion_lon": 0.0}, {"lat": 38.9025945, "is_disabled": 0, "type": "electric_scooter", "lon": -77.03959266666666, "bike_id": "2cfc48a6cd27c753c2acf373dd546d4d", "fusion_lat": 0.0, "name": "2cfc48a6cd27c753c2acf373dd546d4d", "is_reserved": 0, "rental_uris": {"android": "https://dc.lft.to/lastmile_qr_scan", "ios": "https://dc.lft.to/lastmile_qr_scan"}, "fusion_lon": 0.0}, {"lat": 38.9336025, "is_disabled": 0, "type": "electric_bike", "lon": -77.099591, "bike_id": "dd69b210dd2d1757c070212ac28a8600", "fusion_lat": 0.0, "name": "dd69b210dd2d1757c070212ac28a8600", "is_reserved": 0, "rental_uris": {"android": "https://dc.lft.to/lastmile_qr_scan", "ios": "https://dc.lft.to/lastmile_qr_scan"}, "fusion_lon": 0.0}, {"lat": 38.911243666666664, "is_disabled": 0, "type": "electric_scooter", "lon": -77.032024, "bike_id": "c170773f3daed8e61de8679341b72590", "fusion_lat": 0.0, "name": "c170773f3daed8e61de8679341b72590", "is_reserved": 0, "rental_uris": {"android": "https://dc.lft.to/lastmile_qr_scan", "ios": "https://dc.lft.to/lastmile_qr_scan"}, "fusion_lon": 0.0}, {"lat": 38.95171, "is_disabled": 0, "type": "electric_bike", "lon": -76.96893483333334, "bike_id": "40206ec3cffdee696ae6de6d1d2db309", "fusion_lat": 0.0, "name": "40206ec3cffdee696ae6de6d1d2db309", "is_reserved": 0, "rental_uris": {"android": "https://dc.lft.to/lastmile_qr_scan", "ios": "https://dc.lft.to/lastmile_qr_scan"}, "fusion_lon": 0.0}, {"lat": 38.95822183333333, "is_disabled": 0, "type": "electric_bike", "lon": -76.94087683333333, "bike_id": "f85c783af37986912a2db944c81690e8", "fusion_lat": 0.0, "name": "f85c783af37986912a2db944c81690e8", "is_reserved": 0, "rental_uris": {"android": "https://dc.lft.to/lastmile_qr_scan", "ios": "https://dc.lft.to/lastmile_qr_scan"}, "fusion_lon": 0.0}, {"lat": 38.928365166666666, "is_disabled": 0, "type": "electric_scooter", "lon": -77.01326866666666, "bike_id": "a55f8507aee542ebe2c5c851d300ccb7", "fusion_lat": 0.0, "name": "a55f8507aee542ebe2c5c851d300ccb7", "is_reserved": 0, "rental_uris": {"android": "https://dc.lft.to/lastmile_qr_scan", "ios": "https://dc.lft.to/lastmile_qr_scan"}, "fusion_lon": 0.0}, {"lat": 38.918738833333336, "is_disabled": 0, "type": "electric_scooter", "lon": -77.01204983333334, "bike_id": "799fa2f0699bdd7823683ff358261887", "fusion_lat": 0.0, "name": "799fa2f0699bdd7823683ff358261887", "is_reserved": 0, "rental_uris": {"android": "https://dc.lft.to/lastmile_qr_scan", "ios": "https://dc.lft.to/lastmile_qr_scan"}, "fusion_lon": 0.0}, {"lat": 38.9006555, "is_disabled": 0, "type": "electric_scooter", "lon": -77.0018965, "bike_id": "482ac1089b041067df706593744970da", "fusion_lat": 0.0, "name": "482ac1089b041067df706593744970da", "is_reserved": 0, "rental_uris": {"android": "https://dc.lft.to/lastmile_qr_scan", "ios": "https://dc.lft.to/lastmile_qr_scan"}, "fusion_lon": 0.0}, {"lat": 38.913032333333334, "is_disabled": 0, "type": "electric_scooter", "lon": -77.02390716666666, "bike_id": "40d56211a2033f3acae37b3f536a5296", "fusion_lat": 0.0, "name": "40d56211a2033f3acae37b3f536a5296", "is_reserved": 0, "rental_uris": {"android": "https://dc.lft.to/lastmile_qr_scan", "ios": "https://dc.lft.to/lastmile_qr_scan"}, "fusion_lon": 0.0}, {"lat": 38.802684166666666, "is_disabled": 0, "type": "electric_bike", "lon": -77.08108666666666, "bike_id": "b06130d0ae3994b6dc674aae65663d8e", "fusion_lat": 0.0, "name": "b06130d0ae3994b6dc674aae65663d8e", "is_reserved": 0, "rental_uris": {"android": "https://dc.lft.to/lastmile_qr_scan", "ios": "https://dc.lft.to/lastmile_qr_scan"}, "fusion_lon": 0.0}, {"lat": 38.86256516666667, "is_disabled": 0, "type": "electric_scooter", "lon": -76.99512116666666, "bike_id": "2229919592b7d3496b3170d1cdeab304", "fusion_lat": 0.0, "name": "2229919592b7d3496b3170d1cdeab304", "is_reserved": 0, "rental_uris": {"android": "https://dc.lft.to/lastmile_qr_scan", "ios": "https://dc.lft.to/lastmile_qr_scan"}, "fusion_lon": 0.0}, {"lat": 39.003783, "is_disabled": 0, "type": "electric_bike", "lon": -77.012827, "bike_id": "ea5544737372fcf475213a5891fb94b6", "fusion_lat": 0.0, "name": "ea5544737372fcf475213a5891fb94b6", "is_reserved": 0, "rental_uris": {"android": "https://dc.lft.to/lastmile_qr_scan", "ios": "https://dc.lft.to/lastmile_qr_scan"}, "fusion_lon": 0.0}, {"lat": 38.920476, "is_disabled": 0, "type": "electric_scooter", "lon": -77.02379666666667, "bike_id": "5a73d5b82afb264be23281afa69177b1", "fusion_lat": 0.0, "name": "5a73d5b82afb264be23281afa69177b1", "is_reserved": 0, "rental_uris": {"android": "https://dc.lft.to/lastmile_qr_scan", "ios": "https://dc.lft.to/lastmile_qr_scan"}, "fusion_lon": 0.0}, {"lat": 38.9289785, "is_disabled": 0, "type": "electric_scooter", "lon": -77.0240285, "bike_id": "c28a21a3ea96ec79c6f509aeed8df590", "fusion_lat": 0.0, "name": "c28a21a3ea96ec79c6f509aeed8df590", "is_reserved": 0, "rental_uris": {"android": "https://dc.lft.to/lastmile_qr_scan", "ios": "https://dc.lft.to/lastmile_qr_scan"}, "fusion_lon": 0.0}, {"lat": 38.933497833333334, "is_disabled": 0, "type": "electric_scooter", "lon": -77.02495083333334, "bike_id": "d9fd9f87136a14f47c31c1cdf4607332", "fusion_lat": 0.0, "name": "d9fd9f87136a14f47c31c1cdf4607332", "is_reserved": 0, "rental_uris": {"android": "https://dc.lft.to/lastmile_qr_scan", "ios": "https://dc.lft.to/lastmile_qr_scan"}, "fusion_lon": 0.0}, {"lat": 38.90024416666667, "is_disabled": 0, "type": "electric_scooter", "lon": -76.9990355, "bike_id": "16659bbb04de570e9022b635081f1b0e", "fusion_lat": 0.0, "name": "16659bbb04de570e9022b635081f1b0e", "is_reserved": 0, "rental_uris": {"android": "https://dc.lft.to/lastmile_qr_scan", "ios": "https://dc.lft.to/lastmile_qr_scan"}, "fusion_lon": 0.0}, {"lat": 38.92092933333333, "is_disabled": 0, "type": "electric_scooter", "lon": -77.02511333333334, "bike_id": "9a727577541da5d328517ef325a1987e", "fusion_lat": 0.0, "name": "9a727577541da5d328517ef325a1987e", "is_reserved": 0, "rental_uris": {"android": "https://dc.lft.to/lastmile_qr_scan", "ios": "https://dc.lft.to/lastmile_qr_scan"}, "fusion_lon": 0.0}, {"lat": 38.909596666666665, "is_disabled": 0, "type": "electric_scooter", "lon": -77.03294683333333, "bike_id": "890dc065b6eb94dc8d753ec6c8338b06", "fusion_lat": 0.0, "name": "890dc065b6eb94dc8d753ec6c8338b06", "is_reserved": 0, "rental_uris": {"android": "https://dc.lft.to/lastmile_qr_scan", "ios": "https://dc.lft.to/lastmile_qr_scan"}, "fusion_lon": 0.0}, {"lat": 38.948201166666664, "is_disabled": 0, "type": "electric_scooter", "lon": -76.99901233333334, "bike_id": "ceaba28e0e68b01ba7593bb64c0ebead", "fusion_lat": 0.0, "name": "ceaba28e0e68b01ba7593bb64c0ebead", "is_reserved": 0, "rental_uris": {"android": "https://dc.lft.to/lastmile_qr_scan", "ios": "https://dc.lft.to/lastmile_qr_scan"}, "fusion_lon": 0.0}, {"lat": 38.932370666666664, "is_disabled": 0, "type": "electric_bike", "lon": -76.974179, "bike_id": "88192e204186d46397001c5b56273758", "fusion_lat": 0.0, "name": "88192e204186d46397001c5b56273758", "is_reserved": 0, "rental_uris": {"android": "https://dc.lft.to/lastmile_qr_scan", "ios": "https://dc.lft.to/lastmile_qr_scan"}, "fusion_lon": 0.0}, {"lat": 38.902037166666666, "is_disabled": 0, "type": "electric_scooter", "lon": -76.99942583333333, "bike_id": "949866db2b32d75f7494d7b0b971ec5d", "fusion_lat": 0.0, "name": "949866db2b32d75f7494d7b0b971ec5d", "is_reserved": 0, "rental_uris": {"android": "https://dc.lft.to/lastmile_qr_scan", "ios": "https://dc.lft.to/lastmile_qr_scan"}, "fusion_lon": 0.0}, {"lat": 38.88042866666667, "is_disabled": 0, "type": "electric_scooter", "lon": -76.98628516666666, "bike_id": "7b2a05e017194e61b6c9b78b73cccb6b", "fusion_lat": 0.0, "name": "7b2a05e017194e61b6c9b78b73cccb6b", "is_reserved": 0, "rental_uris": {"android": "https://dc.lft.to/lastmile_qr_scan", "ios": "https://dc.lft.to/lastmile_qr_scan"}, "fusion_lon": 0.0}, {"lat": 38.9167915, "is_disabled": 0, "type": "electric_scooter", "lon": -77.03194483333333, "bike_id": "1e21b22e52d5bcfc87b331cc625bfcb3", "fusion_lat": 0.0, "name": "1e21b22e52d5bcfc87b331cc625bfcb3", "is_reserved": 0, "rental_uris": {"android": "https://dc.lft.to/lastmile_qr_scan", "ios": "https://dc.lft.to/lastmile_qr_scan"}, "fusion_lon": 0.0}, {"lat": 38.96221966666667, "is_disabled": 0, "type": "electric_bike", "lon": -77.0262315, "bike_id": "8817efcfd85f1e4720dee414dd06ecd3", "fusion_lat": 0.0, "name": "8817efcfd85f1e4720dee414dd06ecd3", "is_reserved": 0, "rental_uris": {"android": "https://dc.lft.to/lastmile_qr_scan", "ios": "https://dc.lft.to/lastmile_qr_scan"}, "fusion_lon": 0.0}, {"lat": 38.914070833333334, "is_disabled": 0, "type": "electric_scooter", "lon": -77.02104516666667, "bike_id": "49795d2e974f89f8c975b2d6fa073c80", "fusion_lat": 0.0, "name": "49795d2e974f89f8c975b2d6fa073c80", "is_reserved": 0, "rental_uris": {"android": "https://dc.lft.to/lastmile_qr_scan", "ios": "https://dc.lft.to/lastmile_qr_scan"}, "fusion_lon": 0.0}, {"lat": 38.914153, "is_disabled": 0, "type": "electric_scooter", "lon": -77.02214716666667, "bike_id": "6283df5776b5fdf9c0e814f3fd962fd3", "fusion_lat": 0.0, "name": "6283df5776b5fdf9c0e814f3fd962fd3", "is_reserved": 0, "rental_uris": {"android": "https://dc.lft.to/lastmile_qr_scan", "ios": "https://dc.lft.to/lastmile_qr_scan"}, "fusion_lon": 0.0}, {"lat": 38.90330683333333, "is_disabled": 0, "type": "electric_scooter", "lon": -76.9759025, "bike_id": "8266dd1f54bf2cf05d4b70dd841c0586", "fusion_lat": 0.0, "name": "8266dd1f54bf2cf05d4b70dd841c0586", "is_reserved": 0, "rental_uris": {"android": "https://dc.lft.to/lastmile_qr_scan", "ios": "https://dc.lft.to/lastmile_qr_scan"}, "fusion_lon": 0.0}, {"lat": 38.9213745, "is_disabled": 0, "type": "electric_scooter", "lon": -77.04351416666667, "bike_id": "5ff2052dd0807d1b059b3b0c7b7f4549", "fusion_lat": 0.0, "name": "5ff2052dd0807d1b059b3b0c7b7f4549", "is_reserved": 0, "rental_uris": {"android": "https://dc.lft.to/lastmile_qr_scan", "ios": "https://dc.lft.to/lastmile_qr_scan"}, "fusion_lon": 0.0}, {"lat": 38.907662, "is_disabled": 0, "type": "electric_scooter", "lon": -77.070247, "bike_id": "263b7b9fe231c7f8b6a15073d67ec0e5", "fusion_lat": 0.0, "name": "263b7b9fe231c7f8b6a15073d67ec0e5", "is_reserved": 0, "rental_uris": {"android": "https://dc.lft.to/lastmile_qr_scan", "ios": "https://dc.lft.to/lastmile_qr_scan"}, "fusion_lon": 0.0}, {"lat": 38.90353366666667, "is_disabled": 0, "type": "electric_scooter", "lon": -77.02520916666667, "bike_id": "a442a15e5cc0a5e8bdba479db07deec8", "fusion_lat": 0.0, "name": "a442a15e5cc0a5e8bdba479db07deec8", "is_reserved": 0, "rental_uris": {"android": "https://dc.lft.to/lastmile_qr_scan", "ios": "https://dc.lft.to/lastmile_qr_scan"}, "fusion_lon": 0.0}, {"lat": 38.90733866666667, "is_disabled": 0, "type": "electric_scooter", "lon": -76.9354845, "bike_id": "07a8a432ccc19e023cc9fb6c3ab4d75d", "fusion_lat": 0.0, "name": "07a8a432ccc19e023cc9fb6c3ab4d75d", "is_reserved": 0, "rental_uris": {"android": "https://dc.lft.to/lastmile_qr_scan", "ios": "https://dc.lft.to/lastmile_qr_scan"}, "fusion_lon": 0.0}, {"lat": 38.916747, "is_disabled": 0, "type": "electric_scooter", "lon": -77.03655416666666, "bike_id": "1450bda4a44d89b707a3c410fdbacc06", "fusion_lat": 0.0, "name": "1450bda4a44d89b707a3c410fdbacc06", "is_reserved": 0, "rental_uris": {"android": "https://dc.lft.to/lastmile_qr_scan", "ios": "https://dc.lft.to/lastmile_qr_scan"}, "fusion_lon": 0.0}, {"lat": 38.80680066666667, "is_disabled": 0, "type": "electric_bike", "lon": -77.08119016666667, "bike_id": "f36ff0dd5947d7414159221436d79f03", "fusion_lat": 0.0, "name": "f36ff0dd5947d7414159221436d79f03", "is_reserved": 0, "rental_uris": {"android": "https://dc.lft.to/lastmile_qr_scan", "ios": "https://dc.lft.to/lastmile_qr_scan"}, "fusion_lon": 0.0}, {"lat": 38.897353, "is_disabled": 0, "type": "electric_scooter", "lon": -77.04529633333334, "bike_id": "b786bc3f6cd72a6725c6fc645c471700", "fusion_lat": 0.0, "name": "b786bc3f6cd72a6725c6fc645c471700", "is_reserved": 0, "rental_uris": {"android": "https://dc.lft.to/lastmile_qr_scan", "ios": "https://dc.lft.to/lastmile_qr_scan"}, "fusion_lon": 0.0}, {"lat": 38.925646666666665, "is_disabled": 0, "type": "electric_scooter", "lon": -77.05763783333333, "bike_id": "b35f6322de57783d0ca0af05f02a0d78", "fusion_lat": 0.0, "name": "b35f6322de57783d0ca0af05f02a0d78", "is_reserved": 0, "rental_uris": {"android": "https://dc.lft.to/lastmile_qr_scan", "ios": "https://dc.lft.to/lastmile_qr_scan"}, "fusion_lon": 0.0}, {"lat": 38.86655066666667, "is_disabled": 0, "type": "electric_scooter", "lon": -76.98881983333334, "bike_id": "6af707e715cfe58a5b8a21302befc5fe", "fusion_lat": 0.0, "name": "6af707e715cfe58a5b8a21302befc5fe", "is_reserved": 0, "rental_uris": {"android": "https://dc.lft.to/lastmile_qr_scan", "ios": "https://dc.lft.to/lastmile_qr_scan"}, "fusion_lon": 0.0}, {"lat": 38.874127666666666, "is_disabled": 0, "type": "electric_scooter", "lon": -76.97303583333333, "bike_id": "23745f22d26a670a6880e7f06f57c318", "fusion_lat": 0.0, "name": "23745f22d26a670a6880e7f06f57c318", "is_reserved": 0, "rental_uris": {"android": "https://dc.lft.to/lastmile_qr_scan", "ios": "https://dc.lft.to/lastmile_qr_scan"}, "fusion_lon": 0.0}, {"lat": 38.998147833333334, "is_disabled": 0, "type": "electric_bike", "lon": -76.88361966666666, "bike_id": "65013cdc3c7f57cb81c9a6410a4ca938", "fusion_lat": 0.0, "name": "65013cdc3c7f57cb81c9a6410a4ca938", "is_reserved": 0, "rental_uris": {"android": "https://dc.lft.to/lastmile_qr_scan", "ios": "https://dc.lft.to/lastmile_qr_scan"}, "fusion_lon": 0.0}, {"lat": 39.03044833333333, "is_disabled": 0, "type": "electric_bike", "lon": -77.09471933333333, "bike_id": "0cb90e9dc73522abe09e5c4e7d3c78dd", "fusion_lat": 0.0, "name": "0cb90e9dc73522abe09e5c4e7d3c78dd", "is_reserved": 0, "rental_uris": {"android": "https://dc.lft.to/lastmile_qr_scan", "ios": "https://dc.lft.to/lastmile_qr_scan"}, "fusion_lon": 0.0}, {"lat": 38.892028333333336, "is_disabled": 0, "type": "electric_scooter", "lon": -76.985649, "bike_id": "901dd487b027a5eb2b736c64806cade7", "fusion_lat": 0.0, "name": "901dd487b027a5eb2b736c64806cade7", "is_reserved": 0, "rental_uris": {"android": "https://dc.lft.to/lastmile_qr_scan", "ios": "https://dc.lft.to/lastmile_qr_scan"}, "fusion_lon": 0.0}, {"lat": 38.9386385, "is_disabled": 0, "type": "electric_scooter", "lon": -77.030934, "bike_id": "85e090af0e851db8a43cb639ced2bc08", "fusion_lat": 0.0, "name": "85e090af0e851db8a43cb639ced2bc08", "is_reserved": 0, "rental_uris": {"android": "https://dc.lft.to/lastmile_qr_scan", "ios": "https://dc.lft.to/lastmile_qr_scan"}, "fusion_lon": 0.0}, {"lat": 38.913168166666665, "is_disabled": 0, "type": "electric_scooter", "lon": -76.98643133333333, "bike_id": "9ae786e234c654cb603a046e3048df71", "fusion_lat": 0.0, "name": "9ae786e234c654cb603a046e3048df71", "is_reserved": 0, "rental_uris": {"android": "https://dc.lft.to/lastmile_qr_scan", "ios": "https://dc.lft.to/lastmile_qr_scan"}, "fusion_lon": 0.0}, {"lat": 38.9174105, "is_disabled": 0, "type": "electric_scooter", "lon": -77.03181766666667, "bike_id": "366c31abc6b755639aef27d07f8862d1", "fusion_lat": 0.0, "name": "366c31abc6b755639aef27d07f8862d1", "is_reserved": 0, "rental_uris": {"android": "https://dc.lft.to/lastmile_qr_scan", "ios": "https://dc.lft.to/lastmile_qr_scan"}, "fusion_lon": 0.0}, {"lat": 38.917039, "is_disabled": 0, "type": "electric_scooter", "lon": -77.02730833333334, "bike_id": "d352bcca2424093bfd0aa67b12891a24", "fusion_lat": 0.0, "name": "d352bcca2424093bfd0aa67b12891a24", "is_reserved": 0, "rental_uris": {"android": "https://dc.lft.to/lastmile_qr_scan", "ios": "https://dc.lft.to/lastmile_qr_scan"}, "fusion_lon": 0.0}, {"lat": 39.0243245, "is_disabled": 0, "type": "electric_bike", "lon": -77.1309775, "bike_id": "d936b68c1a5e75bde84e584c8e04fc81", "fusion_lat": 0.0, "name": "d936b68c1a5e75bde84e584c8e04fc81", "is_reserved": 0, "rental_uris": {"android": "https://dc.lft.to/lastmile_qr_scan", "ios": "https://dc.lft.to/lastmile_qr_scan"}, "fusion_lon": 0.0}, {"lat": 38.9072385, "is_disabled": 0, "type": "electric_scooter", "lon": -77.02979633333334, "bike_id": "4318a76186d50c25d9ce83b1a8ad5a23", "fusion_lat": 0.0, "name": "4318a76186d50c25d9ce83b1a8ad5a23", "is_reserved": 0, "rental_uris": {"android": "https://dc.lft.to/lastmile_qr_scan", "ios": "https://dc.lft.to/lastmile_qr_scan"}, "fusion_lon": 0.0}, {"lat": 38.9295755, "is_disabled": 0, "type": "electric_scooter", "lon": -77.02334116666667, "bike_id": "b982ca6b7c5acb7495a3bb4d2bdf5306", "fusion_lat": 0.0, "name": "b982ca6b7c5acb7495a3bb4d2bdf5306", "is_reserved": 0, "rental_uris": {"android": "https://dc.lft.to/lastmile_qr_scan", "ios": "https://dc.lft.to/lastmile_qr_scan"}, "fusion_lon": 0.0}, {"lat": 38.94973266666667, "is_disabled": 0, "type": "electric_scooter", "lon": -77.0655955, "bike_id": "91d3822adce7f193b7be9af10da5cd64", "fusion_lat": 0.0, "name": "91d3822adce7f193b7be9af10da5cd64", "is_reserved": 0, "rental_uris": {"android": "https://dc.lft.to/lastmile_qr_scan", "ios": "https://dc.lft.to/lastmile_qr_scan"}, "fusion_lon": 0.0}, {"lat": 38.90126883333333, "is_disabled": 0, "type": "electric_scooter", "lon": -77.02887366666667, "bike_id": "406c65b16bc4e1abc33239c57bc3b0ed", "fusion_lat": 0.0, "name": "406c65b16bc4e1abc33239c57bc3b0ed", "is_reserved": 0, "rental_uris": {"android": "https://dc.lft.to/lastmile_qr_scan", "ios": "https://dc.lft.to/lastmile_qr_scan"}, "fusion_lon": 0.0}, {"lat": 38.944408833333334, "is_disabled": 0, "type": "electric_scooter", "lon": -77.023369, "bike_id": "a050d835e3f860bfc53599b823994014", "fusion_lat": 0.0, "name": "a050d835e3f860bfc53599b823994014", "is_reserved": 0, "rental_uris": {"android": "https://dc.lft.to/lastmile_qr_scan", "ios": "https://dc.lft.to/lastmile_qr_scan"}, "fusion_lon": 0.0},