{"data": {"bikes": [{"rental_uris": {"ios": "https://dc.lft.to/lastmile_qr_scan", "android": "https://dc.lft.to/lastmile_qr_scan"}, "type": "electric_scooter", "name": "5ea84b0af474919ffcae4ea5c2e566a3", "is_reserved": 0, "lon": -77.01961416666667, "is_disabled": 0, "fusion_lat": 0.0, "lat": 38.9338545, "bike_id": "5ea84b0af474919ffcae4ea5c2e566a3", "fusion_lon": 0.0}, {"rental_uris": {"ios": "https://dc.lft.to/lastmile_qr_scan", "android": "https://dc.lft.to/lastmile_qr_scan"}, "type": "electric_scooter", "name": "6264250b660b2dcecbc84a45cd30559c", "is_reserved": 0, "lon": -77.0406765, "is_disabled": 0, "fusion_lat": 0.0, "lat": 38.914167, "bike_id": "6264250b660b2dcecbc84a45cd30559c", "fusion_lon": 0.0}, {"rental_uris": {"ios": "https://dc.lft.to/lastmile_qr_scan", "android": "https://dc.lft.to/lastmile_qr_scan"}, "type": "electric_scooter", "name": "e81a0420f92857b73311b0285b979414", "is_reserved": 0, "lon": -77.03216983333333, "is_disabled": 0, "fusion_lat": 0.0, "lat": 38.927029, "bike_id": "e81a0420f92857b73311b0285b979414", "fusion_lon": 0.0}, {"rental_uris": {"ios": "https://dc.lft.to/lastmile_qr_scan", "android": "https://dc.lft.to/lastmile_qr_scan"}, "type": "electric_scooter", "name": "f514b5d8ce554c81b093761f8478d224", "is_reserved": 0, "lon": -77.03854733333333, "is_disabled": 0, "fusion_lat": 0.0, "lat": 38.93250916666667, "bike_id": "f514b5d8ce554c81b093761f8478d224", "fusion_lon": 0.0}, {"rental_uris": {"ios": "https://dc.lft.to/lastmile_qr_scan", "android": "https://dc.lft.to/lastmile_qr_scan"}, "type": "electric_scooter", "name": "909cbfe9831ee44d482a142fafa06185", "is_reserved": 0, "lon": -77.02612483333333, "is_disabled": 0, "fusion_lat": 0.0, "lat": 38.91919583333333, "bike_id": "909cbfe9831ee44d482a142fafa06185", "fusion_lon": 0.0}, {"rental_uris": {"ios": "https://dc.lft.to/lastmile_qr_scan", "android": "https://dc.lft.to/lastmile_qr_scan"}, "type": "electric_scooter", "name": "2041481171c57559f6beecdf015520cc", "is_reserved": 0, "lon": -77.04037683333334, "is_disabled": 0, "fusion_lat": 0.0, "lat": 38.9047175, "bike_id": "2041481171c57559f6beecdf015520cc", "fusion_lon": 0.0}, {"rental_uris": {"ios": "https://dc.lft.to/lastmile_qr_scan", "android": "https://dc.lft.to/lastmile_qr_scan"}, "type": "electric_scooter", "name": "73e865502cba2b822a397eabe8f5a5ed", "is_reserved": 0, "lon": -77.02385, "is_disabled": 0, "fusion_lat": 0.0, "lat": 38.92059416666667, "bike_id": "73e865502cba2b822a397eabe8f5a5ed", "fusion_lon": 0.0}, {"rental_uris": {"ios": "https://dc.lft.to/lastmile_qr_scan", "android": "https://dc.lft.to/lastmile_qr_scan"}, "type": "electric_scooter", "name": "013cd86f706e49707332b9042fc76cdc", "is_reserved": 0, "lon": -77.03196483333333, "is_disabled": 0, "fusion_lat": 0.0, "lat": 38.9164155, "bike_id": "013cd86f706e49707332b9042fc76cdc", "fusion_lon": 0.0}, {"rental_uris": {"ios": "https://dc.lft.to/lastmile_qr_scan", "android": "https://dc.lft.to/lastmile_qr_scan"}, "type": "electric_bike", "name": "7049239c127758baf007e77b7b434e57", "is_reserved": 0, "lon": -77.01564116666667, "is_disabled": 0, "fusion_lat": 0.0, "lat": 38.911121666666666, "bike_id": "7049239c127758baf007e77b7b434e57", "fusion_lon": 0.0}, {"rental_uris": {"ios": "https://dc.lft.to/lastmile_qr_scan", "android": "https://dc.lft.to/lastmile_qr_scan"}, "type": "electric_scooter", "name": "5103c5d9eb55d78dd1a85a1dacad6499", "is_reserved": 0, "lon": -77.01173683333333, "is_disabled": 0, "fusion_lat": 0.0, "lat": 38.900326166666666, "bike_id": "5103c5d9eb55d78dd1a85a1dacad6499", "fusion_lon": 0.0}, {"rental_uris": {"ios": "https://dc.lft.to/lastmile_qr_scan", "android": "https://dc.lft.to/lastmile_qr_scan"}, "type": "electric_scooter", "name": "a488d6daa2a80769bdd79c9b47ff5ce6", "is_reserved": 0, "lon": -76.98984683333333, "is_disabled": 0, "fusion_lat": 0.0, "lat": 38.86503483333333, "bike_id": "a488d6daa2a80769bdd79c9b47ff5ce6", "fusion_lon": 0.0}, {"rental_uris": {"ios": "https://dc.lft.to/lastmile_qr_scan", "android": "https://dc.lft.to/lastmile_qr_scan"}, "type": "electric_scooter", "name": "e4a2a062af11c999058639003247900a", "is_reserved": 0, "lon": -77.02500066666667, "is_disabled": 0, "fusion_lat": 0.0, "lat": 38.9541195, "bike_id": "e4a2a062af11c999058639003247900a", "fusion_lon": 0.0}, {"rental_uris": {"ios": "https://dc.lft.to/lastmile_qr_scan", "android": "https://dc.lft.to/lastmile_qr_scan"}, "type": "electric_scooter", "name": "dda11c9bbecde564f9f56107cc243159", "is_reserved": 0, "lon": -77.02204983333333, "is_disabled": 0, "fusion_lat": 0.0, "lat": 38.887172, "bike_id": "dda11c9bbecde564f9f56107cc243159", "fusion_lon": 0.0}, {"rental_uris": {"ios": "https://dc.lft.to/lastmile_qr_scan", "android": "https://dc.lft.to/lastmile_qr_scan"}, "type": "electric_scooter", "name": "220e5289bfc06fc01ed1e09b727dc8c6", "is_reserved": 0, "lon": -76.98209766666666, "is_disabled": 0, "fusion_lat": 0.0, "lat": 38.886408, "bike_id": "220e5289bfc06fc01ed1e09b727dc8c6", "fusion_lon": 0.0}, {"rental_uris": {"ios": "https://dc.lft.to/lastmile_qr_scan", "android": "https://dc.lft.to/lastmile_qr_scan"}, "type": "electric_scooter", "name": "89f18bdb85cdfd5146c96e28e77aa504", "is_reserved": 0, "lon": -77.04217666666666, "is_disabled": 0, "fusion_lat": 0.0, "lat": 38.913356666666665, "bike_id": "89f18bdb85cdfd5146c96e28e77aa504", "fusion_lon": 0.0}, {"rental_uris": {"ios": "https://dc.lft.to/lastmile_qr_scan", "android": "https://dc.lft.to/lastmile_qr_scan"}, "type": "electric_scooter", "name": "a017150d0165d24118692f05e20c2d26", "is_reserved": 0, "lon": -76.94930183333334, "is_disabled": 0, "fusion_lat": 0.0, "lat": 38.89534416666667, "bike_id": "a017150d0165d24118692f05e20c2d26", "fusion_lon": 0.0}, {"rental_uris": {"ios": "https://dc.lft.to/lastmile_qr_scan", "android": "https://dc.lft.to/lastmile_qr_scan"}, "type": "electric_scooter", "name": "425d863183ea594c7d1709275db06021", "is_reserved": 0, "lon": -77.03835216666667, "is_disabled": 0, "fusion_lat": 0.0, "lat": 38.910444166666665, "bike_id": "425d863183ea594c7d1709275db06021", "fusion_lon": 0.0}, {"rental_uris": {"ios": "https://dc.lft.to/lastmile_qr_scan", "android": "https://dc.lft.to/lastmile_qr_scan"}, "type": "electric_scooter", "name": "c0b1bc3959547e76da409c4185548888", "is_reserved": 0, "lon": -77.04235233333333, "is_disabled": 0, "fusion_lat": 0.0, "lat": 38.92208683333333, "bike_id": "c0b1bc3959547e76da409c4185548888", "fusion_lon": 0.0}, {"rental_uris": {"ios": "https://dc.lft.to/lastmile_qr_scan", "android": "https://dc.lft.to/lastmile_qr_scan"}, "type": "electric_scooter", "name": "4f73e47029f8f90e33f0aeadf8ddab8b", "is_reserved": 0, "lon": -77.0388905, "is_disabled": 0, "fusion_lat": 0.0, "lat": 38.90989916666667, "bike_id": "4f73e47029f8f90e33f0aeadf8ddab8b", "fusion_lon": 0.0}, {"rental_uris": {"ios": "https://dc.lft.to/lastmile_qr_scan", "android": "https://dc.lft.to/lastmile_qr_scan"}, "type": "electric_scooter", "name": "f1de602180f225ddac72f937576f4075", "is_reserved": 0, "lon": -77.06514533333333, "is_disabled": 0, "fusion_lat": 0.0, "lat": 38.905891, "bike_id": "f1de602180f225ddac72f937576f4075", "fusion_lon": 0.0}, {"rental_uris": {"ios": "https://dc.lft.to/lastmile_qr_scan", "android": "https://dc.lft.to/lastmile_qr_scan"}, "type": "electric_scooter", "name": "1c7aedc345b28255912bb1da3f3733be", "is_reserved": 0, "lon": -77.043586, "is_disabled": 0, "fusion_lat": 0.0, "lat": 38.91414266666666, "bike_id": "1c7aedc345b28255912bb1da3f3733be", "fusion_lon": 0.0}, {"rental_uris": {"ios": "https://dc.lft.to/lastmile_qr_scan", "android": "https://dc.lft.to/lastmile_qr_scan"}, "type": "electric_scooter", "name": "7414b7e1d81b33c8561d8a41dc39897d", "is_reserved": 0, "lon": -77.064592, "is_disabled": 0, "fusion_lat": 0.0, "lat": 38.90980733333333, "bike_id": "7414b7e1d81b33c8561d8a41dc39897d", "fusion_lon": 0.0}, {"rental_uris": {"ios": "https://dc.lft.to/lastmile_qr_scan", "android": "https://dc.lft.to/lastmile_qr_scan"}, "type": "electric_scooter", "name": "8d79a79ef38b972e0d16ba89d1d8504e", "is_reserved": 0, "lon": -77.0192015, "is_disabled": 0, "fusion_lat": 0.0, "lat": 38.92267783333333, "bike_id": "8d79a79ef38b972e0d16ba89d1d8504e", "fusion_lon": 0.0}, {"rental_uris": {"ios": "https://dc.lft.to/lastmile_qr_scan", "android": "https://dc.lft.to/lastmile_qr_scan"}, "type": "electric_scooter", "name": "bb4726e3cfb4fdbef8bc4683f1029f88", "is_reserved": 0, "lon": -77.03139633333333, "is_disabled": 0, "fusion_lat": 0.0, "lat": 38.92381733333333, "bike_id": "bb4726e3cfb4fdbef8bc4683f1029f88", "fusion_lon": 0.0}, {"rental_uris": {"ios": "https://dc.lft.to/lastmile_qr_scan", "android": "https://dc.lft.to/lastmile_qr_scan"}, "type": "electric_scooter", "name": "26a7b4293ea5a338a216ef5905638da9", "is_reserved": 0, "lon": -77.034608, "is_disabled": 0, "fusion_lat": 0.0, "lat": 38.9179845, "bike_id": "26a7b4293ea5a338a216ef5905638da9", "fusion_lon": 0.0}, {"rental_uris": {"ios": "https://dc.lft.to/lastmile_qr_scan", "android": "https://dc.lft.to/lastmile_qr_scan"}, "type": "electric_scooter", "name": "27bb0e3df12ccb196c3a3672015b7989", "is_reserved": 0, "lon": -77.025563, "is_disabled": 0, "fusion_lat": 0.0, "lat": 38.90102983333333, "bike_id": "27bb0e3df12ccb196c3a3672015b7989", "fusion_lon": 0.0}, {"rental_uris": {"ios": "https://dc.lft.to/lastmile_qr_scan", "android": "https://dc.lft.to/lastmile_qr_scan"}, "type": "electric_scooter", "name": "6421ea87604c2d99f07e4eaf24d1024a", "is_reserved": 0, "lon": -77.05914883333334, "is_disabled": 0, "fusion_lat": 0.0, "lat": 38.90505666666667, "bike_id": "6421ea87604c2d99f07e4eaf24d1024a", "fusion_lon": 0.0}, {"rental_uris": {"ios": "https://dc.lft.to/lastmile_qr_scan", "android": "https://dc.lft.to/lastmile_qr_scan"}, "type": "electric_bike", "name": "c6c3af41fac1738c48597b29d1fb6deb", "is_reserved": 0, "lon": -76.98341666666667, "is_disabled": 0, "fusion_lat": 0.0, "lat": 38.93518233333333, "bike_id": "c6c3af41fac1738c48597b29d1fb6deb", "fusion_lon": 0.0}, {"rental_uris": {"ios": "https://dc.lft.to/lastmile_qr_scan", "android": "https://dc.lft.to/lastmile_qr_scan"}, "type": "electric_scooter", "name": "2eca9367fb331ba5c7a65083a63c9fb2", "is_reserved": 0, "lon": -77.03690983333334, "is_disabled": 0, "fusion_lat": 0.0, "lat": 38.93290183333333, "bike_id": "2eca9367fb331ba5c7a65083a63c9fb2", "fusion_lon": 0.0}, {"rental_uris": {"ios": "https://dc.lft.to/lastmile_qr_scan", "android": "https://dc.lft.to/lastmile_qr_scan"}, "type": "electric_scooter", "name": "bac4f98da2ae0004ac3d9792f49c95a2", "is_reserved": 0, "lon": -77.03296316666666, "is_disabled": 0, "fusion_lat": 0.0, "lat": 38.924510833333336, "bike_id": "bac4f98da2ae0004ac3d9792f49c95a2", "fusion_lon": 0.0}, {"rental_uris": {"ios": "https://dc.lft.to/lastmile_qr_scan", "android": "https://dc.lft.to/lastmile_qr_scan"}, "type": "electric_scooter", "name": "e4e8eb40226a76ddb7b77288a52b9334", "is_reserved": 0, "lon": -76.99273216666667, "is_disabled": 0, "fusion_lat": 0.0, "lat": 38.90224766666667, "bike_id": "e4e8eb40226a76ddb7b77288a52b9334", "fusion_lon": 0.0}, {"rental_uris": {"ios": "https://dc.lft.to/lastmile_qr_scan", "android": "https://dc.lft.to/lastmile_qr_scan"}, "type": "electric_scooter", "name": "c9aa2081e32b4f31df8579106bd4f7a7", "is_reserved": 0, "lon": -77.02948666666667, "is_disabled": 0, "fusion_lat": 0.0, "lat": 38.904113, "bike_id": "c9aa2081e32b4f31df8579106bd4f7a7", "fusion_lon": 0.0}, {"rental_uris": {"ios": "https://dc.lft.to/lastmile_qr_scan", "android": "https://dc.lft.to/lastmile_qr_scan"}, "type": "electric_scooter", "name": "555d6844ba0c1269f627af53a0c23ddd", "is_reserved": 0, "lon": -77.04179133333334, "is_disabled": 0, "fusion_lat": 0.0, "lat": 38.917316666666665, "bike_id": "555d6844ba0c1269f627af53a0c23ddd", "fusion_lon": 0.0}, {"rental_uris": {"ios": "https://dc.lft.to/lastmile_qr_scan", "android": "https://dc.lft.to/lastmile_qr_scan"}, "type": "electric_scooter", "name": "22597e3facb2a1b36f533451ec194f84", "is_reserved": 0, "lon": -76.99511783333334, "is_disabled": 0, "fusion_lat": 0.0, "lat": 38.88370233333333, "bike_id": "22597e3facb2a1b36f533451ec194f84", "fusion_lon": 0.0}, {"rental_uris": {"ios": "https://dc.lft.to/lastmile_qr_scan", "android": "https://dc.lft.to/lastmile_qr_scan"}, "type": "electric_scooter", "name": "91652d23e071a2745c27b3f522b89dc1", "is_reserved": 0, "lon": -77.04376216666667, "is_disabled": 0, "fusion_lat": 0.0, "lat": 38.910474666666666, "bike_id": "91652d23e071a2745c27b3f522b89dc1", "fusion_lon": 0.0}, {"rental_uris": {"ios": "https://dc.lft.to/lastmile_qr_scan", "android": "https://dc.lft.to/lastmile_qr_scan"}, "type": "electric_scooter", "name": "ba77b664526e35fd3a1b87969221d28e", "is_reserved": 0, "lon": -77.05019116666666, "is_disabled": 0, "fusion_lat": 0.0, "lat": 38.92356266666667, "bike_id": "ba77b664526e35fd3a1b87969221d28e", "fusion_lon": 0.0}, {"rental_uris": {"ios": "https://dc.lft.to/lastmile_qr_scan", "android": "https://dc.lft.to/lastmile_qr_scan"}, "type": "electric_scooter", "name": "cf9e548332d90a91dcebb102f6f7435c", "is_reserved": 0, "lon": -77.04015133333333, "is_disabled": 0, "fusion_lat": 0.0, "lat": 38.898418166666666, "bike_id": "cf9e548332d90a91dcebb102f6f7435c", "fusion_lon": 0.0}, {"rental_uris": {"ios": "https://dc.lft.to/lastmile_qr_scan", "android": "https://dc.lft.to/lastmile_qr_scan"}, "type": "electric_scooter", "name": "4fa8d2b888c7c280088289e3658ddba8", "is_reserved": 0, "lon": -77.026249, "is_disabled": 0, "fusion_lat": 0.0, "lat": 38.892226, "bike_id": "4fa8d2b888c7c280088289e3658ddba8", "fusion_lon": 0.0}, {"rental_uris": {"ios": "https://dc.lft.to/lastmile_qr_scan", "android": "https://dc.lft.to/lastmile_qr_scan"}, "type": "electric_bike", "name": "e50f578670793dde295458af4638af26", "is_reserved": 0, "lon": -77.00551133333333, "is_disabled": 0, "fusion_lat": 0.0, "lat": 38.900084666666665, "bike_id": "e50f578670793dde295458af4638af26", "fusion_lon": 0.0}, {"rental_uris": {"ios": "https://dc.lft.to/lastmile_qr_scan", "android": "https://dc.lft.to/lastmile_qr_scan"}, "type": "electric_scooter", "name": "d988ed0a0afcd7c521a2f9898e14950c", "is_reserved": 0, "lon": -77.00125733333333, "is_disabled": 0, "fusion_lat": 0.0, "lat": 38.873787666666665, "bike_id": "d988ed0a0afcd7c521a2f9898e14950c", "fusion_lon": 0.0}, {"rental_uris": {"ios": "https://dc.lft.to/lastmile_qr_scan", "android": "https://dc.lft.to/lastmile_qr_scan"}, "type": "electric_scooter", "name": "497573de00d523ea2178f8c3225da8c2", "is_reserved": 0, "lon": -77.04494666666666, "is_disabled": 0, "fusion_lat": 0.0, "lat": 38.919232666666666, "bike_id": "497573de00d523ea2178f8c3225da8c2", "fusion_lon": 0.0}, {"rental_uris": {"ios": "https://dc.lft.to/lastmile_qr_scan", "android": "https://dc.lft.to/lastmile_qr_scan"}, "type": "electric_scooter", "name": "2757d26183d01658d00c7f4018d88bbb", "is_reserved": 0, "lon": -77.05743216666667, "is_disabled": 0, "fusion_lat": 0.0, "lat": 38.9339675, "bike_id": "2757d26183d01658d00c7f4018d88bbb", "fusion_lon": 0.0}, {"rental_uris": {"ios": "https://dc.lft.to/lastmile_qr_scan", "android": "https://dc.lft.to/lastmile_qr_scan"}, "type": "electric_bike", "name": "37ff87bd983553a1e039b52b3348690b", "is_reserved": 0, "lon": -77.066924, "is_disabled": 0, "fusion_lat": 0.0, "lat": 38.83168533333333, "bike_id": "37ff87bd983553a1e039b52b3348690b", "fusion_lon": 0.0}, {"rental_uris": {"ios": "https://dc.lft.to/lastmile_qr_scan", "android": "https://dc.lft.to/lastmile_qr_scan"}, "type": "electric_scooter", "name": "4b90b8173eddf2b47aaf4fc29dd0a7b8", "is_reserved": 0, "lon": -76.98054633333334, "is_disabled": 0, "fusion_lat": 0.0, "lat": 38.90760266666667, "bike_id": "4b90b8173eddf2b47aaf4fc29dd0a7b8", "fusion_lon": 0.0}, {"rental_uris": {"ios": "https://dc.lft.to/lastmile_qr_scan", "android": "https://dc.lft.to/lastmile_qr_scan"}, "type": "electric_scooter", "name": "e7dc7d7e078dcdefdc03abfaf8ee2fa6", "is_reserved": 0, "lon": -77.03994433333334, "is_disabled": 0, "fusion_lat": 0.0, "lat": 38.91412183333333, "bike_id": "e7dc7d7e078dcdefdc03abfaf8ee2fa6", "fusion_lon": 0.0}, {"rental_uris": {"ios": "https://dc.lft.to/lastmile_qr_scan", "android": "https://dc.lft.to/lastmile_qr_scan"}, "type": "electric_scooter", "name": "b31d9061dca0cd555ca8a132b8637c9a", "is_reserved": 0, "lon": -77.01952583333333, "is_disabled": 0, "fusion_lat": 0.0, "lat": 38.9225715, "bike_id": "b31d9061dca0cd555ca8a132b8637c9a", "fusion_lon": 0.0}, {"rental_uris": {"ios": "https://dc.lft.to/lastmile_qr_scan", "android": "https://dc.lft.to/lastmile_qr_scan"}, "type": "electric_scooter", "name": "7f7e1c597a59c3df4e730b4ecedb9a4c", "is_reserved": 0, "lon": -77.03319716666667, "is_disabled": 0, "fusion_lat": 0.0, "lat": 38.8988385, "bike_id": "7f7e1c597a59c3df4e730b4ecedb9a4c", "fusion_lon": 0.0}, {"rental_uris": {"ios": "https://dc.lft.to/lastmile_qr_scan", "android": "https://dc.lft.to/lastmile_qr_scan"}, "type": "electric_bike", "name": "bf64b9b241dd09f164e4f7257a7c5d8c", "is_reserved": 0, "lon": -76.99496, "is_disabled": 0, "fusion_lat": 0.0, "lat": 38.86217766666667, "bike_id": "bf64b9b241dd09f164e4f7257a7c5d8c", "fusion_lon": 0.0}, {"rental_uris": {"ios": "https://dc.lft.to/lastmile_qr_scan", "android": "https://dc.lft.to/lastmile_qr_scan"}, "type": "electric_scooter", "name": "2045bcccc1ea8fc5efa96da985612f39", "is_reserved": 0, "lon": -77.03861216666667, "is_disabled": 0, "fusion_lat": 0.0, "lat": 38.91691983333333, "bike_id": "2045bcccc1ea8fc5efa96da985612f39", "fusion_lon": 0.0}, {"rental_uris": {"ios": "https://dc.lft.to/lastmile_qr_scan", "android": "https://dc.lft.to/lastmile_qr_scan"}, "type": "electric_bike", "name": "efc65aeb7488bc7f08ff575bf513de4c", "is_reserved": 0, "lon": -76.90741483333333, "is_disabled": 0, "fusion_lat": 0.0, "lat": 38.896180666666666, "bike_id": "efc65aeb7488bc7f08ff575bf513de4c", "fusion_lon": 0.0}, {"rental_uris": {"ios": "https://dc.lft.to/lastmile_qr_scan", "android": "https://dc.lft.to/lastmile_qr_scan"}, "type": "electric_scooter", "name": "853ce5f05f6ffc5465548b10325f1c64", "is_reserved": 0, "lon": -77.02378983333334, "is_disabled": 0, "fusion_lat": 0.0, "lat": 38.919626666666666, "bike_id": "853ce5f05f6ffc5465548b10325f1c64", "fusion_lon": 0.0}, {"rental_uris": {"ios": "https://dc.lft.to/lastmile_qr_scan", "android": "https://dc.lft.to/lastmile_qr_scan"}, "type": "electric_scooter", "name": "9400b0ef5de5dc1cef94c36958832923", "is_reserved": 0, "lon": -77.022723, "is_disabled": 0, "fusion_lat": 0.0, "lat": 38.92395916666667, "bike_id": "9400b0ef5de5dc1cef94c36958832923", "fusion_lon": 0.0}, {"rental_uris": {"ios": "https://dc.lft.to/lastmile_qr_scan", "android": "https://dc.lft.to/lastmile_qr_scan"}, "type": "electric_scooter", "name": "2a4feed2d7fd1735d430af4ca2dbac3a", "is_reserved": 0, "lon": -77.04097283333333, "is_disabled": 0, "fusion_lat": 0.0, "lat": 38.9237305, "bike_id": "2a4feed2d7fd1735d430af4ca2dbac3a", "fusion_lon": 0.0}, {"rental_uris": {"ios": "https://dc.lft.to/lastmile_qr_scan", "android": "https://dc.lft.to/lastmile_qr_scan"}, "type": "electric_scooter", "name": "f93cf5646cbccd4aa986404b50444cee", "is_reserved": 0, "lon": -77.02427683333333, "is_disabled": 0, "fusion_lat": 0.0, "lat": 38.923204166666665, "bike_id": "f93cf5646cbccd4aa986404b50444cee", "fusion_lon": 0.0}, {"rental_uris": {"ios": "https://dc.lft.to/lastmile_qr_scan", "android": "https://dc.lft.to/lastmile_qr_scan"}, "type": "electric_scooter", "name": "de7461f57d1a5479a6ad01e4c9f42e1e", "is_reserved": 0, "lon": -77.04333166666666, "is_disabled": 0, "fusion_lat": 0.0, "lat": 38.89224933333333, "bike_id": "de7461f57d1a5479a6ad01e4c9f42e1e", "fusion_lon": 0.0}, {"rental_uris": {"ios": "https://dc.lft.to/lastmile_qr_scan", "android": "https://dc.lft.to/lastmile_qr_scan"}, "type": "electric_scooter", "name": "2dadb054da548da1f291c46ae075512a", "is_reserved": 0, "lon": -77.02711833333333, "is_disabled": 0, "fusion_lat": 0.0, "lat": 38.93576383333333, "bike_id": "2dadb054da548da1f291c46ae075512a", "fusion_lon": 0.0}, {"rental_uris": {"ios": "https://dc.lft.to/lastmile_qr_scan", "android": "https://dc.lft.to/lastmile_qr_scan"}, "type": "electric_scooter", "name": "5179d1b0ba2680d2779da964b510998a", "is_reserved": 0, "lon": -77.03245666666666, "is_disabled": 0, "fusion_lat": 0.0, "lat": 38.920604, "bike_id": "5179d1b0ba2680d2779da964b510998a", "fusion_lon": 0.0}, {"rental_uris": {"ios": "https://dc.lft.to/lastmile_qr_scan", "android": "https://dc.lft.to/lastmile_qr_scan"}, "type": "electric_scooter", "name": "6cbba0f4113e9e7c40cccc35be24815b", "is_reserved": 0, "lon": -77.00285416666667, "is_disabled": 0, "fusion_lat": 0.0, "lat": 38.90552483333333, "bike_id": "6cbba0f4113e9e7c40cccc35be24815b", "fusion_lon": 0.0}, {"rental_uris": {"ios": "https://dc.lft.to/lastmile_qr_scan", "android": "https://dc.lft.to/lastmile_qr_scan"}, "type": "electric_scooter", "name": "9d3b0b0e68b51746dd85f417f64b5d8c", "is_reserved": 0, "lon": -77.0387825, "is_disabled": 0, "fusion_lat": 0.0, "lat": 38.925068, "bike_id": "9d3b0b0e68b51746dd85f417f64b5d8c", "fusion_lon": 0.0}, {"rental_uris": {"ios": "https://dc.lft.to/lastmile_qr_scan", "android": "https://dc.lft.to/lastmile_qr_scan"}, "type": "electric_scooter", "name": "81a51b4f9e89d3473c71d4e652f4c2d3", "is_reserved": 0, "lon": -77.038571, "is_disabled": 0, "fusion_lat": 0.0, "lat": 38.9168935, "bike_id": "81a51b4f9e89d3473c71d4e652f4c2d3", "fusion_lon": 0.0}, {"rental_uris": {"ios": "https://dc.lft.to/lastmile_qr_scan", "android": "https://dc.lft.to/lastmile_qr_scan"}, "type": "electric_scooter", "name": "e75efc30661b9083ec6e1c5a62f8093f", "is_reserved": 0, "lon": -77.04128383333334, "is_disabled": 0, "fusion_lat": 0.0, "lat": 38.93464, "bike_id": "e75efc30661b9083ec6e1c5a62f8093f", "fusion_lon": 0.0}, {"rental_uris": {"ios": "https://dc.lft.to/lastmile_qr_scan", "android": "https://dc.lft.to/lastmile_qr_scan"}, "type": "electric_scooter", "name": "29ca2286090e9ea2a93d61952769aa3e", "is_reserved": 0, "lon": -77.04970783333333, "is_disabled": 0, "fusion_lat": 0.0, "lat": 38.90089316666667, "bike_id": "29ca2286090e9ea2a93d61952769aa3e", "fusion_lon": 0.0}, {"rental_uris": {"ios": "https://dc.lft.to/lastmile_qr_scan", "android": "https://dc.lft.to/lastmile_qr_scan"}, "type": "electric_bike", "name": "c1716f44e6cde5b7b09ed95068a23521", "is_reserved": 0, "lon": -77.03186833333334, "is_disabled": 0, "fusion_lat": 0.0, "lat": 38.910736166666666, "bike_id": "c1716f44e6cde5b7b09ed95068a23521", "fusion_lon": 0.0}, {"rental_uris": {"ios": "https://dc.lft.to/lastmile_qr_scan", "android": "https://dc.lft.to/lastmile_qr_scan"}, "type": "electric_scooter", "name": "929974ae5db01770a4de0429a20bd2b3", "is_reserved": 0, "lon": -77.022279, "is_disabled": 0, "fusion_lat": 0.0, "lat": 38.924618, "bike_id": "929974ae5db01770a4de0429a20bd2b3", "fusion_lon": 0.0}, {"rental_uris": {"ios": "https://dc.lft.to/lastmile_qr_scan", "android": "https://dc.lft.to/lastmile_qr_scan"}, "type": "electric_scooter", "name": "a1f73e10cfbf42ff07e4d709e961d3e2", "is_reserved": 0, "lon": -77.00879233333333, "is_disabled": 0, "fusion_lat": 0.0, "lat": 38.92243633333333, "bike_id": "a1f73e10cfbf42ff07e4d709e961d3e2", "fusion_lon": 0.0}, {"rental_uris": {"ios": "https://dc.lft.to/lastmile_qr_scan", "android": "https://dc.lft.to/lastmile_qr_scan"}, "type": "electric_bike", "name": "bd1df204c03b65680e3b9665305be0d0", "is_reserved": 0, "lon": -77.01666216666666, "is_disabled": 0, "fusion_lat": 0.0, "lat": 38.88123266666667, "bike_id": "bd1df204c03b65680e3b9665305be0d0", "fusion_lon": 0.0}, {"rental_uris": {"ios": "https://dc.lft.to/lastmile_qr_scan", "android": "https://dc.lft.to/lastmile_qr_scan"}, "type": "electric_scooter", "name": "b7e3b669065121a55c4b81d4dc6361bf", "is_reserved": 0, "lon": -77.0365205, "is_disabled": 0, "fusion_lat": 0.0, "lat": 38.89861466666667, "bike_id": "b7e3b669065121a55c4b81d4dc6361bf", "fusion_lon": 0.0}, {"rental_uris": {"ios": "https://dc.lft.to/lastmile_qr_scan", "android": "https://dc.lft.to/lastmile_qr_scan"}, "type": "electric_scooter", "name": "0f5981bf74f43ae890c199e78a811b04", "is_reserved": 0, "lon": -77.023699, "is_disabled": 0, "fusion_lat": 0.0, "lat": 38.892206333333334, "bike_id": "0f5981bf74f43ae890c199e78a811b04", "fusion_lon": 0.0}, {"rental_uris": {"ios": "https://dc.lft.to/lastmile_qr_scan", "android": "https://dc.lft.to/lastmile_qr_scan"}, "type": "electric_scooter", "name": "1100a7f7c222b91732551b15fb737460", "is_reserved": 0, "lon": -76.943169, "is_disabled": 0, "fusion_lat": 0.0, "lat": 38.87916083333333, "bike_id": "1100a7f7c222b91732551b15fb737460", "fusion_lon": 0.0}, {"rental_uris": {"ios": "https://dc.lft.to/lastmile_qr_scan", "android": "https://dc.lft.to/lastmile_qr_scan"}, "type": "electric_bike", "name": "05c27fdde377f0cf204f2ba5589b7ce7", "is_reserved": 0, "lon": -77.07243266666667, "is_disabled": 0, "fusion_lat": 0.0, "lat": 38.813614666666666, "bike_id": "05c27fdde377f0cf204f2ba5589b7ce7", "fusion_lon": 0.0}, {"rental_uris": {"ios": "https://dc.lft.to/lastmile_qr_scan", "android": "https://dc.lft.to/lastmile_qr_scan"}, "type": "electric_scooter", "name": "5e22ae85b5b817941292a0c5156c2e18", "is_reserved": 0, "lon": -77.031911, "is_disabled": 0, "fusion_lat": 0.0, "lat": 38.916191166666664, "bike_id": "5e22ae85b5b817941292a0c5156c2e18", "fusion_lon": 0.0}, {"rental_uris": {"ios": "https://dc.lft.to/lastmile_qr_scan", "android": "https://dc.lft.to/lastmile_qr_scan"}, "type": "electric_scooter", "name": "3bc20a21a75528aed15abec286da9155", "is_reserved": 0, "lon": -77.02524816666667, "is_disabled": 0, "fusion_lat": 0.0, "lat": 38.929812166666665, "bike_id": "3bc20a21a75528aed15abec286da9155", "fusion_lon": 0.0}, {"rental_uris": {"ios": "https://dc.lft.to/lastmile_qr_scan", "android": "https://dc.lft.to/lastmile_qr_scan"}, "type": "electric_scooter", "name": "f6539306aa923d802f82fa763eb4d626", "is_reserved": 0, "lon": -77.0472275, "is_disabled": 0, "fusion_lat": 0.0, "lat": 38.90181466666667, "bike_id": "f6539306aa923d802f82fa763eb4d626", "fusion_lon": 0.0}, {"rental_uris": {"ios": "https://dc.lft.to/lastmile_qr_scan", "android": "https://dc.lft.to/lastmile_qr_scan"}, "type": "electric_scooter", "name": "1e5da1a6906065879c6f46ffe8a542aa", "is_reserved": 0, "lon": -77.02595466666666, "is_disabled": 0, "fusion_lat": 0.0, "lat": 38.91693866666667, "bike_id": "1e5da1a6906065879c6f46ffe8a542aa", "fusion_lon": 0.0}, {"rental_uris": {"ios": "https://dc.lft.to/lastmile_qr_scan", "android": "https://dc.lft.to/lastmile_qr_scan"}, "type": "electric_scooter", "name": "d20be66e0cd794c6d6048f19dc073430", "is_reserved": 0, "lon": -77.02132066666667, "is_disabled": 0, "fusion_lat": 0.0, "lat": 38.925160166666664, "bike_id": "d20be66e0cd794c6d6048f19dc073430", "fusion_lon": 0.0}, {"rental_uris": {"ios": "https://dc.lft.to/lastmile_qr_scan", "android": "https://dc.lft.to/lastmile_qr_scan"}, "type": "electric_scooter", "name": "4418c80e11d01c29d45eeb662f38bd64", "is_reserved": 0, "lon": -76.99595266666667, "is_disabled": 0, "fusion_lat": 0.0, "lat": 38.88483383333333, "bike_id": "4418c80e11d01c29d45eeb662f38bd64", "fusion_lon": 0.0}, {"rental_uris": {"ios": "https://dc.lft.to/lastmile_qr_scan", "android": "https://dc.lft.to/lastmile_qr_scan"}, "type": "electric_scooter", "name": "ad05890c9e0449d0e8ed9a92404691cd", "is_reserved": 0, "lon": -77.040376, "is_disabled": 0, "fusion_lat": 0.0, "lat": 38.924601333333335, "bike_id": "ad05890c9e0449d0e8ed9a92404691cd", "fusion_lon": 0.0}, {"rental_uris": {"ios": "https://dc.lft.to/lastmile_qr_scan", "android": "https://dc.lft.to/lastmile_qr_scan"}, "type": "electric_scooter", "name": "6a36fd103866d73e8d8f52ececc75cde", "is_reserved": 0, "lon": -77.0222005, "is_disabled": 0, "fusion_lat": 0.0, "lat": 38.9111485, "bike_id": "6a36fd103866d73e8d8f52ececc75cde", "fusion_lon": 0.0}, {"rental_uris": {"ios": "https://dc.lft.to/lastmile_qr_scan", "android": "https://dc.lft.to/lastmile_qr_scan"}, "type": "electric_scooter", "name": "f20eac7bffb163b69dc65faa385c472e", "is_reserved": 0, "lon": -77.0117615, "is_disabled": 0, "fusion_lat": 0.0, "lat": 38.90028483333333, "bike_id": "f20eac7bffb163b69dc65faa385c472e", "fusion_lon": 0.0}, {"rental_uris": {"ios": "https://dc.lft.to/lastmile_qr_scan", "android": "https://dc.lft.to/lastmile_qr_scan"}, "type": "electric_scooter", "name": "68a7c90537ec335de4059e84ddd8d967", "is_reserved": 0, "lon": -77.07070033333333, "is_disabled": 0, "fusion_lat": 0.0, "lat": 38.919364333333334, "bike_id": "68a7c90537ec335de4059e84ddd8d967", "fusion_lon": 0.0}, {"rental_uris": {"ios": "https://dc.lft.to/lastmile_qr_scan", "android": "https://dc.lft.to/lastmile_qr_scan"}, "type": "electric_scooter", "name": "8919775f06817bf4f5290dc394d49e9d", "is_reserved": 0, "lon": -77.00210466666667, "is_disabled": 0, "fusion_lat": 0.0, "lat": 38.894968, "bike_id": "8919775f06817bf4f5290dc394d49e9d", "fusion_lon": 0.0}, {"rental_uris": {"ios": "https://dc.lft.to/lastmile_qr_scan", "android": "https://dc.lft.to/lastmile_qr_scan"}, "type": "electric_scooter", "name": "0fab42f9d37acef1c7244919bd6e73ba", "is_reserved": 0, "lon": -77.03469866666667, "is_disabled": 0, "fusion_lat": 0.0, "lat": 38.930276666666664, "bike_id": "0fab42f9d37acef1c7244919bd6e73ba", "fusion_lon": 0.0}, {"rental_uris": {"ios": "https://dc.lft.to/lastmile_qr_scan", "android": "https://dc.lft.to/lastmile_qr_scan"}, "type": "electric_scooter", "name": "50b7dc6cfdec2e7161907dc93b3f61d0", "is_reserved": 0, "lon": -77.0295235, "is_disabled": 0, "fusion_lat": 0.0, "lat": 38.917975166666665, "bike_id": "50b7dc6cfdec2e7161907dc93b3f61d0", "fusion_lon": 0.0}, {"rental_uris": {"ios": "https://dc.lft.to/lastmile_qr_scan", "android": "https://dc.lft.to/lastmile_qr_scan"}, "type": "electric_scooter", "name": "7a796273456703a32f8993fd55a0f949", "is_reserved": 0, "lon": -77.02207766666666, "is_disabled": 0, "fusion_lat": 0.0, "lat": 38.910666666666664, "bike_id": "7a796273456703a32f8993fd55a0f949", "fusion_lon": 0.0}, {"rental_uris": {"ios": "https://dc.lft.to/lastmile_qr_scan", "android": "https://dc.lft.to/lastmile_qr_scan"}, "type": "electric_scooter", "name": "0cd2d4b29f971461c999292b62b2cc36", "is_reserved": 0, "lon": -77.047403, "is_disabled": 0, "fusion_lat": 0.0, "lat": 38.912608166666665, "bike_id": "0cd2d4b29f971461c999292b62b2cc36", "fusion_lon": 0.0}, {"rental_uris": {"ios": "https://dc.lft.to/lastmile_qr_scan", "android": "https://dc.lft.to/lastmile_qr_scan"}, "type": "electric_scooter", "name": "c4752eb587f9b447f7c79d0cd850ddf8", "is_reserved": 0, "lon": -77.02344566666666, "is_disabled": 0, "fusion_lat": 0.0, "lat": 38.9176765, "bike_id": "c4752eb587f9b447f7c79d0cd850ddf8", "fusion_lon": 0.0}, {"rental_uris": {"ios": "https://dc.lft.to/lastmile_qr_scan", "android": "https://dc.lft.to/lastmile_qr_scan"}, "type": "electric_bike", "name": "7de2a3d320c9a17d621b5a43a10e0c4b", "is_reserved": 0, "lon": -76.99595216666667, "is_disabled": 0, "fusion_lat": 0.0, "lat": 38.86233566666667, "bike_id": "7de2a3d320c9a17d621b5a43a10e0c4b", "fusion_lon": 0.0}, {"rental_uris": {"ios": "https://dc.lft.to/lastmile_qr_scan", "android": "https://dc.lft.to/lastmile_qr_scan"}, "type": "electric_scooter", "name": "26bff69b217d95312c5dcdf56bf52bad", "is_reserved": 0, "lon": -77.02054966666667, "is_disabled": 0, "fusion_lat": 0.0, "lat": 38.9225445, "bike_id": "26bff69b217d95312c5dcdf56bf52bad", "fusion_lon": 0.0}, {"rental_uris": {"ios": "https://dc.lft.to/lastmile_qr_scan", "android": "https://dc.lft.to/lastmile_qr_scan"}, "type": "electric_scooter", "name": "518a9b160cf4d5a125c028719d6bc788", "is_reserved": 0, "lon": -76.9940865, "is_disabled": 0, "fusion_lat": 0.0, "lat": 38.877816333333335, "bike_id": "518a9b160cf4d5a125c028719d6bc788", "fusion_lon": 0.0}, {"rental_uris": {"ios": "https://dc.lft.to/lastmile_qr_scan", "android": "https://dc.lft.to/lastmile_qr_scan"}, "type": "electric_scooter", "name": "0d225d077c4e5e4df689e2fdbed51556", "is_reserved": 0, "lon": -76.9979465, "is_disabled": 0, "fusion_lat": 0.0, "lat": 38.88564366666667, "bike_id": "0d225d077c4e5e4df689e2fdbed51556", "fusion_lon": 0.0}, {"rental_uris": {"ios": "https://dc.lft.to/lastmile_qr_scan", "android": "https://dc.lft.to/lastmile_qr_scan"}, "type": "electric_scooter", "name": "ed856ff141db4261d6865d0ff1c6041c", "is_reserved": 0, "lon": -77.0193655, "is_disabled": 0, "fusion_lat": 0.0, "lat": 38.87670333333333, "bike_id": "ed856ff141db4261d6865d0ff1c6041c", "fusion_lon": 0.0}, {"rental_uris": {"ios": "https://dc.lft.to/lastmile_qr_scan", "android": "https://dc.lft.to/lastmile_qr_scan"}, "type": "electric_bike", "name": "6bfa1c399c92da8a256ac150d821387c", "is_reserved": 0, "lon": -76.98337533333333, "is_disabled": 0, "fusion_lat": 0.0, "lat": 38.86263016666667, "bike_id": "6bfa1c399c92da8a256ac150d821387c", "fusion_lon": 0.0}, {"rental_uris": {"ios": "https://dc.lft.to/lastmile_qr_scan", "android": "https://dc.lft.to/lastmile_qr_scan"}, "type": "electric_scooter", "name": "618e76b37b8255c371a3cc96cb96af6f", "is_reserved": 0, "lon": -77.009373, "is_disabled": 0, "fusion_lat": 0.0, "lat": 38.8767225, "bike_id": "618e76b37b8255c371a3cc96cb96af6f", "fusion_lon": 0.0}, {"rental_uris": {"ios": "https://dc.lft.to/lastmile_qr_scan", "android": "https://dc.lft.to/lastmile_qr_scan"}, "type": "electric_scooter", "name": "9dd75a1a27251be67b3773cf70ffeafd", "is_reserved": 0, "lon": -77.02273983333333, "is_disabled": 0, "fusion_lat": 0.0, "lat": 38.890369166666666, "bike_id": "9dd75a1a27251be67b3773cf70ffeafd", "fusion_lon": 0.0}, {"rental_uris": {"ios": "https://dc.lft.to/lastmile_qr_scan", "android": "https://dc.lft.to/lastmile_qr_scan"}, "type": "electric_scooter", "name": "f0f36794532d081a400d134369b9fcd1", "is_reserved": 0, "lon": -77.0320875, "is_disabled": 0, "fusion_lat": 0.0, "lat": 38.914201166666665, "bike_id": "f0f36794532d081a400d134369b9fcd1", "fusion_lon": 0.0}, {"rental_uris": {"ios": "https://dc.lft.to/lastmile_qr_scan", "android": "https://dc.lft.to/lastmile_qr_scan"}, "type": "electric_scooter", "name": "28b21d30ad02e9fb0f75d59de84fb1d2", "is_reserved": 0, "lon": -77.03500983333333, "is_disabled": 0, "fusion_lat": 0.0, "lat": 38.918830666666665, "bike_id": "28b21d30ad02e9fb0f75d59de84fb1d2", "fusion_lon": 0.0}, {"rental_uris": {"ios": "https://dc.lft.to/lastmile_qr_scan", "android": "https://dc.lft.to/lastmile_qr_scan"}, "type": "electric_scooter", "name": "7c879fa7bdecf37716c07ca298cf4bbe", "is_reserved": 0, "lon": -77.02038866666666, "is_disabled": 0, "fusion_lat": 0.0, "lat": 38.924269, "bike_id": "7c879fa7bdecf37716c07ca298cf4bbe", "fusion_lon": 0.0}, {"rental_uris": {"ios": "https://dc.lft.to/lastmile_qr_scan", "android": "https://dc.lft.to/lastmile_qr_scan"}, "type": "electric_scooter", "name": "fc6c882ae0945a76d38cdcd3aa16152c", "is_reserved": 0, "lon": -77.02086533333333, "is_disabled": 0, "fusion_lat": 0.0, "lat": 38.92407016666667, "bike_id": "fc6c882ae0945a76d38cdcd3aa16152c", "fusion_lon": 0.0}, {"rental_uris": {"ios": "https://dc.lft.to/lastmile_qr_scan", "android": "https://dc.lft.to/lastmile_qr_scan"}, "type": "electric_scooter", "name": "11b230db65436c9c602f778add57ba42", "is_reserved": 0, "lon": -77.02576333333333, "is_disabled": 0, "fusion_lat": 0.0, "lat": 38.89453133333333, "bike_id": "11b230db65436c9c602f778add57ba42", "fusion_lon": 0.0}, {"rental_uris": {"ios": "https://dc.lft.to/lastmile_qr_scan", "android": "https://dc.lft.to/lastmile_qr_scan"}, "type": "electric_scooter", "name": "9cce75814d9cd766fe911545b928f5ad", "is_reserved": 0, "lon": -77.01759366666667, "is_disabled": 0, "fusion_lat": 0.0, "lat": 38.876676333333336, "bike_id": "9cce75814d9cd766fe911545b928f5ad", "fusion_lon": 0.0}, {"rental_uris": {"ios": "https://dc.lft.to/lastmile_qr_scan", "android": "https://dc.lft.to/lastmile_qr_scan"}, "type": "electric_scooter", "name": "cdcb13de8e30be3a37930f483d29a8be", "is_reserved": 0, "lon": -77.027253, "is_disabled": 0, "fusion_lat": 0.0, "lat": 38.904839, "bike_id": "cdcb13de8e30be3a37930f483d29a8be", "fusion_lon": 0.0}, {"rental_uris": {"ios": "https://dc.lft.to/lastmile_qr_scan", "android": "https://dc.lft.to/lastmile_qr_scan"}, "type": "electric_scooter", "name": "39b53622f6a695a6cb7d77fff0b3626b", "is_reserved": 0, "lon": -77.04150516666667, "is_disabled": 0, "fusion_lat": 0.0, "lat": 38.91675633333333, "bike_id": "39b53622f6a695a6cb7d77fff0b3626b", "fusion_lon": 0.0}, {"rental_uris": {"ios": "https://dc.lft.to/lastmile_qr_scan", "android": "https://dc.lft.to/lastmile_qr_scan"}, "type": "electric_scooter", "name": "c88bfb511f9370b4c94cb3ed8a123341", "is_reserved": 0, "lon": -77.04183183333333, "is_disabled": 0, "fusion_lat": 0.0, "lat": 38.9052735, "bike_id": "c88bfb511f9370b4c94cb3ed8a123341", "fusion_lon": 0.0}, {"rental_uris": {"ios": "https://dc.lft.to/lastmile_qr_scan", "android": "https://dc.lft.to/lastmile_qr_scan"}, "type": "electric_scooter", "name": "e58695d950c64e049c578cb7f2e21c62", "is_reserved": 0, "lon": -76.929488, "is_disabled": 0, "fusion_lat": 0.0, "lat": 38.903329, "bike_id": "e58695d950c64e049c578cb7f2e21c62", "fusion_lon": 0.0}, {"rental_uris": {"ios": "https://dc.lft.to/lastmile_qr_scan", "android": "https://dc.lft.to/lastmile_qr_scan"}, "type": "electric_scooter", "name": "07368fd292782e4f43320d2d658f9480", "is_reserved": 0, "lon": -76.98318066666667, "is_disabled": 0, "fusion_lat": 0.0, "lat": 38.889701333333335, "bike_id": "07368fd292782e4f43320d2d658f9480", "fusion_lon": 0.0}, {"rental_uris": {"ios": "https://dc.lft.to/lastmile_qr_scan", "android": "https://dc.lft.to/lastmile_qr_scan"}, "type": "electric_bike", "name": "9c90c3a9118c149553b0f84b2f67aa61", "is_reserved": 0, "lon": -77.07165, "is_disabled": 0, "fusion_lat": 0.0, "lat": 38.90777216666667, "bike_id": "9c90c3a9118c149553b0f84b2f67aa61", "fusion_lon": 0.0}, {"rental_uris": {"ios": "https://dc.lft.to/lastmile_qr_scan", "android": "https://dc.lft.to/lastmile_qr_scan"}, "type": "electric_scooter", "name": "df9c8643022bd1bd5b83a3f8676bf427", "is_reserved": 0, "lon": -76.94854233333334, "is_disabled": 0, "fusion_lat": 0.0, "lat": 38.88299583333333, "bike_id": "df9c8643022bd1bd5b83a3f8676bf427", "fusion_lon": 0.0}, {"rental_uris": {"ios": "https://dc.lft.to/lastmile_qr_scan", "android": "https://dc.lft.to/lastmile_qr_scan"}, "type": "electric_scooter", "name": "331dca5f9f93e851e9eb43822244dd9c", "is_reserved": 0, "lon": -77.02101883333333, "is_disabled": 0, "fusion_lat": 0.0, "lat": 38.921856, "bike_id": "331dca5f9f93e851e9eb43822244dd9c", "fusion_lon": 0.0}, {"rental_uris": {"ios": "https://dc.lft.to/lastmile_qr_scan", "android": "https://dc.lft.to/lastmile_qr_scan"}, "type": "electric_scooter", "name": "07fd1fb8851c367a7e8ba5a622289070", "is_reserved": 0, "lon": -77.0190405, "is_disabled": 0, "fusion_lat": 0.0, "lat": 38.894852, "bike_id": "07fd1fb8851c367a7e8ba5a622289070", "fusion_lon": 0.0}, {"rental_uris": {"ios": "https://dc.lft.to/lastmile_qr_scan", "android": "https://dc.lft.to/lastmile_qr_scan"}, "type": "electric_scooter", "name": "bbf375d9e192b4256479c1c0f768c6ed", "is_reserved": 0, "lon": -77.02107866666667, "is_disabled": 0, "fusion_lat": 0.0, "lat": 38.92364516666667, "bike_id": "bbf375d9e192b4256479c1c0f768c6ed", "fusion_lon": 0.0}, {"rental_uris": {"ios": "https://dc.lft.to/lastmile_qr_scan", "android": "https://dc.lft.to/lastmile_qr_scan"}, "type": "electric_scooter", "name": "46c7eede4fbfee9134b5b123d8c56269", "is_reserved": 0, "lon": -76.97984566666666, "is_disabled": 0, "fusion_lat": 0.0, "lat": 38.907331666666664, "bike_id": "46c7eede4fbfee9134b5b123d8c56269", "fusion_lon": 0.0}, {"rental_uris": {"ios": "https://dc.lft.to/lastmile_qr_scan", "android": "https://dc.lft.to/lastmile_qr_scan"}, "type": "electric_scooter", "name": "7011461b66a4b7a9419707d87df8dcfd", "is_reserved": 0, "lon": -77.0186295, "is_disabled": 0, "fusion_lat": 0.0, "lat": 38.921315666666665, "bike_id": "7011461b66a4b7a9419707d87df8dcfd", "fusion_lon": 0.0}, {"rental_uris": {"ios": "https://dc.lft.to/lastmile_qr_scan", "android": "https://dc.lft.to/lastmile_qr_scan"}, "type": "electric_scooter", "name": "8131a35d9d886a1affc61aa24f80768e", "is_reserved": 0, "lon": -77.021066, "is_disabled": 0, "fusion_lat": 0.0, "lat": 38.92708483333333, "bike_id": "8131a35d9d886a1affc61aa24f80768e", "fusion_lon": 0.0}, {"rental_uris": {"ios": "https://dc.lft.to/lastmile_qr_scan", "android": "https://dc.lft.to/lastmile_qr_scan"}, "type": "electric_scooter", "name": "6cf2281a343065cda7fda3d5d7c6ddad", "is_reserved": 0, "lon": -77.03909166666666, "is_disabled": 0, "fusion_lat": 0.0, "lat": 38.91404, "bike_id": "6cf2281a343065cda7fda3d5d7c6ddad", "fusion_lon": 0.0}, {"rental_uris": {"ios": "https://dc.lft.to/lastmile_qr_scan", "android": "https://dc.lft.to/lastmile_qr_scan"}, "type": "electric_scooter", "name": "eed2b9b7e2d6aee87c1766c0b35500b2", "is_reserved": 0, "lon": -77.04100416666667, "is_disabled": 0, "fusion_lat": 0.0, "lat": 38.90541416666667, "bike_id": "eed2b9b7e2d6aee87c1766c0b35500b2", "fusion_lon": 0.0}, {"rental_uris": {"ios": "https://dc.lft.to/lastmile_qr_scan", "android": "https://dc.lft.to/lastmile_qr_scan"}, "type": "electric_bike", "name": "1c125805600847a5d7a3baa59026706e", "is_reserved": 0, "lon": -76.95818416666667, "is_disabled": 0, "fusion_lat": 0.0, "lat": 38.919992, "bike_id": "1c125805600847a5d7a3baa59026706e", "fusion_lon": 0.0}, {"rental_uris": {"ios": "https://dc.lft.to/lastmile_qr_scan", "android": "https://dc.lft.to/lastmile_qr_scan"}, "type": "electric_scooter", "name": "dfb753c599c8f8b7b2abbd40201ccfc5", "is_reserved": 0, "lon": -77.003587, "is_disabled": 0, "fusion_lat": 0.0, "lat": 38.892627, "bike_id": "dfb753c599c8f8b7b2abbd40201ccfc5", "fusion_lon": 0.0}, {"rental_uris": {"ios": "https://dc.lft.to/lastmile_qr_scan", "android": "https://dc.lft.to/lastmile_qr_scan"}, "type": "electric_scooter", "name": "207eeb8adea1adb0b841d0b11e9f483e", "is_reserved": 0, "lon": -77.029483, "is_disabled": 0, "fusion_lat": 0.0, "lat": 38.9167625, "bike_id": "207eeb8adea1adb0b841d0b11e9f483e", "fusion_lon": 0.0}, {"rental_uris": {"ios": "https://dc.lft.to/lastmile_qr_scan", "android": "https://dc.lft.to/lastmile_qr_scan"}, "type": "electric_scooter", "name": "3a25e404d2126deb6b810736eadfc476", "is_reserved": 0, "lon": -77.03860583333334, "is_disabled": 0, "fusion_lat": 0.0, "lat": 38.916897166666665, "bike_id": "3a25e404d2126deb6b810736eadfc476", "fusion_lon": 0.0}, {"rental_uris": {"ios": "https://dc.lft.to/lastmile_qr_scan", "android": "https://dc.lft.to/lastmile_qr_scan"}, "type": "electric_scooter", "name": "a882a56707c683c0fc8fa08199444771", "is_reserved": 0, "lon": -76.99504166666667, "is_disabled": 0, "fusion_lat": 0.0, "lat": 38.862009, "bike_id": "a882a56707c683c0fc8fa08199444771", "fusion_lon": 0.0}, {"rental_uris": {"ios": "https://dc.lft.to/lastmile_qr_scan", "android": "https://dc.lft.to/lastmile_qr_scan"}, "type": "electric_scooter", "name": "9408cfacee6e3893ea7613e3f20debbe", "is_reserved": 0, "lon": -76.99279833333334, "is_disabled": 0, "fusion_lat": 0.0, "lat": 38.883093833333334, "bike_id": "9408cfacee6e3893ea7613e3f20debbe", "fusion_lon": 0.0}, {"rental_uris": {"ios": "https://dc.lft.to/lastmile_qr_scan", "android": "https://dc.lft.to/lastmile_qr_scan"}, "type": "electric_scooter", "name": "9612cf7765d7871d45d7482012818a4e", "is_reserved": 0, "lon": -77.02275066666667, "is_disabled": 0, "fusion_lat": 0.0, "lat": 38.92634533333333, "bike_id": "9612cf7765d7871d45d7482012818a4e", "fusion_lon": 0.0}, {"rental_uris": {"ios": "https://dc.lft.to/lastmile_qr_scan", "android": "https://dc.lft.to/lastmile_qr_scan"}, "type": "electric_scooter", "name": "aa56b55d259e54729dba0af97fa0d50e", "is_reserved": 0, "lon": -77.0055945, "is_disabled": 0, "fusion_lat": 0.0, "lat": 38.8747145, "bike_id": "aa56b55d259e54729dba0af97fa0d50e", "fusion_lon": 0.0}, {"rental_uris": {"ios": "https://dc.lft.to/lastmile_qr_scan", "android": "https://dc.lft.to/lastmile_qr_scan"}, "type": "electric_scooter", "name": "66f06b7cb360f1610d9a1f808cbf519e", "is_reserved": 0, "lon": -77.04249233333333, "is_disabled": 0, "fusion_lat": 0.0, "lat": 38.92249483333333, "bike_id": "66f06b7cb360f1610d9a1f808cbf519e", "fusion_lon": 0.0}, {"rental_uris": {"ios": "https://dc.lft.to/lastmile_qr_scan", "android": "https://dc.lft.to/lastmile_qr_scan"}, "type": "electric_scooter", "name": "7c053235d66f0dfc85b94f08f6e2f152", "is_reserved": 0, "lon": -77.03205833333334, "is_disabled": 0, "fusion_lat": 0.0, "lat": 38.91729133333333, "bike_id": "7c053235d66f0dfc85b94f08f6e2f152", "fusion_lon": 0.0}, {"rental_uris": {"ios": "https://dc.lft.to/lastmile_qr_scan", "android": "https://dc.lft.to/lastmile_qr_scan"}, "type": "electric_scooter", "name": "a3494adef2e8a0ceaaeb85de68903554", "is_reserved": 0, "lon": -77.0208025, "is_disabled": 0, "fusion_lat": 0.0, "lat": 38.92108266666666, "bike_id": "a3494adef2e8a0ceaaeb85de68903554", "fusion_lon": 0.0}, {"rental_uris": {"ios": "https://dc.lft.to/lastmile_qr_scan", "android": "https://dc.lft.to/lastmile_qr_scan"}, "type": "electric_scooter", "name": "36545df554e00bf3299f30a9110924e4", "is_reserved": 0, "lon": -77.03790766666667, "is_disabled": 0, "fusion_lat": 0.0, "lat": 38.90132783333333, "bike_id": "36545df554e00bf3299f30a9110924e4", "fusion_lon": 0.0}, {"rental_uris": {"ios": "https://dc.lft.to/lastmile_qr_scan", "android": "https://dc.lft.to/lastmile_qr_scan"}, "type": "electric_scooter", "name": "c551d9c4cdbad7998f1e95d44036fe3b", "is_reserved": 0, "lon": -77.03912183333334, "is_disabled": 0, "fusion_lat": 0.0, "lat": 38.915567, "bike_id": "c551d9c4cdbad7998f1e95d44036fe3b", "fusion_lon": 0.0}, {"rental_uris": {"ios": "https://dc.lft.to/lastmile_qr_scan", "android": "https://dc.lft.to/lastmile_qr_scan"}, "type": "electric_scooter", "name": "3d50a4bb8f078566e199a7dbdf32d003", "is_reserved": 0, "lon": -77.02676316666667, "is_disabled": 0, "fusion_lat": 0.0, "lat": 38.8984905, "bike_id": "3d50a4bb8f078566e199a7dbdf32d003", "fusion_lon": 0.0}, {"rental_uris": {"ios": "https://dc.lft.to/lastmile_qr_scan", "android": "https://dc.lft.to/lastmile_qr_scan"}, "type": "electric_scooter", "name": "d333f785502c80f03e0009379ff2183f", "is_reserved": 0, "lon": -77.02303933333333, "is_disabled": 0, "fusion_lat": 0.0, "lat": 38.91351216666666, "bike_id": "d333f785502c80f03e0009379ff2183f", "fusion_lon": 0.0}, {"rental_uris": {"ios": "https://dc.lft.to/lastmile_qr_scan", "android": "https://dc.lft.to/lastmile_qr_scan"}, "type": "electric_scooter", "name": "3b89057e56ddad3a234de85e9cc7f103", "is_reserved": 0, "lon": -77.02134583333333, "is_disabled": 0, "fusion_lat": 0.0, "lat": 38.886420333333334, "bike_id": "3b89057e56ddad3a234de85e9cc7f103", "fusion_lon": 0.0}, {"rental_uris": {"ios": "https://dc.lft.to/lastmile_qr_scan", "android": "https://dc.lft.to/lastmile_qr_scan"}, "type": "electric_scooter", "name": "ca6ac00be4f82d77db31c9817ec08a7e", "is_reserved": 0, "lon": -77.02010783333333, "is_disabled": 0, "fusion_lat": 0.0, "lat": 38.899508166666664, "bike_id": "ca6ac00be4f82d77db31c9817ec08a7e", "fusion_lon": 0.0}, {"rental_uris": {"ios": "https://dc.lft.to/lastmile_qr_scan", "android": "https://dc.lft.to/lastmile_qr_scan"}, "type": "electric_bike", "name": "f56512636cab0e604991c31cdf604a0f", "is_reserved": 0, "lon": -76.95693416666667, "is_disabled": 0, "fusion_lat": 0.0, "lat": 38.8509165, "bike_id": "f56512636cab0e604991c31cdf604a0f", "fusion_lon": 0.0}, {"rental_uris": {"ios": "https://dc.lft.to/lastmile_qr_scan", "android": "https://dc.lft.to/lastmile_qr_scan"}, "type": "electric_scooter", "name": "5ed71ecb5af47f6a775b75c10243c056", "is_reserved": 0, "lon": -77.01948066666667, "is_disabled": 0, "fusion_lat": 0.0, "lat": 38.923243, "bike_id": "5ed71ecb5af47f6a775b75c10243c056", "fusion_lon": 0.0}, {"rental_uris": {"ios": "https://dc.lft.to/lastmile_qr_scan", "android": "https://dc.lft.to/lastmile_qr_scan"}, "type": "electric_scooter", "name": "c72b32634ba2bf6119db2fdba6867154", "is_reserved": 0, "lon": -77.02194016666667, "is_disabled": 0, "fusion_lat": 0.0, "lat": 38.897800833333335, "bike_id": "c72b32634ba2bf6119db2fdba6867154", "fusion_lon": 0.0}, {"rental_uris": {"ios": "https://dc.lft.to/lastmile_qr_scan", "android": "https://dc.lft.to/lastmile_qr_scan"}, "type": "electric_scooter", "name": "f7bf7b7ec93361700dfded94abcf0934", "is_reserved": 0, "lon": -77.02055433333334, "is_disabled": 0, "fusion_lat": 0.0, "lat": 38.92243583333333, "bike_id": "f7bf7b7ec93361700dfded94abcf0934", "fusion_lon": 0.0}, {"rental_uris": {"ios": "https://dc.lft.to/lastmile_qr_scan", "android": "https://dc.lft.to/lastmile_qr_scan"}, "type": "electric_bike", "name": "40bbc5e5a61e2159acf80623648f44fb", "is_reserved": 0, "lon": -77.007482, "is_disabled": 0, "fusion_lat": 0.0, "lat": 38.981015166666666, "bike_id": "40bbc5e5a61e2159acf80623648f44fb", "fusion_lon": 0.0}, {"rental_uris": {"ios": "https://dc.lft.to/lastmile_qr_scan", "android": "https://dc.lft.to/lastmile_qr_scan"}, "type": "electric_scooter", "name": "6c2ea88cd30619c186da891cdcc18ba2", "is_reserved": 0, "lon": -76.99548083333333, "is_disabled": 0, "fusion_lat": 0.0, "lat": 38.88372183333333, "bike_id": "6c2ea88cd30619c186da891cdcc18ba2", "fusion_lon": 0.0}, {"rental_uris": {"ios": "https://dc.lft.to/lastmile_qr_scan", "android": "https://dc.lft.to/lastmile_qr_scan"}, "type": "electric_bike", "name": "41a692f207e7e51cd5847bc3f2aca666", "is_reserved": 0, "lon": -77.090111, "is_disabled": 0, "fusion_lat": 0.0, "lat": 38.926604833333336, "bike_id": "41a692f207e7e51cd5847bc3f2aca666", "fusion_lon": 0.0}, {"rental_uris": {"ios": "https://dc.lft.to/lastmile_qr_scan", "android": "https://dc.lft.to/lastmile_qr_scan"}, "type": "electric_scooter", "name": "baf30370628a1e213fc9866a78b3903b", "is_reserved": 0, "lon": -77.000627, "is_disabled": 0, "fusion_lat": 0.0, "lat": 38.90844516666667, "bike_id": "baf30370628a1e213fc9866a78b3903b", "fusion_lon": 0.0}, {"rental_uris": {"ios": "https://dc.lft.to/lastmile_qr_scan", "android": "https://dc.lft.to/lastmile_qr_scan"}, "type": "electric_scooter", "name": "19f58acd1993a58d216407945a9c34de", "is_reserved": 0, "lon": -77.03203016666667, "is_disabled": 0, "fusion_lat": 0.0, "lat": 38.916767666666665, "bike_id": "19f58acd1993a58d216407945a9c34de", "fusion_lon": 0.0}, {"rental_uris": {"ios": "https://dc.lft.to/lastmile_qr_scan", "android": "https://dc.lft.to/lastmile_qr_scan"}, "type": "electric_scooter", "name": "1c5b519deee09772c4b83b7aad941844", "is_reserved": 0, "lon": -77.0215245, "is_disabled": 0, "fusion_lat": 0.0, "lat": 38.92606766666667, "bike_id": "1c5b519deee09772c4b83b7aad941844", "fusion_lon": 0.0}, {"rental_uris": {"ios": "https://dc.lft.to/lastmile_qr_scan", "android": "https://dc.lft.to/lastmile_qr_scan"}, "type": "electric_scooter", "name": "2818b9c843b125abec187fd162840922", "is_reserved": 0, "lon": -76.98583983333333, "is_disabled": 0, "fusion_lat": 0.0, "lat": 38.86187283333334, "bike_id": "2818b9c843b125abec187fd162840922", "fusion_lon": 0.0}, {"rental_uris": {"ios": "https://dc.lft.to/lastmile_qr_scan", "android": "https://dc.lft.to/lastmile_qr_scan"}, "type": "electric_scooter", "name": "acc88ee6fe23899d04d931c8bbc66764", "is_reserved": 0, "lon": -77.0321685, "is_disabled": 0, "fusion_lat": 0.0, "lat": 38.9111795, "bike_id": "acc88ee6fe23899d04d931c8bbc66764", "fusion_lon": 0.0}, {"rental_uris": {"ios": "https://dc.lft.to/lastmile_qr_scan", "android": "https://dc.lft.to/lastmile_qr_scan"}, "type": "electric_scooter", "name": "4299482fc3e2a5eaf8205067877889ad", "is_reserved": 0, "lon": -77.0431445, "is_disabled": 0, "fusion_lat": 0.0, "lat": 38.92211666666667, "bike_id": "4299482fc3e2a5eaf8205067877889ad", "fusion_lon": 0.0}, {"rental_uris": {"ios": "https://dc.lft.to/lastmile_qr_scan", "android": "https://dc.lft.to/lastmile_qr_scan"}, "type": "electric_scooter", "name": "a49c199c8ba4de3ba1ea5497af9864a7", "is_reserved": 0, "lon": -77.032048, "is_disabled": 0, "fusion_lat": 0.0, "lat": 38.89633766666667, "bike_id": "a49c199c8ba4de3ba1ea5497af9864a7", "fusion_lon": 0.0}, {"rental_uris": {"ios": "https://dc.lft.to/lastmile_qr_scan", "android": "https://dc.lft.to/lastmile_qr_scan"}, "type": "electric_scooter", "name": "4b1abf07259574dc535654dbbdf408b0", "is_reserved": 0, "lon": -77.03461516666667, "is_disabled": 0, "fusion_lat": 0.0, "lat": 38.91797533333333, "bike_id": "4b1abf07259574dc535654dbbdf408b0", "fusion_lon": 0.0}, {"rental_uris": {"ios": "https://dc.lft.to/lastmile_qr_scan", "android": "https://dc.lft.to/lastmile_qr_scan"}, "type": "electric_scooter", "name": "e7e216f26257e0847fdb8ffa1c1f6fa1", "is_reserved": 0, "lon": -76.98085266666666, "is_disabled": 0, "fusion_lat": 0.0, "lat": 38.894385166666666, "bike_id": "e7e216f26257e0847fdb8ffa1c1f6fa1", "fusion_lon": 0.0}, {"rental_uris": {"ios": "https://dc.lft.to/lastmile_qr_scan", "android": "https://dc.lft.to/lastmile_qr_scan"}, "type": "electric_scooter", "name": "59bd275be45412e927a8b04977fc3cfa", "is_reserved": 0, "lon": -76.9888835, "is_disabled": 0, "fusion_lat": 0.0, "lat": 38.86661133333333, "bike_id": "59bd275be45412e927a8b04977fc3cfa", "fusion_lon": 0.0}, {"rental_uris": {"ios": "https://dc.lft.to/lastmile_qr_scan", "android": "https://dc.lft.to/lastmile_qr_scan"}, "type": "electric_scooter", "name": "e61f272a3057ce23a547bf526f4af809", "is_reserved": 0, "lon": -77.024873, "is_disabled": 0, "fusion_lat": 0.0, "lat": 38.90402183333333, "bike_id": "e61f272a3057ce23a547bf526f4af809", "fusion_lon": 0.0}, {"rental_uris": {"ios": "https://dc.lft.to/lastmile_qr_scan", "android": "https://dc.lft.to/lastmile_qr_scan"}, "type": "electric_scooter", "name": "f6f332e877f35a61ac7f6a421d50c3bd", "is_reserved": 0, "lon": -77.04633466666667, "is_disabled": 0, "fusion_lat": 0.0, "lat": 38.90961033333333, "bike_id": "f6f332e877f35a61ac7f6a421d50c3bd", "fusion_lon": 0.0}, {"rental_uris": {"ios": "https://dc.lft.to/lastmile_qr_scan", "android": "https://dc.lft.to/lastmile_qr_scan"}, "type": "electric_scooter", "name": "94f291bccd0c15bc7d22b577685ccd94", "is_reserved": 0, "lon": -77.03209483333333, "is_disabled": 0, "fusion_lat": 0.0, "lat": 38.91253533333333, "bike_id": "94f291bccd0c15bc7d22b577685ccd94", "fusion_lon": 0.0}, {"rental_uris": {"ios": "https://dc.lft.to/lastmile_qr_scan", "android": "https://dc.lft.to/lastmile_qr_scan"}, "type": "electric_scooter", "name": "5152d7d1bd55f1613ca98e152a646726", "is_reserved": 0, "lon": -77.04155883333334, "is_disabled": 0, "fusion_lat": 0.0, "lat": 38.906212, "bike_id": "5152d7d1bd55f1613ca98e152a646726", "fusion_lon": 0.0}, {"rental_uris": {"ios": "https://dc.lft.to/lastmile_qr_scan", "android": "https://dc.lft.to/lastmile_qr_scan"}, "type": "electric_scooter", "name": "ceeb93f03a9e0ba2a0020f02c76b8fa6", "is_reserved": 0, "lon": -77.04333883333334, "is_disabled": 0, "fusion_lat": 0.0, "lat": 38.907323833333336, "bike_id": "ceeb93f03a9e0ba2a0020f02c76b8fa6", "fusion_lon": 0.0}, {"rental_uris": {"ios": "https://dc.lft.to/lastmile_qr_scan", "android": "https://dc.lft.to/lastmile_qr_scan"}, "type": "electric_scooter", "name": "13912b48e09280313bc8c9ccb68cd788", "is_reserved": 0, "lon": -77.01425933333333, "is_disabled": 0, "fusion_lat": 0.0, "lat": 38.918066833333334, "bike_id": "13912b48e09280313bc8c9ccb68cd788", "fusion_lon": 0.0}, {"rental_uris": {"ios": "https://dc.lft.to/lastmile_qr_scan", "android": "https://dc.lft.to/lastmile_qr_scan"}, "type": "electric_scooter", "name": "1da3dea729368640bf38c6553373ba0d", "is_reserved": 0, "lon": -77.03666633333333, "is_disabled": 0, "fusion_lat": 0.0, "lat": 38.9392125, "bike_id": "1da3dea729368640bf38c6553373ba0d", "fusion_lon": 0.0}, {"rental_uris": {"ios": "https://dc.lft.to/lastmile_qr_scan", "android": "https://dc.lft.to/lastmile_qr_scan"}, "type": "electric_scooter", "name": "61c5db0bcd5d07b0f2fa22a9029b622a", "is_reserved": 0, "lon": -76.99930516666667, "is_disabled": 0, "fusion_lat": 0.0, "lat": 38.957609833333336, "bike_id": "61c5db0bcd5d07b0f2fa22a9029b622a", "fusion_lon": 0.0}, {"rental_uris": {"ios": "https://dc.lft.to/lastmile_qr_scan", "android": "https://dc.lft.to/lastmile_qr_scan"}, "type": "electric_scooter", "name": "f29ac928df0da97d2fd740c29fca2022", "is_reserved": 0, "lon": -77.03261816666667, "is_disabled": 0, "fusion_lat": 0.0, "lat": 38.90412933333333, "bike_id": "f29ac928df0da97d2fd740c29fca2022", "fusion_lon": 0.0}, {"rental_uris": {"ios": "https://dc.lft.to/lastmile_qr_scan", "android": "https://dc.lft.to/lastmile_qr_scan"}, "type": "electric_scooter", "name": "d3dceb4726e4bcf009afef82057a7d4a", "is_reserved": 0, "lon": -77.01762183333334, "is_disabled": 0, "fusion_lat": 0.0, "lat": 38.9205465, "bike_id": "d3dceb4726e4bcf009afef82057a7d4a", "fusion_lon": 0.0}, {"rental_uris": {"ios": "https://dc.lft.to/lastmile_qr_scan", "android": "https://dc.lft.to/lastmile_qr_scan"}, "type": "electric_scooter", "name": "99f66b7fc8245144149cb06d48ab43dd", "is_reserved": 0, "lon": -77.05228466666667, "is_disabled": 0, "fusion_lat": 0.0, "lat": 38.90000583333333, "bike_id": "99f66b7fc8245144149cb06d48ab43dd", "fusion_lon": 0.0}, {"rental_uris": {"ios": "https://dc.lft.to/lastmile_qr_scan", "android": "https://dc.lft.to/lastmile_qr_scan"}, "type": "electric_scooter", "name": "ae04b23df7f42a9774a158399cf1827e", "is_reserved": 0, "lon": -77.04248233333334, "is_disabled": 0, "fusion_lat": 0.0, "lat": 38.9042885, "bike_id": "ae04b23df7f42a9774a158399cf1827e", "fusion_lon": 0.0}, {"rental_uris": {"ios": "https://dc.lft.to/lastmile_qr_scan", "android": "https://dc.lft.to/lastmile_qr_scan"}, "type": "electric_scooter", "name": "77eae36f199c86ebce2c545b5ba98c2d", "is_reserved": 0, "lon": -77.0077925, "is_disabled": 0, "fusion_lat": 0.0, "lat": 38.897360166666665, "bike_id": "77eae36f199c86ebce2c545b5ba98c2d", "fusion_lon": 0.0}, {"rental_uris": {"ios": "https://dc.lft.to/lastmile_qr_scan", "android": "https://dc.lft.to/lastmile_qr_scan"}, "type": "electric_scooter", "name": "fbfe5a8274045fe66541822b0fc0e96c", "is_reserved": 0, "lon": -77.04646116666666, "is_disabled": 0, "fusion_lat": 0.0, "lat": 38.9118945, "bike_id": "fbfe5a8274045fe66541822b0fc0e96c", "fusion_lon": 0.0}, {"rental_uris": {"ios": "https://dc.lft.to/lastmile_qr_scan", "android": "https://dc.lft.to/lastmile_qr_scan"}, "type": "electric_bike", "name": "9a32c4e211491619208daf6af41a0476", "is_reserved": 0, "lon": -76.937416, "is_disabled": 0, "fusion_lat": 0.0, "lat": 38.871492833333335, "bike_id": "9a32c4e211491619208daf6af41a0476", "fusion_lon": 0.0}, {"rental_uris": {"ios": "https://dc.lft.to/lastmile_qr_scan", "android": "https://dc.lft.to/lastmile_qr_scan"}, "type": "electric_scooter", "name": "9465d0a3618e5eb7a3061a0c0c2b25d5", "is_reserved": 0, "lon": -76.95199666666667, "is_disabled": 0, "fusion_lat": 0.0, "lat": 38.905091, "bike_id": "9465d0a3618e5eb7a3061a0c0c2b25d5", "fusion_lon": 0.0}, {"rental_uris": {"ios": "https://dc.lft.to/lastmile_qr_scan", "android": "https://dc.lft.to/lastmile_qr_scan"}, "type": "electric_scooter", "name": "c01427b391fbd421bf5550896bbc80b9", "is_reserved": 0, "lon": -77.02308716666667, "is_disabled": 0, "fusion_lat": 0.0, "lat": 38.9299725, "bike_id": "c01427b391fbd421bf5550896bbc80b9", "fusion_lon": 0.0}, {"rental_uris": {"ios": "https://dc.lft.to/lastmile_qr_scan", "android": "https://dc.lft.to/lastmile_qr_scan"}, "type": "electric_scooter", "name": "e58e2d7574738c111e68d1c5e03923d1", "is_reserved": 0, "lon": -77.03869883333333, "is_disabled": 0, "fusion_lat": 0.0, "lat": 38.908113166666666, "bike_id": "e58e2d7574738c111e68d1c5e03923d1", "fusion_lon": 0.0}, {"rental_uris": {"ios": "https://dc.lft.to/lastmile_qr_scan", "android": "https://dc.lft.to/lastmile_qr_scan"}, "type": "electric_scooter", "name": "a8a7b8a4af8b69e3cd6bb657ed73f6cf", "is_reserved": 0, "lon": -77.02837133333334, "is_disabled": 0, "fusion_lat": 0.0, "lat": 38.9140835, "bike_id": "a8a7b8a4af8b69e3cd6bb657ed73f6cf", "fusion_lon": 0.0}, {"rental_uris": {"ios": "https://dc.lft.to/lastmile_qr_scan", "android": "https://dc.lft.to/lastmile_qr_scan"}, "type": "electric_scooter", "name": "d20cf75e74842705eff765f0e6cbcc21", "is_reserved": 0, "lon": -77.04335116666667, "is_disabled": 0, "fusion_lat": 0.0, "lat": 38.892207, "bike_id": "d20cf75e74842705eff765f0e6cbcc21", "fusion_lon": 0.0}, {"rental_uris": {"ios": "https://dc.lft.to/lastmile_qr_scan", "android": "https://dc.lft.to/lastmile_qr_scan"}, "type": "electric_scooter", "name": "8a72536c407e0a123a8a0d4087f38e7a", "is_reserved": 0, "lon": -77.03078466666666, "is_disabled": 0, "fusion_lat": 0.0, "lat": 38.933062, "bike_id": "8a72536c407e0a123a8a0d4087f38e7a", "fusion_lon": 0.0}, {"rental_uris": {"ios": "https://dc.lft.to/lastmile_qr_scan", "android": "https://dc.lft.to/lastmile_qr_scan"}, "type": "electric_scooter", "name": "495e5c228405527bbba48642e6296f3e", "is_reserved": 0, "lon": -77.00773, "is_disabled": 0, "fusion_lat": 0.0, "lat": 38.95242916666667, "bike_id": "495e5c228405527bbba48642e6296f3e", "fusion_lon": 0.0}, {"rental_uris": {"ios": "https://dc.lft.to/lastmile_qr_scan", "android": "https://dc.lft.to/lastmile_qr_scan"}, "type": "electric_scooter", "name": "04203d4b2cb5777777e501d952f15035", "is_reserved": 0, "lon": -77.02474933333333, "is_disabled": 0, "fusion_lat": 0.0, "lat": 38.919436, "bike_id": "04203d4b2cb5777777e501d952f15035", "fusion_lon": 0.0}, {"rental_uris": {"ios": "https://dc.lft.to/lastmile_qr_scan", "android": "https://dc.lft.to/lastmile_qr_scan"}, "type": "electric_scooter", "name": "43341fa0892dba5ac652ed976910c824", "is_reserved": 0, "lon": -77.03571716666667, "is_disabled": 0, "fusion_lat": 0.0, "lat": 38.9048275, "bike_id": "43341fa0892dba5ac652ed976910c824", "fusion_lon": 0.0}, {"rental_uris": {"ios": "https://dc.lft.to/lastmile_qr_scan", "android": "https://dc.lft.to/lastmile_qr_scan"}, "type": "electric_bike", "name": "571fb5955a19ca0f165293da27ecb72f", "is_reserved": 0, "lon": -77.02508, "is_disabled": 0, "fusion_lat": 0.0, "lat": 38.88036433333333, "bike_id": "571fb5955a19ca0f165293da27ecb72f", "fusion_lon": 0.0}, {"rental_uris": {"ios": "https://dc.lft.to/lastmile_qr_scan", "android": "https://dc.lft.to/lastmile_qr_scan"}, "type": "electric_scooter", "name": "06e660f969017d2d32d78a231fd20cf7", "is_reserved": 0, "lon": -76.94960466666667, "is_disabled": 0, "fusion_lat": 0.0, "lat": 38.894742666666666, "bike_id": "06e660f969017d2d32d78a231fd20cf7", "fusion_lon": 0.0}, {"rental_uris": {"ios": "https://dc.lft.to/lastmile_qr_scan", "android": "https://dc.lft.to/lastmile_qr_scan"}, "type": "electric_scooter", "name": "b101431c5da9c66517aee25ab3573ab8", "is_reserved": 0, "lon": -77.04227566666667, "is_disabled": 0, "fusion_lat": 0.0, "lat": 38.92155266666666, "bike_id": "b101431c5da9c66517aee25ab3573ab8", "fusion_lon": 0.0}, {"rental_uris": {"ios": "https://dc.lft.to/lastmile_qr_scan", "android": "https://dc.lft.to/lastmile_qr_scan"}, "type": "electric_scooter", "name": "1867bb5c1afc975e93e3e10b4dac9b91", "is_reserved": 0, "lon": -77.01314766666667, "is_disabled": 0, "fusion_lat": 0.0, "lat": 38.956549333333335, "bike_id": "1867bb5c1afc975e93e3e10b4dac9b91", "fusion_lon": 0.0}, {"rental_uris": {"ios": "https://dc.lft.to/lastmile_qr_scan", "android": "https://dc.lft.to/lastmile_qr_scan"}, "type": "electric_scooter", "name": "807da9eafec1f4d4bb9178b6f770abc5", "is_reserved": 0, "lon": -76.93036716666667, "is_disabled": 0, "fusion_lat": 0.0, "lat": 38.88387383333333, "bike_id": "807da9eafec1f4d4bb9178b6f770abc5", "fusion_lon": 0.0}, {"rental_uris": {"ios": "https://dc.lft.to/lastmile_qr_scan", "android": "https://dc.lft.to/lastmile_qr_scan"}, "type": "electric_scooter", "name": "5034853a2726fda8a2a07f4f61f0ddde", "is_reserved": 0, "lon": -77.001547, "is_disabled": 0, "fusion_lat": 0.0, "lat": 38.8213575, "bike_id": "5034853a2726fda8a2a07f4f61f0ddde", "fusion_lon": 0.0}, {"rental_uris": {"ios": "https://dc.lft.to/lastmile_qr_scan", "android": "https://dc.lft.to/lastmile_qr_scan"}, "type": "electric_scooter", "name": "8b2a76dd6a8da258f288886cd1b0779c", "is_reserved": 0, "lon": -77.03939266666667, "is_disabled": 0, "fusion_lat": 0.0, "lat": 38.89905566666667, "bike_id": "8b2a76dd6a8da258f288886cd1b0779c", "fusion_lon": 0.0}, {"rental_uris": {"ios": "https://dc.lft.to/lastmile_qr_scan", "android": "https://dc.lft.to/lastmile_qr_scan"}, "type": "electric_scooter", "name": "eb2c5ab765c18c4439a710645e9152f2", "is_reserved": 0, "lon": -77.04560266666667, "is_disabled": 0, "fusion_lat": 0.0, "lat": 38.9183075, "bike_id": "eb2c5ab765c18c4439a710645e9152f2", "fusion_lon": 0.0}, {"rental_uris": {"ios": "https://dc.lft.to/lastmile_qr_scan", "android": "https://dc.lft.to/lastmile_qr_scan"}, "type": "electric_bike", "name": "4518b2c2ce9c6137effec96c46d18959", "is_reserved": 0, "lon": -76.95159633333333, "is_disabled": 0, "fusion_lat": 0.0, "lat": 39.08434333333334, "bike_id": "4518b2c2ce9c6137effec96c46d18959", "fusion_lon": 0.0}, {"rental_uris": {"ios": "https://dc.lft.to/lastmile_qr_scan", "android": "https://dc.lft.to/lastmile_qr_scan"}, "type": "electric_scooter", "name": "4519925a427db185e7e35f79d2d5b09f", "is_reserved": 0, "lon": -77.02196266666667, "is_disabled": 0, "fusion_lat": 0.0, "lat": 38.91125, "bike_id": "4519925a427db185e7e35f79d2d5b09f", "fusion_lon": 0.0}, {"rental_uris": {"ios": "https://dc.lft.to/lastmile_qr_scan", "android": "https://dc.lft.to/lastmile_qr_scan"}, "type": "electric_scooter", "name": "bf64424b819b29fd5c9eb83a47e199e4", "is_reserved": 0, "lon": -77.0421575, "is_disabled": 0, "fusion_lat": 0.0, "lat": 38.92117433333333, "bike_id": "bf64424b819b29fd5c9eb83a47e199e4", "fusion_lon": 0.0}, {"rental_uris": {"ios": "https://dc.lft.to/lastmile_qr_scan", "android": "https://dc.lft.to/lastmile_qr_scan"}, "type": "electric_scooter", "name": "0973ae50b9c6b75638ad0f8b682bdba3", "is_reserved": 0, "lon": -77.015255, "is_disabled": 0, "fusion_lat": 0.0, "lat": 38.8843845, "bike_id": "0973ae50b9c6b75638ad0f8b682bdba3", "fusion_lon": 0.0}, {"rental_uris": {"ios": "https://dc.lft.to/lastmile_qr_scan", "android": "https://dc.lft.to/lastmile_qr_scan"}, "type": "electric_bike", "name": "c9fe1e87ed0ebdde0b3409a8ed6ccbe4", "is_reserved": 0, "lon": -77.039026, "is_disabled": 0, "fusion_lat": 0.0, "lat": 38.923316666666665, "bike_id": "c9fe1e87ed0ebdde0b3409a8ed6ccbe4", "fusion_lon": 0.0}, {"rental_uris": {"ios": "https://dc.lft.to/lastmile_qr_scan", "android": "https://dc.lft.to/lastmile_qr_scan"}, "type": "electric_scooter", "name": "09322776b17aec42d6cd07f7285ff0f3", "is_reserved": 0, "lon": -76.98723466666667, "is_disabled": 0, "fusion_lat": 0.0, "lat": 38.911904, "bike_id": "09322776b17aec42d6cd07f7285ff0f3", "fusion_lon": 0.0}, {"rental_uris": {"ios": "https://dc.lft.to/lastmile_qr_scan", "android": "https://dc.lft.to/lastmile_qr_scan"}, "type": "electric_scooter", "name": "fa65446314844a92cd34f78e8b1432dd", "is_reserved": 0, "lon": -76.98986783333334, "is_disabled": 0, "fusion_lat": 0.0, "lat": 38.865004, "bike_id": "fa65446314844a92cd34f78e8b1432dd", "fusion_lon": 0.0}, {"rental_uris": {"ios": "https://dc.lft.to/lastmile_qr_scan", "android": "https://dc.lft.to/lastmile_qr_scan"}, "type": "electric_scooter", "name": "5f0b795fadcb2d485ab7a3a1d77d0d8f", "is_reserved": 0, "lon": -77.02089066666667, "is_disabled": 0, "fusion_lat": 0.0, "lat": 38.921606833333335, "bike_id": "5f0b795fadcb2d485ab7a3a1d77d0d8f", "fusion_lon": 0.0}, {"rental_uris": {"ios": "https://dc.lft.to/lastmile_qr_scan", "android": "https://dc.lft.to/lastmile_qr_scan"}, "type": "electric_scooter", "name": "926d87ef7a056bd456eb645ef12388a8", "is_reserved": 0, "lon": -77.02517383333333, "is_disabled": 0, "fusion_lat": 0.0, "lat": 38.900943833333336, "bike_id": "926d87ef7a056bd456eb645ef12388a8", "fusion_lon": 0.0}, {"rental_uris": {"ios": "https://dc.lft.to/lastmile_qr_scan", "android": "https://dc.lft.to/lastmile_qr_scan"}, "type": "electric_scooter", "name": "7dbed06410276c3bdadb6313ba32c2ed", "is_reserved": 0, "lon": -77.04198766666667, "is_disabled": 0, "fusion_lat": 0.0, "lat": 38.91867766666667, "bike_id": "7dbed06410276c3bdadb6313ba32c2ed", "fusion_lon": 0.0}, {"rental_uris": {"ios": "https://dc.lft.to/lastmile_qr_scan", "android": "https://dc.lft.to/lastmile_qr_scan"}, "type": "electric_scooter", "name": "c0c16bce8bc9952327ea3afd6c0edcff", "is_reserved": 0, "lon": -77.06869366666666, "is_disabled": 0, "fusion_lat": 0.0, "lat": 38.937434, "bike_id": "c0c16bce8bc9952327ea3afd6c0edcff", "fusion_lon": 0.0}, {"rental_uris": {"ios": "https://dc.lft.to/lastmile_qr_scan", "android": "https://dc.lft.to/lastmile_qr_scan"}, "type": "electric_scooter", "name": "8cfa785cd2c4be27e5790e376b22c264", "is_reserved": 0, "lon": -77.0559585, "is_disabled": 0, "fusion_lat": 0.0, "lat": 38.93702583333334, "bike_id": "8cfa785cd2c4be27e5790e376b22c264", "fusion_lon": 0.0}, {"rental_uris": {"ios": "https://dc.lft.to/lastmile_qr_scan", "android": "https://dc.lft.to/lastmile_qr_scan"}, "type": "electric_scooter", "name": "a2119e5a7ee835e5d0ba499d3f779278", "is_reserved": 0, "lon": -77.037131, "is_disabled": 0, "fusion_lat": 0.0, "lat": 38.90036383333333, "bike_id": "a2119e5a7ee835e5d0ba499d3f779278", "fusion_lon": 0.0}, {"rental_uris": {"ios": "https://dc.lft.to/lastmile_qr_scan", "android": "https://dc.lft.to/lastmile_qr_scan"}, "type": "electric_scooter", "name": "4c8529f983f1b298b3de902c0c0aadee", "is_reserved": 0, "lon": -77.03191333333334, "is_disabled": 0, "fusion_lat": 0.0, "lat": 38.91567633333333, "bike_id": "4c8529f983f1b298b3de902c0c0aadee", "fusion_lon": 0.0}, {"rental_uris": {"ios": "https://dc.lft.to/lastmile_qr_scan", "android": "https://dc.lft.to/lastmile_qr_scan"}, "type": "electric_scooter", "name": "8956e60b68ed1fb0bec03542d80508d0", "is_reserved": 0, "lon": -77.026773, "is_disabled": 0, "fusion_lat": 0.0, "lat": 38.98432916666667, "bike_id": "8956e60b68ed1fb0bec03542d80508d0", "fusion_lon": 0.0}, {"rental_uris": {"ios": "https://dc.lft.to/lastmile_qr_scan", "android": "https://dc.lft.to/lastmile_qr_scan"}, "type": "electric_scooter", "name": "d578dfca64c39e6319ce2c769b38b0c0", "is_reserved": 0, "lon": -77.0396075, "is_disabled": 0, "fusion_lat": 0.0, "lat": 38.92470566666667, "bike_id": "d578dfca64c39e6319ce2c769b38b0c0", "fusion_lon": 0.0}, {"rental_uris": {"ios": "https://dc.lft.to/lastmile_qr_scan", "android": "https://dc.lft.to/lastmile_qr_scan"}, "type": "electric_scooter", "name": "d8cf1f470c76f87f1cb413ef89e944b2", "is_reserved": 0, "lon": -76.98840383333334, "is_disabled": 0, "fusion_lat": 0.0, "lat": 38.87936883333333, "bike_id": "d8cf1f470c76f87f1cb413ef89e944b2", "fusion_lon": 0.0}, {"rental_uris": {"ios": "https://dc.lft.to/lastmile_qr_scan", "android": "https://dc.lft.to/lastmile_qr_scan"}, "type": "electric_scooter", "name": "c1cede1908a1df0d1a43927710df31c1", "is_reserved": 0, "lon": -77.02812983333334, "is_disabled": 0, "fusion_lat": 0.0, "lat": 38.9024605, "bike_id": "c1cede1908a1df0d1a43927710df31c1", "fusion_lon": 0.0}, {"rental_uris": {"ios": "https://dc.lft.to/lastmile_qr_scan", "android": "https://dc.lft.to/lastmile_qr_scan"}, "type": "electric_scooter", "name": "46b988f9e7c1849babe0a92a4cc09e91", "is_reserved": 0, "lon": -76.98372866666666, "is_disabled": 0, "fusion_lat": 0.0, "lat": 38.866670666666664, "bike_id": "46b988f9e7c1849babe0a92a4cc09e91", "fusion_lon": 0.0}, {"rental_uris": {"ios": "https://dc.lft.to/lastmile_qr_scan", "android": "https://dc.lft.to/lastmile_qr_scan"}, "type": "electric_scooter", "name": "16c7265d46a9b03d7bbf623e19f1d81f", "is_reserved": 0, "lon": -77.03677883333333, "is_disabled": 0, "fusion_lat": 0.0, "lat": 38.922663166666666, "bike_id": "16c7265d46a9b03d7bbf623e19f1d81f", "fusion_lon": 0.0}, {"rental_uris": {"ios": "https://dc.lft.to/lastmile_qr_scan", "android": "https://dc.lft.to/lastmile_qr_scan"}, "type": "electric_scooter", "name": "be97e0d640bcb702d1d2c3191cf25cbc", "is_reserved": 0, "lon": -77.0232675, "is_disabled": 0, "fusion_lat": 0.0, "lat": 38.878661666666666, "bike_id": "be97e0d640bcb702d1d2c3191cf25cbc", "fusion_lon": 0.0}, {"rental_uris": {"ios": "https://dc.lft.to/lastmile_qr_scan", "android": "https://dc.lft.to/lastmile_qr_scan"}, "type": "electric_scooter", "name": "3182cc786542e2096a97458fe457aec6", "is_reserved": 0, "lon": -77.0282405, "is_disabled": 0, "fusion_lat": 0.0, "lat": 38.900799666666664, "bike_id": "3182cc786542e2096a97458fe457aec6", "fusion_lon": 0.0}, {"rental_uris": {"ios": "https://dc.lft.to/lastmile_qr_scan", "android": "https://dc.lft.to/lastmile_qr_scan"}, "type": "electric_scooter", "name": "10ac43b8f18f5de0f3f90b75c84e22df", "is_reserved": 0, "lon": -76.994705, "is_disabled": 0, "fusion_lat": 0.0, "lat": 38.905503833333334, "bike_id": "10ac43b8f18f5de0f3f90b75c84e22df", "fusion_lon": 0.0}, {"rental_uris": {"ios": "https://dc.lft.to/lastmile_qr_scan", "android": "https://dc.lft.to/lastmile_qr_scan"}, "type": "electric_scooter", "name": "4a4932082069dec99fe5b092a8c20f53", "is_reserved": 0, "lon": -76.96535983333334, "is_disabled": 0, "fusion_lat": 0.0, "lat": 38.918457333333336, "bike_id": "4a4932082069dec99fe5b092a8c20f53", "fusion_lon": 0.0}, {"rental_uris": {"ios": "https://dc.lft.to/lastmile_qr_scan", "android": "https://dc.lft.to/lastmile_qr_scan"}, "type": "electric_scooter", "name": "490a8f3f3dc112e4a52904cb959c0243", "is_reserved": 0, "lon": -77.03974533333333, "is_disabled": 0, "fusion_lat": 0.0, "lat": 38.90268283333333, "bike_id": "490a8f3f3dc112e4a52904cb959c0243", "fusion_lon": 0.0}, {"rental_uris": {"ios": "https://dc.lft.to/lastmile_qr_scan", "android": "https://dc.lft.to/lastmile_qr_scan"}, "type": "electric_scooter", "name": "ca7ac202cddef0aa87bf3729603c2bcd", "is_reserved": 0, "lon": -77.04151083333333, "is_disabled": 0, "fusion_lat": 0.0, "lat": 38.91952916666666, "bike_id": "ca7ac202cddef0aa87bf3729603c2bcd", "fusion_lon": 0.0}, {"rental_uris": {"ios": "https://dc.lft.to/lastmile_qr_scan", "android": "https://dc.lft.to/lastmile_qr_scan"}, "type": "electric_scooter", "name": "63561b92c0ed5436b3b7de031a357833", "is_reserved": 0, "lon": -77.02137, "is_disabled": 0, "fusion_lat": 0.0, "lat": 38.919950666666665, "bike_id": "63561b92c0ed5436b3b7de031a357833", "fusion_lon": 0.0}, {"rental_uris": {"ios": "https://dc.lft.to/lastmile_qr_scan", "android": "https://dc.lft.to/lastmile_qr_scan"}, "type": "electric_scooter", "name": "0606b8ceb163bfa9d8a581540d3638b9", "is_reserved": 0, "lon": -77.01760116666667, "is_disabled": 0, "fusion_lat": 0.0, "lat": 38.900955333333336, "bike_id": "0606b8ceb163bfa9d8a581540d3638b9", "fusion_lon": 0.0}, {"rental_uris": {"ios": "https://dc.lft.to/lastmile_qr_scan", "android": "https://dc.lft.to/lastmile_qr_scan"}, "type": "electric_scooter", "name": "f6f5fbe77a0c59859670566a692356e6", "is_reserved": 0, "lon": -77.07549983333334, "is_disabled": 0, "fusion_lat": 0.0, "lat": 38.92089033333333, "bike_id": "f6f5fbe77a0c59859670566a692356e6", "fusion_lon": 0.0}, {"rental_uris": {"ios": "https://dc.lft.to/lastmile_qr_scan", "android": "https://dc.lft.to/lastmile_qr_scan"}, "type": "electric_scooter", "name": "0f049804268d5ae5a7b640ea9baf778e", "is_reserved": 0, "lon": -77.03186783333334, "is_disabled": 0, "fusion_lat": 0.0, "lat": 38.91423133333333, "bike_id": "0f049804268d5ae5a7b640ea9baf778e", "fusion_lon": 0.0}, {"rental_uris": {"ios": "https://dc.lft.to/lastmile_qr_scan", "android": "https://dc.lft.to/lastmile_qr_scan"}, "type": "electric_scooter", "name": "335079aee13990e393e9dcb4b08b8804", "is_reserved": 0, "lon": -76.94199116666667, "is_disabled": 0, "fusion_lat": 0.0, "lat": 38.90225733333333, "bike_id": "335079aee13990e393e9dcb4b08b8804", "fusion_lon": 0.0}, {"rental_uris": {"ios": "https://dc.lft.to/lastmile_qr_scan", "android": "https://dc.lft.to/lastmile_qr_scan"}, "type": "electric_scooter", "name": "f2878dacb6e8ad17d226ead178fe37ca", "is_reserved": 0, "lon": -77.0414715, "is_disabled": 0, "fusion_lat": 0.0, "lat": 38.93423633333333, "bike_id": "f2878dacb6e8ad17d226ead178fe37ca", "fusion_lon": 0.0}, {"rental_uris": {"ios": "https://dc.lft.to/lastmile_qr_scan", "android": "https://dc.lft.to/lastmile_qr_scan"}, "type": "electric_scooter", "name": "21363352be4f3d2a2bfbd2ab94f0795f", "is_reserved": 0, "lon": -77.01576416666667, "is_disabled": 0, "fusion_lat": 0.0, "lat": 38.9168545, "bike_id": "21363352be4f3d2a2bfbd2ab94f0795f", "fusion_lon": 0.0}, {"rental_uris": {"ios": "https://dc.lft.to/lastmile_qr_scan", "android": "https://dc.lft.to/lastmile_qr_scan"}, "type": "electric_scooter", "name": "ae987db9b7fbf0447c3096ad3912b4ac", "is_reserved": 0, "lon": -77.03648433333333, "is_disabled": 0, "fusion_lat": 0.0, "lat": 38.900683, "bike_id": "ae987db9b7fbf0447c3096ad3912b4ac", "fusion_lon": 0.0}, {"rental_uris": {"ios": "https://dc.lft.to/lastmile_qr_scan", "android": "https://dc.lft.to/lastmile_qr_scan"}, "type": "electric_scooter", "name": "a1b1a5c2a3e107a95614c9034084af52", "is_reserved": 0, "lon": -77.03929583333333, "is_disabled": 0, "fusion_lat": 0.0, "lat": 38.902549, "bike_id": "a1b1a5c2a3e107a95614c9034084af52", "fusion_lon": 0.0}, {"rental_uris": {"ios": "https://dc.lft.to/lastmile_qr_scan", "android": "https://dc.lft.to/lastmile_qr_scan"}, "type": "electric_bike", "name": "0de304af3a2956f673b05e61c30d01b1", "is_reserved": 0, "lon": -76.98689383333334, "is_disabled": 0, "fusion_lat": 0.0, "lat": 38.94470666666667, "bike_id": "0de304af3a2956f673b05e61c30d01b1", "fusion_lon": 0.0}, {"rental_uris": {"ios": "https://dc.lft.to/lastmile_qr_scan", "android": "https://dc.lft.to/lastmile_qr_scan"}, "type": "electric_bike", "name": "c751385b920011b446f4e1a5c7e51196", "is_reserved": 0, "lon": -76.93667266666667, "is_disabled": 0, "fusion_lat": 0.0, "lat": 38.8945645, "bike_id": "c751385b920011b446f4e1a5c7e51196", "fusion_lon": 0.0}, {"rental_uris": {"ios": "https://dc.lft.to/lastmile_qr_scan", "android": "https://dc.lft.to/lastmile_qr_scan"}, "type": "electric_bike", "name": "e0d9e0b361283a9775fcec1c7ae21cea", "is_reserved": 0, "lon": -76.96262433333334, "is_disabled": 0, "fusion_lat": 0.0, "lat": 38.96781383333333, "bike_id": "e0d9e0b361283a9775fcec1c7ae21cea", "fusion_lon": 0.0}, {"rental_uris": {"ios": "https://dc.lft.to/lastmile_qr_scan", "android": "https://dc.lft.to/lastmile_qr_scan"}, "type": "electric_scooter", "name": "4edae68db7e4b2c372a909b4180b4653", "is_reserved": 0, "lon": -76.995539, "is_disabled": 0, "fusion_lat": 0.0, "lat": 38.884523, "bike_id": "4edae68db7e4b2c372a909b4180b4653", "fusion_lon": 0.0}, {"rental_uris": {"ios": "https://dc.lft.to/lastmile_qr_scan", "android": "https://dc.lft.to/lastmile_qr_scan"}, "type": "electric_scooter", "name": "62c85b54ceb4498f4a3892ee9d4acdcc", "is_reserved": 0, "lon": -76.97002983333333, "is_disabled": 0, "fusion_lat": 0.0, "lat": 38.860296, "bike_id": "62c85b54ceb4498f4a3892ee9d4acdcc", "fusion_lon": 0.0}, {"rental_uris": {"ios": "https://dc.lft.to/lastmile_qr_scan", "android": "https://dc.lft.to/lastmile_qr_scan"}, "type": "electric_scooter", "name": "56c5d84d5fa16bdf0091b683b0eca3c3", "is_reserved": 0, "lon": -77.022759, "is_disabled": 0, "fusion_lat": 0.0, "lat": 38.9208245, "bike_id": "56c5d84d5fa16bdf0091b683b0eca3c3", "fusion_lon": 0.0}, {"rental_uris": {"ios": "https://dc.lft.to/lastmile_qr_scan", "android": "https://dc.lft.to/lastmile_qr_scan"}, "type": "electric_scooter", "name": "04393713ca0099e644e7e935a41edf31", "is_reserved": 0, "lon": -77.01213116666666, "is_disabled": 0, "fusion_lat": 0.0, "lat": 38.91198033333333, "bike_id": "04393713ca0099e644e7e935a41edf31", "fusion_lon": 0.0}, {"rental_uris": {"ios": "https://dc.lft.to/lastmile_qr_scan", "android": "https://dc.lft.to/lastmile_qr_scan"}, "type": "electric_scooter", "name": "5ca1973e11c97867292868e97b5b4c26", "is_reserved": 0, "lon": -77.02159666666667, "is_disabled": 0, "fusion_lat": 0.0, "lat": 38.91625166666667, "bike_id": "5ca1973e11c97867292868e97b5b4c26", "fusion_lon": 0.0}, {"rental_uris": {"ios": "https://dc.lft.to/lastmile_qr_scan", "android": "https://dc.lft.to/lastmile_qr_scan"}, "type": "electric_bike", "name": "e831c7ea9c201a9d24cf4f7c25ceb8ce", "is_reserved": 0, "lon": -76.97701316666667, "is_disabled": 0, "fusion_lat": 0.0, "lat": 38.8399675, "bike_id": "e831c7ea9c201a9d24cf4f7c25ceb8ce", "fusion_lon": 0.0}, {"rental_uris": {"ios": "https://dc.lft.to/lastmile_qr_scan", "android": "https://dc.lft.to/lastmile_qr_scan"}, "type": "electric_scooter", "name": "d8e903f5fbaf045ab887f9b9c7e77e5c", "is_reserved": 0, "lon": -77.00930316666667, "is_disabled": 0, "fusion_lat": 0.0, "lat": 38.898797333333334, "bike_id": "d8e903f5fbaf045ab887f9b9c7e77e5c", "fusion_lon": 0.0}, {"rental_uris": {"ios": "https://dc.lft.to/lastmile_qr_scan", "android": "https://dc.lft.to/lastmile_qr_scan"}, "type": "electric_scooter", "name": "1a392377711e43470e6e3b966c4ff87f", "is_reserved": 0, "lon": -76.979363, "is_disabled": 0, "fusion_lat": 0.0, "lat": 38.906606, "bike_id": "1a392377711e43470e6e3b966c4ff87f", "fusion_lon": 0.0}, {"rental_uris": {"ios": "https://dc.lft.to/lastmile_qr_scan", "android": "https://dc.lft.to/lastmile_qr_scan"}, "type": "electric_scooter", "name": "76e5509541043806e4207e373c72c4c8", "is_reserved": 0, "lon": -77.064801, "is_disabled": 0, "fusion_lat": 0.0, "lat": 38.910229, "bike_id": "76e5509541043806e4207e373c72c4c8", "fusion_lon": 0.0}, {"rental_uris": {"ios": "https://dc.lft.to/lastmile_qr_scan", "android": "https://dc.lft.to/lastmile_qr_scan"}, "type": "electric_scooter", "name": "4685fb3eb9608fcb4d7f9ae12b6dcd7e", "is_reserved": 0, "lon": -77.05219283333334, "is_disabled": 0, "fusion_lat": 0.0, "lat": 38.90021433333333, "bike_id": "4685fb3eb9608fcb4d7f9ae12b6dcd7e", "fusion_lon": 0.0}, {"rental_uris": {"ios": "https://dc.lft.to/lastmile_qr_scan", "android": "https://dc.lft.to/lastmile_qr_scan"}, "type": "electric_scooter", "name": "c15dbe0e4f14fda362706a615d519962", "is_reserved": 0, "lon": -77.01528116666667, "is_disabled": 0, "fusion_lat": 0.0, "lat": 38.887340333333334, "bike_id": "c15dbe0e4f14fda362706a615d519962", "fusion_lon": 0.0}, {"rental_uris": {"ios": "https://dc.lft.to/lastmile_qr_scan", "android": "https://dc.lft.to/lastmile_qr_scan"}, "type": "electric_scooter", "name": "a0977969900cbcc8c3e8f0cd56fa0946", "is_reserved": 0, "lon": -77.03333183333334, "is_disabled": 0, "fusion_lat": 0.0, "lat": 38.913259333333336, "bike_id": "a0977969900cbcc8c3e8f0cd56fa0946", "fusion_lon": 0.0}, {"rental_uris": {"ios": "https://dc.lft.to/lastmile_qr_scan", "android": "https://dc.lft.to/lastmile_qr_scan"}, "type": "electric_bike", "name": "4a9f4dc387e734a5e52166805de7a4bb", "is_reserved": 0, "lon": -77.00139083333333, "is_disabled": 0, "fusion_lat": 0.0, "lat": 38.995027, "bike_id": "4a9f4dc387e734a5e52166805de7a4bb", "fusion_lon": 0.0}, {"rental_uris": {"ios": "https://dc.lft.to/lastmile_qr_scan", "android": "https://dc.lft.to/lastmile_qr_scan"}, "type": "electric_scooter", "name": "bf192f85399d2f23602570b926eb1b75", "is_reserved": 0, "lon": -76.99113383333334, "is_disabled": 0, "fusion_lat": 0.0, "lat": 38.9323535, "bike_id": "bf192f85399d2f23602570b926eb1b75", "fusion_lon": 0.0}, {"rental_uris": {"ios": "https://dc.lft.to/lastmile_qr_scan", "android": "https://dc.lft.to/lastmile_qr_scan"}, "type": "electric_scooter", "name": "be711c609772a85f1a3cd58191e618c2", "is_reserved": 0, "lon": -77.031941, "is_disabled": 0, "fusion_lat": 0.0, "lat": 38.93157866666667, "bike_id": "be711c609772a85f1a3cd58191e618c2", "fusion_lon": 0.0}, {"rental_uris": {"ios": "https://dc.lft.to/lastmile_qr_scan", "android": "https://dc.lft.to/lastmile_qr_scan"}, "type": "electric_scooter", "name": "1b84f3c3b512640066deae61a186ceff", "is_reserved": 0, "lon": -77.00976483333334, "is_disabled": 0, "fusion_lat": 0.0, "lat": 38.910252666666665, "bike_id": "1b84f3c3b512640066deae61a186ceff", "fusion_lon": 0.0}, {"rental_uris": {"ios": "https://dc.lft.to/lastmile_qr_scan", "android": "https://dc.lft.to/lastmile_qr_scan"}, "type": "electric_bike", "name": "553f7ad4ab409f015c4eea08b91cd960", "is_reserved": 0, "lon": -76.9872415, "is_disabled": 0, "fusion_lat": 0.0, "lat": 38.86329466666667, "bike_id": "553f7ad4ab409f015c4eea08b91cd960", "fusion_lon": 0.0}, {"rental_uris": {"ios": "https://dc.lft.to/lastmile_qr_scan", "android": "https://dc.lft.to/lastmile_qr_scan"}, "type": "electric_scooter", "name": "fcafe0f8ce23297d8c752ff56716641f", "is_reserved": 0, "lon": -77.04196316666666, "is_disabled": 0, "fusion_lat": 0.0, "lat": 38.9211245, "bike_id": "fcafe0f8ce23297d8c752ff56716641f", "fusion_lon": 0.0}, {"rental_uris": {"ios": "https://dc.lft.to/lastmile_qr_scan", "android": "https://dc.lft.to/lastmile_qr_scan"}, "type": "electric_scooter", "name": "b575d274f1abb6b04325de1ae3b0d8bc", "is_reserved": 0, "lon": -77.04072966666666, "is_disabled": 0, "fusion_lat": 0.0, "lat": 38.90719433333334, "bike_id": "b575d274f1abb6b04325de1ae3b0d8bc", "fusion_lon": 0.0}, {"rental_uris": {"ios": "https://dc.lft.to/lastmile_qr_scan", "android": "https://dc.lft.to/lastmile_qr_scan"}, "type": "electric_scooter", "name": "d2b0b0533b93bb8c6c175a9e79740f9d", "is_reserved": 0, "lon": -76.97803666666667, "is_disabled": 0, "fusion_lat": 0.0, "lat": 38.903113166666664, "bike_id": "d2b0b0533b93bb8c6c175a9e79740f9d", "fusion_lon": 0.0}, {"rental_uris": {"ios": "https://dc.lft.to/lastmile_qr_scan", "android": "https://dc.lft.to/lastmile_qr_scan"}, "type": "electric_scooter", "name": "81b8ab1a0813eff28ab81ebe1335bdab", "is_reserved": 0, "lon": -77.04387066666666, "is_disabled": 0, "fusion_lat": 0.0, "lat": 38.91658616666667, "bike_id": "81b8ab1a0813eff28ab81ebe1335bdab", "fusion_lon": 0.0}, {"rental_uris": {"ios": "https://dc.lft.to/lastmile_qr_scan", "android": "https://dc.lft.to/lastmile_qr_scan"}, "type": "electric_scooter", "name": "a7801e2c1d55c29356d7dc2ad89cd309", "is_reserved": 0, "lon": -76.9615385, "is_disabled": 0, "fusion_lat": 0.0, "lat": 38.883613833333335, "bike_id": "a7801e2c1d55c29356d7dc2ad89cd309", "fusion_lon": 0.0}, {"rental_uris": {"ios": "https://dc.lft.to/lastmile_qr_scan", "android": "https://dc.lft.to/lastmile_qr_scan"}, "type": "electric_scooter", "name": "f78061c4ab8d016c7217c15c6143b59a", "is_reserved": 0, "lon": -77.0219835, "is_disabled": 0, "fusion_lat": 0.0, "lat": 38.910521333333335, "bike_id": "f78061c4ab8d016c7217c15c6143b59a", "fusion_lon": 0.0}, {"rental_uris": {"ios": "https://dc.lft.to/lastmile_qr_scan", "android": "https://dc.lft.to/lastmile_qr_scan"}, "type": "electric_scooter", "name": "e95dad7e6cc068219437a7698bb545a8", "is_reserved": 0, "lon": -76.96982883333334, "is_disabled": 0, "fusion_lat": 0.0, "lat": 38.8740015, "bike_id": "e95dad7e6cc068219437a7698bb545a8", "fusion_lon": 0.0}, {"rental_uris": {"ios": "https://dc.lft.to/lastmile_qr_scan", "android": "https://dc.lft.to/lastmile_qr_scan"}, "type": "electric_scooter", "name": "a79f92c0f452af9dd74084fcc8e17a1d", "is_reserved": 0, "lon": -77.0515325, "is_disabled": 0, "fusion_lat": 0.0, "lat": 38.9054065, "bike_id": "a79f92c0f452af9dd74084fcc8e17a1d", "fusion_lon": 0.0}, {"rental_uris": {"ios": "https://dc.lft.to/lastmile_qr_scan", "android": "https://dc.lft.to/lastmile_qr_scan"}, "type": "electric_scooter", "name": "763425d355707acfd6adb1150e2a4a87", "is_reserved": 0, "lon": -77.03200666666666, "is_disabled": 0, "fusion_lat": 0.0, "lat": 38.91794683333333, "bike_id": "763425d355707acfd6adb1150e2a4a87", "fusion_lon": 0.0}, {"rental_uris": {"ios": "https://dc.lft.to/lastmile_qr_scan", "android": "https://dc.lft.to/lastmile_qr_scan"}, "type": "electric_scooter", "name": "1eb910e81f08fab11bfc441ab78f94af", "is_reserved": 0, "lon": -76.92582866666666, "is_disabled": 0, "fusion_lat": 0.0, "lat": 38.897630666666664, "bike_id": "1eb910e81f08fab11bfc441ab78f94af", "fusion_lon": 0.0}, {"rental_uris": {"ios": "https://dc.lft.to/lastmile_qr_scan", "android": "https://dc.lft.to/lastmile_qr_scan"}, "type": "electric_scooter", "name": "ad9cbcac34656dc8109f3095149b107d", "is_reserved": 0, "lon": -76.99610866666667, "is_disabled": 0, "fusion_lat": 0.0, "lat": 38.93164183333333, "bike_id": "ad9cbcac34656dc8109f3095149b107d", "fusion_lon": 0.0}, {"rental_uris": {"ios": "https://dc.lft.to/lastmile_qr_scan", "android": "https://dc.lft.to/lastmile_qr_scan"}, "type": "electric_scooter", "name": "5964adfe297b767a26d20d845290ffe4", "is_reserved": 0, "lon": -77.048731, "is_disabled": 0, "fusion_lat": 0.0, "lat": 38.89233433333333, "bike_id": "5964adfe297b767a26d20d845290ffe4", "fusion_lon": 0.0}, {"rental_uris": {"ios": "https://dc.lft.to/lastmile_qr_scan", "android": "https://dc.lft.to/lastmile_qr_scan"}, "type": "electric_scooter", "name": "f36187a2c4c8d9a2dedc7801c04719b3", "is_reserved": 0, "lon": -77.03201516666667, "is_disabled": 0, "fusion_lat": 0.0, "lat": 38.914243666666664, "bike_id": "f36187a2c4c8d9a2dedc7801c04719b3", "fusion_lon": 0.0}, {"rental_uris": {"ios": "https://dc.lft.to/lastmile_qr_scan", "android": "https://dc.lft.to/lastmile_qr_scan"}, "type": "electric_scooter", "name": "53bfa92d0ff74d16e74f66ade6816327", "is_reserved": 0, "lon": -77.04267883333333, "is_disabled": 0, "fusion_lat": 0.0, "lat": 38.9178965, "bike_id": "53bfa92d0ff74d16e74f66ade6816327", "fusion_lon": 0.0}, {"rental_uris": {"ios": "https://dc.lft.to/lastmile_qr_scan", "android": "https://dc.lft.to/lastmile_qr_scan"}, "type": "electric_scooter", "name": "cc6432924c109d3742b0fb2cf1b772e4", "is_reserved": 0, "lon": -77.03390116666667, "is_disabled": 0, "fusion_lat": 0.0, "lat": 38.93846083333333, "bike_id": "cc6432924c109d3742b0fb2cf1b772e4", "fusion_lon": 0.0}, {"rental_uris": {"ios": "https://dc.lft.to/lastmile_qr_scan", "android": "https://dc.lft.to/lastmile_qr_scan"}, "type": "electric_scooter", "name": "be103d45a722c48e47818ca888a025ba", "is_reserved": 0, "lon": -77.036582, "is_disabled": 0, "fusion_lat": 0.0, "lat": 38.91266, "bike_id": "be103d45a722c48e47818ca888a025ba", "fusion_lon": 0.0}, {"rental_uris": {"ios": "https://dc.lft.to/lastmile_qr_scan", "android": "https://dc.lft.to/lastmile_qr_scan"}, "type": "electric_scooter", "name": "eaa1d63297bbd025f5b2eb100147e1c6", "is_reserved": 0, "lon": -77.03869366666666, "is_disabled": 0, "fusion_lat": 0.0, "lat": 38.911220166666666, "bike_id": "eaa1d63297bbd025f5b2eb100147e1c6", "fusion_lon": 0.0}, {"rental_uris": {"ios": "https://dc.lft.to/lastmile_qr_scan", "android": "https://dc.lft.to/lastmile_qr_scan"}, "type": "electric_scooter", "name": "511b83602740d4249a43410b86c8a555", "is_reserved": 0, "lon": -77.0091775, "is_disabled": 0, "fusion_lat": 0.0, "lat": 38.897440833333334, "bike_id": "511b83602740d4249a43410b86c8a555", "fusion_lon": 0.0}, {"rental_uris": {"ios": "https://dc.lft.to/lastmile_qr_scan", "android": "https://dc.lft.to/lastmile_qr_scan"}, "type": "electric_scooter", "name": "2c60fbe53de48088cd146f7c837861ca", "is_reserved": 0, "lon": -77.0218645, "is_disabled": 0, "fusion_lat": 0.0, "lat": 38.91531916666667, "bike_id": "2c60fbe53de48088cd146f7c837861ca", "fusion_lon": 0.0}, {"rental_uris": {"ios": "https://dc.lft.to/lastmile_qr_scan", "android": "https://dc.lft.to/lastmile_qr_scan"}, "type": "electric_scooter", "name": "e7934f0860e60a0be668513b36901f89", "is_reserved": 0, "lon": -77.008843, "is_disabled": 0, "fusion_lat": 0.0, "lat": 38.905792, "bike_id": "e7934f0860e60a0be668513b36901f89", "fusion_lon": 0.0}, {"rental_uris": {"ios": "https://dc.lft.to/lastmile_qr_scan", "android": "https://dc.lft.to/lastmile_qr_scan"}, "type": "electric_scooter", "name": "1e22e6d61fb304f7a2b83118ad3f9bd4", "is_reserved": 0, "lon": -77.03494833333333, "is_disabled": 0, "fusion_lat": 0.0, "lat": 38.9169205, "bike_id": "1e22e6d61fb304f7a2b83118ad3f9bd4", "fusion_lon": 0.0}, {"rental_uris": {"ios": "https://dc.lft.to/lastmile_qr_scan", "android": "https://dc.lft.to/lastmile_qr_scan"}, "type": "electric_scooter", "name": "21a2b43d58d72e414a10d9ae23d1e7ca", "is_reserved": 0, "lon": -77.03564216666666, "is_disabled": 0, "fusion_lat": 0.0, "lat": 38.90483033333334, "bike_id": "21a2b43d58d72e414a10d9ae23d1e7ca", "fusion_lon": 0.0}, {"rental_uris": {"ios": "https://dc.lft.to/lastmile_qr_scan", "android": "https://dc.lft.to/lastmile_qr_scan"}, "type": "electric_scooter", "name": "5ee57322de2980949e76110ea337bcdb", "is_reserved": 0, "lon": -76.99047166666666, "is_disabled": 0, "fusion_lat": 0.0, "lat": 38.863663, "bike_id": "5ee57322de2980949e76110ea337bcdb", "fusion_lon": 0.0}, {"rental_uris": {"ios": "https://dc.lft.to/lastmile_qr_scan", "android": "https://dc.lft.to/lastmile_qr_scan"}, "type": "electric_scooter", "name": "7761c445d1252cde71bbbffc60abc531", "is_reserved": 0, "lon": -77.02368983333334, "is_disabled": 0, "fusion_lat": 0.0, "lat": 38.89220016666667, "bike_id": "7761c445d1252cde71bbbffc60abc531", "fusion_lon": 0.0}, {"rental_uris": {"ios": "https://dc.lft.to/lastmile_qr_scan", "android": "https://dc.lft.to/lastmile_qr_scan"}, "type": "electric_scooter", "name": "8e3423ef65a914da083643a4cd51d314", "is_reserved": 0, "lon": -77.03904333333334, "is_disabled": 0, "fusion_lat": 0.0, "lat": 38.917565, "bike_id": "8e3423ef65a914da083643a4cd51d314", "fusion_lon": 0.0}, {"rental_uris": {"ios": "https://dc.lft.to/lastmile_qr_scan", "android": "https://dc.lft.to/lastmile_qr_scan"}, "type": "electric_scooter", "name": "99213c41c1e0bf5fa135cfe30901d1a0", "is_reserved": 0, "lon": -77.02245716666667, "is_disabled": 0, "fusion_lat": 0.0, "lat": 38.926801, "bike_id": "99213c41c1e0bf5fa135cfe30901d1a0", "fusion_lon": 0.0}, {"rental_uris": {"ios": "https://dc.lft.to/lastmile_qr_scan", "android": "https://dc.lft.to/lastmile_qr_scan"}, "type": "electric_scooter", "name": "1d7965271141eb9f6c4c9eef30282e05", "is_reserved": 0, "lon": -77.01527966666667, "is_disabled": 0, "fusion_lat": 0.0, "lat": 38.87954, "bike_id": "1d7965271141eb9f6c4c9eef30282e05", "fusion_lon": 0.0}, {"rental_uris": {"ios": "https://dc.lft.to/lastmile_qr_scan", "android": "https://dc.lft.to/lastmile_qr_scan"}, "type": "electric_scooter", "name": "e1c7ded74f463686a4e15cbbe9c43bba", "is_reserved": 0, "lon": -77.028461, "is_disabled": 0, "fusion_lat": 0.0, "lat": 38.934706, "bike_id": "e1c7ded74f463686a4e15cbbe9c43bba", "fusion_lon": 0.0}, {"rental_uris": {"ios": "https://dc.lft.to/lastmile_qr_scan", "android": "https://dc.lft.to/lastmile_qr_scan"}, "type": "electric_scooter", "name": "7e573ac6c652f3b2d816d0d33a977ab5", "is_reserved": 0, "lon": -77.04675916666666, "is_disabled": 0, "fusion_lat": 0.0, "lat": 38.892382166666664, "bike_id": "7e573ac6c652f3b2d816d0d33a977ab5", "fusion_lon": 0.0}, {"rental_uris": {"ios": "https://dc.lft.to/lastmile_qr_scan", "android": "https://dc.lft.to/lastmile_qr_scan"}, "type": "electric_scooter", "name": "b319178c5783abd54168451687301113", "is_reserved": 0, "lon": -77.03265416666666, "is_disabled": 0, "fusion_lat": 0.0, "lat": 38.932389, "bike_id": "b319178c5783abd54168451687301113", "fusion_lon": 0.0}, {"rental_uris": {"ios": "https://dc.lft.to/lastmile_qr_scan", "android": "https://dc.lft.to/lastmile_qr_scan"}, "type": "electric_scooter", "name": "cd9f03ffb8bb50b40739a42ede01c41e", "is_reserved": 0, "lon": -77.05022, "is_disabled": 0, "fusion_lat": 0.0, "lat": 38.910526833333336, "bike_id": "cd9f03ffb8bb50b40739a42ede01c41e", "fusion_lon": 0.0}, {"rental_uris": {"ios": "https://dc.lft.to/lastmile_qr_scan", "android": "https://dc.lft.to/lastmile_qr_scan"}, "type": "electric_scooter", "name": "c60644dfe4da0af6eb9c590ece32cef7", "is_reserved": 0, "lon": -77.02212783333333, "is_disabled": 0, "fusion_lat": 0.0, "lat": 38.87897366666667, "bike_id": "c60644dfe4da0af6eb9c590ece32cef7", "fusion_lon": 0.0}, {"rental_uris": {"ios": "https://dc.lft.to/lastmile_qr_scan", "android": "https://dc.lft.to/lastmile_qr_scan"}, "type": "electric_scooter", "name": "faef6e8e73088cd171a5cabec9951600", "is_reserved": 0, "lon": -77.02357566666667, "is_disabled": 0, "fusion_lat": 0.0, "lat": 38.93156616666667, "bike_id": "faef6e8e73088cd171a5cabec9951600", "fusion_lon": 0.0}, {"rental_uris": {"ios": "https://dc.lft.to/lastmile_qr_scan", "android": "https://dc.lft.to/lastmile_qr_scan"}, "type": "electric_scooter", "name": "0d93e133568b07fc2597eb0d00d74292", "is_reserved": 0, "lon": -77.019795, "is_disabled": 0, "fusion_lat": 0.0, "lat": 38.952129666666664, "bike_id": "0d93e133568b07fc2597eb0d00d74292", "fusion_lon": 0.0}, {"rental_uris": {"ios": "https://dc.lft.to/lastmile_qr_scan", "android": "https://dc.lft.to/lastmile_qr_scan"}, "type": "electric_scooter", "name": "da841a128048c74ffb59dd7630d99d33", "is_reserved": 0, "lon": -77.06543883333333, "is_disabled": 0, "fusion_lat": 0.0, "lat": 38.905208, "bike_id": "da841a128048c74ffb59dd7630d99d33", "fusion_lon": 0.0}, {"rental_uris": {"ios": "https://dc.lft.to/lastmile_qr_scan", "android": "https://dc.lft.to/lastmile_qr_scan"}, "type": "electric_scooter", "name": "f7b2a8a8a9eeef0e5963883bc5323cfc", "is_reserved": 0, "lon": -77.02622116666667, "is_disabled": 0, "fusion_lat": 0.0, "lat": 38.8843845, "bike_id": "f7b2a8a8a9eeef0e5963883bc5323cfc", "fusion_lon": 0.0}, {"rental_uris": {"ios": "https://dc.lft.to/lastmile_qr_scan", "android": "https://dc.lft.to/lastmile_qr_scan"}, "type": "electric_scooter", "name": "0368d0884237685e4bf6aff931e5810a", "is_reserved": 0, "lon": -77.04128283333333, "is_disabled": 0, "fusion_lat": 0.0, "lat": 38.9037155, "bike_id": "0368d0884237685e4bf6aff931e5810a", "fusion_lon": 0.0}, {"rental_uris": {"ios": "https://dc.lft.to/lastmile_qr_scan", "android": "https://dc.lft.to/lastmile_qr_scan"}, "type": "electric_scooter", "name": "b4d7f49f909ba323e661b2c893097c65", "is_reserved": 0, "lon": -77.031744, "is_disabled": 0, "fusion_lat": 0.0, "lat": 38.91565533333333, "bike_id": "b4d7f49f909ba323e661b2c893097c65", "fusion_lon": 0.0}, {"rental_uris": {"ios": "https://dc.lft.to/lastmile_qr_scan", "android": "https://dc.lft.to/lastmile_qr_scan"}, "type": "electric_scooter", "name": "02610180f261e336d47d77af018d1ab0", "is_reserved": 0, "lon": -77.01946983333333, "is_disabled": 0, "fusion_lat": 0.0, "lat": 38.924168, "bike_id": "02610180f261e336d47d77af018d1ab0", "fusion_lon": 0.0}, {"rental_uris": {"ios": "https://dc.lft.to/lastmile_qr_scan", "android": "https://dc.lft.to/lastmile_qr_scan"}, "type": "electric_scooter", "name": "17ccee533225b10f3209127235f8a8df", "is_reserved": 0, "lon": -77.04081783333334, "is_disabled": 0, "fusion_lat": 0.0, "lat": 38.947892833333334, "bike_id": "17ccee533225b10f3209127235f8a8df", "fusion_lon": 0.0}, {"rental_uris": {"ios": "https://dc.lft.to/lastmile_qr_scan", "android": "https://dc.lft.to/lastmile_qr_scan"}, "type": "electric_bike", "name": "3f15ebee549bcc82c2213496d260f0e3", "is_reserved": 0, "lon": -76.980074, "is_disabled": 0, "fusion_lat": 0.0, "lat": 38.85311566666667, "bike_id": "3f15ebee549bcc82c2213496d260f0e3", "fusion_lon": 0.0}, {"rental_uris": {"ios": "https://dc.lft.to/lastmile_qr_scan", "android": "https://dc.lft.to/lastmile_qr_scan"}, "type": "electric_scooter", "name": "59da2a92481ba6386aad2d1a351969fc", "is_reserved": 0, "lon": -77.04015266666667, "is_disabled": 0, "fusion_lat": 0.0, "lat": 38.92167333333333, "bike_id": "59da2a92481ba6386aad2d1a351969fc", "fusion_lon": 0.0}, {"rental_uris": {"ios": "https://dc.lft.to/lastmile_qr_scan", "android": "https://dc.lft.to/lastmile_qr_scan"}, "type": "electric_scooter", "name": "a3c52997189da3c49cdd4859d170f01c", "is_reserved": 0, "lon": -77.03405233333334, "is_disabled": 0, "fusion_lat": 0.0, "lat": 38.92401383333333, "bike_id": "a3c52997189da3c49cdd4859d170f01c", "fusion_lon": 0.0}, {"rental_uris": {"ios": "https://dc.lft.to/lastmile_qr_scan", "android": "https://dc.lft.to/lastmile_qr_scan"}, "type": "electric_scooter", "name": "19e00209552c58b0a7c6aca583e38391", "is_reserved": 0, "lon": -77.03231866666667, "is_disabled": 0, "fusion_lat": 0.0, "lat": 38.898952666666666, "bike_id": "19e00209552c58b0a7c6aca583e38391", "fusion_lon": 0.0}, {"rental_uris": {"ios": "https://dc.lft.to/lastmile_qr_scan", "android": "https://dc.lft.to/lastmile_qr_scan"}, "type": "electric_scooter", "name": "ab58c7f1d1ce9f0ada5082185683977a", "is_reserved": 0, "lon": -77.03646783333333, "is_disabled": 0, "fusion_lat": 0.0, "lat": 38.91271166666667, "bike_id": "ab58c7f1d1ce9f0ada5082185683977a", "fusion_lon": 0.0}, {"rental_uris": {"ios": "https://dc.lft.to/lastmile_qr_scan", "android": "https://dc.lft.to/lastmile_qr_scan"}, "type": "electric_scooter", "name": "88a4466222c9e3e3476fe5eb80671eb7", "is_reserved": 0, "lon": -77.043929, "is_disabled": 0, "fusion_lat": 0.0, "lat": 38.916576166666665, "bike_id": "88a4466222c9e3e3476fe5eb80671eb7", "fusion_lon": 0.0},