{"data": {"bikes": [{"rental_uris": {"ios": "https://dc.lft.to/lastmile_qr_scan", "android": "https://dc.lft.to/lastmile_qr_scan"}, "type": "electric_scooter", "name": "58cfd8d1ff1c31e51634bf9fb2670239", "is_reserved": 0, "lon": -77.00946083333334, "is_disabled": 0, "fusion_lat": 0.0, "lat": 38.894983, "bike_id": "58cfd8d1ff1c31e51634bf9fb2670239", "fusion_lon": 0.0}, {"rental_uris": {"ios": "https://dc.lft.to/lastmile_qr_scan", "android": "https://dc.lft.to/lastmile_qr_scan"}, "type": "electric_scooter", "name": "6d5626b2a9dc0f733de6bb6f158bc9be", "is_reserved": 0, "lon": -77.02264233333334, "is_disabled": 0, "fusion_lat": 0.0, "lat": 38.928229, "bike_id": "6d5626b2a9dc0f733de6bb6f158bc9be", "fusion_lon": 0.0}, {"rental_uris": {"ios": "https://dc.lft.to/lastmile_qr_scan", "android": "https://dc.lft.to/lastmile_qr_scan"}, "type": "electric_scooter", "name": "c07febf7c73ad27e77ac1738024311a1", "is_reserved": 0, "lon": -77.02699, "is_disabled": 0, "fusion_lat": 0.0, "lat": 38.90574316666667, "bike_id": "c07febf7c73ad27e77ac1738024311a1", "fusion_lon": 0.0}, {"rental_uris": {"ios": "https://dc.lft.to/lastmile_qr_scan", "android": "https://dc.lft.to/lastmile_qr_scan"}, "type": "electric_scooter", "name": "6318dd2bae085439ce2053926c3a0dcb", "is_reserved": 0, "lon": -77.0269235, "is_disabled": 0, "fusion_lat": 0.0, "lat": 38.9180515, "bike_id": "6318dd2bae085439ce2053926c3a0dcb", "fusion_lon": 0.0}, {"rental_uris": {"ios": "https://dc.lft.to/lastmile_qr_scan", "android": "https://dc.lft.to/lastmile_qr_scan"}, "type": "electric_scooter", "name": "92fc5e1515c464d3035bab08894c6710", "is_reserved": 0, "lon": -77.021807, "is_disabled": 0, "fusion_lat": 0.0, "lat": 38.914872833333334, "bike_id": "92fc5e1515c464d3035bab08894c6710", "fusion_lon": 0.0}, {"rental_uris": {"ios": "https://dc.lft.to/lastmile_qr_scan", "android": "https://dc.lft.to/lastmile_qr_scan"}, "type": "electric_scooter", "name": "351f8675d7d4e8bac02ded995cd6acbf", "is_reserved": 0, "lon": -77.01124083333333, "is_disabled": 0, "fusion_lat": 0.0, "lat": 38.91619566666667, "bike_id": "351f8675d7d4e8bac02ded995cd6acbf", "fusion_lon": 0.0}, {"rental_uris": {"ios": "https://dc.lft.to/lastmile_qr_scan", "android": "https://dc.lft.to/lastmile_qr_scan"}, "type": "electric_scooter", "name": "b392d16c76a23757dd0c4c6c9f965d9e", "is_reserved": 0, "lon": -77.050273, "is_disabled": 0, "fusion_lat": 0.0, "lat": 38.92357466666667, "bike_id": "b392d16c76a23757dd0c4c6c9f965d9e", "fusion_lon": 0.0}, {"rental_uris": {"ios": "https://dc.lft.to/lastmile_qr_scan", "android": "https://dc.lft.to/lastmile_qr_scan"}, "type": "electric_scooter", "name": "8f31b517d0f3b7c6730c5501bcbba87e", "is_reserved": 0, "lon": -77.04993416666667, "is_disabled": 0, "fusion_lat": 0.0, "lat": 38.901309833333336, "bike_id": "8f31b517d0f3b7c6730c5501bcbba87e", "fusion_lon": 0.0}, {"rental_uris": {"ios": "https://dc.lft.to/lastmile_qr_scan", "android": "https://dc.lft.to/lastmile_qr_scan"}, "type": "electric_scooter", "name": "1cb5c4864062264f9a17f1de629eaa0f", "is_reserved": 0, "lon": -77.05472516666667, "is_disabled": 0, "fusion_lat": 0.0, "lat": 38.897323, "bike_id": "1cb5c4864062264f9a17f1de629eaa0f", "fusion_lon": 0.0}, {"rental_uris": {"ios": "https://dc.lft.to/lastmile_qr_scan", "android": "https://dc.lft.to/lastmile_qr_scan"}, "type": "electric_scooter", "name": "e72fcbaeb38bcfe811ccbd1175ece4ab", "is_reserved": 0, "lon": -77.03466733333333, "is_disabled": 0, "fusion_lat": 0.0, "lat": 38.912628833333336, "bike_id": "e72fcbaeb38bcfe811ccbd1175ece4ab", "fusion_lon": 0.0}, {"rental_uris": {"ios": "https://dc.lft.to/lastmile_qr_scan", "android": "https://dc.lft.to/lastmile_qr_scan"}, "type": "electric_scooter", "name": "dc88135c9a077c59aff79dd7c6535a7a", "is_reserved": 0, "lon": -77.02691533333333, "is_disabled": 0, "fusion_lat": 0.0, "lat": 38.94979033333333, "bike_id": "dc88135c9a077c59aff79dd7c6535a7a", "fusion_lon": 0.0}, {"rental_uris": {"ios": "https://dc.lft.to/lastmile_qr_scan", "android": "https://dc.lft.to/lastmile_qr_scan"}, "type": "electric_bike", "name": "aa73f52051d24354f5e9a4f5bb1658eb", "is_reserved": 0, "lon": -76.996818, "is_disabled": 0, "fusion_lat": 0.0, "lat": 38.83819033333333, "bike_id": "aa73f52051d24354f5e9a4f5bb1658eb", "fusion_lon": 0.0}, {"rental_uris": {"ios": "https://dc.lft.to/lastmile_qr_scan", "android": "https://dc.lft.to/lastmile_qr_scan"}, "type": "electric_scooter", "name": "3edb33d3c060fcb71f83cc2d8469a3f2", "is_reserved": 0, "lon": -77.04215533333333, "is_disabled": 0, "fusion_lat": 0.0, "lat": 38.92513266666667, "bike_id": "3edb33d3c060fcb71f83cc2d8469a3f2", "fusion_lon": 0.0}, {"rental_uris": {"ios": "https://dc.lft.to/lastmile_qr_scan", "android": "https://dc.lft.to/lastmile_qr_scan"}, "type": "electric_scooter", "name": "c44ef89581535f514174ca085b10a6f7", "is_reserved": 0, "lon": -76.93427666666666, "is_disabled": 0, "fusion_lat": 0.0, "lat": 38.89341066666667, "bike_id": "c44ef89581535f514174ca085b10a6f7", "fusion_lon": 0.0}, {"rental_uris": {"ios": "https://dc.lft.to/lastmile_qr_scan", "android": "https://dc.lft.to/lastmile_qr_scan"}, "type": "electric_scooter", "name": "8bd3927db2171a0c595b1c7401ae960a", "is_reserved": 0, "lon": -77.02379566666667, "is_disabled": 0, "fusion_lat": 0.0, "lat": 38.91701883333333, "bike_id": "8bd3927db2171a0c595b1c7401ae960a", "fusion_lon": 0.0}, {"rental_uris": {"ios": "https://dc.lft.to/lastmile_qr_scan", "android": "https://dc.lft.to/lastmile_qr_scan"}, "type": "electric_scooter", "name": "59671a2c149dbafd974a0e1ba4fa9fe2", "is_reserved": 0, "lon": -77.03180933333333, "is_disabled": 0, "fusion_lat": 0.0, "lat": 38.921245, "bike_id": "59671a2c149dbafd974a0e1ba4fa9fe2", "fusion_lon": 0.0}, {"rental_uris": {"ios": "https://dc.lft.to/lastmile_qr_scan", "android": "https://dc.lft.to/lastmile_qr_scan"}, "type": "electric_scooter", "name": "edb23978d7ed4947e3c81abda66ac1c1", "is_reserved": 0, "lon": -77.0087305, "is_disabled": 0, "fusion_lat": 0.0, "lat": 38.897483666666666, "bike_id": "edb23978d7ed4947e3c81abda66ac1c1", "fusion_lon": 0.0}, {"rental_uris": {"ios": "https://dc.lft.to/lastmile_qr_scan", "android": "https://dc.lft.to/lastmile_qr_scan"}, "type": "electric_scooter", "name": "db4d20b640eb4491712a1da0e561301b", "is_reserved": 0, "lon": -77.04130416666666, "is_disabled": 0, "fusion_lat": 0.0, "lat": 38.907225, "bike_id": "db4d20b640eb4491712a1da0e561301b", "fusion_lon": 0.0}, {"rental_uris": {"ios": "https://dc.lft.to/lastmile_qr_scan", "android": "https://dc.lft.to/lastmile_qr_scan"}, "type": "electric_bike", "name": "a5a7cc8ba50500b487082794463443fc", "is_reserved": 0, "lon": -77.01220766666667, "is_disabled": 0, "fusion_lat": 0.0, "lat": 38.95075466666667, "bike_id": "a5a7cc8ba50500b487082794463443fc", "fusion_lon": 0.0}, {"rental_uris": {"ios": "https://dc.lft.to/lastmile_qr_scan", "android": "https://dc.lft.to/lastmile_qr_scan"}, "type": "electric_scooter", "name": "31b4500785614967bf3566248e090b8c", "is_reserved": 0, "lon": -76.952803, "is_disabled": 0, "fusion_lat": 0.0, "lat": 38.89201516666667, "bike_id": "31b4500785614967bf3566248e090b8c", "fusion_lon": 0.0}, {"rental_uris": {"ios": "https://dc.lft.to/lastmile_qr_scan", "android": "https://dc.lft.to/lastmile_qr_scan"}, "type": "electric_scooter", "name": "5bf41d973da1357d68c957358f54244f", "is_reserved": 0, "lon": -77.03444066666667, "is_disabled": 0, "fusion_lat": 0.0, "lat": 38.91812566666667, "bike_id": "5bf41d973da1357d68c957358f54244f", "fusion_lon": 0.0}, {"rental_uris": {"ios": "https://dc.lft.to/lastmile_qr_scan", "android": "https://dc.lft.to/lastmile_qr_scan"}, "type": "electric_scooter", "name": "d077086d86693e6f65c136772665bf8a", "is_reserved": 0, "lon": -76.98404283333333, "is_disabled": 0, "fusion_lat": 0.0, "lat": 38.92520283333333, "bike_id": "d077086d86693e6f65c136772665bf8a", "fusion_lon": 0.0}, {"rental_uris": {"ios": "https://dc.lft.to/lastmile_qr_scan", "android": "https://dc.lft.to/lastmile_qr_scan"}, "type": "electric_scooter", "name": "a1edceac61e1a3af99ad547d4f5f87c5", "is_reserved": 0, "lon": -77.0473735, "is_disabled": 0, "fusion_lat": 0.0, "lat": 38.91268866666667, "bike_id": "a1edceac61e1a3af99ad547d4f5f87c5", "fusion_lon": 0.0}, {"rental_uris": {"ios": "https://dc.lft.to/lastmile_qr_scan", "android": "https://dc.lft.to/lastmile_qr_scan"}, "type": "electric_scooter", "name": "02c9bba60e41382e68d7eb23af7b997e", "is_reserved": 0, "lon": -77.03471983333333, "is_disabled": 0, "fusion_lat": 0.0, "lat": 38.9302405, "bike_id": "02c9bba60e41382e68d7eb23af7b997e", "fusion_lon": 0.0}, {"rental_uris": {"ios": "https://dc.lft.to/lastmile_qr_scan", "android": "https://dc.lft.to/lastmile_qr_scan"}, "type": "electric_scooter", "name": "3b7fd4c81bb75e0eb9e0ea671d5728b6", "is_reserved": 0, "lon": -77.01939616666667, "is_disabled": 0, "fusion_lat": 0.0, "lat": 38.876459, "bike_id": "3b7fd4c81bb75e0eb9e0ea671d5728b6", "fusion_lon": 0.0}, {"rental_uris": {"ios": "https://dc.lft.to/lastmile_qr_scan", "android": "https://dc.lft.to/lastmile_qr_scan"}, "type": "electric_bike", "name": "3df07e77a2ab9be1ae8b53fdbbddc69d", "is_reserved": 0, "lon": -76.8896905, "is_disabled": 0, "fusion_lat": 0.0, "lat": 39.00771, "bike_id": "3df07e77a2ab9be1ae8b53fdbbddc69d", "fusion_lon": 0.0}, {"rental_uris": {"ios": "https://dc.lft.to/lastmile_qr_scan", "android": "https://dc.lft.to/lastmile_qr_scan"}, "type": "electric_bike", "name": "ad3a1aee2f7fb71e4504d4456a0e73f6", "is_reserved": 0, "lon": -76.98351766666667, "is_disabled": 0, "fusion_lat": 0.0, "lat": 38.862652833333335, "bike_id": "ad3a1aee2f7fb71e4504d4456a0e73f6", "fusion_lon": 0.0}, {"rental_uris": {"ios": "https://dc.lft.to/lastmile_qr_scan", "android": "https://dc.lft.to/lastmile_qr_scan"}, "type": "electric_scooter", "name": "9d72ff4e8e9644d58ac1cc83ab1380ff", "is_reserved": 0, "lon": -76.9860355, "is_disabled": 0, "fusion_lat": 0.0, "lat": 38.878294833333335, "bike_id": "9d72ff4e8e9644d58ac1cc83ab1380ff", "fusion_lon": 0.0}, {"rental_uris": {"ios": "https://dc.lft.to/lastmile_qr_scan", "android": "https://dc.lft.to/lastmile_qr_scan"}, "type": "electric_scooter", "name": "1b4ed6757d65c60ec1377bcd1f0bd262", "is_reserved": 0, "lon": -77.0346495, "is_disabled": 0, "fusion_lat": 0.0, "lat": 38.9073305, "bike_id": "1b4ed6757d65c60ec1377bcd1f0bd262", "fusion_lon": 0.0}, {"rental_uris": {"ios": "https://dc.lft.to/lastmile_qr_scan", "android": "https://dc.lft.to/lastmile_qr_scan"}, "type": "electric_scooter", "name": "562087032ce53d6201d883d81d6aa639", "is_reserved": 0, "lon": -77.0087555, "is_disabled": 0, "fusion_lat": 0.0, "lat": 38.912594666666664, "bike_id": "562087032ce53d6201d883d81d6aa639", "fusion_lon": 0.0}, {"rental_uris": {"ios": "https://dc.lft.to/lastmile_qr_scan", "android": "https://dc.lft.to/lastmile_qr_scan"}, "type": "electric_scooter", "name": "cf699049f15a7c85a07df04aa66de858", "is_reserved": 0, "lon": -77.02459616666667, "is_disabled": 0, "fusion_lat": 0.0, "lat": 38.9250515, "bike_id": "cf699049f15a7c85a07df04aa66de858", "fusion_lon": 0.0}, {"rental_uris": {"ios": "https://dc.lft.to/lastmile_qr_scan", "android": "https://dc.lft.to/lastmile_qr_scan"}, "type": "electric_scooter", "name": "8d5ec73af7c6524b3e94cf128378d6c0", "is_reserved": 0, "lon": -76.99412083333333, "is_disabled": 0, "fusion_lat": 0.0, "lat": 38.87783966666667, "bike_id": "8d5ec73af7c6524b3e94cf128378d6c0", "fusion_lon": 0.0}, {"rental_uris": {"ios": "https://dc.lft.to/lastmile_qr_scan", "android": "https://dc.lft.to/lastmile_qr_scan"}, "type": "electric_scooter", "name": "2f184c3c889c3b3f813bbb496807af28", "is_reserved": 0, "lon": -77.02053533333333, "is_disabled": 0, "fusion_lat": 0.0, "lat": 38.922462833333334, "bike_id": "2f184c3c889c3b3f813bbb496807af28", "fusion_lon": 0.0}, {"rental_uris": {"ios": "https://dc.lft.to/lastmile_qr_scan", "android": "https://dc.lft.to/lastmile_qr_scan"}, "type": "electric_scooter", "name": "13cdee9e8195855533e1da72bf43c2d7", "is_reserved": 0, "lon": -77.0395505, "is_disabled": 0, "fusion_lat": 0.0, "lat": 38.892538, "bike_id": "13cdee9e8195855533e1da72bf43c2d7", "fusion_lon": 0.0}, {"rental_uris": {"ios": "https://dc.lft.to/lastmile_qr_scan", "android": "https://dc.lft.to/lastmile_qr_scan"}, "type": "electric_scooter", "name": "0dbc83e95e3f98f1f6b2dbbf59fe5766", "is_reserved": 0, "lon": -77.009372, "is_disabled": 0, "fusion_lat": 0.0, "lat": 38.876746833333335, "bike_id": "0dbc83e95e3f98f1f6b2dbbf59fe5766", "fusion_lon": 0.0}, {"rental_uris": {"ios": "https://dc.lft.to/lastmile_qr_scan", "android": "https://dc.lft.to/lastmile_qr_scan"}, "type": "electric_scooter", "name": "0fea9f1a0b0b92838d7bc00155e0f8a4", "is_reserved": 0, "lon": -77.03133216666667, "is_disabled": 0, "fusion_lat": 0.0, "lat": 38.918220166666664, "bike_id": "0fea9f1a0b0b92838d7bc00155e0f8a4", "fusion_lon": 0.0}, {"rental_uris": {"ios": "https://dc.lft.to/lastmile_qr_scan", "android": "https://dc.lft.to/lastmile_qr_scan"}, "type": "electric_scooter", "name": "a7b98f7300674f1b3dd319a14c5c1962", "is_reserved": 0, "lon": -77.00546866666667, "is_disabled": 0, "fusion_lat": 0.0, "lat": 38.90686683333333, "bike_id": "a7b98f7300674f1b3dd319a14c5c1962", "fusion_lon": 0.0}, {"rental_uris": {"ios": "https://dc.lft.to/lastmile_qr_scan", "android": "https://dc.lft.to/lastmile_qr_scan"}, "type": "electric_scooter", "name": "d7dc4ad5ea8eb4436609fa039a534342", "is_reserved": 0, "lon": -77.02652216666667, "is_disabled": 0, "fusion_lat": 0.0, "lat": 38.88118166666667, "bike_id": "d7dc4ad5ea8eb4436609fa039a534342", "fusion_lon": 0.0}, {"rental_uris": {"ios": "https://dc.lft.to/lastmile_qr_scan", "android": "https://dc.lft.to/lastmile_qr_scan"}, "type": "electric_scooter", "name": "6bb7c5331f946699b492b7b6c6abc6c5", "is_reserved": 0, "lon": -77.01769266666666, "is_disabled": 0, "fusion_lat": 0.0, "lat": 38.88724333333333, "bike_id": "6bb7c5331f946699b492b7b6c6abc6c5", "fusion_lon": 0.0}, {"rental_uris": {"ios": "https://dc.lft.to/lastmile_qr_scan", "android": "https://dc.lft.to/lastmile_qr_scan"}, "type": "electric_scooter", "name": "cfb7941b84e22c5570d2882517762692", "is_reserved": 0, "lon": -77.007926, "is_disabled": 0, "fusion_lat": 0.0, "lat": 38.89717616666667, "bike_id": "cfb7941b84e22c5570d2882517762692", "fusion_lon": 0.0}, {"rental_uris": {"ios": "https://dc.lft.to/lastmile_qr_scan", "android": "https://dc.lft.to/lastmile_qr_scan"}, "type": "electric_scooter", "name": "a33a4372cccbac22c17fa359e0339dba", "is_reserved": 0, "lon": -76.933922, "is_disabled": 0, "fusion_lat": 0.0, "lat": 38.899064333333335, "bike_id": "a33a4372cccbac22c17fa359e0339dba", "fusion_lon": 0.0}, {"rental_uris": {"ios": "https://dc.lft.to/lastmile_qr_scan", "android": "https://dc.lft.to/lastmile_qr_scan"}, "type": "electric_scooter", "name": "9332bf6e5f2f4601c39354b40d08e302", "is_reserved": 0, "lon": -77.02176066666667, "is_disabled": 0, "fusion_lat": 0.0, "lat": 38.91981633333333, "bike_id": "9332bf6e5f2f4601c39354b40d08e302", "fusion_lon": 0.0}, {"rental_uris": {"ios": "https://dc.lft.to/lastmile_qr_scan", "android": "https://dc.lft.to/lastmile_qr_scan"}, "type": "electric_scooter", "name": "d76a6f0d81b5b3ed0a40d339bcc39142", "is_reserved": 0, "lon": -77.01234066666666, "is_disabled": 0, "fusion_lat": 0.0, "lat": 38.9008265, "bike_id": "d76a6f0d81b5b3ed0a40d339bcc39142", "fusion_lon": 0.0}, {"rental_uris": {"ios": "https://dc.lft.to/lastmile_qr_scan", "android": "https://dc.lft.to/lastmile_qr_scan"}, "type": "electric_scooter", "name": "ab4c9b5b32be251b9faae5294be1756e", "is_reserved": 0, "lon": -76.98320816666667, "is_disabled": 0, "fusion_lat": 0.0, "lat": 38.87834566666667, "bike_id": "ab4c9b5b32be251b9faae5294be1756e", "fusion_lon": 0.0}, {"rental_uris": {"ios": "https://dc.lft.to/lastmile_qr_scan", "android": "https://dc.lft.to/lastmile_qr_scan"}, "type": "electric_scooter", "name": "311e1d99e693a43c9e001a5ba4ac4370", "is_reserved": 0, "lon": -77.05822083333334, "is_disabled": 0, "fusion_lat": 0.0, "lat": 38.905136, "bike_id": "311e1d99e693a43c9e001a5ba4ac4370", "fusion_lon": 0.0}, {"rental_uris": {"ios": "https://dc.lft.to/lastmile_qr_scan", "android": "https://dc.lft.to/lastmile_qr_scan"}, "type": "electric_scooter", "name": "fcbd4baa7bf342afebc69ab41bcd3068", "is_reserved": 0, "lon": -77.04656916666667, "is_disabled": 0, "fusion_lat": 0.0, "lat": 38.92122833333333, "bike_id": "fcbd4baa7bf342afebc69ab41bcd3068", "fusion_lon": 0.0}, {"rental_uris": {"ios": "https://dc.lft.to/lastmile_qr_scan", "android": "https://dc.lft.to/lastmile_qr_scan"}, "type": "electric_scooter", "name": "3028d59030149cff2300bd55e551de4a", "is_reserved": 0, "lon": -76.9870235, "is_disabled": 0, "fusion_lat": 0.0, "lat": 38.859626666666664, "bike_id": "3028d59030149cff2300bd55e551de4a", "fusion_lon": 0.0}, {"rental_uris": {"ios": "https://dc.lft.to/lastmile_qr_scan", "android": "https://dc.lft.to/lastmile_qr_scan"}, "type": "electric_scooter", "name": "934067fcbf51e97e9b6c7bf6c1dba941", "is_reserved": 0, "lon": -77.01472166666667, "is_disabled": 0, "fusion_lat": 0.0, "lat": 38.943317666666665, "bike_id": "934067fcbf51e97e9b6c7bf6c1dba941", "fusion_lon": 0.0}, {"rental_uris": {"ios": "https://dc.lft.to/lastmile_qr_scan", "android": "https://dc.lft.to/lastmile_qr_scan"}, "type": "electric_scooter", "name": "0121ec57c14f10200c82b113d8afeb6d", "is_reserved": 0, "lon": -77.04142316666666, "is_disabled": 0, "fusion_lat": 0.0, "lat": 38.930418833333334, "bike_id": "0121ec57c14f10200c82b113d8afeb6d", "fusion_lon": 0.0}, {"rental_uris": {"ios": "https://dc.lft.to/lastmile_qr_scan", "android": "https://dc.lft.to/lastmile_qr_scan"}, "type": "electric_scooter", "name": "e3b61966b0b3638ebe3bd40da8382337", "is_reserved": 0, "lon": -76.97358733333333, "is_disabled": 0, "fusion_lat": 0.0, "lat": 38.850020666666666, "bike_id": "e3b61966b0b3638ebe3bd40da8382337", "fusion_lon": 0.0}, {"rental_uris": {"ios": "https://dc.lft.to/lastmile_qr_scan", "android": "https://dc.lft.to/lastmile_qr_scan"}, "type": "electric_scooter", "name": "572b71a5381c18f60c7b99af063f27f3", "is_reserved": 0, "lon": -77.00829683333333, "is_disabled": 0, "fusion_lat": 0.0, "lat": 38.87650266666667, "bike_id": "572b71a5381c18f60c7b99af063f27f3", "fusion_lon": 0.0}, {"rental_uris": {"ios": "https://dc.lft.to/lastmile_qr_scan", "android": "https://dc.lft.to/lastmile_qr_scan"}, "type": "electric_bike", "name": "cea4108e9c6b3b8baf6ed1790b983c44", "is_reserved": 0, "lon": -77.00722733333333, "is_disabled": 0, "fusion_lat": 0.0, "lat": 38.832410333333335, "bike_id": "cea4108e9c6b3b8baf6ed1790b983c44", "fusion_lon": 0.0}, {"rental_uris": {"ios": "https://dc.lft.to/lastmile_qr_scan", "android": "https://dc.lft.to/lastmile_qr_scan"}, "type": "electric_scooter", "name": "170719c4631459ad5cba534951a6498c", "is_reserved": 0, "lon": -76.9831855, "is_disabled": 0, "fusion_lat": 0.0, "lat": 38.925914, "bike_id": "170719c4631459ad5cba534951a6498c", "fusion_lon": 0.0}, {"rental_uris": {"ios": "https://dc.lft.to/lastmile_qr_scan", "android": "https://dc.lft.to/lastmile_qr_scan"}, "type": "electric_scooter", "name": "3ac3eb8fa382acd639c4a1f98e745009", "is_reserved": 0, "lon": -77.02307333333333, "is_disabled": 0, "fusion_lat": 0.0, "lat": 38.917626, "bike_id": "3ac3eb8fa382acd639c4a1f98e745009", "fusion_lon": 0.0}, {"rental_uris": {"ios": "https://dc.lft.to/lastmile_qr_scan", "android": "https://dc.lft.to/lastmile_qr_scan"}, "type": "electric_scooter", "name": "834df1f067268fcbdca13f1cee425a81", "is_reserved": 0, "lon": -77.03660233333333, "is_disabled": 0, "fusion_lat": 0.0, "lat": 38.917230333333336, "bike_id": "834df1f067268fcbdca13f1cee425a81", "fusion_lon": 0.0}, {"rental_uris": {"ios": "https://dc.lft.to/lastmile_qr_scan", "android": "https://dc.lft.to/lastmile_qr_scan"}, "type": "electric_scooter", "name": "9147b0fbfa4f474c52dc6951061372c5", "is_reserved": 0, "lon": -77.02617116666667, "is_disabled": 0, "fusion_lat": 0.0, "lat": 38.951830333333334, "bike_id": "9147b0fbfa4f474c52dc6951061372c5", "fusion_lon": 0.0}, {"rental_uris": {"ios": "https://dc.lft.to/lastmile_qr_scan", "android": "https://dc.lft.to/lastmile_qr_scan"}, "type": "electric_scooter", "name": "63f3570f9bf859edb9f5ac22b3ca6e33", "is_reserved": 0, "lon": -77.02570716666666, "is_disabled": 0, "fusion_lat": 0.0, "lat": 38.887455833333334, "bike_id": "63f3570f9bf859edb9f5ac22b3ca6e33", "fusion_lon": 0.0}, {"rental_uris": {"ios": "https://dc.lft.to/lastmile_qr_scan", "android": "https://dc.lft.to/lastmile_qr_scan"}, "type": "electric_scooter", "name": "1837ee8f6190bd9e7187d01c365ec96c", "is_reserved": 0, "lon": -77.02501766666667, "is_disabled": 0, "fusion_lat": 0.0, "lat": 38.942120333333335, "bike_id": "1837ee8f6190bd9e7187d01c365ec96c", "fusion_lon": 0.0}, {"rental_uris": {"ios": "https://dc.lft.to/lastmile_qr_scan", "android": "https://dc.lft.to/lastmile_qr_scan"}, "type": "electric_scooter", "name": "f5b887a6ccac6b5aa5c8201dec6512bf", "is_reserved": 0, "lon": -77.004039, "is_disabled": 0, "fusion_lat": 0.0, "lat": 38.905539166666664, "bike_id": "f5b887a6ccac6b5aa5c8201dec6512bf", "fusion_lon": 0.0}, {"rental_uris": {"ios": "https://dc.lft.to/lastmile_qr_scan", "android": "https://dc.lft.to/lastmile_qr_scan"}, "type": "electric_scooter", "name": "25f8a2b1a792d730003968952d61e012", "is_reserved": 0, "lon": -77.03475166666666, "is_disabled": 0, "fusion_lat": 0.0, "lat": 38.9171215, "bike_id": "25f8a2b1a792d730003968952d61e012", "fusion_lon": 0.0}, {"rental_uris": {"ios": "https://dc.lft.to/lastmile_qr_scan", "android": "https://dc.lft.to/lastmile_qr_scan"}, "type": "electric_scooter", "name": "06adf0ccca49a48898e9b7f106fcb964", "is_reserved": 0, "lon": -76.97942266666666, "is_disabled": 0, "fusion_lat": 0.0, "lat": 38.90667283333333, "bike_id": "06adf0ccca49a48898e9b7f106fcb964", "fusion_lon": 0.0}, {"rental_uris": {"ios": "https://dc.lft.to/lastmile_qr_scan", "android": "https://dc.lft.to/lastmile_qr_scan"}, "type": "electric_scooter", "name": "d030557af2f8a69669b83946f9796e1e", "is_reserved": 0, "lon": -77.04739616666667, "is_disabled": 0, "fusion_lat": 0.0, "lat": 38.9085665, "bike_id": "d030557af2f8a69669b83946f9796e1e", "fusion_lon": 0.0}, {"rental_uris": {"ios": "https://dc.lft.to/lastmile_qr_scan", "android": "https://dc.lft.to/lastmile_qr_scan"}, "type": "electric_scooter", "name": "b7312296665694666258878a6ec95f06", "is_reserved": 0, "lon": -77.026968, "is_disabled": 0, "fusion_lat": 0.0, "lat": 38.918092333333334, "bike_id": "b7312296665694666258878a6ec95f06", "fusion_lon": 0.0}, {"rental_uris": {"ios": "https://dc.lft.to/lastmile_qr_scan", "android": "https://dc.lft.to/lastmile_qr_scan"}, "type": "electric_scooter", "name": "ac7d6c67c130e59f32fa02b34ea3e046", "is_reserved": 0, "lon": -77.03657183333333, "is_disabled": 0, "fusion_lat": 0.0, "lat": 38.92287483333333, "bike_id": "ac7d6c67c130e59f32fa02b34ea3e046", "fusion_lon": 0.0}, {"rental_uris": {"ios": "https://dc.lft.to/lastmile_qr_scan", "android": "https://dc.lft.to/lastmile_qr_scan"}, "type": "electric_scooter", "name": "805dbc6e0a9fcf5c9fa1a49f76052935", "is_reserved": 0, "lon": -77.03538583333334, "is_disabled": 0, "fusion_lat": 0.0, "lat": 38.9233725, "bike_id": "805dbc6e0a9fcf5c9fa1a49f76052935", "fusion_lon": 0.0}, {"rental_uris": {"ios": "https://dc.lft.to/lastmile_qr_scan", "android": "https://dc.lft.to/lastmile_qr_scan"}, "type": "electric_bike", "name": "22f1b491a9816fbf64a9a1182fb0f4a9", "is_reserved": 0, "lon": -77.00139533333333, "is_disabled": 0, "fusion_lat": 0.0, "lat": 38.99502433333333, "bike_id": "22f1b491a9816fbf64a9a1182fb0f4a9", "fusion_lon": 0.0}, {"rental_uris": {"ios": "https://dc.lft.to/lastmile_qr_scan", "android": "https://dc.lft.to/lastmile_qr_scan"}, "type": "electric_scooter", "name": "f53d6d4884f76ca65326e9fd897e921a", "is_reserved": 0, "lon": -77.05215183333334, "is_disabled": 0, "fusion_lat": 0.0, "lat": 38.9000855, "bike_id": "f53d6d4884f76ca65326e9fd897e921a", "fusion_lon": 0.0}, {"rental_uris": {"ios": "https://dc.lft.to/lastmile_qr_scan", "android": "https://dc.lft.to/lastmile_qr_scan"}, "type": "electric_scooter", "name": "f1605d8b5869459287225637f9a24c80", "is_reserved": 0, "lon": -77.0075205, "is_disabled": 0, "fusion_lat": 0.0, "lat": 38.925294666666666, "bike_id": "f1605d8b5869459287225637f9a24c80", "fusion_lon": 0.0}, {"rental_uris": {"ios": "https://dc.lft.to/lastmile_qr_scan", "android": "https://dc.lft.to/lastmile_qr_scan"}, "type": "electric_scooter", "name": "02856c69a61b3a793a6aca1a4e87017a", "is_reserved": 0, "lon": -77.06471666666667, "is_disabled": 0, "fusion_lat": 0.0, "lat": 38.910262333333336, "bike_id": "02856c69a61b3a793a6aca1a4e87017a", "fusion_lon": 0.0}, {"rental_uris": {"ios": "https://dc.lft.to/lastmile_qr_scan", "android": "https://dc.lft.to/lastmile_qr_scan"}, "type": "electric_scooter", "name": "2812c6fb5a38d73b42b82b0876b34ea1", "is_reserved": 0, "lon": -77.0089955, "is_disabled": 0, "fusion_lat": 0.0, "lat": 38.8988145, "bike_id": "2812c6fb5a38d73b42b82b0876b34ea1", "fusion_lon": 0.0}, {"rental_uris": {"ios": "https://dc.lft.to/lastmile_qr_scan", "android": "https://dc.lft.to/lastmile_qr_scan"}, "type": "electric_bike", "name": "ca574e9b80f2126ee4e803aa87421a54", "is_reserved": 0, "lon": -77.02202383333334, "is_disabled": 0, "fusion_lat": 0.0, "lat": 38.95147583333333, "bike_id": "ca574e9b80f2126ee4e803aa87421a54", "fusion_lon": 0.0}, {"rental_uris": {"ios": "https://dc.lft.to/lastmile_qr_scan", "android": "https://dc.lft.to/lastmile_qr_scan"}, "type": "electric_scooter", "name": "6e7c80adf50ef6782f69affac16e128e", "is_reserved": 0, "lon": -77.01768733333333, "is_disabled": 0, "fusion_lat": 0.0, "lat": 38.92097533333333, "bike_id": "6e7c80adf50ef6782f69affac16e128e", "fusion_lon": 0.0}, {"rental_uris": {"ios": "https://dc.lft.to/lastmile_qr_scan", "android": "https://dc.lft.to/lastmile_qr_scan"}, "type": "electric_scooter", "name": "7117866875b909fbfc5a9134ae97eac1", "is_reserved": 0, "lon": -77.017685, "is_disabled": 0, "fusion_lat": 0.0, "lat": 38.87709683333333, "bike_id": "7117866875b909fbfc5a9134ae97eac1", "fusion_lon": 0.0}, {"rental_uris": {"ios": "https://dc.lft.to/lastmile_qr_scan", "android": "https://dc.lft.to/lastmile_qr_scan"}, "type": "electric_scooter", "name": "557db00f9bef51698d8cb60be0280c5c", "is_reserved": 0, "lon": -77.00928816666666, "is_disabled": 0, "fusion_lat": 0.0, "lat": 38.91254983333333, "bike_id": "557db00f9bef51698d8cb60be0280c5c", "fusion_lon": 0.0}, {"rental_uris": {"ios": "https://dc.lft.to/lastmile_qr_scan", "android": "https://dc.lft.to/lastmile_qr_scan"}, "type": "electric_scooter", "name": "8e4889325d91a08b0eb21ae428299b27", "is_reserved": 0, "lon": -77.0386015, "is_disabled": 0, "fusion_lat": 0.0, "lat": 38.91713383333333, "bike_id": "8e4889325d91a08b0eb21ae428299b27", "fusion_lon": 0.0}, {"rental_uris": {"ios": "https://dc.lft.to/lastmile_qr_scan", "android": "https://dc.lft.to/lastmile_qr_scan"}, "type": "electric_scooter", "name": "26ca5efa9dbc23b20b2e777acfc2feee", "is_reserved": 0, "lon": -77.004185, "is_disabled": 0, "fusion_lat": 0.0, "lat": 38.874719, "bike_id": "26ca5efa9dbc23b20b2e777acfc2feee", "fusion_lon": 0.0}, {"rental_uris": {"ios": "https://dc.lft.to/lastmile_qr_scan", "android": "https://dc.lft.to/lastmile_qr_scan"}, "type": "electric_scooter", "name": "05bd86de403fce1d633e91a89be9fc77", "is_reserved": 0, "lon": -77.0454225, "is_disabled": 0, "fusion_lat": 0.0, "lat": 38.9328685, "bike_id": "05bd86de403fce1d633e91a89be9fc77", "fusion_lon": 0.0}, {"rental_uris": {"ios": "https://dc.lft.to/lastmile_qr_scan", "android": "https://dc.lft.to/lastmile_qr_scan"}, "type": "electric_scooter", "name": "937ef333dae13309812950ed3d76ac0a", "is_reserved": 0, "lon": -77.03812183333334, "is_disabled": 0, "fusion_lat": 0.0, "lat": 38.91555566666667, "bike_id": "937ef333dae13309812950ed3d76ac0a", "fusion_lon": 0.0}, {"rental_uris": {"ios": "https://dc.lft.to/lastmile_qr_scan", "android": "https://dc.lft.to/lastmile_qr_scan"}, "type": "electric_scooter", "name": "405cdf9afeffb014b803f746bea3557a", "is_reserved": 0, "lon": -76.98508766666667, "is_disabled": 0, "fusion_lat": 0.0, "lat": 38.906893, "bike_id": "405cdf9afeffb014b803f746bea3557a", "fusion_lon": 0.0}, {"rental_uris": {"ios": "https://dc.lft.to/lastmile_qr_scan", "android": "https://dc.lft.to/lastmile_qr_scan"}, "type": "electric_scooter", "name": "ab7d0d3460232abc574e5faec65673c2", "is_reserved": 0, "lon": -77.0056925, "is_disabled": 0, "fusion_lat": 0.0, "lat": 38.87456783333333, "bike_id": "ab7d0d3460232abc574e5faec65673c2", "fusion_lon": 0.0}, {"rental_uris": {"ios": "https://dc.lft.to/lastmile_qr_scan", "android": "https://dc.lft.to/lastmile_qr_scan"}, "type": "electric_scooter", "name": "9d28792203517da56b138176095f0f3d", "is_reserved": 0, "lon": -77.03539516666666, "is_disabled": 0, "fusion_lat": 0.0, "lat": 38.92339166666667, "bike_id": "9d28792203517da56b138176095f0f3d", "fusion_lon": 0.0}, {"rental_uris": {"ios": "https://dc.lft.to/lastmile_qr_scan", "android": "https://dc.lft.to/lastmile_qr_scan"}, "type": "electric_scooter", "name": "cd4227e875292ace9cb7d61dcb727b7f", "is_reserved": 0, "lon": -77.01902883333334, "is_disabled": 0, "fusion_lat": 0.0, "lat": 38.923361166666666, "bike_id": "cd4227e875292ace9cb7d61dcb727b7f", "fusion_lon": 0.0}, {"rental_uris": {"ios": "https://dc.lft.to/lastmile_qr_scan", "android": "https://dc.lft.to/lastmile_qr_scan"}, "type": "electric_scooter", "name": "7bcd8b6c28a23e86e6780d3d70d52e9d", "is_reserved": 0, "lon": -76.956961, "is_disabled": 0, "fusion_lat": 0.0, "lat": 38.892067, "bike_id": "7bcd8b6c28a23e86e6780d3d70d52e9d", "fusion_lon": 0.0}, {"rental_uris": {"ios": "https://dc.lft.to/lastmile_qr_scan", "android": "https://dc.lft.to/lastmile_qr_scan"}, "type": "electric_scooter", "name": "10190054f89e3849be306b20a5516fa9", "is_reserved": 0, "lon": -76.99035683333334, "is_disabled": 0, "fusion_lat": 0.0, "lat": 38.88869966666667, "bike_id": "10190054f89e3849be306b20a5516fa9", "fusion_lon": 0.0}, {"rental_uris": {"ios": "https://dc.lft.to/lastmile_qr_scan", "android": "https://dc.lft.to/lastmile_qr_scan"}, "type": "electric_scooter", "name": "f50d21722b33520524c5576e7bacf7fe", "is_reserved": 0, "lon": -77.01161333333333, "is_disabled": 0, "fusion_lat": 0.0, "lat": 38.91454816666667, "bike_id": "f50d21722b33520524c5576e7bacf7fe", "fusion_lon": 0.0}, {"rental_uris": {"ios": "https://dc.lft.to/lastmile_qr_scan", "android": "https://dc.lft.to/lastmile_qr_scan"}, "type": "electric_bike", "name": "6af0d629da69301962a23c49d3ce1d73", "is_reserved": 0, "lon": -76.97533533333333, "is_disabled": 0, "fusion_lat": 0.0, "lat": 38.903284166666666, "bike_id": "6af0d629da69301962a23c49d3ce1d73", "fusion_lon": 0.0}, {"rental_uris": {"ios": "https://dc.lft.to/lastmile_qr_scan", "android": "https://dc.lft.to/lastmile_qr_scan"}, "type": "electric_scooter", "name": "bd7287bc9127c710c3161c5f0b62bda5", "is_reserved": 0, "lon": -77.04354233333333, "is_disabled": 0, "fusion_lat": 0.0, "lat": 38.90122366666667, "bike_id": "bd7287bc9127c710c3161c5f0b62bda5", "fusion_lon": 0.0}, {"rental_uris": {"ios": "https://dc.lft.to/lastmile_qr_scan", "android": "https://dc.lft.to/lastmile_qr_scan"}, "type": "electric_scooter", "name": "4f8286448e8f26bfd9c0f1436db9468a", "is_reserved": 0, "lon": -77.06127483333333, "is_disabled": 0, "fusion_lat": 0.0, "lat": 38.9050455, "bike_id": "4f8286448e8f26bfd9c0f1436db9468a", "fusion_lon": 0.0}, {"rental_uris": {"ios": "https://dc.lft.to/lastmile_qr_scan", "android": "https://dc.lft.to/lastmile_qr_scan"}, "type": "electric_scooter", "name": "3e4a9daaf6c8eb7ffbe3913efc75c4e4", "is_reserved": 0, "lon": -77.0294965, "is_disabled": 0, "fusion_lat": 0.0, "lat": 38.9050505, "bike_id": "3e4a9daaf6c8eb7ffbe3913efc75c4e4", "fusion_lon": 0.0}, {"rental_uris": {"ios": "https://dc.lft.to/lastmile_qr_scan", "android": "https://dc.lft.to/lastmile_qr_scan"}, "type": "electric_scooter", "name": "132352d3432e153bc31d78bb6ec889a0", "is_reserved": 0, "lon": -77.0381255, "is_disabled": 0, "fusion_lat": 0.0, "lat": 38.911908, "bike_id": "132352d3432e153bc31d78bb6ec889a0", "fusion_lon": 0.0}, {"rental_uris": {"ios": "https://dc.lft.to/lastmile_qr_scan", "android": "https://dc.lft.to/lastmile_qr_scan"}, "type": "electric_scooter", "name": "32efc9f2378c6b5785503cdf06970939", "is_reserved": 0, "lon": -77.024751, "is_disabled": 0, "fusion_lat": 0.0, "lat": 38.918138166666665, "bike_id": "32efc9f2378c6b5785503cdf06970939", "fusion_lon": 0.0}, {"rental_uris": {"ios": "https://dc.lft.to/lastmile_qr_scan", "android": "https://dc.lft.to/lastmile_qr_scan"}, "type": "electric_scooter", "name": "0e57f9e5eedd87cc5e0d2602044d7172", "is_reserved": 0, "lon": -77.02095616666666, "is_disabled": 0, "fusion_lat": 0.0, "lat": 38.930052, "bike_id": "0e57f9e5eedd87cc5e0d2602044d7172", "fusion_lon": 0.0}, {"rental_uris": {"ios": "https://dc.lft.to/lastmile_qr_scan", "android": "https://dc.lft.to/lastmile_qr_scan"}, "type": "electric_scooter", "name": "4c8bd7ce4ce71c932eb5fc16b3a9da5e", "is_reserved": 0, "lon": -77.04191833333333, "is_disabled": 0, "fusion_lat": 0.0, "lat": 38.9206, "bike_id": "4c8bd7ce4ce71c932eb5fc16b3a9da5e", "fusion_lon": 0.0}, {"rental_uris": {"ios": "https://dc.lft.to/lastmile_qr_scan", "android": "https://dc.lft.to/lastmile_qr_scan"}, "type": "electric_scooter", "name": "1ebbef51e5b1b6c7deff41c9ca68027e", "is_reserved": 0, "lon": -77.04799016666666, "is_disabled": 0, "fusion_lat": 0.0, "lat": 38.91109466666666, "bike_id": "1ebbef51e5b1b6c7deff41c9ca68027e", "fusion_lon": 0.0}, {"rental_uris": {"ios": "https://dc.lft.to/lastmile_qr_scan", "android": "https://dc.lft.to/lastmile_qr_scan"}, "type": "electric_scooter", "name": "ce3c551bc095bf0274638470bb37cd5d", "is_reserved": 0, "lon": -77.02136183333333, "is_disabled": 0, "fusion_lat": 0.0, "lat": 38.905575666666664, "bike_id": "ce3c551bc095bf0274638470bb37cd5d", "fusion_lon": 0.0}, {"rental_uris": {"ios": "https://dc.lft.to/lastmile_qr_scan", "android": "https://dc.lft.to/lastmile_qr_scan"}, "type": "electric_bike", "name": "6ebbc085bbd94da2a6e4b48b6efd44fb", "is_reserved": 0, "lon": -76.933327, "is_disabled": 0, "fusion_lat": 0.0, "lat": 38.951569166666665, "bike_id": "6ebbc085bbd94da2a6e4b48b6efd44fb", "fusion_lon": 0.0}, {"rental_uris": {"ios": "https://dc.lft.to/lastmile_qr_scan", "android": "https://dc.lft.to/lastmile_qr_scan"}, "type": "electric_scooter", "name": "8b5c0107119840c339d277a95bb6ff91", "is_reserved": 0, "lon": -77.03221433333333, "is_disabled": 0, "fusion_lat": 0.0, "lat": 38.909631, "bike_id": "8b5c0107119840c339d277a95bb6ff91", "fusion_lon": 0.0}, {"rental_uris": {"ios": "https://dc.lft.to/lastmile_qr_scan", "android": "https://dc.lft.to/lastmile_qr_scan"}, "type": "electric_scooter", "name": "f7ad3f1bce2a00300c77b25605202f88", "is_reserved": 0, "lon": -77.0045055, "is_disabled": 0, "fusion_lat": 0.0, "lat": 38.83789433333333, "bike_id": "f7ad3f1bce2a00300c77b25605202f88", "fusion_lon": 0.0}, {"rental_uris": {"ios": "https://dc.lft.to/lastmile_qr_scan", "android": "https://dc.lft.to/lastmile_qr_scan"}, "type": "electric_scooter", "name": "3938f0f4ff984ff11a9880901c5148a6", "is_reserved": 0, "lon": -77.02975083333334, "is_disabled": 0, "fusion_lat": 0.0, "lat": 38.92311816666667, "bike_id": "3938f0f4ff984ff11a9880901c5148a6", "fusion_lon": 0.0}, {"rental_uris": {"ios": "https://dc.lft.to/lastmile_qr_scan", "android": "https://dc.lft.to/lastmile_qr_scan"}, "type": "electric_scooter", "name": "010126ad8132b952f757722fad309cb5", "is_reserved": 0, "lon": -76.99623183333334, "is_disabled": 0, "fusion_lat": 0.0, "lat": 38.877373166666665, "bike_id": "010126ad8132b952f757722fad309cb5", "fusion_lon": 0.0}, {"rental_uris": {"ios": "https://dc.lft.to/lastmile_qr_scan", "android": "https://dc.lft.to/lastmile_qr_scan"}, "type": "electric_scooter", "name": "0555b0d42ea3ddac1195bce064a0345e", "is_reserved": 0, "lon": -77.040186, "is_disabled": 0, "fusion_lat": 0.0, "lat": 38.922532333333336, "bike_id": "0555b0d42ea3ddac1195bce064a0345e", "fusion_lon": 0.0}, {"rental_uris": {"ios": "https://dc.lft.to/lastmile_qr_scan", "android": "https://dc.lft.to/lastmile_qr_scan"}, "type": "electric_scooter", "name": "b631a6fd669169f6976783c8d95450ae", "is_reserved": 0, "lon": -76.96562133333333, "is_disabled": 0, "fusion_lat": 0.0, "lat": 38.87608216666667, "bike_id": "b631a6fd669169f6976783c8d95450ae", "fusion_lon": 0.0}, {"rental_uris": {"ios": "https://dc.lft.to/lastmile_qr_scan", "android": "https://dc.lft.to/lastmile_qr_scan"}, "type": "electric_scooter", "name": "7776ed1329377b267f37ff8daa1ee46e", "is_reserved": 0, "lon": -77.03662283333334, "is_disabled": 0, "fusion_lat": 0.0, "lat": 38.92288633333333, "bike_id": "7776ed1329377b267f37ff8daa1ee46e", "fusion_lon": 0.0}, {"rental_uris": {"ios": "https://dc.lft.to/lastmile_qr_scan", "android": "https://dc.lft.to/lastmile_qr_scan"}, "type": "electric_scooter", "name": "d4fa6c4b3ea55cdf6f42b03395a8cf89", "is_reserved": 0, "lon": -76.94383433333333, "is_disabled": 0, "fusion_lat": 0.0, "lat": 38.89116666666666, "bike_id": "d4fa6c4b3ea55cdf6f42b03395a8cf89", "fusion_lon": 0.0}, {"rental_uris": {"ios": "https://dc.lft.to/lastmile_qr_scan", "android": "https://dc.lft.to/lastmile_qr_scan"}, "type": "electric_bike", "name": "68a8b8b4ff3ea7612145477193e8ed1d", "is_reserved": 0, "lon": -77.070129, "is_disabled": 0, "fusion_lat": 0.0, "lat": 38.841151833333335, "bike_id": "68a8b8b4ff3ea7612145477193e8ed1d", "fusion_lon": 0.0}, {"rental_uris": {"ios": "https://dc.lft.to/lastmile_qr_scan", "android": "https://dc.lft.to/lastmile_qr_scan"}, "type": "electric_scooter", "name": "cfbdc75be58eedbf64c6fe9c326f22d1", "is_reserved": 0, "lon": -77.03813333333333, "is_disabled": 0, "fusion_lat": 0.0, "lat": 38.915524166666664, "bike_id": "cfbdc75be58eedbf64c6fe9c326f22d1", "fusion_lon": 0.0}, {"rental_uris": {"ios": "https://dc.lft.to/lastmile_qr_scan", "android": "https://dc.lft.to/lastmile_qr_scan"}, "type": "electric_scooter", "name": "6b58b58fd47a87e37e339a039b9b1660", "is_reserved": 0, "lon": -77.07103816666667, "is_disabled": 0, "fusion_lat": 0.0, "lat": 38.897199666666666, "bike_id": "6b58b58fd47a87e37e339a039b9b1660", "fusion_lon": 0.0}, {"rental_uris": {"ios": "https://dc.lft.to/lastmile_qr_scan", "android": "https://dc.lft.to/lastmile_qr_scan"}, "type": "electric_scooter", "name": "e59e54036cc3b0848bb41186bbfcd822", "is_reserved": 0, "lon": -77.0440405, "is_disabled": 0, "fusion_lat": 0.0, "lat": 38.9295295, "bike_id": "e59e54036cc3b0848bb41186bbfcd822", "fusion_lon": 0.0}, {"rental_uris": {"ios": "https://dc.lft.to/lastmile_qr_scan", "android": "https://dc.lft.to/lastmile_qr_scan"}, "type": "electric_scooter", "name": "b6f8fb2e44aaa3945c069ee35098a17e", "is_reserved": 0, "lon": -77.02411533333333, "is_disabled": 0, "fusion_lat": 0.0, "lat": 38.909576, "bike_id": "b6f8fb2e44aaa3945c069ee35098a17e", "fusion_lon": 0.0}, {"rental_uris": {"ios": "https://dc.lft.to/lastmile_qr_scan", "android": "https://dc.lft.to/lastmile_qr_scan"}, "type": "electric_scooter", "name": "b9c68866c619259f74b2397aa5b06eba", "is_reserved": 0, "lon": -77.01907266666667, "is_disabled": 0, "fusion_lat": 0.0, "lat": 38.89978966666666, "bike_id": "b9c68866c619259f74b2397aa5b06eba", "fusion_lon": 0.0}, {"rental_uris": {"ios": "https://dc.lft.to/lastmile_qr_scan", "android": "https://dc.lft.to/lastmile_qr_scan"}, "type": "electric_scooter", "name": "0f60690470fdf80614e3327a725f21cd", "is_reserved": 0, "lon": -76.990315, "is_disabled": 0, "fusion_lat": 0.0, "lat": 38.898481833333335, "bike_id": "0f60690470fdf80614e3327a725f21cd", "fusion_lon": 0.0}, {"rental_uris": {"ios": "https://dc.lft.to/lastmile_qr_scan", "android": "https://dc.lft.to/lastmile_qr_scan"}, "type": "electric_scooter", "name": "4b2fb7abb7f05852a730ca7472934cd6", "is_reserved": 0, "lon": -77.01770416666666, "is_disabled": 0, "fusion_lat": 0.0, "lat": 38.88729133333333, "bike_id": "4b2fb7abb7f05852a730ca7472934cd6", "fusion_lon": 0.0}, {"rental_uris": {"ios": "https://dc.lft.to/lastmile_qr_scan", "android": "https://dc.lft.to/lastmile_qr_scan"}, "type": "electric_scooter", "name": "7649d154c4ded406e396594f41dafba4", "is_reserved": 0, "lon": -77.04827383333334, "is_disabled": 0, "fusion_lat": 0.0, "lat": 38.921103, "bike_id": "7649d154c4ded406e396594f41dafba4", "fusion_lon": 0.0}, {"rental_uris": {"ios": "https://dc.lft.to/lastmile_qr_scan", "android": "https://dc.lft.to/lastmile_qr_scan"}, "type": "electric_scooter", "name": "ed577a063341711100c5bd9a93decd17", "is_reserved": 0, "lon": -77.0272675, "is_disabled": 0, "fusion_lat": 0.0, "lat": 38.92485816666667, "bike_id": "ed577a063341711100c5bd9a93decd17", "fusion_lon": 0.0}, {"rental_uris": {"ios": "https://dc.lft.to/lastmile_qr_scan", "android": "https://dc.lft.to/lastmile_qr_scan"}, "type": "electric_bike", "name": "40c814dde79020d66988f67daa74a224", "is_reserved": 0, "lon": -76.94973566666667, "is_disabled": 0, "fusion_lat": 0.0, "lat": 38.88300816666667, "bike_id": "40c814dde79020d66988f67daa74a224", "fusion_lon": 0.0}, {"rental_uris": {"ios": "https://dc.lft.to/lastmile_qr_scan", "android": "https://dc.lft.to/lastmile_qr_scan"}, "type": "electric_scooter", "name": "770c5b840771614283d45cca03999c1e", "is_reserved": 0, "lon": -77.03260933333334, "is_disabled": 0, "fusion_lat": 0.0, "lat": 38.939818833333334, "bike_id": "770c5b840771614283d45cca03999c1e", "fusion_lon": 0.0}, {"rental_uris": {"ios": "https://dc.lft.to/lastmile_qr_scan", "android": "https://dc.lft.to/lastmile_qr_scan"}, "type": "electric_scooter", "name": "964b3ef48bd7146a13570bf8f0d9a971", "is_reserved": 0, "lon": -77.04855316666666, "is_disabled": 0, "fusion_lat": 0.0, "lat": 38.904425833333335, "bike_id": "964b3ef48bd7146a13570bf8f0d9a971", "fusion_lon": 0.0}, {"rental_uris": {"ios": "https://dc.lft.to/lastmile_qr_scan", "android": "https://dc.lft.to/lastmile_qr_scan"}, "type": "electric_scooter", "name": "7b8afc315ea0c35225dc09831d2c6daf", "is_reserved": 0, "lon": -77.005023, "is_disabled": 0, "fusion_lat": 0.0, "lat": 38.94410966666667, "bike_id": "7b8afc315ea0c35225dc09831d2c6daf", "fusion_lon": 0.0}, {"rental_uris": {"ios": "https://dc.lft.to/lastmile_qr_scan", "android": "https://dc.lft.to/lastmile_qr_scan"}, "type": "electric_scooter", "name": "32eaaac05e4a2149ab2465d65c880b23", "is_reserved": 0, "lon": -77.03883433333333, "is_disabled": 0, "fusion_lat": 0.0, "lat": 38.93255166666667, "bike_id": "32eaaac05e4a2149ab2465d65c880b23", "fusion_lon": 0.0}, {"rental_uris": {"ios": "https://dc.lft.to/lastmile_qr_scan", "android": "https://dc.lft.to/lastmile_qr_scan"}, "type": "electric_scooter", "name": "67b1548f2d7fd863cba760ebf3453cc1", "is_reserved": 0, "lon": -77.02160766666667, "is_disabled": 0, "fusion_lat": 0.0, "lat": 38.919087166666664, "bike_id": "67b1548f2d7fd863cba760ebf3453cc1", "fusion_lon": 0.0}, {"rental_uris": {"ios": "https://dc.lft.to/lastmile_qr_scan", "android": "https://dc.lft.to/lastmile_qr_scan"}, "type": "electric_scooter", "name": "f615e8d22c08e02b908126f34e96b45f", "is_reserved": 0, "lon": -77.0313895, "is_disabled": 0, "fusion_lat": 0.0, "lat": 38.91265533333333, "bike_id": "f615e8d22c08e02b908126f34e96b45f", "fusion_lon": 0.0}, {"rental_uris": {"ios": "https://dc.lft.to/lastmile_qr_scan", "android": "https://dc.lft.to/lastmile_qr_scan"}, "type": "electric_bike", "name": "bea585ab65b89a207edabc6f18b6cfea", "is_reserved": 0, "lon": -76.97529466666667, "is_disabled": 0, "fusion_lat": 0.0, "lat": 38.90329933333334, "bike_id": "bea585ab65b89a207edabc6f18b6cfea", "fusion_lon": 0.0}, {"rental_uris": {"ios": "https://dc.lft.to/lastmile_qr_scan", "android": "https://dc.lft.to/lastmile_qr_scan"}, "type": "electric_scooter", "name": "c034b4f8b873117ec9ae5dea4ca33788", "is_reserved": 0, "lon": -76.99386166666666, "is_disabled": 0, "fusion_lat": 0.0, "lat": 38.9101555, "bike_id": "c034b4f8b873117ec9ae5dea4ca33788", "fusion_lon": 0.0}, {"rental_uris": {"ios": "https://dc.lft.to/lastmile_qr_scan", "android": "https://dc.lft.to/lastmile_qr_scan"}, "type": "electric_scooter", "name": "8856800c00b0ad3d5188b26334c65215", "is_reserved": 0, "lon": -77.0568725, "is_disabled": 0, "fusion_lat": 0.0, "lat": 38.93395783333333, "bike_id": "8856800c00b0ad3d5188b26334c65215", "fusion_lon": 0.0}, {"rental_uris": {"ios": "https://dc.lft.to/lastmile_qr_scan", "android": "https://dc.lft.to/lastmile_qr_scan"}, "type": "electric_scooter", "name": "7ee3d18a29d894720c54159a38ab9da3", "is_reserved": 0, "lon": -77.01816766666667, "is_disabled": 0, "fusion_lat": 0.0, "lat": 38.911081, "bike_id": "7ee3d18a29d894720c54159a38ab9da3", "fusion_lon": 0.0}, {"rental_uris": {"ios": "https://dc.lft.to/lastmile_qr_scan", "android": "https://dc.lft.to/lastmile_qr_scan"}, "type": "electric_scooter", "name": "46552a4861d829970ae33da9fa966a7f", "is_reserved": 0, "lon": -77.02627683333333, "is_disabled": 0, "fusion_lat": 0.0, "lat": 38.89221766666667, "bike_id": "46552a4861d829970ae33da9fa966a7f", "fusion_lon": 0.0}, {"rental_uris": {"ios": "https://dc.lft.to/lastmile_qr_scan", "android": "https://dc.lft.to/lastmile_qr_scan"}, "type": "electric_bike", "name": "ba3677428ab7225a4f00ae1da390bee0", "is_reserved": 0, "lon": -76.97418866666666, "is_disabled": 0, "fusion_lat": 0.0, "lat": 38.932383, "bike_id": "ba3677428ab7225a4f00ae1da390bee0", "fusion_lon": 0.0}, {"rental_uris": {"ios": "https://dc.lft.to/lastmile_qr_scan", "android": "https://dc.lft.to/lastmile_qr_scan"}, "type": "electric_scooter", "name": "a2928c2dceedf2e724c69817e392fe26", "is_reserved": 0, "lon": -76.99843983333334, "is_disabled": 0, "fusion_lat": 0.0, "lat": 38.900374666666664, "bike_id": "a2928c2dceedf2e724c69817e392fe26", "fusion_lon": 0.0}, {"rental_uris": {"ios": "https://dc.lft.to/lastmile_qr_scan", "android": "https://dc.lft.to/lastmile_qr_scan"}, "type": "electric_scooter", "name": "cb3759aebd23dfd018eb7f70149a54a3", "is_reserved": 0, "lon": -77.04182366666667, "is_disabled": 0, "fusion_lat": 0.0, "lat": 38.91402816666667, "bike_id": "cb3759aebd23dfd018eb7f70149a54a3", "fusion_lon": 0.0}, {"rental_uris": {"ios": "https://dc.lft.to/lastmile_qr_scan", "android": "https://dc.lft.to/lastmile_qr_scan"}, "type": "electric_scooter", "name": "eac064ee53173fec97b6b79aa015bdd9", "is_reserved": 0, "lon": -77.0226555, "is_disabled": 0, "fusion_lat": 0.0, "lat": 38.9273995, "bike_id": "eac064ee53173fec97b6b79aa015bdd9", "fusion_lon": 0.0}, {"rental_uris": {"ios": "https://dc.lft.to/lastmile_qr_scan", "android": "https://dc.lft.to/lastmile_qr_scan"}, "type": "electric_scooter", "name": "2200709620bc5ff39e2f0dbc9a516aa2", "is_reserved": 0, "lon": -77.05004033333333, "is_disabled": 0, "fusion_lat": 0.0, "lat": 38.905458, "bike_id": "2200709620bc5ff39e2f0dbc9a516aa2", "fusion_lon": 0.0}, {"rental_uris": {"ios": "https://dc.lft.to/lastmile_qr_scan", "android": "https://dc.lft.to/lastmile_qr_scan"}, "type": "electric_scooter", "name": "4357e2df9e958078eb71c6798e9fe2c3", "is_reserved": 0, "lon": -77.0308265, "is_disabled": 0, "fusion_lat": 0.0, "lat": 38.93878683333333, "bike_id": "4357e2df9e958078eb71c6798e9fe2c3", "fusion_lon": 0.0}, {"rental_uris": {"ios": "https://dc.lft.to/lastmile_qr_scan", "android": "https://dc.lft.to/lastmile_qr_scan"}, "type": "electric_scooter", "name": "329107d0e7884ae4b9da37d2ce51b479", "is_reserved": 0, "lon": -76.99882083333334, "is_disabled": 0, "fusion_lat": 0.0, "lat": 38.920580333333334, "bike_id": "329107d0e7884ae4b9da37d2ce51b479", "fusion_lon": 0.0}, {"rental_uris": {"ios": "https://dc.lft.to/lastmile_qr_scan", "android": "https://dc.lft.to/lastmile_qr_scan"}, "type": "electric_scooter", "name": "f85ed7e0862fe935930e96c6f6de4ebe", "is_reserved": 0, "lon": -77.07710616666667, "is_disabled": 0, "fusion_lat": 0.0, "lat": 38.94290733333333, "bike_id": "f85ed7e0862fe935930e96c6f6de4ebe", "fusion_lon": 0.0}, {"rental_uris": {"ios": "https://dc.lft.to/lastmile_qr_scan", "android": "https://dc.lft.to/lastmile_qr_scan"}, "type": "electric_scooter", "name": "702263f176ea0a662bd786c7ed23302a", "is_reserved": 0, "lon": -77.0344805, "is_disabled": 0, "fusion_lat": 0.0, "lat": 38.9343325, "bike_id": "702263f176ea0a662bd786c7ed23302a", "fusion_lon": 0.0}, {"rental_uris": {"ios": "https://dc.lft.to/lastmile_qr_scan", "android": "https://dc.lft.to/lastmile_qr_scan"}, "type": "electric_scooter", "name": "dc310981c88889f26946ae8f2b1a1c8c", "is_reserved": 0, "lon": -77.02209033333334, "is_disabled": 0, "fusion_lat": 0.0, "lat": 38.8874095, "bike_id": "dc310981c88889f26946ae8f2b1a1c8c", "fusion_lon": 0.0}, {"rental_uris": {"ios": "https://dc.lft.to/lastmile_qr_scan", "android": "https://dc.lft.to/lastmile_qr_scan"}, "type": "electric_scooter", "name": "9ab3159d1d0b53a5f9cd98dda90d5ad4", "is_reserved": 0, "lon": -77.04842716666667, "is_disabled": 0, "fusion_lat": 0.0, "lat": 38.89908783333333, "bike_id": "9ab3159d1d0b53a5f9cd98dda90d5ad4", "fusion_lon": 0.0}, {"rental_uris": {"ios": "https://dc.lft.to/lastmile_qr_scan", "android": "https://dc.lft.to/lastmile_qr_scan"}, "type": "electric_scooter", "name": "75eff9d40c7134c1071673dda072aaad", "is_reserved": 0, "lon": -77.01856433333333, "is_disabled": 0, "fusion_lat": 0.0, "lat": 38.94892333333333, "bike_id": "75eff9d40c7134c1071673dda072aaad", "fusion_lon": 0.0}, {"rental_uris": {"ios": "https://dc.lft.to/lastmile_qr_scan", "android": "https://dc.lft.to/lastmile_qr_scan"}, "type": "electric_scooter", "name": "e09cacf4b56ffb9edf1aa20f96190177", "is_reserved": 0, "lon": -77.0233295, "is_disabled": 0, "fusion_lat": 0.0, "lat": 38.92299233333333, "bike_id": "e09cacf4b56ffb9edf1aa20f96190177", "fusion_lon": 0.0}, {"rental_uris": {"ios": "https://dc.lft.to/lastmile_qr_scan", "android": "https://dc.lft.to/lastmile_qr_scan"}, "type": "electric_scooter", "name": "c01a363920cf0e0769a53ed5b0564ade", "is_reserved": 0, "lon": -77.03029883333333, "is_disabled": 0, "fusion_lat": 0.0, "lat": 38.884104, "bike_id": "c01a363920cf0e0769a53ed5b0564ade", "fusion_lon": 0.0}, {"rental_uris": {"ios": "https://dc.lft.to/lastmile_qr_scan", "android": "https://dc.lft.to/lastmile_qr_scan"}, "type": "electric_scooter", "name": "594f9fc257eeca61b5c35a6331da39f5", "is_reserved": 0, "lon": -76.9826535, "is_disabled": 0, "fusion_lat": 0.0, "lat": 38.86627766666667, "bike_id": "594f9fc257eeca61b5c35a6331da39f5", "fusion_lon": 0.0}, {"rental_uris": {"ios": "https://dc.lft.to/lastmile_qr_scan", "android": "https://dc.lft.to/lastmile_qr_scan"}, "type": "electric_scooter", "name": "d1074c864146a65892162a9347d830b5", "is_reserved": 0, "lon": -77.04218566666667, "is_disabled": 0, "fusion_lat": 0.0, "lat": 38.921436666666665, "bike_id": "d1074c864146a65892162a9347d830b5", "fusion_lon": 0.0}, {"rental_uris": {"ios": "https://dc.lft.to/lastmile_qr_scan", "android": "https://dc.lft.to/lastmile_qr_scan"}, "type": "electric_bike", "name": "eedfbf746fd89b925a770b98323b3104", "is_reserved": 0, "lon": -77.079471, "is_disabled": 0, "fusion_lat": 0.0, "lat": 38.8490135, "bike_id": "eedfbf746fd89b925a770b98323b3104", "fusion_lon": 0.0}, {"rental_uris": {"ios": "https://dc.lft.to/lastmile_qr_scan", "android": "https://dc.lft.to/lastmile_qr_scan"}, "type": "electric_scooter", "name": "e2e606739a516e0d304668a40c184f55", "is_reserved": 0, "lon": -77.03662433333334, "is_disabled": 0, "fusion_lat": 0.0, "lat": 38.9228925, "bike_id": "e2e606739a516e0d304668a40c184f55", "fusion_lon": 0.0}, {"rental_uris": {"ios": "https://dc.lft.to/lastmile_qr_scan", "android": "https://dc.lft.to/lastmile_qr_scan"}, "type": "electric_scooter", "name": "00e696f56b7b8a49937d41aeafa2e4d2", "is_reserved": 0, "lon": -77.020429, "is_disabled": 0, "fusion_lat": 0.0, "lat": 38.9224365, "bike_id": "00e696f56b7b8a49937d41aeafa2e4d2", "fusion_lon": 0.0}, {"rental_uris": {"ios": "https://dc.lft.to/lastmile_qr_scan", "android": "https://dc.lft.to/lastmile_qr_scan"}, "type": "electric_bike", "name": "6689ce5e6ae53e93678baf17d9d7db9a", "is_reserved": 0, "lon": -77.02012033333334, "is_disabled": 0, "fusion_lat": 0.0, "lat": 38.9644015, "bike_id": "6689ce5e6ae53e93678baf17d9d7db9a", "fusion_lon": 0.0}, {"rental_uris": {"ios": "https://dc.lft.to/lastmile_qr_scan", "android": "https://dc.lft.to/lastmile_qr_scan"}, "type": "electric_scooter", "name": "d58bf4f40b06bf999d44cddb603678e3", "is_reserved": 0, "lon": -77.03446716666667, "is_disabled": 0, "fusion_lat": 0.0, "lat": 38.9097135, "bike_id": "d58bf4f40b06bf999d44cddb603678e3", "fusion_lon": 0.0}, {"rental_uris": {"ios": "https://dc.lft.to/lastmile_qr_scan", "android": "https://dc.lft.to/lastmile_qr_scan"}, "type": "electric_scooter", "name": "f7df878a7563f9a891ac8b4fea89b749", "is_reserved": 0, "lon": -77.01973933333333, "is_disabled": 0, "fusion_lat": 0.0, "lat": 38.89941916666667, "bike_id": "f7df878a7563f9a891ac8b4fea89b749", "fusion_lon": 0.0}, {"rental_uris": {"ios": "https://dc.lft.to/lastmile_qr_scan", "android": "https://dc.lft.to/lastmile_qr_scan"}, "type": "electric_scooter", "name": "6c0d08b800744ec3a88dd66b30237f69", "is_reserved": 0, "lon": -77.00098416666667, "is_disabled": 0, "fusion_lat": 0.0, "lat": 38.881237666666664, "bike_id": "6c0d08b800744ec3a88dd66b30237f69", "fusion_lon": 0.0}, {"rental_uris": {"ios": "https://dc.lft.to/lastmile_qr_scan", "android": "https://dc.lft.to/lastmile_qr_scan"}, "type": "electric_scooter", "name": "852db0a9707342c23680ec4e870d23c9", "is_reserved": 0, "lon": -77.03981483333334, "is_disabled": 0, "fusion_lat": 0.0, "lat": 38.90153, "bike_id": "852db0a9707342c23680ec4e870d23c9", "fusion_lon": 0.0}, {"rental_uris": {"ios": "https://dc.lft.to/lastmile_qr_scan", "android": "https://dc.lft.to/lastmile_qr_scan"}, "type": "electric_scooter", "name": "bf3c03f799100787149d1660167efe47", "is_reserved": 0, "lon": -77.02696, "is_disabled": 0, "fusion_lat": 0.0, "lat": 38.924010333333335, "bike_id": "bf3c03f799100787149d1660167efe47", "fusion_lon": 0.0}, {"rental_uris": {"ios": "https://dc.lft.to/lastmile_qr_scan", "android": "https://dc.lft.to/lastmile_qr_scan"}, "type": "electric_bike", "name": "e24597a6cc473aeec8e8867956a651c4", "is_reserved": 0, "lon": -76.98059866666667, "is_disabled": 0, "fusion_lat": 0.0, "lat": 38.9724945, "bike_id": "e24597a6cc473aeec8e8867956a651c4", "fusion_lon": 0.0}, {"rental_uris": {"ios": "https://dc.lft.to/lastmile_qr_scan", "android": "https://dc.lft.to/lastmile_qr_scan"}, "type": "electric_scooter", "name": "dcfd5960145ab0e5d59f496208e7b93d", "is_reserved": 0, "lon": -77.0240915, "is_disabled": 0, "fusion_lat": 0.0, "lat": 38.945083333333336, "bike_id": "dcfd5960145ab0e5d59f496208e7b93d", "fusion_lon": 0.0}, {"rental_uris": {"ios": "https://dc.lft.to/lastmile_qr_scan", "android": "https://dc.lft.to/lastmile_qr_scan"}, "type": "electric_scooter", "name": "701681e9495bfefad8369e2812a728da", "is_reserved": 0, "lon": -77.01740216666667, "is_disabled": 0, "fusion_lat": 0.0, "lat": 38.88002983333333, "bike_id": "701681e9495bfefad8369e2812a728da", "fusion_lon": 0.0}, {"rental_uris": {"ios": "https://dc.lft.to/lastmile_qr_scan", "android": "https://dc.lft.to/lastmile_qr_scan"}, "type": "electric_scooter", "name": "5819de93b021ab5349f12278bacd3b0f", "is_reserved": 0, "lon": -77.03635833333334, "is_disabled": 0, "fusion_lat": 0.0, "lat": 38.93058033333333, "bike_id": "5819de93b021ab5349f12278bacd3b0f", "fusion_lon": 0.0}, {"rental_uris": {"ios": "https://dc.lft.to/lastmile_qr_scan", "android": "https://dc.lft.to/lastmile_qr_scan"}, "type": "electric_scooter", "name": "4ef1174b927daf707c4439bcbd312bd1", "is_reserved": 0, "lon": -77.033515, "is_disabled": 0, "fusion_lat": 0.0, "lat": 38.921448833333336, "bike_id": "4ef1174b927daf707c4439bcbd312bd1", "fusion_lon": 0.0}, {"rental_uris": {"ios": "https://dc.lft.to/lastmile_qr_scan", "android": "https://dc.lft.to/lastmile_qr_scan"}, "type": "electric_scooter", "name": "96c31ad818d0f8eba892bf8e8588126d", "is_reserved": 0, "lon": -77.02125083333334, "is_disabled": 0, "fusion_lat": 0.0, "lat": 38.932812, "bike_id": "96c31ad818d0f8eba892bf8e8588126d", "fusion_lon": 0.0}, {"rental_uris": {"ios": "https://dc.lft.to/lastmile_qr_scan", "android": "https://dc.lft.to/lastmile_qr_scan"}, "type": "electric_scooter", "name": "1c3aa6dfc82b1e5b917e1846675ef399", "is_reserved": 0, "lon": -77.04848833333334, "is_disabled": 0, "fusion_lat": 0.0, "lat": 38.90473683333333, "bike_id": "1c3aa6dfc82b1e5b917e1846675ef399", "fusion_lon": 0.0}, {"rental_uris": {"ios": "https://dc.lft.to/lastmile_qr_scan", "android": "https://dc.lft.to/lastmile_qr_scan"}, "type": "electric_scooter", "name": "8836f2a67d2180ff5174795e59e2b389", "is_reserved": 0, "lon": -77.0121965, "is_disabled": 0, "fusion_lat": 0.0, "lat": 38.91499733333333, "bike_id": "8836f2a67d2180ff5174795e59e2b389", "fusion_lon": 0.0}, {"rental_uris": {"ios": "https://dc.lft.to/lastmile_qr_scan", "android": "https://dc.lft.to/lastmile_qr_scan"}, "type": "electric_bike", "name": "17f2d9356364a27ed72951c7d52b74c1", "is_reserved": 0, "lon": -77.1264985, "is_disabled": 0, "fusion_lat": 0.0, "lat": 38.819062333333335, "bike_id": "17f2d9356364a27ed72951c7d52b74c1", "fusion_lon": 0.0}, {"rental_uris": {"ios": "https://dc.lft.to/lastmile_qr_scan", "android": "https://dc.lft.to/lastmile_qr_scan"}, "type": "electric_scooter", "name": "d8aa2b0a4bb9d2488083b931524168d2", "is_reserved": 0, "lon": -77.03843866666666, "is_disabled": 0, "fusion_lat": 0.0, "lat": 38.912826, "bike_id": "d8aa2b0a4bb9d2488083b931524168d2", "fusion_lon": 0.0}, {"rental_uris": {"ios": "https://dc.lft.to/lastmile_qr_scan", "android": "https://dc.lft.to/lastmile_qr_scan"}, "type": "electric_scooter", "name": "1082eae6d3aac30d1dca30d5d53c02c0", "is_reserved": 0, "lon": -76.94704916666667, "is_disabled": 0, "fusion_lat": 0.0, "lat": 38.892999, "bike_id": "1082eae6d3aac30d1dca30d5d53c02c0", "fusion_lon": 0.0}, {"rental_uris": {"ios": "https://dc.lft.to/lastmile_qr_scan", "android": "https://dc.lft.to/lastmile_qr_scan"}, "type": "electric_scooter", "name": "14b3c79d6343a04b6aa182bfabf9752c", "is_reserved": 0, "lon": -77.04146233333333, "is_disabled": 0, "fusion_lat": 0.0, "lat": 38.907267, "bike_id": "14b3c79d6343a04b6aa182bfabf9752c", "fusion_lon": 0.0}, {"rental_uris": {"ios": "https://dc.lft.to/lastmile_qr_scan", "android": "https://dc.lft.to/lastmile_qr_scan"}, "type": "electric_scooter", "name": "8f4bc429bc67f10991498a0c0aae092a", "is_reserved": 0, "lon": -77.04625733333333, "is_disabled": 0, "fusion_lat": 0.0, "lat": 38.89729466666667, "bike_id": "8f4bc429bc67f10991498a0c0aae092a", "fusion_lon": 0.0}, {"rental_uris": {"ios": "https://dc.lft.to/lastmile_qr_scan", "android": "https://dc.lft.to/lastmile_qr_scan"}, "type": "electric_scooter", "name": "a3375e4d157ac13facc7258dcb4009fc", "is_reserved": 0, "lon": -76.928257, "is_disabled": 0, "fusion_lat": 0.0, "lat": 38.9017925, "bike_id": "a3375e4d157ac13facc7258dcb4009fc", "fusion_lon": 0.0}, {"rental_uris": {"ios": "https://dc.lft.to/lastmile_qr_scan", "android": "https://dc.lft.to/lastmile_qr_scan"}, "type": "electric_scooter", "name": "d038f8f3cf8122c655d5c20ebc36efe4", "is_reserved": 0, "lon": -77.02475666666666, "is_disabled": 0, "fusion_lat": 0.0, "lat": 38.918161166666664, "bike_id": "d038f8f3cf8122c655d5c20ebc36efe4", "fusion_lon": 0.0}, {"rental_uris": {"ios": "https://dc.lft.to/lastmile_qr_scan", "android": "https://dc.lft.to/lastmile_qr_scan"}, "type": "electric_bike", "name": "f2f064feab94d195a8ff9da87dc4e028", "is_reserved": 0, "lon": -76.99583666666666, "is_disabled": 0, "fusion_lat": 0.0, "lat": 38.8621995, "bike_id": "f2f064feab94d195a8ff9da87dc4e028", "fusion_lon": 0.0}, {"rental_uris": {"ios": "https://dc.lft.to/lastmile_qr_scan", "android": "https://dc.lft.to/lastmile_qr_scan"}, "type": "electric_scooter", "name": "77f446d507f8ef1846c6ca75a2abaf93", "is_reserved": 0, "lon": -77.06372366666666, "is_disabled": 0, "fusion_lat": 0.0, "lat": 38.935606166666666, "bike_id": "77f446d507f8ef1846c6ca75a2abaf93", "fusion_lon": 0.0}, {"rental_uris": {"ios": "https://dc.lft.to/lastmile_qr_scan", "android": "https://dc.lft.to/lastmile_qr_scan"}, "type": "electric_scooter", "name": "8cb19c03cb1d4c98b6d85c1bf872a6c5", "is_reserved": 0, "lon": -77.03804933333333, "is_disabled": 0, "fusion_lat": 0.0, "lat": 38.93220916666667, "bike_id": "8cb19c03cb1d4c98b6d85c1bf872a6c5", "fusion_lon": 0.0}, {"rental_uris": {"ios": "https://dc.lft.to/lastmile_qr_scan", "android": "https://dc.lft.to/lastmile_qr_scan"}, "type": "electric_bike", "name": "f976f0413b58cbe7f1b50c511a3d4bf2", "is_reserved": 0, "lon": -77.02067083333333, "is_disabled": 0, "fusion_lat": 0.0, "lat": 38.96442616666667, "bike_id": "f976f0413b58cbe7f1b50c511a3d4bf2", "fusion_lon": 0.0}, {"rental_uris": {"ios": "https://dc.lft.to/lastmile_qr_scan", "android": "https://dc.lft.to/lastmile_qr_scan"}, "type": "electric_scooter", "name": "a36bb747ca9284ffa4a4df9f210481c3", "is_reserved": 0, "lon": -77.00869183333333, "is_disabled": 0, "fusion_lat": 0.0, "lat": 38.87828566666666, "bike_id": "a36bb747ca9284ffa4a4df9f210481c3", "fusion_lon": 0.0}, {"rental_uris": {"ios": "https://dc.lft.to/lastmile_qr_scan", "android": "https://dc.lft.to/lastmile_qr_scan"}, "type": "electric_scooter", "name": "078d8b5c1926a2ba20c1c1c0a5803aee", "is_reserved": 0, "lon": -77.02106183333333, "is_disabled": 0, "fusion_lat": 0.0, "lat": 38.96674616666667, "bike_id": "078d8b5c1926a2ba20c1c1c0a5803aee", "fusion_lon": 0.0}, {"rental_uris": {"ios": "https://dc.lft.to/lastmile_qr_scan", "android": "https://dc.lft.to/lastmile_qr_scan"}, "type": "electric_bike", "name": "ee07060ac98c89da077276dd31bf7659", "is_reserved": 0, "lon": -77.01917616666667, "is_disabled": 0, "fusion_lat": 0.0, "lat": 38.976813166666666, "bike_id": "ee07060ac98c89da077276dd31bf7659", "fusion_lon": 0.0}, {"rental_uris": {"ios": "https://dc.lft.to/lastmile_qr_scan", "android": "https://dc.lft.to/lastmile_qr_scan"}, "type": "electric_scooter", "name": "085f7e93395b6dbf9021f5ac6fcb8388", "is_reserved": 0, "lon": -76.990313, "is_disabled": 0, "fusion_lat": 0.0, "lat": 38.88878666666667, "bike_id": "085f7e93395b6dbf9021f5ac6fcb8388", "fusion_lon": 0.0}, {"rental_uris": {"ios": "https://dc.lft.to/lastmile_qr_scan", "android": "https://dc.lft.to/lastmile_qr_scan"}, "type": "electric_scooter", "name": "91d54d9c3da06143ccc25fada798519f", "is_reserved": 0, "lon": -77.00751766666667, "is_disabled": 0, "fusion_lat": 0.0, "lat": 38.911178166666666, "bike_id": "91d54d9c3da06143ccc25fada798519f", "fusion_lon": 0.0}, {"rental_uris": {"ios": "https://dc.lft.to/lastmile_qr_scan", "android": "https://dc.lft.to/lastmile_qr_scan"}, "type": "electric_scooter", "name": "d0d15d58b06f58fc122189375f70475e", "is_reserved": 0, "lon": -76.988565, "is_disabled": 0, "fusion_lat": 0.0, "lat": 38.9069805, "bike_id": "d0d15d58b06f58fc122189375f70475e", "fusion_lon": 0.0}, {"rental_uris": {"ios": "https://dc.lft.to/lastmile_qr_scan", "android": "https://dc.lft.to/lastmile_qr_scan"}, "type": "electric_scooter", "name": "53431ee559c24e1ec640f184c8644ff8", "is_reserved": 0, "lon": -77.02395883333334, "is_disabled": 0, "fusion_lat": 0.0, "lat": 38.917146333333335, "bike_id": "53431ee559c24e1ec640f184c8644ff8", "fusion_lon": 0.0}, {"rental_uris": {"ios": "https://dc.lft.to/lastmile_qr_scan", "android": "https://dc.lft.to/lastmile_qr_scan"}, "type": "electric_bike", "name": "b3287fbbcf51692870fb0068ab7d2fc2", "is_reserved": 0, "lon": -77.0052815, "is_disabled": 0, "fusion_lat": 0.0, "lat": 38.8792515, "bike_id": "b3287fbbcf51692870fb0068ab7d2fc2", "fusion_lon": 0.0}, {"rental_uris": {"ios": "https://dc.lft.to/lastmile_qr_scan", "android": "https://dc.lft.to/lastmile_qr_scan"}, "type": "electric_scooter", "name": "cf7287d4b9ba72fa0b45189fb0520ae5", "is_reserved": 0, "lon": -77.0361915, "is_disabled": 0, "fusion_lat": 0.0, "lat": 38.94289, "bike_id": "cf7287d4b9ba72fa0b45189fb0520ae5", "fusion_lon": 0.0}, {"rental_uris": {"ios": "https://dc.lft.to/lastmile_qr_scan", "android": "https://dc.lft.to/lastmile_qr_scan"}, "type": "electric_bike", "name": "3fab90e9c1c24b4c17fdbc7cd378432d", "is_reserved": 0, "lon": -76.993648, "is_disabled": 0, "fusion_lat": 0.0, "lat": 38.927269833333334, "bike_id": "3fab90e9c1c24b4c17fdbc7cd378432d", "fusion_lon": 0.0}, {"rental_uris": {"ios": "https://dc.lft.to/lastmile_qr_scan", "android": "https://dc.lft.to/lastmile_qr_scan"}, "type": "electric_scooter", "name": "da27d2233360ee3bac1875815ac21fc7", "is_reserved": 0, "lon": -76.98530116666667, "is_disabled": 0, "fusion_lat": 0.0, "lat": 38.91452183333333, "bike_id": "da27d2233360ee3bac1875815ac21fc7", "fusion_lon": 0.0}, {"rental_uris": {"ios": "https://dc.lft.to/lastmile_qr_scan", "android": "https://dc.lft.to/lastmile_qr_scan"}, "type": "electric_scooter", "name": "5a1b815b27af1ef808ba59ed37ffd1b4", "is_reserved": 0, "lon": -77.02302816666666, "is_disabled": 0, "fusion_lat": 0.0, "lat": 38.917888, "bike_id": "5a1b815b27af1ef808ba59ed37ffd1b4", "fusion_lon": 0.0}, {"rental_uris": {"ios": "https://dc.lft.to/lastmile_qr_scan", "android": "https://dc.lft.to/lastmile_qr_scan"}, "type": "electric_scooter", "name": "d93d6abb9518c2c7a2f470bc443be635", "is_reserved": 0, "lon": -77.026059, "is_disabled": 0, "fusion_lat": 0.0, "lat": 38.906238333333334, "bike_id": "d93d6abb9518c2c7a2f470bc443be635", "fusion_lon": 0.0}, {"rental_uris": {"ios": "https://dc.lft.to/lastmile_qr_scan", "android": "https://dc.lft.to/lastmile_qr_scan"}, "type": "electric_scooter", "name": "0cf00edd54f62e8018782fec6faabe25", "is_reserved": 0, "lon": -77.011612, "is_disabled": 0, "fusion_lat": 0.0, "lat": 38.91412016666666, "bike_id": "0cf00edd54f62e8018782fec6faabe25", "fusion_lon": 0.0}, {"rental_uris": {"ios": "https://dc.lft.to/lastmile_qr_scan", "android": "https://dc.lft.to/lastmile_qr_scan"}, "type": "electric_scooter", "name": "b556e3138b69ccc30cfded0989ad28f4", "is_reserved": 0, "lon": -77.02431216666666, "is_disabled": 0, "fusion_lat": 0.0, "lat": 38.903192, "bike_id": "b556e3138b69ccc30cfded0989ad28f4", "fusion_lon": 0.0}, {"rental_uris": {"ios": "https://dc.lft.to/lastmile_qr_scan", "android": "https://dc.lft.to/lastmile_qr_scan"}, "type": "electric_bike", "name": "e1104b83df970240ea65a082491dfea3", "is_reserved": 0, "lon": -77.0996325, "is_disabled": 0, "fusion_lat": 0.0, "lat": 38.85790216666667, "bike_id": "e1104b83df970240ea65a082491dfea3", "fusion_lon": 0.0}, {"rental_uris": {"ios": "https://dc.lft.to/lastmile_qr_scan", "android": "https://dc.lft.to/lastmile_qr_scan"}, "type": "electric_scooter", "name": "f40163d19ddd560660caea38d3f94dff", "is_reserved": 0, "lon": -77.01106483333334, "is_disabled": 0, "fusion_lat": 0.0, "lat": 38.895133666666666, "bike_id": "f40163d19ddd560660caea38d3f94dff", "fusion_lon": 0.0}, {"rental_uris": {"ios": "https://dc.lft.to/lastmile_qr_scan", "android": "https://dc.lft.to/lastmile_qr_scan"}, "type": "electric_scooter", "name": "d3fce4f9a913c72230f64e6b57b507c9", "is_reserved": 0, "lon": -77.02970366666666, "is_disabled": 0, "fusion_lat": 0.0, "lat": 38.90483916666667, "bike_id": "d3fce4f9a913c72230f64e6b57b507c9", "fusion_lon": 0.0}, {"rental_uris": {"ios": "https://dc.lft.to/lastmile_qr_scan", "android": "https://dc.lft.to/lastmile_qr_scan"}, "type": "electric_scooter", "name": "f8767a5370c42bc5d1a56410a6803196", "is_reserved": 0, "lon": -77.005711, "is_disabled": 0, "fusion_lat": 0.0, "lat": 38.87457966666667, "bike_id": "f8767a5370c42bc5d1a56410a6803196", "fusion_lon": 0.0}, {"rental_uris": {"ios": "https://dc.lft.to/lastmile_qr_scan", "android": "https://dc.lft.to/lastmile_qr_scan"}, "type": "electric_scooter", "name": "4f11eb1a2f81afcd4b17c7f401014e97", "is_reserved": 0, "lon": -77.01576, "is_disabled": 0, "fusion_lat": 0.0, "lat": 38.916795666666665, "bike_id": "4f11eb1a2f81afcd4b17c7f401014e97", "fusion_lon": 0.0}, {"rental_uris": {"ios": "https://dc.lft.to/lastmile_qr_scan", "android": "https://dc.lft.to/lastmile_qr_scan"}, "type": "electric_scooter", "name": "51d4f00e8a320813ce86c7fadb312976", "is_reserved": 0, "lon": -77.03938966666666, "is_disabled": 0, "fusion_lat": 0.0, "lat": 38.91412533333333, "bike_id": "51d4f00e8a320813ce86c7fadb312976", "fusion_lon": 0.0}, {"rental_uris": {"ios": "https://dc.lft.to/lastmile_qr_scan", "android": "https://dc.lft.to/lastmile_qr_scan"}, "type": "electric_scooter", "name": "26ea3e62ebce7b785d2a2e0757bc5fd7", "is_reserved": 0, "lon": -77.03472683333334, "is_disabled": 0, "fusion_lat": 0.0, "lat": 38.91712, "bike_id": "26ea3e62ebce7b785d2a2e0757bc5fd7", "fusion_lon": 0.0}, {"rental_uris": {"ios": "https://dc.lft.to/lastmile_qr_scan", "android": "https://dc.lft.to/lastmile_qr_scan"}, "type": "electric_scooter", "name": "9fe7f2bba4307cc4fa0940518383a5e8", "is_reserved": 0, "lon": -77.022751, "is_disabled": 0, "fusion_lat": 0.0, "lat": 38.87878333333333, "bike_id": "9fe7f2bba4307cc4fa0940518383a5e8", "fusion_lon": 0.0}, {"rental_uris": {"ios": "https://dc.lft.to/lastmile_qr_scan", "android": "https://dc.lft.to/lastmile_qr_scan"}, "type": "electric_scooter", "name": "9fe21798803aaf26d1c2965781e2747a", "is_reserved": 0, "lon": -77.03387066666667, "is_disabled": 0, "fusion_lat": 0.0, "lat": 38.902621, "bike_id": "9fe21798803aaf26d1c2965781e2747a", "fusion_lon": 0.0}, {"rental_uris": {"ios": "https://dc.lft.to/lastmile_qr_scan", "android": "https://dc.lft.to/lastmile_qr_scan"}, "type": "electric_scooter", "name": "3935df5b5083f285031ffc1d28b63d52", "is_reserved": 0, "lon": -77.003306, "is_disabled": 0, "fusion_lat": 0.0, "lat": 38.897269, "bike_id": "3935df5b5083f285031ffc1d28b63d52", "fusion_lon": 0.0}, {"rental_uris": {"ios": "https://dc.lft.to/lastmile_qr_scan", "android": "https://dc.lft.to/lastmile_qr_scan"}, "type": "electric_scooter", "name": "4e459cdb517420cdcbf781c79b8f3b23", "is_reserved": 0, "lon": -77.0228245, "is_disabled": 0, "fusion_lat": 0.0, "lat": 38.909659833333336, "bike_id": "4e459cdb517420cdcbf781c79b8f3b23", "fusion_lon": 0.0}, {"rental_uris": {"ios": "https://dc.lft.to/lastmile_qr_scan", "android": "https://dc.lft.to/lastmile_qr_scan"}, "type": "electric_scooter", "name": "6c30809197006aa06a3808735db74355", "is_reserved": 0, "lon": -76.9799855, "is_disabled": 0, "fusion_lat": 0.0, "lat": 38.90680433333333, "bike_id": "6c30809197006aa06a3808735db74355", "fusion_lon": 0.0}, {"rental_uris": {"ios": "https://dc.lft.to/lastmile_qr_scan", "android": "https://dc.lft.to/lastmile_qr_scan"}, "type": "electric_scooter", "name": "19f67c0bce0fed181c23e4d35daa55a0", "is_reserved": 0, "lon": -76.9917545, "is_disabled": 0, "fusion_lat": 0.0, "lat": 38.8892775, "bike_id": "19f67c0bce0fed181c23e4d35daa55a0", "fusion_lon": 0.0}, {"rental_uris": {"ios": "https://dc.lft.to/lastmile_qr_scan", "android": "https://dc.lft.to/lastmile_qr_scan"}, "type": "electric_scooter", "name": "016d4bdca4e7b3d4f39d7ee6f8d4cfbe", "is_reserved": 0, "lon": -76.9876845, "is_disabled": 0, "fusion_lat": 0.0, "lat": 38.91196583333333, "bike_id": "016d4bdca4e7b3d4f39d7ee6f8d4cfbe", "fusion_lon": 0.0}, {"rental_uris": {"ios": "https://dc.lft.to/lastmile_qr_scan", "android": "https://dc.lft.to/lastmile_qr_scan"}, "type": "electric_scooter", "name": "0592fd042ded535794047d5e1c3c1a6a", "is_reserved": 0, "lon": -76.973313, "is_disabled": 0, "fusion_lat": 0.0, "lat": 38.9040825, "bike_id": "0592fd042ded535794047d5e1c3c1a6a", "fusion_lon": 0.0}, {"rental_uris": {"ios": "https://dc.lft.to/lastmile_qr_scan", "android": "https://dc.lft.to/lastmile_qr_scan"}, "type": "electric_scooter", "name": "ad8e493bf3935d44313b05bedc2bd3b0", "is_reserved": 0, "lon": -77.03510566666667, "is_disabled": 0, "fusion_lat": 0.0, "lat": 38.92217183333333, "bike_id": "ad8e493bf3935d44313b05bedc2bd3b0", "fusion_lon": 0.0}, {"rental_uris": {"ios": "https://dc.lft.to/lastmile_qr_scan", "android": "https://dc.lft.to/lastmile_qr_scan"}, "type": "electric_scooter", "name": "9a94dbeb4fdd701511baff67e2b18500", "is_reserved": 0, "lon": -77.04101916666667, "is_disabled": 0, "fusion_lat": 0.0, "lat": 38.918416, "bike_id": "9a94dbeb4fdd701511baff67e2b18500", "fusion_lon": 0.0}, {"rental_uris": {"ios": "https://dc.lft.to/lastmile_qr_scan", "android": "https://dc.lft.to/lastmile_qr_scan"}, "type": "electric_scooter", "name": "8cb1fe29b1264cf899aadf7f29c42931", "is_reserved": 0, "lon": -77.01762, "is_disabled": 0, "fusion_lat": 0.0, "lat": 38.877194833333334, "bike_id": "8cb1fe29b1264cf899aadf7f29c42931", "fusion_lon": 0.0}, {"rental_uris": {"ios": "https://dc.lft.to/lastmile_qr_scan", "android": "https://dc.lft.to/lastmile_qr_scan"}, "type": "electric_scooter", "name": "08dd3d2a508435e44edaddf8b15a9560", "is_reserved": 0, "lon": -77.03441683333334, "is_disabled": 0, "fusion_lat": 0.0, "lat": 38.917989, "bike_id": "08dd3d2a508435e44edaddf8b15a9560", "fusion_lon": 0.0}, {"rental_uris": {"ios": "https://dc.lft.to/lastmile_qr_scan", "android": "https://dc.lft.to/lastmile_qr_scan"}, "type": "electric_scooter", "name": "e76665cc6db2d3832e49a262e926b488", "is_reserved": 0, "lon": -77.04495216666666, "is_disabled": 0, "fusion_lat": 0.0, "lat": 38.91933933333333, "bike_id": "e76665cc6db2d3832e49a262e926b488", "fusion_lon": 0.0}, {"rental_uris": {"ios": "https://dc.lft.to/lastmile_qr_scan", "android": "https://dc.lft.to/lastmile_qr_scan"}, "type": "electric_scooter", "name": "abaac1ef0fb812f15ce9ec4c34ab2260", "is_reserved": 0, "lon": -77.0220745, "is_disabled": 0, "fusion_lat": 0.0, "lat": 38.920522166666665, "bike_id": "abaac1ef0fb812f15ce9ec4c34ab2260", "fusion_lon": 0.0}, {"rental_uris": {"ios": "https://dc.lft.to/lastmile_qr_scan", "android": "https://dc.lft.to/lastmile_qr_scan"}, "type": "electric_scooter", "name": "c9dd5fe5fe5f37af5f91073fdfaa4fbf", "is_reserved": 0, "lon": -76.98437216666667, "is_disabled": 0, "fusion_lat": 0.0, "lat": 38.91470433333333, "bike_id": "c9dd5fe5fe5f37af5f91073fdfaa4fbf", "fusion_lon": 0.0}, {"rental_uris": {"ios": "https://dc.lft.to/lastmile_qr_scan", "android": "https://dc.lft.to/lastmile_qr_scan"}, "type": "electric_scooter", "name": "8b0ddddcf9bcf729804d0f9884e82691", "is_reserved": 0, "lon": -77.03830266666667, "is_disabled": 0, "fusion_lat": 0.0, "lat": 38.91255966666667, "bike_id": "8b0ddddcf9bcf729804d0f9884e82691", "fusion_lon": 0.0}, {"rental_uris": {"ios": "https://dc.lft.to/lastmile_qr_scan", "android": "https://dc.lft.to/lastmile_qr_scan"}, "type": "electric_scooter", "name": "34881ddd8aad99f4f92a4926476a5528", "is_reserved": 0, "lon": -77.03258266666667, "is_disabled": 0, "fusion_lat": 0.0, "lat": 38.932495833333334, "bike_id": "34881ddd8aad99f4f92a4926476a5528", "fusion_lon": 0.0}, {"rental_uris": {"ios": "https://dc.lft.to/lastmile_qr_scan", "android": "https://dc.lft.to/lastmile_qr_scan"}, "type": "electric_scooter", "name": "4d273908272a3b05611de4c88f3ab442", "is_reserved": 0, "lon": -77.04379266666666, "is_disabled": 0, "fusion_lat": 0.0, "lat": 38.92964683333334, "bike_id": "4d273908272a3b05611de4c88f3ab442", "fusion_lon": 0.0}, {"rental_uris": {"ios": "https://dc.lft.to/lastmile_qr_scan", "android": "https://dc.lft.to/lastmile_qr_scan"}, "type": "electric_scooter", "name": "3203c21f102dbd513b18b0d551aab808", "is_reserved": 0, "lon": -77.043634, "is_disabled": 0, "fusion_lat": 0.0, "lat": 38.892246, "bike_id": "3203c21f102dbd513b18b0d551aab808", "fusion_lon": 0.0}, {"rental_uris": {"ios": "https://dc.lft.to/lastmile_qr_scan", "android": "https://dc.lft.to/lastmile_qr_scan"}, "type": "electric_scooter", "name": "0482a8083ae9c8416e4431c04c51a1aa", "is_reserved": 0, "lon": -77.0456575, "is_disabled": 0, "fusion_lat": 0.0, "lat": 38.913181333333334, "bike_id": "0482a8083ae9c8416e4431c04c51a1aa", "fusion_lon": 0.0}, {"rental_uris": {"ios": "https://dc.lft.to/lastmile_qr_scan", "android": "https://dc.lft.to/lastmile_qr_scan"}, "type": "electric_bike", "name": "5c3037d64d71fd493a36401e9259a056", "is_reserved": 0, "lon": -76.9777565, "is_disabled": 0, "fusion_lat": 0.0, "lat": 38.857229833333335, "bike_id": "5c3037d64d71fd493a36401e9259a056", "fusion_lon": 0.0}, {"rental_uris": {"ios": "https://dc.lft.to/lastmile_qr_scan", "android": "https://dc.lft.to/lastmile_qr_scan"}, "type": "electric_bike", "name": "c8d13d4c74a6b814d0381e15cbf3ffe1", "is_reserved": 0, "lon": -76.99988566666667, "is_disabled": 0, "fusion_lat": 0.0, "lat": 38.96399316666667, "bike_id": "c8d13d4c74a6b814d0381e15cbf3ffe1", "fusion_lon": 0.0}, {"rental_uris": {"ios": "https://dc.lft.to/lastmile_qr_scan", "android": "https://dc.lft.to/lastmile_qr_scan"}, "type": "electric_scooter", "name": "faacd5c994554f83461de972d02adfae", "is_reserved": 0, "lon": -77.02503816666666, "is_disabled": 0, "fusion_lat": 0.0, "lat": 38.94213516666667, "bike_id": "faacd5c994554f83461de972d02adfae", "fusion_lon": 0.0}, {"rental_uris": {"ios": "https://dc.lft.to/lastmile_qr_scan", "android": "https://dc.lft.to/lastmile_qr_scan"}, "type": "electric_scooter", "name": "d88b58fcbfa9c794833e23ce4a5b11d0", "is_reserved": 0, "lon": -77.0119915, "is_disabled": 0, "fusion_lat": 0.0, "lat": 38.91110416666667, "bike_id": "d88b58fcbfa9c794833e23ce4a5b11d0", "fusion_lon": 0.0}, {"rental_uris": {"ios": "https://dc.lft.to/lastmile_qr_scan", "android": "https://dc.lft.to/lastmile_qr_scan"}, "type": "electric_scooter", "name": "1d021b90b0c81fbc75e44f504f85432c", "is_reserved": 0, "lon": -77.00722433333334, "is_disabled": 0, "fusion_lat": 0.0, "lat": 38.9110635, "bike_id": "1d021b90b0c81fbc75e44f504f85432c", "fusion_lon": 0.0}, {"rental_uris": {"ios": "https://dc.lft.to/lastmile_qr_scan", "android": "https://dc.lft.to/lastmile_qr_scan"}, "type": "electric_scooter", "name": "f01e07203e87cf6e4715101158a5a588", "is_reserved": 0, "lon": -77.03706983333333, "is_disabled": 0, "fusion_lat": 0.0, "lat": 38.92782116666667, "bike_id": "f01e07203e87cf6e4715101158a5a588", "fusion_lon": 0.0}, {"rental_uris": {"ios": "https://dc.lft.to/lastmile_qr_scan", "android": "https://dc.lft.to/lastmile_qr_scan"}, "type": "electric_scooter", "name": "02f52b1a99d68ffdb346b2f4429cc17c", "is_reserved": 0, "lon": -77.02575366666666, "is_disabled": 0, "fusion_lat": 0.0, "lat": 38.92528733333333, "bike_id": "02f52b1a99d68ffdb346b2f4429cc17c", "fusion_lon": 0.0}, {"rental_uris": {"ios": "https://dc.lft.to/lastmile_qr_scan", "android": "https://dc.lft.to/lastmile_qr_scan"}, "type": "electric_scooter", "name": "fe9ffe8f1cbf4878e2c0e03cf5a337fd", "is_reserved": 0, "lon": -77.01578866666667, "is_disabled": 0, "fusion_lat": 0.0, "lat": 38.91686583333333, "bike_id": "fe9ffe8f1cbf4878e2c0e03cf5a337fd", "fusion_lon": 0.0}, {"rental_uris": {"ios": "https://dc.lft.to/lastmile_qr_scan", "android": "https://dc.lft.to/lastmile_qr_scan"}, "type": "electric_scooter", "name": "c2a3dfb4945405d109374c96ded29b75", "is_reserved": 0, "lon": -77.01210916666666, "is_disabled": 0, "fusion_lat": 0.0, "lat": 38.921177, "bike_id": "c2a3dfb4945405d109374c96ded29b75", "fusion_lon": 0.0}, {"rental_uris": {"ios": "https://dc.lft.to/lastmile_qr_scan", "android": "https://dc.lft.to/lastmile_qr_scan"}, "type": "electric_bike", "name": "1221a3956243dd20219cfb963816b51a", "is_reserved": 0, "lon": -76.96266516666667, "is_disabled": 0, "fusion_lat": 0.0, "lat": 38.96783766666667, "bike_id": "1221a3956243dd20219cfb963816b51a", "fusion_lon": 0.0}, {"rental_uris": {"ios": "https://dc.lft.to/lastmile_qr_scan", "android": "https://dc.lft.to/lastmile_qr_scan"}, "type": "electric_scooter", "name": "dd9ba6904def3e7774ac7f524bb88ba8", "is_reserved": 0, "lon": -77.04621766666666, "is_disabled": 0, "fusion_lat": 0.0, "lat": 38.902265666666665, "bike_id": "dd9ba6904def3e7774ac7f524bb88ba8", "fusion_lon": 0.0}, {"rental_uris": {"ios": "https://dc.lft.to/lastmile_qr_scan", "android": "https://dc.lft.to/lastmile_qr_scan"}, "type": "electric_scooter", "name": "5988e00f545c8f04371c668fb7c6ca9a", "is_reserved": 0, "lon": -77.04139933333333, "is_disabled": 0, "fusion_lat": 0.0, "lat": 38.9073205, "bike_id": "5988e00f545c8f04371c668fb7c6ca9a", "fusion_lon": 0.0}, {"rental_uris": {"ios": "https://dc.lft.to/lastmile_qr_scan", "android": "https://dc.lft.to/lastmile_qr_scan"}, "type": "electric_scooter", "name": "c6e79de0d6ca4f34dadc0e819d252d83", "is_reserved": 0, "lon": -77.045191, "is_disabled": 0, "fusion_lat": 0.0, "lat": 38.903792333333335, "bike_id": "c6e79de0d6ca4f34dadc0e819d252d83", "fusion_lon": 0.0}, {"rental_uris": {"ios": "https://dc.lft.to/lastmile_qr_scan", "android": "https://dc.lft.to/lastmile_qr_scan"}, "type": "electric_scooter", "name": "2d051005901620b9a04c90090694e565", "is_reserved": 0, "lon": -77.027816, "is_disabled": 0, "fusion_lat": 0.0, "lat": 38.96245066666667, "bike_id": "2d051005901620b9a04c90090694e565", "fusion_lon": 0.0}, {"rental_uris": {"ios": "https://dc.lft.to/lastmile_qr_scan", "android": "https://dc.lft.to/lastmile_qr_scan"}, "type": "electric_bike", "name": "803b7bec3de9e252c5d19513f005b279", "is_reserved": 0, "lon": -76.9868965, "is_disabled": 0, "fusion_lat": 0.0, "lat": 38.944711833333336, "bike_id": "803b7bec3de9e252c5d19513f005b279", "fusion_lon": 0.0}, {"rental_uris": {"ios": "https://dc.lft.to/lastmile_qr_scan", "android": "https://dc.lft.to/lastmile_qr_scan"}, "type": "electric_bike", "name": "d227098debcaf64fbf08e6480876e243", "is_reserved": 0, "lon": -76.93670183333333, "is_disabled": 0, "fusion_lat": 0.0, "lat": 38.89457866666667, "bike_id": "d227098debcaf64fbf08e6480876e243", "fusion_lon": 0.0}, {"rental_uris": {"ios": "https://dc.lft.to/lastmile_qr_scan", "android": "https://dc.lft.to/lastmile_qr_scan"}, "type": "electric_scooter", "name": "a6fd0b64a04316acbcfd2382d04fd00b", "is_reserved": 0, "lon": -77.01209116666666, "is_disabled": 0, "fusion_lat": 0.0, "lat": 38.911948833333334, "bike_id": "a6fd0b64a04316acbcfd2382d04fd00b", "fusion_lon": 0.0}, {"rental_uris": {"ios": "https://dc.lft.to/lastmile_qr_scan", "android": "https://dc.lft.to/lastmile_qr_scan"}, "type": "electric_scooter", "name": "4001878336ee0356c45d370d0eab2fd0", "is_reserved": 0, "lon": -76.98507716666667, "is_disabled": 0, "fusion_lat": 0.0, "lat": 38.87993783333334, "bike_id": "4001878336ee0356c45d370d0eab2fd0", "fusion_lon": 0.0}, {"rental_uris": {"ios": "https://dc.lft.to/lastmile_qr_scan", "android": "https://dc.lft.to/lastmile_qr_scan"}, "type": "electric_scooter", "name": "ed46b240462ddbee8382389bc69b1ed0", "is_reserved": 0, "lon": -77.03487433333333, "is_disabled": 0, "fusion_lat": 0.0, "lat": 38.93106383333333, "bike_id": "ed46b240462ddbee8382389bc69b1ed0", "fusion_lon": 0.0}, {"rental_uris": {"ios": "https://dc.lft.to/lastmile_qr_scan", "android": "https://dc.lft.to/lastmile_qr_scan"}, "type": "electric_scooter", "name": "735aa0259298950080c72f3d5d8dc3e1", "is_reserved": 0, "lon": -77.020441, "is_disabled": 0, "fusion_lat": 0.0, "lat": 38.89300183333334, "bike_id": "735aa0259298950080c72f3d5d8dc3e1", "fusion_lon": 0.0}, {"rental_uris": {"ios": "https://dc.lft.to/lastmile_qr_scan", "android": "https://dc.lft.to/lastmile_qr_scan"}, "type": "electric_scooter", "name": "2ca356a896fea79f75496ba606451de5", "is_reserved": 0, "lon": -77.03037233333333, "is_disabled": 0, "fusion_lat": 0.0, "lat": 38.92240566666667, "bike_id": "2ca356a896fea79f75496ba606451de5", "fusion_lon": 0.0}, {"rental_uris": {"ios": "https://dc.lft.to/lastmile_qr_scan", "android": "https://dc.lft.to/lastmile_qr_scan"}, "type": "electric_scooter", "name": "80b546803a593546e93c9d59684573e3", "is_reserved": 0, "lon": -76.98338616666666, "is_disabled": 0, "fusion_lat": 0.0, "lat": 38.90089783333333, "bike_id": "80b546803a593546e93c9d59684573e3", "fusion_lon": 0.0}, {"rental_uris": {"ios": "https://dc.lft.to/lastmile_qr_scan", "android": "https://dc.lft.to/lastmile_qr_scan"}, "type": "electric_scooter", "name": "4c4dd0668f2567d82ae99be92c4740c4", "is_reserved": 0, "lon": -77.02270783333333, "is_disabled": 0, "fusion_lat": 0.0, "lat": 38.91638, "bike_id": "4c4dd0668f2567d82ae99be92c4740c4", "fusion_lon": 0.0}, {"rental_uris": {"ios": "https://dc.lft.to/lastmile_qr_scan", "android": "https://dc.lft.to/lastmile_qr_scan"}, "type": "electric_scooter", "name": "28b693ad3524884e0e94002a63c1bb67", "is_reserved": 0, "lon": -77.03748466666667, "is_disabled": 0, "fusion_lat": 0.0, "lat": 38.9065425, "bike_id": "28b693ad3524884e0e94002a63c1bb67", "fusion_lon": 0.0}, {"rental_uris": {"ios": "https://dc.lft.to/lastmile_qr_scan", "android": "https://dc.lft.to/lastmile_qr_scan"}, "type": "electric_scooter", "name": "c47a688e1acdd6a1619a9da2b8030386", "is_reserved": 0, "lon": -77.0325805, "is_disabled": 0, "fusion_lat": 0.0, "lat": 38.93980616666666, "bike_id": "c47a688e1acdd6a1619a9da2b8030386", "fusion_lon": 0.0}, {"rental_uris": {"ios": "https://dc.lft.to/lastmile_qr_scan", "android": "https://dc.lft.to/lastmile_qr_scan"}, "type": "electric_scooter", "name": "9eef31cc82e84b5f199c1e9ecd6f4fd5", "is_reserved": 0, "lon": -76.95192166666666, "is_disabled": 0, "fusion_lat": 0.0, "lat": 38.9051205, "bike_id": "9eef31cc82e84b5f199c1e9ecd6f4fd5", "fusion_lon": 0.0}, {"rental_uris": {"ios": "https://dc.lft.to/lastmile_qr_scan", "android": "https://dc.lft.to/lastmile_qr_scan"}, "type": "electric_scooter", "name": "85513334f291b4d61b3b265c84a674d9", "is_reserved": 0, "lon": -77.01774283333333, "is_disabled": 0, "fusion_lat": 0.0, "lat": 38.9050665, "bike_id": "85513334f291b4d61b3b265c84a674d9", "fusion_lon": 0.0}, {"rental_uris": {"ios": "https://dc.lft.to/lastmile_qr_scan", "android": "https://dc.lft.to/lastmile_qr_scan"}, "type": "electric_scooter", "name": "2041cc69ac55d1abb3936cbd2658e015", "is_reserved": 0, "lon": -77.019979, "is_disabled": 0, "fusion_lat": 0.0, "lat": 38.96629216666667, "bike_id": "2041cc69ac55d1abb3936cbd2658e015", "fusion_lon": 0.0}, {"rental_uris": {"ios": "https://dc.lft.to/lastmile_qr_scan", "android": "https://dc.lft.to/lastmile_qr_scan"}, "type": "electric_scooter", "name": "3206de5a8330d4535127f2c35e0d0ade", "is_reserved": 0, "lon": -77.0344375, "is_disabled": 0, "fusion_lat": 0.0, "lat": 38.907349333333336, "bike_id": "3206de5a8330d4535127f2c35e0d0ade", "fusion_lon": 0.0}, {"rental_uris": {"ios": "https://dc.lft.to/lastmile_qr_scan", "android": "https://dc.lft.to/lastmile_qr_scan"}, "type": "electric_scooter", "name": "ddd2f3fc879797dd9aadeb9d66716beb", "is_reserved": 0, "lon": -77.01758466666666, "is_disabled": 0, "fusion_lat": 0.0, "lat": 38.876864166666664, "bike_id": "ddd2f3fc879797dd9aadeb9d66716beb", "fusion_lon": 0.0}, {"rental_uris": {"ios": "https://dc.lft.to/lastmile_qr_scan", "android": "https://dc.lft.to/lastmile_qr_scan"}, "type": "electric_scooter", "name": "faf4f6402efb366b4607218742420631", "is_reserved": 0, "lon": -77.00580116666667, "is_disabled": 0, "fusion_lat": 0.0, "lat": 38.905697, "bike_id": "faf4f6402efb366b4607218742420631", "fusion_lon": 0.0}, {"rental_uris": {"ios": "https://dc.lft.to/lastmile_qr_scan", "android": "https://dc.lft.to/lastmile_qr_scan"}, "type": "electric_scooter", "name": "376965163b6a0020e5cfa2987824dbc8", "is_reserved": 0, "lon": -76.926296, "is_disabled": 0, "fusion_lat": 0.0, "lat": 38.90190333333334, "bike_id": "376965163b6a0020e5cfa2987824dbc8", "fusion_lon": 0.0}, {"rental_uris": {"ios": "https://dc.lft.to/lastmile_qr_scan", "android": "https://dc.lft.to/lastmile_qr_scan"}, "type": "electric_scooter", "name": "ce053bf560cfd3dcdbe0cccf6839214f", "is_reserved": 0, "lon": -77.02173333333333, "is_disabled": 0, "fusion_lat": 0.0, "lat": 38.93000516666667, "bike_id": "ce053bf560cfd3dcdbe0cccf6839214f", "fusion_lon": 0.0}, {"rental_uris": {"ios": "https://dc.lft.to/lastmile_qr_scan", "android": "https://dc.lft.to/lastmile_qr_scan"}, "type": "electric_bike", "name": "3b308aadce39b54f1a5c1ddbcae680a8", "is_reserved": 0, "lon": -77.00196966666667, "is_disabled": 0, "fusion_lat": 0.0, "lat": 38.94148633333333, "bike_id": "3b308aadce39b54f1a5c1ddbcae680a8", "fusion_lon": 0.0}, {"rental_uris": {"ios": "https://dc.lft.to/lastmile_qr_scan", "android": "https://dc.lft.to/lastmile_qr_scan"}, "type": "electric_scooter", "name": "739838da6612bdaca25d2ec36d5b7af0", "is_reserved": 0, "lon": -77.0438335, "is_disabled": 0, "fusion_lat": 0.0, "lat": 38.93426383333333, "bike_id": "739838da6612bdaca25d2ec36d5b7af0", "fusion_lon": 0.0}, {"rental_uris": {"ios": "https://dc.lft.to/lastmile_qr_scan", "android": "https://dc.lft.to/lastmile_qr_scan"}, "type": "electric_scooter", "name": "c54a997ecf34c86ca67d022155e2f01f", "is_reserved": 0, "lon": -77.04129216666666, "is_disabled": 0, "fusion_lat": 0.0, "lat": 38.9216765, "bike_id": "c54a997ecf34c86ca67d022155e2f01f", "fusion_lon": 0.0}, {"rental_uris": {"ios": "https://dc.lft.to/lastmile_qr_scan", "android": "https://dc.lft.to/lastmile_qr_scan"}, "type": "electric_scooter", "name": "f8f0faf7a8978dfdcb729afed65cb45b", "is_reserved": 0, "lon": -77.033742, "is_disabled": 0, "fusion_lat": 0.0, "lat": 38.8997815, "bike_id": "f8f0faf7a8978dfdcb729afed65cb45b", "fusion_lon": 0.0}, {"rental_uris": {"ios": "https://dc.lft.to/lastmile_qr_scan", "android": "https://dc.lft.to/lastmile_qr_scan"}, "type": "electric_scooter", "name": "7c351971729fed47b4526e8649ad06e6", "is_reserved": 0, "lon": -77.029827, "is_disabled": 0, "fusion_lat": 0.0, "lat": 38.92372, "bike_id": "7c351971729fed47b4526e8649ad06e6", "fusion_lon": 0.0}, {"rental_uris": {"ios": "https://dc.lft.to/lastmile_qr_scan", "android": "https://dc.lft.to/lastmile_qr_scan"}, "type": "electric_scooter", "name": "58087b922daf745cd95c00d0009baf72", "is_reserved": 0, "lon": -77.06781816666667, "is_disabled": 0, "fusion_lat": 0.0, "lat": 38.908831, "bike_id": "58087b922daf745cd95c00d0009baf72", "fusion_lon": 0.0}, {"rental_uris": {"ios": "https://dc.lft.to/lastmile_qr_scan", "android": "https://dc.lft.to/lastmile_qr_scan"}, "type": "electric_scooter", "name": "a840b6d843f4aa9497a87a7dff88e6c7", "is_reserved": 0, "lon": -77.037499, "is_disabled": 0, "fusion_lat": 0.0, "lat": 38.932037333333334, "bike_id": "a840b6d843f4aa9497a87a7dff88e6c7", "fusion_lon": 0.0}, {"rental_uris": {"ios": "https://dc.lft.to/lastmile_qr_scan", "android": "https://dc.lft.to/lastmile_qr_scan"}, "type": "electric_scooter", "name": "24f78389df4275f0ab167e31f13ad7ab", "is_reserved": 0, "lon": -77.04388616666667, "is_disabled": 0, "fusion_lat": 0.0, "lat": 38.91706033333333, "bike_id": "24f78389df4275f0ab167e31f13ad7ab", "fusion_lon": 0.0}, {"rental_uris": {"ios": "https://dc.lft.to/lastmile_qr_scan", "android": "https://dc.lft.to/lastmile_qr_scan"}, "type": "electric_scooter", "name": "d9d0462a482ec6bc92ec60eca2d3c7f7", "is_reserved": 0, "lon": -77.0279065, "is_disabled": 0, "fusion_lat": 0.0, "lat": 38.9276495, "bike_id": "d9d0462a482ec6bc92ec60eca2d3c7f7", "fusion_lon": 0.0}, {"rental_uris": {"ios": "https://dc.lft.to/lastmile_qr_scan", "android": "https://dc.lft.to/lastmile_qr_scan"}, "type": "electric_scooter", "name": "89ef3807b45be76e1e8dfe55fd37e6ab", "is_reserved": 0, "lon": -77.038665, "is_disabled": 0, "fusion_lat": 0.0, "lat": 38.91118733333333, "bike_id": "89ef3807b45be76e1e8dfe55fd37e6ab", "fusion_lon": 0.0}, {"rental_uris": {"ios": "https://dc.lft.to/lastmile_qr_scan", "android": "https://dc.lft.to/lastmile_qr_scan"}, "type": "electric_scooter", "name": "98aefe7bf9d6b0728f23a3b38b36f487", "is_reserved": 0, "lon": -77.03338616666667, "is_disabled": 0, "fusion_lat": 0.0, "lat": 38.897436666666664, "bike_id": "98aefe7bf9d6b0728f23a3b38b36f487", "fusion_lon": 0.0}, {"rental_uris": {"ios": "https://dc.lft.to/lastmile_qr_scan", "android": "https://dc.lft.to/lastmile_qr_scan"}, "type": "electric_bike", "name": "b5f8bd5bd74f7abd81e883721d9aaac5", "is_reserved": 0, "lon": -76.95742833333334, "is_disabled": 0, "fusion_lat": 0.0, "lat": 38.888574, "bike_id": "b5f8bd5bd74f7abd81e883721d9aaac5", "fusion_lon": 0.0}, {"rental_uris": {"ios": "https://dc.lft.to/lastmile_qr_scan", "android": "https://dc.lft.to/lastmile_qr_scan"}, "type": "electric_scooter", "name": "ca99dfc96fff46277b9cc6c763aba4a9", "is_reserved": 0, "lon": -77.03135016666667, "is_disabled": 0, "fusion_lat": 0.0, "lat": 38.91808433333333, "bike_id": "ca99dfc96fff46277b9cc6c763aba4a9", "fusion_lon": 0.0}, {"rental_uris": {"ios": "https://dc.lft.to/lastmile_qr_scan", "android": "https://dc.lft.to/lastmile_qr_scan"}, "type": "electric_scooter", "name": "7c7edd99e7fb3f7b22a4e009e6756e6a", "is_reserved": 0, "lon": -77.045512, "is_disabled": 0, "fusion_lat": 0.0, "lat": 38.909718833333336, "bike_id": "7c7edd99e7fb3f7b22a4e009e6756e6a", "fusion_lon": 0.0}, {"rental_uris": {"ios": "https://dc.lft.to/lastmile_qr_scan", "android": "https://dc.lft.to/lastmile_qr_scan"}, "type": "electric_scooter", "name": "e5e80e6dbc10b622eb90e9eb5a632bc0", "is_reserved": 0, "lon": -77.039518, "is_disabled": 0, "fusion_lat": 0.0, "lat": 38.89248633333333, "bike_id": "e5e80e6dbc10b622eb90e9eb5a632bc0", "fusion_lon": 0.0}, {"rental_uris": {"ios": "https://dc.lft.to/lastmile_qr_scan", "android": "https://dc.lft.to/lastmile_qr_scan"}, "type": "electric_scooter", "name": "4881dc1cabbaaa9e09a5a8029d1b3684", "is_reserved": 0, "lon": -77.042165, "is_disabled": 0, "fusion_lat": 0.0, "lat": 38.911154833333335, "bike_id": "4881dc1cabbaaa9e09a5a8029d1b3684", "fusion_lon": 0.0}, {"rental_uris": {"ios": "https://dc.lft.to/lastmile_qr_scan", "android": "https://dc.lft.to/lastmile_qr_scan"}, "type": "electric_scooter", "name": "33bfef7151966b50add1695817c0490f", "is_reserved": 0, "lon": -76.9471595, "is_disabled": 0, "fusion_lat": 0.0, "lat": 38.890841333333334, "bike_id": "33bfef7151966b50add1695817c0490f", "fusion_lon": 0.0}, {"rental_uris": {"ios": "https://dc.lft.to/lastmile_qr_scan", "android": "https://dc.lft.to/lastmile_qr_scan"}, "type": "electric_scooter", "name": "791db04e5f20727f144163355b821f23", "is_reserved": 0, "lon": -77.049472, "is_disabled": 0, "fusion_lat": 0.0, "lat": 38.92022383333333, "bike_id": "791db04e5f20727f144163355b821f23", "fusion_lon": 0.0}, {"rental_uris": {"ios": "https://dc.lft.to/lastmile_qr_scan", "android": "https://dc.lft.to/lastmile_qr_scan"}, "type": "electric_scooter", "name": "50997e976d58a0a4116190690c9992f5", "is_reserved": 0, "lon": -77.029617, "is_disabled": 0, "fusion_lat": 0.0, "lat": 38.92267066666667, "bike_id": "50997e976d58a0a4116190690c9992f5", "fusion_lon": 0.0}, {"rental_uris": {"ios": "https://dc.lft.to/lastmile_qr_scan", "android": "https://dc.lft.to/lastmile_qr_scan"}, "type": "electric_scooter", "name": "af24a34cf7238b69949f50890a6b01d1", "is_reserved": 0, "lon": -76.98942266666667, "is_disabled": 0, "fusion_lat": 0.0, "lat": 38.903958333333335, "bike_id": "af24a34cf7238b69949f50890a6b01d1", "fusion_lon": 0.0}, {"rental_uris": {"ios": "https://dc.lft.to/lastmile_qr_scan", "android": "https://dc.lft.to/lastmile_qr_scan"}, "type": "electric_scooter", "name": "e86c984966225cff69e241a4a43de493", "is_reserved": 0, "lon": -77.0484825, "is_disabled": 0, "fusion_lat": 0.0, "lat": 38.904718333333335, "bike_id": "e86c984966225cff69e241a4a43de493", "fusion_lon": 0.0}, {"rental_uris": {"ios": "https://dc.lft.to/lastmile_qr_scan", "android": "https://dc.lft.to/lastmile_qr_scan"}, "type": "electric_scooter", "name": "993a86ebd53dfb62e8ece4d84d7ccabe", "is_reserved": 0, "lon": -77.04137883333334, "is_disabled": 0, "fusion_lat": 0.0, "lat": 38.903867, "bike_id": "993a86ebd53dfb62e8ece4d84d7ccabe", "fusion_lon": 0.0}, {"rental_uris": {"ios": "https://dc.lft.to/lastmile_qr_scan", "android": "https://dc.lft.to/lastmile_qr_scan"}, "type": "electric_scooter", "name": "0effe35712b75cd18b935b99684288e7", "is_reserved": 0, "lon": -77.03985016666667, "is_disabled": 0, "fusion_lat": 0.0, "lat": 38.924640333333336, "bike_id": "0effe35712b75cd18b935b99684288e7", "fusion_lon": 0.0}, {"rental_uris": {"ios": "https://dc.lft.to/lastmile_qr_scan", "android": "https://dc.lft.to/lastmile_qr_scan"}, "type": "electric_scooter", "name": "18f5c1410adefc37e101456b130d6891", "is_reserved": 0, "lon": -77.0464175, "is_disabled": 0, "fusion_lat": 0.0, "lat": 38.8972385, "bike_id": "18f5c1410adefc37e101456b130d6891", "fusion_lon": 0.0}, {"rental_uris": {"ios": "https://dc.lft.to/lastmile_qr_scan", "android": "https://dc.lft.to/lastmile_qr_scan"}, "type": "electric_scooter", "name": "25addb37ce8f55315c3e406bedc4a8c5", "is_reserved": 0, "lon": -77.00055666666667, "is_disabled": 0, "fusion_lat": 0.0, "lat": 38.9613315, "bike_id": "25addb37ce8f55315c3e406bedc4a8c5", "fusion_lon": 0.0}, {"rental_uris": {"ios": "https://dc.lft.to/lastmile_qr_scan", "android": "https://dc.lft.to/lastmile_qr_scan"}, "type": "electric_scooter", "name": "5808549439aaafc95a5a149a9ab1a069", "is_reserved": 0, "lon": -77.02803366666667, "is_disabled": 0, "fusion_lat": 0.0, "lat": 38.907326833333336, "bike_id": "5808549439aaafc95a5a149a9ab1a069", "fusion_lon": 0.0}, {"rental_uris": {"ios": "https://dc.lft.to/lastmile_qr_scan", "android": "https://dc.lft.to/lastmile_qr_scan"}, "type": "electric_scooter", "name": "c416a9a2a965a9c1504e2b3c3259560d", "is_reserved": 0, "lon": -76.9762555, "is_disabled": 0, "fusion_lat": 0.0, "lat": 38.9057075, "bike_id": "c416a9a2a965a9c1504e2b3c3259560d", "fusion_lon": 0.0}, {"rental_uris": {"ios": "https://dc.lft.to/lastmile_qr_scan", "android": "https://dc.lft.to/lastmile_qr_scan"}, "type": "electric_bike", "name": "ad5b5b0eac2c19f5c016fa4a999dc7eb", "is_reserved": 0, "lon": -77.23411166666666, "is_disabled": 0, "fusion_lat": 0.0, "lat": 38.875764333333336, "bike_id": "ad5b5b0eac2c19f5c016fa4a999dc7eb", "fusion_lon": 0.0}, {"rental_uris": {"ios": "https://dc.lft.to/lastmile_qr_scan", "android": "https://dc.lft.to/lastmile_qr_scan"}, "type": "electric_scooter", "name": "e70feaf329a629408ebcd969aa11f43e", "is_reserved": 0, "lon": -77.03497066666667, "is_disabled": 0, "fusion_lat": 0.0, "lat": 38.93265666666667, "bike_id": "e70feaf329a629408ebcd969aa11f43e", "fusion_lon": 0.0}, {"rental_uris": {"ios": "https://dc.lft.to/lastmile_qr_scan", "android": "https://dc.lft.to/lastmile_qr_scan"}, "type": "electric_scooter", "name": "d8f438ea537f6f8361f29d77f8439090", "is_reserved": 0, "lon": -77.05529466666667, "is_disabled": 0, "fusion_lat": 0.0, "lat": 38.89728433333333, "bike_id": "d8f438ea537f6f8361f29d77f8439090", "fusion_lon": 0.0}, {"rental_uris": {"ios": "https://dc.lft.to/lastmile_qr_scan", "android": "https://dc.lft.to/lastmile_qr_scan"}, "type": "electric_scooter", "name": "127af13e2396878fb78542a39a9fcf64", "is_reserved": 0, "lon": -77.020993, "is_disabled": 0, "fusion_lat": 0.0, "lat": 38.9120165, "bike_id": "127af13e2396878fb78542a39a9fcf64", "fusion_lon": 0.0}, {"rental_uris": {"ios": "https://dc.lft.to/lastmile_qr_scan", "android": "https://dc.lft.to/lastmile_qr_scan"}, "type": "electric_bike", "name": "4c617d1b6c09fef95849c94d1c7cf116", "is_reserved": 0, "lon": -77.0407325, "is_disabled": 0, "fusion_lat": 0.0, "lat": 38.99378816666667, "bike_id": "4c617d1b6c09fef95849c94d1c7cf116", "fusion_lon": 0.0}, {"rental_uris": {"ios": "https://dc.lft.to/lastmile_qr_scan", "android": "https://dc.lft.to/lastmile_qr_scan"}, "type": "electric_bike", "name": "3ba2894405e6527fed5443775a341b94", "is_reserved": 0, "lon": -76.99659783333334, "is_disabled": 0, "fusion_lat": 0.0, "lat": 38.901170666666665, "bike_id": "3ba2894405e6527fed5443775a341b94", "fusion_lon": 0.0}, {"rental_uris": {"ios": "https://dc.lft.to/lastmile_qr_scan", "android": "https://dc.lft.to/lastmile_qr_scan"}, "type": "electric_scooter", "name": "22f5ef434ff77ef9c14395880d97b120", "is_reserved": 0, "lon": -77.014465, "is_disabled": 0, "fusion_lat": 0.0, "lat": 38.911112833333334, "bike_id": "22f5ef434ff77ef9c14395880d97b120", "fusion_lon": 0.0}, {"rental_uris": {"ios": "https://dc.lft.to/lastmile_qr_scan", "android": "https://dc.lft.to/lastmile_qr_scan"}, "type": "electric_scooter", "name": "132f78eee7f18af608f76057569f8d0a", "is_reserved": 0, "lon": -76.997241, "is_disabled": 0, "fusion_lat": 0.0, "lat": 38.91112283333333, "bike_id": "132f78eee7f18af608f76057569f8d0a", "fusion_lon": 0.0}, {"rental_uris": {"ios": "https://dc.lft.to/lastmile_qr_scan", "android": "https://dc.lft.to/lastmile_qr_scan"}, "type": "electric_scooter", "name": "1e43f7e480e092a33db3fa1eb2eae9c4", "is_reserved": 0, "lon": -77.08397816666667, "is_disabled": 0, "fusion_lat": 0.0, "lat": 38.90802516666667, "bike_id": "1e43f7e480e092a33db3fa1eb2eae9c4", "fusion_lon": 0.0}, {"rental_uris": {"ios": "https://dc.lft.to/lastmile_qr_scan", "android": "https://dc.lft.to/lastmile_qr_scan"}, "type": "electric_bike", "name": "1e89fa8411b32d948b80b4cf2cbc02c3", "is_reserved": 0, "lon": -77.07910733333334, "is_disabled": 0, "fusion_lat": 0.0, "lat": 38.83827216666667, "bike_id": "1e89fa8411b32d948b80b4cf2cbc02c3", "fusion_lon": 0.0}, {"rental_uris": {"ios": "https://dc.lft.to/lastmile_qr_scan", "android": "https://dc.lft.to/lastmile_qr_scan"},