{"data": {"bikes": [{"rental_uris": {"android": "https://dc.lft.to/lastmile_qr_scan", "ios": "https://dc.lft.to/lastmile_qr_scan"}, "is_reserved": 0, "is_disabled": 0, "name": "fd7a615ac97e90bdc29746a8a8dec251", "bike_id": "fd7a615ac97e90bdc29746a8a8dec251", "fusion_lat": 0.0, "lon": -77.03338, "type": "electric_scooter", "fusion_lon": 0.0, "lat": 38.8984355}, {"rental_uris": {"android": "https://dc.lft.to/lastmile_qr_scan", "ios": "https://dc.lft.to/lastmile_qr_scan"}, "is_reserved": 0, "is_disabled": 0, "name": "9d4a119ec23f6a4ef3cc73388ef339ad", "bike_id": "9d4a119ec23f6a4ef3cc73388ef339ad", "fusion_lat": 0.0, "lon": -76.997751, "type": "electric_scooter", "fusion_lon": 0.0, "lat": 38.92287116666667}, {"rental_uris": {"android": "https://dc.lft.to/lastmile_qr_scan", "ios": "https://dc.lft.to/lastmile_qr_scan"}, "is_reserved": 0, "is_disabled": 0, "name": "389c34a930c9dfd222cf3f07cc80cc22", "bike_id": "389c34a930c9dfd222cf3f07cc80cc22", "fusion_lat": 0.0, "lon": -77.03837583333333, "type": "electric_scooter", "fusion_lon": 0.0, "lat": 38.90265433333333}, {"rental_uris": {"android": "https://dc.lft.to/lastmile_qr_scan", "ios": "https://dc.lft.to/lastmile_qr_scan"}, "is_reserved": 0, "is_disabled": 0, "name": "cedbe3d840ffe3bf93b77dccdb0c8571", "bike_id": "cedbe3d840ffe3bf93b77dccdb0c8571", "fusion_lat": 0.0, "lon": -77.033788, "type": "electric_scooter", "fusion_lon": 0.0, "lat": 38.89958383333333}, {"rental_uris": {"android": "https://dc.lft.to/lastmile_qr_scan", "ios": "https://dc.lft.to/lastmile_qr_scan"}, "is_reserved": 0, "is_disabled": 0, "name": "2f3727205d9b21b45b50f610ca26434c", "bike_id": "2f3727205d9b21b45b50f610ca26434c", "fusion_lat": 0.0, "lon": -77.04325133333333, "type": "electric_scooter", "fusion_lon": 0.0, "lat": 38.8921815}, {"rental_uris": {"android": "https://dc.lft.to/lastmile_qr_scan", "ios": "https://dc.lft.to/lastmile_qr_scan"}, "is_reserved": 0, "is_disabled": 0, "name": "9f59e0f5d25c78033e3a6ad1c13f152c", "bike_id": "9f59e0f5d25c78033e3a6ad1c13f152c", "fusion_lat": 0.0, "lon": -77.0422435, "type": "electric_scooter", "fusion_lon": 0.0, "lat": 38.89995533333333}, {"rental_uris": {"android": "https://dc.lft.to/lastmile_qr_scan", "ios": "https://dc.lft.to/lastmile_qr_scan"}, "is_reserved": 0, "is_disabled": 0, "name": "cf431f94bf6d76bcbadc8c097aa85181", "bike_id": "cf431f94bf6d76bcbadc8c097aa85181", "fusion_lat": 0.0, "lon": -77.0209225, "type": "electric_scooter", "fusion_lon": 0.0, "lat": 38.92244566666667}, {"rental_uris": {"android": "https://dc.lft.to/lastmile_qr_scan", "ios": "https://dc.lft.to/lastmile_qr_scan"}, "is_reserved": 0, "is_disabled": 0, "name": "340df054f405a1d56b4f27f7a5a27b0a", "bike_id": "340df054f405a1d56b4f27f7a5a27b0a", "fusion_lat": 0.0, "lon": -77.04006983333333, "type": "electric_scooter", "fusion_lon": 0.0, "lat": 38.9342415}, {"rental_uris": {"android": "https://dc.lft.to/lastmile_qr_scan", "ios": "https://dc.lft.to/lastmile_qr_scan"}, "is_reserved": 0, "is_disabled": 0, "name": "df984830756665b205d8e16a00fc190f", "bike_id": "df984830756665b205d8e16a00fc190f", "fusion_lat": 0.0, "lon": -77.06700316666667, "type": "electric_bike", "fusion_lon": 0.0, "lat": 38.83163866666666}, {"rental_uris": {"android": "https://dc.lft.to/lastmile_qr_scan", "ios": "https://dc.lft.to/lastmile_qr_scan"}, "is_reserved": 0, "is_disabled": 0, "name": "aba6e51504118938119565937ba61cae", "bike_id": "aba6e51504118938119565937ba61cae", "fusion_lat": 0.0, "lon": -77.034782, "type": "electric_scooter", "fusion_lon": 0.0, "lat": 38.902656}, {"rental_uris": {"android": "https://dc.lft.to/lastmile_qr_scan", "ios": "https://dc.lft.to/lastmile_qr_scan"}, "is_reserved": 0, "is_disabled": 0, "name": "82907d63f306e01a66dca7cb07380edc", "bike_id": "82907d63f306e01a66dca7cb07380edc", "fusion_lat": 0.0, "lon": -77.0449835, "type": "electric_scooter", "fusion_lon": 0.0, "lat": 38.912285}, {"rental_uris": {"android": "https://dc.lft.to/lastmile_qr_scan", "ios": "https://dc.lft.to/lastmile_qr_scan"}, "is_reserved": 0, "is_disabled": 0, "name": "7a41939f0148fd7012e3e9adb1afd6fe", "bike_id": "7a41939f0148fd7012e3e9adb1afd6fe", "fusion_lat": 0.0, "lon": -77.05323916666667, "type": "electric_scooter", "fusion_lon": 0.0, "lat": 38.901493333333335}, {"rental_uris": {"android": "https://dc.lft.to/lastmile_qr_scan", "ios": "https://dc.lft.to/lastmile_qr_scan"}, "is_reserved": 0, "is_disabled": 0, "name": "9f15c8e5326ef9a0f2eeee4cd44dc673", "bike_id": "9f15c8e5326ef9a0f2eeee4cd44dc673", "fusion_lat": 0.0, "lon": -77.0333485, "type": "electric_scooter", "fusion_lon": 0.0, "lat": 38.898853833333334}, {"rental_uris": {"android": "https://dc.lft.to/lastmile_qr_scan", "ios": "https://dc.lft.to/lastmile_qr_scan"}, "is_reserved": 0, "is_disabled": 0, "name": "1c2cbb95576a7cf940b10caf9acf3998", "bike_id": "1c2cbb95576a7cf940b10caf9acf3998", "fusion_lat": 0.0, "lon": -76.93636716666667, "type": "electric_scooter", "fusion_lon": 0.0, "lat": 38.883451666666666}, {"rental_uris": {"android": "https://dc.lft.to/lastmile_qr_scan", "ios": "https://dc.lft.to/lastmile_qr_scan"}, "is_reserved": 0, "is_disabled": 0, "name": "8992b0f79c6fe5beeca36c9bc0149904", "bike_id": "8992b0f79c6fe5beeca36c9bc0149904", "fusion_lat": 0.0, "lon": -76.99370666666667, "type": "electric_bike", "fusion_lon": 0.0, "lat": 38.9909135}, {"rental_uris": {"android": "https://dc.lft.to/lastmile_qr_scan", "ios": "https://dc.lft.to/lastmile_qr_scan"}, "is_reserved": 0, "is_disabled": 0, "name": "fdc6366403038e69228cba998daa9fcd", "bike_id": "fdc6366403038e69228cba998daa9fcd", "fusion_lat": 0.0, "lon": -77.04158133333334, "type": "electric_scooter", "fusion_lon": 0.0, "lat": 38.91746366666667}, {"rental_uris": {"android": "https://dc.lft.to/lastmile_qr_scan", "ios": "https://dc.lft.to/lastmile_qr_scan"}, "is_reserved": 0, "is_disabled": 0, "name": "ca5824ee4aed7d7cf9b75bba130f1dae", "bike_id": "ca5824ee4aed7d7cf9b75bba130f1dae", "fusion_lat": 0.0, "lon": -77.05451066666667, "type": "electric_scooter", "fusion_lon": 0.0, "lat": 38.92828983333333}, {"rental_uris": {"android": "https://dc.lft.to/lastmile_qr_scan", "ios": "https://dc.lft.to/lastmile_qr_scan"}, "is_reserved": 0, "is_disabled": 0, "name": "f511efaf3da76b775552109dd5a0f9d3", "bike_id": "f511efaf3da76b775552109dd5a0f9d3", "fusion_lat": 0.0, "lon": -76.99349983333333, "type": "electric_scooter", "fusion_lon": 0.0, "lat": 38.90002033333333}, {"rental_uris": {"android": "https://dc.lft.to/lastmile_qr_scan", "ios": "https://dc.lft.to/lastmile_qr_scan"}, "is_reserved": 0, "is_disabled": 0, "name": "686b860ef7bad7fdabc7399d0df5ae6a", "bike_id": "686b860ef7bad7fdabc7399d0df5ae6a", "fusion_lat": 0.0, "lon": -77.020973, "type": "electric_scooter", "fusion_lon": 0.0, "lat": 38.92148983333333}, {"rental_uris": {"android": "https://dc.lft.to/lastmile_qr_scan", "ios": "https://dc.lft.to/lastmile_qr_scan"}, "is_reserved": 0, "is_disabled": 0, "name": "edeaf9a66ea1283d08e69ea97ede5e17", "bike_id": "edeaf9a66ea1283d08e69ea97ede5e17", "fusion_lat": 0.0, "lon": -77.025553, "type": "electric_scooter", "fusion_lon": 0.0, "lat": 38.94822816666667}, {"rental_uris": {"android": "https://dc.lft.to/lastmile_qr_scan", "ios": "https://dc.lft.to/lastmile_qr_scan"}, "is_reserved": 0, "is_disabled": 0, "name": "271c220bfdce5e640ad5c4ab0d194dc1", "bike_id": "271c220bfdce5e640ad5c4ab0d194dc1", "fusion_lat": 0.0, "lon": -77.03502166666667, "type": "electric_scooter", "fusion_lon": 0.0, "lat": 38.923408333333334}, {"rental_uris": {"android": "https://dc.lft.to/lastmile_qr_scan", "ios": "https://dc.lft.to/lastmile_qr_scan"}, "is_reserved": 0, "is_disabled": 0, "name": "a117c9589ab1670112c7e0605b2693d6", "bike_id": "a117c9589ab1670112c7e0605b2693d6", "fusion_lat": 0.0, "lon": -77.03214816666667, "type": "electric_scooter", "fusion_lon": 0.0, "lat": 38.907619333333336}, {"rental_uris": {"android": "https://dc.lft.to/lastmile_qr_scan", "ios": "https://dc.lft.to/lastmile_qr_scan"}, "is_reserved": 0, "is_disabled": 0, "name": "2f921ae7fd9e4ffc275d7b2059fdd69c", "bike_id": "2f921ae7fd9e4ffc275d7b2059fdd69c", "fusion_lat": 0.0, "lon": -77.0307835, "type": "electric_scooter", "fusion_lon": 0.0, "lat": 38.898359666666664}, {"rental_uris": {"android": "https://dc.lft.to/lastmile_qr_scan", "ios": "https://dc.lft.to/lastmile_qr_scan"}, "is_reserved": 0, "is_disabled": 0, "name": "d297cbd99afc95fd1d5353547b9b0d71", "bike_id": "d297cbd99afc95fd1d5353547b9b0d71", "fusion_lat": 0.0, "lon": -77.015168, "type": "electric_scooter", "fusion_lon": 0.0, "lat": 38.8873535}, {"rental_uris": {"android": "https://dc.lft.to/lastmile_qr_scan", "ios": "https://dc.lft.to/lastmile_qr_scan"}, "is_reserved": 0, "is_disabled": 0, "name": "f8370bf16690b238e5c1a92314aeba48", "bike_id": "f8370bf16690b238e5c1a92314aeba48", "fusion_lat": 0.0, "lon": -77.01474033333334, "type": "electric_scooter", "fusion_lon": 0.0, "lat": 38.9267075}, {"rental_uris": {"android": "https://dc.lft.to/lastmile_qr_scan", "ios": "https://dc.lft.to/lastmile_qr_scan"}, "is_reserved": 0, "is_disabled": 0, "name": "a8ce6312ae82130d59f3aa350faf543b", "bike_id": "a8ce6312ae82130d59f3aa350faf543b", "fusion_lat": 0.0, "lon": -77.04660416666667, "type": "electric_scooter", "fusion_lon": 0.0, "lat": 38.89333966666667}, {"rental_uris": {"android": "https://dc.lft.to/lastmile_qr_scan", "ios": "https://dc.lft.to/lastmile_qr_scan"}, "is_reserved": 0, "is_disabled": 0, "name": "adee0b31f7de06004dfe3b950c080c61", "bike_id": "adee0b31f7de06004dfe3b950c080c61", "fusion_lat": 0.0, "lon": -77.04469266666666, "type": "electric_scooter", "fusion_lon": 0.0, "lat": 38.90372266666667}, {"rental_uris": {"android": "https://dc.lft.to/lastmile_qr_scan", "ios": "https://dc.lft.to/lastmile_qr_scan"}, "is_reserved": 0, "is_disabled": 0, "name": "2d0a445faf31889d81bfe8247218d1a1", "bike_id": "2d0a445faf31889d81bfe8247218d1a1", "fusion_lat": 0.0, "lon": -77.0454395, "type": "electric_scooter", "fusion_lon": 0.0, "lat": 38.90580833333333}, {"rental_uris": {"android": "https://dc.lft.to/lastmile_qr_scan", "ios": "https://dc.lft.to/lastmile_qr_scan"}, "is_reserved": 0, "is_disabled": 0, "name": "3c81ca0a0f52224fa312311b59f2ce5f", "bike_id": "3c81ca0a0f52224fa312311b59f2ce5f", "fusion_lat": 0.0, "lon": -76.961636, "type": "electric_bike", "fusion_lon": 0.0, "lat": 38.9502265}, {"rental_uris": {"android": "https://dc.lft.to/lastmile_qr_scan", "ios": "https://dc.lft.to/lastmile_qr_scan"}, "is_reserved": 0, "is_disabled": 0, "name": "c35f7e9eeaceddf733353d83b76e3e00", "bike_id": "c35f7e9eeaceddf733353d83b76e3e00", "fusion_lat": 0.0, "lon": -77.01959583333333, "type": "electric_scooter", "fusion_lon": 0.0, "lat": 38.924272}, {"rental_uris": {"android": "https://dc.lft.to/lastmile_qr_scan", "ios": "https://dc.lft.to/lastmile_qr_scan"}, "is_reserved": 0, "is_disabled": 0, "name": "8470b5e29420a5b14329d2b0a17f5028", "bike_id": "8470b5e29420a5b14329d2b0a17f5028", "fusion_lat": 0.0, "lon": -77.03827, "type": "electric_scooter", "fusion_lon": 0.0, "lat": 38.930632833333334}, {"rental_uris": {"android": "https://dc.lft.to/lastmile_qr_scan", "ios": "https://dc.lft.to/lastmile_qr_scan"}, "is_reserved": 0, "is_disabled": 0, "name": "21cf9fd30b35ea28eb575ba2825f3c67", "bike_id": "21cf9fd30b35ea28eb575ba2825f3c67", "fusion_lat": 0.0, "lon": -77.03886433333334, "type": "electric_scooter", "fusion_lon": 0.0, "lat": 38.9184435}, {"rental_uris": {"android": "https://dc.lft.to/lastmile_qr_scan", "ios": "https://dc.lft.to/lastmile_qr_scan"}, "is_reserved": 0, "is_disabled": 0, "name": "3c62560b968a71bfb5f0962da607af63", "bike_id": "3c62560b968a71bfb5f0962da607af63", "fusion_lat": 0.0, "lon": -77.03278133333333, "type": "electric_scooter", "fusion_lon": 0.0, "lat": 38.898745}, {"rental_uris": {"android": "https://dc.lft.to/lastmile_qr_scan", "ios": "https://dc.lft.to/lastmile_qr_scan"}, "is_reserved": 0, "is_disabled": 0, "name": "15b589380efc88106cff729758eaa8df", "bike_id": "15b589380efc88106cff729758eaa8df", "fusion_lat": 0.0, "lon": -77.0422865, "type": "electric_scooter", "fusion_lon": 0.0, "lat": 38.903643833333334}, {"rental_uris": {"android": "https://dc.lft.to/lastmile_qr_scan", "ios": "https://dc.lft.to/lastmile_qr_scan"}, "is_reserved": 0, "is_disabled": 0, "name": "d7f3c6790399ed9cac315210cb53a87b", "bike_id": "d7f3c6790399ed9cac315210cb53a87b", "fusion_lat": 0.0, "lon": -77.05072383333334, "type": "electric_scooter", "fusion_lon": 0.0, "lat": 38.91133216666667}, {"rental_uris": {"android": "https://dc.lft.to/lastmile_qr_scan", "ios": "https://dc.lft.to/lastmile_qr_scan"}, "is_reserved": 0, "is_disabled": 0, "name": "c265b38413676cfcd1a44253bc38b612", "bike_id": "c265b38413676cfcd1a44253bc38b612", "fusion_lat": 0.0, "lon": -77.06458266666667, "type": "electric_scooter", "fusion_lon": 0.0, "lat": 38.9488955}, {"rental_uris": {"android": "https://dc.lft.to/lastmile_qr_scan", "ios": "https://dc.lft.to/lastmile_qr_scan"}, "is_reserved": 0, "is_disabled": 0, "name": "ea1a790e847805b5a34e3f9ba8b7e594", "bike_id": "ea1a790e847805b5a34e3f9ba8b7e594", "fusion_lat": 0.0, "lon": -77.01688416666667, "type": "electric_scooter", "fusion_lon": 0.0, "lat": 38.906484666666664}, {"rental_uris": {"android": "https://dc.lft.to/lastmile_qr_scan", "ios": "https://dc.lft.to/lastmile_qr_scan"}, "is_reserved": 0, "is_disabled": 0, "name": "ef4a8e9b107bafe6811308f65455176d", "bike_id": "ef4a8e9b107bafe6811308f65455176d", "fusion_lat": 0.0, "lon": -77.02832416666666, "type": "electric_scooter", "fusion_lon": 0.0, "lat": 38.90241816666666}, {"rental_uris": {"android": "https://dc.lft.to/lastmile_qr_scan", "ios": "https://dc.lft.to/lastmile_qr_scan"}, "is_reserved": 0, "is_disabled": 0, "name": "e66ab26cd4850f92e9eab6bdac02a8ab", "bike_id": "e66ab26cd4850f92e9eab6bdac02a8ab", "fusion_lat": 0.0, "lon": -77.03090716666667, "type": "electric_scooter", "fusion_lon": 0.0, "lat": 38.89834166666667}, {"rental_uris": {"android": "https://dc.lft.to/lastmile_qr_scan", "ios": "https://dc.lft.to/lastmile_qr_scan"}, "is_reserved": 0, "is_disabled": 0, "name": "79e0521fa0ceb760cd34957cce34c4de", "bike_id": "79e0521fa0ceb760cd34957cce34c4de", "fusion_lat": 0.0, "lon": -77.028264, "type": "electric_scooter", "fusion_lon": 0.0, "lat": 38.887324666666665}, {"rental_uris": {"android": "https://dc.lft.to/lastmile_qr_scan", "ios": "https://dc.lft.to/lastmile_qr_scan"}, "is_reserved": 0, "is_disabled": 0, "name": "18dcf9dbe65d81d8e49062e88a174d3b", "bike_id": "18dcf9dbe65d81d8e49062e88a174d3b", "fusion_lat": 0.0, "lon": -77.028205, "type": "electric_scooter", "fusion_lon": 0.0, "lat": 38.892759}, {"rental_uris": {"android": "https://dc.lft.to/lastmile_qr_scan", "ios": "https://dc.lft.to/lastmile_qr_scan"}, "is_reserved": 0, "is_disabled": 0, "name": "9d34190474ab574aa6857f7f48b4e4ee", "bike_id": "9d34190474ab574aa6857f7f48b4e4ee", "fusion_lat": 0.0, "lon": -77.04506183333334, "type": "electric_scooter", "fusion_lon": 0.0, "lat": 38.89218616666667}, {"rental_uris": {"android": "https://dc.lft.to/lastmile_qr_scan", "ios": "https://dc.lft.to/lastmile_qr_scan"}, "is_reserved": 0, "is_disabled": 0, "name": "cc11a0e8fcaf1cb5de9848074b6ee650", "bike_id": "cc11a0e8fcaf1cb5de9848074b6ee650", "fusion_lat": 0.0, "lon": -77.03597066666667, "type": "electric_scooter", "fusion_lon": 0.0, "lat": 38.90958666666667}, {"rental_uris": {"android": "https://dc.lft.to/lastmile_qr_scan", "ios": "https://dc.lft.to/lastmile_qr_scan"}, "is_reserved": 0, "is_disabled": 0, "name": "72329430207cbec78df2bf0db90d9b91", "bike_id": "72329430207cbec78df2bf0db90d9b91", "fusion_lat": 0.0, "lon": -76.92502366666666, "type": "electric_scooter", "fusion_lon": 0.0, "lat": 38.88599933333333}, {"rental_uris": {"android": "https://dc.lft.to/lastmile_qr_scan", "ios": "https://dc.lft.to/lastmile_qr_scan"}, "is_reserved": 0, "is_disabled": 0, "name": "716a72de7db9470f21fd167f51dd1751", "bike_id": "716a72de7db9470f21fd167f51dd1751", "fusion_lat": 0.0, "lon": -76.98239133333334, "type": "electric_scooter", "fusion_lon": 0.0, "lat": 38.908887}, {"rental_uris": {"android": "https://dc.lft.to/lastmile_qr_scan", "ios": "https://dc.lft.to/lastmile_qr_scan"}, "is_reserved": 0, "is_disabled": 0, "name": "6699cc9ace687ab4d89be7ffc3f6da8e", "bike_id": "6699cc9ace687ab4d89be7ffc3f6da8e", "fusion_lat": 0.0, "lon": -76.93226066666666, "type": "electric_scooter", "fusion_lon": 0.0, "lat": 38.880495}, {"rental_uris": {"android": "https://dc.lft.to/lastmile_qr_scan", "ios": "https://dc.lft.to/lastmile_qr_scan"}, "is_reserved": 0, "is_disabled": 0, "name": "c91ad1ee75d07418ddf60ad89236c6f5", "bike_id": "c91ad1ee75d07418ddf60ad89236c6f5", "fusion_lat": 0.0, "lon": -77.0165415, "type": "electric_bike", "fusion_lon": 0.0, "lat": 38.8811975}, {"rental_uris": {"android": "https://dc.lft.to/lastmile_qr_scan", "ios": "https://dc.lft.to/lastmile_qr_scan"}, "is_reserved": 0, "is_disabled": 0, "name": "7bf90cedfe54b6fda017a5c9f7023ff5", "bike_id": "7bf90cedfe54b6fda017a5c9f7023ff5", "fusion_lat": 0.0, "lon": -77.045098, "type": "electric_scooter", "fusion_lon": 0.0, "lat": 38.914083}, {"rental_uris": {"android": "https://dc.lft.to/lastmile_qr_scan", "ios": "https://dc.lft.to/lastmile_qr_scan"}, "is_reserved": 0, "is_disabled": 0, "name": "f9e7eb99cdb89ee20dd1b6aca93eb767", "bike_id": "f9e7eb99cdb89ee20dd1b6aca93eb767", "fusion_lat": 0.0, "lon": -77.04017433333334, "type": "electric_scooter", "fusion_lon": 0.0, "lat": 38.918026833333336}, {"rental_uris": {"android": "https://dc.lft.to/lastmile_qr_scan", "ios": "https://dc.lft.to/lastmile_qr_scan"}, "is_reserved": 0, "is_disabled": 0, "name": "8871096daf125700f98fee64089c525f", "bike_id": "8871096daf125700f98fee64089c525f", "fusion_lat": 0.0, "lon": -76.9901895, "type": "electric_scooter", "fusion_lon": 0.0, "lat": 38.892036166666664}, {"rental_uris": {"android": "https://dc.lft.to/lastmile_qr_scan", "ios": "https://dc.lft.to/lastmile_qr_scan"}, "is_reserved": 0, "is_disabled": 0, "name": "bea399213d3df93b4ba3b9c73403f03f", "bike_id": "bea399213d3df93b4ba3b9c73403f03f", "fusion_lat": 0.0, "lon": -77.05347116666667, "type": "electric_scooter", "fusion_lon": 0.0, "lat": 38.92367516666667}, {"rental_uris": {"android": "https://dc.lft.to/lastmile_qr_scan", "ios": "https://dc.lft.to/lastmile_qr_scan"}, "is_reserved": 0, "is_disabled": 0, "name": "6044c0241107056ff93a0fccdf1e00f2", "bike_id": "6044c0241107056ff93a0fccdf1e00f2", "fusion_lat": 0.0, "lon": -77.04193383333333, "type": "electric_scooter", "fusion_lon": 0.0, "lat": 38.90733616666667}, {"rental_uris": {"android": "https://dc.lft.to/lastmile_qr_scan", "ios": "https://dc.lft.to/lastmile_qr_scan"}, "is_reserved": 0, "is_disabled": 0, "name": "05af1771954f92e1a02e32ccbab5e341", "bike_id": "05af1771954f92e1a02e32ccbab5e341", "fusion_lat": 0.0, "lon": -76.99951333333334, "type": "electric_scooter", "fusion_lon": 0.0, "lat": 38.8918175}, {"rental_uris": {"android": "https://dc.lft.to/lastmile_qr_scan", "ios": "https://dc.lft.to/lastmile_qr_scan"}, "is_reserved": 0, "is_disabled": 0, "name": "38b2bc43b860a6785ad874830ae1b301", "bike_id": "38b2bc43b860a6785ad874830ae1b301", "fusion_lat": 0.0, "lon": -77.0049935, "type": "electric_bike", "fusion_lon": 0.0, "lat": 38.88034233333333}, {"rental_uris": {"android": "https://dc.lft.to/lastmile_qr_scan", "ios": "https://dc.lft.to/lastmile_qr_scan"}, "is_reserved": 0, "is_disabled": 0, "name": "e3dde39daef3b4734e63cd8909780e49", "bike_id": "e3dde39daef3b4734e63cd8909780e49", "fusion_lat": 0.0, "lon": -77.03095766666667, "type": "electric_scooter", "fusion_lon": 0.0, "lat": 38.910590666666664}, {"rental_uris": {"android": "https://dc.lft.to/lastmile_qr_scan", "ios": "https://dc.lft.to/lastmile_qr_scan"}, "is_reserved": 0, "is_disabled": 0, "name": "d022a4eb75ef7608679ecc1e9d76c3ba", "bike_id": "d022a4eb75ef7608679ecc1e9d76c3ba", "fusion_lat": 0.0, "lon": -77.0191295, "type": "electric_bike", "fusion_lon": 0.0, "lat": 38.937760833333336}, {"rental_uris": {"android": "https://dc.lft.to/lastmile_qr_scan", "ios": "https://dc.lft.to/lastmile_qr_scan"}, "is_reserved": 0, "is_disabled": 0, "name": "d9249e7bb4ae8b43e708816483c143eb", "bike_id": "d9249e7bb4ae8b43e708816483c143eb", "fusion_lat": 0.0, "lon": -77.044551, "type": "electric_bike", "fusion_lon": 0.0, "lat": 38.90150966666667}, {"rental_uris": {"android": "https://dc.lft.to/lastmile_qr_scan", "ios": "https://dc.lft.to/lastmile_qr_scan"}, "is_reserved": 0, "is_disabled": 0, "name": "c2d655b8ba61c253a33128128421f428", "bike_id": "c2d655b8ba61c253a33128128421f428", "fusion_lat": 0.0, "lon": -77.013795, "type": "electric_scooter", "fusion_lon": 0.0, "lat": 38.88703}, {"rental_uris": {"android": "https://dc.lft.to/lastmile_qr_scan", "ios": "https://dc.lft.to/lastmile_qr_scan"}, "is_reserved": 0, "is_disabled": 0, "name": "3b58f3f2c589b1c0adbf658d3eca0a28", "bike_id": "3b58f3f2c589b1c0adbf658d3eca0a28", "fusion_lat": 0.0, "lon": -77.01136116666666, "type": "electric_scooter", "fusion_lon": 0.0, "lat": 38.90720233333333}, {"rental_uris": {"android": "https://dc.lft.to/lastmile_qr_scan", "ios": "https://dc.lft.to/lastmile_qr_scan"}, "is_reserved": 0, "is_disabled": 0, "name": "3892739b482a02fbc3eb499f92ed7698", "bike_id": "3892739b482a02fbc3eb499f92ed7698", "fusion_lat": 0.0, "lon": -77.024885, "type": "electric_scooter", "fusion_lon": 0.0, "lat": 38.901687}, {"rental_uris": {"android": "https://dc.lft.to/lastmile_qr_scan", "ios": "https://dc.lft.to/lastmile_qr_scan"}, "is_reserved": 0, "is_disabled": 0, "name": "94097c148fbdad80f548d20dceba4830", "bike_id": "94097c148fbdad80f548d20dceba4830", "fusion_lat": 0.0, "lon": -77.0297645, "type": "electric_scooter", "fusion_lon": 0.0, "lat": 38.916794333333335}, {"rental_uris": {"android": "https://dc.lft.to/lastmile_qr_scan", "ios": "https://dc.lft.to/lastmile_qr_scan"}, "is_reserved": 0, "is_disabled": 0, "name": "89e5ffa4ace83bd29d4c6198efbe41e1", "bike_id": "89e5ffa4ace83bd29d4c6198efbe41e1", "fusion_lat": 0.0, "lon": -77.03918566666667, "type": "electric_scooter", "fusion_lon": 0.0, "lat": 38.92491833333333}, {"rental_uris": {"android": "https://dc.lft.to/lastmile_qr_scan", "ios": "https://dc.lft.to/lastmile_qr_scan"}, "is_reserved": 0, "is_disabled": 0, "name": "f8c514ab63279916599805df7b9baa53", "bike_id": "f8c514ab63279916599805df7b9baa53", "fusion_lat": 0.0, "lon": -77.02366533333333, "type": "electric_scooter", "fusion_lon": 0.0, "lat": 38.879265833333335}, {"rental_uris": {"android": "https://dc.lft.to/lastmile_qr_scan", "ios": "https://dc.lft.to/lastmile_qr_scan"}, "is_reserved": 0, "is_disabled": 0, "name": "47c5b7446a783e4acd2036fecbf077a0", "bike_id": "47c5b7446a783e4acd2036fecbf077a0", "fusion_lat": 0.0, "lon": -76.98243183333334, "type": "electric_scooter", "fusion_lon": 0.0, "lat": 38.895390666666664}, {"rental_uris": {"android": "https://dc.lft.to/lastmile_qr_scan", "ios": "https://dc.lft.to/lastmile_qr_scan"}, "is_reserved": 0, "is_disabled": 0, "name": "3a07763a04ce4965300a78fc31ddfd2b", "bike_id": "3a07763a04ce4965300a78fc31ddfd2b", "fusion_lat": 0.0, "lon": -77.04339866666666, "type": "electric_scooter", "fusion_lon": 0.0, "lat": 38.90210883333334}, {"rental_uris": {"android": "https://dc.lft.to/lastmile_qr_scan", "ios": "https://dc.lft.to/lastmile_qr_scan"}, "is_reserved": 0, "is_disabled": 0, "name": "91a967d2558c01a4a867af192bf75f50", "bike_id": "91a967d2558c01a4a867af192bf75f50", "fusion_lat": 0.0, "lon": -77.02589016666667, "type": "electric_scooter", "fusion_lon": 0.0, "lat": 38.92030066666667}, {"rental_uris": {"android": "https://dc.lft.to/lastmile_qr_scan", "ios": "https://dc.lft.to/lastmile_qr_scan"}, "is_reserved": 0, "is_disabled": 0, "name": "a8b933a2d2ebf1623c7288a4e8908298", "bike_id": "a8b933a2d2ebf1623c7288a4e8908298", "fusion_lat": 0.0, "lon": -77.0504015, "type": "electric_scooter", "fusion_lon": 0.0, "lat": 38.92365733333333}, {"rental_uris": {"android": "https://dc.lft.to/lastmile_qr_scan", "ios": "https://dc.lft.to/lastmile_qr_scan"}, "is_reserved": 0, "is_disabled": 0, "name": "8e47370a422dac607f7eb6162edc0a10", "bike_id": "8e47370a422dac607f7eb6162edc0a10", "fusion_lat": 0.0, "lon": -77.034623, "type": "electric_scooter", "fusion_lon": 0.0, "lat": 38.918908333333334}, {"rental_uris": {"android": "https://dc.lft.to/lastmile_qr_scan", "ios": "https://dc.lft.to/lastmile_qr_scan"}, "is_reserved": 0, "is_disabled": 0, "name": "8ca74ebbbc06cc6762978f45ecd4ba67", "bike_id": "8ca74ebbbc06cc6762978f45ecd4ba67", "fusion_lat": 0.0, "lon": -76.92593216666667, "type": "electric_scooter", "fusion_lon": 0.0, "lat": 38.89722866666666}, {"rental_uris": {"android": "https://dc.lft.to/lastmile_qr_scan", "ios": "https://dc.lft.to/lastmile_qr_scan"}, "is_reserved": 0, "is_disabled": 0, "name": "23ef21e2adc534a8bb2c1f1d79d0b11a", "bike_id": "23ef21e2adc534a8bb2c1f1d79d0b11a", "fusion_lat": 0.0, "lon": -77.02889116666667, "type": "electric_scooter", "fusion_lon": 0.0, "lat": 38.92674916666667}, {"rental_uris": {"android": "https://dc.lft.to/lastmile_qr_scan", "ios": "https://dc.lft.to/lastmile_qr_scan"}, "is_reserved": 0, "is_disabled": 0, "name": "102b0d473e87881d89ec9dc1266fbd0c", "bike_id": "102b0d473e87881d89ec9dc1266fbd0c", "fusion_lat": 0.0, "lon": -77.00920066666667, "type": "electric_scooter", "fusion_lon": 0.0, "lat": 38.913775666666666}, {"rental_uris": {"android": "https://dc.lft.to/lastmile_qr_scan", "ios": "https://dc.lft.to/lastmile_qr_scan"}, "is_reserved": 0, "is_disabled": 0, "name": "1399092ad8bdb70a6cde45f207dca85d", "bike_id": "1399092ad8bdb70a6cde45f207dca85d", "fusion_lat": 0.0, "lon": -77.009171, "type": "electric_scooter", "fusion_lon": 0.0, "lat": 38.895439333333336}, {"rental_uris": {"android": "https://dc.lft.to/lastmile_qr_scan", "ios": "https://dc.lft.to/lastmile_qr_scan"}, "is_reserved": 0, "is_disabled": 0, "name": "8cddf3a409cf7b80ebeb4739245512a2", "bike_id": "8cddf3a409cf7b80ebeb4739245512a2", "fusion_lat": 0.0, "lon": -77.04008016666667, "type": "electric_scooter", "fusion_lon": 0.0, "lat": 38.924261}, {"rental_uris": {"android": "https://dc.lft.to/lastmile_qr_scan", "ios": "https://dc.lft.to/lastmile_qr_scan"}, "is_reserved": 0, "is_disabled": 0, "name": "8df6accbf3ba7285f0fb75a423683ac3", "bike_id": "8df6accbf3ba7285f0fb75a423683ac3", "fusion_lat": 0.0, "lon": -77.02431616666667, "type": "electric_scooter", "fusion_lon": 0.0, "lat": 38.90772033333333}, {"rental_uris": {"android": "https://dc.lft.to/lastmile_qr_scan", "ios": "https://dc.lft.to/lastmile_qr_scan"}, "is_reserved": 0, "is_disabled": 0, "name": "28e6a023ca27c26d1242f1019d47a931", "bike_id": "28e6a023ca27c26d1242f1019d47a931", "fusion_lat": 0.0, "lon": -77.01889633333333, "type": "electric_scooter", "fusion_lon": 0.0, "lat": 38.903109666666666}, {"rental_uris": {"android": "https://dc.lft.to/lastmile_qr_scan", "ios": "https://dc.lft.to/lastmile_qr_scan"}, "is_reserved": 0, "is_disabled": 0, "name": "83b6fa70b830dd2a3e90c2db5f51f1de", "bike_id": "83b6fa70b830dd2a3e90c2db5f51f1de", "fusion_lat": 0.0, "lon": -76.98646016666666, "type": "electric_scooter", "fusion_lon": 0.0, "lat": 38.855023833333334}, {"rental_uris": {"android": "https://dc.lft.to/lastmile_qr_scan", "ios": "https://dc.lft.to/lastmile_qr_scan"}, "is_reserved": 0, "is_disabled": 0, "name": "552850909737c451072f324fa4e79841", "bike_id": "552850909737c451072f324fa4e79841", "fusion_lat": 0.0, "lon": -77.0316925, "type": "electric_scooter", "fusion_lon": 0.0, "lat": 38.918107666666664}, {"rental_uris": {"android": "https://dc.lft.to/lastmile_qr_scan", "ios": "https://dc.lft.to/lastmile_qr_scan"}, "is_reserved": 0, "is_disabled": 0, "name": "2ffe008ededce1541c547b0042286738", "bike_id": "2ffe008ededce1541c547b0042286738", "fusion_lat": 0.0, "lon": -77.01572983333334, "type": "electric_scooter", "fusion_lon": 0.0, "lat": 38.9268405}, {"rental_uris": {"android": "https://dc.lft.to/lastmile_qr_scan", "ios": "https://dc.lft.to/lastmile_qr_scan"}, "is_reserved": 0, "is_disabled": 0, "name": "fc1a985870b4b80abd1b47eac8e29a3f", "bike_id": "fc1a985870b4b80abd1b47eac8e29a3f", "fusion_lat": 0.0, "lon": -77.029049, "type": "electric_scooter", "fusion_lon": 0.0, "lat": 38.90032383333333}, {"rental_uris": {"android": "https://dc.lft.to/lastmile_qr_scan", "ios": "https://dc.lft.to/lastmile_qr_scan"}, "is_reserved": 0, "is_disabled": 0, "name": "2a52e0887d7467573a637ea999b6f276", "bike_id": "2a52e0887d7467573a637ea999b6f276", "fusion_lat": 0.0, "lon": -76.98694066666667, "type": "electric_bike", "fusion_lon": 0.0, "lat": 38.9446545}, {"rental_uris": {"android": "https://dc.lft.to/lastmile_qr_scan", "ios": "https://dc.lft.to/lastmile_qr_scan"}, "is_reserved": 0, "is_disabled": 0, "name": "f64bc8800eefd34451c6e7326d75e858", "bike_id": "f64bc8800eefd34451c6e7326d75e858", "fusion_lat": 0.0, "lon": -77.00756116666666, "type": "electric_scooter", "fusion_lon": 0.0, "lat": 38.897959}, {"rental_uris": {"android": "https://dc.lft.to/lastmile_qr_scan", "ios": "https://dc.lft.to/lastmile_qr_scan"}, "is_reserved": 0, "is_disabled": 0, "name": "0bb779d72b0dadc93835be66c0673164", "bike_id": "0bb779d72b0dadc93835be66c0673164", "fusion_lat": 0.0, "lon": -77.04696166666666, "type": "electric_scooter", "fusion_lon": 0.0, "lat": 38.896081333333335}, {"rental_uris": {"android": "https://dc.lft.to/lastmile_qr_scan", "ios": "https://dc.lft.to/lastmile_qr_scan"}, "is_reserved": 0, "is_disabled": 0, "name": "fbe43f085e3a4ba96ef6ae65a0027ec0", "bike_id": "fbe43f085e3a4ba96ef6ae65a0027ec0", "fusion_lat": 0.0, "lon": -77.02440233333333, "type": "electric_scooter", "fusion_lon": 0.0, "lat": 38.90064016666667}, {"rental_uris": {"android": "https://dc.lft.to/lastmile_qr_scan", "ios": "https://dc.lft.to/lastmile_qr_scan"}, "is_reserved": 0, "is_disabled": 0, "name": "c1fee419c245889531787d2992336f7b", "bike_id": "c1fee419c245889531787d2992336f7b", "fusion_lat": 0.0, "lon": -77.04147716666667, "type": "electric_scooter", "fusion_lon": 0.0, "lat": 38.92350833333333}, {"rental_uris": {"android": "https://dc.lft.to/lastmile_qr_scan", "ios": "https://dc.lft.to/lastmile_qr_scan"}, "is_reserved": 0, "is_disabled": 0, "name": "4058f33f462de0eaa74830ac6b422fcc", "bike_id": "4058f33f462de0eaa74830ac6b422fcc", "fusion_lat": 0.0, "lon": -77.02874033333333, "type": "electric_scooter", "fusion_lon": 0.0, "lat": 38.91685183333333}, {"rental_uris": {"android": "https://dc.lft.to/lastmile_qr_scan", "ios": "https://dc.lft.to/lastmile_qr_scan"}, "is_reserved": 0, "is_disabled": 0, "name": "a360bffe8ec8216351e49acd0ca41d10", "bike_id": "a360bffe8ec8216351e49acd0ca41d10", "fusion_lat": 0.0, "lon": -77.03989866666667, "type": "electric_scooter", "fusion_lon": 0.0, "lat": 38.9182775}, {"rental_uris": {"android": "https://dc.lft.to/lastmile_qr_scan", "ios": "https://dc.lft.to/lastmile_qr_scan"}, "is_reserved": 0, "is_disabled": 0, "name": "95713941aa345bf2f55f01beeb64a6d1", "bike_id": "95713941aa345bf2f55f01beeb64a6d1", "fusion_lat": 0.0, "lon": -77.02833083333333, "type": "electric_scooter", "fusion_lon": 0.0, "lat": 38.938837}, {"rental_uris": {"android": "https://dc.lft.to/lastmile_qr_scan", "ios": "https://dc.lft.to/lastmile_qr_scan"}, "is_reserved": 0, "is_disabled": 0, "name": "ccdf003e2a5d6ec28c5e8b80631d01ac", "bike_id": "ccdf003e2a5d6ec28c5e8b80631d01ac", "fusion_lat": 0.0, "lon": -77.02405766666666, "type": "electric_scooter", "fusion_lon": 0.0, "lat": 38.8942365}, {"rental_uris": {"android": "https://dc.lft.to/lastmile_qr_scan", "ios": "https://dc.lft.to/lastmile_qr_scan"}, "is_reserved": 0, "is_disabled": 0, "name": "d9c5ec080d1fba9728604521b43df3cb", "bike_id": "d9c5ec080d1fba9728604521b43df3cb", "fusion_lat": 0.0, "lon": -77.02803783333333, "type": "electric_scooter", "fusion_lon": 0.0, "lat": 38.89225916666667}, {"rental_uris": {"android": "https://dc.lft.to/lastmile_qr_scan", "ios": "https://dc.lft.to/lastmile_qr_scan"}, "is_reserved": 0, "is_disabled": 0, "name": "f8d3a008fa24fa9d70c4e141bfe79d8c", "bike_id": "f8d3a008fa24fa9d70c4e141bfe79d8c", "fusion_lat": 0.0, "lon": -77.038292, "type": "electric_scooter", "fusion_lon": 0.0, "lat": 38.90386083333333}, {"rental_uris": {"android": "https://dc.lft.to/lastmile_qr_scan", "ios": "https://dc.lft.to/lastmile_qr_scan"}, "is_reserved": 0, "is_disabled": 0, "name": "1f11e4d6b1f13692dc8e76c2199e5cf8", "bike_id": "1f11e4d6b1f13692dc8e76c2199e5cf8", "fusion_lat": 0.0, "lon": -77.18318, "type": "electric_bike", "fusion_lon": 0.0, "lat": 38.89087583333333}, {"rental_uris": {"android": "https://dc.lft.to/lastmile_qr_scan", "ios": "https://dc.lft.to/lastmile_qr_scan"}, "is_reserved": 0, "is_disabled": 0, "name": "12a8f3d8a7569784dbe480ccea6524fe", "bike_id": "12a8f3d8a7569784dbe480ccea6524fe", "fusion_lat": 0.0, "lon": -77.04331533333334, "type": "electric_scooter", "fusion_lon": 0.0, "lat": 38.90428883333333}, {"rental_uris": {"android": "https://dc.lft.to/lastmile_qr_scan", "ios": "https://dc.lft.to/lastmile_qr_scan"}, "is_reserved": 0, "is_disabled": 0, "name": "be548d8cc38df18f391c1eb3e974e060", "bike_id": "be548d8cc38df18f391c1eb3e974e060", "fusion_lat": 0.0, "lon": -77.03484666666667, "type": "electric_scooter", "fusion_lon": 0.0, "lat": 38.90138783333333}, {"rental_uris": {"android": "https://dc.lft.to/lastmile_qr_scan", "ios": "https://dc.lft.to/lastmile_qr_scan"}, "is_reserved": 0, "is_disabled": 0, "name": "27b3b94534efbbb28bec8d2b30727ed8", "bike_id": "27b3b94534efbbb28bec8d2b30727ed8", "fusion_lat": 0.0, "lon": -77.01773516666667, "type": "electric_scooter", "fusion_lon": 0.0, "lat": 38.92115533333333}, {"rental_uris": {"android": "https://dc.lft.to/lastmile_qr_scan", "ios": "https://dc.lft.to/lastmile_qr_scan"}, "is_reserved": 0, "is_disabled": 0, "name": "fa28e1d6423da1d652f65d0314330e04", "bike_id": "fa28e1d6423da1d652f65d0314330e04", "fusion_lat": 0.0, "lon": -77.0345885, "type": "electric_scooter", "fusion_lon": 0.0, "lat": 38.90417166666667}, {"rental_uris": {"android": "https://dc.lft.to/lastmile_qr_scan", "ios": "https://dc.lft.to/lastmile_qr_scan"}, "is_reserved": 0, "is_disabled": 0, "name": "42c3ea27bbc58368d6cf8d2d17622b56", "bike_id": "42c3ea27bbc58368d6cf8d2d17622b56", "fusion_lat": 0.0, "lon": -77.04678383333334, "type": "electric_scooter", "fusion_lon": 0.0, "lat": 38.895598166666666}, {"rental_uris": {"android": "https://dc.lft.to/lastmile_qr_scan", "ios": "https://dc.lft.to/lastmile_qr_scan"}, "is_reserved": 0, "is_disabled": 0, "name": "5daaacde625759cc1c6e602b74bcc597", "bike_id": "5daaacde625759cc1c6e602b74bcc597", "fusion_lat": 0.0, "lon": -77.09564833333333, "type": "electric_bike", "fusion_lon": 0.0, "lat": 38.858927333333334}, {"rental_uris": {"android": "https://dc.lft.to/lastmile_qr_scan", "ios": "https://dc.lft.to/lastmile_qr_scan"}, "is_reserved": 0, "is_disabled": 0, "name": "9a373f5ad55ebb68a2507766b39a637b", "bike_id": "9a373f5ad55ebb68a2507766b39a637b", "fusion_lat": 0.0, "lon": -77.0075835, "type": "electric_scooter", "fusion_lon": 0.0, "lat": 38.876593166666666}, {"rental_uris": {"android": "https://dc.lft.to/lastmile_qr_scan", "ios": "https://dc.lft.to/lastmile_qr_scan"}, "is_reserved": 0, "is_disabled": 0, "name": "fbc83abd2a35285a56278a49e97b196d", "bike_id": "fbc83abd2a35285a56278a49e97b196d", "fusion_lat": 0.0, "lon": -76.97351733333333, "type": "electric_bike", "fusion_lon": 0.0, "lat": 38.865694166666664}, {"rental_uris": {"android": "https://dc.lft.to/lastmile_qr_scan", "ios": "https://dc.lft.to/lastmile_qr_scan"}, "is_reserved": 0, "is_disabled": 0, "name": "d8bc5759566e464e245d15d4059d3d8f", "bike_id": "d8bc5759566e464e245d15d4059d3d8f", "fusion_lat": 0.0, "lon": -77.02205233333333, "type": "electric_scooter", "fusion_lon": 0.0, "lat": 38.92079533333333}, {"rental_uris": {"android": "https://dc.lft.to/lastmile_qr_scan", "ios": "https://dc.lft.to/lastmile_qr_scan"}, "is_reserved": 0, "is_disabled": 0, "name": "92431a8ec4364a82ffbab997ec200b28", "bike_id": "92431a8ec4364a82ffbab997ec200b28", "fusion_lat": 0.0, "lon": -76.99852483333333, "type": "electric_scooter", "fusion_lon": 0.0, "lat": 38.9025915}, {"rental_uris": {"android": "https://dc.lft.to/lastmile_qr_scan", "ios": "https://dc.lft.to/lastmile_qr_scan"}, "is_reserved": 0, "is_disabled": 0, "name": "a517bb034b133a4a2d22d85de7371293", "bike_id": "a517bb034b133a4a2d22d85de7371293", "fusion_lat": 0.0, "lon": -77.019543, "type": "electric_scooter", "fusion_lon": 0.0, "lat": 38.92325983333333}, {"rental_uris": {"android": "https://dc.lft.to/lastmile_qr_scan", "ios": "https://dc.lft.to/lastmile_qr_scan"}, "is_reserved": 0, "is_disabled": 0, "name": "2887b5574db3dbd4df18addc6b68ee8c", "bike_id": "2887b5574db3dbd4df18addc6b68ee8c", "fusion_lat": 0.0, "lon": -77.0425805, "type": "electric_scooter", "fusion_lon": 0.0, "lat": 38.91179233333333}, {"rental_uris": {"android": "https://dc.lft.to/lastmile_qr_scan", "ios": "https://dc.lft.to/lastmile_qr_scan"}, "is_reserved": 0, "is_disabled": 0, "name": "4477f3c0c53395b2cb43ff277d96aa31", "bike_id": "4477f3c0c53395b2cb43ff277d96aa31", "fusion_lat": 0.0, "lon": -77.02230966666667, "type": "electric_scooter", "fusion_lon": 0.0, "lat": 38.9247805}, {"rental_uris": {"android": "https://dc.lft.to/lastmile_qr_scan", "ios": "https://dc.lft.to/lastmile_qr_scan"}, "is_reserved": 0, "is_disabled": 0, "name": "5d1cec5335e7ed057b4af0f2607d576c", "bike_id": "5d1cec5335e7ed057b4af0f2607d576c", "fusion_lat": 0.0, "lon": -77.022812, "type": "electric_scooter", "fusion_lon": 0.0, "lat": 38.894801}, {"rental_uris": {"android": "https://dc.lft.to/lastmile_qr_scan", "ios": "https://dc.lft.to/lastmile_qr_scan"}, "is_reserved": 0, "is_disabled": 0, "name": "000690cc58111282f989bef4ac7ae978", "bike_id": "000690cc58111282f989bef4ac7ae978", "fusion_lat": 0.0, "lon": -77.0309045, "type": "electric_scooter", "fusion_lon": 0.0, "lat": 38.89517816666667}, {"rental_uris": {"android": "https://dc.lft.to/lastmile_qr_scan", "ios": "https://dc.lft.to/lastmile_qr_scan"}, "is_reserved": 0, "is_disabled": 0, "name": "aa9de2140ee1853539fda73ddf036f03", "bike_id": "aa9de2140ee1853539fda73ddf036f03", "fusion_lat": 0.0, "lon": -77.09661833333334, "type": "electric_bike", "fusion_lon": 0.0, "lat": 38.95214416666666}, {"rental_uris": {"android": "https://dc.lft.to/lastmile_qr_scan", "ios": "https://dc.lft.to/lastmile_qr_scan"}, "is_reserved": 0, "is_disabled": 0, "name": "9f986aba7f5a8b4bef9a98c6ebaaecc7", "bike_id": "9f986aba7f5a8b4bef9a98c6ebaaecc7", "fusion_lat": 0.0, "lon": -77.02351, "type": "electric_scooter", "fusion_lon": 0.0, "lat": 38.9353595}, {"rental_uris": {"android": "https://dc.lft.to/lastmile_qr_scan", "ios": "https://dc.lft.to/lastmile_qr_scan"}, "is_reserved": 0, "is_disabled": 0, "name": "75ed23d5f2984e3d8de07d8dbb161234", "bike_id": "75ed23d5f2984e3d8de07d8dbb161234", "fusion_lat": 0.0, "lon": -77.01963433333333, "type": "electric_scooter", "fusion_lon": 0.0, "lat": 38.923155333333334}, {"rental_uris": {"android": "https://dc.lft.to/lastmile_qr_scan", "ios": "https://dc.lft.to/lastmile_qr_scan"}, "is_reserved": 0, "is_disabled": 0, "name": "f9e5994e249dfee707948fe260b62c0d", "bike_id": "f9e5994e249dfee707948fe260b62c0d", "fusion_lat": 0.0, "lon": -77.02921483333333, "type": "electric_scooter", "fusion_lon": 0.0, "lat": 38.89843666666667}, {"rental_uris": {"android": "https://dc.lft.to/lastmile_qr_scan", "ios": "https://dc.lft.to/lastmile_qr_scan"}, "is_reserved": 0, "is_disabled": 0, "name": "d13e80940f7983894c3c3f6ce5be615a", "bike_id": "d13e80940f7983894c3c3f6ce5be615a", "fusion_lat": 0.0, "lon": -77.00214566666666, "type": "electric_scooter", "fusion_lon": 0.0, "lat": 38.900155833333336}, {"rental_uris": {"android": "https://dc.lft.to/lastmile_qr_scan", "ios": "https://dc.lft.to/lastmile_qr_scan"}, "is_reserved": 0, "is_disabled": 0, "name": "866e44d0625df60cb37ea2d5b8b0c9be", "bike_id": "866e44d0625df60cb37ea2d5b8b0c9be", "fusion_lat": 0.0, "lon": -77.02866, "type": "electric_scooter", "fusion_lon": 0.0, "lat": 38.8984705}, {"rental_uris": {"android": "https://dc.lft.to/lastmile_qr_scan", "ios": "https://dc.lft.to/lastmile_qr_scan"}, "is_reserved": 0, "is_disabled": 0, "name": "8351c531e9d99f29d6b8711e17c45d89", "bike_id": "8351c531e9d99f29d6b8711e17c45d89", "fusion_lat": 0.0, "lon": -77.0227415, "type": "electric_scooter", "fusion_lon": 0.0, "lat": 38.8996545}, {"rental_uris": {"android": "https://dc.lft.to/lastmile_qr_scan", "ios": "https://dc.lft.to/lastmile_qr_scan"}, "is_reserved": 0, "is_disabled": 0, "name": "79dcf126e6935e20f4d8fdfd2a025332", "bike_id": "79dcf126e6935e20f4d8fdfd2a025332", "fusion_lat": 0.0, "lon": -77.02505166666667, "type": "electric_scooter", "fusion_lon": 0.0, "lat": 38.8802735}, {"rental_uris": {"android": "https://dc.lft.to/lastmile_qr_scan", "ios": "https://dc.lft.to/lastmile_qr_scan"}, "is_reserved": 0, "is_disabled": 0, "name": "e225e9738e55c6552fdaae578c56103b", "bike_id": "e225e9738e55c6552fdaae578c56103b", "fusion_lat": 0.0, "lon": -77.03643733333334, "type": "electric_scooter", "fusion_lon": 0.0, "lat": 38.917829166666664}, {"rental_uris": {"android": "https://dc.lft.to/lastmile_qr_scan", "ios": "https://dc.lft.to/lastmile_qr_scan"}, "is_reserved": 0, "is_disabled": 0, "name": "dfe7bdb863caed3ce2bb790e7a88ffbd", "bike_id": "dfe7bdb863caed3ce2bb790e7a88ffbd", "fusion_lat": 0.0, "lon": -76.97973483333334, "type": "electric_scooter", "fusion_lon": 0.0, "lat": 38.89788216666667}, {"rental_uris": {"android": "https://dc.lft.to/lastmile_qr_scan", "ios": "https://dc.lft.to/lastmile_qr_scan"}, "is_reserved": 0, "is_disabled": 0, "name": "3ecafe9485da7b4bfd430cafcb548516", "bike_id": "3ecafe9485da7b4bfd430cafcb548516", "fusion_lat": 0.0, "lon": -77.04051266666667, "type": "electric_scooter", "fusion_lon": 0.0, "lat": 38.90613616666667}, {"rental_uris": {"android": "https://dc.lft.to/lastmile_qr_scan", "ios": "https://dc.lft.to/lastmile_qr_scan"}, "is_reserved": 0, "is_disabled": 0, "name": "096b4fb4170731070b35e56847111cc9", "bike_id": "096b4fb4170731070b35e56847111cc9", "fusion_lat": 0.0, "lon": -76.98338283333334, "type": "electric_scooter", "fusion_lon": 0.0, "lat": 38.895419}, {"rental_uris": {"android": "https://dc.lft.to/lastmile_qr_scan", "ios": "https://dc.lft.to/lastmile_qr_scan"}, "is_reserved": 0, "is_disabled": 0, "name": "f9607f36fbd352cb715a83a936091a35", "bike_id": "f9607f36fbd352cb715a83a936091a35", "fusion_lat": 0.0, "lon": -77.00765666666666, "type": "electric_scooter", "fusion_lon": 0.0, "lat": 38.9095685}, {"rental_uris": {"android": "https://dc.lft.to/lastmile_qr_scan", "ios": "https://dc.lft.to/lastmile_qr_scan"}, "is_reserved": 0, "is_disabled": 0, "name": "29c98db182e6f7004df2adfb83a70a4b", "bike_id": "29c98db182e6f7004df2adfb83a70a4b", "fusion_lat": 0.0, "lon": -77.0215985, "type": "electric_scooter", "fusion_lon": 0.0, "lat": 38.92601}, {"rental_uris": {"android": "https://dc.lft.to/lastmile_qr_scan", "ios": "https://dc.lft.to/lastmile_qr_scan"}, "is_reserved": 0, "is_disabled": 0, "name": "cf074d76ff40400b85f95e69277db307", "bike_id": "cf074d76ff40400b85f95e69277db307", "fusion_lat": 0.0, "lon": -77.02738266666667, "type": "electric_scooter", "fusion_lon": 0.0, "lat": 38.9520355}, {"rental_uris": {"android": "https://dc.lft.to/lastmile_qr_scan", "ios": "https://dc.lft.to/lastmile_qr_scan"}, "is_reserved": 0, "is_disabled": 0, "name": "a605614c00613a95361073a770b4ad86", "bike_id": "a605614c00613a95361073a770b4ad86", "fusion_lat": 0.0, "lon": -76.988085, "type": "electric_scooter", "fusion_lon": 0.0, "lat": 38.893612833333336}, {"rental_uris": {"android": "https://dc.lft.to/lastmile_qr_scan", "ios": "https://dc.lft.to/lastmile_qr_scan"}, "is_reserved": 0, "is_disabled": 0, "name": "e54bbbd8b3b6bc3ae8a0a35033083014", "bike_id": "e54bbbd8b3b6bc3ae8a0a35033083014", "fusion_lat": 0.0, "lon": -76.98545183333333, "type": "electric_scooter", "fusion_lon": 0.0, "lat": 38.879977}, {"rental_uris": {"android": "https://dc.lft.to/lastmile_qr_scan", "ios": "https://dc.lft.to/lastmile_qr_scan"}, "is_reserved": 0, "is_disabled": 0, "name": "e54e829d7e3704f093ec5077750fd6b4", "bike_id": "e54e829d7e3704f093ec5077750fd6b4", "fusion_lat": 0.0, "lon": -76.99522716666667, "type": "electric_scooter", "fusion_lon": 0.0, "lat": 38.88367083333333}, {"rental_uris": {"android": "https://dc.lft.to/lastmile_qr_scan", "ios": "https://dc.lft.to/lastmile_qr_scan"}, "is_reserved": 0, "is_disabled": 0, "name": "757ffa0ca42a0d036a879937551e1d61", "bike_id": "757ffa0ca42a0d036a879937551e1d61", "fusion_lat": 0.0, "lon": -77.03236933333334, "type": "electric_scooter", "fusion_lon": 0.0, "lat": 38.9199455}, {"rental_uris": {"android": "https://dc.lft.to/lastmile_qr_scan", "ios": "https://dc.lft.to/lastmile_qr_scan"}, "is_reserved": 0, "is_disabled": 0, "name": "83d4ce821acda28410a48f69421922ee", "bike_id": "83d4ce821acda28410a48f69421922ee", "fusion_lat": 0.0, "lon": -77.00563083333333, "type": "electric_scooter", "fusion_lon": 0.0, "lat": 38.9066355}, {"rental_uris": {"android": "https://dc.lft.to/lastmile_qr_scan", "ios": "https://dc.lft.to/lastmile_qr_scan"}, "is_reserved": 0, "is_disabled": 0, "name": "f3a8778f7ed8c533adbe184841e10aa6", "bike_id": "f3a8778f7ed8c533adbe184841e10aa6", "fusion_lat": 0.0, "lon": -77.01379933333334, "type": "electric_scooter", "fusion_lon": 0.0, "lat": 38.88708916666667}, {"rental_uris": {"android": "https://dc.lft.to/lastmile_qr_scan", "ios": "https://dc.lft.to/lastmile_qr_scan"}, "is_reserved": 0, "is_disabled": 0, "name": "047199bcdfb4378f2c5c0f5366ca24ff", "bike_id": "047199bcdfb4378f2c5c0f5366ca24ff", "fusion_lat": 0.0, "lon": -77.04646433333333, "type": "electric_bike", "fusion_lon": 0.0, "lat": 38.81541216666667}, {"rental_uris": {"android": "https://dc.lft.to/lastmile_qr_scan", "ios": "https://dc.lft.to/lastmile_qr_scan"}, "is_reserved": 0, "is_disabled": 0, "name": "691da1c91dbf9fae10f30a16885b63f1", "bike_id": "691da1c91dbf9fae10f30a16885b63f1", "fusion_lat": 0.0, "lon": -77.0446705, "type": "electric_scooter", "fusion_lon": 0.0, "lat": 38.90272916666667}, {"rental_uris": {"android": "https://dc.lft.to/lastmile_qr_scan", "ios": "https://dc.lft.to/lastmile_qr_scan"}, "is_reserved": 0, "is_disabled": 0, "name": "0b6d07963cbd127a51fe465cf232fb11", "bike_id": "0b6d07963cbd127a51fe465cf232fb11", "fusion_lat": 0.0, "lon": -77.03659616666667, "type": "electric_scooter", "fusion_lon": 0.0, "lat": 38.90228966666667}, {"rental_uris": {"android": "https://dc.lft.to/lastmile_qr_scan", "ios": "https://dc.lft.to/lastmile_qr_scan"}, "is_reserved": 0, "is_disabled": 0, "name": "fa39b1b188ee7f530e38e01c340b0531", "bike_id": "fa39b1b188ee7f530e38e01c340b0531", "fusion_lat": 0.0, "lon": -77.0152855, "type": "electric_scooter", "fusion_lon": 0.0, "lat": 38.895566333333335}, {"rental_uris": {"android": "https://dc.lft.to/lastmile_qr_scan", "ios": "https://dc.lft.to/lastmile_qr_scan"}, "is_reserved": 0, "is_disabled": 0, "name": "e75af2030faf2fdf04cd056945fee541", "bike_id": "e75af2030faf2fdf04cd056945fee541", "fusion_lat": 0.0, "lon": -77.02607033333334, "type": "electric_scooter", "fusion_lon": 0.0, "lat": 38.900579666666665}, {"rental_uris": {"android": "https://dc.lft.to/lastmile_qr_scan", "ios": "https://dc.lft.to/lastmile_qr_scan"}, "is_reserved": 0, "is_disabled": 0, "name": "cbea82d9f3659998e07005f6e728393b", "bike_id": "cbea82d9f3659998e07005f6e728393b", "fusion_lat": 0.0, "lon": -77.05328833333333, "type": "electric_scooter", "fusion_lon": 0.0, "lat": 38.905207833333336}, {"rental_uris": {"android": "https://dc.lft.to/lastmile_qr_scan", "ios": "https://dc.lft.to/lastmile_qr_scan"}, "is_reserved": 0, "is_disabled": 0, "name": "3ca0332fd363066d2e375e3c50886e74", "bike_id": "3ca0332fd363066d2e375e3c50886e74", "fusion_lat": 0.0, "lon": -77.03440783333333, "type": "electric_scooter", "fusion_lon": 0.0, "lat": 38.90263016666667}, {"rental_uris": {"android": "https://dc.lft.to/lastmile_qr_scan", "ios": "https://dc.lft.to/lastmile_qr_scan"}, "is_reserved": 0, "is_disabled": 0, "name": "b8968876e202d41320dfc055e3311a05", "bike_id": "b8968876e202d41320dfc055e3311a05", "fusion_lat": 0.0, "lon": -77.02694083333333, "type": "electric_scooter", "fusion_lon": 0.0, "lat": 38.902346666666666}, {"rental_uris": {"android": "https://dc.lft.to/lastmile_qr_scan", "ios": "https://dc.lft.to/lastmile_qr_scan"}, "is_reserved": 0, "is_disabled": 0, "name": "2962e291b3363c1dd1aece1050521b97", "bike_id": "2962e291b3363c1dd1aece1050521b97", "fusion_lat": 0.0, "lon": -77.06320066666666, "type": "electric_scooter", "fusion_lon": 0.0, "lat": 38.94362383333333}, {"rental_uris": {"android": "https://dc.lft.to/lastmile_qr_scan", "ios": "https://dc.lft.to/lastmile_qr_scan"}, "is_reserved": 0, "is_disabled": 0, "name": "667444211d7ce5131725ca0fe4cff889", "bike_id": "667444211d7ce5131725ca0fe4cff889", "fusion_lat": 0.0, "lon": -77.01831683333333, "type": "electric_scooter", "fusion_lon": 0.0, "lat": 38.90294083333333}, {"rental_uris": {"android": "https://dc.lft.to/lastmile_qr_scan", "ios": "https://dc.lft.to/lastmile_qr_scan"}, "is_reserved": 0, "is_disabled": 0, "name": "27664da4974d792f768a27c07ceae32d", "bike_id": "27664da4974d792f768a27c07ceae32d", "fusion_lat": 0.0, "lon": -76.94088433333333, "type": "electric_scooter", "fusion_lon": 0.0, "lat": 38.891184333333335}, {"rental_uris": {"android": "https://dc.lft.to/lastmile_qr_scan", "ios": "https://dc.lft.to/lastmile_qr_scan"}, "is_reserved": 0, "is_disabled": 0, "name": "3a244aafb4181de7f3a9c6491ce46b14", "bike_id": "3a244aafb4181de7f3a9c6491ce46b14", "fusion_lat": 0.0, "lon": -77.04051833333334, "type": "electric_scooter", "fusion_lon": 0.0, "lat": 38.908510166666666}, {"rental_uris": {"android": "https://dc.lft.to/lastmile_qr_scan", "ios": "https://dc.lft.to/lastmile_qr_scan"}, "is_reserved": 0, "is_disabled": 0, "name": "0200338bf75f2e57e91934bd33305c15", "bike_id": "0200338bf75f2e57e91934bd33305c15", "fusion_lat": 0.0, "lon": -77.023836, "type": "electric_scooter", "fusion_lon": 0.0, "lat": 38.952706666666664}, {"rental_uris": {"android": "https://dc.lft.to/lastmile_qr_scan", "ios": "https://dc.lft.to/lastmile_qr_scan"}, "is_reserved": 0, "is_disabled": 0, "name": "431dcf981789a050895824983390a549", "bike_id": "431dcf981789a050895824983390a549", "fusion_lat": 0.0, "lon": -77.04074933333334, "type": "electric_scooter", "fusion_lon": 0.0, "lat": 38.90364066666667}, {"rental_uris": {"android": "https://dc.lft.to/lastmile_qr_scan", "ios": "https://dc.lft.to/lastmile_qr_scan"}, "is_reserved": 0, "is_disabled": 0, "name": "eff12a7c6363b8367c4088dd6d165f3a", "bike_id": "eff12a7c6363b8367c4088dd6d165f3a", "fusion_lat": 0.0, "lon": -77.009138, "type": "electric_scooter", "fusion_lon": 0.0, "lat": 38.898945166666664}, {"rental_uris": {"android": "https://dc.lft.to/lastmile_qr_scan", "ios": "https://dc.lft.to/lastmile_qr_scan"}, "is_reserved": 0, "is_disabled": 0, "name": "0d97caa6aed3585daa9d8263d4449d75", "bike_id": "0d97caa6aed3585daa9d8263d4449d75", "fusion_lat": 0.0, "lon": -77.045361, "type": "electric_scooter", "fusion_lon": 0.0, "lat": 38.902839666666665}, {"rental_uris": {"android": "https://dc.lft.to/lastmile_qr_scan", "ios": "https://dc.lft.to/lastmile_qr_scan"}, "is_reserved": 0, "is_disabled": 0, "name": "ebcf91f08914e9ea54c4a156b7e4829d", "bike_id": "ebcf91f08914e9ea54c4a156b7e4829d", "fusion_lat": 0.0, "lon": -77.00317816666667, "type": "electric_scooter", "fusion_lon": 0.0, "lat": 38.889867}, {"rental_uris": {"android": "https://dc.lft.to/lastmile_qr_scan", "ios": "https://dc.lft.to/lastmile_qr_scan"}, "is_reserved": 0, "is_disabled": 0, "name": "39c82f69673943ed47ffd056abdfad2e", "bike_id": "39c82f69673943ed47ffd056abdfad2e", "fusion_lat": 0.0, "lon": -77.02690266666667, "type": "electric_scooter", "fusion_lon": 0.0, "lat": 38.92480033333333}, {"rental_uris": {"android": "https://dc.lft.to/lastmile_qr_scan", "ios": "https://dc.lft.to/lastmile_qr_scan"}, "is_reserved": 0, "is_disabled": 0, "name": "b0958a78a8acaea544ec83a914736b28", "bike_id": "b0958a78a8acaea544ec83a914736b28", "fusion_lat": 0.0, "lon": -77.04163816666667, "type": "electric_scooter", "fusion_lon": 0.0, "lat": 38.916101166666664}, {"rental_uris": {"android": "https://dc.lft.to/lastmile_qr_scan", "ios": "https://dc.lft.to/lastmile_qr_scan"}, "is_reserved": 0, "is_disabled": 0, "name": "285b4314e984aa50c704a7823cbc415e", "bike_id": "285b4314e984aa50c704a7823cbc415e", "fusion_lat": 0.0, "lon": -77.00807533333334, "type": "electric_scooter", "fusion_lon": 0.0, "lat": 38.87899066666667}, {"rental_uris": {"android": "https://dc.lft.to/lastmile_qr_scan", "ios": "https://dc.lft.to/lastmile_qr_scan"}, "is_reserved": 0, "is_disabled": 0, "name": "79e4483f7c9ae6c7f04e082a38af60de", "bike_id": "79e4483f7c9ae6c7f04e082a38af60de", "fusion_lat": 0.0, "lon": -77.01707783333333, "type": "electric_scooter", "fusion_lon": 0.0, "lat": 38.8728605}, {"rental_uris": {"android": "https://dc.lft.to/lastmile_qr_scan", "ios": "https://dc.lft.to/lastmile_qr_scan"}, "is_reserved": 0, "is_disabled": 0, "name": "939063cb0e34758bbe95a1e88358b16f", "bike_id": "939063cb0e34758bbe95a1e88358b16f", "fusion_lat": 0.0, "lon": -77.0209565, "type": "electric_scooter", "fusion_lon": 0.0, "lat": 38.903049}, {"rental_uris": {"android": "https://dc.lft.to/lastmile_qr_scan", "ios": "https://dc.lft.to/lastmile_qr_scan"}, "is_reserved": 0, "is_disabled": 0, "name": "2ef1792ee956458f80a0f20eb99de27f", "bike_id": "2ef1792ee956458f80a0f20eb99de27f", "fusion_lat": 0.0, "lon": -76.9251055, "type": "electric_scooter", "fusion_lon": 0.0, "lat": 38.886038}, {"rental_uris": {"android": "https://dc.lft.to/lastmile_qr_scan", "ios": "https://dc.lft.to/lastmile_qr_scan"}, "is_reserved": 0, "is_disabled": 0, "name": "063d304414aa2221b6762082c7d06bbe", "bike_id": "063d304414aa2221b6762082c7d06bbe", "fusion_lat": 0.0, "lon": -77.00352916666667, "type": "electric_scooter", "fusion_lon": 0.0, "lat": 38.887051666666665}, {"rental_uris": {"android": "https://dc.lft.to/lastmile_qr_scan", "ios": "https://dc.lft.to/lastmile_qr_scan"}, "is_reserved": 0, "is_disabled": 0, "name": "9cf0bd732b68eda4176af7e1c250f72b", "bike_id": "9cf0bd732b68eda4176af7e1c250f72b", "fusion_lat": 0.0, "lon": -77.03828, "type": "electric_scooter", "fusion_lon": 0.0, "lat": 38.90660233333333}, {"rental_uris": {"android": "https://dc.lft.to/lastmile_qr_scan", "ios": "https://dc.lft.to/lastmile_qr_scan"}, "is_reserved": 0, "is_disabled": 0, "name": "7006e94182b6cb34c782ebfddfe914d1", "bike_id": "7006e94182b6cb34c782ebfddfe914d1", "fusion_lat": 0.0, "lon": -76.95358183333333, "type": "electric_bike", "fusion_lon": 0.0, "lat": 38.941667}, {"rental_uris": {"android": "https://dc.lft.to/lastmile_qr_scan", "ios": "https://dc.lft.to/lastmile_qr_scan"}, "is_reserved": 0, "is_disabled": 0, "name": "4234cf91308fa440463c009a5a262453", "bike_id": "4234cf91308fa440463c009a5a262453", "fusion_lat": 0.0, "lon": -77.00993566666666, "type": "electric_scooter", "fusion_lon": 0.0, "lat": 38.91646183333334}, {"rental_uris": {"android": "https://dc.lft.to/lastmile_qr_scan", "ios": "https://dc.lft.to/lastmile_qr_scan"}, "is_reserved": 0, "is_disabled": 0, "name": "c78ef4655d43036a9422231799e38f96", "bike_id": "c78ef4655d43036a9422231799e38f96", "fusion_lat": 0.0, "lon": -77.04353133333333, "type": "electric_scooter", "fusion_lon": 0.0, "lat": 38.91345666666667}, {"rental_uris": {"android": "https://dc.lft.to/lastmile_qr_scan", "ios": "https://dc.lft.to/lastmile_qr_scan"}, "is_reserved": 0, "is_disabled": 0, "name": "3e52d0a39c8a4242f66160d94c3d0b50", "bike_id": "3e52d0a39c8a4242f66160d94c3d0b50", "fusion_lat": 0.0, "lon": -77.02086416666667, "type": "electric_scooter", "fusion_lon": 0.0, "lat": 38.93017733333333}, {"rental_uris": {"android": "https://dc.lft.to/lastmile_qr_scan", "ios": "https://dc.lft.to/lastmile_qr_scan"}, "is_reserved": 0, "is_disabled": 0, "name": "f9a8bcdbd9bd1dcb9d35997a06fbed4c", "bike_id": "f9a8bcdbd9bd1dcb9d35997a06fbed4c", "fusion_lat": 0.0, "lon": -77.09612883333334, "type": "electric_bike", "fusion_lon": 0.0, "lat": 38.9743625}, {"rental_uris": {"android": "https://dc.lft.to/lastmile_qr_scan", "ios": "https://dc.lft.to/lastmile_qr_scan"}, "is_reserved": 0, "is_disabled": 0, "name": "866fdd5ca8a193a554a2aaa7d79d9a71", "bike_id": "866fdd5ca8a193a554a2aaa7d79d9a71", "fusion_lat": 0.0, "lon": -77.04875283333334, "type": "electric_scooter", "fusion_lon": 0.0, "lat": 38.89872966666667}, {"rental_uris": {"android": "https://dc.lft.to/lastmile_qr_scan", "ios": "https://dc.lft.to/lastmile_qr_scan"}, "is_reserved": 0, "is_disabled": 0, "name": "5d5457c53bcbd12ad05b3b1a505faa8d", "bike_id": "5d5457c53bcbd12ad05b3b1a505faa8d", "fusion_lat": 0.0, "lon": -77.04061116666666, "type": "electric_scooter", "fusion_lon": 0.0, "lat": 38.90159516666667}, {"rental_uris": {"android": "https://dc.lft.to/lastmile_qr_scan", "ios": "https://dc.lft.to/lastmile_qr_scan"}, "is_reserved": 0, "is_disabled": 0, "name": "13d5a04436d65fcffb7fe034f60171ff", "bike_id": "13d5a04436d65fcffb7fe034f60171ff", "fusion_lat": 0.0, "lon": -77.0231075, "type": "electric_scooter", "fusion_lon": 0.0, "lat": 38.90229433333333}, {"rental_uris": {"android": "https://dc.lft.to/lastmile_qr_scan", "ios": "https://dc.lft.to/lastmile_qr_scan"}, "is_reserved": 0, "is_disabled": 0, "name": "e0abfd55de8eca8a0d85d31a498a5431", "bike_id": "e0abfd55de8eca8a0d85d31a498a5431", "fusion_lat": 0.0, "lon": -77.01442616666667, "type": "electric_scooter", "fusion_lon": 0.0, "lat": 38.90960116666667}, {"rental_uris": {"android": "https://dc.lft.to/lastmile_qr_scan", "ios": "https://dc.lft.to/lastmile_qr_scan"}, "is_reserved": 0, "is_disabled": 0, "name": "c42ff17c4627ed2b89f7c2b3f4074a2b", "bike_id": "c42ff17c4627ed2b89f7c2b3f4074a2b", "fusion_lat": 0.0, "lon": -77.01886383333333, "type": "electric_scooter", "fusion_lon": 0.0, "lat": 38.919464166666664}, {"rental_uris": {"android": "https://dc.lft.to/lastmile_qr_scan", "ios": "https://dc.lft.to/lastmile_qr_scan"}, "is_reserved": 0, "is_disabled": 0, "name": "b2ecf0ffc85e17c9475792ce08215d79", "bike_id": "b2ecf0ffc85e17c9475792ce08215d79", "fusion_lat": 0.0, "lon": -77.017349, "type": "electric_scooter", "fusion_lon": 0.0, "lat": 38.90050033333333}, {"rental_uris": {"android": "https://dc.lft.to/lastmile_qr_scan", "ios": "https://dc.lft.to/lastmile_qr_scan"}, "is_reserved": 0, "is_disabled": 0, "name": "ce6c004d2384b46f190aac947bbca548", "bike_id": "ce6c004d2384b46f190aac947bbca548", "fusion_lat": 0.0, "lon": -77.0281935, "type": "electric_scooter", "fusion_lon": 0.0, "lat": 38.881863333333335}, {"rental_uris": {"android": "https://dc.lft.to/lastmile_qr_scan", "ios": "https://dc.lft.to/lastmile_qr_scan"}, "is_reserved": 0, "is_disabled": 0, "name": "dbbc12128f26bb01b8c9c6456ebf82e5", "bike_id": "dbbc12128f26bb01b8c9c6456ebf82e5", "fusion_lat": 0.0, "lon": -77.043375, "type": "electric_scooter", "fusion_lon": 0.0, "lat": 38.90112716666667}, {"rental_uris": {"android": "https://dc.lft.to/lastmile_qr_scan", "ios": "https://dc.lft.to/lastmile_qr_scan"}, "is_reserved": 0, "is_disabled": 0, "name": "8f275c7e3b54e14e7d24683b9be3a00b", "bike_id": "8f275c7e3b54e14e7d24683b9be3a00b", "fusion_lat": 0.0, "lon": -77.03447266666667, "type": "electric_scooter", "fusion_lon": 0.0, "lat": 38.922191833333336}, {"rental_uris": {"android": "https://dc.lft.to/lastmile_qr_scan", "ios": "https://dc.lft.to/lastmile_qr_scan"}, "is_reserved": 0, "is_disabled": 0, "name": "aeb5c7e23166a31a05da9b0c9a8d0474", "bike_id": "aeb5c7e23166a31a05da9b0c9a8d0474", "fusion_lat": 0.0, "lon": -77.01329383333334, "type": "electric_scooter", "fusion_lon": 0.0, "lat": 38.8970535}, {"rental_uris": {"android": "https://dc.lft.to/lastmile_qr_scan", "ios": "https://dc.lft.to/lastmile_qr_scan"}, "is_reserved": 0, "is_disabled": 0, "name": "c35caa65544afafa8781490475047676", "bike_id": "c35caa65544afafa8781490475047676", "fusion_lat": 0.0, "lon": -77.04474816666666, "type": "electric_scooter", "fusion_lon": 0.0, "lat": 38.898774}, {"rental_uris": {"android": "https://dc.lft.to/lastmile_qr_scan", "ios": "https://dc.lft.to/lastmile_qr_scan"}, "is_reserved": 0, "is_disabled": 0, "name": "91490900b5eb83909d6aea14551fcb64", "bike_id": "91490900b5eb83909d6aea14551fcb64", "fusion_lat": 0.0, "lon": -77.00177233333334, "type": "electric_scooter", "fusion_lon": 0.0, "lat": 38.90770116666667}, {"rental_uris": {"android": "https://dc.lft.to/lastmile_qr_scan", "ios": "https://dc.lft.to/lastmile_qr_scan"}, "is_reserved": 0, "is_disabled": 0, "name": "2b0542e4f23309ee9fd9595e2df5d3a0", "bike_id": "2b0542e4f23309ee9fd9595e2df5d3a0", "fusion_lat": 0.0, "lon": -76.973374, "type": "electric_bike", "fusion_lon": 0.0, "lat": 38.865039}, {"rental_uris": {"android": "https://dc.lft.to/lastmile_qr_scan", "ios": "https://dc.lft.to/lastmile_qr_scan"}, "is_reserved": 0, "is_disabled": 0, "name": "9c2bb47459499fa5eca89ce2f98c6791", "bike_id": "9c2bb47459499fa5eca89ce2f98c6791", "fusion_lat": 0.0, "lon": -77.0853925, "type": "electric_bike", "fusion_lon": 0.0, "lat": 38.856601}, {"rental_uris": {"android": "https://dc.lft.to/lastmile_qr_scan", "ios": "https://dc.lft.to/lastmile_qr_scan"}, "is_reserved": 0, "is_disabled": 0, "name": "b3e4fbb29592e1e29ea6b677e21238f3", "bike_id": "b3e4fbb29592e1e29ea6b677e21238f3", "fusion_lat": 0.0, "lon": -77.04669283333334, "type": "electric_scooter", "fusion_lon": 0.0, "lat": 38.90603516666667}, {"rental_uris": {"android": "https://dc.lft.to/lastmile_qr_scan", "ios": "https://dc.lft.to/lastmile_qr_scan"}, "is_reserved": 0, "is_disabled": 0, "name": "27254a3c4168b9bec32cccab510283c0", "bike_id": "27254a3c4168b9bec32cccab510283c0", "fusion_lat": 0.0, "lon": -77.01970683333333, "type": "electric_scooter", "fusion_lon": 0.0, "lat": 38.92321366666667}, {"rental_uris": {"android": "https://dc.lft.to/lastmile_qr_scan", "ios": "https://dc.lft.to/lastmile_qr_scan"}, "is_reserved": 0, "is_disabled": 0, "name": "3d1e12934abacebd74100e1ebecaa869", "bike_id": "3d1e12934abacebd74100e1ebecaa869", "fusion_lat": 0.0, "lon": -77.03925483333333, "type": "electric_scooter", "fusion_lon": 0.0, "lat": 38.92492683333333}, {"rental_uris": {"android": "https://dc.lft.to/lastmile_qr_scan", "ios": "https://dc.lft.to/lastmile_qr_scan"}, "is_reserved": 0, "is_disabled": 0, "name": "308ea4a00c2529f0b0dd3557fe1ce00c", "bike_id": "308ea4a00c2529f0b0dd3557fe1ce00c", "fusion_lat": 0.0, "lon": -77.02234533333333, "type": "electric_scooter", "fusion_lon": 0.0, "lat": 38.924731666666666}, {"rental_uris": {"android": "https://dc.lft.to/lastmile_qr_scan", "ios": "https://dc.lft.to/lastmile_qr_scan"}, "is_reserved": 0, "is_disabled": 0, "name": "855f24c7c315697f7e3072a378a781ce", "bike_id": "855f24c7c315697f7e3072a378a781ce", "fusion_lat": 0.0, "lon": -77.032232, "type": "electric_scooter", "fusion_lon": 0.0, "lat": 38.897279833333336}, {"rental_uris": {"android": "https://dc.lft.to/lastmile_qr_scan", "ios": "https://dc.lft.to/lastmile_qr_scan"}, "is_reserved": 0, "is_disabled": 0, "name": "15b71226e529fb9a6f1b92f118b85c76", "bike_id": "15b71226e529fb9a6f1b92f118b85c76", "fusion_lat": 0.0, "lon": -77.03852516666667, "type": "electric_scooter", "fusion_lon": 0.0, "lat": 38.902605666666666}, {"rental_uris": {"android": "https://dc.lft.to/lastmile_qr_scan", "ios": "https://dc.lft.to/lastmile_qr_scan"}, "is_reserved": 0, "is_disabled": 0, "name": "193b8fe15d7a11bbe58b613c498884cb", "bike_id": "193b8fe15d7a11bbe58b613c498884cb", "fusion_lat": 0.0, "lon": -77.04530916666667, "type": "electric_scooter", "fusion_lon": 0.0, "lat": 38.903642}, {"rental_uris": {"android": "https://dc.lft.to/lastmile_qr_scan", "ios": "https://dc.lft.to/lastmile_qr_scan"}, "is_reserved": 0, "is_disabled": 0, "name": "7d7cbc178177e3c851d1f1c25986b134", "bike_id": "7d7cbc178177e3c851d1f1c25986b134", "fusion_lat": 0.0, "lon": -77.0080265, "type": "electric_scooter", "fusion_lon": 0.0, "lat": 38.95244016666667}, {"rental_uris": {"android": "https://dc.lft.to/lastmile_qr_scan", "ios": "https://dc.lft.to/lastmile_qr_scan"}, "is_reserved": 0, "is_disabled": 0, "name": "d3af69910715a651a28cf5f2600a48ef", "bike_id": "d3af69910715a651a28cf5f2600a48ef", "fusion_lat": 0.0, "lon": -77.128454, "type": "electric_bike", "fusion_lon": 0.0, "lat": 38.80050116666666}, {"rental_uris": {"android": "https://dc.lft.to/lastmile_qr_scan", "ios": "https://dc.lft.to/lastmile_qr_scan"}, "is_reserved": 0, "is_disabled": 0, "name": "0ab4e5dbfa28aa13bdca482f906da113", "bike_id": "0ab4e5dbfa28aa13bdca482f906da113", "fusion_lat": 0.0, "lon": -77.0319595, "type": "electric_scooter", "fusion_lon": 0.0, "lat": 38.911691166666664}, {"rental_uris": {"android": "https://dc.lft.to/lastmile_qr_scan", "ios": "https://dc.lft.to/lastmile_qr_scan"}, "is_reserved": 0, "is_disabled": 0, "name": "32ac8cb9a31f2e6cba170c666c645c0f", "bike_id": "32ac8cb9a31f2e6cba170c666c645c0f", "fusion_lat": 0.0, "lon": -77.02129316666667, "type": "electric_scooter", "fusion_lon": 0.0, "lat": 38.923641333333336}, {"rental_uris": {"android": "https://dc.lft.to/lastmile_qr_scan", "ios": "https://dc.lft.to/lastmile_qr_scan"}, "is_reserved": 0, "is_disabled": 0, "name": "cad044b0e3b4c07d033212c3f9eff33a", "bike_id": "cad044b0e3b4c07d033212c3f9eff33a", "fusion_lat": 0.0, "lon": -77.0249105, "type": "electric_scooter", "fusion_lon": 0.0, "lat": 38.9174785}, {"rental_uris": {"android": "https://dc.lft.to/lastmile_qr_scan", "ios": "https://dc.lft.to/lastmile_qr_scan"}, "is_reserved": 0, "is_disabled": 0, "name": "cf160329b89effb0b64d99fbd7132790", "bike_id": "cf160329b89effb0b64d99fbd7132790", "fusion_lat": 0.0, "lon": -77.05451066666667, "type": "electric_scooter", "fusion_lon": 0.0, "lat": 38.928414833333335}, {"rental_uris": {"android": "https://dc.lft.to/lastmile_qr_scan", "ios": "https://dc.lft.to/lastmile_qr_scan"}, "is_reserved": 0, "is_disabled": 0, "name": "5de4331072bba20fde7e55153cda0a59", "bike_id": "5de4331072bba20fde7e55153cda0a59", "fusion_lat": 0.0, "lon": -77.03231733333334, "type": "electric_scooter", "fusion_lon": 0.0, "lat": 38.920005833333335}, {"rental_uris": {"android": "https://dc.lft.to/lastmile_qr_scan", "ios": "https://dc.lft.to/lastmile_qr_scan"}, "is_reserved": 0, "is_disabled": 0, "name": "bd607701c4ccbcd196c6d7c5a9636bec", "bike_id": "bd607701c4ccbcd196c6d7c5a9636bec", "fusion_lat": 0.0, "lon": -77.02209516666667, "type": "electric_bike", "fusion_lon": 0.0, "lat": 38.964851333333336}, {"rental_uris": {"android": "https://dc.lft.to/lastmile_qr_scan", "ios": "https://dc.lft.to/lastmile_qr_scan"}, "is_reserved": 0, "is_disabled": 0, "name": "72842e4c38510e0bd4de80ba0ec70b89", "bike_id": "72842e4c38510e0bd4de80ba0ec70b89", "fusion_lat": 0.0, "lon": -76.9863785, "type": "electric_scooter", "fusion_lon": 0.0, "lat": 38.90678166666667}, {"rental_uris": {"android": "https://dc.lft.to/lastmile_qr_scan", "ios": "https://dc.lft.to/lastmile_qr_scan"}, "is_reserved": 0, "is_disabled": 0, "name": "6efde1a4a02757b5ec617da35ca7e101", "bike_id": "6efde1a4a02757b5ec617da35ca7e101", "fusion_lat": 0.0, "lon": -77.02138433333333, "type": "electric_scooter", "fusion_lon": 0.0, "lat": 38.923594666666666}, {"rental_uris": {"android": "https://dc.lft.to/lastmile_qr_scan", "ios": "https://dc.lft.to/lastmile_qr_scan"}, "is_reserved": 0, "is_disabled": 0, "name": "32d19706ad5e13f39543cbfd5c5751c5", "bike_id": "32d19706ad5e13f39543cbfd5c5751c5", "fusion_lat": 0.0, "lon": -77.02908583333334, "type": "electric_scooter", "fusion_lon": 0.0, "lat": 38.952942666666665}, {"rental_uris": {"android": "https://dc.lft.to/lastmile_qr_scan", "ios": "https://dc.lft.to/lastmile_qr_scan"}, "is_reserved": 0, "is_disabled": 0, "name": "d29d7f818a962f67deafda54390ea0e5", "bike_id": "d29d7f818a962f67deafda54390ea0e5", "fusion_lat": 0.0, "lon": -77.00064916666666, "type": "electric_scooter", "fusion_lon": 0.0, "lat": 38.87404766666667}, {"rental_uris": {"android": "https://dc.lft.to/lastmile_qr_scan", "ios": "https://dc.lft.to/lastmile_qr_scan"}, "is_reserved": 0, "is_disabled": 0, "name": "1dbefc9a3f35bd932ef0d8596cd82f45", "bike_id": "1dbefc9a3f35bd932ef0d8596cd82f45", "fusion_lat": 0.0, "lon": -77.01921233333333, "type": "electric_scooter", "fusion_lon": 0.0, "lat": 38.9217805}, {"rental_uris": {"android": "https://dc.lft.to/lastmile_qr_scan", "ios": "https://dc.lft.to/lastmile_qr_scan"}, "is_reserved": 0, "is_disabled": 0, "name": "d7f0397b5907f7502b7165e9dce17882", "bike_id": "d7f0397b5907f7502b7165e9dce17882", "fusion_lat": 0.0, "lon": -76.9879705, "type": "electric_scooter", "fusion_lon": 0.0, "lat": 38.900285833333335}, {"rental_uris": {"android": "https://dc.lft.to/lastmile_qr_scan", "ios": "https://dc.lft.to/lastmile_qr_scan"}, "is_reserved": 0, "is_disabled": 0, "name": "435ea7920aa9e3c8468c45c677a8486a", "bike_id": "435ea7920aa9e3c8468c45c677a8486a", "fusion_lat": 0.0, "lon": -77.02715033333334, "type": "electric_scooter", "fusion_lon": 0.0, "lat": 38.90045}, {"rental_uris": {"android": "https://dc.lft.to/lastmile_qr_scan", "ios": "https://dc.lft.to/lastmile_qr_scan"}, "is_reserved": 0, "is_disabled": 0, "name": "aea33fc49249f983e50c184e16977f68", "bike_id": "aea33fc49249f983e50c184e16977f68", "fusion_lat": 0.0, "lon": -77.01235983333333, "type": "electric_scooter", "fusion_lon": 0.0, "lat": 38.915457}, {"rental_uris": {"android": "https://dc.lft.to/lastmile_qr_scan", "ios": "https://dc.lft.to/lastmile_qr_scan"}, "is_reserved": 0, "is_disabled": 0, "name": "34c27c5da3608f2a0f237626c054e3b6", "bike_id": "34c27c5da3608f2a0f237626c054e3b6", "fusion_lat": 0.0, "lon": -76.98375416666667, "type": "electric_scooter", "fusion_lon": 0.0, "lat": 38.89262033333333}, {"rental_uris": {"android": "https://dc.lft.to/lastmile_qr_scan", "ios": "https://dc.lft.to/lastmile_qr_scan"}, "is_reserved": 0, "is_disabled": 0, "name": "9ef7adbdad97064c5bfda4d28c1c1ad8", "bike_id": "9ef7adbdad97064c5bfda4d28c1c1ad8", "fusion_lat": 0.0, "lon": -77.03547483333334, "type": "electric_scooter", "fusion_lon": 0.0, "lat": 38.9036335}, {"rental_uris": {"android": "https://dc.lft.to/lastmile_qr_scan", "ios": "https://dc.lft.to/lastmile_qr_scan"}, "is_reserved": 0, "is_disabled": 0, "name": "86a24e2b75ec90e249d6b21577b4b74a", "bike_id": "86a24e2b75ec90e249d6b21577b4b74a", "fusion_lat": 0.0, "lon": -76.92969116666667, "type": "electric_scooter", "fusion_lon": 0.0, "lat": 38.88438416666666}, {"rental_uris": {"android": "https://dc.lft.to/lastmile_qr_scan", "ios": "https://dc.lft.to/lastmile_qr_scan"}, "is_reserved": 0, "is_disabled": 0, "name": "ce6be0ec83a79b38d5cd828650c294d9", "bike_id": "ce6be0ec83a79b38d5cd828650c294d9", "fusion_lat": 0.0, "lon": -77.05213916666666, "type": "electric_scooter", "fusion_lon": 0.0, "lat": 38.92431466666667}, {"rental_uris": {"android": "https://dc.lft.to/lastmile_qr_scan", "ios": "https://dc.lft.to/lastmile_qr_scan"}, "is_reserved": 0, "is_disabled": 0, "name": "f5915e8b839e738dfc16f5966efec55d", "bike_id": "f5915e8b839e738dfc16f5966efec55d", "fusion_lat": 0.0, "lon": -76.98575933333333, "type": "electric_scooter", "fusion_lon": 0.0, "lat": 38.896186666666665}, {"rental_uris": {"android": "https://dc.lft.to/lastmile_qr_scan", "ios": "https://dc.lft.to/lastmile_qr_scan"}, "is_reserved": 0, "is_disabled": 0, "name": "5bbc08cb204ce75660d0513e94f84406", "bike_id": "5bbc08cb204ce75660d0513e94f84406", "fusion_lat": 0.0, "lon": -77.0447625, "type": "electric_scooter", "fusion_lon": 0.0, "lat": 38.90285816666667}, {"rental_uris": {"android": "https://dc.lft.to/lastmile_qr_scan", "ios": "https://dc.lft.to/lastmile_qr_scan"}, "is_reserved": 0, "is_disabled": 0, "name": "84be4dfe9cbd32b8a16b01db6d99fba8", "bike_id": "84be4dfe9cbd32b8a16b01db6d99fba8", "fusion_lat": 0.0, "lon": -77.0432945, "type": "electric_scooter", "fusion_lon": 0.0, "lat": 38.926141}, {"rental_uris": {"android": "https://dc.lft.to/lastmile_qr_scan", "ios": "https://dc.lft.to/lastmile_qr_scan"}, "is_reserved": 0, "is_disabled": 0, "name": "a628ebc88927211cd37e372c26102936", "bike_id": "a628ebc88927211cd37e372c26102936", "fusion_lat": 0.0, "lon": -77.03731633333334, "type": "electric_scooter", "fusion_lon": 0.0, "lat": 38.92648616666666}, {"rental_uris": {"android": "https://dc.lft.to/lastmile_qr_scan", "ios": "https://dc.lft.to/lastmile_qr_scan"}, "is_reserved": 0, "is_disabled": 0, "name": "2904bf3db29d9b8d59eded1fdd10b685", "bike_id": "2904bf3db29d9b8d59eded1fdd10b685", "fusion_lat": 0.0, "lon": -76.99521366666667, "type": "electric_scooter", "fusion_lon": 0.0, "lat": 38.88366083333333}, {"rental_uris": {"android": "https://dc.lft.to/lastmile_qr_scan", "ios": "https://dc.lft.to/lastmile_qr_scan"}, "is_reserved": 0, "is_disabled": 0, "name": "2c02eaf69edd20b8cd78e14d7e12e129", "bike_id": "2c02eaf69edd20b8cd78e14d7e12e129", "fusion_lat": 0.0, "lon": -76.98617966666667, "type": "electric_scooter", "fusion_lon": 0.0, "lat": 38.938241}, {"rental_uris": {"android": "https://dc.lft.to/lastmile_qr_scan", "ios": "https://dc.lft.to/lastmile_qr_scan"}, "is_reserved": 0, "is_disabled": 0, "name": "0cbd7d7b5e8af1b90d8dbd0afc414738", "bike_id": "0cbd7d7b5e8af1b90d8dbd0afc414738", "fusion_lat": 0.0, "lon": -77.02804666666667, "type": "electric_scooter", "fusion_lon": 0.0, "lat": 38.923098333333336}, {"rental_uris": {"android": "https://dc.lft.to/lastmile_qr_scan", "ios": "https://dc.lft.to/lastmile_qr_scan"}, "is_reserved": 0, "is_disabled": 0, "name": "f48173d9881579d158c026c0b39d1161", "bike_id": "f48173d9881579d158c026c0b39d1161", "fusion_lat": 0.0, "lon": -76.987452, "type": "electric_scooter", "fusion_lon": 0.0, "lat": 38.879637833333334}, {"rental_uris": {"android": "https://dc.lft.to/lastmile_qr_scan", "ios": "https://dc.lft.to/lastmile_qr_scan"}, "is_reserved": 0, "is_disabled": 0, "name": "501fac65c423c03fdce293a1ccb3851e", "bike_id": "501fac65c423c03fdce293a1ccb3851e", "fusion_lat": 0.0, "lon": -77.00138633333333, "type": "electric_scooter", "fusion_lon": 0.0, "lat": 38.8843225}, {"rental_uris": {"android": "https://dc.lft.to/lastmile_qr_scan", "ios": "https://dc.lft.to/lastmile_qr_scan"}, "is_reserved": 0, "is_disabled": 0, "name": "89ce3aca5826a91dcd54ee533cbc0a26", "bike_id": "89ce3aca5826a91dcd54ee533cbc0a26", "fusion_lat": 0.0, "lon": -77.02090166666666, "type": "electric_scooter", "fusion_lon": 0.0, "lat": 38.87594433333334}, {"rental_uris": {"android": "https://dc.lft.to/lastmile_qr_scan", "ios": "https://dc.lft.to/lastmile_qr_scan"}, "is_reserved": 0, "is_disabled": 0, "name": "bca8bff11433b34787c3cdffe0575cbe", "bike_id": "bca8bff11433b34787c3cdffe0575cbe", "fusion_lat": 0.0, "lon": -77.01391483333333, "type": "electric_scooter", "fusion_lon": 0.0, "lat": 38.878936}, {"rental_uris": {"android": "https://dc.lft.to/lastmile_qr_scan", "ios": "https://dc.lft.to/lastmile_qr_scan"}, "is_reserved": 0, "is_disabled": 0, "name": "cbec37867f798b223c6b2d17f047fb18", "bike_id": "cbec37867f798b223c6b2d17f047fb18", "fusion_lat": 0.0, "lon": -76.99521083333333, "type": "electric_scooter", "fusion_lon": 0.0, "lat": 38.8836885}, {"rental_uris": {"android": "https://dc.lft.to/lastmile_qr_scan", "ios": "https://dc.lft.to/lastmile_qr_scan"}, "is_reserved": 0, "is_disabled": 0, "name": "e693f4df63ce706e4caf44a767fe1bac", "bike_id": "e693f4df63ce706e4caf44a767fe1bac", "fusion_lat": 0.0, "lon": -77.04018283333333, "type": "electric_scooter", "fusion_lon": 0.0, "lat": 38.910037833333334}, {"rental_uris": {"android": "https://dc.lft.to/lastmile_qr_scan", "ios": "https://dc.lft.to/lastmile_qr_scan"}, "is_reserved": 0, "is_disabled": 0, "name": "e3e799fd4eeca04684927b63d5f3b944", "bike_id": "e3e799fd4eeca04684927b63d5f3b944", "fusion_lat": 0.0, "lon": -77.03372316666666, "type": "electric_scooter", "fusion_lon": 0.0, "lat": 38.8973605}, {"rental_uris": {"android": "https://dc.lft.to/lastmile_qr_scan", "ios": "https://dc.lft.to/lastmile_qr_scan"}, "is_reserved": 0, "is_disabled": 0, "name": "7e867845e0c4e5e6eee008c9b65233b1", "bike_id": "7e867845e0c4e5e6eee008c9b65233b1", "fusion_lat": 0.0, "lon": -77.04332683333334, "type": "electric_scooter", "fusion_lon": 0.0, "lat": 38.905062}, {"rental_uris": {"android": "https://dc.lft.to/lastmile_qr_scan", "ios": "https://dc.lft.to/lastmile_qr_scan"}, "is_reserved": 0, "is_disabled": 0, "name": "6cecf62c8144d7165313f827942ea56b", "bike_id": "6cecf62c8144d7165313f827942ea56b", "fusion_lat": 0.0, "lon": -77.01649883333333, "type": "electric_scooter", "fusion_lon": 0.0, "lat": 38.881112}, {"rental_uris": {"android": "https://dc.lft.to/lastmile_qr_scan", "ios": "https://dc.lft.to/lastmile_qr_scan"}, "is_reserved": 0, "is_disabled": 0, "name": "76b73d4249eb74469755d87d447231b0", "bike_id": "76b73d4249eb74469755d87d447231b0", "fusion_lat": 0.0, "lon": -76.9985075, "type": "electric_scooter", "fusion_lon": 0.0, "lat": 38.896128833333336}, {"rental_uris": {"android": "https://dc.lft.to/lastmile_qr_scan", "ios": "https://dc.lft.to/lastmile_qr_scan"}, "is_reserved": 0, "is_disabled": 0, "name": "0a443dfa4390bc848a43905dfe796240", "bike_id": "0a443dfa4390bc848a43905dfe796240", "fusion_lat": 0.0, "lon": -77.03906816666667, "type": "electric_scooter", "fusion_lon": 0.0, "lat": 38.92240683333333}, {"rental_uris": {"android": "https://dc.lft.to/lastmile_qr_scan", "ios": "https://dc.lft.to/lastmile_qr_scan"}, "is_reserved": 0, "is_disabled": 0, "name": "c8786d02932fd7cbc5b8a3f96ae535c1", "bike_id": "c8786d02932fd7cbc5b8a3f96ae535c1", "fusion_lat": 0.0, "lon": -77.04556633333333, "type": "electric_scooter", "fusion_lon": 0.0, "lat": 38.89823783333333}, {"rental_uris": {"android": "https://dc.lft.to/lastmile_qr_scan", "ios": "https://dc.lft.to/lastmile_qr_scan"}, "is_reserved": 0, "is_disabled": 0, "name": "f4e453713235e5b94da24bed64a94f40", "bike_id": "f4e453713235e5b94da24bed64a94f40", "fusion_lat": 0.0, "lon": -77.032719, "type": "electric_scooter", "fusion_lon": 0.0, "lat": 38.930877}, {"rental_uris": {"android": "https://dc.lft.to/lastmile_qr_scan", "ios": "https://dc.lft.to/lastmile_qr_scan"}, "is_reserved": 0, "is_disabled": 0, "name": "cce9aaddf0483545340dfc0018ca566e", "bike_id": "cce9aaddf0483545340dfc0018ca566e", "fusion_lat": 0.0, "lon": -77.05209016666667, "type": "electric_scooter", "fusion_lon": 0.0, "lat": 38.90244716666667}, {"rental_uris": {"android": "https://dc.lft.to/lastmile_qr_scan", "ios": "https://dc.lft.to/lastmile_qr_scan"}, "is_reserved": 0, "is_disabled": 0, "name": "5c4d8ddc7a652c9c3d551a30081c0793", "bike_id": "5c4d8ddc7a652c9c3d551a30081c0793", "fusion_lat": 0.0, "lon": -77.0373425, "type": "electric_scooter", "fusion_lon": 0.0, "lat": 38.92651716666667}, {"rental_uris": {"android": "https://dc.lft.to/lastmile_qr_scan", "ios": "https://dc.lft.to/lastmile_qr_scan"}, "is_reserved": 0, "is_disabled": 0, "name": "e2df0839f434fba5db9f81a2e557bdd7", "bike_id": "e2df0839f434fba5db9f81a2e557bdd7", "fusion_lat": 0.0, "lon": -77.05332766666666, "type": "electric_scooter", "fusion_lon": 0.0, "lat": 38.90508116666667}, {"rental_uris": {"android": "https://dc.lft.to/lastmile_qr_scan", "ios": "https://dc.lft.to/lastmile_qr_scan"}, "is_reserved": 0, "is_disabled": 0, "name": "c01739b5a6274132a36683f2291538ce", "bike_id": "c01739b5a6274132a36683f2291538ce", "fusion_lat": 0.0, "lon": -77.04506966666666, "type": "electric_scooter", "fusion_lon": 0.0, "lat": 38.90359016666667}, {"rental_uris": {"android": "https://dc.lft.to/lastmile_qr_scan", "ios": "https://dc.lft.to/lastmile_qr_scan"}, "is_reserved": 0, "is_disabled": 0, "name": "47e2b5bda20a39be09782da82f67be8b", "bike_id": "47e2b5bda20a39be09782da82f67be8b", "fusion_lat": 0.0, "lon": -77.0657675, "type": "electric_bike", "fusion_lon": 0.0, "lat": 38.93253033333333}, {"rental_uris": {"android": "https://dc.lft.to/lastmile_qr_scan", "ios": "https://dc.lft.to/lastmile_qr_scan"}, "is_reserved": 0, "is_disabled": 0, "name": "4fa723623a0949f8ed2b2dc0d6f6032a", "bike_id": "4fa723623a0949f8ed2b2dc0d6f6032a", "fusion_lat": 0.0, "lon": -76.99524366666667, "type": "electric_scooter", "fusion_lon": 0.0, "lat": 38.883668666666665}, {"rental_uris": {"android": "https://dc.lft.to/lastmile_qr_scan", "ios": "https://dc.lft.to/lastmile_qr_scan"}, "is_reserved": 0, "is_disabled": 0, "name": "5e68f47e49260cf09a4b3a2ae15ee2cc", "bike_id": "5e68f47e49260cf09a4b3a2ae15ee2cc", "fusion_lat": 0.0, "lon": -77.04573933333333, "type": "electric_scooter", "fusion_lon": 0.0, "lat": 38.913877166666666}, {"rental_uris": {"android": "https://dc.lft.to/lastmile_qr_scan", "ios": "https://dc.lft.to/lastmile_qr_scan"}, "is_reserved": 0, "is_disabled": 0, "name": "87d8bc5537e11644a2169a3643ff2751", "bike_id": "87d8bc5537e11644a2169a3643ff2751", "fusion_lat": 0.0, "lon": -77.02636883333334, "type": "electric_scooter", "fusion_lon": 0.0, "lat": 38.930275}, {"rental_uris": {"android": "https://dc.lft.to/lastmile_qr_scan", "ios": "https://dc.lft.to/lastmile_qr_scan"}, "is_reserved": 0, "is_disabled": 0, "name": "84443bc888ea59f5a57a62793da84089", "bike_id": "84443bc888ea59f5a57a62793da84089", "fusion_lat": 0.0, "lon": -77.03194566666667, "type": "electric_scooter", "fusion_lon": 0.0, "lat": 38.8974205}, {"rental_uris": {"android": "https://dc.lft.to/lastmile_qr_scan", "ios": "https://dc.lft.to/lastmile_qr_scan"}, "is_reserved": 0, "is_disabled": 0, "name": "38ac0d912a47af139ca41531262cca2a", "bike_id": "38ac0d912a47af139ca41531262cca2a", "fusion_lat": 0.0, "lon": -77.03670133333334, "type": "electric_scooter", "fusion_lon": 0.0, "lat": 38.92746833333333}, {"rental_uris": {"android": "https://dc.lft.to/lastmile_qr_scan", "ios": "https://dc.lft.to/lastmile_qr_scan"}, "is_reserved": 0, "is_disabled": 0, "name": "6bd49cb4a01037a2a15a36f1a91cf06b", "bike_id": "6bd49cb4a01037a2a15a36f1a91cf06b", "fusion_lat": 0.0, "lon": -77.05900183333334, "type": "electric_scooter", "fusion_lon": 0.0, "lat": 38.9034345}, {"rental_uris": {"android": "https://dc.lft.to/lastmile_qr_scan", "ios": "https://dc.lft.to/lastmile_qr_scan"}, "is_reserved": 0, "is_disabled": 0, "name": "2ca70bfbcf6be63b1c7c5a613a188105", "bike_id": "2ca70bfbcf6be63b1c7c5a613a188105", "fusion_lat": 0.0, "lon": -77.03143966666667, "type": "electric_scooter", "fusion_lon": 0.0, "lat": 38.903545666666666}, {"rental_uris": {"android": "https://dc.lft.to/lastmile_qr_scan", "ios": "https://dc.lft.to/lastmile_qr_scan"}, "is_reserved": 0, "is_disabled": 0, "name": "e60ac27ff416bc95c67b868e21d5ce63", "bike_id": "e60ac27ff416bc95c67b868e21d5ce63", "fusion_lat": 0.0, "lon": -77.03852066666667, "type": "electric_scooter", "fusion_lon": 0.0, "lat": 38.91960016666667}, {"rental_uris": {"android": "https://dc.lft.to/lastmile_qr_scan", "ios": "https://dc.lft.to/lastmile_qr_scan"}, "is_reserved": 0, "is_disabled": 0, "name": "4b642f5f5ce439fe1a73aefddff23571", "bike_id": "4b642f5f5ce439fe1a73aefddff23571", "fusion_lat": 0.0, "lon": -77.07135233333334, "type": "electric_scooter", "fusion_lon": 0.0, "lat": 38.92019766666667}, {"rental_uris": {"android": "https://dc.lft.to/lastmile_qr_scan", "ios": "https://dc.lft.to/lastmile_qr_scan"}, "is_reserved": 0, "is_disabled": 0, "name": "e5c11fe0707718776ff5a6a32e3a0f76", "bike_id": "e5c11fe0707718776ff5a6a32e3a0f76", "fusion_lat": 0.0, "lon": -77.02790783333333, "type": "electric_scooter", "fusion_lon": 0.0, "lat": 38.96214666666667}, {"rental_uris": {"android": "https://dc.lft.to/lastmile_qr_scan", "ios": "https://dc.lft.to/lastmile_qr_scan"}, "is_reserved": 0, "is_disabled": 0, "name": "5f3a65b4cb86e45c6f0076f784c3dea7", "bike_id": "5f3a65b4cb86e45c6f0076f784c3dea7", "fusion_lat": 0.0, "lon": -77.09002233333334, "type": "electric_bike", "fusion_lon": 0.0, "lat": 38.90897433333333}, {"rental_uris": {"android": "https://dc.lft.to/lastmile_qr_scan", "ios": "https://dc.lft.to/lastmile_qr_scan"}, "is_reserved": 0, "is_disabled": 0, "name": "4383afd810fbda77e15a7772443b4e45", "bike_id": "4383afd810fbda77e15a7772443b4e45", "fusion_lat": 0.0, "lon": -77.03924116666667, "type": "electric_scooter", "fusion_lon": 0.0, "lat": 38.914685666666664}, {"rental_uris": {"android": "https://dc.lft.to/lastmile_qr_scan", "ios": "https://dc.lft.to/lastmile_qr_scan"}, "is_reserved": 0, "is_disabled": 0, "name": "6134f24c05bd7653682a3e6bb71d28e4", "bike_id": "6134f24c05bd7653682a3e6bb71d28e4", "fusion_lat": 0.0, "lon": -76.937504, "type": "electric_scooter", "fusion_lon": 0.0, "lat": 38.8902965}, {"rental_uris": {"android": "https://dc.lft.to/lastmile_qr_scan", "ios": "https://dc.lft.to/lastmile_qr_scan"}, "is_reserved": 0, "is_disabled": 0, "name": "69a96fe5c079ed6e2e8190a01868958a", "bike_id": "69a96fe5c079ed6e2e8190a01868958a", "fusion_lat": 0.0, "lon": -77.044504, "type": "electric_scooter", "fusion_lon": 0.0, "lat": 38.922400833333334}, {"rental_uris": {"android": "https://dc.lft.to/lastmile_qr_scan", "ios": "https://dc.lft.to/lastmile_qr_scan"}, "is_reserved": 0, "is_disabled": 0, "name": "8d6ce296fe56bb1155902e64a73fbf96", "bike_id": "8d6ce296fe56bb1155902e64a73fbf96", "fusion_lat": 0.0, "lon": -76.99392516666667, "type": "electric_scooter", "fusion_lon": 0.0, "lat": 38.910188}, {"rental_uris": {"android": "https://dc.lft.to/lastmile_qr_scan", "ios": "https://dc.lft.to/lastmile_qr_scan"}, "is_reserved": 0, "is_disabled": 0, "name": "ea51dd688db1e6104c31a96a23d1350b", "bike_id": "ea51dd688db1e6104c31a96a23d1350b", "fusion_lat": 0.0, "lon": -77.00067633333333, "type": "electric_scooter", "fusion_lon": 0.0, "lat": 38.87646983333333}, {"rental_uris": {"android": "https://dc.lft.to/lastmile_qr_scan", "ios": "https://dc.lft.to/lastmile_qr_scan"}, "is_reserved": 0, "is_disabled": 0, "name": "e72a36ae9c64daf95f7980c9b02169be", "bike_id": "e72a36ae9c64daf95f7980c9b02169be", "fusion_lat": 0.0, "lon": -77.04642783333334, "type": "electric_scooter", "fusion_lon": 0.0, "lat": 38.904609}, {"rental_uris": {"android": "https://dc.lft.to/lastmile_qr_scan", "ios": "https://dc.lft.to/lastmile_qr_scan"}, "is_reserved": 0, "is_disabled": 0, "name": "724f9e72e0ad0478a2a36f6d6e7a9e8e", "bike_id": "724f9e72e0ad0478a2a36f6d6e7a9e8e", "fusion_lat": 0.0, "lon": -77.031106, "type": "electric_scooter", "fusion_lon": 0.0, "lat": 38.89990683333333}, {"rental_uris": {"android": "https://dc.lft.to/lastmile_qr_scan", "ios": "https://dc.lft.to/lastmile_qr_scan"}, "is_reserved": 0, "is_disabled": 0, "name": "8c4474ee6eaa5bfec8f1eef73ab313d7", "bike_id": "8c4474ee6eaa5bfec8f1eef73ab313d7", "fusion_lat": 0.0, "lon": -77.04349416666666, "type": "electric_scooter", "fusion_lon": 0.0, "lat": 38.90426733333334}, {"rental_uris": {"android": "https://dc.lft.to/lastmile_qr_scan", "ios": "https://dc.lft.to/lastmile_qr_scan"}, "is_reserved": 0, "is_disabled": 0, "name": "9e9c9981352540420ea0fb23fdbba36c", "bike_id": "9e9c9981352540420ea0fb23fdbba36c", "fusion_lat": 0.0, "lon": -77.017266, "type": "electric_scooter", "fusion_lon": 0.0, "lat": 38.900788}, {"rental_uris": {"android": "https://dc.lft.to/lastmile_qr_scan", "ios": "https://dc.lft.to/lastmile_qr_scan"}, "is_reserved": 0, "is_disabled": 0, "name": "73648b204b3ff2096b017165e8f27dcf", "bike_id": "73648b204b3ff2096b017165e8f27dcf", "fusion_lat": 0.0, "lon": -76.94971583333333, "type": "electric_scooter", "fusion_lon": 0.0, "lat": 38.90494833333333}, {"rental_uris": {"android": "https://dc.lft.to/lastmile_qr_scan", "ios": "https://dc.lft.to/lastmile_qr_scan"}, "is_reserved": 0, "is_disabled": 0, "name": "b7d019235a44daf6a3bc1ccd7263aeb4", "bike_id": "b7d019235a44daf6a3bc1ccd7263aeb4", "fusion_lat": 0.0, "lon": -77.05005416666667, "type": "electric_scooter", "fusion_lon": 0.0, "lat": 38.892322}, {"rental_uris": {"android": "https://dc.lft.to/lastmile_qr_scan", "ios": "https://dc.lft.to/lastmile_qr_scan"}, "is_reserved": 0, "is_disabled": 0, "name": "5f558d8a498d8a153e69c5fb6af736ab", "bike_id": "5f558d8a498d8a153e69c5fb6af736ab", "fusion_lat": 0.0, "lon": -77.01895166666667, "type": "electric_scooter", "fusion_lon": 0.0, "lat": 38.9148205}, {"rental_uris": {"android": "https://dc.lft.to/lastmile_qr_scan", "ios": "https://dc.lft.to/lastmile_qr_scan"}, "is_reserved": 0, "is_disabled": 0, "name": "026a841880797d0f9b2a44020da9b59d", "bike_id": "026a841880797d0f9b2a44020da9b59d", "fusion_lat": 0.0, "lon": -77.03662783333333, "type": "electric_scooter", "fusion_lon": 0.0, "lat": 38.9068055}, {"rental_uris": {"android": "https://dc.lft.to/lastmile_qr_scan", "ios": "https://dc.lft.to/lastmile_qr_scan"}, "is_reserved": 0, "is_disabled": 0, "name": "1b3a6c93c1b7b71db7cfce8e37449f87", "bike_id": "1b3a6c93c1b7b71db7cfce8e37449f87", "fusion_lat": 0.0, "lon": -76.9931655, "type": "electric_scooter", "fusion_lon": 0.0, "lat": 38.90590066666667}, {"rental_uris": {"android": "https://dc.lft.to/lastmile_qr_scan", "ios": "https://dc.lft.to/lastmile_qr_scan"}, "is_reserved": 0, "is_disabled": 0, "name": "ce78f25285beb99be05b7f5eb54452af", "bike_id": "ce78f25285beb99be05b7f5eb54452af", "fusion_lat": 0.0, "lon": -77.0527785, "type": "electric_scooter", "fusion_lon": 0.0, "lat": 38.90152283333333}, {"rental_uris": {"android": "https://dc.lft.to/lastmile_qr_scan", "ios": "https://dc.lft.to/lastmile_qr_scan"}, "is_reserved": 0, "is_disabled": 0, "name": "110d229664c54e814f0a8146ec10213c", "bike_id": "110d229664c54e814f0a8146ec10213c", "fusion_lat": 0.0, "lon": -77.02865816666667, "type": "electric_bike", "fusion_lon": 0.0, "lat": 38.92136333333333}, {"rental_uris": {"android": "https://dc.lft.to/lastmile_qr_scan", "ios": "https://dc.lft.to/lastmile_qr_scan"}, "is_reserved": 0, "is_disabled": 0, "name": "b25386ceb3f3742776ed5644b5010fbe", "bike_id": "b25386ceb3f3742776ed5644b5010fbe", "fusion_lat": 0.0, "lon": -77.0403155, "type": "electric_scooter", "fusion_lon": 0.0, "lat": 38.898523833333336}, {"rental_uris": {"android": "https://dc.lft.to/lastmile_qr_scan", "ios": "https://dc.lft.to/lastmile_qr_scan"}, "is_reserved": 0, "is_disabled": 0, "name": "bad6953b1c634191de456675f82e64b5", "bike_id": "bad6953b1c634191de456675f82e64b5", "fusion_lat": 0.0, "lon": -77.0076825, "type": "electric_bike", "fusion_lon": 0.0, "lat": 38.9977975}, {"rental_uris": {"android": "https://dc.lft.to/lastmile_qr_scan", "ios": "https://dc.lft.to/lastmile_qr_scan"}, "is_reserved": 0, "is_disabled": 0, "name": "e00a58ca8261eb5ae11061343cf22312", "bike_id": "e00a58ca8261eb5ae11061343cf22312", "fusion_lat": 0.0, "lon": -77.00914483333334, "type": "electric_scooter", "fusion_lon": 0.0, "lat": 38.90042966666667}, {"rental_uris": {"android": "https://dc.lft.to/lastmile_qr_scan", "ios": "https://dc.lft.to/lastmile_qr_scan"}, "is_reserved": 0, "is_disabled": 0, "name": "53f6f8004cd013d839a71453d9a79368", "bike_id": "53f6f8004cd013d839a71453d9a79368", "fusion_lat": 0.0, "lon": -77.028998, "type": "electric_scooter", "fusion_lon": 0.0, "lat": 38.91403966666667}, {"rental_uris": {"android": "https://dc.lft.to/lastmile_qr_scan", "ios": "https://dc.lft.to/lastmile_qr_scan"}, "is_reserved": 0, "is_disabled": 0, "name": "1d1012d5658b05ce58fc653c320ace13", "bike_id": "1d1012d5658b05ce58fc653c320ace13", "fusion_lat": 0.0, "lon": -76.94555566666666, "type": "electric_bike", "fusion_lon": 0.0, "lat": 38.98292083333333}, {"rental_uris": {"android": "https://dc.lft.to/lastmile_qr_scan", "ios": "https://dc.lft.to/lastmile_qr_scan"}, "is_reserved": 0, "is_disabled": 0, "name": "9480b47e1f8ceec8b11d088ec75990c8", "bike_id": "9480b47e1f8ceec8b11d088ec75990c8", "fusion_lat": 0.0, "lon": -77.02673666666666, "type": "electric_scooter", "fusion_lon": 0.0, "lat": 38.896353500000004}, {"rental_uris": {"android": "https://dc.lft.to/lastmile_qr_scan", "ios": "https://dc.lft.to/lastmile_qr_scan"}, "is_reserved": 0, "is_disabled": 0, "name": "e20f18c63ecda26742a37fd03f69a329", "bike_id": "e20f18c63ecda26742a37fd03f69a329", "fusion_lat": 0.0, "lon": -77.016644, "type": "electric_scooter", "fusion_lon": 0.0, "lat": 38.8770485}, {"rental_uris": {"android": "https://dc.lft.to/lastmile_qr_scan", "ios": "https://dc.lft.to/lastmile_qr_scan"}, "is_reserved": 0, "is_disabled": 0, "name": "00859c253dd0a988df52c8f24614dc8e", "bike_id": "00859c253dd0a988df52c8f24614dc8e", "fusion_lat": 0.0, "lon": -77.02797566666666, "type": "electric_scooter", "fusion_lon": 0.0, "lat": 38.9540515}, {"rental_uris": {"android": "https://dc.lft.to/lastmile_qr_scan", "ios": "https://dc.lft.to/lastmile_qr_scan"}, "is_reserved": 0, "is_disabled": 0, "name": "9dc1a6480338e1b8f51b8d55ef32a82c", "bike_id": "9dc1a6480338e1b8f51b8d55ef32a82c", "fusion_lat": 0.0, "lon": -76.95255033333333, "type": "electric_bike", "fusion_lon": 0.0, "lat": 38.884628666666664}, {"rental_uris": {"android": "https://dc.lft.to/lastmile_qr_scan", "ios": "https://dc.lft.to/lastmile_qr_scan"}, "is_reserved": 0, "is_disabled": 0, "name": "d0c764755b5c86f6a32546000fb08fe8", "bike_id": "d0c764755b5c86f6a32546000fb08fe8", "fusion_lat": 0.0, "lon": -77.0328015, "type": "electric_bike", "fusion_lon": 0.0, "lat": 38.9612185}, {"rental_uris": {"android": "https://dc.lft.to/lastmile_qr_scan", "ios": "https://dc.lft.to/lastmile_qr_scan"}, "is_reserved": 0, "is_disabled": 0, "name": "a90c65bfe1c0b6dc623e3f2ff5c452b0", "bike_id": "a90c65bfe1c0b6dc623e3f2ff5c452b0", "fusion_lat": 0.0, "lon": -77.00969233333333, "type": "electric_scooter", "fusion_lon": 0.0, "lat": 38.916962}, {"rental_uris": {"android": "https://dc.lft.to/lastmile_qr_scan", "ios": "https://dc.lft.to/lastmile_qr_scan"}, "is_reserved": 0, "is_disabled": 0, "name": "70e3f160579ef2692d63cf445b840228", "bike_id": "70e3f160579ef2692d63cf445b840228", "fusion_lat": 0.0, "lon": -77.042232, "type": "electric_scooter", "fusion_lon": 0.0, "lat": 38.907582833333336}, {"rental_uris": {"android": "https://dc.lft.to/lastmile_qr_scan", "ios": "https://dc.lft.to/lastmile_qr_scan"}, "is_reserved": 0, "is_disabled": 0, "name": "e8222b8a66a35e58cd3db35311abe149", "bike_id": "e8222b8a66a35e58cd3db35311abe149", "fusion_lat": 0.0, "lon": -77.024819, "type": "electric_scooter", "fusion_lon": 0.0, "lat": 38.91807583333333}, {"rental_uris": {"android": "https://dc.lft.to/lastmile_qr_scan", "ios": "https://dc.lft.to/lastmile_qr_scan"}, "is_reserved": 0, "is_disabled": 0, "name": "9493a011ab958bd62f0c3897f25d8ce7", "bike_id": "9493a011ab958bd62f0c3897f25d8ce7", "fusion_lat": 0.0, "lon": -77.020363, "type": "electric_scooter", "fusion_lon": 0.0, "lat": 38.922063}, {"rental_uris": {"android": "https://dc.lft.to/lastmile_qr_scan", "ios": "https://dc.lft.to/lastmile_qr_scan"}, "is_reserved": 0, "is_disabled": 0, "name": "31a78dc3afb3bda97101b5e2a524645a", "bike_id": "31a78dc3afb3bda97101b5e2a524645a", "fusion_lat": 0.0, "lon": -77.04243983333333, "type": "electric_scooter", "fusion_lon": 0.0, "lat": 38.92208383333333}, {"rental_uris": {"android": "https://dc.lft.to/lastmile_qr_scan", "ios": "https://dc.lft.to/lastmile_qr_scan"}, "is_reserved": 0, "is_disabled": 0, "name": "c78fa4b61cb1a33a94a364ac4592e983", "bike_id": "c78fa4b61cb1a33a94a364ac4592e983", "fusion_lat": 0.0, "lon": -77.04629233333333, "type": "electric_scooter", "fusion_lon": 0.0, "lat": 38.909483333333334}, {"rental_uris": {"android": "https://dc.lft.to/lastmile_qr_scan", "ios": "https://dc.lft.to/lastmile_qr_scan"}, "is_reserved": 0, "is_disabled": 0, "name": "72a275b210eaa037f865883e4093651e", "bike_id": "72a275b210eaa037f865883e4093651e", "fusion_lat": 0.0, "lon": -77.0277375, "type": "electric_scooter", "fusion_lon": 0.0, "lat": 38.95304933333333}, {"rental_uris": {"android": "https://dc.lft.to/lastmile_qr_scan", "ios": "https://dc.lft.to/lastmile_qr_scan"}, "is_reserved": 0, "is_disabled": 0, "name": "4122c04f335e936520ff6f345ce45fb7", "bike_id": "4122c04f335e936520ff6f345ce45fb7", "fusion_lat": 0.0, "lon": -77.01787316666666, "type": "electric_scooter", "fusion_lon": 0.0, "lat": 38.89868466666667}, {"rental_uris": {"android": "https://dc.lft.to/lastmile_qr_scan", "ios": "https://dc.lft.to/lastmile_qr_scan"}, "is_reserved": 0, "is_disabled": 0, "name": "c4f1ca3751711ce73352a2fa2b3ec737", "bike_id": "c4f1ca3751711ce73352a2fa2b3ec737", "fusion_lat": 0.0, "lon": -77.021408, "type": "electric_scooter", "fusion_lon": 0.0, "lat": 38.92408916666667}, {"rental_uris": {"android": "https://dc.lft.to/lastmile_qr_scan", "ios": "https://dc.lft.to/lastmile_qr_scan"}, "is_reserved": 0, "is_disabled": 0, "name": "71109111955fe72969ab30cd86c1e457", "bike_id": "71109111955fe72969ab30cd86c1e457", "fusion_lat": 0.0, "lon": -77.0398985, "type": "electric_scooter", "fusion_lon": 0.0, "lat": 38.901333666666666}, {"rental_uris": {"android": "https://dc.lft.to/lastmile_qr_scan", "ios": "https://dc.lft.to/lastmile_qr_scan"}, "is_reserved": 0, "is_disabled": 0, "name": "9111c6cdf86a07e870f3e02447dae21e", "bike_id": "9111c6cdf86a07e870f3e02447dae21e", "fusion_lat": 0.0, "lon": -77.02375916666666, "type": "electric_scooter", "fusion_lon": 0.0, "lat": 38.89224466666667}, {"rental_uris": {"android": "https://dc.lft.to/lastmile_qr_scan", "ios": "https://dc.lft.to/lastmile_qr_scan"}, "is_reserved": 0, "is_disabled": 0, "name": "98fa89d476456aa483e97d8991afadba", "bike_id": "98fa89d476456aa483e97d8991afadba", "fusion_lat": 0.0, "lon": -77.03274466666667, "type": "electric_scooter", "fusion_lon": 0.0, "lat": 38.89843}, {"rental_uris": {"android": "https://dc.lft.to/lastmile_qr_scan", "ios": "https://dc.lft.to/lastmile_qr_scan"}, "is_reserved": 0, "is_disabled": 0, "name": "8bf140454581ded618382f9170b36f53", "bike_id": "8bf140454581ded618382f9170b36f53", "fusion_lat": 0.0, "lon": -77.00361016666666, "type": "electric_scooter", "fusion_lon": 0.0, "lat": 38.90732283333333}, {"rental_uris": {"android": "https://dc.lft.to/lastmile_qr_scan", "ios": "https://dc.lft.to/lastmile_qr_scan"}, "is_reserved": 0, "is_disabled": 0, "name": "e8fbe6bfebd15c35f5f0a5dd9956098e", "bike_id": "e8fbe6bfebd15c35f5f0a5dd9956098e", "fusion_lat": 0.0, "lon": -77.02170883333334, "type": "electric_scooter", "fusion_lon": 0.0, "lat": 38.899377333333334}, {"rental_uris": {"android": "https://dc.lft.to/lastmile_qr_scan", "ios": "https://dc.lft.to/lastmile_qr_scan"}, "is_reserved": 0, "is_disabled": 0, "name": "736f169cc85546630d410418f72d3b23", "bike_id": "736f169cc85546630d410418f72d3b23", "fusion_lat": 0.0, "lon": -77.04158866666667, "type": "electric_scooter", "fusion_lon": 0.0, "lat": 38.89557333333333}, {"rental_uris": {"android": "https://dc.lft.to/lastmile_qr_scan", "ios": "https://dc.lft.to/lastmile_qr_scan"}, "is_reserved": 0, "is_disabled": 0, "name": "014825f5e8f5e11f0d0b6f8675167c0a", "bike_id": "014825f5e8f5e11f0d0b6f8675167c0a", "fusion_lat": 0.0, "lon": -77.04266516666667, "type": "electric_scooter", "fusion_lon": 0.0, "lat": 38.922318}, {"rental_uris": {"android": "https://dc.lft.to/lastmile_qr_scan", "ios": "https://dc.lft.to/lastmile_qr_scan"}, "is_reserved": 0, "is_disabled": 0, "name": "72aea58abc4067587d50539eeb0a561c", "bike_id": "72aea58abc4067587d50539eeb0a561c", "fusion_lat": 0.0, "lon": -77.01982483333333, "type": "electric_scooter", "fusion_lon": 0.0, "lat": 38.887172}, {"rental_uris": {"android": "https://dc.lft.to/lastmile_qr_scan", "ios": "https://dc.lft.to/lastmile_qr_scan"}, "is_reserved": 0, "is_disabled": 0, "name": "cdf2e83606f255d9014300b78816fcd1", "bike_id": "cdf2e83606f255d9014300b78816fcd1", "fusion_lat": 0.0, "lon": -77.02994266666667, "type": "electric_scooter", "fusion_lon": 0.0, "lat": 38.9426925}, {"rental_uris": {"android": "https://dc.lft.to/lastmile_qr_scan", "ios": "https://dc.lft.to/lastmile_qr_scan"}, "is_reserved": 0, "is_disabled": 0, "name": "0fc88a26c07969f0a5d57b066fb8eec4", "bike_id": "0fc88a26c07969f0a5d57b066fb8eec4", "fusion_lat": 0.0, "lon": -77.04470733333333, "type": "electric_scooter", "fusion_lon": 0.0, "lat": 38.92466016666667}, {"rental_uris": {"android": "https://dc.lft.to/lastmile_qr_scan", "ios": "https://dc.lft.to/lastmile_qr_scan"}, "is_reserved": 0, "is_disabled": 0, "name": "e004819c3ddae7c989ef67daddb011d4", "bike_id": "e004819c3ddae7c989ef67daddb011d4", "fusion_lat": 0.0, "lon": -77.02385883333334, "type": "electric_scooter", "fusion_lon": 0.0, "lat": 38.91652416666667}, {"rental_uris": {"android": "https://dc.lft.to/lastmile_qr_scan", "ios": "https://dc.lft.to/lastmile_qr_scan"}, "is_reserved": 0, "is_disabled": 0, "name": "4a5b8dd414ef713cb808b484adbf9106", "bike_id": "4a5b8dd414ef713cb808b484adbf9106", "fusion_lat": 0.0, "lon": -77.01593883333334, "type": "electric_scooter", "fusion_lon": 0.0, "lat": 38.87466766666667}, {"rental_uris": {"android": "https://dc.lft.to/lastmile_qr_scan", "ios": "https://dc.lft.to/lastmile_qr_scan"}, "is_reserved": 0, "is_disabled": 0, "name": "aa3ac58a9097b2748764af1762a1ff90", "bike_id": "aa3ac58a9097b2748764af1762a1ff90", "fusion_lat": 0.0, "lon": -77.0150115, "type": "electric_scooter", "fusion_lon": 0.0, "lat": 38.89302683333333},