{"data": {"bikes": [{"name": "b0d470b57c3ee83165dfe842a0cb4920", "fusion_lat": 0.0, "type": "electric_scooter", "lat": 38.912711, "is_reserved": 0, "is_disabled": 0, "fusion_lon": 0.0, "bike_id": "b0d470b57c3ee83165dfe842a0cb4920", "lon": -77.0382665, "rental_uris": {"ios": "https://dc.lft.to/lastmile_qr_scan", "android": "https://dc.lft.to/lastmile_qr_scan"}}, {"name": "4c17fb1e01b96402b91be493a45be517", "fusion_lat": 0.0, "type": "electric_bike", "lat": 38.839806, "is_reserved": 0, "is_disabled": 0, "fusion_lon": 0.0, "bike_id": "4c17fb1e01b96402b91be493a45be517", "lon": -77.00567783333334, "rental_uris": {"ios": "https://dc.lft.to/lastmile_qr_scan", "android": "https://dc.lft.to/lastmile_qr_scan"}}, {"name": "7d281043b76d0eefbe46fdf3333c8e97", "fusion_lat": 0.0, "type": "electric_scooter", "lat": 38.91236166666667, "is_reserved": 0, "is_disabled": 0, "fusion_lon": 0.0, "bike_id": "7d281043b76d0eefbe46fdf3333c8e97", "lon": -77.03192516666667, "rental_uris": {"ios": "https://dc.lft.to/lastmile_qr_scan", "android": "https://dc.lft.to/lastmile_qr_scan"}}, {"name": "4a0e80c17b62f6dc2754027df6f3e076", "fusion_lat": 0.0, "type": "electric_scooter", "lat": 38.895875333333336, "is_reserved": 0, "is_disabled": 0, "fusion_lon": 0.0, "bike_id": "4a0e80c17b62f6dc2754027df6f3e076", "lon": -76.993614, "rental_uris": {"ios": "https://dc.lft.to/lastmile_qr_scan", "android": "https://dc.lft.to/lastmile_qr_scan"}}, {"name": "e4493b6101f81a704b09a99a37efef14", "fusion_lat": 0.0, "type": "electric_scooter", "lat": 38.892191833333335, "is_reserved": 0, "is_disabled": 0, "fusion_lon": 0.0, "bike_id": "e4493b6101f81a704b09a99a37efef14", "lon": -77.02228533333333, "rental_uris": {"ios": "https://dc.lft.to/lastmile_qr_scan", "android": "https://dc.lft.to/lastmile_qr_scan"}}, {"name": "8b8de79030019d641ac0412edca4151c", "fusion_lat": 0.0, "type": "electric_scooter", "lat": 38.929785, "is_reserved": 0, "is_disabled": 0, "fusion_lon": 0.0, "bike_id": "8b8de79030019d641ac0412edca4151c", "lon": -77.01448416666666, "rental_uris": {"ios": "https://dc.lft.to/lastmile_qr_scan", "android": "https://dc.lft.to/lastmile_qr_scan"}}, {"name": "939568756f8c54bbb12d9208e69b6417", "fusion_lat": 0.0, "type": "electric_scooter", "lat": 38.912439166666665, "is_reserved": 0, "is_disabled": 0, "fusion_lon": 0.0, "bike_id": "939568756f8c54bbb12d9208e69b6417", "lon": -77.038462, "rental_uris": {"ios": "https://dc.lft.to/lastmile_qr_scan", "android": "https://dc.lft.to/lastmile_qr_scan"}}, {"name": "b1a5ff7e92b25f2f87be91371a0b12bc", "fusion_lat": 0.0, "type": "electric_scooter", "lat": 38.94310483333334, "is_reserved": 0, "is_disabled": 0, "fusion_lon": 0.0, "bike_id": "b1a5ff7e92b25f2f87be91371a0b12bc", "lon": -77.02490633333333, "rental_uris": {"ios": "https://dc.lft.to/lastmile_qr_scan", "android": "https://dc.lft.to/lastmile_qr_scan"}}, {"name": "d11048c2e879d4940f1566b1d6594a60", "fusion_lat": 0.0, "type": "electric_bike", "lat": 38.91694483333333, "is_reserved": 0, "is_disabled": 0, "fusion_lon": 0.0, "bike_id": "d11048c2e879d4940f1566b1d6594a60", "lon": -77.04288633333333, "rental_uris": {"ios": "https://dc.lft.to/lastmile_qr_scan", "android": "https://dc.lft.to/lastmile_qr_scan"}}, {"name": "4fd4910c2b5dd89509521a7341139e9b", "fusion_lat": 0.0, "type": "electric_scooter", "lat": 38.86248633333334, "is_reserved": 0, "is_disabled": 0, "fusion_lon": 0.0, "bike_id": "4fd4910c2b5dd89509521a7341139e9b", "lon": -76.99532316666667, "rental_uris": {"ios": "https://dc.lft.to/lastmile_qr_scan", "android": "https://dc.lft.to/lastmile_qr_scan"}}, {"name": "0391ca1e556ec17b5fc640f6046742f5", "fusion_lat": 0.0, "type": "electric_scooter", "lat": 38.8883775, "is_reserved": 0, "is_disabled": 0, "fusion_lon": 0.0, "bike_id": "0391ca1e556ec17b5fc640f6046742f5", "lon": -77.04904266666667, "rental_uris": {"ios": "https://dc.lft.to/lastmile_qr_scan", "android": "https://dc.lft.to/lastmile_qr_scan"}}, {"name": "ec38590bde4ec5ae7abbba4115fb62b3", "fusion_lat": 0.0, "type": "electric_scooter", "lat": 38.90088466666667, "is_reserved": 0, "is_disabled": 0, "fusion_lon": 0.0, "bike_id": "ec38590bde4ec5ae7abbba4115fb62b3", "lon": -77.05061416666666, "rental_uris": {"ios": "https://dc.lft.to/lastmile_qr_scan", "android": "https://dc.lft.to/lastmile_qr_scan"}}, {"name": "3641ac65a5cb3b081af0215792e9ec4d", "fusion_lat": 0.0, "type": "electric_bike", "lat": 38.862762000000004, "is_reserved": 0, "is_disabled": 0, "fusion_lon": 0.0, "bike_id": "3641ac65a5cb3b081af0215792e9ec4d", "lon": -77.05972633333333, "rental_uris": {"ios": "https://dc.lft.to/lastmile_qr_scan", "android": "https://dc.lft.to/lastmile_qr_scan"}}, {"name": "ccdd5d92d9c6d4ce5c95365f49eaea89", "fusion_lat": 0.0, "type": "electric_scooter", "lat": 38.903142, "is_reserved": 0, "is_disabled": 0, "fusion_lon": 0.0, "bike_id": "ccdd5d92d9c6d4ce5c95365f49eaea89", "lon": -77.0365325, "rental_uris": {"ios": "https://dc.lft.to/lastmile_qr_scan", "android": "https://dc.lft.to/lastmile_qr_scan"}}, {"name": "8eaaed5a265cfd0d93434745c3f3074b", "fusion_lat": 0.0, "type": "electric_scooter", "lat": 38.91014083333334, "is_reserved": 0, "is_disabled": 0, "fusion_lon": 0.0, "bike_id": "8eaaed5a265cfd0d93434745c3f3074b", "lon": -77.04423916666667, "rental_uris": {"ios": "https://dc.lft.to/lastmile_qr_scan", "android": "https://dc.lft.to/lastmile_qr_scan"}}, {"name": "b447fc6bfca6a3c02dbb7a46ca4034f3", "fusion_lat": 0.0, "type": "electric_scooter", "lat": 38.901231333333335, "is_reserved": 0, "is_disabled": 0, "fusion_lon": 0.0, "bike_id": "b447fc6bfca6a3c02dbb7a46ca4034f3", "lon": -77.04989983333333, "rental_uris": {"ios": "https://dc.lft.to/lastmile_qr_scan", "android": "https://dc.lft.to/lastmile_qr_scan"}}, {"name": "40604e277495eb1de07c997b17764201", "fusion_lat": 0.0, "type": "electric_scooter", "lat": 38.89887733333333, "is_reserved": 0, "is_disabled": 0, "fusion_lon": 0.0, "bike_id": "40604e277495eb1de07c997b17764201", "lon": -76.98570716666667, "rental_uris": {"ios": "https://dc.lft.to/lastmile_qr_scan", "android": "https://dc.lft.to/lastmile_qr_scan"}}, {"name": "6eb0df2c24100962ab6aab71c6331542", "fusion_lat": 0.0, "type": "electric_scooter", "lat": 38.92638316666667, "is_reserved": 0, "is_disabled": 0, "fusion_lon": 0.0, "bike_id": "6eb0df2c24100962ab6aab71c6331542", "lon": -77.0346695, "rental_uris": {"ios": "https://dc.lft.to/lastmile_qr_scan", "android": "https://dc.lft.to/lastmile_qr_scan"}}, {"name": "1d0a274dead7ffcd1cbb1a3818ce4692", "fusion_lat": 0.0, "type": "electric_scooter", "lat": 38.898762, "is_reserved": 0, "is_disabled": 0, "fusion_lon": 0.0, "bike_id": "1d0a274dead7ffcd1cbb1a3818ce4692", "lon": -76.9330255, "rental_uris": {"ios": "https://dc.lft.to/lastmile_qr_scan", "android": "https://dc.lft.to/lastmile_qr_scan"}}, {"name": "104e3c100364ff94e3eb246e471166af", "fusion_lat": 0.0, "type": "electric_scooter", "lat": 38.918186166666665, "is_reserved": 0, "is_disabled": 0, "fusion_lon": 0.0, "bike_id": "104e3c100364ff94e3eb246e471166af", "lon": -77.03447, "rental_uris": {"ios": "https://dc.lft.to/lastmile_qr_scan", "android": "https://dc.lft.to/lastmile_qr_scan"}}, {"name": "904d5a1a4ff8cc511e9636727daa0618", "fusion_lat": 0.0, "type": "electric_scooter", "lat": 38.89605066666667, "is_reserved": 0, "is_disabled": 0, "fusion_lon": 0.0, "bike_id": "904d5a1a4ff8cc511e9636727daa0618", "lon": -77.01117666666667, "rental_uris": {"ios": "https://dc.lft.to/lastmile_qr_scan", "android": "https://dc.lft.to/lastmile_qr_scan"}}, {"name": "b729ecfe903b520fc0e8b20bbb211015", "fusion_lat": 0.0, "type": "electric_scooter", "lat": 38.92233016666667, "is_reserved": 0, "is_disabled": 0, "fusion_lon": 0.0, "bike_id": "b729ecfe903b520fc0e8b20bbb211015", "lon": -77.022255, "rental_uris": {"ios": "https://dc.lft.to/lastmile_qr_scan", "android": "https://dc.lft.to/lastmile_qr_scan"}}, {"name": "4e948da78e9274176c1f8277c4f46d04", "fusion_lat": 0.0, "type": "electric_scooter", "lat": 38.9296855, "is_reserved": 0, "is_disabled": 0, "fusion_lon": 0.0, "bike_id": "4e948da78e9274176c1f8277c4f46d04", "lon": -77.005288, "rental_uris": {"ios": "https://dc.lft.to/lastmile_qr_scan", "android": "https://dc.lft.to/lastmile_qr_scan"}}, {"name": "df17195c47a7cc09560979eca0b7e914", "fusion_lat": 0.0, "type": "electric_scooter", "lat": 38.883506833333335, "is_reserved": 0, "is_disabled": 0, "fusion_lon": 0.0, "bike_id": "df17195c47a7cc09560979eca0b7e914", "lon": -76.98540416666667, "rental_uris": {"ios": "https://dc.lft.to/lastmile_qr_scan", "android": "https://dc.lft.to/lastmile_qr_scan"}}, {"name": "b3c16e3c7d899537b256c329095ac469", "fusion_lat": 0.0, "type": "electric_scooter", "lat": 38.89410316666667, "is_reserved": 0, "is_disabled": 0, "fusion_lon": 0.0, "bike_id": "b3c16e3c7d899537b256c329095ac469", "lon": -76.939628, "rental_uris": {"ios": "https://dc.lft.to/lastmile_qr_scan", "android": "https://dc.lft.to/lastmile_qr_scan"}}, {"name": "c16f8cd6d936f6d5d41b44f83203eef6", "fusion_lat": 0.0, "type": "electric_scooter", "lat": 38.92590233333333, "is_reserved": 0, "is_disabled": 0, "fusion_lon": 0.0, "bike_id": "c16f8cd6d936f6d5d41b44f83203eef6", "lon": -77.02966216666667, "rental_uris": {"ios": "https://dc.lft.to/lastmile_qr_scan", "android": "https://dc.lft.to/lastmile_qr_scan"}}, {"name": "b6d10630642a1ccc4a0a5016258e970b", "fusion_lat": 0.0, "type": "electric_scooter", "lat": 38.90131483333333, "is_reserved": 0, "is_disabled": 0, "fusion_lon": 0.0, "bike_id": "b6d10630642a1ccc4a0a5016258e970b", "lon": -77.0287715, "rental_uris": {"ios": "https://dc.lft.to/lastmile_qr_scan", "android": "https://dc.lft.to/lastmile_qr_scan"}}, {"name": "6ade8ed3bb6b4b260dbf1175fdb895e4", "fusion_lat": 0.0, "type": "electric_scooter", "lat": 38.901221, "is_reserved": 0, "is_disabled": 0, "fusion_lon": 0.0, "bike_id": "6ade8ed3bb6b4b260dbf1175fdb895e4", "lon": -77.0305045, "rental_uris": {"ios": "https://dc.lft.to/lastmile_qr_scan", "android": "https://dc.lft.to/lastmile_qr_scan"}}, {"name": "9305ad9a7ca406a2bf20cd358b5716e7", "fusion_lat": 0.0, "type": "electric_scooter", "lat": 38.9072055, "is_reserved": 0, "is_disabled": 0, "fusion_lon": 0.0, "bike_id": "9305ad9a7ca406a2bf20cd358b5716e7", "lon": -77.0232145, "rental_uris": {"ios": "https://dc.lft.to/lastmile_qr_scan", "android": "https://dc.lft.to/lastmile_qr_scan"}}, {"name": "e87aabfa77399b08bc5c3bf23fa15855", "fusion_lat": 0.0, "type": "electric_scooter", "lat": 38.91722633333333, "is_reserved": 0, "is_disabled": 0, "fusion_lon": 0.0, "bike_id": "e87aabfa77399b08bc5c3bf23fa15855", "lon": -77.04678083333333, "rental_uris": {"ios": "https://dc.lft.to/lastmile_qr_scan", "android": "https://dc.lft.to/lastmile_qr_scan"}}, {"name": "fda8e4d81f0bf3a98751c4a8fe23d0ba", "fusion_lat": 0.0, "type": "electric_bike", "lat": 38.93673116666667, "is_reserved": 0, "is_disabled": 0, "fusion_lon": 0.0, "bike_id": "fda8e4d81f0bf3a98751c4a8fe23d0ba", "lon": -76.952094, "rental_uris": {"ios": "https://dc.lft.to/lastmile_qr_scan", "android": "https://dc.lft.to/lastmile_qr_scan"}}, {"name": "4b55474650da3723ce621f677e59d733", "fusion_lat": 0.0, "type": "electric_scooter", "lat": 38.920176833333336, "is_reserved": 0, "is_disabled": 0, "fusion_lon": 0.0, "bike_id": "4b55474650da3723ce621f677e59d733", "lon": -77.03118716666667, "rental_uris": {"ios": "https://dc.lft.to/lastmile_qr_scan", "android": "https://dc.lft.to/lastmile_qr_scan"}}, {"name": "0e92365636876c674e1c45a157e554bd", "fusion_lat": 0.0, "type": "electric_bike", "lat": 38.92010233333333, "is_reserved": 0, "is_disabled": 0, "fusion_lon": 0.0, "bike_id": "0e92365636876c674e1c45a157e554bd", "lon": -76.97493283333333, "rental_uris": {"ios": "https://dc.lft.to/lastmile_qr_scan", "android": "https://dc.lft.to/lastmile_qr_scan"}}, {"name": "8992b50ea1ca006d1f34a0f76da728d5", "fusion_lat": 0.0, "type": "electric_scooter", "lat": 38.91915266666667, "is_reserved": 0, "is_disabled": 0, "fusion_lon": 0.0, "bike_id": "8992b50ea1ca006d1f34a0f76da728d5", "lon": -77.013435, "rental_uris": {"ios": "https://dc.lft.to/lastmile_qr_scan", "android": "https://dc.lft.to/lastmile_qr_scan"}}, {"name": "ef3e30dae1d5762dcd467b6cfa873857", "fusion_lat": 0.0, "type": "electric_scooter", "lat": 38.903312166666666, "is_reserved": 0, "is_disabled": 0, "fusion_lon": 0.0, "bike_id": "ef3e30dae1d5762dcd467b6cfa873857", "lon": -77.03475316666666, "rental_uris": {"ios": "https://dc.lft.to/lastmile_qr_scan", "android": "https://dc.lft.to/lastmile_qr_scan"}}, {"name": "25cce5b8adfc55ce86742bb181c053da", "fusion_lat": 0.0, "type": "electric_scooter", "lat": 38.918034166666665, "is_reserved": 0, "is_disabled": 0, "fusion_lon": 0.0, "bike_id": "25cce5b8adfc55ce86742bb181c053da", "lon": -77.01022666666667, "rental_uris": {"ios": "https://dc.lft.to/lastmile_qr_scan", "android": "https://dc.lft.to/lastmile_qr_scan"}}, {"name": "63d01b89d55a9bf7b6f018f5ccde7767", "fusion_lat": 0.0, "type": "electric_scooter", "lat": 38.91254383333333, "is_reserved": 0, "is_disabled": 0, "fusion_lon": 0.0, "bike_id": "63d01b89d55a9bf7b6f018f5ccde7767", "lon": -77.081623, "rental_uris": {"ios": "https://dc.lft.to/lastmile_qr_scan", "android": "https://dc.lft.to/lastmile_qr_scan"}}, {"name": "74fed19f0b458fe49b47540698dee505", "fusion_lat": 0.0, "type": "electric_scooter", "lat": 38.912718166666664, "is_reserved": 0, "is_disabled": 0, "fusion_lon": 0.0, "bike_id": "74fed19f0b458fe49b47540698dee505", "lon": -77.0609195, "rental_uris": {"ios": "https://dc.lft.to/lastmile_qr_scan", "android": "https://dc.lft.to/lastmile_qr_scan"}}, {"name": "9ae90ef510134797a2956cd028ce8fdb", "fusion_lat": 0.0, "type": "electric_scooter", "lat": 38.880691166666665, "is_reserved": 0, "is_disabled": 0, "fusion_lon": 0.0, "bike_id": "9ae90ef510134797a2956cd028ce8fdb", "lon": -76.93531633333333, "rental_uris": {"ios": "https://dc.lft.to/lastmile_qr_scan", "android": "https://dc.lft.to/lastmile_qr_scan"}}, {"name": "a918fa9815e57d5b1b1d9470a6a6b474", "fusion_lat": 0.0, "type": "electric_scooter", "lat": 38.84294716666667, "is_reserved": 0, "is_disabled": 0, "fusion_lon": 0.0, "bike_id": "a918fa9815e57d5b1b1d9470a6a6b474", "lon": -76.999482, "rental_uris": {"ios": "https://dc.lft.to/lastmile_qr_scan", "android": "https://dc.lft.to/lastmile_qr_scan"}}, {"name": "f7389417a076835219630191dab24288", "fusion_lat": 0.0, "type": "electric_scooter", "lat": 38.918201333333336, "is_reserved": 0, "is_disabled": 0, "fusion_lon": 0.0, "bike_id": "f7389417a076835219630191dab24288", "lon": -77.01209333333334, "rental_uris": {"ios": "https://dc.lft.to/lastmile_qr_scan", "android": "https://dc.lft.to/lastmile_qr_scan"}}, {"name": "8adace893c647264ac4bbbbd583a47ba", "fusion_lat": 0.0, "type": "electric_scooter", "lat": 38.88492633333333, "is_reserved": 0, "is_disabled": 0, "fusion_lon": 0.0, "bike_id": "8adace893c647264ac4bbbbd583a47ba", "lon": -77.022049, "rental_uris": {"ios": "https://dc.lft.to/lastmile_qr_scan", "android": "https://dc.lft.to/lastmile_qr_scan"}}, {"name": "e3ef46ce7c785d99a6bfb4e5a87b7f9d", "fusion_lat": 0.0, "type": "electric_scooter", "lat": 38.9097325, "is_reserved": 0, "is_disabled": 0, "fusion_lon": 0.0, "bike_id": "e3ef46ce7c785d99a6bfb4e5a87b7f9d", "lon": -77.04550216666667, "rental_uris": {"ios": "https://dc.lft.to/lastmile_qr_scan", "android": "https://dc.lft.to/lastmile_qr_scan"}}, {"name": "e7d4d722ad43afe8dc3b18b6629ee4d1", "fusion_lat": 0.0, "type": "electric_scooter", "lat": 38.91818416666667, "is_reserved": 0, "is_disabled": 0, "fusion_lon": 0.0, "bike_id": "e7d4d722ad43afe8dc3b18b6629ee4d1", "lon": -77.00260983333334, "rental_uris": {"ios": "https://dc.lft.to/lastmile_qr_scan", "android": "https://dc.lft.to/lastmile_qr_scan"}}, {"name": "b3b30fd5bc1b3cd6781943167fd2da24", "fusion_lat": 0.0, "type": "electric_scooter", "lat": 38.904470333333336, "is_reserved": 0, "is_disabled": 0, "fusion_lon": 0.0, "bike_id": "b3b30fd5bc1b3cd6781943167fd2da24", "lon": -76.99621816666667, "rental_uris": {"ios": "https://dc.lft.to/lastmile_qr_scan", "android": "https://dc.lft.to/lastmile_qr_scan"}}, {"name": "a0dc1ebed5a1c5fec6eb05e2ebb465c0", "fusion_lat": 0.0, "type": "electric_scooter", "lat": 38.895849, "is_reserved": 0, "is_disabled": 0, "fusion_lon": 0.0, "bike_id": "a0dc1ebed5a1c5fec6eb05e2ebb465c0", "lon": -76.93717866666667, "rental_uris": {"ios": "https://dc.lft.to/lastmile_qr_scan", "android": "https://dc.lft.to/lastmile_qr_scan"}}, {"name": "8f0363cd66b734542307ce58b3602c09", "fusion_lat": 0.0, "type": "electric_scooter", "lat": 38.877562833333336, "is_reserved": 0, "is_disabled": 0, "fusion_lon": 0.0, "bike_id": "8f0363cd66b734542307ce58b3602c09", "lon": -76.99421033333333, "rental_uris": {"ios": "https://dc.lft.to/lastmile_qr_scan", "android": "https://dc.lft.to/lastmile_qr_scan"}}, {"name": "791d9a602660e43f1009c9d6aaa4d44b", "fusion_lat": 0.0, "type": "electric_scooter", "lat": 38.85615416666667, "is_reserved": 0, "is_disabled": 0, "fusion_lon": 0.0, "bike_id": "791d9a602660e43f1009c9d6aaa4d44b", "lon": -76.980159, "rental_uris": {"ios": "https://dc.lft.to/lastmile_qr_scan", "android": "https://dc.lft.to/lastmile_qr_scan"}}, {"name": "241efe84ab832189ff41a28c86f7d39d", "fusion_lat": 0.0, "type": "electric_scooter", "lat": 38.92882066666667, "is_reserved": 0, "is_disabled": 0, "fusion_lon": 0.0, "bike_id": "241efe84ab832189ff41a28c86f7d39d", "lon": -77.02706783333333, "rental_uris": {"ios": "https://dc.lft.to/lastmile_qr_scan", "android": "https://dc.lft.to/lastmile_qr_scan"}}, {"name": "7c502cbafb11029b76aa34d5a7411f91", "fusion_lat": 0.0, "type": "electric_scooter", "lat": 38.911753, "is_reserved": 0, "is_disabled": 0, "fusion_lon": 0.0, "bike_id": "7c502cbafb11029b76aa34d5a7411f91", "lon": -77.03179916666667, "rental_uris": {"ios": "https://dc.lft.to/lastmile_qr_scan", "android": "https://dc.lft.to/lastmile_qr_scan"}}, {"name": "9d1ffdcffd50f9b04e63b3f32ecf961c", "fusion_lat": 0.0, "type": "electric_scooter", "lat": 38.902594, "is_reserved": 0, "is_disabled": 0, "fusion_lon": 0.0, "bike_id": "9d1ffdcffd50f9b04e63b3f32ecf961c", "lon": -77.03985583333333, "rental_uris": {"ios": "https://dc.lft.to/lastmile_qr_scan", "android": "https://dc.lft.to/lastmile_qr_scan"}}, {"name": "18e4249e3fd4c7929dfe87b1ac96dba0", "fusion_lat": 0.0, "type": "electric_scooter", "lat": 38.89964233333333, "is_reserved": 0, "is_disabled": 0, "fusion_lon": 0.0, "bike_id": "18e4249e3fd4c7929dfe87b1ac96dba0", "lon": -77.052945, "rental_uris": {"ios": "https://dc.lft.to/lastmile_qr_scan", "android": "https://dc.lft.to/lastmile_qr_scan"}}, {"name": "ba0ccbd872d25a85da4a27c5b647ecd1", "fusion_lat": 0.0, "type": "electric_scooter", "lat": 38.9274565, "is_reserved": 0, "is_disabled": 0, "fusion_lon": 0.0, "bike_id": "ba0ccbd872d25a85da4a27c5b647ecd1", "lon": -77.02251116666666, "rental_uris": {"ios": "https://dc.lft.to/lastmile_qr_scan", "android": "https://dc.lft.to/lastmile_qr_scan"}}, {"name": "7308d18c663ee33fbbff499f9d3c05f9", "fusion_lat": 0.0, "type": "electric_scooter", "lat": 38.9073095, "is_reserved": 0, "is_disabled": 0, "fusion_lon": 0.0, "bike_id": "7308d18c663ee33fbbff499f9d3c05f9", "lon": -77.03197216666666, "rental_uris": {"ios": "https://dc.lft.to/lastmile_qr_scan", "android": "https://dc.lft.to/lastmile_qr_scan"}}, {"name": "ed372c8985545b142fe1a72a69a3e28f", "fusion_lat": 0.0, "type": "electric_scooter", "lat": 38.878329666666666, "is_reserved": 0, "is_disabled": 0, "fusion_lon": 0.0, "bike_id": "ed372c8985545b142fe1a72a69a3e28f", "lon": -76.986091, "rental_uris": {"ios": "https://dc.lft.to/lastmile_qr_scan", "android": "https://dc.lft.to/lastmile_qr_scan"}}, {"name": "ce8db1606f0face29fe49c45035220aa", "fusion_lat": 0.0, "type": "electric_scooter", "lat": 38.90131916666667, "is_reserved": 0, "is_disabled": 0, "fusion_lon": 0.0, "bike_id": "ce8db1606f0face29fe49c45035220aa", "lon": -77.04713783333334, "rental_uris": {"ios": "https://dc.lft.to/lastmile_qr_scan", "android": "https://dc.lft.to/lastmile_qr_scan"}}, {"name": "36bfdf774b046f83b2c2f9ff28a1212d", "fusion_lat": 0.0, "type": "electric_scooter", "lat": 38.93914016666667, "is_reserved": 0, "is_disabled": 0, "fusion_lon": 0.0, "bike_id": "36bfdf774b046f83b2c2f9ff28a1212d", "lon": -77.06045083333333, "rental_uris": {"ios": "https://dc.lft.to/lastmile_qr_scan", "android": "https://dc.lft.to/lastmile_qr_scan"}}, {"name": "675bb3b89ffdaeb46c3ab45ae11166e7", "fusion_lat": 0.0, "type": "electric_scooter", "lat": 38.883270833333334, "is_reserved": 0, "is_disabled": 0, "fusion_lon": 0.0, "bike_id": "675bb3b89ffdaeb46c3ab45ae11166e7", "lon": -77.0153945, "rental_uris": {"ios": "https://dc.lft.to/lastmile_qr_scan", "android": "https://dc.lft.to/lastmile_qr_scan"}}, {"name": "b99e529ef927caa9e7f7846652ef25cf", "fusion_lat": 0.0, "type": "electric_scooter", "lat": 38.910150333333334, "is_reserved": 0, "is_disabled": 0, "fusion_lon": 0.0, "bike_id": "b99e529ef927caa9e7f7846652ef25cf", "lon": -76.99671266666667, "rental_uris": {"ios": "https://dc.lft.to/lastmile_qr_scan", "android": "https://dc.lft.to/lastmile_qr_scan"}}, {"name": "96af579b3bc02aecd9e74a4175ceb6ca", "fusion_lat": 0.0, "type": "electric_scooter", "lat": 38.905644833333334, "is_reserved": 0, "is_disabled": 0, "fusion_lon": 0.0, "bike_id": "96af579b3bc02aecd9e74a4175ceb6ca", "lon": -77.0057265, "rental_uris": {"ios": "https://dc.lft.to/lastmile_qr_scan", "android": "https://dc.lft.to/lastmile_qr_scan"}}, {"name": "b8dfe0a1d8b834743b9c129d287ac132", "fusion_lat": 0.0, "type": "electric_scooter", "lat": 38.9273735, "is_reserved": 0, "is_disabled": 0, "fusion_lon": 0.0, "bike_id": "b8dfe0a1d8b834743b9c129d287ac132", "lon": -77.02492916666667, "rental_uris": {"ios": "https://dc.lft.to/lastmile_qr_scan", "android": "https://dc.lft.to/lastmile_qr_scan"}}, {"name": "b99374febaa1b6aab4874688354b6bd3", "fusion_lat": 0.0, "type": "electric_bike", "lat": 38.9285565, "is_reserved": 0, "is_disabled": 0, "fusion_lon": 0.0, "bike_id": "b99374febaa1b6aab4874688354b6bd3", "lon": -77.22220816666666, "rental_uris": {"ios": "https://dc.lft.to/lastmile_qr_scan", "android": "https://dc.lft.to/lastmile_qr_scan"}}, {"name": "95eb77685807d67b21418bfe9b14dd4f", "fusion_lat": 0.0, "type": "electric_scooter", "lat": 38.95649083333333, "is_reserved": 0, "is_disabled": 0, "fusion_lon": 0.0, "bike_id": "95eb77685807d67b21418bfe9b14dd4f", "lon": -77.032901, "rental_uris": {"ios": "https://dc.lft.to/lastmile_qr_scan", "android": "https://dc.lft.to/lastmile_qr_scan"}}, {"name": "1fa5d9a9633e7d438e41c23b78691e84", "fusion_lat": 0.0, "type": "electric_scooter", "lat": 38.92249316666667, "is_reserved": 0, "is_disabled": 0, "fusion_lon": 0.0, "bike_id": "1fa5d9a9633e7d438e41c23b78691e84", "lon": -76.993853, "rental_uris": {"ios": "https://dc.lft.to/lastmile_qr_scan", "android": "https://dc.lft.to/lastmile_qr_scan"}}, {"name": "552ba00a29a8be75439203681cdd9abf", "fusion_lat": 0.0, "type": "electric_scooter", "lat": 38.912716, "is_reserved": 0, "is_disabled": 0, "fusion_lon": 0.0, "bike_id": "552ba00a29a8be75439203681cdd9abf", "lon": -77.03254516666667, "rental_uris": {"ios": "https://dc.lft.to/lastmile_qr_scan", "android": "https://dc.lft.to/lastmile_qr_scan"}}, {"name": "6a39f8f3fc9d649ee3686d9ef7fe6585", "fusion_lat": 0.0, "type": "electric_scooter", "lat": 38.90289766666667, "is_reserved": 0, "is_disabled": 0, "fusion_lon": 0.0, "bike_id": "6a39f8f3fc9d649ee3686d9ef7fe6585", "lon": -77.03670433333333, "rental_uris": {"ios": "https://dc.lft.to/lastmile_qr_scan", "android": "https://dc.lft.to/lastmile_qr_scan"}}, {"name": "5e80e76deb0b7f2f08790021488e3c2c", "fusion_lat": 0.0, "type": "electric_bike", "lat": 38.9352395, "is_reserved": 0, "is_disabled": 0, "fusion_lon": 0.0, "bike_id": "5e80e76deb0b7f2f08790021488e3c2c", "lon": -76.95064133333334, "rental_uris": {"ios": "https://dc.lft.to/lastmile_qr_scan", "android": "https://dc.lft.to/lastmile_qr_scan"}}, {"name": "f693a1eb2142b7a2fcae97c10034e372", "fusion_lat": 0.0, "type": "electric_bike", "lat": 39.0885485, "is_reserved": 0, "is_disabled": 0, "fusion_lon": 0.0, "bike_id": "f693a1eb2142b7a2fcae97c10034e372", "lon": -77.17844833333334, "rental_uris": {"ios": "https://dc.lft.to/lastmile_qr_scan", "android": "https://dc.lft.to/lastmile_qr_scan"}}, {"name": "fb9241115dd24b13b5814d5b1629fef7", "fusion_lat": 0.0, "type": "electric_scooter", "lat": 38.865382, "is_reserved": 0, "is_disabled": 0, "fusion_lon": 0.0, "bike_id": "fb9241115dd24b13b5814d5b1629fef7", "lon": -76.98707666666667, "rental_uris": {"ios": "https://dc.lft.to/lastmile_qr_scan", "android": "https://dc.lft.to/lastmile_qr_scan"}}, {"name": "e6919c5b7ad5fa5c64898eb49d26647b", "fusion_lat": 0.0, "type": "electric_scooter", "lat": 38.90563733333333, "is_reserved": 0, "is_disabled": 0, "fusion_lon": 0.0, "bike_id": "e6919c5b7ad5fa5c64898eb49d26647b", "lon": -77.02226216666666, "rental_uris": {"ios": "https://dc.lft.to/lastmile_qr_scan", "android": "https://dc.lft.to/lastmile_qr_scan"}}, {"name": "a1c87d636ce62b04fb8f44d91255da85", "fusion_lat": 0.0, "type": "electric_scooter", "lat": 38.90143783333333, "is_reserved": 0, "is_disabled": 0, "fusion_lon": 0.0, "bike_id": "a1c87d636ce62b04fb8f44d91255da85", "lon": -77.04212233333334, "rental_uris": {"ios": "https://dc.lft.to/lastmile_qr_scan", "android": "https://dc.lft.to/lastmile_qr_scan"}}, {"name": "228f54a71f7d82a9a9b8d45531b184d1", "fusion_lat": 0.0, "type": "electric_bike", "lat": 39.053569, "is_reserved": 0, "is_disabled": 0, "fusion_lon": 0.0, "bike_id": "228f54a71f7d82a9a9b8d45531b184d1", "lon": -77.04728033333333, "rental_uris": {"ios": "https://dc.lft.to/lastmile_qr_scan", "android": "https://dc.lft.to/lastmile_qr_scan"}}, {"name": "08381addf723832f56026c76b15e5976", "fusion_lat": 0.0, "type": "electric_scooter", "lat": 38.90729183333333, "is_reserved": 0, "is_disabled": 0, "fusion_lon": 0.0, "bike_id": "08381addf723832f56026c76b15e5976", "lon": -77.03253816666667, "rental_uris": {"ios": "https://dc.lft.to/lastmile_qr_scan", "android": "https://dc.lft.to/lastmile_qr_scan"}}, {"name": "07f0eccc830c4fb0c0371a0c07af02b6", "fusion_lat": 0.0, "type": "electric_scooter", "lat": 38.862480833333336, "is_reserved": 0, "is_disabled": 0, "fusion_lon": 0.0, "bike_id": "07f0eccc830c4fb0c0371a0c07af02b6", "lon": -76.99532333333333, "rental_uris": {"ios": "https://dc.lft.to/lastmile_qr_scan", "android": "https://dc.lft.to/lastmile_qr_scan"}}, {"name": "c2bb19a2f4111f535917b861adbff085", "fusion_lat": 0.0, "type": "electric_scooter", "lat": 38.937336, "is_reserved": 0, "is_disabled": 0, "fusion_lon": 0.0, "bike_id": "c2bb19a2f4111f535917b861adbff085", "lon": -77.0328715, "rental_uris": {"ios": "https://dc.lft.to/lastmile_qr_scan", "android": "https://dc.lft.to/lastmile_qr_scan"}}, {"name": "8360d5e0228797830fd58f9bb0c0d5ec", "fusion_lat": 0.0, "type": "electric_scooter", "lat": 38.902268, "is_reserved": 0, "is_disabled": 0, "fusion_lon": 0.0, "bike_id": "8360d5e0228797830fd58f9bb0c0d5ec", "lon": -77.01975133333333, "rental_uris": {"ios": "https://dc.lft.to/lastmile_qr_scan", "android": "https://dc.lft.to/lastmile_qr_scan"}}, {"name": "daf91f504719b9449ae26443a36371d0", "fusion_lat": 0.0, "type": "electric_scooter", "lat": 38.91292383333333, "is_reserved": 0, "is_disabled": 0, "fusion_lon": 0.0, "bike_id": "daf91f504719b9449ae26443a36371d0", "lon": -77.06115333333334, "rental_uris": {"ios": "https://dc.lft.to/lastmile_qr_scan", "android": "https://dc.lft.to/lastmile_qr_scan"}}, {"name": "56c3f956480780e25d0e55d750df47c6", "fusion_lat": 0.0, "type": "electric_scooter", "lat": 38.8771915, "is_reserved": 0, "is_disabled": 0, "fusion_lon": 0.0, "bike_id": "56c3f956480780e25d0e55d750df47c6", "lon": -76.99390966666667, "rental_uris": {"ios": "https://dc.lft.to/lastmile_qr_scan", "android": "https://dc.lft.to/lastmile_qr_scan"}}, {"name": "aec34d7ea2924fda53542bf8cfec1f02", "fusion_lat": 0.0, "type": "electric_scooter", "lat": 38.90744183333334, "is_reserved": 0, "is_disabled": 0, "fusion_lon": 0.0, "bike_id": "aec34d7ea2924fda53542bf8cfec1f02", "lon": -77.0433165, "rental_uris": {"ios": "https://dc.lft.to/lastmile_qr_scan", "android": "https://dc.lft.to/lastmile_qr_scan"}}, {"name": "03613b233699f564770c2168467673b1", "fusion_lat": 0.0, "type": "electric_scooter", "lat": 38.905220166666666, "is_reserved": 0, "is_disabled": 0, "fusion_lon": 0.0, "bike_id": "03613b233699f564770c2168467673b1", "lon": -77.052255, "rental_uris": {"ios": "https://dc.lft.to/lastmile_qr_scan", "android": "https://dc.lft.to/lastmile_qr_scan"}}, {"name": "4aea56be0f66facdc5ce925177f7148b", "fusion_lat": 0.0, "type": "electric_scooter", "lat": 38.9425475, "is_reserved": 0, "is_disabled": 0, "fusion_lon": 0.0, "bike_id": "4aea56be0f66facdc5ce925177f7148b", "lon": -77.041318, "rental_uris": {"ios": "https://dc.lft.to/lastmile_qr_scan", "android": "https://dc.lft.to/lastmile_qr_scan"}}, {"name": "7d4b9fe876bfc8f49ef82c98859ac723", "fusion_lat": 0.0, "type": "electric_scooter", "lat": 38.902497333333336, "is_reserved": 0, "is_disabled": 0, "fusion_lon": 0.0, "bike_id": "7d4b9fe876bfc8f49ef82c98859ac723", "lon": -77.02652066666667, "rental_uris": {"ios": "https://dc.lft.to/lastmile_qr_scan", "android": "https://dc.lft.to/lastmile_qr_scan"}}, {"name": "f34aae59354b73e6dda0830668588550", "fusion_lat": 0.0, "type": "electric_scooter", "lat": 38.907268, "is_reserved": 0, "is_disabled": 0, "fusion_lon": 0.0, "bike_id": "f34aae59354b73e6dda0830668588550", "lon": -77.0106825, "rental_uris": {"ios": "https://dc.lft.to/lastmile_qr_scan", "android": "https://dc.lft.to/lastmile_qr_scan"}}, {"name": "05d577f44eb0da18e8f973b36b217ed9", "fusion_lat": 0.0, "type": "electric_scooter", "lat": 38.9224475, "is_reserved": 0, "is_disabled": 0, "fusion_lon": 0.0, "bike_id": "05d577f44eb0da18e8f973b36b217ed9", "lon": -77.030773, "rental_uris": {"ios": "https://dc.lft.to/lastmile_qr_scan", "android": "https://dc.lft.to/lastmile_qr_scan"}}, {"name": "2227c87761aee9ee890ec204e9416364", "fusion_lat": 0.0, "type": "electric_bike", "lat": 38.897816, "is_reserved": 0, "is_disabled": 0, "fusion_lon": 0.0, "bike_id": "2227c87761aee9ee890ec204e9416364", "lon": -76.904365, "rental_uris": {"ios": "https://dc.lft.to/lastmile_qr_scan", "android": "https://dc.lft.to/lastmile_qr_scan"}}, {"name": "1517cdc5c4704e25c37098a5e619ac39", "fusion_lat": 0.0, "type": "electric_scooter", "lat": 38.89610366666667, "is_reserved": 0, "is_disabled": 0, "fusion_lon": 0.0, "bike_id": "1517cdc5c4704e25c37098a5e619ac39", "lon": -77.0507275, "rental_uris": {"ios": "https://dc.lft.to/lastmile_qr_scan", "android": "https://dc.lft.to/lastmile_qr_scan"}}, {"name": "5c93b5be4d23d9fc450d97b5869dcdc7", "fusion_lat": 0.0, "type": "electric_scooter", "lat": 38.905034666666666, "is_reserved": 0, "is_disabled": 0, "fusion_lon": 0.0, "bike_id": "5c93b5be4d23d9fc450d97b5869dcdc7", "lon": -77.06225866666666, "rental_uris": {"ios": "https://dc.lft.to/lastmile_qr_scan", "android": "https://dc.lft.to/lastmile_qr_scan"}}, {"name": "3472e05cbb48536670cac82eb6efce9a", "fusion_lat": 0.0, "type": "electric_scooter", "lat": 38.938998833333336, "is_reserved": 0, "is_disabled": 0, "fusion_lon": 0.0, "bike_id": "3472e05cbb48536670cac82eb6efce9a", "lon": -77.0327805, "rental_uris": {"ios": "https://dc.lft.to/lastmile_qr_scan", "android": "https://dc.lft.to/lastmile_qr_scan"}}, {"name": "61187807c89f955c9016f644d03a383e", "fusion_lat": 0.0, "type": "electric_scooter", "lat": 38.87293316666667, "is_reserved": 0, "is_disabled": 0, "fusion_lon": 0.0, "bike_id": "61187807c89f955c9016f644d03a383e", "lon": -77.0098205, "rental_uris": {"ios": "https://dc.lft.to/lastmile_qr_scan", "android": "https://dc.lft.to/lastmile_qr_scan"}}, {"name": "65436fe0e6fc6fcab093855ec9f58dcc", "fusion_lat": 0.0, "type": "electric_bike", "lat": 38.99348, "is_reserved": 0, "is_disabled": 0, "fusion_lon": 0.0, "bike_id": "65436fe0e6fc6fcab093855ec9f58dcc", "lon": -77.026707, "rental_uris": {"ios": "https://dc.lft.to/lastmile_qr_scan", "android": "https://dc.lft.to/lastmile_qr_scan"}}, {"name": "4475055d5a558da82d3dcca0760e1323", "fusion_lat": 0.0, "type": "electric_scooter", "lat": 38.9084725, "is_reserved": 0, "is_disabled": 0, "fusion_lon": 0.0, "bike_id": "4475055d5a558da82d3dcca0760e1323", "lon": -77.03186016666666, "rental_uris": {"ios": "https://dc.lft.to/lastmile_qr_scan", "android": "https://dc.lft.to/lastmile_qr_scan"}}, {"name": "05be19bd7f89fe5c2ac8a3869fcf0a4e", "fusion_lat": 0.0, "type": "electric_scooter", "lat": 38.911843166666664, "is_reserved": 0, "is_disabled": 0, "fusion_lon": 0.0, "bike_id": "05be19bd7f89fe5c2ac8a3869fcf0a4e", "lon": -77.0415245, "rental_uris": {"ios": "https://dc.lft.to/lastmile_qr_scan", "android": "https://dc.lft.to/lastmile_qr_scan"}}, {"name": "b0aedb5b47106a8bc04834761dd22de6", "fusion_lat": 0.0, "type": "electric_scooter", "lat": 38.94463733333333, "is_reserved": 0, "is_disabled": 0, "fusion_lon": 0.0, "bike_id": "b0aedb5b47106a8bc04834761dd22de6", "lon": -77.00658866666667, "rental_uris": {"ios": "https://dc.lft.to/lastmile_qr_scan", "android": "https://dc.lft.to/lastmile_qr_scan"}}, {"name": "9b8aa8d85bbf0228da17d975fce41b82", "fusion_lat": 0.0, "type": "electric_scooter", "lat": 38.903675166666666, "is_reserved": 0, "is_disabled": 0, "fusion_lon": 0.0, "bike_id": "9b8aa8d85bbf0228da17d975fce41b82", "lon": -77.04268166666667, "rental_uris": {"ios": "https://dc.lft.to/lastmile_qr_scan", "android": "https://dc.lft.to/lastmile_qr_scan"}}, {"name": "a9fe22a1ec2c8871f28c0156a1612105", "fusion_lat": 0.0, "type": "electric_scooter", "lat": 38.90940533333333, "is_reserved": 0, "is_disabled": 0, "fusion_lon": 0.0, "bike_id": "a9fe22a1ec2c8871f28c0156a1612105", "lon": -77.04661016666667, "rental_uris": {"ios": "https://dc.lft.to/lastmile_qr_scan", "android": "https://dc.lft.to/lastmile_qr_scan"}}, {"name": "c1d1249c04c7407f777190bc3eaeb58f", "fusion_lat": 0.0, "type": "electric_scooter", "lat": 38.89882133333333, "is_reserved": 0, "is_disabled": 0, "fusion_lon": 0.0, "bike_id": "c1d1249c04c7407f777190bc3eaeb58f", "lon": -77.03339266666667, "rental_uris": {"ios": "https://dc.lft.to/lastmile_qr_scan", "android": "https://dc.lft.to/lastmile_qr_scan"}}, {"name": "022751136c85f7b49355b157a3451d5a", "fusion_lat": 0.0, "type": "electric_scooter", "lat": 38.93568466666667, "is_reserved": 0, "is_disabled": 0, "fusion_lon": 0.0, "bike_id": "022751136c85f7b49355b157a3451d5a", "lon": -77.0212355, "rental_uris": {"ios": "https://dc.lft.to/lastmile_qr_scan", "android": "https://dc.lft.to/lastmile_qr_scan"}}, {"name": "f94fc7ab038254a1e0dd16ad672681b7", "fusion_lat": 0.0, "type": "electric_scooter", "lat": 38.935620166666666, "is_reserved": 0, "is_disabled": 0, "fusion_lon": 0.0, "bike_id": "f94fc7ab038254a1e0dd16ad672681b7", "lon": -77.02143483333333, "rental_uris": {"ios": "https://dc.lft.to/lastmile_qr_scan", "android": "https://dc.lft.to/lastmile_qr_scan"}}, {"name": "a759f11b4e1b45fe51a4002773b0d7f6", "fusion_lat": 0.0, "type": "electric_scooter", "lat": 38.931037833333335, "is_reserved": 0, "is_disabled": 0, "fusion_lon": 0.0, "bike_id": "a759f11b4e1b45fe51a4002773b0d7f6", "lon": -77.02395383333334, "rental_uris": {"ios": "https://dc.lft.to/lastmile_qr_scan", "android": "https://dc.lft.to/lastmile_qr_scan"}}, {"name": "0f77f9f37ba3cb22f135647a88f154b6", "fusion_lat": 0.0, "type": "electric_scooter", "lat": 38.909633666666664, "is_reserved": 0, "is_disabled": 0, "fusion_lon": 0.0, "bike_id": "0f77f9f37ba3cb22f135647a88f154b6", "lon": -77.02682016666667, "rental_uris": {"ios": "https://dc.lft.to/lastmile_qr_scan", "android": "https://dc.lft.to/lastmile_qr_scan"}}, {"name": "50b51ad72e4f1c3afbed59de5418d9d4", "fusion_lat": 0.0, "type": "electric_scooter", "lat": 38.90965966666667, "is_reserved": 0, "is_disabled": 0, "fusion_lon": 0.0, "bike_id": "50b51ad72e4f1c3afbed59de5418d9d4", "lon": -77.038689, "rental_uris": {"ios": "https://dc.lft.to/lastmile_qr_scan", "android": "https://dc.lft.to/lastmile_qr_scan"}}, {"name": "ea581ef75e7ff19af44c6914f30d9463", "fusion_lat": 0.0, "type": "electric_scooter", "lat": 38.88894416666667, "is_reserved": 0, "is_disabled": 0, "fusion_lon": 0.0, "bike_id": "ea581ef75e7ff19af44c6914f30d9463", "lon": -77.0328415, "rental_uris": {"ios": "https://dc.lft.to/lastmile_qr_scan", "android": "https://dc.lft.to/lastmile_qr_scan"}}, {"name": "4944b29e7b900b50eccaa4297c8706bb", "fusion_lat": 0.0, "type": "electric_scooter", "lat": 38.909792833333334, "is_reserved": 0, "is_disabled": 0, "fusion_lon": 0.0, "bike_id": "4944b29e7b900b50eccaa4297c8706bb", "lon": -77.0671215, "rental_uris": {"ios": "https://dc.lft.to/lastmile_qr_scan", "android": "https://dc.lft.to/lastmile_qr_scan"}}, {"name": "3bdd62a41c020aec6b5fb5480aa1b61f", "fusion_lat": 0.0, "type": "electric_scooter", "lat": 38.91119416666667, "is_reserved": 0, "is_disabled": 0, "fusion_lon": 0.0, "bike_id": "3bdd62a41c020aec6b5fb5480aa1b61f", "lon": -77.03832566666667, "rental_uris": {"ios": "https://dc.lft.to/lastmile_qr_scan", "android": "https://dc.lft.to/lastmile_qr_scan"}}, {"name": "6434edb519ecba0d22e17dd415980325", "fusion_lat": 0.0, "type": "electric_scooter", "lat": 38.874190666666664, "is_reserved": 0, "is_disabled": 0, "fusion_lon": 0.0, "bike_id": "6434edb519ecba0d22e17dd415980325", "lon": -76.96091516666667, "rental_uris": {"ios": "https://dc.lft.to/lastmile_qr_scan", "android": "https://dc.lft.to/lastmile_qr_scan"}}, {"name": "731861b6be34020fe22bfbdb88483650", "fusion_lat": 0.0, "type": "electric_scooter", "lat": 38.896498333333334, "is_reserved": 0, "is_disabled": 0, "fusion_lon": 0.0, "bike_id": "731861b6be34020fe22bfbdb88483650", "lon": -76.948588, "rental_uris": {"ios": "https://dc.lft.to/lastmile_qr_scan", "android": "https://dc.lft.to/lastmile_qr_scan"}}, {"name": "35e8792b3cf9660ea6200d0b09d4ca8f", "fusion_lat": 0.0, "type": "electric_scooter", "lat": 38.909196, "is_reserved": 0, "is_disabled": 0, "fusion_lon": 0.0, "bike_id": "35e8792b3cf9660ea6200d0b09d4ca8f", "lon": -77.03844583333333, "rental_uris": {"ios": "https://dc.lft.to/lastmile_qr_scan", "android": "https://dc.lft.to/lastmile_qr_scan"}}, {"name": "3c29a7a3e8f8275a8e459d55d8aa7a18", "fusion_lat": 0.0, "type": "electric_scooter", "lat": 38.91826416666667, "is_reserved": 0, "is_disabled": 0, "fusion_lon": 0.0, "bike_id": "3c29a7a3e8f8275a8e459d55d8aa7a18", "lon": -77.02301916666667, "rental_uris": {"ios": "https://dc.lft.to/lastmile_qr_scan", "android": "https://dc.lft.to/lastmile_qr_scan"}}, {"name": "0b76c16938fc557a3150d4d6941823d9", "fusion_lat": 0.0, "type": "electric_scooter", "lat": 38.90314816666667, "is_reserved": 0, "is_disabled": 0, "fusion_lon": 0.0, "bike_id": "0b76c16938fc557a3150d4d6941823d9", "lon": -76.99158133333333, "rental_uris": {"ios": "https://dc.lft.to/lastmile_qr_scan", "android": "https://dc.lft.to/lastmile_qr_scan"}}, {"name": "8697e76a8bd423f030ecbc97dc14bb1f", "fusion_lat": 0.0, "type": "electric_scooter", "lat": 38.94289033333333, "is_reserved": 0, "is_disabled": 0, "fusion_lon": 0.0, "bike_id": "8697e76a8bd423f030ecbc97dc14bb1f", "lon": -77.02174766666667, "rental_uris": {"ios": "https://dc.lft.to/lastmile_qr_scan", "android": "https://dc.lft.to/lastmile_qr_scan"}}, {"name": "c99499f76da0944f951eb9424392ccb7", "fusion_lat": 0.0, "type": "electric_scooter", "lat": 38.91871733333333, "is_reserved": 0, "is_disabled": 0, "fusion_lon": 0.0, "bike_id": "c99499f76da0944f951eb9424392ccb7", "lon": -77.0231125, "rental_uris": {"ios": "https://dc.lft.to/lastmile_qr_scan", "android": "https://dc.lft.to/lastmile_qr_scan"}}, {"name": "a2ed56d98c03dce5ed51e869d3ebb8aa", "fusion_lat": 0.0, "type": "electric_bike", "lat": 38.874801833333336, "is_reserved": 0, "is_disabled": 0, "fusion_lon": 0.0, "bike_id": "a2ed56d98c03dce5ed51e869d3ebb8aa", "lon": -76.9653585, "rental_uris": {"ios": "https://dc.lft.to/lastmile_qr_scan", "android": "https://dc.lft.to/lastmile_qr_scan"}}, {"name": "b2a6685091258655757d4ace3a7adaa0", "fusion_lat": 0.0, "type": "electric_bike", "lat": 38.94271, "is_reserved": 0, "is_disabled": 0, "fusion_lon": 0.0, "bike_id": "b2a6685091258655757d4ace3a7adaa0", "lon": -76.980689, "rental_uris": {"ios": "https://dc.lft.to/lastmile_qr_scan", "android": "https://dc.lft.to/lastmile_qr_scan"}}, {"name": "01d8034e06e7b56bf2f25ff4546a9f35", "fusion_lat": 0.0, "type": "electric_scooter", "lat": 38.89605916666667, "is_reserved": 0, "is_disabled": 0, "fusion_lon": 0.0, "bike_id": "01d8034e06e7b56bf2f25ff4546a9f35", "lon": -77.01015033333333, "rental_uris": {"ios": "https://dc.lft.to/lastmile_qr_scan", "android": "https://dc.lft.to/lastmile_qr_scan"}}, {"name": "e9cd29fca2ba4b64bde74725ac04153e", "fusion_lat": 0.0, "type": "electric_scooter", "lat": 38.924642666666664, "is_reserved": 0, "is_disabled": 0, "fusion_lon": 0.0, "bike_id": "e9cd29fca2ba4b64bde74725ac04153e", "lon": -77.0376865, "rental_uris": {"ios": "https://dc.lft.to/lastmile_qr_scan", "android": "https://dc.lft.to/lastmile_qr_scan"}}, {"name": "317f2120af6b5cac3fe38fb2667ae577", "fusion_lat": 0.0, "type": "electric_scooter", "lat": 38.912487, "is_reserved": 0, "is_disabled": 0, "fusion_lon": 0.0, "bike_id": "317f2120af6b5cac3fe38fb2667ae577", "lon": -77.03434166666666, "rental_uris": {"ios": "https://dc.lft.to/lastmile_qr_scan", "android": "https://dc.lft.to/lastmile_qr_scan"}}, {"name": "f3b67391da3a422125e7beba8ca67cf5", "fusion_lat": 0.0, "type": "electric_scooter", "lat": 38.900254833333335, "is_reserved": 0, "is_disabled": 0, "fusion_lon": 0.0, "bike_id": "f3b67391da3a422125e7beba8ca67cf5", "lon": -77.01116816666666, "rental_uris": {"ios": "https://dc.lft.to/lastmile_qr_scan", "android": "https://dc.lft.to/lastmile_qr_scan"}}, {"name": "0b0bf85a79d7fde20d626e1d50aa287d", "fusion_lat": 0.0, "type": "electric_scooter", "lat": 38.90043766666667, "is_reserved": 0, "is_disabled": 0, "fusion_lon": 0.0, "bike_id": "0b0bf85a79d7fde20d626e1d50aa287d", "lon": -76.988363, "rental_uris": {"ios": "https://dc.lft.to/lastmile_qr_scan", "android": "https://dc.lft.to/lastmile_qr_scan"}}, {"name": "95ccf249bea648863b28f08a1bb89b8a", "fusion_lat": 0.0, "type": "electric_scooter", "lat": 38.932495833333334, "is_reserved": 0, "is_disabled": 0, "fusion_lon": 0.0, "bike_id": "95ccf249bea648863b28f08a1bb89b8a", "lon": -77.04008433333334, "rental_uris": {"ios": "https://dc.lft.to/lastmile_qr_scan", "android": "https://dc.lft.to/lastmile_qr_scan"}}, {"name": "0ddabd3ed8b74b7b68be4123f39775cd", "fusion_lat": 0.0, "type": "electric_scooter", "lat": 38.917246666666664, "is_reserved": 0, "is_disabled": 0, "fusion_lon": 0.0, "bike_id": "0ddabd3ed8b74b7b68be4123f39775cd", "lon": -77.038413, "rental_uris": {"ios": "https://dc.lft.to/lastmile_qr_scan", "android": "https://dc.lft.to/lastmile_qr_scan"}}, {"name": "33289d0058aabdd721f7df313169ec13", "fusion_lat": 0.0, "type": "electric_scooter", "lat": 38.9169185, "is_reserved": 0, "is_disabled": 0, "fusion_lon": 0.0, "bike_id": "33289d0058aabdd721f7df313169ec13", "lon": -77.024407, "rental_uris": {"ios": "https://dc.lft.to/lastmile_qr_scan", "android": "https://dc.lft.to/lastmile_qr_scan"}}, {"name": "6c49aaabcb0e57ea837bb07b476b030a", "fusion_lat": 0.0, "type": "electric_scooter", "lat": 38.916606, "is_reserved": 0, "is_disabled": 0, "fusion_lon": 0.0, "bike_id": "6c49aaabcb0e57ea837bb07b476b030a", "lon": -77.02569883333334, "rental_uris": {"ios": "https://dc.lft.to/lastmile_qr_scan", "android": "https://dc.lft.to/lastmile_qr_scan"}}, {"name": "30a24ca22305003e413c6b0976834727", "fusion_lat": 0.0, "type": "electric_scooter", "lat": 38.911122166666665, "is_reserved": 0, "is_disabled": 0, "fusion_lon": 0.0, "bike_id": "30a24ca22305003e413c6b0976834727", "lon": -77.033021, "rental_uris": {"ios": "https://dc.lft.to/lastmile_qr_scan", "android": "https://dc.lft.to/lastmile_qr_scan"}}, {"name": "c33ddfc3c794201e6462b208bcf1d073", "fusion_lat": 0.0, "type": "electric_scooter", "lat": 38.900075333333334, "is_reserved": 0, "is_disabled": 0, "fusion_lon": 0.0, "bike_id": "c33ddfc3c794201e6462b208bcf1d073", "lon": -77.033078, "rental_uris": {"ios": "https://dc.lft.to/lastmile_qr_scan", "android": "https://dc.lft.to/lastmile_qr_scan"}}, {"name": "46cc90f04949d908a28082b00cddd71a", "fusion_lat": 0.0, "type": "electric_scooter", "lat": 38.86662466666667, "is_reserved": 0, "is_disabled": 0, "fusion_lon": 0.0, "bike_id": "46cc90f04949d908a28082b00cddd71a", "lon": -76.9888445, "rental_uris": {"ios": "https://dc.lft.to/lastmile_qr_scan", "android": "https://dc.lft.to/lastmile_qr_scan"}}, {"name": "6ae5966ef557ce2df10fa26bdc7fc5fe", "fusion_lat": 0.0, "type": "electric_scooter", "lat": 38.924847, "is_reserved": 0, "is_disabled": 0, "fusion_lon": 0.0, "bike_id": "6ae5966ef557ce2df10fa26bdc7fc5fe", "lon": -77.02901, "rental_uris": {"ios": "https://dc.lft.to/lastmile_qr_scan", "android": "https://dc.lft.to/lastmile_qr_scan"}}, {"name": "45d7a697107dd9ba072d95e2f2e9df34", "fusion_lat": 0.0, "type": "electric_scooter", "lat": 38.90611883333333, "is_reserved": 0, "is_disabled": 0, "fusion_lon": 0.0, "bike_id": "45d7a697107dd9ba072d95e2f2e9df34", "lon": -77.04668833333334, "rental_uris": {"ios": "https://dc.lft.to/lastmile_qr_scan", "android": "https://dc.lft.to/lastmile_qr_scan"}}, {"name": "a2712aca4834bdc194a622f3b98f0dc8", "fusion_lat": 0.0, "type": "electric_bike", "lat": 38.9568635, "is_reserved": 0, "is_disabled": 0, "fusion_lon": 0.0, "bike_id": "a2712aca4834bdc194a622f3b98f0dc8", "lon": -77.02230233333333, "rental_uris": {"ios": "https://dc.lft.to/lastmile_qr_scan", "android": "https://dc.lft.to/lastmile_qr_scan"}}, {"name": "e4dc4e0591ec25ef902af4bb3ae2a5b0", "fusion_lat": 0.0, "type": "electric_scooter", "lat": 38.8861865, "is_reserved": 0, "is_disabled": 0, "fusion_lon": 0.0, "bike_id": "e4dc4e0591ec25ef902af4bb3ae2a5b0", "lon": -77.0197945, "rental_uris": {"ios": "https://dc.lft.to/lastmile_qr_scan", "android": "https://dc.lft.to/lastmile_qr_scan"}}, {"name": "4b8bc35efb739f0c3cd1519a74c96ae6", "fusion_lat": 0.0, "type": "electric_scooter", "lat": 38.91131266666667, "is_reserved": 0, "is_disabled": 0, "fusion_lon": 0.0, "bike_id": "4b8bc35efb739f0c3cd1519a74c96ae6", "lon": -77.02198733333333, "rental_uris": {"ios": "https://dc.lft.to/lastmile_qr_scan", "android": "https://dc.lft.to/lastmile_qr_scan"}}, {"name": "6e9bfc5800716f6c570a9e7fa448d36e", "fusion_lat": 0.0, "type": "electric_scooter", "lat": 38.920630333333335, "is_reserved": 0, "is_disabled": 0, "fusion_lon": 0.0, "bike_id": "6e9bfc5800716f6c570a9e7fa448d36e", "lon": -77.0425345, "rental_uris": {"ios": "https://dc.lft.to/lastmile_qr_scan", "android": "https://dc.lft.to/lastmile_qr_scan"}}, {"name": "7d8220bca2fede847e1ff3cfe3ff7923", "fusion_lat": 0.0, "type": "electric_scooter", "lat": 38.91701916666667, "is_reserved": 0, "is_disabled": 0, "fusion_lon": 0.0, "bike_id": "7d8220bca2fede847e1ff3cfe3ff7923", "lon": -77.0334505, "rental_uris": {"ios": "https://dc.lft.to/lastmile_qr_scan", "android": "https://dc.lft.to/lastmile_qr_scan"}}, {"name": "306fd8ea2a172be5c4d8ed9fdf6e753a", "fusion_lat": 0.0, "type": "electric_scooter", "lat": 38.9052035, "is_reserved": 0, "is_disabled": 0, "fusion_lon": 0.0, "bike_id": "306fd8ea2a172be5c4d8ed9fdf6e753a", "lon": -77.06626316666667, "rental_uris": {"ios": "https://dc.lft.to/lastmile_qr_scan", "android": "https://dc.lft.to/lastmile_qr_scan"}}, {"name": "182b41b7c7ff649267bce40b0ac66395", "fusion_lat": 0.0, "type": "electric_scooter", "lat": 38.91011183333333, "is_reserved": 0, "is_disabled": 0, "fusion_lon": 0.0, "bike_id": "182b41b7c7ff649267bce40b0ac66395", "lon": -76.99389966666666, "rental_uris": {"ios": "https://dc.lft.to/lastmile_qr_scan", "android": "https://dc.lft.to/lastmile_qr_scan"}}, {"name": "91a83ce32aefa9e7fab5f1fc6bd75f7c", "fusion_lat": 0.0, "type": "electric_scooter", "lat": 38.90317316666667, "is_reserved": 0, "is_disabled": 0, "fusion_lon": 0.0, "bike_id": "91a83ce32aefa9e7fab5f1fc6bd75f7c", "lon": -77.02428, "rental_uris": {"ios": "https://dc.lft.to/lastmile_qr_scan", "android": "https://dc.lft.to/lastmile_qr_scan"}}, {"name": "de712713981b0581d8091b54a8719dff", "fusion_lat": 0.0, "type": "electric_scooter", "lat": 38.9125965, "is_reserved": 0, "is_disabled": 0, "fusion_lon": 0.0, "bike_id": "de712713981b0581d8091b54a8719dff", "lon": -77.03542666666667, "rental_uris": {"ios": "https://dc.lft.to/lastmile_qr_scan", "android": "https://dc.lft.to/lastmile_qr_scan"}}, {"name": "14c70d756e9b743bb1400b66e5220726", "fusion_lat": 0.0, "type": "electric_scooter", "lat": 38.923567, "is_reserved": 0, "is_disabled": 0, "fusion_lon": 0.0, "bike_id": "14c70d756e9b743bb1400b66e5220726", "lon": -77.05244366666666, "rental_uris": {"ios": "https://dc.lft.to/lastmile_qr_scan", "android": "https://dc.lft.to/lastmile_qr_scan"}}, {"name": "98c7d9a81abfa792e45d032a232ce0ef", "fusion_lat": 0.0, "type": "electric_scooter", "lat": 38.918083, "is_reserved": 0, "is_disabled": 0, "fusion_lon": 0.0, "bike_id": "98c7d9a81abfa792e45d032a232ce0ef", "lon": -77.04004816666666, "rental_uris": {"ios": "https://dc.lft.to/lastmile_qr_scan", "android": "https://dc.lft.to/lastmile_qr_scan"}}, {"name": "8f208085a0033d0ac47864ff852190d6", "fusion_lat": 0.0, "type": "electric_scooter", "lat": 38.908884, "is_reserved": 0, "is_disabled": 0, "fusion_lon": 0.0, "bike_id": "8f208085a0033d0ac47864ff852190d6", "lon": -77.0057345, "rental_uris": {"ios": "https://dc.lft.to/lastmile_qr_scan", "android": "https://dc.lft.to/lastmile_qr_scan"}}, {"name": "70074ab0b83a8f50b7da80f59806a6ab", "fusion_lat": 0.0, "type": "electric_scooter", "lat": 38.9280015, "is_reserved": 0, "is_disabled": 0, "fusion_lon": 0.0, "bike_id": "70074ab0b83a8f50b7da80f59806a6ab", "lon": -77.039748, "rental_uris": {"ios": "https://dc.lft.to/lastmile_qr_scan", "android": "https://dc.lft.to/lastmile_qr_scan"}}, {"name": "8406bed75cb1e3a87b633c3a5768adf7", "fusion_lat": 0.0, "type": "electric_scooter", "lat": 38.90397316666667, "is_reserved": 0, "is_disabled": 0, "fusion_lon": 0.0, "bike_id": "8406bed75cb1e3a87b633c3a5768adf7", "lon": -77.06400116666667, "rental_uris": {"ios": "https://dc.lft.to/lastmile_qr_scan", "android": "https://dc.lft.to/lastmile_qr_scan"}}, {"name": "ff9ae07ee6394d361f329ef866fb0c90", "fusion_lat": 0.0, "type": "electric_scooter", "lat": 38.91933316666667, "is_reserved": 0, "is_disabled": 0, "fusion_lon": 0.0, "bike_id": "ff9ae07ee6394d361f329ef866fb0c90", "lon": -77.0449045, "rental_uris": {"ios": "https://dc.lft.to/lastmile_qr_scan", "android": "https://dc.lft.to/lastmile_qr_scan"}}, {"name": "b0ae09b593ca59efc278b7d7279139a2", "fusion_lat": 0.0, "type": "electric_scooter", "lat": 38.861434833333334, "is_reserved": 0, "is_disabled": 0, "fusion_lon": 0.0, "bike_id": "b0ae09b593ca59efc278b7d7279139a2", "lon": -76.9891285, "rental_uris": {"ios": "https://dc.lft.to/lastmile_qr_scan", "android": "https://dc.lft.to/lastmile_qr_scan"}}, {"name": "cca7ff76713dbb90b4d461df696c1c3b", "fusion_lat": 0.0, "type": "electric_scooter", "lat": 38.9172845, "is_reserved": 0, "is_disabled": 0, "fusion_lon": 0.0, "bike_id": "cca7ff76713dbb90b4d461df696c1c3b", "lon": -77.01034116666666, "rental_uris": {"ios": "https://dc.lft.to/lastmile_qr_scan", "android": "https://dc.lft.to/lastmile_qr_scan"}}, {"name": "56d4634860f820b0acf04d65c1095a2c", "fusion_lat": 0.0, "type": "electric_scooter", "lat": 38.90558766666667, "is_reserved": 0, "is_disabled": 0, "fusion_lon": 0.0, "bike_id": "56d4634860f820b0acf04d65c1095a2c", "lon": -77.02225916666667, "rental_uris": {"ios": "https://dc.lft.to/lastmile_qr_scan", "android": "https://dc.lft.to/lastmile_qr_scan"}}, {"name": "b9a86494b7bd5df18f6ca872af161b2f", "fusion_lat": 0.0, "type": "electric_scooter", "lat": 38.90471616666667, "is_reserved": 0, "is_disabled": 0, "fusion_lon": 0.0, "bike_id": "b9a86494b7bd5df18f6ca872af161b2f", "lon": -77.00729866666667, "rental_uris": {"ios": "https://dc.lft.to/lastmile_qr_scan", "android": "https://dc.lft.to/lastmile_qr_scan"}}, {"name": "5e2d22803e382ad3538abcca0d873593", "fusion_lat": 0.0, "type": "electric_scooter", "lat": 38.917577333333334, "is_reserved": 0, "is_disabled": 0, "fusion_lon": 0.0, "bike_id": "5e2d22803e382ad3538abcca0d873593", "lon": -77.01872933333334, "rental_uris": {"ios": "https://dc.lft.to/lastmile_qr_scan", "android": "https://dc.lft.to/lastmile_qr_scan"}}, {"name": "98cec6069e931b157d82f3992e05f091", "fusion_lat": 0.0, "type": "electric_scooter", "lat": 38.93106316666667, "is_reserved": 0, "is_disabled": 0, "fusion_lon": 0.0, "bike_id": "98cec6069e931b157d82f3992e05f091", "lon": -77.024005, "rental_uris": {"ios": "https://dc.lft.to/lastmile_qr_scan", "android": "https://dc.lft.to/lastmile_qr_scan"}}, {"name": "08d348985b3da88faeb6d2d561cab0d0", "fusion_lat": 0.0, "type": "electric_scooter", "lat": 38.914204833333336, "is_reserved": 0, "is_disabled": 0, "fusion_lon": 0.0, "bike_id": "08d348985b3da88faeb6d2d561cab0d0", "lon": -77.03172183333334, "rental_uris": {"ios": "https://dc.lft.to/lastmile_qr_scan", "android": "https://dc.lft.to/lastmile_qr_scan"}}, {"name": "6d413439f5c251796593a49e69571a4f", "fusion_lat": 0.0, "type": "electric_scooter", "lat": 38.93898566666667, "is_reserved": 0, "is_disabled": 0, "fusion_lon": 0.0, "bike_id": "6d413439f5c251796593a49e69571a4f", "lon": -77.032654, "rental_uris": {"ios": "https://dc.lft.to/lastmile_qr_scan", "android": "https://dc.lft.to/lastmile_qr_scan"}}, {"name": "4364f8bf1f7924431d75902f09395c29", "fusion_lat": 0.0, "type": "electric_scooter", "lat": 38.903678666666664, "is_reserved": 0, "is_disabled": 0, "fusion_lon": 0.0, "bike_id": "4364f8bf1f7924431d75902f09395c29", "lon": -77.0176735, "rental_uris": {"ios": "https://dc.lft.to/lastmile_qr_scan", "android": "https://dc.lft.to/lastmile_qr_scan"}}, {"name": "c93b94576b247abfe41fdc77922a22dc", "fusion_lat": 0.0, "type": "electric_scooter", "lat": 38.89873433333333, "is_reserved": 0, "is_disabled": 0, "fusion_lon": 0.0, "bike_id": "c93b94576b247abfe41fdc77922a22dc", "lon": -76.93159833333333, "rental_uris": {"ios": "https://dc.lft.to/lastmile_qr_scan", "android": "https://dc.lft.to/lastmile_qr_scan"}}, {"name": "6233c017b5b611fe3c002b395422f4ad", "fusion_lat": 0.0, "type": "electric_bike", "lat": 38.96127166666667, "is_reserved": 0, "is_disabled": 0, "fusion_lon": 0.0, "bike_id": "6233c017b5b611fe3c002b395422f4ad", "lon": -77.03271583333333, "rental_uris": {"ios": "https://dc.lft.to/lastmile_qr_scan", "android": "https://dc.lft.to/lastmile_qr_scan"}}, {"name": "db9867bf61f42a58f905b5fc19d033a2", "fusion_lat": 0.0, "type": "electric_scooter", "lat": 38.9244165, "is_reserved": 0, "is_disabled": 0, "fusion_lon": 0.0, "bike_id": "db9867bf61f42a58f905b5fc19d033a2", "lon": -76.9932845, "rental_uris": {"ios": "https://dc.lft.to/lastmile_qr_scan", "android": "https://dc.lft.to/lastmile_qr_scan"}}, {"name": "41508b01624c3d5f519a7eeeec1df6e7", "fusion_lat": 0.0, "type": "electric_scooter", "lat": 38.92258316666667, "is_reserved": 0, "is_disabled": 0, "fusion_lon": 0.0, "bike_id": "41508b01624c3d5f519a7eeeec1df6e7", "lon": -77.0304435, "rental_uris": {"ios": "https://dc.lft.to/lastmile_qr_scan", "android": "https://dc.lft.to/lastmile_qr_scan"}}, {"name": "7d3c47456dc6145a427d1a208932b405", "fusion_lat": 0.0, "type": "electric_bike", "lat": 38.93953233333333, "is_reserved": 0, "is_disabled": 0, "fusion_lon": 0.0, "bike_id": "7d3c47456dc6145a427d1a208932b405", "lon": -77.03271583333333, "rental_uris": {"ios": "https://dc.lft.to/lastmile_qr_scan", "android": "https://dc.lft.to/lastmile_qr_scan"}}, {"name": "b04809e5faf257d42ab3bd939927f183", "fusion_lat": 0.0, "type": "electric_scooter", "lat": 38.957842, "is_reserved": 0, "is_disabled": 0, "fusion_lon": 0.0, "bike_id": "b04809e5faf257d42ab3bd939927f183", "lon": -77.02764166666667, "rental_uris": {"ios": "https://dc.lft.to/lastmile_qr_scan", "android": "https://dc.lft.to/lastmile_qr_scan"}}, {"name": "743164272629979e31f89b2eb8b219a1", "fusion_lat": 0.0, "type": "electric_scooter", "lat": 38.91963633333334, "is_reserved": 0, "is_disabled": 0, "fusion_lon": 0.0, "bike_id": "743164272629979e31f89b2eb8b219a1", "lon": -77.0385685, "rental_uris": {"ios": "https://dc.lft.to/lastmile_qr_scan", "android": "https://dc.lft.to/lastmile_qr_scan"}}, {"name": "977a72b3e5d6a2a7fe3e838cd6f02544", "fusion_lat": 0.0, "type": "electric_scooter", "lat": 38.897329666666664, "is_reserved": 0, "is_disabled": 0, "fusion_lon": 0.0, "bike_id": "977a72b3e5d6a2a7fe3e838cd6f02544", "lon": -77.04642483333333, "rental_uris": {"ios": "https://dc.lft.to/lastmile_qr_scan", "android": "https://dc.lft.to/lastmile_qr_scan"}}, {"name": "eab7d06ccac8133a2165e16c78cd9fd9", "fusion_lat": 0.0, "type": "electric_scooter", "lat": 38.917603666666665, "is_reserved": 0, "is_disabled": 0, "fusion_lon": 0.0, "bike_id": "eab7d06ccac8133a2165e16c78cd9fd9", "lon": -77.02512583333333, "rental_uris": {"ios": "https://dc.lft.to/lastmile_qr_scan", "android": "https://dc.lft.to/lastmile_qr_scan"}}, {"name": "f028f5c974736195d6c591c2c26258cd", "fusion_lat": 0.0, "type": "electric_scooter", "lat": 38.91247966666667, "is_reserved": 0, "is_disabled": 0, "fusion_lon": 0.0, "bike_id": "f028f5c974736195d6c591c2c26258cd", "lon": -77.03834366666666, "rental_uris": {"ios": "https://dc.lft.to/lastmile_qr_scan", "android": "https://dc.lft.to/lastmile_qr_scan"}}, {"name": "37a8bfdc1a6bae06d9e6bbdafbb9dd7d", "fusion_lat": 0.0, "type": "electric_scooter", "lat": 38.91414183333333, "is_reserved": 0, "is_disabled": 0, "fusion_lon": 0.0, "bike_id": "37a8bfdc1a6bae06d9e6bbdafbb9dd7d", "lon": -77.04500533333334, "rental_uris": {"ios": "https://dc.lft.to/lastmile_qr_scan", "android": "https://dc.lft.to/lastmile_qr_scan"}}, {"name": "2b3ce122039dc23fe30e8befb4051e39", "fusion_lat": 0.0, "type": "electric_bike", "lat": 38.992371166666665, "is_reserved": 0, "is_disabled": 0, "fusion_lon": 0.0, "bike_id": "2b3ce122039dc23fe30e8befb4051e39", "lon": -77.1001285, "rental_uris": {"ios": "https://dc.lft.to/lastmile_qr_scan", "android": "https://dc.lft.to/lastmile_qr_scan"}}, {"name": "249e3fdc0b29beba5b866af5db711f58", "fusion_lat": 0.0, "type": "electric_scooter", "lat": 38.91267283333333, "is_reserved": 0, "is_disabled": 0, "fusion_lon": 0.0, "bike_id": "249e3fdc0b29beba5b866af5db711f58", "lon": -77.03940083333333, "rental_uris": {"ios": "https://dc.lft.to/lastmile_qr_scan", "android": "https://dc.lft.to/lastmile_qr_scan"}}, {"name": "a4967d8d7d561dada3faa21e4dd5fc93", "fusion_lat": 0.0, "type": "electric_scooter", "lat": 38.9171695, "is_reserved": 0, "is_disabled": 0, "fusion_lon": 0.0, "bike_id": "a4967d8d7d561dada3faa21e4dd5fc93", "lon": -77.01864366666666, "rental_uris": {"ios": "https://dc.lft.to/lastmile_qr_scan", "android": "https://dc.lft.to/lastmile_qr_scan"}}, {"name": "41d25d10b2e27ee4b39c3d935465db7d", "fusion_lat": 0.0, "type": "electric_scooter", "lat": 38.897671333333335, "is_reserved": 0, "is_disabled": 0, "fusion_lon": 0.0, "bike_id": "41d25d10b2e27ee4b39c3d935465db7d", "lon": -77.05159116666667, "rental_uris": {"ios": "https://dc.lft.to/lastmile_qr_scan", "android": "https://dc.lft.to/lastmile_qr_scan"}}, {"name": "9bbb7ea7b1c8477e8a5b4c3cc4c6d51c", "fusion_lat": 0.0, "type": "electric_bike", "lat": 38.90296583333333, "is_reserved": 0, "is_disabled": 0, "fusion_lon": 0.0, "bike_id": "9bbb7ea7b1c8477e8a5b4c3cc4c6d51c", "lon": -76.94437066666667, "rental_uris": {"ios": "https://dc.lft.to/lastmile_qr_scan", "android": "https://dc.lft.to/lastmile_qr_scan"}}, {"name": "7cca24357375929501cd348b91af132c", "fusion_lat": 0.0, "type": "electric_scooter", "lat": 38.935400666666666, "is_reserved": 0, "is_disabled": 0, "fusion_lon": 0.0, "bike_id": "7cca24357375929501cd348b91af132c", "lon": -77.0339915, "rental_uris": {"ios": "https://dc.lft.to/lastmile_qr_scan", "android": "https://dc.lft.to/lastmile_qr_scan"}}, {"name": "4986c03bdf4b3f7991df8779b81f102a", "fusion_lat": 0.0, "type": "electric_scooter", "lat": 38.921314833333334, "is_reserved": 0, "is_disabled": 0, "fusion_lon": 0.0, "bike_id": "4986c03bdf4b3f7991df8779b81f102a", "lon": -76.99396733333333, "rental_uris": {"ios": "https://dc.lft.to/lastmile_qr_scan", "android": "https://dc.lft.to/lastmile_qr_scan"}}, {"name": "4f6ce0dee87f211aacec46c2d67ba91b", "fusion_lat": 0.0, "type": "electric_bike", "lat": 38.810511, "is_reserved": 0, "is_disabled": 0, "fusion_lon": 0.0, "bike_id": "4f6ce0dee87f211aacec46c2d67ba91b", "lon": -77.085103, "rental_uris": {"ios": "https://dc.lft.to/lastmile_qr_scan", "android": "https://dc.lft.to/lastmile_qr_scan"}}, {"name": "32a617e06d78a4566f8228cd36b140b2", "fusion_lat": 0.0, "type": "electric_scooter", "lat": 38.90670883333333, "is_reserved": 0, "is_disabled": 0, "fusion_lon": 0.0, "bike_id": "32a617e06d78a4566f8228cd36b140b2", "lon": -77.02703416666667, "rental_uris": {"ios": "https://dc.lft.to/lastmile_qr_scan", "android": "https://dc.lft.to/lastmile_qr_scan"}}, {"name": "0fafff2c1b88ec16fb43802674d81608", "fusion_lat": 0.0, "type": "electric_scooter", "lat": 38.9363515, "is_reserved": 0, "is_disabled": 0, "fusion_lon": 0.0, "bike_id": "0fafff2c1b88ec16fb43802674d81608", "lon": -77.020594, "rental_uris": {"ios": "https://dc.lft.to/lastmile_qr_scan", "android": "https://dc.lft.to/lastmile_qr_scan"}}, {"name": "0f0162c35ae8c9c5e6ca197a7cca4fef", "fusion_lat": 0.0, "type": "electric_scooter", "lat": 38.91602316666667, "is_reserved": 0, "is_disabled": 0, "fusion_lon": 0.0, "bike_id": "0f0162c35ae8c9c5e6ca197a7cca4fef", "lon": -77.038586, "rental_uris": {"ios": "https://dc.lft.to/lastmile_qr_scan", "android": "https://dc.lft.to/lastmile_qr_scan"}}, {"name": "2343ec78a12387eef1ce0ddcbf7df849", "fusion_lat": 0.0, "type": "electric_scooter", "lat": 38.90025716666667, "is_reserved": 0, "is_disabled": 0, "fusion_lon": 0.0, "bike_id": "2343ec78a12387eef1ce0ddcbf7df849", "lon": -77.00217066666667, "rental_uris": {"ios": "https://dc.lft.to/lastmile_qr_scan", "android": "https://dc.lft.to/lastmile_qr_scan"}}, {"name": "b8479e314802e1282ef5d5e850b70b6e", "fusion_lat": 0.0, "type": "electric_scooter", "lat": 38.895256, "is_reserved": 0, "is_disabled": 0, "fusion_lon": 0.0, "bike_id": "b8479e314802e1282ef5d5e850b70b6e", "lon": -76.9488965, "rental_uris": {"ios": "https://dc.lft.to/lastmile_qr_scan", "android": "https://dc.lft.to/lastmile_qr_scan"}}, {"name": "c49afd2c4f9b8ad65ee0ce626eaa7849", "fusion_lat": 0.0, "type": "electric_bike", "lat": 39.0268205, "is_reserved": 0, "is_disabled": 0, "fusion_lon": 0.0, "bike_id": "c49afd2c4f9b8ad65ee0ce626eaa7849", "lon": -77.1260115, "rental_uris": {"ios": "https://dc.lft.to/lastmile_qr_scan", "android": "https://dc.lft.to/lastmile_qr_scan"}}, {"name": "aa84e6fc044c27b62cc067bbfd9fc0eb", "fusion_lat": 0.0, "type": "electric_scooter", "lat": 38.900316333333336, "is_reserved": 0, "is_disabled": 0, "fusion_lon": 0.0, "bike_id": "aa84e6fc044c27b62cc067bbfd9fc0eb", "lon": -77.00186233333334, "rental_uris": {"ios": "https://dc.lft.to/lastmile_qr_scan", "android": "https://dc.lft.to/lastmile_qr_scan"}}, {"name": "dd1f584abdf1df9c1917fa53c895b9ac", "fusion_lat": 0.0, "type": "electric_bike", "lat": 38.85420033333333, "is_reserved": 0, "is_disabled": 0, "fusion_lon": 0.0, "bike_id": "dd1f584abdf1df9c1917fa53c895b9ac", "lon": -76.90954583333334, "rental_uris": {"ios": "https://dc.lft.to/lastmile_qr_scan", "android": "https://dc.lft.to/lastmile_qr_scan"}}, {"name": "90e3470e92f6dfdc854994d4b3490be9", "fusion_lat": 0.0, "type": "electric_scooter", "lat": 38.9180635, "is_reserved": 0, "is_disabled": 0, "fusion_lon": 0.0, "bike_id": "90e3470e92f6dfdc854994d4b3490be9", "lon": -77.0321245, "rental_uris": {"ios": "https://dc.lft.to/lastmile_qr_scan", "android": "https://dc.lft.to/lastmile_qr_scan"}}, {"name": "a47517d68a9445390b00b854ad9d5fc0", "fusion_lat": 0.0, "type": "electric_scooter", "lat": 38.9187165, "is_reserved": 0, "is_disabled": 0, "fusion_lon": 0.0, "bike_id": "a47517d68a9445390b00b854ad9d5fc0", "lon": -77.043469, "rental_uris": {"ios": "https://dc.lft.to/lastmile_qr_scan", "android": "https://dc.lft.to/lastmile_qr_scan"}}, {"name": "60a646a1bfd42f3798ba5cae066df94d", "fusion_lat": 0.0, "type": "electric_scooter", "lat": 38.895747, "is_reserved": 0, "is_disabled": 0, "fusion_lon": 0.0, "bike_id": "60a646a1bfd42f3798ba5cae066df94d", "lon": -76.948886, "rental_uris": {"ios": "https://dc.lft.to/lastmile_qr_scan", "android": "https://dc.lft.to/lastmile_qr_scan"}}, {"name": "f4a56d0cd2dd13154858f84fc2d64555", "fusion_lat": 0.0, "type": "electric_scooter", "lat": 38.900832, "is_reserved": 0, "is_disabled": 0, "fusion_lon": 0.0, "bike_id": "f4a56d0cd2dd13154858f84fc2d64555", "lon": -77.04983633333333, "rental_uris": {"ios": "https://dc.lft.to/lastmile_qr_scan", "android": "https://dc.lft.to/lastmile_qr_scan"}}, {"name": "4fd6bcfd1a4f1149cf37be67a77c498a", "fusion_lat": 0.0, "type": "electric_scooter", "lat": 38.90578466666667, "is_reserved": 0, "is_disabled": 0, "fusion_lon": 0.0, "bike_id": "4fd6bcfd1a4f1149cf37be67a77c498a", "lon": -77.03269066666667, "rental_uris": {"ios": "https://dc.lft.to/lastmile_qr_scan", "android": "https://dc.lft.to/lastmile_qr_scan"}}, {"name": "23ecaaa11ed6e999e86b04d8918b7851", "fusion_lat": 0.0, "type": "electric_scooter", "lat": 38.9275105, "is_reserved": 0, "is_disabled": 0, "fusion_lon": 0.0, "bike_id": "23ecaaa11ed6e999e86b04d8918b7851", "lon": -77.03265633333334, "rental_uris": {"ios": "https://dc.lft.to/lastmile_qr_scan", "android": "https://dc.lft.to/lastmile_qr_scan"}}, {"name": "8a6491910d1dafafd053dfdbbb3ab73c", "fusion_lat": 0.0, "type": "electric_scooter", "lat": 38.89977316666667, "is_reserved": 0, "is_disabled": 0, "fusion_lon": 0.0, "bike_id": "8a6491910d1dafafd053dfdbbb3ab73c", "lon": -77.0312235, "rental_uris": {"ios": "https://dc.lft.to/lastmile_qr_scan", "android": "https://dc.lft.to/lastmile_qr_scan"}}, {"name": "cc3a4bd119eb48dc06be4f98f54036ee", "fusion_lat": 0.0, "type": "electric_scooter", "lat": 38.92244066666667, "is_reserved": 0, "is_disabled": 0, "fusion_lon": 0.0, "bike_id": "cc3a4bd119eb48dc06be4f98f54036ee", "lon": -77.03665533333333, "rental_uris": {"ios": "https://dc.lft.to/lastmile_qr_scan", "android": "https://dc.lft.to/lastmile_qr_scan"}}, {"name": "1c1469daffe41afe56b20526207494cc", "fusion_lat": 0.0, "type": "electric_bike", "lat": 38.95842283333333, "is_reserved": 0, "is_disabled": 0, "fusion_lon": 0.0, "bike_id": "1c1469daffe41afe56b20526207494cc", "lon": -76.99868633333334, "rental_uris": {"ios": "https://dc.lft.to/lastmile_qr_scan", "android": "https://dc.lft.to/lastmile_qr_scan"}}, {"name": "8553c42285513af7119624e1e2d3d46c", "fusion_lat": 0.0, "type": "electric_scooter", "lat": 38.91120433333333, "is_reserved": 0, "is_disabled": 0, "fusion_lon": 0.0, "bike_id": "8553c42285513af7119624e1e2d3d46c", "lon": -77.02412616666666, "rental_uris": {"ios": "https://dc.lft.to/lastmile_qr_scan", "android": "https://dc.lft.to/lastmile_qr_scan"}}, {"name": "a59722ad5fcd04fac5f8a6f4f5cd155c", "fusion_lat": 0.0, "type": "electric_scooter", "lat": 38.89716383333333, "is_reserved": 0, "is_disabled": 0, "fusion_lon": 0.0, "bike_id": "a59722ad5fcd04fac5f8a6f4f5cd155c", "lon": -77.03256233333333, "rental_uris": {"ios": "https://dc.lft.to/lastmile_qr_scan", "android": "https://dc.lft.to/lastmile_qr_scan"}}, {"name": "2e16802cfa15f2a323e1c60b5d26aaf6", "fusion_lat": 0.0, "type": "electric_bike", "lat": 38.9686415, "is_reserved": 0, "is_disabled": 0, "fusion_lon": 0.0, "bike_id": "2e16802cfa15f2a323e1c60b5d26aaf6", "lon": -77.03333233333333, "rental_uris": {"ios": "https://dc.lft.to/lastmile_qr_scan", "android": "https://dc.lft.to/lastmile_qr_scan"}}, {"name": "60f4b2a4da975dc6a638f14c36f9e3c4", "fusion_lat": 0.0, "type": "electric_scooter", "lat": 38.91495, "is_reserved": 0, "is_disabled": 0, "fusion_lon": 0.0, "bike_id": "60f4b2a4da975dc6a638f14c36f9e3c4", "lon": -77.03240816666667, "rental_uris": {"ios": "https://dc.lft.to/lastmile_qr_scan", "android": "https://dc.lft.to/lastmile_qr_scan"}}, {"name": "1bcf44c0402c25dea244f1a9f9d5e820", "fusion_lat": 0.0, "type": "electric_bike", "lat": 38.9053235, "is_reserved": 0, "is_disabled": 0, "fusion_lon": 0.0, "bike_id": "1bcf44c0402c25dea244f1a9f9d5e820", "lon": -76.99806483333333, "rental_uris": {"ios": "https://dc.lft.to/lastmile_qr_scan", "android": "https://dc.lft.to/lastmile_qr_scan"}}, {"name": "557ae4d17ebc6e88193950b606269b9b", "fusion_lat": 0.0, "type": "electric_scooter", "lat": 38.91405533333333, "is_reserved": 0, "is_disabled": 0, "fusion_lon": 0.0, "bike_id": "557ae4d17ebc6e88193950b606269b9b", "lon": -77.03906916666666, "rental_uris": {"ios": "https://dc.lft.to/lastmile_qr_scan", "android": "https://dc.lft.to/lastmile_qr_scan"}}, {"name": "88abc4c7ff31aada9265218ba87b0c86", "fusion_lat": 0.0, "type": "electric_scooter", "lat": 38.909219666666665, "is_reserved": 0, "is_disabled": 0, "fusion_lon": 0.0, "bike_id": "88abc4c7ff31aada9265218ba87b0c86", "lon": -77.0416015, "rental_uris": {"ios": "https://dc.lft.to/lastmile_qr_scan", "android": "https://dc.lft.to/lastmile_qr_scan"}}, {"name": "7ce9d3a8417a0db69bdd491a31e4e013", "fusion_lat": 0.0, "type": "electric_scooter", "lat": 38.9086335, "is_reserved": 0, "is_disabled": 0, "fusion_lon": 0.0, "bike_id": "7ce9d3a8417a0db69bdd491a31e4e013", "lon": -77.02712816666667, "rental_uris": {"ios": "https://dc.lft.to/lastmile_qr_scan", "android": "https://dc.lft.to/lastmile_qr_scan"}}, {"name": "a926cce8b6ab59aa6abe0e5c13d28c40", "fusion_lat": 0.0, "type": "electric_scooter", "lat": 38.91694, "is_reserved": 0, "is_disabled": 0, "fusion_lon": 0.0, "bike_id": "a926cce8b6ab59aa6abe0e5c13d28c40", "lon": -77.03897433333333, "rental_uris": {"ios": "https://dc.lft.to/lastmile_qr_scan", "android": "https://dc.lft.to/lastmile_qr_scan"}}, {"name": "4372852368508043c934d321ba6ba741", "fusion_lat": 0.0, "type": "electric_bike", "lat": 38.9909035, "is_reserved": 0, "is_disabled": 0, "fusion_lon": 0.0, "bike_id": "4372852368508043c934d321ba6ba741", "lon": -76.87498183333334, "rental_uris": {"ios": "https://dc.lft.to/lastmile_qr_scan", "android": "https://dc.lft.to/lastmile_qr_scan"}}, {"name": "4a39de9ada707dbadbf3aa993aa83efa", "fusion_lat": 0.0, "type": "electric_scooter", "lat": 38.90299366666667, "is_reserved": 0, "is_disabled": 0, "fusion_lon": 0.0, "bike_id": "4a39de9ada707dbadbf3aa993aa83efa", "lon": -77.0383625, "rental_uris": {"ios": "https://dc.lft.to/lastmile_qr_scan", "android": "https://dc.lft.to/lastmile_qr_scan"}}, {"name": "286fe390c20ffe59f3d06278f9f084e1", "fusion_lat": 0.0, "type": "electric_scooter", "lat": 38.89997983333333, "is_reserved": 0, "is_disabled": 0, "fusion_lon": 0.0, "bike_id": "286fe390c20ffe59f3d06278f9f084e1", "lon": -77.0271565, "rental_uris": {"ios": "https://dc.lft.to/lastmile_qr_scan", "android": "https://dc.lft.to/lastmile_qr_scan"}}, {"name": "7c494ede5b12121a51ba77d2ae154e6b", "fusion_lat": 0.0, "type": "electric_scooter", "lat": 38.921190333333335, "is_reserved": 0, "is_disabled": 0, "fusion_lon": 0.0, "bike_id": "7c494ede5b12121a51ba77d2ae154e6b", "lon": -77.036602, "rental_uris": {"ios": "https://dc.lft.to/lastmile_qr_scan", "android": "https://dc.lft.to/lastmile_qr_scan"}}, {"name": "8e5fe40efd79d0e014e191b3a7085239", "fusion_lat": 0.0, "type": "electric_scooter", "lat": 38.949515, "is_reserved": 0, "is_disabled": 0, "fusion_lon": 0.0, "bike_id": "8e5fe40efd79d0e014e191b3a7085239", "lon": -77.02725416666667, "rental_uris": {"ios": "https://dc.lft.to/lastmile_qr_scan", "android": "https://dc.lft.to/lastmile_qr_scan"}}, {"name": "8f628572016addc79fb1ee5faf3291b5", "fusion_lat": 0.0, "type": "electric_scooter", "lat": 38.91693383333333, "is_reserved": 0, "is_disabled": 0, "fusion_lon": 0.0, "bike_id": "8f628572016addc79fb1ee5faf3291b5", "lon": -77.03174183333333, "rental_uris": {"ios": "https://dc.lft.to/lastmile_qr_scan", "android": "https://dc.lft.to/lastmile_qr_scan"}}, {"name": "9371b6550dbd399b073619f2bae6a756", "fusion_lat": 0.0, "type": "electric_bike", "lat": 38.935799333333335, "is_reserved": 0, "is_disabled": 0, "fusion_lon": 0.0, "bike_id": "9371b6550dbd399b073619f2bae6a756", "lon": -77.02126716666666, "rental_uris": {"ios": "https://dc.lft.to/lastmile_qr_scan", "android": "https://dc.lft.to/lastmile_qr_scan"}}, {"name": "3bb52341a3a1dea0009c927fce829e6c", "fusion_lat": 0.0, "type": "electric_scooter", "lat": 38.92288933333333, "is_reserved": 0, "is_disabled": 0, "fusion_lon": 0.0, "bike_id": "3bb52341a3a1dea0009c927fce829e6c", "lon": -77.0296525, "rental_uris": {"ios": "https://dc.lft.to/lastmile_qr_scan", "android": "https://dc.lft.to/lastmile_qr_scan"}}, {"name": "e4747bde660dfa1b84e1c770e6781330", "fusion_lat": 0.0, "type": "electric_scooter", "lat": 38.87496483333334, "is_reserved": 0, "is_disabled": 0, "fusion_lon": 0.0, "bike_id": "e4747bde660dfa1b84e1c770e6781330", "lon": -76.9979695, "rental_uris": {"ios": "https://dc.lft.to/lastmile_qr_scan", "android": "https://dc.lft.to/lastmile_qr_scan"}}, {"name": "18ea3f52888b9009c325cf0e2545eac1", "fusion_lat": 0.0, "type": "electric_scooter", "lat": 38.900198833333334, "is_reserved": 0, "is_disabled": 0, "fusion_lon": 0.0, "bike_id": "18ea3f52888b9009c325cf0e2545eac1", "lon": -77.00091116666667, "rental_uris": {"ios": "https://dc.lft.to/lastmile_qr_scan", "android": "https://dc.lft.to/lastmile_qr_scan"}}, {"name": "c22a36cb1b466d3bb4842bbf01bb10c5", "fusion_lat": 0.0, "type": "electric_scooter", "lat": 38.906346, "is_reserved": 0, "is_disabled": 0, "fusion_lon": 0.0, "bike_id": "c22a36cb1b466d3bb4842bbf01bb10c5", "lon": -77.00608066666666, "rental_uris": {"ios": "https://dc.lft.to/lastmile_qr_scan", "android": "https://dc.lft.to/lastmile_qr_scan"}}, {"name": "011b78d9f03ce248c56a54cf990823b3", "fusion_lat": 0.0, "type": "electric_scooter", "lat": 38.9205095, "is_reserved": 0, "is_disabled": 0, "fusion_lon": 0.0, "bike_id": "011b78d9f03ce248c56a54cf990823b3", "lon": -77.02373533333333, "rental_uris": {"ios": "https://dc.lft.to/lastmile_qr_scan", "android": "https://dc.lft.to/lastmile_qr_scan"}}, {"name": "23c8ea6149b706bd0d098686f36c433f", "fusion_lat": 0.0, "type": "electric_scooter", "lat": 38.914055166666664, "is_reserved": 0, "is_disabled": 0, "fusion_lon": 0.0, "bike_id": "23c8ea6149b706bd0d098686f36c433f", "lon": -77.02228116666667, "rental_uris": {"ios": "https://dc.lft.to/lastmile_qr_scan", "android": "https://dc.lft.to/lastmile_qr_scan"}}, {"name": "54abf9c568edeb02fced37ef85c2c35a", "fusion_lat": 0.0, "type": "electric_scooter", "lat": 38.862096666666666, "is_reserved": 0, "is_disabled": 0, "fusion_lon": 0.0, "bike_id": "54abf9c568edeb02fced37ef85c2c35a", "lon": -76.9947165, "rental_uris": {"ios": "https://dc.lft.to/lastmile_qr_scan", "android": "https://dc.lft.to/lastmile_qr_scan"}}, {"name": "21f1b2688922b9d2d5845a70daba7fe0", "fusion_lat": 0.0, "type": "electric_scooter", "lat": 38.9119605, "is_reserved": 0, "is_disabled": 0, "fusion_lon": 0.0, "bike_id": "21f1b2688922b9d2d5845a70daba7fe0", "lon": -77.0325935, "rental_uris": {"ios": "https://dc.lft.to/lastmile_qr_scan", "android": "https://dc.lft.to/lastmile_qr_scan"}}, {"name": "2a8e7e4ad4ec26d7b12f7c11eb7e8b42", "fusion_lat": 0.0, "type": "electric_scooter", "lat": 38.91924566666667, "is_reserved": 0, "is_disabled": 0, "fusion_lon": 0.0, "bike_id": "2a8e7e4ad4ec26d7b12f7c11eb7e8b42", "lon": -77.031051, "rental_uris": {"ios": "https://dc.lft.to/lastmile_qr_scan", "android": "https://dc.lft.to/lastmile_qr_scan"}}, {"name": "0a602a00d16afa446b0d2795352687e0", "fusion_lat": 0.0, "type": "electric_scooter", "lat": 38.9096065, "is_reserved": 0, "is_disabled": 0, "fusion_lon": 0.0, "bike_id": "0a602a00d16afa446b0d2795352687e0", "lon": -77.02681766666667, "rental_uris": {"ios": "https://dc.lft.to/lastmile_qr_scan", "android": "https://dc.lft.to/lastmile_qr_scan"}}, {"name": "da7ae91d47914c9474b0431a34d8cbd5", "fusion_lat": 0.0, "type": "electric_scooter", "lat": 38.9134445, "is_reserved": 0, "is_disabled": 0, "fusion_lon": 0.0, "bike_id": "da7ae91d47914c9474b0431a34d8cbd5", "lon": -77.04232316666666, "rental_uris": {"ios": "https://dc.lft.to/lastmile_qr_scan", "android": "https://dc.lft.to/lastmile_qr_scan"}}, {"name": "4c7a59987cbfdf71727e0fffb57c8894", "fusion_lat": 0.0, "type": "electric_scooter", "lat": 38.89544566666667, "is_reserved": 0, "is_disabled": 0, "fusion_lon": 0.0, "bike_id": "4c7a59987cbfdf71727e0fffb57c8894", "lon": -76.94882466666667, "rental_uris": {"ios": "https://dc.lft.to/lastmile_qr_scan", "android": "https://dc.lft.to/lastmile_qr_scan"}}, {"name": "0910d52bcbd5d7042ef7f3937439f420", "fusion_lat": 0.0, "type": "electric_scooter", "lat": 38.90733266666667, "is_reserved": 0, "is_disabled": 0, "fusion_lon": 0.0, "bike_id": "0910d52bcbd5d7042ef7f3937439f420", "lon": -77.03203516666666, "rental_uris": {"ios": "https://dc.lft.to/lastmile_qr_scan", "android": "https://dc.lft.to/lastmile_qr_scan"}}, {"name": "28a44ae9c75dd78859ab0fea2461bdc1", "fusion_lat": 0.0, "type": "electric_bike", "lat": 38.815085833333335, "is_reserved": 0, "is_disabled": 0, "fusion_lon": 0.0, "bike_id": "28a44ae9c75dd78859ab0fea2461bdc1", "lon": -77.126541, "rental_uris": {"ios": "https://dc.lft.to/lastmile_qr_scan", "android": "https://dc.lft.to/lastmile_qr_scan"}}, {"name": "02207b509ee5df77d3f107eb4b5a1b20", "fusion_lat": 0.0, "type": "electric_scooter", "lat": 38.92708016666667, "is_reserved": 0, "is_disabled": 0, "fusion_lon": 0.0, "bike_id": "02207b509ee5df77d3f107eb4b5a1b20", "lon": -77.03725516666667, "rental_uris": {"ios": "https://dc.lft.to/lastmile_qr_scan", "android": "https://dc.lft.to/lastmile_qr_scan"}}, {"name": "bd6319e02770af21c18d039ee339c4f4", "fusion_lat": 0.0, "type": "electric_scooter", "lat": 38.89908633333334, "is_reserved": 0, "is_disabled": 0, "fusion_lon": 0.0, "bike_id": "bd6319e02770af21c18d039ee339c4f4", "lon": -77.01511533333333, "rental_uris": {"ios": "https://dc.lft.to/lastmile_qr_scan", "android": "https://dc.lft.to/lastmile_qr_scan"}}, {"name": "ee550491dff6ec82149784e4097733ad", "fusion_lat": 0.0, "type": "electric_scooter", "lat": 38.9023185, "is_reserved": 0, "is_disabled": 0, "fusion_lon": 0.0, "bike_id": "ee550491dff6ec82149784e4097733ad", "lon": -77.05342133333333, "rental_uris": {"ios": "https://dc.lft.to/lastmile_qr_scan", "android": "https://dc.lft.to/lastmile_qr_scan"}}, {"name": "cc0bcf562624277c7fcf2131b418e624", "fusion_lat": 0.0, "type": "electric_scooter", "lat": 38.92913683333333, "is_reserved": 0, "is_disabled": 0, "fusion_lon": 0.0, "bike_id": "cc0bcf562624277c7fcf2131b418e624", "lon": -77.019569, "rental_uris": {"ios": "https://dc.lft.to/lastmile_qr_scan", "android": "https://dc.lft.to/lastmile_qr_scan"}}, {"name": "5c337b8d36a7c21e1456cd77dfbfb371", "fusion_lat": 0.0, "type": "electric_bike", "lat": 38.8544645, "is_reserved": 0, "is_disabled": 0, "fusion_lon": 0.0, "bike_id": "5c337b8d36a7c21e1456cd77dfbfb371", "lon": -77.11678416666666, "rental_uris": {"ios": "https://dc.lft.to/lastmile_qr_scan", "android": "https://dc.lft.to/lastmile_qr_scan"}}, {"name": "537f211a4892256b19361208cd27f8c1", "fusion_lat": 0.0, "type": "electric_bike", "lat": 38.85874183333333, "is_reserved": 0, "is_disabled": 0, "fusion_lon": 0.0, "bike_id": "537f211a4892256b19361208cd27f8c1", "lon": -77.09554566666667, "rental_uris": {"ios": "https://dc.lft.to/lastmile_qr_scan", "android": "https://dc.lft.to/lastmile_qr_scan"}}, {"name": "37db628004560241330c1cb415d5ef63", "fusion_lat": 0.0, "type": "electric_scooter", "lat": 38.892123833333336, "is_reserved": 0, "is_disabled": 0, "fusion_lon": 0.0, "bike_id": "37db628004560241330c1cb415d5ef63", "lon": -76.995658, "rental_uris": {"ios": "https://dc.lft.to/lastmile_qr_scan", "android": "https://dc.lft.to/lastmile_qr_scan"}}, {"name": "594b6d606a690f4db07cadde180a3b8c", "fusion_lat": 0.0, "type": "electric_scooter", "lat": 38.905699166666665, "is_reserved": 0, "is_disabled": 0, "fusion_lon": 0.0, "bike_id": "594b6d606a690f4db07cadde180a3b8c", "lon": -77.02215183333334, "rental_uris": {"ios": "https://dc.lft.to/lastmile_qr_scan", "android": "https://dc.lft.to/lastmile_qr_scan"}}, {"name": "5ecccbbc502c51dae2e897a3ccab5501", "fusion_lat": 0.0, "type": "electric_scooter", "lat": 38.91335466666666, "is_reserved": 0, "is_disabled": 0, "fusion_lon": 0.0, "bike_id": "5ecccbbc502c51dae2e897a3ccab5501", "lon": -77.04272433333334, "rental_uris": {"ios": "https://dc.lft.to/lastmile_qr_scan", "android": "https://dc.lft.to/lastmile_qr_scan"}}, {"name": "77d427a4cdca736daef70c272b0e41cb", "fusion_lat": 0.0, "type": "electric_scooter", "lat": 38.9234425, "is_reserved": 0, "is_disabled": 0, "fusion_lon": 0.0, "bike_id": "77d427a4cdca736daef70c272b0e41cb", "lon": -77.0509585, "rental_uris": {"ios": "https://dc.lft.to/lastmile_qr_scan", "android": "https://dc.lft.to/lastmile_qr_scan"}}, {"name": "5a2bce2c1c744bad43f12c3b2565e0fc", "fusion_lat": 0.0, "type": "electric_scooter", "lat": 38.9084305, "is_reserved": 0, "is_disabled": 0, "fusion_lon": 0.0, "bike_id": "5a2bce2c1c744bad43f12c3b2565e0fc", "lon": -77.03273583333333, "rental_uris": {"ios": "https://dc.lft.to/lastmile_qr_scan", "android": "https://dc.lft.to/lastmile_qr_scan"}}, {"name": "b78d70365a507f96ea2e9fc4fb769dc9", "fusion_lat": 0.0, "type": "electric_scooter", "lat": 38.895280166666666, "is_reserved": 0, "is_disabled": 0, "fusion_lon": 0.0, "bike_id": "b78d70365a507f96ea2e9fc4fb769dc9", "lon": -77.01610516666666, "rental_uris": {"ios": "https://dc.lft.to/lastmile_qr_scan", "android": "https://dc.lft.to/lastmile_qr_scan"}}, {"name": "38594a8acbeabb0e6d0c785137c4c216", "fusion_lat": 0.0, "type": "electric_scooter", "lat": 38.9065425, "is_reserved": 0, "is_disabled": 0, "fusion_lon": 0.0, "bike_id": "38594a8acbeabb0e6d0c785137c4c216", "lon": -77.005817, "rental_uris": {"ios": "https://dc.lft.to/lastmile_qr_scan", "android": "https://dc.lft.to/lastmile_qr_scan"}}, {"name": "eb68d9b47f2af833efdab633eadbfb5d", "fusion_lat": 0.0, "type": "electric_scooter", "lat": 38.903625, "is_reserved": 0, "is_disabled": 0, "fusion_lon": 0.0, "bike_id": "eb68d9b47f2af833efdab633eadbfb5d", "lon": -77.04198166666667, "rental_uris": {"ios": "https://dc.lft.to/lastmile_qr_scan", "android": "https://dc.lft.to/lastmile_qr_scan"}}, {"name": "9ca6b8617dd6392fde67e733eeb910b5", "fusion_lat": 0.0, "type": "electric_bike", "lat": 38.9463075, "is_reserved": 0, "is_disabled": 0, "fusion_lon": 0.0, "bike_id": "9ca6b8617dd6392fde67e733eeb910b5", "lon": -77.0184455, "rental_uris": {"ios": "https://dc.lft.to/lastmile_qr_scan", "android": "https://dc.lft.to/lastmile_qr_scan"}}, {"name": "62228d7ffdb83687f515dcad2f8f6c3c", "fusion_lat": 0.0, "type": "electric_scooter", "lat": 38.917008833333334, "is_reserved": 0, "is_disabled": 0, "fusion_lon": 0.0, "bike_id": "62228d7ffdb83687f515dcad2f8f6c3c", "lon": -77.02900116666666, "rental_uris": {"ios": "https://dc.lft.to/lastmile_qr_scan", "android": "https://dc.lft.to/lastmile_qr_scan"}}, {"name": "a18977bae76c14d88f3055f8229a69a0", "fusion_lat": 0.0, "type": "electric_scooter", "lat": 38.917156166666665, "is_reserved": 0, "is_disabled": 0, "fusion_lon": 0.0, "bike_id": "a18977bae76c14d88f3055f8229a69a0", "lon": -77.03560683333333, "rental_uris": {"ios": "https://dc.lft.to/lastmile_qr_scan", "android": "https://dc.lft.to/lastmile_qr_scan"}}, {"name": "eb921cb5bb43d2aa34358a38a268a9b1", "fusion_lat": 0.0, "type": "electric_bike", "lat": 38.93105883333333, "is_reserved": 0, "is_disabled": 0, "fusion_lon": 0.0, "bike_id": "eb921cb5bb43d2aa34358a38a268a9b1", "lon": -77.02473983333333, "rental_uris": {"ios": "https://dc.lft.to/lastmile_qr_scan", "android": "https://dc.lft.to/lastmile_qr_scan"}}, {"name": "d991a9dbd1af8f547bb037be6b5a6299", "fusion_lat": 0.0, "type": "electric_scooter", "lat": 38.93216133333333, "is_reserved": 0, "is_disabled": 0, "fusion_lon": 0.0, "bike_id": "d991a9dbd1af8f547bb037be6b5a6299", "lon": -77.03635466666667, "rental_uris": {"ios": "https://dc.lft.to/lastmile_qr_scan", "android": "https://dc.lft.to/lastmile_qr_scan"}}, {"name": "26776c2f00df0c5df64dd6f88f7ebe59", "fusion_lat": 0.0, "type": "electric_scooter", "lat": 38.9177415, "is_reserved": 0, "is_disabled": 0, "fusion_lon": 0.0, "bike_id": "26776c2f00df0c5df64dd6f88f7ebe59", "lon": -77.047506, "rental_uris": {"ios": "https://dc.lft.to/lastmile_qr_scan", "android": "https://dc.lft.to/lastmile_qr_scan"}}, {"name": "2dcf1117e55b4c16926a50ec4adb05e3", "fusion_lat": 0.0, "type": "electric_scooter", "lat": 38.89766016666667, "is_reserved": 0, "is_disabled": 0, "fusion_lon": 0.0, "bike_id": "2dcf1117e55b4c16926a50ec4adb05e3", "lon": -76.97722433333334, "rental_uris": {"ios": "https://dc.lft.to/lastmile_qr_scan", "android": "https://dc.lft.to/lastmile_qr_scan"}}, {"name": "c84b614dbca00ab04de000f3c37339d8", "fusion_lat": 0.0, "type": "electric_bike", "lat": 38.91759883333334, "is_reserved": 0, "is_disabled": 0, "fusion_lon": 0.0, "bike_id": "c84b614dbca00ab04de000f3c37339d8", "lon": -77.0160535, "rental_uris": {"ios": "https://dc.lft.to/lastmile_qr_scan", "android": "https://dc.lft.to/lastmile_qr_scan"}}, {"name": "e5444cd7d3251cf45465356f9876d15d", "fusion_lat": 0.0, "type": "electric_scooter", "lat": 38.94437666666666, "is_reserved": 0, "is_disabled": 0, "fusion_lon": 0.0, "bike_id": "e5444cd7d3251cf45465356f9876d15d", "lon": -77.0329095, "rental_uris": {"ios": "https://dc.lft.to/lastmile_qr_scan", "android": "https://dc.lft.to/lastmile_qr_scan"}}, {"name": "1f93bca5c6c38b57d4bfa4a48cd74de6", "fusion_lat": 0.0, "type": "electric_scooter", "lat": 38.937334166666666, "is_reserved": 0, "is_disabled": 0, "fusion_lon": 0.0, "bike_id": "1f93bca5c6c38b57d4bfa4a48cd74de6", "lon": -77.03262733333334, "rental_uris": {"ios": "https://dc.lft.to/lastmile_qr_scan", "android": "https://dc.lft.to/lastmile_qr_scan"}}, {"name": "7c89610901ea78a6d8725797215b8f21", "fusion_lat": 0.0, "type": "electric_scooter", "lat": 38.91566916666667, "is_reserved": 0, "is_disabled": 0, "fusion_lon": 0.0, "bike_id": "7c89610901ea78a6d8725797215b8f21", "lon": -77.01412283333333, "rental_uris": {"ios": "https://dc.lft.to/lastmile_qr_scan", "android": "https://dc.lft.to/lastmile_qr_scan"}}, {"name": "c8aea2a0a254e26a5d4f7a610426aa85", "fusion_lat": 0.0, "type": "electric_scooter", "lat": 38.9228425, "is_reserved": 0, "is_disabled": 0, "fusion_lon": 0.0, "bike_id": "c8aea2a0a254e26a5d4f7a610426aa85", "lon": -77.03663166666666, "rental_uris": {"ios": "https://dc.lft.to/lastmile_qr_scan", "android": "https://dc.lft.to/lastmile_qr_scan"}}, {"name": "e0148dc877290611ca966171a6c79cf7", "fusion_lat": 0.0, "type": "electric_scooter", "lat": 38.926891, "is_reserved": 0, "is_disabled": 0, "fusion_lon": 0.0, "bike_id": "e0148dc877290611ca966171a6c79cf7", "lon": -77.06645616666667, "rental_uris": {"ios": "https://dc.lft.to/lastmile_qr_scan", "android": "https://dc.lft.to/lastmile_qr_scan"}}, {"name": "5433663acaf34cca7ee66bcf1b9a52c2", "fusion_lat": 0.0, "type": "electric_scooter", "lat": 38.916582166666664, "is_reserved": 0, "is_disabled": 0, "fusion_lon": 0.0, "bike_id": "5433663acaf34cca7ee66bcf1b9a52c2", "lon": -77.0229245, "rental_uris": {"ios": "https://dc.lft.to/lastmile_qr_scan", "android": "https://dc.lft.to/lastmile_qr_scan"}}, {"name": "4c1c0cca8aa89349ae7ceff7b39e40b6", "fusion_lat": 0.0, "type": "electric_bike", "lat": 38.946054333333336, "is_reserved": 0, "is_disabled": 0, "fusion_lon": 0.0, "bike_id": "4c1c0cca8aa89349ae7ceff7b39e40b6", "lon": -77.0298085, "rental_uris": {"ios": "https://dc.lft.to/lastmile_qr_scan", "android": "https://dc.lft.to/lastmile_qr_scan"}}, {"name": "e9bdc23560203f5a31c2cef747f00ce6", "fusion_lat": 0.0, "type": "electric_scooter", "lat": 38.909568166666666, "is_reserved": 0, "is_disabled": 0, "fusion_lon": 0.0, "bike_id": "e9bdc23560203f5a31c2cef747f00ce6", "lon": -77.01136633333333, "rental_uris": {"ios": "https://dc.lft.to/lastmile_qr_scan", "android": "https://dc.lft.to/lastmile_qr_scan"}}, {"name": "d2f6f3089a09f7f8ecaacf9dd2a28635", "fusion_lat": 0.0, "type": "electric_scooter", "lat": 38.9103035, "is_reserved": 0, "is_disabled": 0, "fusion_lon": 0.0, "bike_id": "d2f6f3089a09f7f8ecaacf9dd2a28635", "lon": -77.02389516666666, "rental_uris": {"ios": "https://dc.lft.to/lastmile_qr_scan", "android": "https://dc.lft.to/lastmile_qr_scan"}}, {"name": "a59ad6c1e3ca02c88268984f177532c7", "fusion_lat": 0.0, "type": "electric_bike", "lat": 38.85374216666666, "is_reserved": 0, "is_disabled": 0, "fusion_lon": 0.0, "bike_id": "a59ad6c1e3ca02c88268984f177532c7", "lon": -77.11814033333333, "rental_uris": {"ios": "https://dc.lft.to/lastmile_qr_scan", "android": "https://dc.lft.to/lastmile_qr_scan"}}, {"name": "8ea3cc8472a09e4561f99b52d2f71fc4", "fusion_lat": 0.0, "type": "electric_scooter", "lat": 38.914848166666665, "is_reserved": 0, "is_disabled": 0, "fusion_lon": 0.0, "bike_id": "8ea3cc8472a09e4561f99b52d2f71fc4", "lon": -77.02179566666666, "rental_uris": {"ios": "https://dc.lft.to/lastmile_qr_scan", "android": "https://dc.lft.to/lastmile_qr_scan"}}, {"name": "01ebaa54d452956b4a2da0a3bc324054", "fusion_lat": 0.0, "type": "electric_scooter", "lat": 38.9172085, "is_reserved": 0, "is_disabled": 0, "fusion_lon": 0.0, "bike_id": "01ebaa54d452956b4a2da0a3bc324054", "lon": -77.03667083333333, "rental_uris": {"ios": "https://dc.lft.to/lastmile_qr_scan", "android": "https://dc.lft.to/lastmile_qr_scan"}}, {"name": "87cbb9b7d2a80dabd4e5c04a43a0fa15", "fusion_lat": 0.0, "type": "electric_scooter", "lat": 38.91678116666667, "is_reserved": 0, "is_disabled": 0, "fusion_lon": 0.0, "bike_id": "87cbb9b7d2a80dabd4e5c04a43a0fa15", "lon": -77.0318315, "rental_uris": {"ios": "https://dc.lft.to/lastmile_qr_scan", "android": "https://dc.lft.to/lastmile_qr_scan"}}, {"name": "1a00aaeb3f4281b420ee81c491ba32e2", "fusion_lat": 0.0, "type": "electric_scooter", "lat": 38.924864, "is_reserved": 0, "is_disabled": 0, "fusion_lon": 0.0, "bike_id": "1a00aaeb3f4281b420ee81c491ba32e2", "lon": -77.0270995, "rental_uris": {"ios": "https://dc.lft.to/lastmile_qr_scan", "android": "https://dc.lft.to/lastmile_qr_scan"}}, {"name": "d85599af41ce109fbcddef3f4e372874", "fusion_lat": 0.0, "type": "electric_scooter", "lat": 38.914147166666666, "is_reserved": 0, "is_disabled": 0, "fusion_lon": 0.0, "bike_id": "d85599af41ce109fbcddef3f4e372874", "lon": -77.02797933333333, "rental_uris": {"ios": "https://dc.lft.to/lastmile_qr_scan", "android": "https://dc.lft.to/lastmile_qr_scan"}}, {"name": "a2c8306eb7fc84ec63ac75078ff0b109", "fusion_lat": 0.0, "type": "electric_scooter", "lat": 38.9162615, "is_reserved": 0, "is_disabled": 0, "fusion_lon": 0.0, "bike_id": "a2c8306eb7fc84ec63ac75078ff0b109", "lon": -77.0359275, "rental_uris": {"ios": "https://dc.lft.to/lastmile_qr_scan", "android": "https://dc.lft.to/lastmile_qr_scan"}}, {"name": "cc8f9a5c1f17813bf604415d385390b5", "fusion_lat": 0.0, "type": "electric_scooter", "lat": 38.88219133333333, "is_reserved": 0, "is_disabled": 0, "fusion_lon": 0.0, "bike_id": "cc8f9a5c1f17813bf604415d385390b5", "lon": -76.94180316666667, "rental_uris": {"ios": "https://dc.lft.to/lastmile_qr_scan", "android": "https://dc.lft.to/lastmile_qr_scan"}}, {"name": "655c33b0929aef32cbe90bb7db82a3f2", "fusion_lat": 0.0, "type": "electric_scooter", "lat": 38.92075916666667, "is_reserved": 0, "is_disabled": 0, "fusion_lon": 0.0, "bike_id": "655c33b0929aef32cbe90bb7db82a3f2", "lon": -77.0239035, "rental_uris": {"ios": "https://dc.lft.to/lastmile_qr_scan", "android": "https://dc.lft.to/lastmile_qr_scan"}}, {"name": "ea01d286e4baf8026e52f54e3f30f154", "fusion_lat": 0.0, "type": "electric_scooter", "lat": 38.9326515, "is_reserved": 0, "is_disabled": 0, "fusion_lon": 0.0, "bike_id": "ea01d286e4baf8026e52f54e3f30f154", "lon": -77.03263166666666, "rental_uris": {"ios": "https://dc.lft.to/lastmile_qr_scan", "android": "https://dc.lft.to/lastmile_qr_scan"}}, {"name": "b2b81ce80d45d8f40f25c230a3bf93b7", "fusion_lat": 0.0, "type": "electric_scooter", "lat": 38.91123616666667, "is_reserved": 0, "is_disabled": 0, "fusion_lon": 0.0, "bike_id": "b2b81ce80d45d8f40f25c230a3bf93b7", "lon": -77.03186066666666, "rental_uris": {"ios": "https://dc.lft.to/lastmile_qr_scan", "android": "https://dc.lft.to/lastmile_qr_scan"}}, {"name": "f65367e7e4bf63361d1225751d2c74ff", "fusion_lat": 0.0, "type": "electric_scooter", "lat": 38.908643833333336, "is_reserved": 0, "is_disabled": 0, "fusion_lon": 0.0, "bike_id": "f65367e7e4bf63361d1225751d2c74ff", "lon": -77.03473533333333, "rental_uris": {"ios": "https://dc.lft.to/lastmile_qr_scan", "android": "https://dc.lft.to/lastmile_qr_scan"}}, {"name": "409ac95538afd05d918cb482b398db97", "fusion_lat": 0.0, "type": "electric_scooter", "lat": 38.9033445, "is_reserved": 0, "is_disabled": 0, "fusion_lon": 0.0, "bike_id": "409ac95538afd05d918cb482b398db97", "lon": -76.9896855, "rental_uris": {"ios": "https://dc.lft.to/lastmile_qr_scan", "android": "https://dc.lft.to/lastmile_qr_scan"}}, {"name": "99038ad8fd64500b516b511c8dbb625c", "fusion_lat": 0.0, "type": "electric_scooter", "lat": 38.91246133333333, "is_reserved": 0, "is_disabled": 0, "fusion_lon": 0.0, "bike_id": "99038ad8fd64500b516b511c8dbb625c", "lon": -77.04772, "rental_uris": {"ios": "https://dc.lft.to/lastmile_qr_scan", "android": "https://dc.lft.to/lastmile_qr_scan"}}, {"name": "3daa3672392edcd32e2b9df0cbbe8a65", "fusion_lat": 0.0, "type": "electric_scooter", "lat": 38.881478333333334, "is_reserved": 0, "is_disabled": 0, "fusion_lon": 0.0, "bike_id": "3daa3672392edcd32e2b9df0cbbe8a65", "lon": -77.01286183333333, "rental_uris": {"ios": "https://dc.lft.to/lastmile_qr_scan", "android": "https://dc.lft.to/lastmile_qr_scan"}}, {"name": "563781fbc80b3b934d1f59a2027f5534", "fusion_lat": 0.0, "type": "electric_scooter", "lat": 38.9293, "is_reserved": 0, "is_disabled": 0, "fusion_lon": 0.0, "bike_id": "563781fbc80b3b934d1f59a2027f5534", "lon": -77.02339633333334, "rental_uris": {"ios": "https://dc.lft.to/lastmile_qr_scan", "android": "https://dc.lft.to/lastmile_qr_scan"}}, {"name": "32cd4da30d49941876fed0789a58cd3e", "fusion_lat": 0.0, "type": "electric_scooter", "lat": 38.92467633333333, "is_reserved": 0, "is_disabled": 0, "fusion_lon": 0.0, "bike_id": "32cd4da30d49941876fed0789a58cd3e", "lon": -77.03055333333333, "rental_uris": {"ios": "https://dc.lft.to/lastmile_qr_scan", "android": "https://dc.lft.to/lastmile_qr_scan"}}, {"name": "6dcf634f084d2e0aac1fb22ebed795c6", "fusion_lat": 0.0, "type": "electric_scooter", "lat": 38.9161175, "is_reserved": 0, "is_disabled": 0, "fusion_lon": 0.0, "bike_id": "6dcf634f084d2e0aac1fb22ebed795c6", "lon": -77.02314783333334, "rental_uris": {"ios": "https://dc.lft.to/lastmile_qr_scan", "android": "https://dc.lft.to/lastmile_qr_scan"}}, {"name": "da47e011f24545adb574a631eda45eaa", "fusion_lat": 0.0, "type": "electric_scooter", "lat": 38.91699216666667, "is_reserved": 0, "is_disabled": 0, "fusion_lon": 0.0, "bike_id": "da47e011f24545adb574a631eda45eaa", "lon": -77.04267483333334, "rental_uris": {"ios": "https://dc.lft.to/lastmile_qr_scan", "android": "https://dc.lft.to/lastmile_qr_scan"}}, {"name": "55600e4ed715a4042d0362a184c9fda5", "fusion_lat": 0.0, "type": "electric_scooter", "lat": 38.92319666666667, "is_reserved": 0, "is_disabled": 0, "fusion_lon": 0.0, "bike_id": "55600e4ed715a4042d0362a184c9fda5", "lon": -77.04517883333334, "rental_uris": {"ios": "https://dc.lft.to/lastmile_qr_scan", "android": "https://dc.lft.to/lastmile_qr_scan"}}, {"name": "8e506875143e6de0063c3621c8a735d6", "fusion_lat": 0.0, "type": "electric_scooter", "lat": 38.9206955, "is_reserved": 0, "is_disabled": 0, "fusion_lon": 0.0, "bike_id": "8e506875143e6de0063c3621c8a735d6", "lon": -77.04380016666667, "rental_uris": {"ios": "https://dc.lft.to/lastmile_qr_scan", "android": "https://dc.lft.to/lastmile_qr_scan"}}, {"name": "c8585614a116f2fa7a9bcd324208a4a3", "fusion_lat": 0.0, "type": "electric_scooter", "lat": 38.96111633333334, "is_reserved": 0, "is_disabled": 0, "fusion_lon": 0.0, "bike_id": "c8585614a116f2fa7a9bcd324208a4a3", "lon": -77.02817766666666, "rental_uris": {"ios": "https://dc.lft.to/lastmile_qr_scan", "android": "https://dc.lft.to/lastmile_qr_scan"}}, {"name": "060eb826bb3c4e30fb3e360f92190516", "fusion_lat": 0.0, "type": "electric_scooter", "lat": 38.91702, "is_reserved": 0, "is_disabled": 0, "fusion_lon": 0.0, "bike_id": "060eb826bb3c4e30fb3e360f92190516", "lon": -77.02850916666667, "rental_uris": {"ios": "https://dc.lft.to/lastmile_qr_scan", "android": "https://dc.lft.to/lastmile_qr_scan"}}, {"name": "ee63a826375105ef85603acc646f658d", "fusion_lat": 0.0, "type": "electric_scooter", "lat": 38.902395166666665, "is_reserved": 0, "is_disabled": 0, "fusion_lon": 0.0, "bike_id": "ee63a826375105ef85603acc646f658d", "lon": -77.01762533333333, "rental_uris": {"ios": "https://dc.lft.to/lastmile_qr_scan", "android": "https://dc.lft.to/lastmile_qr_scan"}}, {"name": "c73e952e70b2fd7e1a2e26d001934766", "fusion_lat": 0.0, "type": "electric_scooter", "lat": 38.91191533333333, "is_reserved": 0, "is_disabled": 0, "fusion_lon": 0.0, "bike_id": "c73e952e70b2fd7e1a2e26d001934766", "lon": -76.99621866666666, "rental_uris": {"ios": "https://dc.lft.to/lastmile_qr_scan", "android": "https://dc.lft.to/lastmile_qr_scan"}}, {"name": "a998337e16848457eaa32d434c5af5cf", "fusion_lat": 0.0, "type": "electric_scooter", "lat": 38.898338333333335, "is_reserved": 0, "is_disabled": 0, "fusion_lon": 0.0, "bike_id": "a998337e16848457eaa32d434c5af5cf", "lon": -76.94642766666666, "rental_uris": {"ios": "https://dc.lft.to/lastmile_qr_scan", "android": "https://dc.lft.to/lastmile_qr_scan"}}, {"name": "32c657c99dd90ec62ae63d7fd4571d4c", "fusion_lat": 0.0, "type": "electric_scooter", "lat": 38.95870083333333, "is_reserved": 0, "is_disabled": 0, "fusion_lon": 0.0, "bike_id": "32c657c99dd90ec62ae63d7fd4571d4c", "lon": -77.02052666666667, "rental_uris": {"ios": "https://dc.lft.to/lastmile_qr_scan", "android": "https://dc.lft.to/lastmile_qr_scan"}}, {"name": "aa62355b34c077159764ef178bec0fc9", "fusion_lat": 0.0, "type": "electric_scooter", "lat": 38.929087833333334, "is_reserved": 0, "is_disabled": 0, "fusion_lon": 0.0, "bike_id": "aa62355b34c077159764ef178bec0fc9", "lon": -77.02616966666666, "rental_uris": {"ios": "https://dc.lft.to/lastmile_qr_scan", "android": "https://dc.lft.to/lastmile_qr_scan"}}, {"name": "a97b1dfb1d8a8de7b5750479b957a91c", "fusion_lat": 0.0, "type": "electric_bike", "lat": 38.85243716666667, "is_reserved": 0, "is_disabled": 0, "fusion_lon": 0.0, "bike_id": "a97b1dfb1d8a8de7b5750479b957a91c", "lon": -77.1142585, "rental_uris": {"ios": "https://dc.lft.to/lastmile_qr_scan", "android": "https://dc.lft.to/lastmile_qr_scan"}}, {"name": "3611710b25bc92531f0be43e110b737a", "fusion_lat": 0.0, "type": "electric_scooter", "lat": 38.90952516666667, "is_reserved": 0, "is_disabled": 0, "fusion_lon": 0.0, "bike_id": "3611710b25bc92531f0be43e110b737a", "lon": -77.04136, "rental_uris": {"ios": "https://dc.lft.to/lastmile_qr_scan", "android": "https://dc.lft.to/lastmile_qr_scan"}}, {"name": "05b0019cdf602e4d65141963bda98749", "fusion_lat": 0.0, "type": "electric_scooter", "lat": 38.84291666666667, "is_reserved": 0, "is_disabled": 0, "fusion_lon": 0.0, "bike_id": "05b0019cdf602e4d65141963bda98749", "lon": -76.999516, "rental_uris": {"ios": "https://dc.lft.to/lastmile_qr_scan", "android": "https://dc.lft.to/lastmile_qr_scan"}}, {"name": "e6a2aa4095e882ce0dca0035ef8ae2b9", "fusion_lat": 0.0, "type": "electric_scooter", "lat": 38.954026666666664, "is_reserved": 0, "is_disabled": 0, "fusion_lon": 0.0, "bike_id": "e6a2aa4095e882ce0dca0035ef8ae2b9", "lon": -77.027492, "rental_uris": {"ios": "https://dc.lft.to/lastmile_qr_scan", "android": "https://dc.lft.to/lastmile_qr_scan"}}, {"name": "aaf72518a6bb2406f7f60f5a510ba66c", "fusion_lat": 0.0, "type": "electric_scooter", "lat": 38.90286283333333, "is_reserved": 0, "is_disabled": 0, "fusion_lon": 0.0, "bike_id": "aaf72518a6bb2406f7f60f5a510ba66c", "lon": -77.03849983333333, "rental_uris": {"ios": "https://dc.lft.to/lastmile_qr_scan", "android": "https://dc.lft.to/lastmile_qr_scan"}}, {"name": "8aacc8cff14ec1be616fdc633e8b9e34", "fusion_lat": 0.0, "type": "electric_scooter", "lat": 38.91406416666667, "is_reserved": 0, "is_disabled": 0, "fusion_lon": 0.0, "bike_id": "8aacc8cff14ec1be616fdc633e8b9e34", "lon": -77.02723416666667, "rental_uris": {"ios": "https://dc.lft.to/lastmile_qr_scan", "android": "https://dc.lft.to/lastmile_qr_scan"}},