{"data": {"bikes": [{"bike_id": "0e597606e71d437a590a21b7fe86dc3e", "fusion_lon": 0.0, "lon": -77.02087183333333, "name": "0e597606e71d437a590a21b7fe86dc3e", "is_disabled": 0, "rental_uris": {"android": "https://dc.lft.to/lastmile_qr_scan", "ios": "https://dc.lft.to/lastmile_qr_scan"}, "type": "electric_scooter", "lat": 38.94112333333333, "is_reserved": 0, "fusion_lat": 0.0}, {"bike_id": "3bf72a2f1066f6b4e194b1fcb4528901", "fusion_lon": 0.0, "lon": -77.01841016666667, "name": "3bf72a2f1066f6b4e194b1fcb4528901", "is_disabled": 0, "rental_uris": {"android": "https://dc.lft.to/lastmile_qr_scan", "ios": "https://dc.lft.to/lastmile_qr_scan"}, "type": "electric_scooter", "lat": 38.90379266666667, "is_reserved": 0, "fusion_lat": 0.0}, {"bike_id": "a25d7629929b0f3b2e3a18fbdd691668", "fusion_lon": 0.0, "lon": -77.0232355, "name": "a25d7629929b0f3b2e3a18fbdd691668", "is_disabled": 0, "rental_uris": {"android": "https://dc.lft.to/lastmile_qr_scan", "ios": "https://dc.lft.to/lastmile_qr_scan"}, "type": "electric_scooter", "lat": 38.89732883333333, "is_reserved": 0, "fusion_lat": 0.0}, {"bike_id": "321c15be5b06dc36c212a44406282eae", "fusion_lon": 0.0, "lon": -77.01691083333333, "name": "321c15be5b06dc36c212a44406282eae", "is_disabled": 0, "rental_uris": {"android": "https://dc.lft.to/lastmile_qr_scan", "ios": "https://dc.lft.to/lastmile_qr_scan"}, "type": "electric_scooter", "lat": 38.906453666666664, "is_reserved": 0, "fusion_lat": 0.0}, {"bike_id": "ae499e661efe1d50b5e6ed3ae19df795", "fusion_lon": 0.0, "lon": -77.01773483333334, "name": "ae499e661efe1d50b5e6ed3ae19df795", "is_disabled": 0, "rental_uris": {"android": "https://dc.lft.to/lastmile_qr_scan", "ios": "https://dc.lft.to/lastmile_qr_scan"}, "type": "electric_bike", "lat": 38.982748666666666, "is_reserved": 0, "fusion_lat": 0.0}, {"bike_id": "775de965f3a605ddba64bf0027204cd8", "fusion_lon": 0.0, "lon": -77.050011, "name": "775de965f3a605ddba64bf0027204cd8", "is_disabled": 0, "rental_uris": {"android": "https://dc.lft.to/lastmile_qr_scan", "ios": "https://dc.lft.to/lastmile_qr_scan"}, "type": "electric_scooter", "lat": 38.892321, "is_reserved": 0, "fusion_lat": 0.0}, {"bike_id": "4315ca93c36cf0b9c238c7ab1ec81e6c", "fusion_lon": 0.0, "lon": -77.03249916666667, "name": "4315ca93c36cf0b9c238c7ab1ec81e6c", "is_disabled": 0, "rental_uris": {"android": "https://dc.lft.to/lastmile_qr_scan", "ios": "https://dc.lft.to/lastmile_qr_scan"}, "type": "electric_bike", "lat": 38.96284833333333, "is_reserved": 0, "fusion_lat": 0.0}, {"bike_id": "c57e60d8f01e328169fa35f09bcaedf5", "fusion_lon": 0.0, "lon": -77.03173966666667, "name": "c57e60d8f01e328169fa35f09bcaedf5", "is_disabled": 0, "rental_uris": {"android": "https://dc.lft.to/lastmile_qr_scan", "ios": "https://dc.lft.to/lastmile_qr_scan"}, "type": "electric_scooter", "lat": 38.914049, "is_reserved": 0, "fusion_lat": 0.0}, {"bike_id": "093418347dd6ce3feac5d55a6e259de3", "fusion_lon": 0.0, "lon": -77.0350135, "name": "093418347dd6ce3feac5d55a6e259de3", "is_disabled": 0, "rental_uris": {"android": "https://dc.lft.to/lastmile_qr_scan", "ios": "https://dc.lft.to/lastmile_qr_scan"}, "type": "electric_scooter", "lat": 38.963830333333334, "is_reserved": 0, "fusion_lat": 0.0}, {"bike_id": "5d12c5c0dda69134325e4d7d7dfe300b", "fusion_lon": 0.0, "lon": -77.02168833333333, "name": "5d12c5c0dda69134325e4d7d7dfe300b", "is_disabled": 0, "rental_uris": {"android": "https://dc.lft.to/lastmile_qr_scan", "ios": "https://dc.lft.to/lastmile_qr_scan"}, "type": "electric_scooter", "lat": 38.946997, "is_reserved": 0, "fusion_lat": 0.0}, {"bike_id": "4c1450e0b2f6297cd66545276acfc812", "fusion_lon": 0.0, "lon": -76.982204, "name": "4c1450e0b2f6297cd66545276acfc812", "is_disabled": 0, "rental_uris": {"android": "https://dc.lft.to/lastmile_qr_scan", "ios": "https://dc.lft.to/lastmile_qr_scan"}, "type": "electric_bike", "lat": 38.98510916666667, "is_reserved": 0, "fusion_lat": 0.0}, {"bike_id": "19a1ef17d7d6561f98ef127aeceba68d", "fusion_lon": 0.0, "lon": -76.97810083333333, "name": "19a1ef17d7d6561f98ef127aeceba68d", "is_disabled": 0, "rental_uris": {"android": "https://dc.lft.to/lastmile_qr_scan", "ios": "https://dc.lft.to/lastmile_qr_scan"}, "type": "electric_scooter", "lat": 38.89453433333333, "is_reserved": 0, "fusion_lat": 0.0}, {"bike_id": "d5ea77149cce2295a1852a509de0c12e", "fusion_lon": 0.0, "lon": -77.04099133333334, "name": "d5ea77149cce2295a1852a509de0c12e", "is_disabled": 0, "rental_uris": {"android": "https://dc.lft.to/lastmile_qr_scan", "ios": "https://dc.lft.to/lastmile_qr_scan"}, "type": "electric_scooter", "lat": 38.917750166666664, "is_reserved": 0, "fusion_lat": 0.0}, {"bike_id": "c86075444f14cd7892b060bbbea5cdaa", "fusion_lon": 0.0, "lon": -77.02934866666666, "name": "c86075444f14cd7892b060bbbea5cdaa", "is_disabled": 0, "rental_uris": {"android": "https://dc.lft.to/lastmile_qr_scan", "ios": "https://dc.lft.to/lastmile_qr_scan"}, "type": "electric_scooter", "lat": 38.905387833333336, "is_reserved": 0, "fusion_lat": 0.0}, {"bike_id": "d9fb8cd6f31c9b03c29baac6257f8ba2", "fusion_lon": 0.0, "lon": -76.9974825, "name": "d9fb8cd6f31c9b03c29baac6257f8ba2", "is_disabled": 0, "rental_uris": {"android": "https://dc.lft.to/lastmile_qr_scan", "ios": "https://dc.lft.to/lastmile_qr_scan"}, "type": "electric_scooter", "lat": 38.887710166666665, "is_reserved": 0, "fusion_lat": 0.0}, {"bike_id": "fafb22b27606da3201659b2e31e04c0b", "fusion_lon": 0.0, "lon": -76.94281716666667, "name": "fafb22b27606da3201659b2e31e04c0b", "is_disabled": 0, "rental_uris": {"android": "https://dc.lft.to/lastmile_qr_scan", "ios": "https://dc.lft.to/lastmile_qr_scan"}, "type": "electric_bike", "lat": 38.879652666666665, "is_reserved": 0, "fusion_lat": 0.0}, {"bike_id": "47adf74649f0bee83e680e7ee5c62315", "fusion_lon": 0.0, "lon": -77.06860466666667, "name": "47adf74649f0bee83e680e7ee5c62315", "is_disabled": 0, "rental_uris": {"android": "https://dc.lft.to/lastmile_qr_scan", "ios": "https://dc.lft.to/lastmile_qr_scan"}, "type": "electric_bike", "lat": 38.805769166666664, "is_reserved": 0, "fusion_lat": 0.0}, {"bike_id": "cd2907f3adab50700019e4d157919267", "fusion_lon": 0.0, "lon": -76.92435216666667, "name": "cd2907f3adab50700019e4d157919267", "is_disabled": 0, "rental_uris": {"android": "https://dc.lft.to/lastmile_qr_scan", "ios": "https://dc.lft.to/lastmile_qr_scan"}, "type": "electric_scooter", "lat": 38.90176133333333, "is_reserved": 0, "fusion_lat": 0.0}, {"bike_id": "ec9c0c1ea55b55bca8960dd68c9c6688", "fusion_lon": 0.0, "lon": -76.9984865, "name": "ec9c0c1ea55b55bca8960dd68c9c6688", "is_disabled": 0, "rental_uris": {"android": "https://dc.lft.to/lastmile_qr_scan", "ios": "https://dc.lft.to/lastmile_qr_scan"}, "type": "electric_scooter", "lat": 38.8875755, "is_reserved": 0, "fusion_lat": 0.0}, {"bike_id": "c03c7e2bfc97fe170e47a58222a3141a", "fusion_lon": 0.0, "lon": -77.05290966666666, "name": "c03c7e2bfc97fe170e47a58222a3141a", "is_disabled": 0, "rental_uris": {"android": "https://dc.lft.to/lastmile_qr_scan", "ios": "https://dc.lft.to/lastmile_qr_scan"}, "type": "electric_scooter", "lat": 38.927951666666665, "is_reserved": 0, "fusion_lat": 0.0}, {"bike_id": "6d603c7e316ecf8d9ac769db292fe3a3", "fusion_lon": 0.0, "lon": -77.03472883333333, "name": "6d603c7e316ecf8d9ac769db292fe3a3", "is_disabled": 0, "rental_uris": {"android": "https://dc.lft.to/lastmile_qr_scan", "ios": "https://dc.lft.to/lastmile_qr_scan"}, "type": "electric_scooter", "lat": 38.92258366666667, "is_reserved": 0, "fusion_lat": 0.0}, {"bike_id": "545c3b10be651a5ea9acfe3236c204c5", "fusion_lon": 0.0, "lon": -77.05521133333333, "name": "545c3b10be651a5ea9acfe3236c204c5", "is_disabled": 0, "rental_uris": {"android": "https://dc.lft.to/lastmile_qr_scan", "ios": "https://dc.lft.to/lastmile_qr_scan"}, "type": "electric_scooter", "lat": 38.909384, "is_reserved": 0, "fusion_lat": 0.0}, {"bike_id": "25112418e6ac2581fd941e1a7acf6621", "fusion_lon": 0.0, "lon": -77.04465166666667, "name": "25112418e6ac2581fd941e1a7acf6621", "is_disabled": 0, "rental_uris": {"android": "https://dc.lft.to/lastmile_qr_scan", "ios": "https://dc.lft.to/lastmile_qr_scan"}, "type": "electric_scooter", "lat": 38.91269483333333, "is_reserved": 0, "fusion_lat": 0.0}, {"bike_id": "cc8c5d5813da07df7bfd7750d5ede0e7", "fusion_lon": 0.0, "lon": -77.09964816666667, "name": "cc8c5d5813da07df7bfd7750d5ede0e7", "is_disabled": 0, "rental_uris": {"android": "https://dc.lft.to/lastmile_qr_scan", "ios": "https://dc.lft.to/lastmile_qr_scan"}, "type": "electric_bike", "lat": 38.85787833333333, "is_reserved": 0, "fusion_lat": 0.0}, {"bike_id": "ce18b2e0007e9135d39e151d3e7ff44b", "fusion_lon": 0.0, "lon": -77.02972883333334, "name": "ce18b2e0007e9135d39e151d3e7ff44b", "is_disabled": 0, "rental_uris": {"android": "https://dc.lft.to/lastmile_qr_scan", "ios": "https://dc.lft.to/lastmile_qr_scan"}, "type": "electric_scooter", "lat": 38.91596633333333, "is_reserved": 0, "fusion_lat": 0.0}, {"bike_id": "87e26a17164281b8e24da022f7337c5e", "fusion_lon": 0.0, "lon": -77.00200966666667, "name": "87e26a17164281b8e24da022f7337c5e", "is_disabled": 0, "rental_uris": {"android": "https://dc.lft.to/lastmile_qr_scan", "ios": "https://dc.lft.to/lastmile_qr_scan"}, "type": "electric_scooter", "lat": 38.900371166666666, "is_reserved": 0, "fusion_lat": 0.0}, {"bike_id": "e00e371315d91c49737b2437839c7b9e", "fusion_lon": 0.0, "lon": -77.03401016666666, "name": "e00e371315d91c49737b2437839c7b9e", "is_disabled": 0, "rental_uris": {"android": "https://dc.lft.to/lastmile_qr_scan", "ios": "https://dc.lft.to/lastmile_qr_scan"}, "type": "electric_scooter", "lat": 38.9070755, "is_reserved": 0, "fusion_lat": 0.0}, {"bike_id": "7b6ffc7550cedef0648e0f1aaf093ebd", "fusion_lon": 0.0, "lon": -76.97265733333333, "name": "7b6ffc7550cedef0648e0f1aaf093ebd", "is_disabled": 0, "rental_uris": {"android": "https://dc.lft.to/lastmile_qr_scan", "ios": "https://dc.lft.to/lastmile_qr_scan"}, "type": "electric_bike", "lat": 38.91965866666666, "is_reserved": 0, "fusion_lat": 0.0}, {"bike_id": "0f57814543b8c83f1521e3ed2be88335", "fusion_lon": 0.0, "lon": -77.0465105, "name": "0f57814543b8c83f1521e3ed2be88335", "is_disabled": 0, "rental_uris": {"android": "https://dc.lft.to/lastmile_qr_scan", "ios": "https://dc.lft.to/lastmile_qr_scan"}, "type": "electric_bike", "lat": 39.05507383333333, "is_reserved": 0, "fusion_lat": 0.0}, {"bike_id": "1ee2f708b4571166b443d80259689796", "fusion_lon": 0.0, "lon": -77.036851, "name": "1ee2f708b4571166b443d80259689796", "is_disabled": 0, "rental_uris": {"android": "https://dc.lft.to/lastmile_qr_scan", "ios": "https://dc.lft.to/lastmile_qr_scan"}, "type": "electric_bike", "lat": 38.939568666666666, "is_reserved": 0, "fusion_lat": 0.0}, {"bike_id": "e258098e9cd0bea0a2f98d2a9748abda", "fusion_lon": 0.0, "lon": -76.93732766666666, "name": "e258098e9cd0bea0a2f98d2a9748abda", "is_disabled": 0, "rental_uris": {"android": "https://dc.lft.to/lastmile_qr_scan", "ios": "https://dc.lft.to/lastmile_qr_scan"}, "type": "electric_scooter", "lat": 38.89019666666667, "is_reserved": 0, "fusion_lat": 0.0}, {"bike_id": "9753151d624de2c35fbe23da7717c417", "fusion_lon": 0.0, "lon": -77.04774883333333, "name": "9753151d624de2c35fbe23da7717c417", "is_disabled": 0, "rental_uris": {"android": "https://dc.lft.to/lastmile_qr_scan", "ios": "https://dc.lft.to/lastmile_qr_scan"}, "type": "electric_scooter", "lat": 38.907118, "is_reserved": 0, "fusion_lat": 0.0}, {"bike_id": "2be0c10a4f037093a6b3330cf66aa1e9", "fusion_lon": 0.0, "lon": -77.04144083333334, "name": "2be0c10a4f037093a6b3330cf66aa1e9", "is_disabled": 0, "rental_uris": {"android": "https://dc.lft.to/lastmile_qr_scan", "ios": "https://dc.lft.to/lastmile_qr_scan"}, "type": "electric_scooter", "lat": 38.9229925, "is_reserved": 0, "fusion_lat": 0.0}, {"bike_id": "c3ba71f7ba9652527d97e68207a1fce9", "fusion_lon": 0.0, "lon": -77.012842, "name": "c3ba71f7ba9652527d97e68207a1fce9", "is_disabled": 0, "rental_uris": {"android": "https://dc.lft.to/lastmile_qr_scan", "ios": "https://dc.lft.to/lastmile_qr_scan"}, "type": "electric_bike", "lat": 39.00389366666667, "is_reserved": 0, "fusion_lat": 0.0}, {"bike_id": "b50bf9c8b1b83ef20ef3c6cfc7437261", "fusion_lon": 0.0, "lon": -77.02157366666667, "name": "b50bf9c8b1b83ef20ef3c6cfc7437261", "is_disabled": 0, "rental_uris": {"android": "https://dc.lft.to/lastmile_qr_scan", "ios": "https://dc.lft.to/lastmile_qr_scan"}, "type": "electric_scooter", "lat": 38.92496116666667, "is_reserved": 0, "fusion_lat": 0.0}, {"bike_id": "dbf8e0615d450c0df95bcd378513be55", "fusion_lon": 0.0, "lon": -77.05873366666667, "name": "dbf8e0615d450c0df95bcd378513be55", "is_disabled": 0, "rental_uris": {"android": "https://dc.lft.to/lastmile_qr_scan", "ios": "https://dc.lft.to/lastmile_qr_scan"}, "type": "electric_bike", "lat": 38.95893933333333, "is_reserved": 0, "fusion_lat": 0.0}, {"bike_id": "bb44fa933df48901d09af519fc53ff35", "fusion_lon": 0.0, "lon": -77.2164835, "name": "bb44fa933df48901d09af519fc53ff35", "is_disabled": 0, "rental_uris": {"android": "https://dc.lft.to/lastmile_qr_scan", "ios": "https://dc.lft.to/lastmile_qr_scan"}, "type": "electric_bike", "lat": 38.9301565, "is_reserved": 0, "fusion_lat": 0.0}, {"bike_id": "66eba409de1be2f3d05905d1f68695ac", "fusion_lon": 0.0, "lon": -77.02865133333333, "name": "66eba409de1be2f3d05905d1f68695ac", "is_disabled": 0, "rental_uris": {"android": "https://dc.lft.to/lastmile_qr_scan", "ios": "https://dc.lft.to/lastmile_qr_scan"}, "type": "electric_bike", "lat": 38.998405166666664, "is_reserved": 0, "fusion_lat": 0.0}, {"bike_id": "a36da19f2fe0e84c11e48556c171edd4", "fusion_lon": 0.0, "lon": -77.0336385, "name": "a36da19f2fe0e84c11e48556c171edd4", "is_disabled": 0, "rental_uris": {"android": "https://dc.lft.to/lastmile_qr_scan", "ios": "https://dc.lft.to/lastmile_qr_scan"}, "type": "electric_scooter", "lat": 38.92150683333333, "is_reserved": 0, "fusion_lat": 0.0}, {"bike_id": "b293a59b642eaca3a6671d5ef8527296", "fusion_lon": 0.0, "lon": -77.01697583333333, "name": "b293a59b642eaca3a6671d5ef8527296", "is_disabled": 0, "rental_uris": {"android": "https://dc.lft.to/lastmile_qr_scan", "ios": "https://dc.lft.to/lastmile_qr_scan"}, "type": "electric_scooter", "lat": 38.911767166666664, "is_reserved": 0, "fusion_lat": 0.0}, {"bike_id": "3131cf8b5b629fee1a5f8c5a637edde0", "fusion_lon": 0.0, "lon": -77.0238115, "name": "3131cf8b5b629fee1a5f8c5a637edde0", "is_disabled": 0, "rental_uris": {"android": "https://dc.lft.to/lastmile_qr_scan", "ios": "https://dc.lft.to/lastmile_qr_scan"}, "type": "electric_scooter", "lat": 38.902014333333334, "is_reserved": 0, "fusion_lat": 0.0}, {"bike_id": "266b787bbf816cc0c22660d20a9fce01", "fusion_lon": 0.0, "lon": -76.992701, "name": "266b787bbf816cc0c22660d20a9fce01", "is_disabled": 0, "rental_uris": {"android": "https://dc.lft.to/lastmile_qr_scan", "ios": "https://dc.lft.to/lastmile_qr_scan"}, "type": "electric_scooter", "lat": 38.91955433333333, "is_reserved": 0, "fusion_lat": 0.0}, {"bike_id": "9aae3c5474fbcd4516cc0855794cc9b9", "fusion_lon": 0.0, "lon": -77.00724783333334, "name": "9aae3c5474fbcd4516cc0855794cc9b9", "is_disabled": 0, "rental_uris": {"android": "https://dc.lft.to/lastmile_qr_scan", "ios": "https://dc.lft.to/lastmile_qr_scan"}, "type": "electric_scooter", "lat": 38.877125666666664, "is_reserved": 0, "fusion_lat": 0.0}, {"bike_id": "5cb949e6a4eaa92bfd08c24c04c50c7e", "fusion_lon": 0.0, "lon": -77.02293566666667, "name": "5cb949e6a4eaa92bfd08c24c04c50c7e", "is_disabled": 0, "rental_uris": {"android": "https://dc.lft.to/lastmile_qr_scan", "ios": "https://dc.lft.to/lastmile_qr_scan"}, "type": "electric_scooter", "lat": 38.895824833333336, "is_reserved": 0, "fusion_lat": 0.0}, {"bike_id": "4686d0bd55a8439a5e6b277e41eefadb", "fusion_lon": 0.0, "lon": -77.09484333333333, "name": "4686d0bd55a8439a5e6b277e41eefadb", "is_disabled": 0, "rental_uris": {"android": "https://dc.lft.to/lastmile_qr_scan", "ios": "https://dc.lft.to/lastmile_qr_scan"}, "type": "electric_bike", "lat": 39.03051683333333, "is_reserved": 0, "fusion_lat": 0.0}, {"bike_id": "bd64898c4e0750443452e33254ad9370", "fusion_lon": 0.0, "lon": -77.063454, "name": "bd64898c4e0750443452e33254ad9370", "is_disabled": 0, "rental_uris": {"android": "https://dc.lft.to/lastmile_qr_scan", "ios": "https://dc.lft.to/lastmile_qr_scan"}, "type": "electric_scooter", "lat": 38.90686383333333, "is_reserved": 0, "fusion_lat": 0.0}, {"bike_id": "d8387ce5cf0c81da27b4f0149c3d1e47", "fusion_lon": 0.0, "lon": -77.032061, "name": "d8387ce5cf0c81da27b4f0149c3d1e47", "is_disabled": 0, "rental_uris": {"android": "https://dc.lft.to/lastmile_qr_scan", "ios": "https://dc.lft.to/lastmile_qr_scan"}, "type": "electric_scooter", "lat": 38.9147795, "is_reserved": 0, "fusion_lat": 0.0}, {"bike_id": "7e8cdca396e8588628f714c8d14358b6", "fusion_lon": 0.0, "lon": -77.04885066666667, "name": "7e8cdca396e8588628f714c8d14358b6", "is_disabled": 0, "rental_uris": {"android": "https://dc.lft.to/lastmile_qr_scan", "ios": "https://dc.lft.to/lastmile_qr_scan"}, "type": "electric_scooter", "lat": 38.91343166666667, "is_reserved": 0, "fusion_lat": 0.0}, {"bike_id": "6447c8d5ad0e6dcddfe2ac63ea7accc4", "fusion_lon": 0.0, "lon": -77.030416, "name": "6447c8d5ad0e6dcddfe2ac63ea7accc4", "is_disabled": 0, "rental_uris": {"android": "https://dc.lft.to/lastmile_qr_scan", "ios": "https://dc.lft.to/lastmile_qr_scan"}, "type": "electric_scooter", "lat": 38.884491833333335, "is_reserved": 0, "fusion_lat": 0.0}, {"bike_id": "3f26b4905eea891a4ecdec9d4b9ec8e0", "fusion_lon": 0.0, "lon": -77.02329933333333, "name": "3f26b4905eea891a4ecdec9d4b9ec8e0", "is_disabled": 0, "rental_uris": {"android": "https://dc.lft.to/lastmile_qr_scan", "ios": "https://dc.lft.to/lastmile_qr_scan"}, "type": "electric_scooter", "lat": 38.924788166666666, "is_reserved": 0, "fusion_lat": 0.0}, {"bike_id": "30ce66647c123775eb34b58488a3eba4", "fusion_lon": 0.0, "lon": -77.02084066666667, "name": "30ce66647c123775eb34b58488a3eba4", "is_disabled": 0, "rental_uris": {"android": "https://dc.lft.to/lastmile_qr_scan", "ios": "https://dc.lft.to/lastmile_qr_scan"}, "type": "electric_scooter", "lat": 38.875739, "is_reserved": 0, "fusion_lat": 0.0}, {"bike_id": "d86ef8f99da440980804dfba515d1124", "fusion_lon": 0.0, "lon": -77.02947116666667, "name": "d86ef8f99da440980804dfba515d1124", "is_disabled": 0, "rental_uris": {"android": "https://dc.lft.to/lastmile_qr_scan", "ios": "https://dc.lft.to/lastmile_qr_scan"}, "type": "electric_scooter", "lat": 38.905033, "is_reserved": 0, "fusion_lat": 0.0}, {"bike_id": "5b22122e3fd33dffa7631f88b08ed58d", "fusion_lon": 0.0, "lon": -76.97332466666667, "name": "5b22122e3fd33dffa7631f88b08ed58d", "is_disabled": 0, "rental_uris": {"android": "https://dc.lft.to/lastmile_qr_scan", "ios": "https://dc.lft.to/lastmile_qr_scan"}, "type": "electric_scooter", "lat": 38.90409366666667, "is_reserved": 0, "fusion_lat": 0.0}, {"bike_id": "0f8d901d2ff9d1daa3c441108ea6d478", "fusion_lon": 0.0, "lon": -77.0337295, "name": "0f8d901d2ff9d1daa3c441108ea6d478", "is_disabled": 0, "rental_uris": {"android": "https://dc.lft.to/lastmile_qr_scan", "ios": "https://dc.lft.to/lastmile_qr_scan"}, "type": "electric_scooter", "lat": 38.913535, "is_reserved": 0, "fusion_lat": 0.0}, {"bike_id": "e809b4e7fa7ef6c4b7369541a5da126e", "fusion_lon": 0.0, "lon": -76.98942566666666, "name": "e809b4e7fa7ef6c4b7369541a5da126e", "is_disabled": 0, "rental_uris": {"android": "https://dc.lft.to/lastmile_qr_scan", "ios": "https://dc.lft.to/lastmile_qr_scan"}, "type": "electric_scooter", "lat": 38.9039645, "is_reserved": 0, "fusion_lat": 0.0}, {"bike_id": "675cf7f1ffeb995c1a4ba82c569af3e9", "fusion_lon": 0.0, "lon": -77.037784, "name": "675cf7f1ffeb995c1a4ba82c569af3e9", "is_disabled": 0, "rental_uris": {"android": "https://dc.lft.to/lastmile_qr_scan", "ios": "https://dc.lft.to/lastmile_qr_scan"}, "type": "electric_scooter", "lat": 38.906875166666666, "is_reserved": 0, "fusion_lat": 0.0}, {"bike_id": "6179b410c3f0feb37c0cb20056267558", "fusion_lon": 0.0, "lon": -77.04878483333333, "name": "6179b410c3f0feb37c0cb20056267558", "is_disabled": 0, "rental_uris": {"android": "https://dc.lft.to/lastmile_qr_scan", "ios": "https://dc.lft.to/lastmile_qr_scan"}, "type": "electric_scooter", "lat": 38.91564566666667, "is_reserved": 0, "fusion_lat": 0.0}, {"bike_id": "cbb521ce587a9cca03d45fe8d7dc0ab8", "fusion_lon": 0.0, "lon": -76.987231, "name": "cbb521ce587a9cca03d45fe8d7dc0ab8", "is_disabled": 0, "rental_uris": {"android": "https://dc.lft.to/lastmile_qr_scan", "ios": "https://dc.lft.to/lastmile_qr_scan"}, "type": "electric_scooter", "lat": 38.86635783333333, "is_reserved": 0, "fusion_lat": 0.0}, {"bike_id": "b3116ee71134a0c14f81164ea18004c8", "fusion_lon": 0.0, "lon": -77.0463975, "name": "b3116ee71134a0c14f81164ea18004c8", "is_disabled": 0, "rental_uris": {"android": "https://dc.lft.to/lastmile_qr_scan", "ios": "https://dc.lft.to/lastmile_qr_scan"}, "type": "electric_scooter", "lat": 38.89529016666667, "is_reserved": 0, "fusion_lat": 0.0}, {"bike_id": "a707d696d87e577ce7b3ed18febab316", "fusion_lon": 0.0, "lon": -77.03307183333334, "name": "a707d696d87e577ce7b3ed18febab316", "is_disabled": 0, "rental_uris": {"android": "https://dc.lft.to/lastmile_qr_scan", "ios": "https://dc.lft.to/lastmile_qr_scan"}, "type": "electric_scooter", "lat": 38.90733433333333, "is_reserved": 0, "fusion_lat": 0.0}, {"bike_id": "5d5abf2e105e4f5875b40c9803e3c43b", "fusion_lon": 0.0, "lon": -77.02174983333333, "name": "5d5abf2e105e4f5875b40c9803e3c43b", "is_disabled": 0, "rental_uris": {"android": "https://dc.lft.to/lastmile_qr_scan", "ios": "https://dc.lft.to/lastmile_qr_scan"}, "type": "electric_scooter", "lat": 38.897302, "is_reserved": 0, "fusion_lat": 0.0}, {"bike_id": "d442945d0ea032e407ce979c8fb55e5f", "fusion_lon": 0.0, "lon": -77.02292333333334, "name": "d442945d0ea032e407ce979c8fb55e5f", "is_disabled": 0, "rental_uris": {"android": "https://dc.lft.to/lastmile_qr_scan", "ios": "https://dc.lft.to/lastmile_qr_scan"}, "type": "electric_scooter", "lat": 38.91611566666667, "is_reserved": 0, "fusion_lat": 0.0}, {"bike_id": "0faa98097dd72b8f77b4693a3917cd60", "fusion_lon": 0.0, "lon": -77.0320995, "name": "0faa98097dd72b8f77b4693a3917cd60", "is_disabled": 0, "rental_uris": {"android": "https://dc.lft.to/lastmile_qr_scan", "ios": "https://dc.lft.to/lastmile_qr_scan"}, "type": "electric_scooter", "lat": 38.90944183333333, "is_reserved": 0, "fusion_lat": 0.0}, {"bike_id": "bbb831d91d17deb1d748dbc7a6bebcf8", "fusion_lon": 0.0, "lon": -77.007164, "name": "bbb831d91d17deb1d748dbc7a6bebcf8", "is_disabled": 0, "rental_uris": {"android": "https://dc.lft.to/lastmile_qr_scan", "ios": "https://dc.lft.to/lastmile_qr_scan"}, "type": "electric_scooter", "lat": 38.879156333333334, "is_reserved": 0, "fusion_lat": 0.0}, {"bike_id": "d46b2e847af187d6850885af3d607853", "fusion_lon": 0.0, "lon": -77.0212675, "name": "d46b2e847af187d6850885af3d607853", "is_disabled": 0, "rental_uris": {"android": "https://dc.lft.to/lastmile_qr_scan", "ios": "https://dc.lft.to/lastmile_qr_scan"}, "type": "electric_scooter", "lat": 38.8995305, "is_reserved": 0, "fusion_lat": 0.0}, {"bike_id": "6d0ca00c98bc6075474278d005adaf8b", "fusion_lon": 0.0, "lon": -76.98535666666666, "name": "6d0ca00c98bc6075474278d005adaf8b", "is_disabled": 0, "rental_uris": {"android": "https://dc.lft.to/lastmile_qr_scan", "ios": "https://dc.lft.to/lastmile_qr_scan"}, "type": "electric_scooter", "lat": 38.866500333333335, "is_reserved": 0, "fusion_lat": 0.0}, {"bike_id": "cf3362b4864d9f019c696ef77fdf9df6", "fusion_lon": 0.0, "lon": -77.02476066666667, "name": "cf3362b4864d9f019c696ef77fdf9df6", "is_disabled": 0, "rental_uris": {"android": "https://dc.lft.to/lastmile_qr_scan", "ios": "https://dc.lft.to/lastmile_qr_scan"}, "type": "electric_scooter", "lat": 38.919450166666664, "is_reserved": 0, "fusion_lat": 0.0}, {"bike_id": "be1fe5566a9fbfe088f59fdf4e5cdcb3", "fusion_lon": 0.0, "lon": -77.02574833333334, "name": "be1fe5566a9fbfe088f59fdf4e5cdcb3", "is_disabled": 0, "rental_uris": {"android": "https://dc.lft.to/lastmile_qr_scan", "ios": "https://dc.lft.to/lastmile_qr_scan"}, "type": "electric_scooter", "lat": 38.892290833333334, "is_reserved": 0, "fusion_lat": 0.0}, {"bike_id": "c4c92c19b5b858718b3e351a371226a6", "fusion_lon": 0.0, "lon": -77.02680816666667, "name": "c4c92c19b5b858718b3e351a371226a6", "is_disabled": 0, "rental_uris": {"android": "https://dc.lft.to/lastmile_qr_scan", "ios": "https://dc.lft.to/lastmile_qr_scan"}, "type": "electric_scooter", "lat": 38.89835083333333, "is_reserved": 0, "fusion_lat": 0.0}, {"bike_id": "0eeeb1ac32f356f31a461623f0e785b1", "fusion_lon": 0.0, "lon": -77.02950066666666, "name": "0eeeb1ac32f356f31a461623f0e785b1", "is_disabled": 0, "rental_uris": {"android": "https://dc.lft.to/lastmile_qr_scan", "ios": "https://dc.lft.to/lastmile_qr_scan"}, "type": "electric_scooter", "lat": 38.9325535, "is_reserved": 0, "fusion_lat": 0.0}, {"bike_id": "7cd17419ea16921842da5d714a4a65c3", "fusion_lon": 0.0, "lon": -77.02724133333334, "name": "7cd17419ea16921842da5d714a4a65c3", "is_disabled": 0, "rental_uris": {"android": "https://dc.lft.to/lastmile_qr_scan", "ios": "https://dc.lft.to/lastmile_qr_scan"}, "type": "electric_scooter", "lat": 38.949602166666665, "is_reserved": 0, "fusion_lat": 0.0}, {"bike_id": "a15ba9064e1a5bf40729372d64ef5f77", "fusion_lon": 0.0, "lon": -77.0487095, "name": "a15ba9064e1a5bf40729372d64ef5f77", "is_disabled": 0, "rental_uris": {"android": "https://dc.lft.to/lastmile_qr_scan", "ios": "https://dc.lft.to/lastmile_qr_scan"}, "type": "electric_scooter", "lat": 38.90977, "is_reserved": 0, "fusion_lat": 0.0}, {"bike_id": "59baaaa11f0ac50a42eaaa02787aa421", "fusion_lon": 0.0, "lon": -77.02535083333333, "name": "59baaaa11f0ac50a42eaaa02787aa421", "is_disabled": 0, "rental_uris": {"android": "https://dc.lft.to/lastmile_qr_scan", "ios": "https://dc.lft.to/lastmile_qr_scan"}, "type": "electric_scooter", "lat": 38.92485516666667, "is_reserved": 0, "fusion_lat": 0.0}, {"bike_id": "67c1c3161462386872668a021898220c", "fusion_lon": 0.0, "lon": -77.03505833333334, "name": "67c1c3161462386872668a021898220c", "is_disabled": 0, "rental_uris": {"android": "https://dc.lft.to/lastmile_qr_scan", "ios": "https://dc.lft.to/lastmile_qr_scan"}, "type": "electric_scooter", "lat": 38.93600466666667, "is_reserved": 0, "fusion_lat": 0.0}, {"bike_id": "8aef3b62ed086f6e2f87f36d4a788145", "fusion_lon": 0.0, "lon": -77.02582483333333, "name": "8aef3b62ed086f6e2f87f36d4a788145", "is_disabled": 0, "rental_uris": {"android": "https://dc.lft.to/lastmile_qr_scan", "ios": "https://dc.lft.to/lastmile_qr_scan"}, "type": "electric_scooter", "lat": 38.927019, "is_reserved": 0, "fusion_lat": 0.0}, {"bike_id": "acfffd8a09745adf03a1894976e4c7a3", "fusion_lon": 0.0, "lon": -77.00194966666666, "name": "acfffd8a09745adf03a1894976e4c7a3", "is_disabled": 0, "rental_uris": {"android": "https://dc.lft.to/lastmile_qr_scan", "ios": "https://dc.lft.to/lastmile_qr_scan"}, "type": "electric_scooter", "lat": 38.9004075, "is_reserved": 0, "fusion_lat": 0.0}, {"bike_id": "db89354d41733e14996455850df10f21", "fusion_lon": 0.0, "lon": -77.0929655, "name": "db89354d41733e14996455850df10f21", "is_disabled": 0, "rental_uris": {"android": "https://dc.lft.to/lastmile_qr_scan", "ios": "https://dc.lft.to/lastmile_qr_scan"}, "type": "electric_bike", "lat": 38.976958833333335, "is_reserved": 0, "fusion_lat": 0.0}, {"bike_id": "b2691a137ad168ffc8ff897803c6e1c9", "fusion_lon": 0.0, "lon": -77.04465083333334, "name": "b2691a137ad168ffc8ff897803c6e1c9", "is_disabled": 0, "rental_uris": {"android": "https://dc.lft.to/lastmile_qr_scan", "ios": "https://dc.lft.to/lastmile_qr_scan"}, "type": "electric_scooter", "lat": 38.918514, "is_reserved": 0, "fusion_lat": 0.0}, {"bike_id": "1466ed173ac1fe322c7c114652a0c46f", "fusion_lon": 0.0, "lon": -77.04326283333333, "name": "1466ed173ac1fe322c7c114652a0c46f", "is_disabled": 0, "rental_uris": {"android": "https://dc.lft.to/lastmile_qr_scan", "ios": "https://dc.lft.to/lastmile_qr_scan"}, "type": "electric_scooter", "lat": 38.8922545, "is_reserved": 0, "fusion_lat": 0.0}, {"bike_id": "b1c5bc77eb640bddc726ba18c1018395", "fusion_lon": 0.0, "lon": -77.01743766666667, "name": "b1c5bc77eb640bddc726ba18c1018395", "is_disabled": 0, "rental_uris": {"android": "https://dc.lft.to/lastmile_qr_scan", "ios": "https://dc.lft.to/lastmile_qr_scan"}, "type": "electric_scooter", "lat": 38.91109933333333, "is_reserved": 0, "fusion_lat": 0.0}, {"bike_id": "e5809da05be67bb97395ae876cce1825", "fusion_lon": 0.0, "lon": -76.98923116666667, "name": "e5809da05be67bb97395ae876cce1825", "is_disabled": 0, "rental_uris": {"android": "https://dc.lft.to/lastmile_qr_scan", "ios": "https://dc.lft.to/lastmile_qr_scan"}, "type": "electric_scooter", "lat": 38.84074016666667, "is_reserved": 0, "fusion_lat": 0.0}, {"bike_id": "d030c0667bbdf4190f2fa83bb121598a", "fusion_lon": 0.0, "lon": -77.02317066666667, "name": "d030c0667bbdf4190f2fa83bb121598a", "is_disabled": 0, "rental_uris": {"android": "https://dc.lft.to/lastmile_qr_scan", "ios": "https://dc.lft.to/lastmile_qr_scan"}, "type": "electric_scooter", "lat": 38.907307333333335, "is_reserved": 0, "fusion_lat": 0.0}, {"bike_id": "1758340223baa2aadbdd24679bbc5119", "fusion_lon": 0.0, "lon": -77.02811166666666, "name": "1758340223baa2aadbdd24679bbc5119", "is_disabled": 0, "rental_uris": {"android": "https://dc.lft.to/lastmile_qr_scan", "ios": "https://dc.lft.to/lastmile_qr_scan"}, "type": "electric_scooter", "lat": 38.914363, "is_reserved": 0, "fusion_lat": 0.0}, {"bike_id": "f24a42e105e10df686d3c2f0d97aea1a", "fusion_lon": 0.0, "lon": -77.0176605, "name": "f24a42e105e10df686d3c2f0d97aea1a", "is_disabled": 0, "rental_uris": {"android": "https://dc.lft.to/lastmile_qr_scan", "ios": "https://dc.lft.to/lastmile_qr_scan"}, "type": "electric_scooter", "lat": 38.9037185, "is_reserved": 0, "fusion_lat": 0.0}, {"bike_id": "dd8198e8a4779866af9d8eb8d34c7049", "fusion_lon": 0.0, "lon": -77.02416666666667, "name": "dd8198e8a4779866af9d8eb8d34c7049", "is_disabled": 0, "rental_uris": {"android": "https://dc.lft.to/lastmile_qr_scan", "ios": "https://dc.lft.to/lastmile_qr_scan"}, "type": "electric_bike", "lat": 38.93461416666667, "is_reserved": 0, "fusion_lat": 0.0}, {"bike_id": "6943a5700c25a8bb0fdb997ea1dd249c", "fusion_lon": 0.0, "lon": -76.99814633333334, "name": "6943a5700c25a8bb0fdb997ea1dd249c", "is_disabled": 0, "rental_uris": {"android": "https://dc.lft.to/lastmile_qr_scan", "ios": "https://dc.lft.to/lastmile_qr_scan"}, "type": "electric_scooter", "lat": 38.844337, "is_reserved": 0, "fusion_lat": 0.0}, {"bike_id": "35ecc9145399a8173f9193e24c5b2c3e", "fusion_lon": 0.0, "lon": -77.05232316666667, "name": "35ecc9145399a8173f9193e24c5b2c3e", "is_disabled": 0, "rental_uris": {"android": "https://dc.lft.to/lastmile_qr_scan", "ios": "https://dc.lft.to/lastmile_qr_scan"}, "type": "electric_scooter", "lat": 38.92699233333333, "is_reserved": 0, "fusion_lat": 0.0}, {"bike_id": "21da4890e6bc51ed921a6bfa3d846502", "fusion_lon": 0.0, "lon": -77.02599716666667, "name": "21da4890e6bc51ed921a6bfa3d846502", "is_disabled": 0, "rental_uris": {"android": "https://dc.lft.to/lastmile_qr_scan", "ios": "https://dc.lft.to/lastmile_qr_scan"}, "type": "electric_scooter", "lat": 38.916901333333335, "is_reserved": 0, "fusion_lat": 0.0}, {"bike_id": "c654338cae228a5514744fb337c2ed5c", "fusion_lon": 0.0, "lon": -77.03470683333333, "name": "c654338cae228a5514744fb337c2ed5c", "is_disabled": 0, "rental_uris": {"android": "https://dc.lft.to/lastmile_qr_scan", "ios": "https://dc.lft.to/lastmile_qr_scan"}, "type": "electric_scooter", "lat": 38.90806333333333, "is_reserved": 0, "fusion_lat": 0.0}, {"bike_id": "484ebe1a02d8cd1e1a48b7a92bee5439", "fusion_lon": 0.0, "lon": -76.9892475, "name": "484ebe1a02d8cd1e1a48b7a92bee5439", "is_disabled": 0, "rental_uris": {"android": "https://dc.lft.to/lastmile_qr_scan", "ios": "https://dc.lft.to/lastmile_qr_scan"}, "type": "electric_scooter", "lat": 38.85812716666667, "is_reserved": 0, "fusion_lat": 0.0}, {"bike_id": "3cac4cfa31399a844e62ef189fec3a91", "fusion_lon": 0.0, "lon": -76.98653683333333, "name": "3cac4cfa31399a844e62ef189fec3a91", "is_disabled": 0, "rental_uris": {"android": "https://dc.lft.to/lastmile_qr_scan", "ios": "https://dc.lft.to/lastmile_qr_scan"}, "type": "electric_scooter", "lat": 38.85809916666667, "is_reserved": 0, "fusion_lat": 0.0}, {"bike_id": "2780ec7263ea33a7e183cc23b6c5bd40", "fusion_lon": 0.0, "lon": -77.00971016666666, "name": "2780ec7263ea33a7e183cc23b6c5bd40", "is_disabled": 0, "rental_uris": {"android": "https://dc.lft.to/lastmile_qr_scan", "ios": "https://dc.lft.to/lastmile_qr_scan"}, "type": "electric_scooter", "lat": 38.9078645, "is_reserved": 0, "fusion_lat": 0.0}, {"bike_id": "0d7ee9adad0a8d807d3ac4d64cb86db9", "fusion_lon": 0.0, "lon": -77.03119383333333, "name": "0d7ee9adad0a8d807d3ac4d64cb86db9", "is_disabled": 0, "rental_uris": {"android": "https://dc.lft.to/lastmile_qr_scan", "ios": "https://dc.lft.to/lastmile_qr_scan"}, "type": "electric_bike", "lat": 38.959221, "is_reserved": 0, "fusion_lat": 0.0}, {"bike_id": "42e6d275ddd832ae14cfec48931185fa", "fusion_lon": 0.0, "lon": -77.01644183333333, "name": "42e6d275ddd832ae14cfec48931185fa", "is_disabled": 0, "rental_uris": {"android": "https://dc.lft.to/lastmile_qr_scan", "ios": "https://dc.lft.to/lastmile_qr_scan"}, "type": "electric_scooter", "lat": 38.881242, "is_reserved": 0, "fusion_lat": 0.0}, {"bike_id": "cd99a1b4742ec1b1a9c9838069800ac3", "fusion_lon": 0.0, "lon": -77.03839233333333, "name": "cd99a1b4742ec1b1a9c9838069800ac3", "is_disabled": 0, "rental_uris": {"android": "https://dc.lft.to/lastmile_qr_scan", "ios": "https://dc.lft.to/lastmile_qr_scan"}, "type": "electric_scooter", "lat": 38.90956833333333, "is_reserved": 0, "fusion_lat": 0.0}, {"bike_id": "1759b35c46f92f876d76892911850cd3", "fusion_lon": 0.0, "lon": -76.92687233333334, "name": "1759b35c46f92f876d76892911850cd3", "is_disabled": 0, "rental_uris": {"android": "https://dc.lft.to/lastmile_qr_scan", "ios": "https://dc.lft.to/lastmile_qr_scan"}, "type": "electric_scooter", "lat": 38.893694833333335, "is_reserved": 0, "fusion_lat": 0.0}, {"bike_id": "24f303f3d5a33d70fbc3183c4aecb8d1", "fusion_lon": 0.0, "lon": -76.997776, "name": "24f303f3d5a33d70fbc3183c4aecb8d1", "is_disabled": 0, "rental_uris": {"android": "https://dc.lft.to/lastmile_qr_scan", "ios": "https://dc.lft.to/lastmile_qr_scan"}, "type": "electric_scooter", "lat": 38.844273333333334, "is_reserved": 0, "fusion_lat": 0.0}, {"bike_id": "84eb20a69d57e481c9d7fd2cea96cea7", "fusion_lon": 0.0, "lon": -77.027084, "name": "84eb20a69d57e481c9d7fd2cea96cea7", "is_disabled": 0, "rental_uris": {"android": "https://dc.lft.to/lastmile_qr_scan", "ios": "https://dc.lft.to/lastmile_qr_scan"}, "type": "electric_scooter", "lat": 38.92885533333333, "is_reserved": 0, "fusion_lat": 0.0}, {"bike_id": "73ecc523c6cfbd4f788a003cd7e63b94", "fusion_lon": 0.0, "lon": -77.03462133333333, "name": "73ecc523c6cfbd4f788a003cd7e63b94", "is_disabled": 0, "rental_uris": {"android": "https://dc.lft.to/lastmile_qr_scan", "ios": "https://dc.lft.to/lastmile_qr_scan"}, "type": "electric_scooter", "lat": 38.907583, "is_reserved": 0, "fusion_lat": 0.0}, {"bike_id": "53b11af653d20d277a4fa0996fed9e4e", "fusion_lon": 0.0, "lon": -76.9463835, "name": "53b11af653d20d277a4fa0996fed9e4e", "is_disabled": 0, "rental_uris": {"android": "https://dc.lft.to/lastmile_qr_scan", "ios": "https://dc.lft.to/lastmile_qr_scan"}, "type": "electric_scooter", "lat": 38.89844316666667, "is_reserved": 0, "fusion_lat": 0.0}, {"bike_id": "6042b1fcb57e820b53ea16964d762863", "fusion_lon": 0.0, "lon": -76.957536, "name": "6042b1fcb57e820b53ea16964d762863", "is_disabled": 0, "rental_uris": {"android": "https://dc.lft.to/lastmile_qr_scan", "ios": "https://dc.lft.to/lastmile_qr_scan"}, "type": "electric_scooter", "lat": 38.884305166666664, "is_reserved": 0, "fusion_lat": 0.0}, {"bike_id": "ba641b8c6e04b7fcd401a088f4339a24", "fusion_lon": 0.0, "lon": -76.97099683333333, "name": "ba641b8c6e04b7fcd401a088f4339a24", "is_disabled": 0, "rental_uris": {"android": "https://dc.lft.to/lastmile_qr_scan", "ios": "https://dc.lft.to/lastmile_qr_scan"}, "type": "electric_bike", "lat": 38.857138, "is_reserved": 0, "fusion_lat": 0.0}, {"bike_id": "09ad4d09519fe57ba49374e8ecd130ce", "fusion_lon": 0.0, "lon": -77.003366, "name": "09ad4d09519fe57ba49374e8ecd130ce", "is_disabled": 0, "rental_uris": {"android": "https://dc.lft.to/lastmile_qr_scan", "ios": "https://dc.lft.to/lastmile_qr_scan"}, "type": "electric_scooter", "lat": 38.895265, "is_reserved": 0, "fusion_lat": 0.0}, {"bike_id": "93cc01524e54d72a4007d244d4d3c297", "fusion_lon": 0.0, "lon": -76.99777583333334, "name": "93cc01524e54d72a4007d244d4d3c297", "is_disabled": 0, "rental_uris": {"android": "https://dc.lft.to/lastmile_qr_scan", "ios": "https://dc.lft.to/lastmile_qr_scan"}, "type": "electric_scooter", "lat": 38.84433633333333, "is_reserved": 0, "fusion_lat": 0.0}, {"bike_id": "ef9455632cb00430ca36a3e4546306a1", "fusion_lon": 0.0, "lon": -77.02029583333334, "name": "ef9455632cb00430ca36a3e4546306a1", "is_disabled": 0, "rental_uris": {"android": "https://dc.lft.to/lastmile_qr_scan", "ios": "https://dc.lft.to/lastmile_qr_scan"}, "type": "electric_scooter", "lat": 38.92421316666667, "is_reserved": 0, "fusion_lat": 0.0}, {"bike_id": "134cea3fab477a390cc4efa44ba7984d", "fusion_lon": 0.0, "lon": -77.02240483333334, "name": "134cea3fab477a390cc4efa44ba7984d", "is_disabled": 0, "rental_uris": {"android": "https://dc.lft.to/lastmile_qr_scan", "ios": "https://dc.lft.to/lastmile_qr_scan"}, "type": "electric_scooter", "lat": 38.9613615, "is_reserved": 0, "fusion_lat": 0.0}, {"bike_id": "aab2d3327dc5948fbd0f06c2eff0b1ba", "fusion_lon": 0.0, "lon": -77.05022183333334, "name": "aab2d3327dc5948fbd0f06c2eff0b1ba", "is_disabled": 0, "rental_uris": {"android": "https://dc.lft.to/lastmile_qr_scan", "ios": "https://dc.lft.to/lastmile_qr_scan"}, "type": "electric_scooter", "lat": 38.89656216666667, "is_reserved": 0, "fusion_lat": 0.0}, {"bike_id": "e23d51245ca35fe0fce7cb0033f928cf", "fusion_lon": 0.0, "lon": -77.02349966666667, "name": "e23d51245ca35fe0fce7cb0033f928cf", "is_disabled": 0, "rental_uris": {"android": "https://dc.lft.to/lastmile_qr_scan", "ios": "https://dc.lft.to/lastmile_qr_scan"}, "type": "electric_scooter", "lat": 38.9461575, "is_reserved": 0, "fusion_lat": 0.0}, {"bike_id": "c796ab2eca8e72c910f23db67ef07392", "fusion_lon": 0.0, "lon": -76.98840683333333, "name": "c796ab2eca8e72c910f23db67ef07392", "is_disabled": 0, "rental_uris": {"android": "https://dc.lft.to/lastmile_qr_scan", "ios": "https://dc.lft.to/lastmile_qr_scan"}, "type": "electric_scooter", "lat": 38.892585, "is_reserved": 0, "fusion_lat": 0.0}, {"bike_id": "5d99e7f69eec8a51b4f39a43adc6dc3c", "fusion_lon": 0.0, "lon": -77.03263566666666, "name": "5d99e7f69eec8a51b4f39a43adc6dc3c", "is_disabled": 0, "rental_uris": {"android": "https://dc.lft.to/lastmile_qr_scan", "ios": "https://dc.lft.to/lastmile_qr_scan"}, "type": "electric_scooter", "lat": 38.914089833333335, "is_reserved": 0, "fusion_lat": 0.0}, {"bike_id": "4bc14b04bb520275f180ab6b27e46a13", "fusion_lon": 0.0, "lon": -77.02482783333333, "name": "4bc14b04bb520275f180ab6b27e46a13", "is_disabled": 0, "rental_uris": {"android": "https://dc.lft.to/lastmile_qr_scan", "ios": "https://dc.lft.to/lastmile_qr_scan"}, "type": "electric_scooter", "lat": 38.903943166666664, "is_reserved": 0, "fusion_lat": 0.0}, {"bike_id": "bdcc7cd5b3e6edf449e4ccf32d0d4045", "fusion_lon": 0.0, "lon": -76.9871695, "name": "bdcc7cd5b3e6edf449e4ccf32d0d4045", "is_disabled": 0, "rental_uris": {"android": "https://dc.lft.to/lastmile_qr_scan", "ios": "https://dc.lft.to/lastmile_qr_scan"}, "type": "electric_scooter", "lat": 38.86699766666667, "is_reserved": 0, "fusion_lat": 0.0}, {"bike_id": "599d1d2efbe198fad2edfa6f48672f34", "fusion_lon": 0.0, "lon": -77.020982, "name": "599d1d2efbe198fad2edfa6f48672f34", "is_disabled": 0, "rental_uris": {"android": "https://dc.lft.to/lastmile_qr_scan", "ios": "https://dc.lft.to/lastmile_qr_scan"}, "type": "electric_scooter", "lat": 38.931167333333335, "is_reserved": 0, "fusion_lat": 0.0}, {"bike_id": "e081c633f40932cb77bf08f421129da3", "fusion_lon": 0.0, "lon": -77.039205, "name": "e081c633f40932cb77bf08f421129da3", "is_disabled": 0, "rental_uris": {"android": "https://dc.lft.to/lastmile_qr_scan", "ios": "https://dc.lft.to/lastmile_qr_scan"}, "type": "electric_scooter", "lat": 38.92469833333333, "is_reserved": 0, "fusion_lat": 0.0}, {"bike_id": "95f2d489cadbb7cff7133cdc3f4e3967", "fusion_lon": 0.0, "lon": -77.01456933333333, "name": "95f2d489cadbb7cff7133cdc3f4e3967", "is_disabled": 0, "rental_uris": {"android": "https://dc.lft.to/lastmile_qr_scan", "ios": "https://dc.lft.to/lastmile_qr_scan"}, "type": "electric_scooter", "lat": 38.918234, "is_reserved": 0, "fusion_lat": 0.0}, {"bike_id": "27df37e14a67c46cd071c7a323e5e435", "fusion_lon": 0.0, "lon": -77.02983366666666, "name": "27df37e14a67c46cd071c7a323e5e435", "is_disabled": 0, "rental_uris": {"android": "https://dc.lft.to/lastmile_qr_scan", "ios": "https://dc.lft.to/lastmile_qr_scan"}, "type": "electric_scooter", "lat": 38.934512166666664, "is_reserved": 0, "fusion_lat": 0.0}, {"bike_id": "349b0e684fb7e1b238c26ce7dd9461b4", "fusion_lon": 0.0, "lon": -77.02709683333333, "name": "349b0e684fb7e1b238c26ce7dd9461b4", "is_disabled": 0, "rental_uris": {"android": "https://dc.lft.to/lastmile_qr_scan", "ios": "https://dc.lft.to/lastmile_qr_scan"}, "type": "electric_scooter", "lat": 38.906667, "is_reserved": 0, "fusion_lat": 0.0}, {"bike_id": "2ad077833ab96fbc9608b11dbe5b7671", "fusion_lon": 0.0, "lon": -77.07723783333333, "name": "2ad077833ab96fbc9608b11dbe5b7671", "is_disabled": 0, "rental_uris": {"android": "https://dc.lft.to/lastmile_qr_scan", "ios": "https://dc.lft.to/lastmile_qr_scan"}, "type": "electric_scooter", "lat": 38.95768983333333, "is_reserved": 0, "fusion_lat": 0.0}, {"bike_id": "b80fd8f8be7f70bbc0f8f1e57849b432", "fusion_lon": 0.0, "lon": -77.095238, "name": "b80fd8f8be7f70bbc0f8f1e57849b432", "is_disabled": 0, "rental_uris": {"android": "https://dc.lft.to/lastmile_qr_scan", "ios": "https://dc.lft.to/lastmile_qr_scan"}, "type": "electric_bike", "lat": 38.838106833333335, "is_reserved": 0, "fusion_lat": 0.0}, {"bike_id": "78cf2318fd8aa021d9b71682d6221985", "fusion_lon": 0.0, "lon": -77.014049, "name": "78cf2318fd8aa021d9b71682d6221985", "is_disabled": 0, "rental_uris": {"android": "https://dc.lft.to/lastmile_qr_scan", "ios": "https://dc.lft.to/lastmile_qr_scan"}, "type": "electric_scooter", "lat": 38.91812783333334, "is_reserved": 0, "fusion_lat": 0.0}, {"bike_id": "74c83aa33e22193c98d19a95c8822e87", "fusion_lon": 0.0, "lon": -77.0380765, "name": "74c83aa33e22193c98d19a95c8822e87", "is_disabled": 0, "rental_uris": {"android": "https://dc.lft.to/lastmile_qr_scan", "ios": "https://dc.lft.to/lastmile_qr_scan"}, "type": "electric_scooter", "lat": 38.91417883333333, "is_reserved": 0, "fusion_lat": 0.0}, {"bike_id": "b6a1d23d5906b9a7fb06009765642e17", "fusion_lon": 0.0, "lon": -77.07844783333333, "name": "b6a1d23d5906b9a7fb06009765642e17", "is_disabled": 0, "rental_uris": {"android": "https://dc.lft.to/lastmile_qr_scan", "ios": "https://dc.lft.to/lastmile_qr_scan"}, "type": "electric_bike", "lat": 38.931317, "is_reserved": 0, "fusion_lat": 0.0}, {"bike_id": "fe9b5af1315557fe06bcd91d6062d5f2", "fusion_lon": 0.0, "lon": -77.023505, "name": "fe9b5af1315557fe06bcd91d6062d5f2", "is_disabled": 0, "rental_uris": {"android": "https://dc.lft.to/lastmile_qr_scan", "ios": "https://dc.lft.to/lastmile_qr_scan"}, "type": "electric_scooter", "lat": 38.93536666666667, "is_reserved": 0, "fusion_lat": 0.0}, {"bike_id": "d20a3d9a0bd3fa7031300f00952c9aa9", "fusion_lon": 0.0, "lon": -77.04831116666666, "name": "d20a3d9a0bd3fa7031300f00952c9aa9", "is_disabled": 0, "rental_uris": {"android": "https://dc.lft.to/lastmile_qr_scan", "ios": "https://dc.lft.to/lastmile_qr_scan"}, "type": "electric_scooter", "lat": 38.91104466666667, "is_reserved": 0, "fusion_lat": 0.0}, {"bike_id": "49e138808a8a86bfb596c92985506330", "fusion_lon": 0.0, "lon": -76.93863466666667, "name": "49e138808a8a86bfb596c92985506330", "is_disabled": 0, "rental_uris": {"android": "https://dc.lft.to/lastmile_qr_scan", "ios": "https://dc.lft.to/lastmile_qr_scan"}, "type": "electric_scooter", "lat": 38.898999833333335, "is_reserved": 0, "fusion_lat": 0.0}, {"bike_id": "105519fc91081e33062e59a126e7da0e", "fusion_lon": 0.0, "lon": -77.03835683333334, "name": "105519fc91081e33062e59a126e7da0e", "is_disabled": 0, "rental_uris": {"android": "https://dc.lft.to/lastmile_qr_scan", "ios": "https://dc.lft.to/lastmile_qr_scan"}, "type": "electric_scooter", "lat": 38.910172333333335, "is_reserved": 0, "fusion_lat": 0.0}, {"bike_id": "5979b438c79410055f7cb76ddd66d0f9", "fusion_lon": 0.0, "lon": -76.998593, "name": "5979b438c79410055f7cb76ddd66d0f9", "is_disabled": 0, "rental_uris": {"android": "https://dc.lft.to/lastmile_qr_scan", "ios": "https://dc.lft.to/lastmile_qr_scan"}, "type": "electric_scooter", "lat": 38.9036495, "is_reserved": 0, "fusion_lat": 0.0}, {"bike_id": "d48c0b7bdf347e7da4ba407348464ac6", "fusion_lon": 0.0, "lon": -77.01363, "name": "d48c0b7bdf347e7da4ba407348464ac6", "is_disabled": 0, "rental_uris": {"android": "https://dc.lft.to/lastmile_qr_scan", "ios": "https://dc.lft.to/lastmile_qr_scan"}, "type": "electric_scooter", "lat": 38.89333116666667, "is_reserved": 0, "fusion_lat": 0.0}, {"bike_id": "50bebaf6583f4a304cb49a06651bc74b", "fusion_lon": 0.0, "lon": -77.04175133333334, "name": "50bebaf6583f4a304cb49a06651bc74b", "is_disabled": 0, "rental_uris": {"android": "https://dc.lft.to/lastmile_qr_scan", "ios": "https://dc.lft.to/lastmile_qr_scan"}, "type": "electric_scooter", "lat": 38.919812, "is_reserved": 0, "fusion_lat": 0.0}, {"bike_id": "b41ce1d3cba7e2b3c3fe3de53fa4163c", "fusion_lon": 0.0, "lon": -77.03750383333333, "name": "b41ce1d3cba7e2b3c3fe3de53fa4163c", "is_disabled": 0, "rental_uris": {"android": "https://dc.lft.to/lastmile_qr_scan", "ios": "https://dc.lft.to/lastmile_qr_scan"}, "type": "electric_scooter", "lat": 38.9126535, "is_reserved": 0, "fusion_lat": 0.0}, {"bike_id": "ee7aa52346155f0080fd63f894dfcb0c", "fusion_lon": 0.0, "lon": -77.2233455, "name": "ee7aa52346155f0080fd63f894dfcb0c", "is_disabled": 0, "rental_uris": {"android": "https://dc.lft.to/lastmile_qr_scan", "ios": "https://dc.lft.to/lastmile_qr_scan"}, "type": "electric_bike", "lat": 38.918024333333335, "is_reserved": 0, "fusion_lat": 0.0}, {"bike_id": "95978200cc4d750df6416d5399d970f9", "fusion_lon": 0.0, "lon": -77.038641, "name": "95978200cc4d750df6416d5399d970f9", "is_disabled": 0, "rental_uris": {"android": "https://dc.lft.to/lastmile_qr_scan", "ios": "https://dc.lft.to/lastmile_qr_scan"}, "type": "electric_scooter", "lat": 38.90787866666667, "is_reserved": 0, "fusion_lat": 0.0}, {"bike_id": "c9dd3d809edea7dab111601e3ea8d234", "fusion_lon": 0.0, "lon": -77.03261516666667, "name": "c9dd3d809edea7dab111601e3ea8d234", "is_disabled": 0, "rental_uris": {"android": "https://dc.lft.to/lastmile_qr_scan", "ios": "https://dc.lft.to/lastmile_qr_scan"}, "type": "electric_scooter", "lat": 38.92860833333334, "is_reserved": 0, "fusion_lat": 0.0}, {"bike_id": "5bcf3e5f34b701776c15663ae264a6d7", "fusion_lon": 0.0, "lon": -77.03311733333334, "name": "5bcf3e5f34b701776c15663ae264a6d7", "is_disabled": 0, "rental_uris": {"android": "https://dc.lft.to/lastmile_qr_scan", "ios": "https://dc.lft.to/lastmile_qr_scan"}, "type": "electric_scooter", "lat": 38.931965, "is_reserved": 0, "fusion_lat": 0.0}, {"bike_id": "4ae67b3d7fbb7827a087e1b447d4a6eb", "fusion_lon": 0.0, "lon": -77.02765533333333, "name": "4ae67b3d7fbb7827a087e1b447d4a6eb", "is_disabled": 0, "rental_uris": {"android": "https://dc.lft.to/lastmile_qr_scan", "ios": "https://dc.lft.to/lastmile_qr_scan"}, "type": "electric_scooter", "lat": 38.9542725, "is_reserved": 0, "fusion_lat": 0.0}, {"bike_id": "f119f0818ef08d31b3c2e380bf8b6ed1", "fusion_lon": 0.0, "lon": -76.98299583333333, "name": "f119f0818ef08d31b3c2e380bf8b6ed1", "is_disabled": 0, "rental_uris": {"android": "https://dc.lft.to/lastmile_qr_scan", "ios": "https://dc.lft.to/lastmile_qr_scan"}, "type": "electric_bike", "lat": 38.962843666666664, "is_reserved": 0, "fusion_lat": 0.0}, {"bike_id": "1affd4bcbc1a1fb8f6511479e7078b7c", "fusion_lon": 0.0, "lon": -77.07795516666667, "name": "1affd4bcbc1a1fb8f6511479e7078b7c", "is_disabled": 0, "rental_uris": {"android": "https://dc.lft.to/lastmile_qr_scan", "ios": "https://dc.lft.to/lastmile_qr_scan"}, "type": "electric_bike", "lat": 38.919283, "is_reserved": 0, "fusion_lat": 0.0}, {"bike_id": "3c3121c46290567010901578c2a7cb14", "fusion_lon": 0.0, "lon": -77.05315216666666, "name": "3c3121c46290567010901578c2a7cb14", "is_disabled": 0, "rental_uris": {"android": "https://dc.lft.to/lastmile_qr_scan", "ios": "https://dc.lft.to/lastmile_qr_scan"}, "type": "electric_scooter", "lat": 38.90419833333333, "is_reserved": 0, "fusion_lat": 0.0}, {"bike_id": "dbe6f8f015e9152e67a98cc0baacbef2", "fusion_lon": 0.0, "lon": -77.03263466666667, "name": "dbe6f8f015e9152e67a98cc0baacbef2", "is_disabled": 0, "rental_uris": {"android": "https://dc.lft.to/lastmile_qr_scan", "ios": "https://dc.lft.to/lastmile_qr_scan"}, "type": "electric_scooter", "lat": 38.936587333333335, "is_reserved": 0, "fusion_lat": 0.0}, {"bike_id": "e8eba39ef9833347b107dc311161e313", "fusion_lon": 0.0, "lon": -77.02695483333333, "name": "e8eba39ef9833347b107dc311161e313", "is_disabled": 0, "rental_uris": {"android": "https://dc.lft.to/lastmile_qr_scan", "ios": "https://dc.lft.to/lastmile_qr_scan"}, "type": "electric_scooter", "lat": 38.906840333333335, "is_reserved": 0, "fusion_lat": 0.0}, {"bike_id": "f0e2757320612b7d6338806178f23dca", "fusion_lon": 0.0, "lon": -77.05528216666667, "name": "f0e2757320612b7d6338806178f23dca", "is_disabled": 0, "rental_uris": {"android": "https://dc.lft.to/lastmile_qr_scan", "ios": "https://dc.lft.to/lastmile_qr_scan"}, "type": "electric_scooter", "lat": 38.93012733333333, "is_reserved": 0, "fusion_lat": 0.0}, {"bike_id": "61f936f7903656d8066fbe8118083aab", "fusion_lon": 0.0, "lon": -77.028281, "name": "61f936f7903656d8066fbe8118083aab", "is_disabled": 0, "rental_uris": {"android": "https://dc.lft.to/lastmile_qr_scan", "ios": "https://dc.lft.to/lastmile_qr_scan"}, "type": "electric_scooter", "lat": 38.8873785, "is_reserved": 0, "fusion_lat": 0.0}, {"bike_id": "8a4ec8cf02c6700571d0c70fda36bc0b", "fusion_lon": 0.0, "lon": -77.0586255, "name": "8a4ec8cf02c6700571d0c70fda36bc0b", "is_disabled": 0, "rental_uris": {"android": "https://dc.lft.to/lastmile_qr_scan", "ios": "https://dc.lft.to/lastmile_qr_scan"}, "type": "electric_scooter", "lat": 38.9360715, "is_reserved": 0, "fusion_lat": 0.0}, {"bike_id": "27bfaf75d287775e1e117b2c6839a233", "fusion_lon": 0.0, "lon": -77.02301633333333, "name": "27bfaf75d287775e1e117b2c6839a233", "is_disabled": 0, "rental_uris": {"android": "https://dc.lft.to/lastmile_qr_scan", "ios": "https://dc.lft.to/lastmile_qr_scan"}, "type": "electric_scooter", "lat": 38.895792166666666, "is_reserved": 0, "fusion_lat": 0.0}, {"bike_id": "62e7d9f54c99fee7edf50e5b45fda71b", "fusion_lon": 0.0, "lon": -77.01949233333333, "name": "62e7d9f54c99fee7edf50e5b45fda71b", "is_disabled": 0, "rental_uris": {"android": "https://dc.lft.to/lastmile_qr_scan", "ios": "https://dc.lft.to/lastmile_qr_scan"}, "type": "electric_scooter", "lat": 38.92423383333333, "is_reserved": 0, "fusion_lat": 0.0}, {"bike_id": "2884151b31cc347b4207a54e16b53c51", "fusion_lon": 0.0, "lon": -76.98713083333334, "name": "2884151b31cc347b4207a54e16b53c51", "is_disabled": 0, "rental_uris": {"android": "https://dc.lft.to/lastmile_qr_scan", "ios": "https://dc.lft.to/lastmile_qr_scan"}, "type": "electric_scooter", "lat": 38.86702066666667, "is_reserved": 0, "fusion_lat": 0.0}, {"bike_id": "bdc0263b14cb3a63d530c4dec933c663", "fusion_lon": 0.0, "lon": -77.0370455, "name": "bdc0263b14cb3a63d530c4dec933c663", "is_disabled": 0, "rental_uris": {"android": "https://dc.lft.to/lastmile_qr_scan", "ios": "https://dc.lft.to/lastmile_qr_scan"}, "type": "electric_scooter", "lat": 38.926446, "is_reserved": 0, "fusion_lat": 0.0}, {"bike_id": "4f73db480a8b826cf99917dabb735c6e", "fusion_lon": 0.0, "lon": -76.94942716666667, "name": "4f73db480a8b826cf99917dabb735c6e", "is_disabled": 0, "rental_uris": {"android": "https://dc.lft.to/lastmile_qr_scan", "ios": "https://dc.lft.to/lastmile_qr_scan"}, "type": "electric_scooter", "lat": 38.89353366666667, "is_reserved": 0, "fusion_lat": 0.0}, {"bike_id": "f7244e4fbaf7436daecfd7188f802615", "fusion_lon": 0.0, "lon": -77.025188, "name": "f7244e4fbaf7436daecfd7188f802615", "is_disabled": 0, "rental_uris": {"android": "https://dc.lft.to/lastmile_qr_scan", "ios": "https://dc.lft.to/lastmile_qr_scan"}, "type": "electric_scooter", "lat": 38.94624316666667, "is_reserved": 0, "fusion_lat": 0.0}, {"bike_id": "d9dd382a5aa3a97f598bb6cae11d21db", "fusion_lon": 0.0, "lon": -77.00577783333334, "name": "d9dd382a5aa3a97f598bb6cae11d21db", "is_disabled": 0, "rental_uris": {"android": "https://dc.lft.to/lastmile_qr_scan", "ios": "https://dc.lft.to/lastmile_qr_scan"}, "type": "electric_scooter", "lat": 38.905675, "is_reserved": 0, "fusion_lat": 0.0}, {"bike_id": "e5f70c055fd01a21ccb487fdcc44ad0c", "fusion_lon": 0.0, "lon": -77.05392866666666, "name": "e5f70c055fd01a21ccb487fdcc44ad0c", "is_disabled": 0, "rental_uris": {"android": "https://dc.lft.to/lastmile_qr_scan", "ios": "https://dc.lft.to/lastmile_qr_scan"}, "type": "electric_scooter", "lat": 38.9281115, "is_reserved": 0, "fusion_lat": 0.0}, {"bike_id": "fa1268f8f8f7d4594f21b4564c6b755f", "fusion_lon": 0.0, "lon": -77.03658033333333, "name": "fa1268f8f8f7d4594f21b4564c6b755f", "is_disabled": 0, "rental_uris": {"android": "https://dc.lft.to/lastmile_qr_scan", "ios": "https://dc.lft.to/lastmile_qr_scan"}, "type": "electric_scooter", "lat": 38.92981133333333, "is_reserved": 0, "fusion_lat": 0.0}, {"bike_id": "961cebbbc253d0b38e7f951b7680fdf7", "fusion_lon": 0.0, "lon": -77.03523316666667, "name": "961cebbbc253d0b38e7f951b7680fdf7", "is_disabled": 0, "rental_uris": {"android": "https://dc.lft.to/lastmile_qr_scan", "ios": "https://dc.lft.to/lastmile_qr_scan"}, "type": "electric_scooter", "lat": 38.9231375, "is_reserved": 0, "fusion_lat": 0.0}, {"bike_id": "4c4ff69b2590df43ad1c22636187637e", "fusion_lon": 0.0, "lon": -77.00673083333334, "name": "4c4ff69b2590df43ad1c22636187637e", "is_disabled": 0, "rental_uris": {"android": "https://dc.lft.to/lastmile_qr_scan", "ios": "https://dc.lft.to/lastmile_qr_scan"}, "type": "electric_bike", "lat": 38.9451535, "is_reserved": 0, "fusion_lat": 0.0}, {"bike_id": "43d5ca6bb75274fb3963d730f791408a", "fusion_lon": 0.0, "lon": -77.01188966666666, "name": "43d5ca6bb75274fb3963d730f791408a", "is_disabled": 0, "rental_uris": {"android": "https://dc.lft.to/lastmile_qr_scan", "ios": "https://dc.lft.to/lastmile_qr_scan"}, "type": "electric_scooter", "lat": 38.91549716666667, "is_reserved": 0, "fusion_lat": 0.0}, {"bike_id": "2c25468af872cfc1063634234c81bb81", "fusion_lon": 0.0, "lon": -77.118498, "name": "2c25468af872cfc1063634234c81bb81", "is_disabled": 0, "rental_uris": {"android": "https://dc.lft.to/lastmile_qr_scan", "ios": "https://dc.lft.to/lastmile_qr_scan"}, "type": "electric_bike", "lat": 38.87731816666667, "is_reserved": 0, "fusion_lat": 0.0}, {"bike_id": "d98d1c35c65954d864a8fe391b6e4999", "fusion_lon": 0.0, "lon": -77.0371965, "name": "d98d1c35c65954d864a8fe391b6e4999", "is_disabled": 0, "rental_uris": {"android": "https://dc.lft.to/lastmile_qr_scan", "ios": "https://dc.lft.to/lastmile_qr_scan"}, "type": "electric_scooter", "lat": 38.918068833333336, "is_reserved": 0, "fusion_lat": 0.0}, {"bike_id": "85b83d9212d058b5ed456379cdd204f9", "fusion_lon": 0.0, "lon": -77.02759566666667, "name": "85b83d9212d058b5ed456379cdd204f9", "is_disabled": 0, "rental_uris": {"android": "https://dc.lft.to/lastmile_qr_scan", "ios": "https://dc.lft.to/lastmile_qr_scan"}, "type": "electric_scooter", "lat": 38.907257666666666, "is_reserved": 0, "fusion_lat": 0.0}, {"bike_id": "4d6c15b79128576b09ee54e5a0e58f05", "fusion_lon": 0.0, "lon": -76.98714, "name": "4d6c15b79128576b09ee54e5a0e58f05", "is_disabled": 0, "rental_uris": {"android": "https://dc.lft.to/lastmile_qr_scan", "ios": "https://dc.lft.to/lastmile_qr_scan"}, "type": "electric_scooter", "lat": 38.866976333333334, "is_reserved": 0, "fusion_lat": 0.0}, {"bike_id": "5862cc4fd76a0976adb5a380806d087e", "fusion_lon": 0.0, "lon": -76.9986195, "name": "5862cc4fd76a0976adb5a380806d087e", "is_disabled": 0, "rental_uris": {"android": "https://dc.lft.to/lastmile_qr_scan", "ios": "https://dc.lft.to/lastmile_qr_scan"}, "type": "electric_scooter", "lat": 38.90018833333333, "is_reserved": 0, "fusion_lat": 0.0}, {"bike_id": "d34068de2aac6e72a6fe70f4972d64ca", "fusion_lon": 0.0, "lon": -76.9354675, "name": "d34068de2aac6e72a6fe70f4972d64ca", "is_disabled": 0, "rental_uris": {"android": "https://dc.lft.to/lastmile_qr_scan", "ios": "https://dc.lft.to/lastmile_qr_scan"}, "type": "electric_bike", "lat": 38.951826, "is_reserved": 0, "fusion_lat": 0.0}, {"bike_id": "ed2af49534d76f9009f48efc91a54ee1", "fusion_lon": 0.0, "lon": -77.02211283333334, "name": "ed2af49534d76f9009f48efc91a54ee1", "is_disabled": 0, "rental_uris": {"android": "https://dc.lft.to/lastmile_qr_scan", "ios": "https://dc.lft.to/lastmile_qr_scan"}, "type": "electric_scooter", "lat": 38.878980166666665, "is_reserved": 0, "fusion_lat": 0.0}, {"bike_id": "bbe61148e1e9e30cee92bf8e21f3f53f", "fusion_lon": 0.0, "lon": -77.02762583333333, "name": "bbe61148e1e9e30cee92bf8e21f3f53f", "is_disabled": 0, "rental_uris": {"android": "https://dc.lft.to/lastmile_qr_scan", "ios": "https://dc.lft.to/lastmile_qr_scan"}, "type": "electric_scooter", "lat": 38.90734583333333, "is_reserved": 0, "fusion_lat": 0.0}, {"bike_id": "462c915f0c78f79902e3ae7f1c190d64", "fusion_lon": 0.0, "lon": -77.0340635, "name": "462c915f0c78f79902e3ae7f1c190d64", "is_disabled": 0, "rental_uris": {"android": "https://dc.lft.to/lastmile_qr_scan", "ios": "https://dc.lft.to/lastmile_qr_scan"}, "type": "electric_scooter", "lat": 38.93078216666667, "is_reserved": 0, "fusion_lat": 0.0}, {"bike_id": "edffd30ba30e43f7e0324618cab16596", "fusion_lon": 0.0, "lon": -77.00586966666667, "name": "edffd30ba30e43f7e0324618cab16596", "is_disabled": 0, "rental_uris": {"android": "https://dc.lft.to/lastmile_qr_scan", "ios": "https://dc.lft.to/lastmile_qr_scan"}, "type": "electric_scooter", "lat": 38.906106666666666, "is_reserved": 0, "fusion_lat": 0.0}, {"bike_id": "18d4157adafd991418566ded6b4b281e", "fusion_lon": 0.0, "lon": -76.99760966666666, "name": "18d4157adafd991418566ded6b4b281e", "is_disabled": 0, "rental_uris": {"android": "https://dc.lft.to/lastmile_qr_scan", "ios": "https://dc.lft.to/lastmile_qr_scan"}, "type": "electric_scooter", "lat": 38.887742333333335, "is_reserved": 0, "fusion_lat": 0.0}, {"bike_id": "a22b25a9c796ad88a0dc15d69a5ef094", "fusion_lon": 0.0, "lon": -77.036576, "name": "a22b25a9c796ad88a0dc15d69a5ef094", "is_disabled": 0, "rental_uris": {"android": "https://dc.lft.to/lastmile_qr_scan", "ios": "https://dc.lft.to/lastmile_qr_scan"}, "type": "electric_scooter", "lat": 38.92284766666667, "is_reserved": 0, "fusion_lat": 0.0}, {"bike_id": "a537a060ab6b5d3c0a0e64bb2d4b2994", "fusion_lon": 0.0, "lon": -76.88374033333334, "name": "a537a060ab6b5d3c0a0e64bb2d4b2994", "is_disabled": 0, "rental_uris": {"android": "https://dc.lft.to/lastmile_qr_scan", "ios": "https://dc.lft.to/lastmile_qr_scan"}, "type": "electric_bike", "lat": 38.99820616666667, "is_reserved": 0, "fusion_lat": 0.0}, {"bike_id": "9c5c77b92641a23db5263a291bfa8f62", "fusion_lon": 0.0, "lon": -76.97703816666667, "name": "9c5c77b92641a23db5263a291bfa8f62", "is_disabled": 0, "rental_uris": {"android": "https://dc.lft.to/lastmile_qr_scan", "ios": "https://dc.lft.to/lastmile_qr_scan"}, "type": "electric_bike", "lat": 38.9491485, "is_reserved": 0, "fusion_lat": 0.0}, {"bike_id": "f59ceb84cdfc57138958be7d582a2ae8", "fusion_lon": 0.0, "lon": -77.36094833333334, "name": "f59ceb84cdfc57138958be7d582a2ae8", "is_disabled": 0, "rental_uris": {"android": "https://dc.lft.to/lastmile_qr_scan", "ios": "https://dc.lft.to/lastmile_qr_scan"}, "type": "electric_bike", "lat": 38.93970566666667, "is_reserved": 0, "fusion_lat": 0.0}, {"bike_id": "b0ccccd844b81fae6cc173dc01b1dfa2", "fusion_lon": 0.0, "lon": -77.03277616666666, "name": "b0ccccd844b81fae6cc173dc01b1dfa2", "is_disabled": 0, "rental_uris": {"android": "https://dc.lft.to/lastmile_qr_scan", "ios": "https://dc.lft.to/lastmile_qr_scan"}, "type": "electric_scooter", "lat": 38.900160166666666, "is_reserved": 0, "fusion_lat": 0.0}, {"bike_id": "19a1eb9cfb8c4c0f439891f4faa6811b", "fusion_lon": 0.0, "lon": -76.95143183333333, "name": "19a1eb9cfb8c4c0f439891f4faa6811b", "is_disabled": 0, "rental_uris": {"android": "https://dc.lft.to/lastmile_qr_scan", "ios": "https://dc.lft.to/lastmile_qr_scan"}, "type": "electric_scooter", "lat": 38.8904015, "is_reserved": 0, "fusion_lat": 0.0}, {"bike_id": "4073ab3eb9450d3eb6333135f807e01f", "fusion_lon": 0.0, "lon": -77.05262533333334, "name": "4073ab3eb9450d3eb6333135f807e01f", "is_disabled": 0, "rental_uris": {"android": "https://dc.lft.to/lastmile_qr_scan", "ios": "https://dc.lft.to/lastmile_qr_scan"}, "type": "electric_scooter", "lat": 38.925678, "is_reserved": 0, "fusion_lat": 0.0}, {"bike_id": "610f2dd26cc3e2cd4706b6deb148e889", "fusion_lon": 0.0, "lon": -77.001554, "name": "610f2dd26cc3e2cd4706b6deb148e889", "is_disabled": 0, "rental_uris": {"android": "https://dc.lft.to/lastmile_qr_scan", "ios": "https://dc.lft.to/lastmile_qr_scan"}, "type": "electric_scooter", "lat": 38.92340866666667, "is_reserved": 0, "fusion_lat": 0.0}, {"bike_id": "5d23901b66b1baa45d29a885fc7cdbba", "fusion_lon": 0.0, "lon": -77.02105333333333, "name": "5d23901b66b1baa45d29a885fc7cdbba", "is_disabled": 0, "rental_uris": {"android": "https://dc.lft.to/lastmile_qr_scan", "ios": "https://dc.lft.to/lastmile_qr_scan"}, "type": "electric_scooter", "lat": 38.924083333333336, "is_reserved": 0, "fusion_lat": 0.0}, {"bike_id": "dc7597593d197cfb84532cdd66a9f560", "fusion_lon": 0.0, "lon": -77.02981616666666, "name": "dc7597593d197cfb84532cdd66a9f560", "is_disabled": 0, "rental_uris": {"android": "https://dc.lft.to/lastmile_qr_scan", "ios": "https://dc.lft.to/lastmile_qr_scan"}, "type": "electric_scooter", "lat": 38.895666166666665, "is_reserved": 0, "fusion_lat": 0.0}, {"bike_id": "1435e2fb5e546db36acf8fcf545d2b41", "fusion_lon": 0.0, "lon": -77.08617466666666, "name": "1435e2fb5e546db36acf8fcf545d2b41", "is_disabled": 0, "rental_uris": {"android": "https://dc.lft.to/lastmile_qr_scan", "ios": "https://dc.lft.to/lastmile_qr_scan"}, "type": "electric_bike", "lat": 38.8912655, "is_reserved": 0, "fusion_lat": 0.0}, {"bike_id": "7dc7af68ce612a5c2439795f6fed3a2c", "fusion_lon": 0.0, "lon": -77.023165, "name": "7dc7af68ce612a5c2439795f6fed3a2c", "is_disabled": 0, "rental_uris": {"android": "https://dc.lft.to/lastmile_qr_scan", "ios": "https://dc.lft.to/lastmile_qr_scan"}, "type": "electric_scooter", "lat": 38.919590166666666, "is_reserved": 0, "fusion_lat": 0.0}, {"bike_id": "36b686b46232328092b491265363e2c8", "fusion_lon": 0.0, "lon": -77.01976583333334, "name": "36b686b46232328092b491265363e2c8", "is_disabled": 0, "rental_uris": {"android": "https://dc.lft.to/lastmile_qr_scan", "ios": "https://dc.lft.to/lastmile_qr_scan"}, "type": "electric_scooter", "lat": 38.89731166666667, "is_reserved": 0, "fusion_lat": 0.0}, {"bike_id": "2c369a769bc3d6b996aa51118af144ac", "fusion_lon": 0.0, "lon": -77.0434215, "name": "2c369a769bc3d6b996aa51118af144ac", "is_disabled": 0, "rental_uris": {"android": "https://dc.lft.to/lastmile_qr_scan", "ios": "https://dc.lft.to/lastmile_qr_scan"}, "type": "electric_scooter", "lat": 38.90732916666666, "is_reserved": 0, "fusion_lat": 0.0}, {"bike_id": "0725f11981e398b4b1bae2ac88b6e67a", "fusion_lon": 0.0, "lon": -77.03971666666666, "name": "0725f11981e398b4b1bae2ac88b6e67a", "is_disabled": 0, "rental_uris": {"android": "https://dc.lft.to/lastmile_qr_scan", "ios": "https://dc.lft.to/lastmile_qr_scan"}, "type": "electric_scooter", "lat": 38.911965333333335, "is_reserved": 0, "fusion_lat": 0.0}, {"bike_id": "8b16efe0997e3f1875c7aa0bc9abcea4", "fusion_lon": 0.0, "lon": -77.02629566666667, "name": "8b16efe0997e3f1875c7aa0bc9abcea4", "is_disabled": 0, "rental_uris": {"android": "https://dc.lft.to/lastmile_qr_scan", "ios": "https://dc.lft.to/lastmile_qr_scan"}, "type": "electric_bike", "lat": 38.96217566666667, "is_reserved": 0, "fusion_lat": 0.0}, {"bike_id": "62a4f541d9d0a6870fc608a982edf220", "fusion_lon": 0.0, "lon": -77.02821483333334, "name": "62a4f541d9d0a6870fc608a982edf220", "is_disabled": 0, "rental_uris": {"android": "https://dc.lft.to/lastmile_qr_scan", "ios": "https://dc.lft.to/lastmile_qr_scan"}, "type": "electric_bike", "lat": 38.965099333333335, "is_reserved": 0, "fusion_lat": 0.0}, {"bike_id": "a69d8365e1b90380a449fc0e54c03d02", "fusion_lon": 0.0, "lon": -77.02399016666666, "name": "a69d8365e1b90380a449fc0e54c03d02", "is_disabled": 0, "rental_uris": {"android": "https://dc.lft.to/lastmile_qr_scan", "ios": "https://dc.lft.to/lastmile_qr_scan"}, "type": "electric_scooter", "lat": 38.91601083333333, "is_reserved": 0, "fusion_lat": 0.0}, {"bike_id": "9a5f2ae15d369cade8c9d308a640a414", "fusion_lon": 0.0, "lon": -77.03490366666666, "name": "9a5f2ae15d369cade8c9d308a640a414", "is_disabled": 0, "rental_uris": {"android": "https://dc.lft.to/lastmile_qr_scan", "ios": "https://dc.lft.to/lastmile_qr_scan"}, "type": "electric_scooter", "lat": 38.918604333333334, "is_reserved": 0, "fusion_lat": 0.0}, {"bike_id": "f89e44f21df1af6d7dd7fd434e442a5f", "fusion_lon": 0.0, "lon": -77.02423316666666, "name": "f89e44f21df1af6d7dd7fd434e442a5f", "is_disabled": 0, "rental_uris": {"android": "https://dc.lft.to/lastmile_qr_scan", "ios": "https://dc.lft.to/lastmile_qr_scan"}, "type": "electric_scooter", "lat": 38.92656066666667, "is_reserved": 0, "fusion_lat": 0.0}, {"bike_id": "cab3b75387c843600ec5f1b0566deb53", "fusion_lon": 0.0, "lon": -77.031801, "name": "cab3b75387c843600ec5f1b0566deb53", "is_disabled": 0, "rental_uris": {"android": "https://dc.lft.to/lastmile_qr_scan", "ios": "https://dc.lft.to/lastmile_qr_scan"}, "type": "electric_scooter", "lat": 38.92103566666667, "is_reserved": 0, "fusion_lat": 0.0}, {"bike_id": "bbf9f7fb765404885c033c66df606fbe", "fusion_lon": 0.0, "lon": -77.041901, "name": "bbf9f7fb765404885c033c66df606fbe", "is_disabled": 0, "rental_uris": {"android": "https://dc.lft.to/lastmile_qr_scan", "ios": "https://dc.lft.to/lastmile_qr_scan"}, "type": "electric_scooter", "lat": 38.9056455, "is_reserved": 0, "fusion_lat": 0.0}, {"bike_id": "82700f636cb9824551bfcb1da1bc1b3c", "fusion_lon": 0.0, "lon": -77.00134566666667, "name": "82700f636cb9824551bfcb1da1bc1b3c", "is_disabled": 0, "rental_uris": {"android": "https://dc.lft.to/lastmile_qr_scan", "ios": "https://dc.lft.to/lastmile_qr_scan"}, "type": "electric_scooter", "lat": 38.9051845, "is_reserved": 0, "fusion_lat": 0.0}, {"bike_id": "267443b5606030b2d02429c89a841042", "fusion_lon": 0.0, "lon": -76.937321, "name": "267443b5606030b2d02429c89a841042", "is_disabled": 0, "rental_uris": {"android": "https://dc.lft.to/lastmile_qr_scan", "ios": "https://dc.lft.to/lastmile_qr_scan"}, "type": "electric_scooter", "lat": 38.8901745, "is_reserved": 0, "fusion_lat": 0.0}, {"bike_id": "2fca4d82b02c95df2f95bf3b66fff6bb", "fusion_lon": 0.0, "lon": -76.989828, "name": "2fca4d82b02c95df2f95bf3b66fff6bb", "is_disabled": 0, "rental_uris": {"android": "https://dc.lft.to/lastmile_qr_scan", "ios": "https://dc.lft.to/lastmile_qr_scan"}, "type": "electric_scooter", "lat": 38.864946333333336, "is_reserved": 0, "fusion_lat": 0.0}, {"bike_id": "7c124368a22bcaf2e71e2b4fdc952309", "fusion_lon": 0.0, "lon": -77.038481, "name": "7c124368a22bcaf2e71e2b4fdc952309", "is_disabled": 0, "rental_uris": {"android": "https://dc.lft.to/lastmile_qr_scan", "ios": "https://dc.lft.to/lastmile_qr_scan"}, "type": "electric_scooter", "lat": 38.908532, "is_reserved": 0, "fusion_lat": 0.0}, {"bike_id": "71a4a1ff29a5e1e16113c3cb02893dae", "fusion_lon": 0.0, "lon": -77.005682, "name": "71a4a1ff29a5e1e16113c3cb02893dae", "is_disabled": 0, "rental_uris": {"android": "https://dc.lft.to/lastmile_qr_scan", "ios": "https://dc.lft.to/lastmile_qr_scan"}, "type": "electric_scooter", "lat": 38.88503433333333, "is_reserved": 0, "fusion_lat": 0.0}, {"bike_id": "c4063718f609cb1b83ea01fb05dd9f93", "fusion_lon": 0.0, "lon": -76.95186, "name": "c4063718f609cb1b83ea01fb05dd9f93", "is_disabled": 0, "rental_uris": {"android": "https://dc.lft.to/lastmile_qr_scan", "ios": "https://dc.lft.to/lastmile_qr_scan"}, "type": "electric_scooter", "lat": 38.907414833333334, "is_reserved": 0, "fusion_lat": 0.0}, {"bike_id": "2f6a166211de23ea299675fdbb9613be", "fusion_lon": 0.0, "lon": -77.0177785, "name": "2f6a166211de23ea299675fdbb9613be", "is_disabled": 0, "rental_uris": {"android": "https://dc.lft.to/lastmile_qr_scan", "ios": "https://dc.lft.to/lastmile_qr_scan"}, "type": "electric_scooter", "lat": 38.907789333333334, "is_reserved": 0, "fusion_lat": 0.0}, {"bike_id": "922eb64d1a268fb5e7886e607aa78463", "fusion_lon": 0.0, "lon": -77.04400466666667, "name": "922eb64d1a268fb5e7886e607aa78463", "is_disabled": 0, "rental_uris": {"android": "https://dc.lft.to/lastmile_qr_scan", "ios": "https://dc.lft.to/lastmile_qr_scan"}, "type": "electric_scooter", "lat": 38.9207015, "is_reserved": 0, "fusion_lat": 0.0}, {"bike_id": "a36ab2d9973317438424fe67dfa4fb25", "fusion_lon": 0.0, "lon": -77.05610233333333, "name": "a36ab2d9973317438424fe67dfa4fb25", "is_disabled": 0, "rental_uris": {"android": "https://dc.lft.to/lastmile_qr_scan", "ios": "https://dc.lft.to/lastmile_qr_scan"}, "type": "electric_scooter", "lat": 38.93165233333333, "is_reserved": 0, "fusion_lat": 0.0}, {"bike_id": "1c72b380dbd5623fc5d7ec1103ac445a", "fusion_lon": 0.0, "lon": -77.08193683333333, "name": "1c72b380dbd5623fc5d7ec1103ac445a", "is_disabled": 0, "rental_uris": {"android": "https://dc.lft.to/lastmile_qr_scan", "ios": "https://dc.lft.to/lastmile_qr_scan"}, "type": "electric_bike", "lat": 38.85564166666666, "is_reserved": 0, "fusion_lat": 0.0}, {"bike_id": "6d42f2e4f731eb2eae8ae86801ffe56d", "fusion_lon": 0.0, "lon": -77.008882, "name": "6d42f2e4f731eb2eae8ae86801ffe56d", "is_disabled": 0, "rental_uris": {"android": "https://dc.lft.to/lastmile_qr_scan", "ios": "https://dc.lft.to/lastmile_qr_scan"}, "type": "electric_scooter", "lat": 38.92487333333333, "is_reserved": 0, "fusion_lat": 0.0}, {"bike_id": "ab076e5aad38cb1d005cc6c95a213c2c", "fusion_lon": 0.0, "lon": -76.994009, "name": "ab076e5aad38cb1d005cc6c95a213c2c", "is_disabled": 0, "rental_uris": {"android": "https://dc.lft.to/lastmile_qr_scan", "ios": "https://dc.lft.to/lastmile_qr_scan"}, "type": "electric_scooter", "lat": 38.92165133333334, "is_reserved": 0, "fusion_lat": 0.0}, {"bike_id": "36dd5555f2b50480e683b1113f65d0a6", "fusion_lon": 0.0, "lon": -77.04538716666667, "name": "36dd5555f2b50480e683b1113f65d0a6", "is_disabled": 0, "rental_uris": {"android": "https://dc.lft.to/lastmile_qr_scan", "ios": "https://dc.lft.to/lastmile_qr_scan"}, "type": "electric_scooter", "lat": 38.913318333333336, "is_reserved": 0, "fusion_lat": 0.0}, {"bike_id": "92030a2293058bf8c7620dc544bbecc2", "fusion_lon": 0.0, "lon": -77.03500683333333, "name": "92030a2293058bf8c7620dc544bbecc2", "is_disabled": 0, "rental_uris": {"android": "https://dc.lft.to/lastmile_qr_scan", "ios": "https://dc.lft.to/lastmile_qr_scan"}, "type": "electric_bike", "lat": 38.93754666666667, "is_reserved": 0, "fusion_lat": 0.0}, {"bike_id": "38032a0e5f6633e4ce394c699de373d5", "fusion_lon": 0.0, "lon": -76.99863566666667, "name": "38032a0e5f6633e4ce394c699de373d5", "is_disabled": 0, "rental_uris": {"android": "https://dc.lft.to/lastmile_qr_scan", "ios": "https://dc.lft.to/lastmile_qr_scan"}, "type": "electric_scooter", "lat": 38.900186166666664, "is_reserved": 0, "fusion_lat": 0.0}, {"bike_id": "7eef4e9999b63af1abcc1ee462015893", "fusion_lon": 0.0, "lon": -77.01675116666667, "name": "7eef4e9999b63af1abcc1ee462015893", "is_disabled": 0, "rental_uris": {"android": "https://dc.lft.to/lastmile_qr_scan", "ios": "https://dc.lft.to/lastmile_qr_scan"}, "type": "electric_scooter", "lat": 38.8810905, "is_reserved": 0, "fusion_lat": 0.0}, {"bike_id": "8663c34a2d77244db65daffb38a21228", "fusion_lon": 0.0, "lon": -77.01211083333334, "name": "8663c34a2d77244db65daffb38a21228", "is_disabled": 0, "rental_uris": {"android": "https://dc.lft.to/lastmile_qr_scan", "ios": "https://dc.lft.to/lastmile_qr_scan"}, "type": "electric_scooter", "lat": 38.87091233333334, "is_reserved": 0, "fusion_lat": 0.0}, {"bike_id": "34c894d7376ba650f054f1b12a0d03b9", "fusion_lon": 0.0, "lon": -77.03209466666667, "name": "34c894d7376ba650f054f1b12a0d03b9", "is_disabled": 0, "rental_uris": {"android": "https://dc.lft.to/lastmile_qr_scan", "ios": "https://dc.lft.to/lastmile_qr_scan"}, "type": "electric_bike", "lat": 38.933134333333335, "is_reserved": 0, "fusion_lat": 0.0}, {"bike_id": "f532aa010be8f5ab858f40fab3666c09", "fusion_lon": 0.0, "lon": -76.97729033333333, "name": "f532aa010be8f5ab858f40fab3666c09", "is_disabled": 0, "rental_uris": {"android": "https://dc.lft.to/lastmile_qr_scan", "ios": "https://dc.lft.to/lastmile_qr_scan"}, "type": "electric_scooter", "lat": 38.89514583333333, "is_reserved": 0, "fusion_lat": 0.0}, {"bike_id": "2f607801d1a8efec902016d02ebbcab1", "fusion_lon": 0.0, "lon": -77.01609116666667, "name": "2f607801d1a8efec902016d02ebbcab1", "is_disabled": 0, "rental_uris": {"android": "https://dc.lft.to/lastmile_qr_scan", "ios": "https://dc.lft.to/lastmile_qr_scan"}, "type": "electric_scooter", "lat": 38.895246666666665, "is_reserved": 0, "fusion_lat": 0.0}, {"bike_id": "01828efda4e02b4489fdd490606f3d7a", "fusion_lon": 0.0, "lon": -77.06871883333334, "name": "01828efda4e02b4489fdd490606f3d7a", "is_disabled": 0, "rental_uris": {"android": "https://dc.lft.to/lastmile_qr_scan", "ios": "https://dc.lft.to/lastmile_qr_scan"}, "type": "electric_scooter", "lat": 38.9528455, "is_reserved": 0, "fusion_lat": 0.0}, {"bike_id": "2833165b14015b871a5ca66dc94b5ddb", "fusion_lon": 0.0, "lon": -76.99164383333333, "name": "2833165b14015b871a5ca66dc94b5ddb", "is_disabled": 0, "rental_uris": {"android": "https://dc.lft.to/lastmile_qr_scan", "ios": "https://dc.lft.to/lastmile_qr_scan"}, "type": "electric_scooter", "lat": 38.86311883333333, "is_reserved": 0, "fusion_lat": 0.0}, {"bike_id": "29fe2fc43674fc7bc6978125cb198ec0", "fusion_lon": 0.0, "lon": -76.939875, "name": "29fe2fc43674fc7bc6978125cb198ec0", "is_disabled": 0, "rental_uris": {"android": "https://dc.lft.to/lastmile_qr_scan", "ios": "https://dc.lft.to/lastmile_qr_scan"}, "type": "electric_scooter", "lat": 38.89981816666667, "is_reserved": 0, "fusion_lat": 0.0}, {"bike_id": "ca6ece77f4cf17f3e24dc07ddc80e82f", "fusion_lon": 0.0, "lon": -77.02376383333333, "name": "ca6ece77f4cf17f3e24dc07ddc80e82f", "is_disabled": 0, "rental_uris": {"android": "https://dc.lft.to/lastmile_qr_scan", "ios": "https://dc.lft.to/lastmile_qr_scan"}, "type": "electric_scooter", "lat": 38.9021195, "is_reserved": 0, "fusion_lat": 0.0}, {"bike_id": "5950d283a1f7ef5124e6e2669d9d21d0", "fusion_lon": 0.0, "lon": -77.02760016666667, "name": "5950d283a1f7ef5124e6e2669d9d21d0", "is_disabled": 0, "rental_uris": {"android": "https://dc.lft.to/lastmile_qr_scan", "ios": "https://dc.lft.to/lastmile_qr_scan"}, "type": "electric_scooter", "lat": 38.954315333333334, "is_reserved": 0, "fusion_lat": 0.0}, {"bike_id": "c3942bc600183e88b47a4606388cd45a", "fusion_lon": 0.0, "lon": -77.02943116666667, "name": "c3942bc600183e88b47a4606388cd45a", "is_disabled": 0, "rental_uris": {"android": "https://dc.lft.to/lastmile_qr_scan", "ios": "https://dc.lft.to/lastmile_qr_scan"}, "type": "electric_scooter", "lat": 38.90490233333333, "is_reserved": 0, "fusion_lat": 0.0}, {"bike_id": "ecab29a7fb3679a6049f99e884f2f349", "fusion_lon": 0.0, "lon": -77.044505, "name": "ecab29a7fb3679a6049f99e884f2f349", "is_disabled": 0, "rental_uris": {"android": "https://dc.lft.to/lastmile_qr_scan", "ios": "https://dc.lft.to/lastmile_qr_scan"}, "type": "electric_scooter", "lat": 38.930228, "is_reserved": 0, "fusion_lat": 0.0}, {"bike_id": "69381f68a78e0414fa8ea69953e19d1d", "fusion_lon": 0.0, "lon": -77.046642, "name": "69381f68a78e0414fa8ea69953e19d1d", "is_disabled": 0, "rental_uris": {"android": "https://dc.lft.to/lastmile_qr_scan", "ios": "https://dc.lft.to/lastmile_qr_scan"}, "type": "electric_scooter", "lat": 38.900690833333336, "is_reserved": 0, "fusion_lat": 0.0}, {"bike_id": "bc0123bb0a60ec3b1b06b373bb4b33fa", "fusion_lon": 0.0, "lon": -77.036643, "name": "bc0123bb0a60ec3b1b06b373bb4b33fa", "is_disabled": 0, "rental_uris": {"android": "https://dc.lft.to/lastmile_qr_scan", "ios": "https://dc.lft.to/lastmile_qr_scan"}, "type": "electric_scooter", "lat": 38.922938, "is_reserved": 0, "fusion_lat": 0.0}, {"bike_id": "e7bf29e1e4c030bec3742642835a7e0e", "fusion_lon": 0.0, "lon": -77.0181605, "name": "e7bf29e1e4c030bec3742642835a7e0e", "is_disabled": 0, "rental_uris": {"android": "https://dc.lft.to/lastmile_qr_scan", "ios": "https://dc.lft.to/lastmile_qr_scan"}, "type": "electric_scooter", "lat": 38.9223165, "is_reserved": 0, "fusion_lat": 0.0}, {"bike_id": "dd8e823e8165bfab1e99eb58d9716fdf", "fusion_lon": 0.0, "lon": -77.0209715, "name": "dd8e823e8165bfab1e99eb58d9716fdf", "is_disabled": 0, "rental_uris": {"android": "https://dc.lft.to/lastmile_qr_scan", "ios": "https://dc.lft.to/lastmile_qr_scan"}, "type": "electric_scooter", "lat": 38.88490983333333, "is_reserved": 0, "fusion_lat": 0.0}, {"bike_id": "c6d0cb8f4c16e0812753b4fd59b42fbc", "fusion_lon": 0.0, "lon": -77.01033583333333, "name": "c6d0cb8f4c16e0812753b4fd59b42fbc", "is_disabled": 0, "rental_uris": {"android": "https://dc.lft.to/lastmile_qr_scan", "ios": "https://dc.lft.to/lastmile_qr_scan"}, "type": "electric_bike", "lat": 38.958821666666665, "is_reserved": 0, "fusion_lat": 0.0}, {"bike_id": "7532c965d8864615bb0833a5532ad9c1", "fusion_lon": 0.0, "lon": -77.00548, "name": "7532c965d8864615bb0833a5532ad9c1", "is_disabled": 0, "rental_uris": {"android": "https://dc.lft.to/lastmile_qr_scan", "ios": "https://dc.lft.to/lastmile_qr_scan"}, "type": "electric_bike", "lat": 38.90555666666667, "is_reserved": 0, "fusion_lat": 0.0}, {"bike_id": "dc06850112a39180c0a6bc3fb3d9d9e3", "fusion_lon": 0.0, "lon": -76.98494766666667, "name": "dc06850112a39180c0a6bc3fb3d9d9e3", "is_disabled": 0, "rental_uris": {"android": "https://dc.lft.to/lastmile_qr_scan", "ios": "https://dc.lft.to/lastmile_qr_scan"}, "type": "electric_scooter", "lat": 38.89362033333333, "is_reserved": 0, "fusion_lat": 0.0}, {"bike_id": "19385c93d8ef21ad9a7388e773ad559d", "fusion_lon": 0.0, "lon": -77.03891433333334, "name": "19385c93d8ef21ad9a7388e773ad559d", "is_disabled": 0, "rental_uris": {"android": "https://dc.lft.to/lastmile_qr_scan", "ios": "https://dc.lft.to/lastmile_qr_scan"}, "type": "electric_scooter", "lat": 38.91858416666667, "is_reserved": 0, "fusion_lat": 0.0}, {"bike_id": "cb627633fb96492704a49c00d730c874", "fusion_lon": 0.0, "lon": -76.97705583333334, "name": "cb627633fb96492704a49c00d730c874", "is_disabled": 0, "rental_uris": {"android": "https://dc.lft.to/lastmile_qr_scan", "ios": "https://dc.lft.to/lastmile_qr_scan"}, "type": "electric_scooter", "lat": 38.902543333333334, "is_reserved": 0, "fusion_lat": 0.0}, {"bike_id": "abff4e303a21cd1ed233eceffacc12ae", "fusion_lon": 0.0, "lon": -77.0305105, "name": "abff4e303a21cd1ed233eceffacc12ae", "is_disabled": 0, "rental_uris": {"android": "https://dc.lft.to/lastmile_qr_scan", "ios": "https://dc.lft.to/lastmile_qr_scan"}, "type": "electric_scooter", "lat": 38.9346425, "is_reserved": 0, "fusion_lat": 0.0}, {"bike_id": "b49481ede279c208d847718d1e17e943", "fusion_lon": 0.0, "lon": -77.0418625, "name": "b49481ede279c208d847718d1e17e943", "is_disabled": 0, "rental_uris": {"android": "https://dc.lft.to/lastmile_qr_scan", "ios": "https://dc.lft.to/lastmile_qr_scan"}, "type": "electric_scooter", "lat": 38.920585333333335, "is_reserved": 0, "fusion_lat": 0.0}, {"bike_id": "90c4e488a8a4be673dfda0900a360850", "fusion_lon": 0.0, "lon": -77.0181145, "name": "90c4e488a8a4be673dfda0900a360850", "is_disabled": 0, "rental_uris": {"android": "https://dc.lft.to/lastmile_qr_scan", "ios": "https://dc.lft.to/lastmile_qr_scan"}, "type": "electric_scooter", "lat": 38.90826066666666, "is_reserved": 0, "fusion_lat": 0.0}, {"bike_id": "88f3f41d2b65232e35b66826a210ab95", "fusion_lon": 0.0, "lon": -77.03465283333334, "name": "88f3f41d2b65232e35b66826a210ab95", "is_disabled": 0, "rental_uris": {"android": "https://dc.lft.to/lastmile_qr_scan", "ios": "https://dc.lft.to/lastmile_qr_scan"}, "type": "electric_scooter", "lat": 38.90756583333334, "is_reserved": 0, "fusion_lat": 0.0}, {"bike_id": "76e9f2530a2d52333e470b7ed16624fa", "fusion_lon": 0.0, "lon": -77.033501, "name": "76e9f2530a2d52333e470b7ed16624fa", "is_disabled": 0, "rental_uris": {"android": "https://dc.lft.to/lastmile_qr_scan", "ios": "https://dc.lft.to/lastmile_qr_scan"}, "type": "electric_scooter", "lat": 38.89842083333333, "is_reserved": 0, "fusion_lat": 0.0}, {"bike_id": "27b24c41fe2d3bd73457c7abff1a0992", "fusion_lon": 0.0, "lon": -77.02325716666667, "name": "27b24c41fe2d3bd73457c7abff1a0992", "is_disabled": 0, "rental_uris": {"android": "https://dc.lft.to/lastmile_qr_scan", "ios": "https://dc.lft.to/lastmile_qr_scan"}, "type": "electric_scooter", "lat": 38.927173, "is_reserved": 0, "fusion_lat": 0.0}, {"bike_id": "50a84b0dcada84d37ce3c422d349b839", "fusion_lon": 0.0, "lon": -76.99083833333333, "name": "50a84b0dcada84d37ce3c422d349b839", "is_disabled": 0, "rental_uris": {"android": "https://dc.lft.to/lastmile_qr_scan", "ios": "https://dc.lft.to/lastmile_qr_scan"}, "type": "electric_scooter", "lat": 38.929557833333334, "is_reserved": 0, "fusion_lat": 0.0}, {"bike_id": "26f42640c26c80d243e443a350facd89", "fusion_lon": 0.0, "lon": -77.016568, "name": "26f42640c26c80d243e443a350facd89", "is_disabled": 0, "rental_uris": {"android": "https://dc.lft.to/lastmile_qr_scan", "ios": "https://dc.lft.to/lastmile_qr_scan"}, "type": "electric_scooter", "lat": 38.91588083333333, "is_reserved": 0, "fusion_lat": 0.0}, {"bike_id": "eea0a92f31cfc2be3b135164a6773881", "fusion_lon": 0.0, "lon": -77.03504216666667, "name": "eea0a92f31cfc2be3b135164a6773881", "is_disabled": 0, "rental_uris": {"android": "https://dc.lft.to/lastmile_qr_scan", "ios": "https://dc.lft.to/lastmile_qr_scan"}, "type": "electric_scooter", "lat": 38.92638266666667, "is_reserved": 0, "fusion_lat": 0.0}, {"bike_id": "1f1cd32ac9b2709ca6de8beb7d24821f", "fusion_lon": 0.0, "lon": -77.00926483333333, "name": "1f1cd32ac9b2709ca6de8beb7d24821f", "is_disabled": 0, "rental_uris": {"android": "https://dc.lft.to/lastmile_qr_scan", "ios": "https://dc.lft.to/lastmile_qr_scan"}, "type": "electric_scooter", "lat": 38.91266866666667, "is_reserved": 0, "fusion_lat": 0.0}, {"bike_id": "174a7171d3ba3fcf7d80bf7b709609ce", "fusion_lon": 0.0, "lon": -77.02842566666666, "name": "174a7171d3ba3fcf7d80bf7b709609ce", "is_disabled": 0, "rental_uris": {"android": "https://dc.lft.to/lastmile_qr_scan", "ios": "https://dc.lft.to/lastmile_qr_scan"}, "type": "electric_scooter", "lat": 38.927707833333336, "is_reserved": 0, "fusion_lat": 0.0}, {"bike_id": "898bca4b0e362239ae26fcda25ab7624", "fusion_lon": 0.0, "lon": -77.0588535, "name": "898bca4b0e362239ae26fcda25ab7624", "is_disabled": 0, "rental_uris": {"android": "https://dc.lft.to/lastmile_qr_scan", "ios": "https://dc.lft.to/lastmile_qr_scan"}, "type": "electric_scooter", "lat": 38.918277333333336, "is_reserved": 0, "fusion_lat": 0.0}, {"bike_id": "93f9617d33d6eaef914702e6ffaca508", "fusion_lon": 0.0, "lon": -76.98400083333334, "name": "93f9617d33d6eaef914702e6ffaca508", "is_disabled": 0, "rental_uris": {"android": "https://dc.lft.to/lastmile_qr_scan", "ios": "https://dc.lft.to/lastmile_qr_scan"}, "type": "electric_scooter", "lat": 38.86700033333334, "is_reserved": 0, "fusion_lat": 0.0}, {"bike_id": "83b7e53cb2d3f251c2c3dd42782f5ca0", "fusion_lon": 0.0, "lon": -77.03212616666667, "name": "83b7e53cb2d3f251c2c3dd42782f5ca0", "is_disabled": 0, "rental_uris": {"android": "https://dc.lft.to/lastmile_qr_scan", "ios": "https://dc.lft.to/lastmile_qr_scan"}, "type": "electric_scooter", "lat": 38.917133166666666, "is_reserved": 0, "fusion_lat": 0.0}, {"bike_id": "745cb084e7b7f7cb1463400e2c633d38", "fusion_lon": 0.0, "lon": -77.03465716666666, "name": "745cb084e7b7f7cb1463400e2c633d38", "is_disabled": 0, "rental_uris": {"android": "https://dc.lft.to/lastmile_qr_scan", "ios": "https://dc.lft.to/lastmile_qr_scan"}, "type": "electric_scooter", "lat": 38.90799616666666, "is_reserved": 0, "fusion_lat": 0.0}, {"bike_id": "5c643844d5885a2d0f85ea92812a8299", "fusion_lon": 0.0, "lon": -76.99394333333333, "name": "5c643844d5885a2d0f85ea92812a8299", "is_disabled": 0, "rental_uris": {"android": "https://dc.lft.to/lastmile_qr_scan", "ios": "https://dc.lft.to/lastmile_qr_scan"}, "type": "electric_scooter", "lat": 38.92172466666667, "is_reserved": 0, "fusion_lat": 0.0}, {"bike_id": "1c45e953b0a8dec39542fe955ce39aec", "fusion_lon": 0.0, "lon": -77.0323605, "name": "1c45e953b0a8dec39542fe955ce39aec", "is_disabled": 0, "rental_uris": {"android": "https://dc.lft.to/lastmile_qr_scan", "ios": "https://dc.lft.to/lastmile_qr_scan"}, "type": "electric_scooter", "lat": 38.905308833333336, "is_reserved": 0, "fusion_lat": 0.0}, {"bike_id": "fcf0b06624a39e5c728851ce234c14a0", "fusion_lon": 0.0, "lon": -77.05907166666667, "name": "fcf0b06624a39e5c728851ce234c14a0", "is_disabled": 0, "rental_uris": {"android": "https://dc.lft.to/lastmile_qr_scan", "ios": "https://dc.lft.to/lastmile_qr_scan"}, "type": "electric_scooter", "lat": 38.9335025, "is_reserved": 0, "fusion_lat": 0.0}, {"bike_id": "5a6facd2c8c23383d1bd35eaa9a6c886", "fusion_lon": 0.0, "lon": -77.03466333333333, "name": "5a6facd2c8c23383d1bd35eaa9a6c886", "is_disabled": 0, "rental_uris": {"android": "https://dc.lft.to/lastmile_qr_scan", "ios": "https://dc.lft.to/lastmile_qr_scan"}, "type": "electric_scooter", "lat": 38.90757766666667, "is_reserved": 0, "fusion_lat": 0.0}, {"bike_id": "cc1d6f6e898d6c2af8a282caddb46f27", "fusion_lon": 0.0, "lon": -77.02671083333334, "name": "cc1d6f6e898d6c2af8a282caddb46f27", "is_disabled": 0, "rental_uris": {"android": "https://dc.lft.to/lastmile_qr_scan", "ios": "https://dc.lft.to/lastmile_qr_scan"}, "type": "electric_scooter", "lat": 38.97192533333333, "is_reserved": 0, "fusion_lat": 0.0}, {"bike_id": "f993d9314c0828769843ccc32db892a3", "fusion_lon": 0.0, "lon": -77.0340435, "name": "f993d9314c0828769843ccc32db892a3", "is_disabled": 0, "rental_uris": {"android": "https://dc.lft.to/lastmile_qr_scan", "ios": "https://dc.lft.to/lastmile_qr_scan"}, "type": "electric_scooter", "lat": 38.920500833333335, "is_reserved": 0, "fusion_lat": 0.0}, {"bike_id": "a442f0514a0b78c937206c43051b1d53", "fusion_lon": 0.0, "lon": -76.93344366666666, "name": "a442f0514a0b78c937206c43051b1d53", "is_disabled": 0, "rental_uris": {"android": "https://dc.lft.to/lastmile_qr_scan", "ios": "https://dc.lft.to/lastmile_qr_scan"}, "type": "electric_scooter", "lat": 38.88814833333333, "is_reserved": 0, "fusion_lat": 0.0}, {"bike_id": "af093a0a0d3a793c034087005872d945", "fusion_lon": 0.0, "lon": -77.02692883333333, "name": "af093a0a0d3a793c034087005872d945", "is_disabled": 0, "rental_uris": {"android": "https://dc.lft.to/lastmile_qr_scan", "ios": "https://dc.lft.to/lastmile_qr_scan"}, "type": "electric_scooter", "lat": 38.89835133333333, "is_reserved": 0, "fusion_lat": 0.0}, {"bike_id": "8a25ff3c193ac77010774f0fdf50f535", "fusion_lon": 0.0, "lon": -76.98783383333334, "name": "8a25ff3c193ac77010774f0fdf50f535", "is_disabled": 0, "rental_uris": {"android": "https://dc.lft.to/lastmile_qr_scan", "ios": "https://dc.lft.to/lastmile_qr_scan"}, "type": "electric_bike", "lat": 38.86603083333333, "is_reserved": 0, "fusion_lat": 0.0}, {"bike_id": "cac1cfb4a5a4de9210f4942d6eefa6ad", "fusion_lon": 0.0, "lon": -77.02474983333333, "name": "cac1cfb4a5a4de9210f4942d6eefa6ad", "is_disabled": 0, "rental_uris": {"android": "https://dc.lft.to/lastmile_qr_scan", "ios": "https://dc.lft.to/lastmile_qr_scan"}, "type": "electric_scooter", "lat": 38.93100883333334, "is_reserved": 0, "fusion_lat": 0.0}, {"bike_id": "088b69cf9295ec01a33edf6b07848154", "fusion_lon": 0.0, "lon": -77.02202466666667, "name": "088b69cf9295ec01a33edf6b07848154", "is_disabled": 0, "rental_uris": {"android": "https://dc.lft.to/lastmile_qr_scan", "ios": "https://dc.lft.to/lastmile_qr_scan"}, "type": "electric_scooter", "lat": 38.911018, "is_reserved": 0, "fusion_lat": 0.0}, {"bike_id": "5475d7f68e83d3cf840b018f678defca", "fusion_lon": 0.0, "lon": -77.0308325, "name": "5475d7f68e83d3cf840b018f678defca", "is_disabled": 0, "rental_uris": {"android": "https://dc.lft.to/lastmile_qr_scan", "ios": "https://dc.lft.to/lastmile_qr_scan"}, "type": "electric_scooter", "lat": 38.90724616666667, "is_reserved": 0, "fusion_lat": 0.0}, {"bike_id": "b86f8f65098e1248ea332e175d549f64", "fusion_lon": 0.0, "lon": -77.03423283333333, "name": "b86f8f65098e1248ea332e175d549f64", "is_disabled": 0, "rental_uris": {"android": "https://dc.lft.to/lastmile_qr_scan", "ios": "https://dc.lft.to/lastmile_qr_scan"}, "type": "electric_bike", "lat": 38.96622283333333, "is_reserved": 0, "fusion_lat": 0.0}, {"bike_id": "ddbbe6dd16e1a83c13a924ee2ba4f45b", "fusion_lon": 0.0, "lon": -76.98352933333334, "name": "ddbbe6dd16e1a83c13a924ee2ba4f45b", "is_disabled": 0, "rental_uris": {"android": "https://dc.lft.to/lastmile_qr_scan", "ios": "https://dc.lft.to/lastmile_qr_scan"}, "type": "electric_scooter", "lat": 38.90634, "is_reserved": 0, "fusion_lat": 0.0}, {"bike_id": "48848092943cc9bab293e98b1571079a", "fusion_lon": 0.0, "lon": -77.04120116666667, "name": "48848092943cc9bab293e98b1571079a", "is_disabled": 0, "rental_uris": {"android": "https://dc.lft.to/lastmile_qr_scan", "ios": "https://dc.lft.to/lastmile_qr_scan"}, "type": "electric_scooter", "lat": 38.92143316666667, "is_reserved": 0, "fusion_lat": 0.0}, {"bike_id": "68be24079bec10eba376b011185039dd", "fusion_lon": 0.0, "lon": -76.93732916666667, "name": "68be24079bec10eba376b011185039dd", "is_disabled": 0, "rental_uris": {"android": "https://dc.lft.to/lastmile_qr_scan", "ios": "https://dc.lft.to/lastmile_qr_scan"}, "type": "electric_scooter", "lat": 38.89017283333333, "is_reserved": 0, "fusion_lat": 0.0}, {"bike_id": "12f448c1e3fe4589872b25c0daaac024", "fusion_lon": 0.0, "lon": -77.003382, "name": "12f448c1e3fe4589872b25c0daaac024", "is_disabled": 0, "rental_uris": {"android": "https://dc.lft.to/lastmile_qr_scan", "ios": "https://dc.lft.to/lastmile_qr_scan"}, "type": "electric_scooter", "lat": 38.895242, "is_reserved": 0, "fusion_lat": 0.0}, {"bike_id": "501d92dac32a90af5132d00f537c09ab", "fusion_lon": 0.0, "lon": -76.973445, "name": "501d92dac32a90af5132d00f537c09ab", "is_disabled": 0, "rental_uris": {"android": "https://dc.lft.to/lastmile_qr_scan", "ios": "https://dc.lft.to/lastmile_qr_scan"}, "type": "electric_scooter", "lat": 38.865121, "is_reserved": 0, "fusion_lat": 0.0}, {"bike_id": "83e8ae94022637a2cc872f70237de34c", "fusion_lon": 0.0, "lon": -77.1179925, "name": "83e8ae94022637a2cc872f70237de34c", "is_disabled": 0, "rental_uris": {"android": "https://dc.lft.to/lastmile_qr_scan", "ios": "https://dc.lft.to/lastmile_qr_scan"}, "type": "electric_bike", "lat": 38.8737615, "is_reserved": 0, "fusion_lat": 0.0}, {"bike_id": "758626541ee39a05b4408966b2b85608", "fusion_lon": 0.0, "lon": -77.02824783333334, "name": "758626541ee39a05b4408966b2b85608", "is_disabled": 0, "rental_uris": {"android": "https://dc.lft.to/lastmile_qr_scan", "ios": "https://dc.lft.to/lastmile_qr_scan"}, "type": "electric_scooter", "lat": 38.920671166666665, "is_reserved": 0, "fusion_lat": 0.0}, {"bike_id": "1d9b096e9ece8777cde2aeed94c7ff45", "fusion_lon": 0.0, "lon": -77.03420133333333, "name": "1d9b096e9ece8777cde2aeed94c7ff45", "is_disabled": 0, "rental_uris": {"android": "https://dc.lft.to/lastmile_qr_scan", "ios": "https://dc.lft.to/lastmile_qr_scan"}, "type": "electric_scooter", "lat": 38.91927483333333, "is_reserved": 0, "fusion_lat": 0.0}, {"bike_id": "b2e8b27ef24bc535267ae6acd0ee56bf", "fusion_lon": 0.0, "lon": -77.02619966666667, "name": "b2e8b27ef24bc535267ae6acd0ee56bf", "is_disabled": 0, "rental_uris": {"android": "https://dc.lft.to/lastmile_qr_scan", "ios": "https://dc.lft.to/lastmile_qr_scan"}, "type": "electric_bike", "lat": 38.96932983333333, "is_reserved": 0, "fusion_lat": 0.0}, {"bike_id": "88bfee10af7c3492c3db167d177f0b0b", "fusion_lon": 0.0, "lon": -77.02378566666667, "name": "88bfee10af7c3492c3db167d177f0b0b", "is_disabled": 0, "rental_uris": {"android": "https://dc.lft.to/lastmile_qr_scan", "ios": "https://dc.lft.to/lastmile_qr_scan"}, "type": "electric_bike", "lat": 38.92910416666667, "is_reserved": 0, "fusion_lat": 0.0}, {"bike_id": "1f94705d6708d1503f16ad753e61aa19", "fusion_lon": 0.0, "lon": -77.01988166666666, "name": "1f94705d6708d1503f16ad753e61aa19", "is_disabled": 0, "rental_uris": {"android": "https://dc.lft.to/lastmile_qr_scan", "ios": "https://dc.lft.to/lastmile_qr_scan"}, "type": "electric_scooter", "lat": 38.93127766666667, "is_reserved": 0, "fusion_lat": 0.0}, {"bike_id": "8c113dc06497868abb3944664fc5f741", "fusion_lon": 0.0, "lon": -76.9652825, "name": "8c113dc06497868abb3944664fc5f741", "is_disabled": 0, "rental_uris": {"android": "https://dc.lft.to/lastmile_qr_scan", "ios": "https://dc.lft.to/lastmile_qr_scan"}, "type": "electric_scooter", "lat": 38.8763325, "is_reserved": 0, "fusion_lat": 0.0}, {"bike_id": "6447b7ecb5b60476057a8d240103905e", "fusion_lon": 0.0, "lon": -77.04273583333334, "name": "6447b7ecb5b60476057a8d240103905e", "is_disabled": 0, "rental_uris": {"android": "https://dc.lft.to/lastmile_qr_scan", "ios": "https://dc.lft.to/lastmile_qr_scan"}, "type": "electric_scooter", "lat": 38.908353166666664, "is_reserved": 0, "fusion_lat": 0.0}, {"bike_id": "bf036fdf6353b402019480d68fffcb54", "fusion_lon": 0.0, "lon": -77.04336966666666, "name": "bf036fdf6353b402019480d68fffcb54", "is_disabled": 0, "rental_uris": {"android": "https://dc.lft.to/lastmile_qr_scan", "ios": "https://dc.lft.to/lastmile_qr_scan"}, "type": "electric_scooter", "lat": 38.90732966666667, "is_reserved": 0, "fusion_lat": 0.0}, {"bike_id": "21dc1df263597ff0afddf7ac75c935f8", "fusion_lon": 0.0, "lon": -76.96527783333333, "name": "21dc1df263597ff0afddf7ac75c935f8", "is_disabled": 0, "rental_uris": {"android": "https://dc.lft.to/lastmile_qr_scan", "ios": "https://dc.lft.to/lastmile_qr_scan"}, "type": "electric_scooter", "lat": 38.8762865, "is_reserved": 0, "fusion_lat": 0.0}, {"bike_id": "472c20ce0a325b0eeb0f0e6849f5a697", "fusion_lon": 0.0, "lon": -77.03840766666667, "name": "472c20ce0a325b0eeb0f0e6849f5a697", "is_disabled": 0, "rental_uris": {"android": "https://dc.lft.to/lastmile_qr_scan", "ios": "https://dc.lft.to/lastmile_qr_scan"}, "type": "electric_scooter", "lat": 38.91094866666667, "is_reserved": 0, "fusion_lat": 0.0}, {"bike_id": "70a1d572811a94bc3c6fb42e8e57da7d", "fusion_lon": 0.0, "lon": -77.03530783333333, "name": "70a1d572811a94bc3c6fb42e8e57da7d", "is_disabled": 0, "rental_uris": {"android": "https://dc.lft.to/lastmile_qr_scan", "ios": "https://dc.lft.to/lastmile_qr_scan"}, "type": "electric_scooter", "lat": 38.916976166666664, "is_reserved": 0, "fusion_lat": 0.0}, {"bike_id": "95a41f647ad0c4d4072d358d906e12a5", "fusion_lon": 0.0, "lon": -77.03061366666667, "name": "95a41f647ad0c4d4072d358d906e12a5", "is_disabled": 0, "rental_uris": {"android": "https://dc.lft.to/lastmile_qr_scan", "ios": "https://dc.lft.to/lastmile_qr_scan"}, "type": "electric_bike", "lat": 38.95953683333333, "is_reserved": 0, "fusion_lat": 0.0}, {"bike_id": "402d8e8fa85f4dafaffc432e5c49e0fe", "fusion_lon": 0.0, "lon": -76.95756733333333, "name": "402d8e8fa85f4dafaffc432e5c49e0fe", "is_disabled": 0, "rental_uris": {"android": "https://dc.lft.to/lastmile_qr_scan", "ios": "https://dc.lft.to/lastmile_qr_scan"}, "type": "electric_scooter", "lat": 38.884295, "is_reserved": 0, "fusion_lat": 0.0}, {"bike_id": "1b6aa547bb94652d01dc26f353287c47", "fusion_lon": 0.0, "lon": -77.044805, "name": "1b6aa547bb94652d01dc26f353287c47", "is_disabled": 0, "rental_uris": {"android": "https://dc.lft.to/lastmile_qr_scan", "ios": "https://dc.lft.to/lastmile_qr_scan"}, "type": "electric_scooter", "lat": 38.91167866666667, "is_reserved": 0, "fusion_lat": 0.0}, {"bike_id": "859009f6847bc345b6f3fca9b3e72033", "fusion_lon": 0.0, "lon": -76.99779333333333, "name": "859009f6847bc345b6f3fca9b3e72033", "is_disabled": 0, "rental_uris": {"android": "https://dc.lft.to/lastmile_qr_scan", "ios": "https://dc.lft.to/lastmile_qr_scan"}, "type": "electric_scooter", "lat": 38.844257166666665, "is_reserved": 0, "fusion_lat": 0.0}, {"bike_id": "03f58f2c07fb83db10385be0c7c33c75", "fusion_lon": 0.0, "lon": -77.106003, "name": "03f58f2c07fb83db10385be0c7c33c75", "is_disabled": 0, "rental_uris": {"android": "https://dc.lft.to/lastmile_qr_scan", "ios": "https://dc.lft.to/lastmile_qr_scan"}, "type": "electric_bike", "lat": 38.928962166666665, "is_reserved": 0, "fusion_lat": 0.0}, {"bike_id": "686899a6c0ff760684e91676e39d3360", "fusion_lon": 0.0, "lon": -77.04591433333333, "name": "686899a6c0ff760684e91676e39d3360", "is_disabled": 0, "rental_uris": {"android": "https://dc.lft.to/lastmile_qr_scan", "ios": "https://dc.lft.to/lastmile_qr_scan"}, "type": "electric_scooter", "lat": 38.91858633333333, "is_reserved": 0, "fusion_lat": 0.0}, {"bike_id": "b47f91d35015206e36fcf95a51e7497b", "fusion_lon": 0.0, "lon": -77.00276033333333, "name": "b47f91d35015206e36fcf95a51e7497b", "is_disabled": 0, "rental_uris": {"android": "https://dc.lft.to/lastmile_qr_scan", "ios": "https://dc.lft.to/lastmile_qr_scan"}, "type": "electric_scooter", "lat": 38.9060455, "is_reserved": 0, "fusion_lat": 0.0}, {"bike_id": "a2cd70aeff185cb84fc92ab043480ab6", "fusion_lon": 0.0, "lon": -77.02588483333334, "name": "a2cd70aeff185cb84fc92ab043480ab6", "is_disabled": 0, "rental_uris": {"android": "https://dc.lft.to/lastmile_qr_scan", "ios": "https://dc.lft.to/lastmile_qr_scan"}, "type": "electric_scooter", "lat": 38.90557833333333, "is_reserved": 0, "fusion_lat": 0.0}, {"bike_id": "1c9b2a7d8aae797cb7ece6e839edb5e6", "fusion_lon": 0.0, "lon": -77.01580366666667, "name": "1c9b2a7d8aae797cb7ece6e839edb5e6", "is_disabled": 0, "rental_uris": {"android": "https://dc.lft.to/lastmile_qr_scan", "ios": "https://dc.lft.to/lastmile_qr_scan"}, "type": "electric_scooter", "lat": 38.916833, "is_reserved": 0, "fusion_lat": 0.0}, {"bike_id": "f35622366b07c2b0dd628749b1ea650c", "fusion_lon": 0.0, "lon": -76.94968683333333, "name": "f35622366b07c2b0dd628749b1ea650c", "is_disabled": 0, "rental_uris": {"android": "https://dc.lft.to/lastmile_qr_scan", "ios": "https://dc.lft.to/lastmile_qr_scan"}, "type": "electric_scooter", "lat": 38.893609833333336, "is_reserved": 0, "fusion_lat": 0.0}, {"bike_id": "3e080c09d4206ab60d935a248ce36f7c", "fusion_lon": 0.0, "lon": -77.0347515, "name": "3e080c09d4206ab60d935a248ce36f7c", "is_disabled": 0, "rental_uris": {"android": "https://dc.lft.to/lastmile_qr_scan", "ios": "https://dc.lft.to/lastmile_qr_scan"}, "type": "electric_scooter", "lat": 38.905581, "is_reserved": 0, "fusion_lat": 0.0}, {"bike_id": "34179a06849204548e7611fa2b6a1f34", "fusion_lon": 0.0, "lon": -77.04858483333334, "name": "34179a06849204548e7611fa2b6a1f34", "is_disabled": 0, "rental_uris": {"android": "https://dc.lft.to/lastmile_qr_scan", "ios": "https://dc.lft.to/lastmile_qr_scan"}, "type": "electric_scooter", "lat": 38.91530516666667, "is_reserved": 0, "fusion_lat": 0.0}, {"bike_id": "f27a20c370d5068e22c8867a43206f37", "fusion_lon": 0.0, "lon": -77.00089983333334, "name": "f27a20c370d5068e22c8867a43206f37", "is_disabled": 0, "rental_uris": {"android": "https://dc.lft.to/lastmile_qr_scan", "ios": "https://dc.lft.to/lastmile_qr_scan"}, "type": "electric_scooter", "lat": 38.87642683333333, "is_reserved": 0, "fusion_lat": 0.0},