{"data": {"bikes": [{"bike_id": "74bb9f6b293161996c485de2cb88f49c", "type": "electric_scooter", "is_disabled": 0, "lat": 38.90465533333333, "rental_uris": {"ios": "https://dc.lft.to/lastmile_qr_scan", "android": "https://dc.lft.to/lastmile_qr_scan"}, "is_reserved": 0, "fusion_lon": 0.0, "fusion_lat": 0.0, "lon": -76.976077, "name": "74bb9f6b293161996c485de2cb88f49c"}, {"bike_id": "0a4766b30aa6d8d6099d71d1e1997571", "type": "electric_scooter", "is_disabled": 0, "lat": 38.91839383333333, "rental_uris": {"ios": "https://dc.lft.to/lastmile_qr_scan", "android": "https://dc.lft.to/lastmile_qr_scan"}, "is_reserved": 0, "fusion_lon": 0.0, "fusion_lat": 0.0, "lon": -77.03174866666667, "name": "0a4766b30aa6d8d6099d71d1e1997571"}, {"bike_id": "b8dd18b4cb31da822af6960331e3388e", "type": "electric_scooter", "is_disabled": 0, "lat": 38.93415, "rental_uris": {"ios": "https://dc.lft.to/lastmile_qr_scan", "android": "https://dc.lft.to/lastmile_qr_scan"}, "is_reserved": 0, "fusion_lon": 0.0, "fusion_lat": 0.0, "lon": -77.04150116666666, "name": "b8dd18b4cb31da822af6960331e3388e"}, {"bike_id": "001ba8d62a70d012da3cba22228e0eaf", "type": "electric_bike", "is_disabled": 0, "lat": 38.9344825, "rental_uris": {"ios": "https://dc.lft.to/lastmile_qr_scan", "android": "https://dc.lft.to/lastmile_qr_scan"}, "is_reserved": 0, "fusion_lon": 0.0, "fusion_lat": 0.0, "lon": -77.041214, "name": "001ba8d62a70d012da3cba22228e0eaf"}, {"bike_id": "ae716256d29cc277148a93d4ff650554", "type": "electric_scooter", "is_disabled": 0, "lat": 38.932210166666664, "rental_uris": {"ios": "https://dc.lft.to/lastmile_qr_scan", "android": "https://dc.lft.to/lastmile_qr_scan"}, "is_reserved": 0, "fusion_lon": 0.0, "fusion_lat": 0.0, "lon": -77.0336095, "name": "ae716256d29cc277148a93d4ff650554"}, {"bike_id": "e6213091b1fbf08130e4dea8e5f81186", "type": "electric_scooter", "is_disabled": 0, "lat": 38.93466383333333, "rental_uris": {"ios": "https://dc.lft.to/lastmile_qr_scan", "android": "https://dc.lft.to/lastmile_qr_scan"}, "is_reserved": 0, "fusion_lon": 0.0, "fusion_lat": 0.0, "lon": -77.02799933333333, "name": "e6213091b1fbf08130e4dea8e5f81186"}, {"bike_id": "531b2511542fa2d7e27181fcdb661c8d", "type": "electric_scooter", "is_disabled": 0, "lat": 38.9068205, "rental_uris": {"ios": "https://dc.lft.to/lastmile_qr_scan", "android": "https://dc.lft.to/lastmile_qr_scan"}, "is_reserved": 0, "fusion_lon": 0.0, "fusion_lat": 0.0, "lon": -77.06264783333333, "name": "531b2511542fa2d7e27181fcdb661c8d"}, {"bike_id": "03a385b45761d85692b3e1bf1b7b8e8b", "type": "electric_bike", "is_disabled": 0, "lat": 38.8824695, "rental_uris": {"ios": "https://dc.lft.to/lastmile_qr_scan", "android": "https://dc.lft.to/lastmile_qr_scan"}, "is_reserved": 0, "fusion_lon": 0.0, "fusion_lat": 0.0, "lon": -76.96259816666667, "name": "03a385b45761d85692b3e1bf1b7b8e8b"}, {"bike_id": "c995b40fe38cb73931414c3be722fb35", "type": "electric_scooter", "is_disabled": 0, "lat": 38.913308666666666, "rental_uris": {"ios": "https://dc.lft.to/lastmile_qr_scan", "android": "https://dc.lft.to/lastmile_qr_scan"}, "is_reserved": 0, "fusion_lon": 0.0, "fusion_lat": 0.0, "lon": -77.03260416666667, "name": "c995b40fe38cb73931414c3be722fb35"}, {"bike_id": "76db4c561bf33954e36e2e6edee19882", "type": "electric_scooter", "is_disabled": 0, "lat": 38.907845, "rental_uris": {"ios": "https://dc.lft.to/lastmile_qr_scan", "android": "https://dc.lft.to/lastmile_qr_scan"}, "is_reserved": 0, "fusion_lon": 0.0, "fusion_lat": 0.0, "lon": -77.03859583333333, "name": "76db4c561bf33954e36e2e6edee19882"}, {"bike_id": "6663b7fc3bd37557b8e672304fbae27b", "type": "electric_scooter", "is_disabled": 0, "lat": 38.9141365, "rental_uris": {"ios": "https://dc.lft.to/lastmile_qr_scan", "android": "https://dc.lft.to/lastmile_qr_scan"}, "is_reserved": 0, "fusion_lon": 0.0, "fusion_lat": 0.0, "lon": -77.02178616666667, "name": "6663b7fc3bd37557b8e672304fbae27b"}, {"bike_id": "d2fd9b508174c6acb91626e42b516548", "type": "electric_scooter", "is_disabled": 0, "lat": 38.9295085, "rental_uris": {"ios": "https://dc.lft.to/lastmile_qr_scan", "android": "https://dc.lft.to/lastmile_qr_scan"}, "is_reserved": 0, "fusion_lon": 0.0, "fusion_lat": 0.0, "lon": -77.04402416666667, "name": "d2fd9b508174c6acb91626e42b516548"}, {"bike_id": "8e288c2575e50a6dd374d68246b4cccf", "type": "electric_bike", "is_disabled": 0, "lat": 38.93229733333333, "rental_uris": {"ios": "https://dc.lft.to/lastmile_qr_scan", "android": "https://dc.lft.to/lastmile_qr_scan"}, "is_reserved": 0, "fusion_lon": 0.0, "fusion_lat": 0.0, "lon": -77.1812175, "name": "8e288c2575e50a6dd374d68246b4cccf"}, {"bike_id": "5da7869120deff418254ff1adf822bb4", "type": "electric_scooter", "is_disabled": 0, "lat": 38.93191133333333, "rental_uris": {"ios": "https://dc.lft.to/lastmile_qr_scan", "android": "https://dc.lft.to/lastmile_qr_scan"}, "is_reserved": 0, "fusion_lon": 0.0, "fusion_lat": 0.0, "lon": -77.023922, "name": "5da7869120deff418254ff1adf822bb4"}, {"bike_id": "0bbe16fb4e2b0c20fd269b5e203f5cad", "type": "electric_scooter", "is_disabled": 0, "lat": 38.900281166666666, "rental_uris": {"ios": "https://dc.lft.to/lastmile_qr_scan", "android": "https://dc.lft.to/lastmile_qr_scan"}, "is_reserved": 0, "fusion_lon": 0.0, "fusion_lat": 0.0, "lon": -76.99862233333333, "name": "0bbe16fb4e2b0c20fd269b5e203f5cad"}, {"bike_id": "c8ac06c53a55ae668acaf7dcb32cbc70", "type": "electric_scooter", "is_disabled": 0, "lat": 38.935516166666666, "rental_uris": {"ios": "https://dc.lft.to/lastmile_qr_scan", "android": "https://dc.lft.to/lastmile_qr_scan"}, "is_reserved": 0, "fusion_lon": 0.0, "fusion_lat": 0.0, "lon": -77.03685, "name": "c8ac06c53a55ae668acaf7dcb32cbc70"}, {"bike_id": "26b1f2f64721c111bf967ce3068b1f94", "type": "electric_scooter", "is_disabled": 0, "lat": 38.9226255, "rental_uris": {"ios": "https://dc.lft.to/lastmile_qr_scan", "android": "https://dc.lft.to/lastmile_qr_scan"}, "is_reserved": 0, "fusion_lon": 0.0, "fusion_lat": 0.0, "lon": -77.042163, "name": "26b1f2f64721c111bf967ce3068b1f94"}, {"bike_id": "e380bd7772df44ef42978ad8bf7d1ffc", "type": "electric_scooter", "is_disabled": 0, "lat": 38.898596166666664, "rental_uris": {"ios": "https://dc.lft.to/lastmile_qr_scan", "android": "https://dc.lft.to/lastmile_qr_scan"}, "is_reserved": 0, "fusion_lon": 0.0, "fusion_lat": 0.0, "lon": -77.048711, "name": "e380bd7772df44ef42978ad8bf7d1ffc"}, {"bike_id": "0615528a492d94cd54699a8449657caf", "type": "electric_scooter", "is_disabled": 0, "lat": 38.91363783333333, "rental_uris": {"ios": "https://dc.lft.to/lastmile_qr_scan", "android": "https://dc.lft.to/lastmile_qr_scan"}, "is_reserved": 0, "fusion_lon": 0.0, "fusion_lat": 0.0, "lon": -77.04486733333333, "name": "0615528a492d94cd54699a8449657caf"}, {"bike_id": "efc23cf0be34ca889ee29da5d6eba63d", "type": "electric_scooter", "is_disabled": 0, "lat": 38.912812833333334, "rental_uris": {"ios": "https://dc.lft.to/lastmile_qr_scan", "android": "https://dc.lft.to/lastmile_qr_scan"}, "is_reserved": 0, "fusion_lon": 0.0, "fusion_lat": 0.0, "lon": -77.027186, "name": "efc23cf0be34ca889ee29da5d6eba63d"}, {"bike_id": "6abba61b5c69d934c65fb2a3ed1c1e8b", "type": "electric_scooter", "is_disabled": 0, "lat": 38.89719266666667, "rental_uris": {"ios": "https://dc.lft.to/lastmile_qr_scan", "android": "https://dc.lft.to/lastmile_qr_scan"}, "is_reserved": 0, "fusion_lon": 0.0, "fusion_lat": 0.0, "lon": -77.03320616666667, "name": "6abba61b5c69d934c65fb2a3ed1c1e8b"}, {"bike_id": "8b110a269f780e9f2846273ee69a001a", "type": "electric_scooter", "is_disabled": 0, "lat": 38.881264333333334, "rental_uris": {"ios": "https://dc.lft.to/lastmile_qr_scan", "android": "https://dc.lft.to/lastmile_qr_scan"}, "is_reserved": 0, "fusion_lon": 0.0, "fusion_lat": 0.0, "lon": -77.01655383333333, "name": "8b110a269f780e9f2846273ee69a001a"}, {"bike_id": "0c63c6f62b5fe2aa8d119c1207750b6c", "type": "electric_scooter", "is_disabled": 0, "lat": 38.89196, "rental_uris": {"ios": "https://dc.lft.to/lastmile_qr_scan", "android": "https://dc.lft.to/lastmile_qr_scan"}, "is_reserved": 0, "fusion_lon": 0.0, "fusion_lat": 0.0, "lon": -77.00233766666666, "name": "0c63c6f62b5fe2aa8d119c1207750b6c"}, {"bike_id": "9f9f189d354458426f29deef65ac9a60", "type": "electric_scooter", "is_disabled": 0, "lat": 38.87077566666667, "rental_uris": {"ios": "https://dc.lft.to/lastmile_qr_scan", "android": "https://dc.lft.to/lastmile_qr_scan"}, "is_reserved": 0, "fusion_lon": 0.0, "fusion_lat": 0.0, "lon": -76.98904983333334, "name": "9f9f189d354458426f29deef65ac9a60"}, {"bike_id": "fdafa301b314ed285bda6cf117552104", "type": "electric_scooter", "is_disabled": 0, "lat": 38.92086783333333, "rental_uris": {"ios": "https://dc.lft.to/lastmile_qr_scan", "android": "https://dc.lft.to/lastmile_qr_scan"}, "is_reserved": 0, "fusion_lon": 0.0, "fusion_lat": 0.0, "lon": -77.025275, "name": "fdafa301b314ed285bda6cf117552104"}, {"bike_id": "247fc3838bd08b1ba94684f8059b18af", "type": "electric_scooter", "is_disabled": 0, "lat": 38.90679883333333, "rental_uris": {"ios": "https://dc.lft.to/lastmile_qr_scan", "android": "https://dc.lft.to/lastmile_qr_scan"}, "is_reserved": 0, "fusion_lon": 0.0, "fusion_lat": 0.0, "lon": -77.071611, "name": "247fc3838bd08b1ba94684f8059b18af"}, {"bike_id": "b466f6c9ed4166493df0c7d9c27ad035", "type": "electric_scooter", "is_disabled": 0, "lat": 38.90034816666667, "rental_uris": {"ios": "https://dc.lft.to/lastmile_qr_scan", "android": "https://dc.lft.to/lastmile_qr_scan"}, "is_reserved": 0, "fusion_lon": 0.0, "fusion_lat": 0.0, "lon": -77.0009605, "name": "b466f6c9ed4166493df0c7d9c27ad035"}, {"bike_id": "d25a81fa3a6155c098cac47ec1636eea", "type": "electric_scooter", "is_disabled": 0, "lat": 38.934534166666666, "rental_uris": {"ios": "https://dc.lft.to/lastmile_qr_scan", "android": "https://dc.lft.to/lastmile_qr_scan"}, "is_reserved": 0, "fusion_lon": 0.0, "fusion_lat": 0.0, "lon": -77.03049666666666, "name": "d25a81fa3a6155c098cac47ec1636eea"}, {"bike_id": "ff3c3d247b2247cae8c789f141384655", "type": "electric_scooter", "is_disabled": 0, "lat": 38.93234433333333, "rental_uris": {"ios": "https://dc.lft.to/lastmile_qr_scan", "android": "https://dc.lft.to/lastmile_qr_scan"}, "is_reserved": 0, "fusion_lon": 0.0, "fusion_lat": 0.0, "lon": -77.03389716666666, "name": "ff3c3d247b2247cae8c789f141384655"}, {"bike_id": "307b2c05310de960b1c2da316d9c097d", "type": "electric_scooter", "is_disabled": 0, "lat": 38.91034966666667, "rental_uris": {"ios": "https://dc.lft.to/lastmile_qr_scan", "android": "https://dc.lft.to/lastmile_qr_scan"}, "is_reserved": 0, "fusion_lon": 0.0, "fusion_lat": 0.0, "lon": -77.03825383333333, "name": "307b2c05310de960b1c2da316d9c097d"}, {"bike_id": "f56ecd7880990ef90561ac7bc2bdddb7", "type": "electric_scooter", "is_disabled": 0, "lat": 38.920602333333335, "rental_uris": {"ios": "https://dc.lft.to/lastmile_qr_scan", "android": "https://dc.lft.to/lastmile_qr_scan"}, "is_reserved": 0, "fusion_lon": 0.0, "fusion_lat": 0.0, "lon": -77.03460366666667, "name": "f56ecd7880990ef90561ac7bc2bdddb7"}, {"bike_id": "e95b249355a1656cc612e110d4b9d765", "type": "electric_scooter", "is_disabled": 0, "lat": 38.908135333333334, "rental_uris": {"ios": "https://dc.lft.to/lastmile_qr_scan", "android": "https://dc.lft.to/lastmile_qr_scan"}, "is_reserved": 0, "fusion_lon": 0.0, "fusion_lat": 0.0, "lon": -77.03461266666666, "name": "e95b249355a1656cc612e110d4b9d765"}, {"bike_id": "26b69f76430a25d070dd6980986d7338", "type": "electric_scooter", "is_disabled": 0, "lat": 38.89669633333333, "rental_uris": {"ios": "https://dc.lft.to/lastmile_qr_scan", "android": "https://dc.lft.to/lastmile_qr_scan"}, "is_reserved": 0, "fusion_lon": 0.0, "fusion_lat": 0.0, "lon": -76.98815716666667, "name": "26b69f76430a25d070dd6980986d7338"}, {"bike_id": "b259c1e474637950c7af0785f97bc039", "type": "electric_scooter", "is_disabled": 0, "lat": 38.9353285, "rental_uris": {"ios": "https://dc.lft.to/lastmile_qr_scan", "android": "https://dc.lft.to/lastmile_qr_scan"}, "is_reserved": 0, "fusion_lon": 0.0, "fusion_lat": 0.0, "lon": -77.02352483333334, "name": "b259c1e474637950c7af0785f97bc039"}, {"bike_id": "39d12b061692319346a4b95787b2fa87", "type": "electric_scooter", "is_disabled": 0, "lat": 38.903027, "rental_uris": {"ios": "https://dc.lft.to/lastmile_qr_scan", "android": "https://dc.lft.to/lastmile_qr_scan"}, "is_reserved": 0, "fusion_lon": 0.0, "fusion_lat": 0.0, "lon": -76.98353433333334, "name": "39d12b061692319346a4b95787b2fa87"}, {"bike_id": "9a4531bde8dd3c503ef1aec158c0bfbd", "type": "electric_scooter", "is_disabled": 0, "lat": 38.92049166666666, "rental_uris": {"ios": "https://dc.lft.to/lastmile_qr_scan", "android": "https://dc.lft.to/lastmile_qr_scan"}, "is_reserved": 0, "fusion_lon": 0.0, "fusion_lat": 0.0, "lon": -77.02360466666667, "name": "9a4531bde8dd3c503ef1aec158c0bfbd"}, {"bike_id": "716908caab4cdd89e6f2a762f57e2d25", "type": "electric_scooter", "is_disabled": 0, "lat": 38.906605, "rental_uris": {"ios": "https://dc.lft.to/lastmile_qr_scan", "android": "https://dc.lft.to/lastmile_qr_scan"}, "is_reserved": 0, "fusion_lon": 0.0, "fusion_lat": 0.0, "lon": -77.07169316666666, "name": "716908caab4cdd89e6f2a762f57e2d25"}, {"bike_id": "893bb0ec2e0878774935a30f196635eb", "type": "electric_scooter", "is_disabled": 0, "lat": 38.927056666666665, "rental_uris": {"ios": "https://dc.lft.to/lastmile_qr_scan", "android": "https://dc.lft.to/lastmile_qr_scan"}, "is_reserved": 0, "fusion_lon": 0.0, "fusion_lat": 0.0, "lon": -77.0233025, "name": "893bb0ec2e0878774935a30f196635eb"}, {"bike_id": "420e64432e6543e4b522da381698bd1b", "type": "electric_scooter", "is_disabled": 0, "lat": 38.903349666666664, "rental_uris": {"ios": "https://dc.lft.to/lastmile_qr_scan", "android": "https://dc.lft.to/lastmile_qr_scan"}, "is_reserved": 0, "fusion_lon": 0.0, "fusion_lat": 0.0, "lon": -77.06926166666666, "name": "420e64432e6543e4b522da381698bd1b"}, {"bike_id": "f0124491156303d27800046c1a2e83d3", "type": "electric_scooter", "is_disabled": 0, "lat": 38.9073565, "rental_uris": {"ios": "https://dc.lft.to/lastmile_qr_scan", "android": "https://dc.lft.to/lastmile_qr_scan"}, "is_reserved": 0, "fusion_lon": 0.0, "fusion_lat": 0.0, "lon": -77.029494, "name": "f0124491156303d27800046c1a2e83d3"}, {"bike_id": "3284c948e44afac54d420697b4c9e493", "type": "electric_scooter", "is_disabled": 0, "lat": 38.862452833333336, "rental_uris": {"ios": "https://dc.lft.to/lastmile_qr_scan", "android": "https://dc.lft.to/lastmile_qr_scan"}, "is_reserved": 0, "fusion_lon": 0.0, "fusion_lat": 0.0, "lon": -76.99498283333334, "name": "3284c948e44afac54d420697b4c9e493"}, {"bike_id": "ee21127d0d2f9aab97ca2536dc8bd78b", "type": "electric_scooter", "is_disabled": 0, "lat": 38.984323833333335, "rental_uris": {"ios": "https://dc.lft.to/lastmile_qr_scan", "android": "https://dc.lft.to/lastmile_qr_scan"}, "is_reserved": 0, "fusion_lon": 0.0, "fusion_lat": 0.0, "lon": -77.0267125, "name": "ee21127d0d2f9aab97ca2536dc8bd78b"}, {"bike_id": "8777002c1a2dc83e8a266a83ff7450d8", "type": "electric_scooter", "is_disabled": 0, "lat": 38.919195, "rental_uris": {"ios": "https://dc.lft.to/lastmile_qr_scan", "android": "https://dc.lft.to/lastmile_qr_scan"}, "is_reserved": 0, "fusion_lon": 0.0, "fusion_lat": 0.0, "lon": -77.04474266666666, "name": "8777002c1a2dc83e8a266a83ff7450d8"}, {"bike_id": "7bed7c41cc100c2ceedfad324f9d2444", "type": "electric_scooter", "is_disabled": 0, "lat": 38.957837, "rental_uris": {"ios": "https://dc.lft.to/lastmile_qr_scan", "android": "https://dc.lft.to/lastmile_qr_scan"}, "is_reserved": 0, "fusion_lon": 0.0, "fusion_lat": 0.0, "lon": -77.01991066666666, "name": "7bed7c41cc100c2ceedfad324f9d2444"}, {"bike_id": "a075828f095472aa3f48a771f8b97ef4", "type": "electric_scooter", "is_disabled": 0, "lat": 38.903918166666664, "rental_uris": {"ios": "https://dc.lft.to/lastmile_qr_scan", "android": "https://dc.lft.to/lastmile_qr_scan"}, "is_reserved": 0, "fusion_lon": 0.0, "fusion_lat": 0.0, "lon": -76.98944316666666, "name": "a075828f095472aa3f48a771f8b97ef4"}, {"bike_id": "5c162935ba638845162e6ca3f742964b", "type": "electric_scooter", "is_disabled": 0, "lat": 38.90044783333333, "rental_uris": {"ios": "https://dc.lft.to/lastmile_qr_scan", "android": "https://dc.lft.to/lastmile_qr_scan"}, "is_reserved": 0, "fusion_lon": 0.0, "fusion_lat": 0.0, "lon": -77.01779016666667, "name": "5c162935ba638845162e6ca3f742964b"}, {"bike_id": "7cba613e2c9f065e0ff96a2055fb5b5a", "type": "electric_scooter", "is_disabled": 0, "lat": 38.961921333333336, "rental_uris": {"ios": "https://dc.lft.to/lastmile_qr_scan", "android": "https://dc.lft.to/lastmile_qr_scan"}, "is_reserved": 0, "fusion_lon": 0.0, "fusion_lat": 0.0, "lon": -77.02811983333334, "name": "7cba613e2c9f065e0ff96a2055fb5b5a"}, {"bike_id": "7e40e85bfb31b2aa71b07429ba37c477", "type": "electric_scooter", "is_disabled": 0, "lat": 38.919123166666665, "rental_uris": {"ios": "https://dc.lft.to/lastmile_qr_scan", "android": "https://dc.lft.to/lastmile_qr_scan"}, "is_reserved": 0, "fusion_lon": 0.0, "fusion_lat": 0.0, "lon": -77.02944066666667, "name": "7e40e85bfb31b2aa71b07429ba37c477"}, {"bike_id": "1c5735ae2afc541f564225fc49b74535", "type": "electric_bike", "is_disabled": 0, "lat": 38.93235133333334, "rental_uris": {"ios": "https://dc.lft.to/lastmile_qr_scan", "android": "https://dc.lft.to/lastmile_qr_scan"}, "is_reserved": 0, "fusion_lon": 0.0, "fusion_lat": 0.0, "lon": -76.974264, "name": "1c5735ae2afc541f564225fc49b74535"}, {"bike_id": "c8549d99f477fb203c6c625928354f36", "type": "electric_scooter", "is_disabled": 0, "lat": 38.90645466666667, "rental_uris": {"ios": "https://dc.lft.to/lastmile_qr_scan", "android": "https://dc.lft.to/lastmile_qr_scan"}, "is_reserved": 0, "fusion_lon": 0.0, "fusion_lat": 0.0, "lon": -77.014585, "name": "c8549d99f477fb203c6c625928354f36"}, {"bike_id": "a5f172ec4f2663f257a36152f6e400e9", "type": "electric_scooter", "is_disabled": 0, "lat": 38.900626, "rental_uris": {"ios": "https://dc.lft.to/lastmile_qr_scan", "android": "https://dc.lft.to/lastmile_qr_scan"}, "is_reserved": 0, "fusion_lon": 0.0, "fusion_lat": 0.0, "lon": -77.03515016666667, "name": "a5f172ec4f2663f257a36152f6e400e9"}, {"bike_id": "3134f155b2ea01d40fe38d266359beb3", "type": "electric_scooter", "is_disabled": 0, "lat": 38.9421265, "rental_uris": {"ios": "https://dc.lft.to/lastmile_qr_scan", "android": "https://dc.lft.to/lastmile_qr_scan"}, "is_reserved": 0, "fusion_lon": 0.0, "fusion_lat": 0.0, "lon": -77.02586283333333, "name": "3134f155b2ea01d40fe38d266359beb3"}, {"bike_id": "0d61a6eed57c5914bf72b6c50b46999d", "type": "electric_scooter", "is_disabled": 0, "lat": 38.912668833333335, "rental_uris": {"ios": "https://dc.lft.to/lastmile_qr_scan", "android": "https://dc.lft.to/lastmile_qr_scan"}, "is_reserved": 0, "fusion_lon": 0.0, "fusion_lat": 0.0, "lon": -77.0455345, "name": "0d61a6eed57c5914bf72b6c50b46999d"}, {"bike_id": "4e9990eb1ba5182af772a795ca862b3b", "type": "electric_scooter", "is_disabled": 0, "lat": 38.898756, "rental_uris": {"ios": "https://dc.lft.to/lastmile_qr_scan", "android": "https://dc.lft.to/lastmile_qr_scan"}, "is_reserved": 0, "fusion_lon": 0.0, "fusion_lat": 0.0, "lon": -76.93184516666666, "name": "4e9990eb1ba5182af772a795ca862b3b"}, {"bike_id": "4609a919df7e1a00ea0f761666668918", "type": "electric_scooter", "is_disabled": 0, "lat": 38.903933333333335, "rental_uris": {"ios": "https://dc.lft.to/lastmile_qr_scan", "android": "https://dc.lft.to/lastmile_qr_scan"}, "is_reserved": 0, "fusion_lon": 0.0, "fusion_lat": 0.0, "lon": -77.04499683333333, "name": "4609a919df7e1a00ea0f761666668918"}, {"bike_id": "cb53b82561c0301efa8095f388563f81", "type": "electric_scooter", "is_disabled": 0, "lat": 38.902219833333334, "rental_uris": {"ios": "https://dc.lft.to/lastmile_qr_scan", "android": "https://dc.lft.to/lastmile_qr_scan"}, "is_reserved": 0, "fusion_lon": 0.0, "fusion_lat": 0.0, "lon": -77.02218983333333, "name": "cb53b82561c0301efa8095f388563f81"}, {"bike_id": "85bba743cc8893e86fbc3ae2fe69fe2a", "type": "electric_scooter", "is_disabled": 0, "lat": 38.90562716666667, "rental_uris": {"ios": "https://dc.lft.to/lastmile_qr_scan", "android": "https://dc.lft.to/lastmile_qr_scan"}, "is_reserved": 0, "fusion_lon": 0.0, "fusion_lat": 0.0, "lon": -77.0382555, "name": "85bba743cc8893e86fbc3ae2fe69fe2a"}, {"bike_id": "922feb72e320281333e69f9033e8df93", "type": "electric_scooter", "is_disabled": 0, "lat": 38.904000333333336, "rental_uris": {"ios": "https://dc.lft.to/lastmile_qr_scan", "android": "https://dc.lft.to/lastmile_qr_scan"}, "is_reserved": 0, "fusion_lon": 0.0, "fusion_lat": 0.0, "lon": -77.0630845, "name": "922feb72e320281333e69f9033e8df93"}, {"bike_id": "517972c96c9cd1f6783e4c7dedda344e", "type": "electric_scooter", "is_disabled": 0, "lat": 38.9364035, "rental_uris": {"ios": "https://dc.lft.to/lastmile_qr_scan", "android": "https://dc.lft.to/lastmile_qr_scan"}, "is_reserved": 0, "fusion_lon": 0.0, "fusion_lat": 0.0, "lon": -77.05885716666667, "name": "517972c96c9cd1f6783e4c7dedda344e"}, {"bike_id": "75f91248e7d2b7960380e2d3324ff648", "type": "electric_scooter", "is_disabled": 0, "lat": 38.90640533333333, "rental_uris": {"ios": "https://dc.lft.to/lastmile_qr_scan", "android": "https://dc.lft.to/lastmile_qr_scan"}, "is_reserved": 0, "fusion_lon": 0.0, "fusion_lat": 0.0, "lon": -77.01434866666666, "name": "75f91248e7d2b7960380e2d3324ff648"}, {"bike_id": "aca71f9cce9ad138f46c9752b087722a", "type": "electric_scooter", "is_disabled": 0, "lat": 38.910727333333334, "rental_uris": {"ios": "https://dc.lft.to/lastmile_qr_scan", "android": "https://dc.lft.to/lastmile_qr_scan"}, "is_reserved": 0, "fusion_lon": 0.0, "fusion_lat": 0.0, "lon": -77.03729516666667, "name": "aca71f9cce9ad138f46c9752b087722a"}, {"bike_id": "5c7d5e97b0defbf794188c3f2c14951b", "type": "electric_scooter", "is_disabled": 0, "lat": 38.898008833333336, "rental_uris": {"ios": "https://dc.lft.to/lastmile_qr_scan", "android": "https://dc.lft.to/lastmile_qr_scan"}, "is_reserved": 0, "fusion_lon": 0.0, "fusion_lat": 0.0, "lon": -77.01203933333333, "name": "5c7d5e97b0defbf794188c3f2c14951b"}, {"bike_id": "447c635915d4c273c4b51fdc7b218db8", "type": "electric_bike", "is_disabled": 0, "lat": 38.832411666666665, "rental_uris": {"ios": "https://dc.lft.to/lastmile_qr_scan", "android": "https://dc.lft.to/lastmile_qr_scan"}, "is_reserved": 0, "fusion_lon": 0.0, "fusion_lat": 0.0, "lon": -76.94619216666666, "name": "447c635915d4c273c4b51fdc7b218db8"}, {"bike_id": "381b1b0820fa1bba19865aaf401fc32e", "type": "electric_scooter", "is_disabled": 0, "lat": 38.926565333333336, "rental_uris": {"ios": "https://dc.lft.to/lastmile_qr_scan", "android": "https://dc.lft.to/lastmile_qr_scan"}, "is_reserved": 0, "fusion_lon": 0.0, "fusion_lat": 0.0, "lon": -77.037286, "name": "381b1b0820fa1bba19865aaf401fc32e"}, {"bike_id": "317080c1d8f966f71dfbff9cf6e86035", "type": "electric_scooter", "is_disabled": 0, "lat": 38.91550316666667, "rental_uris": {"ios": "https://dc.lft.to/lastmile_qr_scan", "android": "https://dc.lft.to/lastmile_qr_scan"}, "is_reserved": 0, "fusion_lon": 0.0, "fusion_lat": 0.0, "lon": -77.03206016666667, "name": "317080c1d8f966f71dfbff9cf6e86035"}, {"bike_id": "383a37c1c375be6fbfd2126fa2d11dda", "type": "electric_scooter", "is_disabled": 0, "lat": 38.91103283333333, "rental_uris": {"ios": "https://dc.lft.to/lastmile_qr_scan", "android": "https://dc.lft.to/lastmile_qr_scan"}, "is_reserved": 0, "fusion_lon": 0.0, "fusion_lat": 0.0, "lon": -77.0280285, "name": "383a37c1c375be6fbfd2126fa2d11dda"}, {"bike_id": "194bf9233544b817401d79fbe37d1ce4", "type": "electric_scooter", "is_disabled": 0, "lat": 38.90669616666667, "rental_uris": {"ios": "https://dc.lft.to/lastmile_qr_scan", "android": "https://dc.lft.to/lastmile_qr_scan"}, "is_reserved": 0, "fusion_lon": 0.0, "fusion_lat": 0.0, "lon": -77.02699533333333, "name": "194bf9233544b817401d79fbe37d1ce4"}, {"bike_id": "f92394940d0e1da3f097a5682a1ffc28", "type": "electric_scooter", "is_disabled": 0, "lat": 38.928973166666665, "rental_uris": {"ios": "https://dc.lft.to/lastmile_qr_scan", "android": "https://dc.lft.to/lastmile_qr_scan"}, "is_reserved": 0, "fusion_lon": 0.0, "fusion_lat": 0.0, "lon": -77.0258245, "name": "f92394940d0e1da3f097a5682a1ffc28"}, {"bike_id": "46d1c35b0e911970276ac31f352b8e4e", "type": "electric_scooter", "is_disabled": 0, "lat": 38.923323833333335, "rental_uris": {"ios": "https://dc.lft.to/lastmile_qr_scan", "android": "https://dc.lft.to/lastmile_qr_scan"}, "is_reserved": 0, "fusion_lon": 0.0, "fusion_lat": 0.0, "lon": -77.0351445, "name": "46d1c35b0e911970276ac31f352b8e4e"}, {"bike_id": "3301f0a8b7e975fbb5c747e291fd2cee", "type": "electric_scooter", "is_disabled": 0, "lat": 38.9167575, "rental_uris": {"ios": "https://dc.lft.to/lastmile_qr_scan", "android": "https://dc.lft.to/lastmile_qr_scan"}, "is_reserved": 0, "fusion_lon": 0.0, "fusion_lat": 0.0, "lon": -77.03213416666667, "name": "3301f0a8b7e975fbb5c747e291fd2cee"}, {"bike_id": "b0bca72af31fa2a62329fd61285a7b2d", "type": "electric_scooter", "is_disabled": 0, "lat": 38.91123316666667, "rental_uris": {"ios": "https://dc.lft.to/lastmile_qr_scan", "android": "https://dc.lft.to/lastmile_qr_scan"}, "is_reserved": 0, "fusion_lon": 0.0, "fusion_lat": 0.0, "lon": -77.0423275, "name": "b0bca72af31fa2a62329fd61285a7b2d"}, {"bike_id": "b77667682b4f028eba9c304cdfbc9121", "type": "electric_scooter", "is_disabled": 0, "lat": 38.9236165, "rental_uris": {"ios": "https://dc.lft.to/lastmile_qr_scan", "android": "https://dc.lft.to/lastmile_qr_scan"}, "is_reserved": 0, "fusion_lon": 0.0, "fusion_lat": 0.0, "lon": -77.0512995, "name": "b77667682b4f028eba9c304cdfbc9121"}, {"bike_id": "af345dad6cdc58eae37dcc38c527f5bc", "type": "electric_scooter", "is_disabled": 0, "lat": 38.90024716666667, "rental_uris": {"ios": "https://dc.lft.to/lastmile_qr_scan", "android": "https://dc.lft.to/lastmile_qr_scan"}, "is_reserved": 0, "fusion_lon": 0.0, "fusion_lat": 0.0, "lon": -77.04676066666667, "name": "af345dad6cdc58eae37dcc38c527f5bc"}, {"bike_id": "b8de6cdcd7e3fd7cc6df37f8dc7c7c8b", "type": "electric_bike", "is_disabled": 0, "lat": 39.05059516666667, "rental_uris": {"ios": "https://dc.lft.to/lastmile_qr_scan", "android": "https://dc.lft.to/lastmile_qr_scan"}, "is_reserved": 0, "fusion_lon": 0.0, "fusion_lat": 0.0, "lon": -77.05145283333333, "name": "b8de6cdcd7e3fd7cc6df37f8dc7c7c8b"}, {"bike_id": "c1b787aa23bf82ca833696c4004edf73", "type": "electric_scooter", "is_disabled": 0, "lat": 38.90010783333334, "rental_uris": {"ios": "https://dc.lft.to/lastmile_qr_scan", "android": "https://dc.lft.to/lastmile_qr_scan"}, "is_reserved": 0, "fusion_lon": 0.0, "fusion_lat": 0.0, "lon": -77.04479016666667, "name": "c1b787aa23bf82ca833696c4004edf73"}, {"bike_id": "f8039ce47a21b73100a31115c81f2bc4", "type": "electric_scooter", "is_disabled": 0, "lat": 38.89368, "rental_uris": {"ios": "https://dc.lft.to/lastmile_qr_scan", "android": "https://dc.lft.to/lastmile_qr_scan"}, "is_reserved": 0, "fusion_lon": 0.0, "fusion_lat": 0.0, "lon": -77.028057, "name": "f8039ce47a21b73100a31115c81f2bc4"}, {"bike_id": "eaca36f13bccc72f287aa5bda80dd35c", "type": "electric_scooter", "is_disabled": 0, "lat": 38.91416866666667, "rental_uris": {"ios": "https://dc.lft.to/lastmile_qr_scan", "android": "https://dc.lft.to/lastmile_qr_scan"}, "is_reserved": 0, "fusion_lon": 0.0, "fusion_lat": 0.0, "lon": -77.02983266666666, "name": "eaca36f13bccc72f287aa5bda80dd35c"}, {"bike_id": "158a68fab041c128b5e811d012e02d2e", "type": "electric_scooter", "is_disabled": 0, "lat": 38.932422, "rental_uris": {"ios": "https://dc.lft.to/lastmile_qr_scan", "android": "https://dc.lft.to/lastmile_qr_scan"}, "is_reserved": 0, "fusion_lon": 0.0, "fusion_lat": 0.0, "lon": -77.038543, "name": "158a68fab041c128b5e811d012e02d2e"}, {"bike_id": "d67dfeb30b1bccc950c171012f7a9710", "type": "electric_scooter", "is_disabled": 0, "lat": 38.904083166666666, "rental_uris": {"ios": "https://dc.lft.to/lastmile_qr_scan", "android": "https://dc.lft.to/lastmile_qr_scan"}, "is_reserved": 0, "fusion_lon": 0.0, "fusion_lat": 0.0, "lon": -76.97330383333333, "name": "d67dfeb30b1bccc950c171012f7a9710"}, {"bike_id": "9932fb7d9a925c9127f27a490c4ea0b4", "type": "electric_scooter", "is_disabled": 0, "lat": 38.88015, "rental_uris": {"ios": "https://dc.lft.to/lastmile_qr_scan", "android": "https://dc.lft.to/lastmile_qr_scan"}, "is_reserved": 0, "fusion_lon": 0.0, "fusion_lat": 0.0, "lon": -77.0248425, "name": "9932fb7d9a925c9127f27a490c4ea0b4"}, {"bike_id": "7c79d66c08b7da412bd72e542e890936", "type": "electric_scooter", "is_disabled": 0, "lat": 38.922472, "rental_uris": {"ios": "https://dc.lft.to/lastmile_qr_scan", "android": "https://dc.lft.to/lastmile_qr_scan"}, "is_reserved": 0, "fusion_lon": 0.0, "fusion_lat": 0.0, "lon": -77.03889883333333, "name": "7c79d66c08b7da412bd72e542e890936"}, {"bike_id": "b833a607bbe58f476b1951628677e94c", "type": "electric_scooter", "is_disabled": 0, "lat": 38.9552905, "rental_uris": {"ios": "https://dc.lft.to/lastmile_qr_scan", "android": "https://dc.lft.to/lastmile_qr_scan"}, "is_reserved": 0, "fusion_lon": 0.0, "fusion_lat": 0.0, "lon": -77.02779266666667, "name": "b833a607bbe58f476b1951628677e94c"}, {"bike_id": "00ded46aed386af40536f713d698c30c", "type": "electric_bike", "is_disabled": 0, "lat": 38.838069833333336, "rental_uris": {"ios": "https://dc.lft.to/lastmile_qr_scan", "android": "https://dc.lft.to/lastmile_qr_scan"}, "is_reserved": 0, "fusion_lon": 0.0, "fusion_lat": 0.0, "lon": -77.09520783333333, "name": "00ded46aed386af40536f713d698c30c"}, {"bike_id": "b2942298a4323511a799ef0b00d8cf3f", "type": "electric_scooter", "is_disabled": 0, "lat": 38.878057166666665, "rental_uris": {"ios": "https://dc.lft.to/lastmile_qr_scan", "android": "https://dc.lft.to/lastmile_qr_scan"}, "is_reserved": 0, "fusion_lon": 0.0, "fusion_lat": 0.0, "lon": -77.007561, "name": "b2942298a4323511a799ef0b00d8cf3f"}, {"bike_id": "b9c218ace4e1705d005794a1cdb62eb1", "type": "electric_scooter", "is_disabled": 0, "lat": 38.868869, "rental_uris": {"ios": "https://dc.lft.to/lastmile_qr_scan", "android": "https://dc.lft.to/lastmile_qr_scan"}, "is_reserved": 0, "fusion_lon": 0.0, "fusion_lat": 0.0, "lon": -76.98444416666666, "name": "b9c218ace4e1705d005794a1cdb62eb1"}, {"bike_id": "467c3feff5be68ac8ba44be1fc9b8733", "type": "electric_scooter", "is_disabled": 0, "lat": 38.9127175, "rental_uris": {"ios": "https://dc.lft.to/lastmile_qr_scan", "android": "https://dc.lft.to/lastmile_qr_scan"}, "is_reserved": 0, "fusion_lon": 0.0, "fusion_lat": 0.0, "lon": -77.015101, "name": "467c3feff5be68ac8ba44be1fc9b8733"}, {"bike_id": "1fa04ef9812c105f7dac5ef7e44d41c0", "type": "electric_scooter", "is_disabled": 0, "lat": 38.906918166666664, "rental_uris": {"ios": "https://dc.lft.to/lastmile_qr_scan", "android": "https://dc.lft.to/lastmile_qr_scan"}, "is_reserved": 0, "fusion_lon": 0.0, "fusion_lat": 0.0, "lon": -77.06509066666666, "name": "1fa04ef9812c105f7dac5ef7e44d41c0"}, {"bike_id": "5570de31aeadb7668a74bd74d90010a7", "type": "electric_scooter", "is_disabled": 0, "lat": 38.9640915, "rental_uris": {"ios": "https://dc.lft.to/lastmile_qr_scan", "android": "https://dc.lft.to/lastmile_qr_scan"}, "is_reserved": 0, "fusion_lon": 0.0, "fusion_lat": 0.0, "lon": -77.0276635, "name": "5570de31aeadb7668a74bd74d90010a7"}, {"bike_id": "7fde55521886030d8742913cc5847527", "type": "electric_scooter", "is_disabled": 0, "lat": 38.90864333333333, "rental_uris": {"ios": "https://dc.lft.to/lastmile_qr_scan", "android": "https://dc.lft.to/lastmile_qr_scan"}, "is_reserved": 0, "fusion_lon": 0.0, "fusion_lat": 0.0, "lon": -77.03492633333333, "name": "7fde55521886030d8742913cc5847527"}, {"bike_id": "84ecd7bf03150c068def6341521d7143", "type": "electric_scooter", "is_disabled": 0, "lat": 38.92855683333333, "rental_uris": {"ios": "https://dc.lft.to/lastmile_qr_scan", "android": "https://dc.lft.to/lastmile_qr_scan"}, "is_reserved": 0, "fusion_lon": 0.0, "fusion_lat": 0.0, "lon": -77.01948783333333, "name": "84ecd7bf03150c068def6341521d7143"}, {"bike_id": "eb12db7d12628e57ebf6260e60b07df9", "type": "electric_scooter", "is_disabled": 0, "lat": 38.920908833333336, "rental_uris": {"ios": "https://dc.lft.to/lastmile_qr_scan", "android": "https://dc.lft.to/lastmile_qr_scan"}, "is_reserved": 0, "fusion_lon": 0.0, "fusion_lat": 0.0, "lon": -77.02534216666666, "name": "eb12db7d12628e57ebf6260e60b07df9"}, {"bike_id": "f0211f56a4e56d4786439b264dc892cb", "type": "electric_scooter", "is_disabled": 0, "lat": 38.90284533333333, "rental_uris": {"ios": "https://dc.lft.to/lastmile_qr_scan", "android": "https://dc.lft.to/lastmile_qr_scan"}, "is_reserved": 0, "fusion_lon": 0.0, "fusion_lat": 0.0, "lon": -77.003363, "name": "f0211f56a4e56d4786439b264dc892cb"}, {"bike_id": "c746a105553a8b006417653eee5a2bcd", "type": "electric_scooter", "is_disabled": 0, "lat": 38.90683516666667, "rental_uris": {"ios": "https://dc.lft.to/lastmile_qr_scan", "android": "https://dc.lft.to/lastmile_qr_scan"}, "is_reserved": 0, "fusion_lon": 0.0, "fusion_lat": 0.0, "lon": -77.0532175, "name": "c746a105553a8b006417653eee5a2bcd"}, {"bike_id": "3e7bebfaaf53895cf9986bea81b835e6", "type": "electric_bike", "is_disabled": 0, "lat": 38.91010433333334, "rental_uris": {"ios": "https://dc.lft.to/lastmile_qr_scan", "android": "https://dc.lft.to/lastmile_qr_scan"}, "is_reserved": 0, "fusion_lon": 0.0, "fusion_lat": 0.0, "lon": -77.02716033333333, "name": "3e7bebfaaf53895cf9986bea81b835e6"}, {"bike_id": "fb1b1e8142eabc6c1a2901509d0c18b1", "type": "electric_scooter", "is_disabled": 0, "lat": 38.95661716666667, "rental_uris": {"ios": "https://dc.lft.to/lastmile_qr_scan", "android": "https://dc.lft.to/lastmile_qr_scan"}, "is_reserved": 0, "fusion_lon": 0.0, "fusion_lat": 0.0, "lon": -77.0104155, "name": "fb1b1e8142eabc6c1a2901509d0c18b1"}, {"bike_id": "11a5b820fb8bddced19a47c4ea1180d3", "type": "electric_scooter", "is_disabled": 0, "lat": 38.9014925, "rental_uris": {"ios": "https://dc.lft.to/lastmile_qr_scan", "android": "https://dc.lft.to/lastmile_qr_scan"}, "is_reserved": 0, "fusion_lon": 0.0, "fusion_lat": 0.0, "lon": -77.01518683333333, "name": "11a5b820fb8bddced19a47c4ea1180d3"}, {"bike_id": "073b408912933443b3a514923734b4d8", "type": "electric_scooter", "is_disabled": 0, "lat": 38.911195666666664, "rental_uris": {"ios": "https://dc.lft.to/lastmile_qr_scan", "android": "https://dc.lft.to/lastmile_qr_scan"}, "is_reserved": 0, "fusion_lon": 0.0, "fusion_lat": 0.0, "lon": -77.02241133333334, "name": "073b408912933443b3a514923734b4d8"}, {"bike_id": "bff523b7f55f35dec5338e89132fcfad", "type": "electric_scooter", "is_disabled": 0, "lat": 38.91784366666667, "rental_uris": {"ios": "https://dc.lft.to/lastmile_qr_scan", "android": "https://dc.lft.to/lastmile_qr_scan"}, "is_reserved": 0, "fusion_lon": 0.0, "fusion_lat": 0.0, "lon": -77.02333083333333, "name": "bff523b7f55f35dec5338e89132fcfad"}, {"bike_id": "862e1b650d9d673e2555d859c7252882", "type": "electric_bike", "is_disabled": 0, "lat": 38.80910016666667, "rental_uris": {"ios": "https://dc.lft.to/lastmile_qr_scan", "android": "https://dc.lft.to/lastmile_qr_scan"}, "is_reserved": 0, "fusion_lon": 0.0, "fusion_lat": 0.0, "lon": -77.0866595, "name": "862e1b650d9d673e2555d859c7252882"}, {"bike_id": "fc4cb704be2f724a746b13a187948d1c", "type": "electric_scooter", "is_disabled": 0, "lat": 38.92339483333333, "rental_uris": {"ios": "https://dc.lft.to/lastmile_qr_scan", "android": "https://dc.lft.to/lastmile_qr_scan"}, "is_reserved": 0, "fusion_lon": 0.0, "fusion_lat": 0.0, "lon": -77.01985183333333, "name": "fc4cb704be2f724a746b13a187948d1c"}, {"bike_id": "7b34ab35ce23b6ef3692f377e212dfcf", "type": "electric_scooter", "is_disabled": 0, "lat": 38.92153733333333, "rental_uris": {"ios": "https://dc.lft.to/lastmile_qr_scan", "android": "https://dc.lft.to/lastmile_qr_scan"}, "is_reserved": 0, "fusion_lon": 0.0, "fusion_lat": 0.0, "lon": -77.03532516666667, "name": "7b34ab35ce23b6ef3692f377e212dfcf"}, {"bike_id": "ec0f7c23bbab8d235cbb5c1332dafe0c", "type": "electric_scooter", "is_disabled": 0, "lat": 38.890055833333335, "rental_uris": {"ios": "https://dc.lft.to/lastmile_qr_scan", "android": "https://dc.lft.to/lastmile_qr_scan"}, "is_reserved": 0, "fusion_lon": 0.0, "fusion_lat": 0.0, "lon": -76.9374375, "name": "ec0f7c23bbab8d235cbb5c1332dafe0c"}, {"bike_id": "1e8488f28164f3bfa547c8ed908302ef", "type": "electric_scooter", "is_disabled": 0, "lat": 38.89324166666667, "rental_uris": {"ios": "https://dc.lft.to/lastmile_qr_scan", "android": "https://dc.lft.to/lastmile_qr_scan"}, "is_reserved": 0, "fusion_lon": 0.0, "fusion_lat": 0.0, "lon": -77.04873916666666, "name": "1e8488f28164f3bfa547c8ed908302ef"}, {"bike_id": "2119f505af445205a77f524f95f89170", "type": "electric_scooter", "is_disabled": 0, "lat": 38.89897, "rental_uris": {"ios": "https://dc.lft.to/lastmile_qr_scan", "android": "https://dc.lft.to/lastmile_qr_scan"}, "is_reserved": 0, "fusion_lon": 0.0, "fusion_lat": 0.0, "lon": -77.01511, "name": "2119f505af445205a77f524f95f89170"}, {"bike_id": "d2156b6e7ca08a3f770b7ff469c17e64", "type": "electric_scooter", "is_disabled": 0, "lat": 38.89535333333333, "rental_uris": {"ios": "https://dc.lft.to/lastmile_qr_scan", "android": "https://dc.lft.to/lastmile_qr_scan"}, "is_reserved": 0, "fusion_lon": 0.0, "fusion_lat": 0.0, "lon": -76.94891433333333, "name": "d2156b6e7ca08a3f770b7ff469c17e64"}, {"bike_id": "2c977d80ef87ecf0aa01560bf89f1103", "type": "electric_scooter", "is_disabled": 0, "lat": 38.95151416666667, "rental_uris": {"ios": "https://dc.lft.to/lastmile_qr_scan", "android": "https://dc.lft.to/lastmile_qr_scan"}, "is_reserved": 0, "fusion_lon": 0.0, "fusion_lat": 0.0, "lon": -77.018681, "name": "2c977d80ef87ecf0aa01560bf89f1103"}, {"bike_id": "affd3fd3f68e5105a891773ca6679965", "type": "electric_scooter", "is_disabled": 0, "lat": 38.87731866666667, "rental_uris": {"ios": "https://dc.lft.to/lastmile_qr_scan", "android": "https://dc.lft.to/lastmile_qr_scan"}, "is_reserved": 0, "fusion_lon": 0.0, "fusion_lat": 0.0, "lon": -77.01784766666667, "name": "affd3fd3f68e5105a891773ca6679965"}, {"bike_id": "10ceb9c4dcb26a3cf00fc8636aec33e7", "type": "electric_bike", "is_disabled": 0, "lat": 38.80760883333333, "rental_uris": {"ios": "https://dc.lft.to/lastmile_qr_scan", "android": "https://dc.lft.to/lastmile_qr_scan"}, "is_reserved": 0, "fusion_lon": 0.0, "fusion_lat": 0.0, "lon": -77.09469933333334, "name": "10ceb9c4dcb26a3cf00fc8636aec33e7"}, {"bike_id": "045607a92c22667db3ace31b6ec84cfd", "type": "electric_scooter", "is_disabled": 0, "lat": 38.918791666666664, "rental_uris": {"ios": "https://dc.lft.to/lastmile_qr_scan", "android": "https://dc.lft.to/lastmile_qr_scan"}, "is_reserved": 0, "fusion_lon": 0.0, "fusion_lat": 0.0, "lon": -77.03481916666667, "name": "045607a92c22667db3ace31b6ec84cfd"}, {"bike_id": "9775eaba1626b88c4bcd4d284b6ffddb", "type": "electric_scooter", "is_disabled": 0, "lat": 38.9296145, "rental_uris": {"ios": "https://dc.lft.to/lastmile_qr_scan", "android": "https://dc.lft.to/lastmile_qr_scan"}, "is_reserved": 0, "fusion_lon": 0.0, "fusion_lat": 0.0, "lon": -77.0313765, "name": "9775eaba1626b88c4bcd4d284b6ffddb"}, {"bike_id": "b0f29ec096b06dbb8a93cde166d4862d", "type": "electric_scooter", "is_disabled": 0, "lat": 38.90980783333333, "rental_uris": {"ios": "https://dc.lft.to/lastmile_qr_scan", "android": "https://dc.lft.to/lastmile_qr_scan"}, "is_reserved": 0, "fusion_lon": 0.0, "fusion_lat": 0.0, "lon": -77.03440466666666, "name": "b0f29ec096b06dbb8a93cde166d4862d"}, {"bike_id": "a4391f60b7886eabc079dce1ae7b045e", "type": "electric_scooter", "is_disabled": 0, "lat": 38.865058166666664, "rental_uris": {"ios": "https://dc.lft.to/lastmile_qr_scan", "android": "https://dc.lft.to/lastmile_qr_scan"}, "is_reserved": 0, "fusion_lon": 0.0, "fusion_lat": 0.0, "lon": -76.9900285, "name": "a4391f60b7886eabc079dce1ae7b045e"}, {"bike_id": "a54fb7b9667a66b12153da4566806c1a", "type": "electric_scooter", "is_disabled": 0, "lat": 38.914046666666664, "rental_uris": {"ios": "https://dc.lft.to/lastmile_qr_scan", "android": "https://dc.lft.to/lastmile_qr_scan"}, "is_reserved": 0, "fusion_lon": 0.0, "fusion_lat": 0.0, "lon": -77.03453416666666, "name": "a54fb7b9667a66b12153da4566806c1a"}, {"bike_id": "e39403b7b58b410ac8cded2de28b4158", "type": "electric_scooter", "is_disabled": 0, "lat": 38.92058883333333, "rental_uris": {"ios": "https://dc.lft.to/lastmile_qr_scan", "android": "https://dc.lft.to/lastmile_qr_scan"}, "is_reserved": 0, "fusion_lon": 0.0, "fusion_lat": 0.0, "lon": -77.04406133333333, "name": "e39403b7b58b410ac8cded2de28b4158"}, {"bike_id": "f388223d37a9666bf6145f7765ff8676", "type": "electric_scooter", "is_disabled": 0, "lat": 38.92316666666667, "rental_uris": {"ios": "https://dc.lft.to/lastmile_qr_scan", "android": "https://dc.lft.to/lastmile_qr_scan"}, "is_reserved": 0, "fusion_lon": 0.0, "fusion_lat": 0.0, "lon": -77.0404135, "name": "f388223d37a9666bf6145f7765ff8676"}, {"bike_id": "a2714dd47012fc67c2052b6580584959", "type": "electric_bike", "is_disabled": 0, "lat": 38.993474166666665, "rental_uris": {"ios": "https://dc.lft.to/lastmile_qr_scan", "android": "https://dc.lft.to/lastmile_qr_scan"}, "is_reserved": 0, "fusion_lon": 0.0, "fusion_lat": 0.0, "lon": -77.11576066666667, "name": "a2714dd47012fc67c2052b6580584959"}, {"bike_id": "5c4073fae3e9bcce22fe212fa1f973b1", "type": "electric_scooter", "is_disabled": 0, "lat": 38.9032355, "rental_uris": {"ios": "https://dc.lft.to/lastmile_qr_scan", "android": "https://dc.lft.to/lastmile_qr_scan"}, "is_reserved": 0, "fusion_lon": 0.0, "fusion_lat": 0.0, "lon": -76.98285016666667, "name": "5c4073fae3e9bcce22fe212fa1f973b1"}, {"bike_id": "a2f52f4bc32c724484ab5c7d69377d1f", "type": "electric_scooter", "is_disabled": 0, "lat": 38.93581016666667, "rental_uris": {"ios": "https://dc.lft.to/lastmile_qr_scan", "android": "https://dc.lft.to/lastmile_qr_scan"}, "is_reserved": 0, "fusion_lon": 0.0, "fusion_lat": 0.0, "lon": -77.03360816666667, "name": "a2f52f4bc32c724484ab5c7d69377d1f"}, {"bike_id": "c3fe08434e68fda15059dd17601a2efb", "type": "electric_scooter", "is_disabled": 0, "lat": 38.916078166666665, "rental_uris": {"ios": "https://dc.lft.to/lastmile_qr_scan", "android": "https://dc.lft.to/lastmile_qr_scan"}, "is_reserved": 0, "fusion_lon": 0.0, "fusion_lat": 0.0, "lon": -77.03376983333334, "name": "c3fe08434e68fda15059dd17601a2efb"}, {"bike_id": "083988e0325b11cd1210eccd3f339595", "type": "electric_scooter", "is_disabled": 0, "lat": 38.878067, "rental_uris": {"ios": "https://dc.lft.to/lastmile_qr_scan", "android": "https://dc.lft.to/lastmile_qr_scan"}, "is_reserved": 0, "fusion_lon": 0.0, "fusion_lat": 0.0, "lon": -77.01756583333334, "name": "083988e0325b11cd1210eccd3f339595"}, {"bike_id": "e6391b173b3632aff73c61684c36b1a3", "type": "electric_scooter", "is_disabled": 0, "lat": 38.90119383333333, "rental_uris": {"ios": "https://dc.lft.to/lastmile_qr_scan", "android": "https://dc.lft.to/lastmile_qr_scan"}, "is_reserved": 0, "fusion_lon": 0.0, "fusion_lat": 0.0, "lon": -77.050954, "name": "e6391b173b3632aff73c61684c36b1a3"}, {"bike_id": "2eade3c585d0865344c99b6f6df5bc21", "type": "electric_scooter", "is_disabled": 0, "lat": 38.90867733333333, "rental_uris": {"ios": "https://dc.lft.to/lastmile_qr_scan", "android": "https://dc.lft.to/lastmile_qr_scan"}, "is_reserved": 0, "fusion_lon": 0.0, "fusion_lat": 0.0, "lon": -77.02690066666666, "name": "2eade3c585d0865344c99b6f6df5bc21"}, {"bike_id": "e8e4d16452674e4915c6ce56fd2bef78", "type": "electric_scooter", "is_disabled": 0, "lat": 38.898431333333335, "rental_uris": {"ios": "https://dc.lft.to/lastmile_qr_scan", "android": "https://dc.lft.to/lastmile_qr_scan"}, "is_reserved": 0, "fusion_lon": 0.0, "fusion_lat": 0.0, "lon": -76.94634466666666, "name": "e8e4d16452674e4915c6ce56fd2bef78"}, {"bike_id": "a2fdfa02318d8590f3b0d6ade8ea8879", "type": "electric_scooter", "is_disabled": 0, "lat": 38.90410166666667, "rental_uris": {"ios": "https://dc.lft.to/lastmile_qr_scan", "android": "https://dc.lft.to/lastmile_qr_scan"}, "is_reserved": 0, "fusion_lon": 0.0, "fusion_lat": 0.0, "lon": -76.97334966666666, "name": "a2fdfa02318d8590f3b0d6ade8ea8879"}, {"bike_id": "b728547bf9ffa8f6d1fea3d66195fbe6", "type": "electric_scooter", "is_disabled": 0, "lat": 38.908122666666664, "rental_uris": {"ios": "https://dc.lft.to/lastmile_qr_scan", "android": "https://dc.lft.to/lastmile_qr_scan"}, "is_reserved": 0, "fusion_lon": 0.0, "fusion_lat": 0.0, "lon": -77.03446066666666, "name": "b728547bf9ffa8f6d1fea3d66195fbe6"}, {"bike_id": "edb28cfdf0c8ff36f91e5ec90f12ef98", "type": "electric_scooter", "is_disabled": 0, "lat": 38.87712533333333, "rental_uris": {"ios": "https://dc.lft.to/lastmile_qr_scan", "android": "https://dc.lft.to/lastmile_qr_scan"}, "is_reserved": 0, "fusion_lon": 0.0, "fusion_lat": 0.0, "lon": -77.01775066666667, "name": "edb28cfdf0c8ff36f91e5ec90f12ef98"}, {"bike_id": "2db3f762790e7ce3e36cb3ae4c4918a9", "type": "electric_scooter", "is_disabled": 0, "lat": 38.926070833333334, "rental_uris": {"ios": "https://dc.lft.to/lastmile_qr_scan", "android": "https://dc.lft.to/lastmile_qr_scan"}, "is_reserved": 0, "fusion_lon": 0.0, "fusion_lat": 0.0, "lon": -77.10237566666666, "name": "2db3f762790e7ce3e36cb3ae4c4918a9"}, {"bike_id": "19ef72cdd0ed4d1b478d28127cc98c3f", "type": "electric_scooter", "is_disabled": 0, "lat": 38.922396, "rental_uris": {"ios": "https://dc.lft.to/lastmile_qr_scan", "android": "https://dc.lft.to/lastmile_qr_scan"}, "is_reserved": 0, "fusion_lon": 0.0, "fusion_lat": 0.0, "lon": -77.04364916666667, "name": "19ef72cdd0ed4d1b478d28127cc98c3f"}, {"bike_id": "7bfb3a0fecf59aee0014dacfe471c819", "type": "electric_scooter", "is_disabled": 0, "lat": 38.917544, "rental_uris": {"ios": "https://dc.lft.to/lastmile_qr_scan", "android": "https://dc.lft.to/lastmile_qr_scan"}, "is_reserved": 0, "fusion_lon": 0.0, "fusion_lat": 0.0, "lon": -77.03860533333334, "name": "7bfb3a0fecf59aee0014dacfe471c819"}, {"bike_id": "01d75b80c1e487f0d3427534d9c412f1", "type": "electric_scooter", "is_disabled": 0, "lat": 38.90311616666666, "rental_uris": {"ios": "https://dc.lft.to/lastmile_qr_scan", "android": "https://dc.lft.to/lastmile_qr_scan"}, "is_reserved": 0, "fusion_lon": 0.0, "fusion_lat": 0.0, "lon": -76.98358616666667, "name": "01d75b80c1e487f0d3427534d9c412f1"}, {"bike_id": "81f2a22ef1a014838c4273f5a3599c3d", "type": "electric_scooter", "is_disabled": 0, "lat": 38.93469433333333, "rental_uris": {"ios": "https://dc.lft.to/lastmile_qr_scan", "android": "https://dc.lft.to/lastmile_qr_scan"}, "is_reserved": 0, "fusion_lon": 0.0, "fusion_lat": 0.0, "lon": -77.028048, "name": "81f2a22ef1a014838c4273f5a3599c3d"}, {"bike_id": "58b1ce6583bea852ebc97ab489bbd4c5", "type": "electric_scooter", "is_disabled": 0, "lat": 38.934105, "rental_uris": {"ios": "https://dc.lft.to/lastmile_qr_scan", "android": "https://dc.lft.to/lastmile_qr_scan"}, "is_reserved": 0, "fusion_lon": 0.0, "fusion_lat": 0.0, "lon": -77.03913316666667, "name": "58b1ce6583bea852ebc97ab489bbd4c5"}, {"bike_id": "3dd6dac84941139381bc8ba4a3b01ee7", "type": "electric_scooter", "is_disabled": 0, "lat": 38.9005055, "rental_uris": {"ios": "https://dc.lft.to/lastmile_qr_scan", "android": "https://dc.lft.to/lastmile_qr_scan"}, "is_reserved": 0, "fusion_lon": 0.0, "fusion_lat": 0.0, "lon": -76.99751966666666, "name": "3dd6dac84941139381bc8ba4a3b01ee7"}, {"bike_id": "f626bda4599125fac777b8c37ce567a1", "type": "electric_scooter", "is_disabled": 0, "lat": 38.907166333333336, "rental_uris": {"ios": "https://dc.lft.to/lastmile_qr_scan", "android": "https://dc.lft.to/lastmile_qr_scan"}, "is_reserved": 0, "fusion_lon": 0.0, "fusion_lat": 0.0, "lon": -77.0450395, "name": "f626bda4599125fac777b8c37ce567a1"}, {"bike_id": "f1fa0729ff4d3d32698e2b82a48d9737", "type": "electric_scooter", "is_disabled": 0, "lat": 38.854447666666665, "rental_uris": {"ios": "https://dc.lft.to/lastmile_qr_scan", "android": "https://dc.lft.to/lastmile_qr_scan"}, "is_reserved": 0, "fusion_lon": 0.0, "fusion_lat": 0.0, "lon": -76.98607066666666, "name": "f1fa0729ff4d3d32698e2b82a48d9737"}, {"bike_id": "c9ed9375ee4d0a7dd769e32ddf9de247", "type": "electric_scooter", "is_disabled": 0, "lat": 38.94290383333333, "rental_uris": {"ios": "https://dc.lft.to/lastmile_qr_scan", "android": "https://dc.lft.to/lastmile_qr_scan"}, "is_reserved": 0, "fusion_lon": 0.0, "fusion_lat": 0.0, "lon": -77.02176533333333, "name": "c9ed9375ee4d0a7dd769e32ddf9de247"}, {"bike_id": "24bdbfa683b565522ad7f23a8d5f8f75", "type": "electric_scooter", "is_disabled": 0, "lat": 38.935322666666664, "rental_uris": {"ios": "https://dc.lft.to/lastmile_qr_scan", "android": "https://dc.lft.to/lastmile_qr_scan"}, "is_reserved": 0, "fusion_lon": 0.0, "fusion_lat": 0.0, "lon": -77.02350233333334, "name": "24bdbfa683b565522ad7f23a8d5f8f75"}, {"bike_id": "48f5c034776148a3d1436ff2c4b76ad2", "type": "electric_scooter", "is_disabled": 0, "lat": 38.918197666666664, "rental_uris": {"ios": "https://dc.lft.to/lastmile_qr_scan", "android": "https://dc.lft.to/lastmile_qr_scan"}, "is_reserved": 0, "fusion_lon": 0.0, "fusion_lat": 0.0, "lon": -77.03667516666667, "name": "48f5c034776148a3d1436ff2c4b76ad2"}, {"bike_id": "90f0fd58c73a4a3a46700f2534f60e1e", "type": "electric_scooter", "is_disabled": 0, "lat": 38.907983, "rental_uris": {"ios": "https://dc.lft.to/lastmile_qr_scan", "android": "https://dc.lft.to/lastmile_qr_scan"}, "is_reserved": 0, "fusion_lon": 0.0, "fusion_lat": 0.0, "lon": -77.0433845, "name": "90f0fd58c73a4a3a46700f2534f60e1e"}, {"bike_id": "bd70e2c641730c7cd53019b2881eaeb0", "type": "electric_scooter", "is_disabled": 0, "lat": 38.8624665, "rental_uris": {"ios": "https://dc.lft.to/lastmile_qr_scan", "android": "https://dc.lft.to/lastmile_qr_scan"}, "is_reserved": 0, "fusion_lon": 0.0, "fusion_lat": 0.0, "lon": -76.99500783333333, "name": "bd70e2c641730c7cd53019b2881eaeb0"}, {"bike_id": "701ad20d8294d6c0e10605c11e71f49a", "type": "electric_scooter", "is_disabled": 0, "lat": 38.90731183333333, "rental_uris": {"ios": "https://dc.lft.to/lastmile_qr_scan", "android": "https://dc.lft.to/lastmile_qr_scan"}, "is_reserved": 0, "fusion_lon": 0.0, "fusion_lat": 0.0, "lon": -77.0345385, "name": "701ad20d8294d6c0e10605c11e71f49a"}, {"bike_id": "bd0004af333dfccc76f4f0b1677f7703", "type": "electric_bike", "is_disabled": 0, "lat": 38.89768083333333, "rental_uris": {"ios": "https://dc.lft.to/lastmile_qr_scan", "android": "https://dc.lft.to/lastmile_qr_scan"}, "is_reserved": 0, "fusion_lon": 0.0, "fusion_lat": 0.0, "lon": -77.00888266666666, "name": "bd0004af333dfccc76f4f0b1677f7703"}, {"bike_id": "47e953ddb02cf869c1bcafca315750af", "type": "electric_scooter", "is_disabled": 0, "lat": 38.93328066666667, "rental_uris": {"ios": "https://dc.lft.to/lastmile_qr_scan", "android": "https://dc.lft.to/lastmile_qr_scan"}, "is_reserved": 0, "fusion_lon": 0.0, "fusion_lat": 0.0, "lon": -77.029244, "name": "47e953ddb02cf869c1bcafca315750af"}, {"bike_id": "5af07dca815523f33cc4290cf0044944", "type": "electric_scooter", "is_disabled": 0, "lat": 38.91750716666667, "rental_uris": {"ios": "https://dc.lft.to/lastmile_qr_scan", "android": "https://dc.lft.to/lastmile_qr_scan"}, "is_reserved": 0, "fusion_lon": 0.0, "fusion_lat": 0.0, "lon": -77.03855366666667, "name": "5af07dca815523f33cc4290cf0044944"}, {"bike_id": "e26b15ee70d697eb5b993164232f7edf", "type": "electric_scooter", "is_disabled": 0, "lat": 38.92448683333333, "rental_uris": {"ios": "https://dc.lft.to/lastmile_qr_scan", "android": "https://dc.lft.to/lastmile_qr_scan"}, "is_reserved": 0, "fusion_lon": 0.0, "fusion_lat": 0.0, "lon": -77.02404733333333, "name": "e26b15ee70d697eb5b993164232f7edf"}, {"bike_id": "5eb45591fbbbb82d3a400059295fd71d", "type": "electric_scooter", "is_disabled": 0, "lat": 38.880724666666666, "rental_uris": {"ios": "https://dc.lft.to/lastmile_qr_scan", "android": "https://dc.lft.to/lastmile_qr_scan"}, "is_reserved": 0, "fusion_lon": 0.0, "fusion_lat": 0.0, "lon": -76.99505816666667, "name": "5eb45591fbbbb82d3a400059295fd71d"}, {"bike_id": "b52f5cbb226e22ace8b3bc8b442ea4df", "type": "electric_bike", "is_disabled": 0, "lat": 38.8542435, "rental_uris": {"ios": "https://dc.lft.to/lastmile_qr_scan", "android": "https://dc.lft.to/lastmile_qr_scan"}, "is_reserved": 0, "fusion_lon": 0.0, "fusion_lat": 0.0, "lon": -77.12077116666667, "name": "b52f5cbb226e22ace8b3bc8b442ea4df"}, {"bike_id": "48bf826f138ca6fb5ee7607803899f80", "type": "electric_scooter", "is_disabled": 0, "lat": 38.874591833333334, "rental_uris": {"ios": "https://dc.lft.to/lastmile_qr_scan", "android": "https://dc.lft.to/lastmile_qr_scan"}, "is_reserved": 0, "fusion_lon": 0.0, "fusion_lat": 0.0, "lon": -77.00303233333334, "name": "48bf826f138ca6fb5ee7607803899f80"}, {"bike_id": "3fb03b415ee1a6b961a6c959b62479b9", "type": "electric_scooter", "is_disabled": 0, "lat": 38.948397666666665, "rental_uris": {"ios": "https://dc.lft.to/lastmile_qr_scan", "android": "https://dc.lft.to/lastmile_qr_scan"}, "is_reserved": 0, "fusion_lon": 0.0, "fusion_lat": 0.0, "lon": -77.0254215, "name": "3fb03b415ee1a6b961a6c959b62479b9"}, {"bike_id": "a0dd8e5cb63489e90c3f6d46cdfc2cc6", "type": "electric_bike", "is_disabled": 0, "lat": 38.80414916666667, "rental_uris": {"ios": "https://dc.lft.to/lastmile_qr_scan", "android": "https://dc.lft.to/lastmile_qr_scan"}, "is_reserved": 0, "fusion_lon": 0.0, "fusion_lat": 0.0, "lon": -77.05553933333333, "name": "a0dd8e5cb63489e90c3f6d46cdfc2cc6"}, {"bike_id": "762e354c993ceee7613efcd5c02ceafb", "type": "electric_scooter", "is_disabled": 0, "lat": 38.9228895, "rental_uris": {"ios": "https://dc.lft.to/lastmile_qr_scan", "android": "https://dc.lft.to/lastmile_qr_scan"}, "is_reserved": 0, "fusion_lon": 0.0, "fusion_lat": 0.0, "lon": -77.0297255, "name": "762e354c993ceee7613efcd5c02ceafb"}, {"bike_id": "19cb329e6627f4ff42097f8e78da0dc7", "type": "electric_scooter", "is_disabled": 0, "lat": 38.905519, "rental_uris": {"ios": "https://dc.lft.to/lastmile_qr_scan", "android": "https://dc.lft.to/lastmile_qr_scan"}, "is_reserved": 0, "fusion_lon": 0.0, "fusion_lat": 0.0, "lon": -76.99620983333334, "name": "19cb329e6627f4ff42097f8e78da0dc7"}, {"bike_id": "c8d9cc248326b950c5d46e4b9e06dcee", "type": "electric_scooter", "is_disabled": 0, "lat": 38.9049535, "rental_uris": {"ios": "https://dc.lft.to/lastmile_qr_scan", "android": "https://dc.lft.to/lastmile_qr_scan"}, "is_reserved": 0, "fusion_lon": 0.0, "fusion_lat": 0.0, "lon": -77.02005083333333, "name": "c8d9cc248326b950c5d46e4b9e06dcee"}, {"bike_id": "fea83302c04064990e42cd5d81c622bd", "type": "electric_scooter", "is_disabled": 0, "lat": 38.918141166666665, "rental_uris": {"ios": "https://dc.lft.to/lastmile_qr_scan", "android": "https://dc.lft.to/lastmile_qr_scan"}, "is_reserved": 0, "fusion_lon": 0.0, "fusion_lat": 0.0, "lon": -77.0319195, "name": "fea83302c04064990e42cd5d81c622bd"}, {"bike_id": "991011039250dcbc8c6a4b7381440233", "type": "electric_scooter", "is_disabled": 0, "lat": 38.92258316666667, "rental_uris": {"ios": "https://dc.lft.to/lastmile_qr_scan", "android": "https://dc.lft.to/lastmile_qr_scan"}, "is_reserved": 0, "fusion_lon": 0.0, "fusion_lat": 0.0, "lon": -77.038833, "name": "991011039250dcbc8c6a4b7381440233"}, {"bike_id": "18abe9fae94a5b8e46fbd134b67e98f7", "type": "electric_scooter", "is_disabled": 0, "lat": 38.92289, "rental_uris": {"ios": "https://dc.lft.to/lastmile_qr_scan", "android": "https://dc.lft.to/lastmile_qr_scan"}, "is_reserved": 0, "fusion_lon": 0.0, "fusion_lat": 0.0, "lon": -76.99455366666666, "name": "18abe9fae94a5b8e46fbd134b67e98f7"}, {"bike_id": "69c7fad2621244dfb92a2a61c4214e18", "type": "electric_scooter", "is_disabled": 0, "lat": 38.88429983333333, "rental_uris": {"ios": "https://dc.lft.to/lastmile_qr_scan", "android": "https://dc.lft.to/lastmile_qr_scan"}, "is_reserved": 0, "fusion_lon": 0.0, "fusion_lat": 0.0, "lon": -76.9575705, "name": "69c7fad2621244dfb92a2a61c4214e18"}, {"bike_id": "f9a152fc611a1ee94707bba8ccc6c1d4", "type": "electric_scooter", "is_disabled": 0, "lat": 38.89537983333334, "rental_uris": {"ios": "https://dc.lft.to/lastmile_qr_scan", "android": "https://dc.lft.to/lastmile_qr_scan"}, "is_reserved": 0, "fusion_lon": 0.0, "fusion_lat": 0.0, "lon": -77.01087316666667, "name": "f9a152fc611a1ee94707bba8ccc6c1d4"}, {"bike_id": "9f3e77333456c6da2996e3675f6fd8b5", "type": "electric_scooter", "is_disabled": 0, "lat": 38.909435, "rental_uris": {"ios": "https://dc.lft.to/lastmile_qr_scan", "android": "https://dc.lft.to/lastmile_qr_scan"}, "is_reserved": 0, "fusion_lon": 0.0, "fusion_lat": 0.0, "lon": -77.03445066666667, "name": "9f3e77333456c6da2996e3675f6fd8b5"}, {"bike_id": "dfa46afeb0313db36401899aa3b8d26c", "type": "electric_scooter", "is_disabled": 0, "lat": 38.928396166666666, "rental_uris": {"ios": "https://dc.lft.to/lastmile_qr_scan", "android": "https://dc.lft.to/lastmile_qr_scan"}, "is_reserved": 0, "fusion_lon": 0.0, "fusion_lat": 0.0, "lon": -77.02748833333334, "name": "dfa46afeb0313db36401899aa3b8d26c"}, {"bike_id": "c81468408d130ca92c7f6f858f4ce8e6", "type": "electric_scooter", "is_disabled": 0, "lat": 38.93635866666666, "rental_uris": {"ios": "https://dc.lft.to/lastmile_qr_scan", "android": "https://dc.lft.to/lastmile_qr_scan"}, "is_reserved": 0, "fusion_lon": 0.0, "fusion_lat": 0.0, "lon": -77.05883866666667, "name": "c81468408d130ca92c7f6f858f4ce8e6"}, {"bike_id": "5ec2fdb733e7d0a148037d23be684bcb", "type": "electric_scooter", "is_disabled": 0, "lat": 38.88934916666667, "rental_uris": {"ios": "https://dc.lft.to/lastmile_qr_scan", "android": "https://dc.lft.to/lastmile_qr_scan"}, "is_reserved": 0, "fusion_lon": 0.0, "fusion_lat": 0.0, "lon": -77.0150395, "name": "5ec2fdb733e7d0a148037d23be684bcb"}, {"bike_id": "b35c7648f0861974dc243f138f037a2f", "type": "electric_bike", "is_disabled": 0, "lat": 38.8070605, "rental_uris": {"ios": "https://dc.lft.to/lastmile_qr_scan", "android": "https://dc.lft.to/lastmile_qr_scan"}, "is_reserved": 0, "fusion_lon": 0.0, "fusion_lat": 0.0, "lon": -77.06173933333334, "name": "b35c7648f0861974dc243f138f037a2f"}, {"bike_id": "ab4edc888efd3621161057c40d6d9679", "type": "electric_scooter", "is_disabled": 0, "lat": 38.923413333333336, "rental_uris": {"ios": "https://dc.lft.to/lastmile_qr_scan", "android": "https://dc.lft.to/lastmile_qr_scan"}, "is_reserved": 0, "fusion_lon": 0.0, "fusion_lat": 0.0, "lon": -77.00190016666667, "name": "ab4edc888efd3621161057c40d6d9679"}, {"bike_id": "4bbd4de915283b9e366a0cce7182dad8", "type": "electric_bike", "is_disabled": 0, "lat": 38.9525365, "rental_uris": {"ios": "https://dc.lft.to/lastmile_qr_scan", "android": "https://dc.lft.to/lastmile_qr_scan"}, "is_reserved": 0, "fusion_lon": 0.0, "fusion_lat": 0.0, "lon": -77.00245133333334, "name": "4bbd4de915283b9e366a0cce7182dad8"}, {"bike_id": "c525ecc11d83ef0d3bb06ee15007baf6", "type": "electric_scooter", "is_disabled": 0, "lat": 38.92603583333333, "rental_uris": {"ios": "https://dc.lft.to/lastmile_qr_scan", "android": "https://dc.lft.to/lastmile_qr_scan"}, "is_reserved": 0, "fusion_lon": 0.0, "fusion_lat": 0.0, "lon": -77.02414916666666, "name": "c525ecc11d83ef0d3bb06ee15007baf6"}, {"bike_id": "e042ba412e7dc28b42f0497f505c6ff8", "type": "electric_scooter", "is_disabled": 0, "lat": 38.877355, "rental_uris": {"ios": "https://dc.lft.to/lastmile_qr_scan", "android": "https://dc.lft.to/lastmile_qr_scan"}, "is_reserved": 0, "fusion_lon": 0.0, "fusion_lat": 0.0, "lon": -77.0178225, "name": "e042ba412e7dc28b42f0497f505c6ff8"}, {"bike_id": "4f669ebfedf21d91cba450292abd3eb9", "type": "electric_scooter", "is_disabled": 0, "lat": 38.9055555, "rental_uris": {"ios": "https://dc.lft.to/lastmile_qr_scan", "android": "https://dc.lft.to/lastmile_qr_scan"}, "is_reserved": 0, "fusion_lon": 0.0, "fusion_lat": 0.0, "lon": -77.0344645, "name": "4f669ebfedf21d91cba450292abd3eb9"}, {"bike_id": "03955d9fd89d024a3a667d75833f1c03", "type": "electric_scooter", "is_disabled": 0, "lat": 38.8921925, "rental_uris": {"ios": "https://dc.lft.to/lastmile_qr_scan", "android": "https://dc.lft.to/lastmile_qr_scan"}, "is_reserved": 0, "fusion_lon": 0.0, "fusion_lat": 0.0, "lon": -77.02580383333333, "name": "03955d9fd89d024a3a667d75833f1c03"}, {"bike_id": "db46a946a76c456ea211ee1144a310cb", "type": "electric_scooter", "is_disabled": 0, "lat": 38.91331516666666, "rental_uris": {"ios": "https://dc.lft.to/lastmile_qr_scan", "android": "https://dc.lft.to/lastmile_qr_scan"}, "is_reserved": 0, "fusion_lon": 0.0, "fusion_lat": 0.0, "lon": -77.0473015, "name": "db46a946a76c456ea211ee1144a310cb"}, {"bike_id": "9f84e2f3a6751762e1fc7229761e4bec", "type": "electric_scooter", "is_disabled": 0, "lat": 38.91268733333333, "rental_uris": {"ios": "https://dc.lft.to/lastmile_qr_scan", "android": "https://dc.lft.to/lastmile_qr_scan"}, "is_reserved": 0, "fusion_lon": 0.0, "fusion_lat": 0.0, "lon": -77.03830183333334, "name": "9f84e2f3a6751762e1fc7229761e4bec"}, {"bike_id": "1beb574a133d7d37df4c0aa55f597181", "type": "electric_scooter", "is_disabled": 0, "lat": 38.91128, "rental_uris": {"ios": "https://dc.lft.to/lastmile_qr_scan", "android": "https://dc.lft.to/lastmile_qr_scan"}, "is_reserved": 0, "fusion_lon": 0.0, "fusion_lat": 0.0, "lon": -77.043625, "name": "1beb574a133d7d37df4c0aa55f597181"}, {"bike_id": "086a1a7e1af93fdfa577e4b14af7c232", "type": "electric_scooter", "is_disabled": 0, "lat": 38.9240855, "rental_uris": {"ios": "https://dc.lft.to/lastmile_qr_scan", "android": "https://dc.lft.to/lastmile_qr_scan"}, "is_reserved": 0, "fusion_lon": 0.0, "fusion_lat": 0.0, "lon": -77.02019566666667, "name": "086a1a7e1af93fdfa577e4b14af7c232"}, {"bike_id": "aee9857363b1657b2f5b8aae5b250c9d", "type": "electric_scooter", "is_disabled": 0, "lat": 38.91754366666667, "rental_uris": {"ios": "https://dc.lft.to/lastmile_qr_scan", "android": "https://dc.lft.to/lastmile_qr_scan"}, "is_reserved": 0, "fusion_lon": 0.0, "fusion_lat": 0.0, "lon": -77.0385725, "name": "aee9857363b1657b2f5b8aae5b250c9d"}, {"bike_id": "a752667bdfffd0638eb7afec4aca803e", "type": "electric_scooter", "is_disabled": 0, "lat": 38.9065015, "rental_uris": {"ios": "https://dc.lft.to/lastmile_qr_scan", "android": "https://dc.lft.to/lastmile_qr_scan"}, "is_reserved": 0, "fusion_lon": 0.0, "fusion_lat": 0.0, "lon": -77.05324016666667, "name": "a752667bdfffd0638eb7afec4aca803e"}, {"bike_id": "5bd7f39b7707214b0671a772d23f1b53", "type": "electric_scooter", "is_disabled": 0, "lat": 38.91676533333333, "rental_uris": {"ios": "https://dc.lft.to/lastmile_qr_scan", "android": "https://dc.lft.to/lastmile_qr_scan"}, "is_reserved": 0, "fusion_lon": 0.0, "fusion_lat": 0.0, "lon": -77.03216216666667, "name": "5bd7f39b7707214b0671a772d23f1b53"}, {"bike_id": "eaacaf3f0a7f98091d8b8823eb81d7b9", "type": "electric_scooter", "is_disabled": 0, "lat": 38.94464583333333, "rental_uris": {"ios": "https://dc.lft.to/lastmile_qr_scan", "android": "https://dc.lft.to/lastmile_qr_scan"}, "is_reserved": 0, "fusion_lon": 0.0, "fusion_lat": 0.0, "lon": -77.006585, "name": "eaacaf3f0a7f98091d8b8823eb81d7b9"}, {"bike_id": "d937d87d9243ce331c2877f870f61040", "type": "electric_scooter", "is_disabled": 0, "lat": 38.936088, "rental_uris": {"ios": "https://dc.lft.to/lastmile_qr_scan", "android": "https://dc.lft.to/lastmile_qr_scan"}, "is_reserved": 0, "fusion_lon": 0.0, "fusion_lat": 0.0, "lon": -77.058613, "name": "d937d87d9243ce331c2877f870f61040"}, {"bike_id": "0f982ce362f291016eb49cc6213907b0", "type": "electric_scooter", "is_disabled": 0, "lat": 38.912468, "rental_uris": {"ios": "https://dc.lft.to/lastmile_qr_scan", "android": "https://dc.lft.to/lastmile_qr_scan"}, "is_reserved": 0, "fusion_lon": 0.0, "fusion_lat": 0.0, "lon": -77.03855733333333, "name": "0f982ce362f291016eb49cc6213907b0"}, {"bike_id": "1f17d33de7b97fccb7cb321ec691f359", "type": "electric_scooter", "is_disabled": 0, "lat": 38.93537166666667, "rental_uris": {"ios": "https://dc.lft.to/lastmile_qr_scan", "android": "https://dc.lft.to/lastmile_qr_scan"}, "is_reserved": 0, "fusion_lon": 0.0, "fusion_lat": 0.0, "lon": -77.05829533333333, "name": "1f17d33de7b97fccb7cb321ec691f359"}, {"bike_id": "15c416b2d51b3f4f03265479a7971f95", "type": "electric_bike", "is_disabled": 0, "lat": 38.83673066666667, "rental_uris": {"ios": "https://dc.lft.to/lastmile_qr_scan", "android": "https://dc.lft.to/lastmile_qr_scan"}, "is_reserved": 0, "fusion_lon": 0.0, "fusion_lat": 0.0, "lon": -76.99362166666667, "name": "15c416b2d51b3f4f03265479a7971f95"}, {"bike_id": "844fea8433e7500c05558a841679f8e2", "type": "electric_scooter", "is_disabled": 0, "lat": 38.906482833333335, "rental_uris": {"ios": "https://dc.lft.to/lastmile_qr_scan", "android": "https://dc.lft.to/lastmile_qr_scan"}, "is_reserved": 0, "fusion_lon": 0.0, "fusion_lat": 0.0, "lon": -77.01728966666667, "name": "844fea8433e7500c05558a841679f8e2"}, {"bike_id": "c722364b1c59ef395e545f5a1e208db6", "type": "electric_scooter", "is_disabled": 0, "lat": 38.90083216666667, "rental_uris": {"ios": "https://dc.lft.to/lastmile_qr_scan", "android": "https://dc.lft.to/lastmile_qr_scan"}, "is_reserved": 0, "fusion_lon": 0.0, "fusion_lat": 0.0, "lon": -77.03087983333333, "name": "c722364b1c59ef395e545f5a1e208db6"}, {"bike_id": "7a9efb4e3d0e96970ec156596a857e15", "type": "electric_scooter", "is_disabled": 0, "lat": 38.899388333333334, "rental_uris": {"ios": "https://dc.lft.to/lastmile_qr_scan", "android": "https://dc.lft.to/lastmile_qr_scan"}, "is_reserved": 0, "fusion_lon": 0.0, "fusion_lat": 0.0, "lon": -77.047778, "name": "7a9efb4e3d0e96970ec156596a857e15"}, {"bike_id": "84d15219985edf61f3e240f54b6790c4", "type": "electric_scooter", "is_disabled": 0, "lat": 38.902605666666666, "rental_uris": {"ios": "https://dc.lft.to/lastmile_qr_scan", "android": "https://dc.lft.to/lastmile_qr_scan"}, "is_reserved": 0, "fusion_lon": 0.0, "fusion_lat": 0.0, "lon": -77.03388133333333, "name": "84d15219985edf61f3e240f54b6790c4"}, {"bike_id": "f76cdfcbe3cb38f1e47c257aa67a2a22", "type": "electric_scooter", "is_disabled": 0, "lat": 38.9140465, "rental_uris": {"ios": "https://dc.lft.to/lastmile_qr_scan", "android": "https://dc.lft.to/lastmile_qr_scan"}, "is_reserved": 0, "fusion_lon": 0.0, "fusion_lat": 0.0, "lon": -77.03146383333333, "name": "f76cdfcbe3cb38f1e47c257aa67a2a22"}, {"bike_id": "8db5da2361bb37efd6149157516ff9fd", "type": "electric_scooter", "is_disabled": 0, "lat": 38.90725583333333, "rental_uris": {"ios": "https://dc.lft.to/lastmile_qr_scan", "android": "https://dc.lft.to/lastmile_qr_scan"}, "is_reserved": 0, "fusion_lon": 0.0, "fusion_lat": 0.0, "lon": -77.02983816666666, "name": "8db5da2361bb37efd6149157516ff9fd"}, {"bike_id": "adbf2cdfa80158281e3541c0168a740e", "type": "electric_scooter", "is_disabled": 0, "lat": 38.918804333333334, "rental_uris": {"ios": "https://dc.lft.to/lastmile_qr_scan", "android": "https://dc.lft.to/lastmile_qr_scan"}, "is_reserved": 0, "fusion_lon": 0.0, "fusion_lat": 0.0, "lon": -77.0296045, "name": "adbf2cdfa80158281e3541c0168a740e"}, {"bike_id": "41365e9785d6e11f476105901b096c60", "type": "electric_scooter", "is_disabled": 0, "lat": 38.924601333333335, "rental_uris": {"ios": "https://dc.lft.to/lastmile_qr_scan", "android": "https://dc.lft.to/lastmile_qr_scan"}, "is_reserved": 0, "fusion_lon": 0.0, "fusion_lat": 0.0, "lon": -77.02959, "name": "41365e9785d6e11f476105901b096c60"}, {"bike_id": "f2529fa6706cb977f357ea8339994585", "type": "electric_bike", "is_disabled": 0, "lat": 38.9244945, "rental_uris": {"ios": "https://dc.lft.to/lastmile_qr_scan", "android": "https://dc.lft.to/lastmile_qr_scan"}, "is_reserved": 0, "fusion_lon": 0.0, "fusion_lat": 0.0, "lon": -77.2256245, "name": "f2529fa6706cb977f357ea8339994585"}, {"bike_id": "711c65fee5aaf5961c325b98f7c857ea", "type": "electric_scooter", "is_disabled": 0, "lat": 38.93476183333333, "rental_uris": {"ios": "https://dc.lft.to/lastmile_qr_scan", "android": "https://dc.lft.to/lastmile_qr_scan"}, "is_reserved": 0, "fusion_lon": 0.0, "fusion_lat": 0.0, "lon": -77.02613833333334, "name": "711c65fee5aaf5961c325b98f7c857ea"}, {"bike_id": "b9dd5f885993e31bc93c58f1b4b3f94a", "type": "electric_scooter", "is_disabled": 0, "lat": 38.904470833333335, "rental_uris": {"ios": "https://dc.lft.to/lastmile_qr_scan", "android": "https://dc.lft.to/lastmile_qr_scan"}, "is_reserved": 0, "fusion_lon": 0.0, "fusion_lat": 0.0, "lon": -77.0345605, "name": "b9dd5f885993e31bc93c58f1b4b3f94a"}, {"bike_id": "494acb6b416cd2d699fd8fb3ffa8ce6b", "type": "electric_scooter", "is_disabled": 0, "lat": 38.91675983333333, "rental_uris": {"ios": "https://dc.lft.to/lastmile_qr_scan", "android": "https://dc.lft.to/lastmile_qr_scan"}, "is_reserved": 0, "fusion_lon": 0.0, "fusion_lat": 0.0, "lon": -77.02975766666667, "name": "494acb6b416cd2d699fd8fb3ffa8ce6b"}, {"bike_id": "713c6a3041fdb0443de2b1fb304c9f4c", "type": "electric_scooter", "is_disabled": 0, "lat": 38.904299333333334, "rental_uris": {"ios": "https://dc.lft.to/lastmile_qr_scan", "android": "https://dc.lft.to/lastmile_qr_scan"}, "is_reserved": 0, "fusion_lon": 0.0, "fusion_lat": 0.0, "lon": -77.0544435, "name": "713c6a3041fdb0443de2b1fb304c9f4c"}, {"bike_id": "233e4414c75ede2349aa2f3225813ce3", "type": "electric_scooter", "is_disabled": 0, "lat": 38.936755166666664, "rental_uris": {"ios": "https://dc.lft.to/lastmile_qr_scan", "android": "https://dc.lft.to/lastmile_qr_scan"}, "is_reserved": 0, "fusion_lon": 0.0, "fusion_lat": 0.0, "lon": -77.03565633333334, "name": "233e4414c75ede2349aa2f3225813ce3"}, {"bike_id": "1657493db5819e654a75bd23df393dd9", "type": "electric_bike", "is_disabled": 0, "lat": 38.896204166666664, "rental_uris": {"ios": "https://dc.lft.to/lastmile_qr_scan", "android": "https://dc.lft.to/lastmile_qr_scan"}, "is_reserved": 0, "fusion_lon": 0.0, "fusion_lat": 0.0, "lon": -77.02237883333333, "name": "1657493db5819e654a75bd23df393dd9"}, {"bike_id": "44504a081c731ea6446f614388001b37", "type": "electric_scooter", "is_disabled": 0, "lat": 38.86247633333333, "rental_uris": {"ios": "https://dc.lft.to/lastmile_qr_scan", "android": "https://dc.lft.to/lastmile_qr_scan"}, "is_reserved": 0, "fusion_lon": 0.0, "fusion_lat": 0.0, "lon": -76.995015, "name": "44504a081c731ea6446f614388001b37"}, {"bike_id": "c88efa12acbea5db6168c3b8d491ed3c", "type": "electric_scooter", "is_disabled": 0, "lat": 38.962072666666664, "rental_uris": {"ios": "https://dc.lft.to/lastmile_qr_scan", "android": "https://dc.lft.to/lastmile_qr_scan"}, "is_reserved": 0, "fusion_lon": 0.0, "fusion_lat": 0.0, "lon": -77.02232833333333, "name": "c88efa12acbea5db6168c3b8d491ed3c"}, {"bike_id": "1d16749667c9b3d5b93bd32d8f33fa83", "type": "electric_scooter", "is_disabled": 0, "lat": 38.92745733333334, "rental_uris": {"ios": "https://dc.lft.to/lastmile_qr_scan", "android": "https://dc.lft.to/lastmile_qr_scan"}, "is_reserved": 0, "fusion_lon": 0.0, "fusion_lat": 0.0, "lon": -77.02535883333333, "name": "1d16749667c9b3d5b93bd32d8f33fa83"}, {"bike_id": "642e3d568539c15b2bd3153bef1343d1", "type": "electric_scooter", "is_disabled": 0, "lat": 38.893049166666664, "rental_uris": {"ios": "https://dc.lft.to/lastmile_qr_scan", "android": "https://dc.lft.to/lastmile_qr_scan"}, "is_reserved": 0, "fusion_lon": 0.0, "fusion_lat": 0.0, "lon": -77.01235683333333, "name": "642e3d568539c15b2bd3153bef1343d1"}, {"bike_id": "dc6a85d464f10e34557ddf5fcd12297d", "type": "electric_bike", "is_disabled": 0, "lat": 38.9836915, "rental_uris": {"ios": "https://dc.lft.to/lastmile_qr_scan", "android": "https://dc.lft.to/lastmile_qr_scan"}, "is_reserved": 0, "fusion_lon": 0.0, "fusion_lat": 0.0, "lon": -76.97217483333333, "name": "dc6a85d464f10e34557ddf5fcd12297d"}, {"bike_id": "e98009da059f28be75129dd85ddd4e8c", "type": "electric_scooter", "is_disabled": 0, "lat": 38.905123833333334, "rental_uris": {"ios": "https://dc.lft.to/lastmile_qr_scan", "android": "https://dc.lft.to/lastmile_qr_scan"}, "is_reserved": 0, "fusion_lon": 0.0, "fusion_lat": 0.0, "lon": -77.0297825, "name": "e98009da059f28be75129dd85ddd4e8c"}, {"bike_id": "7a06e88fe1143d309fd5dbf0c6f89e0c", "type": "electric_scooter", "is_disabled": 0, "lat": 38.86472466666667, "rental_uris": {"ios": "https://dc.lft.to/lastmile_qr_scan", "android": "https://dc.lft.to/lastmile_qr_scan"}, "is_reserved": 0, "fusion_lon": 0.0, "fusion_lat": 0.0, "lon": -76.9823185, "name": "7a06e88fe1143d309fd5dbf0c6f89e0c"}, {"bike_id": "2d2cf042feb7e643025b4f84396b9fa4", "type": "electric_scooter", "is_disabled": 0, "lat": 38.921197166666666, "rental_uris": {"ios": "https://dc.lft.to/lastmile_qr_scan", "android": "https://dc.lft.to/lastmile_qr_scan"}, "is_reserved": 0, "fusion_lon": 0.0, "fusion_lat": 0.0, "lon": -77.01210566666667, "name": "2d2cf042feb7e643025b4f84396b9fa4"}, {"bike_id": "675e419edee6cd569060c39e8088977a", "type": "electric_scooter", "is_disabled": 0, "lat": 38.90294983333333, "rental_uris": {"ios": "https://dc.lft.to/lastmile_qr_scan", "android": "https://dc.lft.to/lastmile_qr_scan"}, "is_reserved": 0, "fusion_lon": 0.0, "fusion_lat": 0.0, "lon": -77.02435083333333, "name": "675e419edee6cd569060c39e8088977a"}, {"bike_id": "9d0685b6ca9d3c4e06b123348dcd9ad3", "type": "electric_scooter", "is_disabled": 0, "lat": 38.90827983333333, "rental_uris": {"ios": "https://dc.lft.to/lastmile_qr_scan", "android": "https://dc.lft.to/lastmile_qr_scan"}, "is_reserved": 0, "fusion_lon": 0.0, "fusion_lat": 0.0, "lon": -77.03867433333333, "name": "9d0685b6ca9d3c4e06b123348dcd9ad3"}, {"bike_id": "d363d0319931200caaffc71115440963", "type": "electric_scooter", "is_disabled": 0, "lat": 38.905651166666665, "rental_uris": {"ios": "https://dc.lft.to/lastmile_qr_scan", "android": "https://dc.lft.to/lastmile_qr_scan"}, "is_reserved": 0, "fusion_lon": 0.0, "fusion_lat": 0.0, "lon": -77.02837616666666, "name": "d363d0319931200caaffc71115440963"}, {"bike_id": "2c522565d0b5b2d8e16c1eafb2bdae92", "type": "electric_scooter", "is_disabled": 0, "lat": 38.8668795, "rental_uris": {"ios": "https://dc.lft.to/lastmile_qr_scan", "android": "https://dc.lft.to/lastmile_qr_scan"}, "is_reserved": 0, "fusion_lon": 0.0, "fusion_lat": 0.0, "lon": -76.98576416666667, "name": "2c522565d0b5b2d8e16c1eafb2bdae92"}, {"bike_id": "c65e952ed1a02151a55e233629d926c9", "type": "electric_scooter", "is_disabled": 0, "lat": 38.9167915, "rental_uris": {"ios": "https://dc.lft.to/lastmile_qr_scan", "android": "https://dc.lft.to/lastmile_qr_scan"}, "is_reserved": 0, "fusion_lon": 0.0, "fusion_lat": 0.0, "lon": -77.02288133333333, "name": "c65e952ed1a02151a55e233629d926c9"}, {"bike_id": "211b0564e05b9300263fc2ce91a95b2f", "type": "electric_scooter", "is_disabled": 0, "lat": 38.902674166666664, "rental_uris": {"ios": "https://dc.lft.to/lastmile_qr_scan", "android": "https://dc.lft.to/lastmile_qr_scan"}, "is_reserved": 0, "fusion_lon": 0.0, "fusion_lat": 0.0, "lon": -77.0032505, "name": "211b0564e05b9300263fc2ce91a95b2f"}, {"bike_id": "dfee9ced06bc9970ae88a4af7d6fa1df", "type": "electric_scooter", "is_disabled": 0, "lat": 38.89258983333333, "rental_uris": {"ios": "https://dc.lft.to/lastmile_qr_scan", "android": "https://dc.lft.to/lastmile_qr_scan"}, "is_reserved": 0, "fusion_lon": 0.0, "fusion_lat": 0.0, "lon": -77.03334633333333, "name": "dfee9ced06bc9970ae88a4af7d6fa1df"}, {"bike_id": "97b65b4c90db6783ceb91439443c0185", "type": "electric_bike", "is_disabled": 0, "lat": 38.9086875, "rental_uris": {"ios": "https://dc.lft.to/lastmile_qr_scan", "android": "https://dc.lft.to/lastmile_qr_scan"}, "is_reserved": 0, "fusion_lon": 0.0, "fusion_lat": 0.0, "lon": -76.9912995, "name": "97b65b4c90db6783ceb91439443c0185"}, {"bike_id": "a02f139bc16b1d643a614c1ca7e50cee", "type": "electric_scooter", "is_disabled": 0, "lat": 38.906743, "rental_uris": {"ios": "https://dc.lft.to/lastmile_qr_scan", "android": "https://dc.lft.to/lastmile_qr_scan"}, "is_reserved": 0, "fusion_lon": 0.0, "fusion_lat": 0.0, "lon": -77.03829466666667, "name": "a02f139bc16b1d643a614c1ca7e50cee"}, {"bike_id": "7ff28bf5de7eca34b1be6a3706296e2e", "type": "electric_scooter", "is_disabled": 0, "lat": 38.921322833333335, "rental_uris": {"ios": "https://dc.lft.to/lastmile_qr_scan", "android": "https://dc.lft.to/lastmile_qr_scan"}, "is_reserved": 0, "fusion_lon": 0.0, "fusion_lat": 0.0, "lon": -77.0412795, "name": "7ff28bf5de7eca34b1be6a3706296e2e"}, {"bike_id": "a2190e3ce6737d5df5bd0416fb0b46ba", "type": "electric_scooter", "is_disabled": 0, "lat": 38.92311383333333, "rental_uris": {"ios": "https://dc.lft.to/lastmile_qr_scan", "android": "https://dc.lft.to/lastmile_qr_scan"}, "is_reserved": 0, "fusion_lon": 0.0, "fusion_lat": 0.0, "lon": -77.03913633333333, "name": "a2190e3ce6737d5df5bd0416fb0b46ba"}, {"bike_id": "9f25b3077be08d4f0d70ddde4dbc7924", "type": "electric_scooter", "is_disabled": 0, "lat": 38.918142333333336, "rental_uris": {"ios": "https://dc.lft.to/lastmile_qr_scan", "android": "https://dc.lft.to/lastmile_qr_scan"}, "is_reserved": 0, "fusion_lon": 0.0, "fusion_lat": 0.0, "lon": -77.036703, "name": "9f25b3077be08d4f0d70ddde4dbc7924"}, {"bike_id": "cb7b7557c3feb1f28e1a5baa683251e8", "type": "electric_scooter", "is_disabled": 0, "lat": 38.907394333333336, "rental_uris": {"ios": "https://dc.lft.to/lastmile_qr_scan", "android": "https://dc.lft.to/lastmile_qr_scan"}, "is_reserved": 0, "fusion_lon": 0.0, "fusion_lat": 0.0, "lon": -77.0295355, "name": "cb7b7557c3feb1f28e1a5baa683251e8"}, {"bike_id": "bbe9881848d8d087886e93fa93496849", "type": "electric_scooter", "is_disabled": 0, "lat": 38.9196055, "rental_uris": {"ios": "https://dc.lft.to/lastmile_qr_scan", "android": "https://dc.lft.to/lastmile_qr_scan"}, "is_reserved": 0, "fusion_lon": 0.0, "fusion_lat": 0.0, "lon": -77.02401683333333, "name": "bbe9881848d8d087886e93fa93496849"}, {"bike_id": "9b36f1dc112927f5778202e002fbb245", "type": "electric_scooter", "is_disabled": 0, "lat": 38.9370185, "rental_uris": {"ios": "https://dc.lft.to/lastmile_qr_scan", "android": "https://dc.lft.to/lastmile_qr_scan"}, "is_reserved": 0, "fusion_lon": 0.0, "fusion_lat": 0.0, "lon": -77.03283016666667, "name": "9b36f1dc112927f5778202e002fbb245"}, {"bike_id": "101a365c56fe079e6107c13d12ce074c", "type": "electric_scooter", "is_disabled": 0, "lat": 38.919903, "rental_uris": {"ios": "https://dc.lft.to/lastmile_qr_scan", "android": "https://dc.lft.to/lastmile_qr_scan"}, "is_reserved": 0, "fusion_lon": 0.0, "fusion_lat": 0.0, "lon": -77.02387266666666, "name": "101a365c56fe079e6107c13d12ce074c"}, {"bike_id": "a967cd6a439b99810675936eb24c14b0", "type": "electric_scooter", "is_disabled": 0, "lat": 38.901415, "rental_uris": {"ios": "https://dc.lft.to/lastmile_qr_scan", "android": "https://dc.lft.to/lastmile_qr_scan"}, "is_reserved": 0, "fusion_lon": 0.0, "fusion_lat": 0.0, "lon": -77.01631083333334, "name": "a967cd6a439b99810675936eb24c14b0"}, {"bike_id": "e9eff6aa27c38f4d5240f57235202acb", "type": "electric_scooter", "is_disabled": 0, "lat": 38.90349716666667, "rental_uris": {"ios": "https://dc.lft.to/lastmile_qr_scan", "android": "https://dc.lft.to/lastmile_qr_scan"}, "is_reserved": 0, "fusion_lon": 0.0, "fusion_lat": 0.0, "lon": -76.98513466666667, "name": "e9eff6aa27c38f4d5240f57235202acb"}, {"bike_id": "ab75e5c49083d8054155d228d7a5c091", "type": "electric_bike", "is_disabled": 0, "lat": 39.03695716666667, "rental_uris": {"ios": "https://dc.lft.to/lastmile_qr_scan", "android": "https://dc.lft.to/lastmile_qr_scan"}, "is_reserved": 0, "fusion_lon": 0.0, "fusion_lat": 0.0, "lon": -77.02856116666666, "name": "ab75e5c49083d8054155d228d7a5c091"}, {"bike_id": "65dcf5ad697289c4ceb967da6792fb74", "type": "electric_scooter", "is_disabled": 0, "lat": 38.88343783333333, "rental_uris": {"ios": "https://dc.lft.to/lastmile_qr_scan", "android": "https://dc.lft.to/lastmile_qr_scan"}, "is_reserved": 0, "fusion_lon": 0.0, "fusion_lat": 0.0, "lon": -76.99504866666666, "name": "65dcf5ad697289c4ceb967da6792fb74"}, {"bike_id": "e1153aa49ab67852a87b9c051c5363dc", "type": "electric_scooter", "is_disabled": 0, "lat": 38.875611666666664, "rental_uris": {"ios": "https://dc.lft.to/lastmile_qr_scan", "android": "https://dc.lft.to/lastmile_qr_scan"}, "is_reserved": 0, "fusion_lon": 0.0, "fusion_lat": 0.0, "lon": -76.95869450000001, "name": "e1153aa49ab67852a87b9c051c5363dc"}, {"bike_id": "f5b5d3a75ae7c46bcb5b7a6868b1a3d8", "type": "electric_bike", "is_disabled": 0, "lat": 38.955027333333334, "rental_uris": {"ios": "https://dc.lft.to/lastmile_qr_scan", "android": "https://dc.lft.to/lastmile_qr_scan"}, "is_reserved": 0, "fusion_lon": 0.0, "fusion_lat": 0.0, "lon": -76.99354033333333, "name": "f5b5d3a75ae7c46bcb5b7a6868b1a3d8"}, {"bike_id": "5a992b39f636ef0ad0be88aca3ad654c", "type": "electric_scooter", "is_disabled": 0, "lat": 38.95933483333334, "rental_uris": {"ios": "https://dc.lft.to/lastmile_qr_scan", "android": "https://dc.lft.to/lastmile_qr_scan"}, "is_reserved": 0, "fusion_lon": 0.0, "fusion_lat": 0.0, "lon": -77.03119683333334, "name": "5a992b39f636ef0ad0be88aca3ad654c"}, {"bike_id": "bcabfe8f573e3f6432364d42b0e3bdf2", "type": "electric_scooter", "is_disabled": 0, "lat": 38.9419785, "rental_uris": {"ios": "https://dc.lft.to/lastmile_qr_scan", "android": "https://dc.lft.to/lastmile_qr_scan"}, "is_reserved": 0, "fusion_lon": 0.0, "fusion_lat": 0.0, "lon": -77.02350316666667, "name": "bcabfe8f573e3f6432364d42b0e3bdf2"}, {"bike_id": "f52a66edbe2844d6ad3e62e1fb0831bd", "type": "electric_scooter", "is_disabled": 0, "lat": 38.909791, "rental_uris": {"ios": "https://dc.lft.to/lastmile_qr_scan", "android": "https://dc.lft.to/lastmile_qr_scan"}, "is_reserved": 0, "fusion_lon": 0.0, "fusion_lat": 0.0, "lon": -77.03442866666667, "name": "f52a66edbe2844d6ad3e62e1fb0831bd"}, {"bike_id": "4e9da91a30c2f7abaa6906ebe6b87f7d", "type": "electric_scooter", "is_disabled": 0, "lat": 38.876453, "rental_uris": {"ios": "https://dc.lft.to/lastmile_qr_scan", "android": "https://dc.lft.to/lastmile_qr_scan"}, "is_reserved": 0, "fusion_lon": 0.0, "fusion_lat": 0.0, "lon": -76.9650415, "name": "4e9da91a30c2f7abaa6906ebe6b87f7d"}, {"bike_id": "239c6a5188586e53f9d6a94d152ba645", "type": "electric_bike", "is_disabled": 0, "lat": 38.9588685, "rental_uris": {"ios": "https://dc.lft.to/lastmile_qr_scan", "android": "https://dc.lft.to/lastmile_qr_scan"}, "is_reserved": 0, "fusion_lon": 0.0, "fusion_lat": 0.0, "lon": -77.02747416666666, "name": "239c6a5188586e53f9d6a94d152ba645"}, {"bike_id": "c8d84f3afbee6d259cc5fbb9c86a2df1", "type": "electric_scooter", "is_disabled": 0, "lat": 38.90628, "rental_uris": {"ios": "https://dc.lft.to/lastmile_qr_scan", "android": "https://dc.lft.to/lastmile_qr_scan"}, "is_reserved": 0, "fusion_lon": 0.0, "fusion_lat": 0.0, "lon": -77.05152233333334, "name": "c8d84f3afbee6d259cc5fbb9c86a2df1"}, {"bike_id": "4d25efac01d1f3796a639927433a3a8c", "type": "electric_scooter", "is_disabled": 0, "lat": 38.917136, "rental_uris": {"ios": "https://dc.lft.to/lastmile_qr_scan", "android": "https://dc.lft.to/lastmile_qr_scan"}, "is_reserved": 0, "fusion_lon": 0.0, "fusion_lat": 0.0, "lon": -77.03661666666666, "name": "4d25efac01d1f3796a639927433a3a8c"}, {"bike_id": "cc568764988b2b75f1676d9a83def80a", "type": "electric_scooter", "is_disabled": 0, "lat": 38.926838000000004, "rental_uris": {"ios": "https://dc.lft.to/lastmile_qr_scan", "android": "https://dc.lft.to/lastmile_qr_scan"}, "is_reserved": 0, "fusion_lon": 0.0, "fusion_lat": 0.0, "lon": -77.02780516666667, "name": "cc568764988b2b75f1676d9a83def80a"}, {"bike_id": "3b53fdd5ee2d670c50de58e50ab39443", "type": "electric_scooter", "is_disabled": 0, "lat": 38.916258, "rental_uris": {"ios": "https://dc.lft.to/lastmile_qr_scan", "android": "https://dc.lft.to/lastmile_qr_scan"}, "is_reserved": 0, "fusion_lon": 0.0, "fusion_lat": 0.0, "lon": -77.03184833333333, "name": "3b53fdd5ee2d670c50de58e50ab39443"}, {"bike_id": "e47e3e994ab72d07a0e39aa1f287a9bb", "type": "electric_scooter", "is_disabled": 0, "lat": 38.9142255, "rental_uris": {"ios": "https://dc.lft.to/lastmile_qr_scan", "android": "https://dc.lft.to/lastmile_qr_scan"}, "is_reserved": 0, "fusion_lon": 0.0, "fusion_lat": 0.0, "lon": -77.04462483333333, "name": "e47e3e994ab72d07a0e39aa1f287a9bb"}, {"bike_id": "66958ed66f1f10f86ce470daec5ec702", "type": "electric_scooter", "is_disabled": 0, "lat": 38.884337333333335, "rental_uris": {"ios": "https://dc.lft.to/lastmile_qr_scan", "android": "https://dc.lft.to/lastmile_qr_scan"}, "is_reserved": 0, "fusion_lon": 0.0, "fusion_lat": 0.0, "lon": -76.9574915, "name": "66958ed66f1f10f86ce470daec5ec702"}, {"bike_id": "18f80b1215b24f85800d4103b18ad26a", "type": "electric_scooter", "is_disabled": 0, "lat": 38.93112983333333, "rental_uris": {"ios": "https://dc.lft.to/lastmile_qr_scan", "android": "https://dc.lft.to/lastmile_qr_scan"}, "is_reserved": 0, "fusion_lon": 0.0, "fusion_lat": 0.0, "lon": -77.0381055, "name": "18f80b1215b24f85800d4103b18ad26a"}, {"bike_id": "864764b0374b2d179be72870b51cc794", "type": "electric_scooter", "is_disabled": 0, "lat": 38.892299333333334, "rental_uris": {"ios": "https://dc.lft.to/lastmile_qr_scan", "android": "https://dc.lft.to/lastmile_qr_scan"}, "is_reserved": 0, "fusion_lon": 0.0, "fusion_lat": 0.0, "lon": -77.03374083333334, "name": "864764b0374b2d179be72870b51cc794"}, {"bike_id": "ba182e7bb2ff797d6317dca7a442111e", "type": "electric_scooter", "is_disabled": 0, "lat": 38.93651116666667, "rental_uris": {"ios": "https://dc.lft.to/lastmile_qr_scan", "android": "https://dc.lft.to/lastmile_qr_scan"}, "is_reserved": 0, "fusion_lon": 0.0, "fusion_lat": 0.0, "lon": -77.02639433333333, "name": "ba182e7bb2ff797d6317dca7a442111e"}, {"bike_id": "0620b44129b04cedb6ed3bb1139db4cb", "type": "electric_scooter", "is_disabled": 0, "lat": 38.957327666666664, "rental_uris": {"ios": "https://dc.lft.to/lastmile_qr_scan", "android": "https://dc.lft.to/lastmile_qr_scan"}, "is_reserved": 0, "fusion_lon": 0.0, "fusion_lat": 0.0, "lon": -77.02420516666666, "name": "0620b44129b04cedb6ed3bb1139db4cb"}, {"bike_id": "53ebaba8a9ccdcfce0d66f24ae272712", "type": "electric_bike", "is_disabled": 0, "lat": 38.869376833333334, "rental_uris": {"ios": "https://dc.lft.to/lastmile_qr_scan", "android": "https://dc.lft.to/lastmile_qr_scan"}, "is_reserved": 0, "fusion_lon": 0.0, "fusion_lat": 0.0, "lon": -77.09465366666667, "name": "53ebaba8a9ccdcfce0d66f24ae272712"}, {"bike_id": "a5e8ca9170197fae7d050a2f168b1eaa", "type": "electric_scooter", "is_disabled": 0, "lat": 38.914418166666664, "rental_uris": {"ios": "https://dc.lft.to/lastmile_qr_scan", "android": "https://dc.lft.to/lastmile_qr_scan"}, "is_reserved": 0, "fusion_lon": 0.0, "fusion_lat": 0.0, "lon": -77.02288633333333, "name": "a5e8ca9170197fae7d050a2f168b1eaa"}, {"bike_id": "40f4f8b5062c799f22cd5696b6ec610a", "type": "electric_scooter", "is_disabled": 0, "lat": 38.888495, "rental_uris": {"ios": "https://dc.lft.to/lastmile_qr_scan", "android": "https://dc.lft.to/lastmile_qr_scan"}, "is_reserved": 0, "fusion_lon": 0.0, "fusion_lat": 0.0, "lon": -76.92681133333333, "name": "40f4f8b5062c799f22cd5696b6ec610a"}, {"bike_id": "4b8664110e024a9e7502e6a0bcc2125d", "type": "electric_scooter", "is_disabled": 0, "lat": 38.883930166666666, "rental_uris": {"ios": "https://dc.lft.to/lastmile_qr_scan", "android": "https://dc.lft.to/lastmile_qr_scan"}, "is_reserved": 0, "fusion_lon": 0.0, "fusion_lat": 0.0, "lon": -76.995518, "name": "4b8664110e024a9e7502e6a0bcc2125d"}, {"bike_id": "3cb59212031467ff228d41a289e3bb34", "type": "electric_scooter", "is_disabled": 0, "lat": 38.86697916666667, "rental_uris": {"ios": "https://dc.lft.to/lastmile_qr_scan", "android": "https://dc.lft.to/lastmile_qr_scan"}, "is_reserved": 0, "fusion_lon": 0.0, "fusion_lat": 0.0, "lon": -76.98716866666666, "name": "3cb59212031467ff228d41a289e3bb34"}, {"bike_id": "75172f0d020db9d2536c9ea468f17bf6", "type": "electric_scooter", "is_disabled": 0, "lat": 38.87174616666667, "rental_uris": {"ios": "https://dc.lft.to/lastmile_qr_scan", "android": "https://dc.lft.to/lastmile_qr_scan"}, "is_reserved": 0, "fusion_lon": 0.0, "fusion_lat": 0.0, "lon": -77.00623666666667, "name": "75172f0d020db9d2536c9ea468f17bf6"}, {"bike_id": "7decbcdcc401fd030158fbf52657abdf", "type": "electric_scooter", "is_disabled": 0, "lat": 38.919321, "rental_uris": {"ios": "https://dc.lft.to/lastmile_qr_scan", "android": "https://dc.lft.to/lastmile_qr_scan"}, "is_reserved": 0, "fusion_lon": 0.0, "fusion_lat": 0.0, "lon": -77.07388333333333, "name": "7decbcdcc401fd030158fbf52657abdf"}, {"bike_id": "e90b543e094c35d7ec13ec31fe4b0c69", "type": "electric_scooter", "is_disabled": 0, "lat": 38.933138666666665, "rental_uris": {"ios": "https://dc.lft.to/lastmile_qr_scan", "android": "https://dc.lft.to/lastmile_qr_scan"}, "is_reserved": 0, "fusion_lon": 0.0, "fusion_lat": 0.0, "lon": -77.0343465, "name": "e90b543e094c35d7ec13ec31fe4b0c69"}, {"bike_id": "9d321c3fd629d1cda7e067b92dd6a6f0", "type": "electric_scooter", "is_disabled": 0, "lat": 38.909721, "rental_uris": {"ios": "https://dc.lft.to/lastmile_qr_scan", "android": "https://dc.lft.to/lastmile_qr_scan"}, "is_reserved": 0, "fusion_lon": 0.0, "fusion_lat": 0.0, "lon": -77.0230595, "name": "9d321c3fd629d1cda7e067b92dd6a6f0"}, {"bike_id": "47a57823620d5424b62278dff457ecca", "type": "electric_scooter", "is_disabled": 0, "lat": 38.930623833333335, "rental_uris": {"ios": "https://dc.lft.to/lastmile_qr_scan", "android": "https://dc.lft.to/lastmile_qr_scan"}, "is_reserved": 0, "fusion_lon": 0.0, "fusion_lat": 0.0, "lon": -77.02978666666667, "name": "47a57823620d5424b62278dff457ecca"}, {"bike_id": "76c2b795a65aa1c3d6b99a63fd4e2fce", "type": "electric_scooter", "is_disabled": 0, "lat": 38.91558416666667, "rental_uris": {"ios": "https://dc.lft.to/lastmile_qr_scan", "android": "https://dc.lft.to/lastmile_qr_scan"}, "is_reserved": 0, "fusion_lon": 0.0, "fusion_lat": 0.0, "lon": -77.02337533333333, "name": "76c2b795a65aa1c3d6b99a63fd4e2fce"}, {"bike_id": "16129110178309f19c01254a42f1cb3d", "type": "electric_scooter", "is_disabled": 0, "lat": 38.922590666666665, "rental_uris": {"ios": "https://dc.lft.to/lastmile_qr_scan", "android": "https://dc.lft.to/lastmile_qr_scan"}, "is_reserved": 0, "fusion_lon": 0.0, "fusion_lat": 0.0, "lon": -77.04291833333333, "name": "16129110178309f19c01254a42f1cb3d"}, {"bike_id": "6e7ae4f3cc99ef496f6395bd2abb2133", "type": "electric_scooter", "is_disabled": 0, "lat": 38.90948733333333, "rental_uris": {"ios": "https://dc.lft.to/lastmile_qr_scan", "android": "https://dc.lft.to/lastmile_qr_scan"}, "is_reserved": 0, "fusion_lon": 0.0, "fusion_lat": 0.0, "lon": -77.04496833333333, "name": "6e7ae4f3cc99ef496f6395bd2abb2133"}, {"bike_id": "4c1de05cf76c43455a48db210dc364ec", "type": "electric_scooter", "is_disabled": 0, "lat": 38.90343033333333, "rental_uris": {"ios": "https://dc.lft.to/lastmile_qr_scan", "android": "https://dc.lft.to/lastmile_qr_scan"}, "is_reserved": 0, "fusion_lon": 0.0, "fusion_lat": 0.0, "lon": -77.0529445, "name": "4c1de05cf76c43455a48db210dc364ec"}, {"bike_id": "901911b46ca4c7e356cbd101b1d2798b", "type": "electric_scooter", "is_disabled": 0, "lat": 38.908130166666666, "rental_uris": {"ios": "https://dc.lft.to/lastmile_qr_scan", "android": "https://dc.lft.to/lastmile_qr_scan"}, "is_reserved": 0, "fusion_lon": 0.0, "fusion_lat": 0.0, "lon": -77.03449833333333, "name": "901911b46ca4c7e356cbd101b1d2798b"}, {"bike_id": "0539e290cd9197605b0d802c6e3fa0bb", "type": "electric_scooter", "is_disabled": 0, "lat": 38.905336166666665, "rental_uris": {"ios": "https://dc.lft.to/lastmile_qr_scan", "android": "https://dc.lft.to/lastmile_qr_scan"}, "is_reserved": 0, "fusion_lon": 0.0, "fusion_lat": 0.0, "lon": -77.05935116666667, "name": "0539e290cd9197605b0d802c6e3fa0bb"}, {"bike_id": "4b3d9e75d0faaf1b5c4b7b04e8ac16ea", "type": "electric_scooter", "is_disabled": 0, "lat": 38.8984635, "rental_uris": {"ios": "https://dc.lft.to/lastmile_qr_scan", "android": "https://dc.lft.to/lastmile_qr_scan"}, "is_reserved": 0, "fusion_lon": 0.0, "fusion_lat": 0.0, "lon": -77.02522783333333, "name": "4b3d9e75d0faaf1b5c4b7b04e8ac16ea"}, {"bike_id": "513948651e232fb79278ec82f3406c48", "type": "electric_scooter", "is_disabled": 0, "lat": 38.8842935, "rental_uris": {"ios": "https://dc.lft.to/lastmile_qr_scan", "android": "https://dc.lft.to/lastmile_qr_scan"}, "is_reserved": 0, "fusion_lon": 0.0, "fusion_lat": 0.0, "lon": -76.9575955, "name": "513948651e232fb79278ec82f3406c48"}, {"bike_id": "1e4336273c5cb16ced274b8b4b8c7ba0", "type": "electric_scooter", "is_disabled": 0, "lat": 38.8970175, "rental_uris": {"ios": "https://dc.lft.to/lastmile_qr_scan", "android": "https://dc.lft.to/lastmile_qr_scan"}, "is_reserved": 0, "fusion_lon": 0.0, "fusion_lat": 0.0, "lon": -76.93002916666667, "name": "1e4336273c5cb16ced274b8b4b8c7ba0"}, {"bike_id": "4da8ef60471311183f20a8d592860063", "type": "electric_scooter", "is_disabled": 0, "lat": 38.9015195, "rental_uris": {"ios": "https://dc.lft.to/lastmile_qr_scan", "android": "https://dc.lft.to/lastmile_qr_scan"}, "is_reserved": 0, "fusion_lon": 0.0, "fusion_lat": 0.0, "lon": -77.02408216666667, "name": "4da8ef60471311183f20a8d592860063"}, {"bike_id": "c295183659fc8a6e7a5b0c03c079d3af", "type": "electric_scooter", "is_disabled": 0, "lat": 38.902401833333336, "rental_uris": {"ios": "https://dc.lft.to/lastmile_qr_scan", "android": "https://dc.lft.to/lastmile_qr_scan"}, "is_reserved": 0, "fusion_lon": 0.0, "fusion_lat": 0.0, "lon": -76.9962685, "name": "c295183659fc8a6e7a5b0c03c079d3af"}, {"bike_id": "dd85fa37e55aaf2cdbce9bfc6c1e8523", "type": "electric_scooter", "is_disabled": 0, "lat": 38.915981333333335, "rental_uris": {"ios": "https://dc.lft.to/lastmile_qr_scan", "android": "https://dc.lft.to/lastmile_qr_scan"}, "is_reserved": 0, "fusion_lon": 0.0, "fusion_lat": 0.0, "lon": -77.02296233333334, "name": "dd85fa37e55aaf2cdbce9bfc6c1e8523"}, {"bike_id": "23cea00349605b81cdc2da24fc2ac674", "type": "electric_scooter", "is_disabled": 0, "lat": 38.92484666666667, "rental_uris": {"ios": "https://dc.lft.to/lastmile_qr_scan", "android": "https://dc.lft.to/lastmile_qr_scan"}, "is_reserved": 0, "fusion_lon": 0.0, "fusion_lat": 0.0, "lon": -77.0284315, "name": "23cea00349605b81cdc2da24fc2ac674"}, {"bike_id": "76d7497a2716cc8c5a88ec1b69b2a4fa", "type": "electric_scooter", "is_disabled": 0, "lat": 38.90334, "rental_uris": {"ios": "https://dc.lft.to/lastmile_qr_scan", "android": "https://dc.lft.to/lastmile_qr_scan"}, "is_reserved": 0, "fusion_lon": 0.0, "fusion_lat": 0.0, "lon": -77.0365215, "name": "76d7497a2716cc8c5a88ec1b69b2a4fa"}, {"bike_id": "35842aaecc5d272b0c65de3febdde59f", "type": "electric_scooter", "is_disabled": 0, "lat": 38.907381666666666, "rental_uris": {"ios": "https://dc.lft.to/lastmile_qr_scan", "android": "https://dc.lft.to/lastmile_qr_scan"}, "is_reserved": 0, "fusion_lon": 0.0, "fusion_lat": 0.0, "lon": -77.01315166666667, "name": "35842aaecc5d272b0c65de3febdde59f"}, {"bike_id": "f9a24b2d24ac7b5af59233edd6af12e5", "type": "electric_scooter", "is_disabled": 0, "lat": 38.901509, "rental_uris": {"ios": "https://dc.lft.to/lastmile_qr_scan", "android": "https://dc.lft.to/lastmile_qr_scan"}, "is_reserved": 0, "fusion_lon": 0.0, "fusion_lat": 0.0, "lon": -76.99023583333333, "name": "f9a24b2d24ac7b5af59233edd6af12e5"}, {"bike_id": "b6781ec63c240244da1cceec1b511807", "type": "electric_scooter", "is_disabled": 0, "lat": 38.918098666666666, "rental_uris": {"ios": "https://dc.lft.to/lastmile_qr_scan", "android": "https://dc.lft.to/lastmile_qr_scan"}, "is_reserved": 0, "fusion_lon": 0.0, "fusion_lat": 0.0, "lon": -77.0076425, "name": "b6781ec63c240244da1cceec1b511807"}, {"bike_id": "b6a5030bb88ca1b66f8ed15a8c2e9fab", "type": "electric_scooter", "is_disabled": 0, "lat": 38.907559, "rental_uris": {"ios": "https://dc.lft.to/lastmile_qr_scan", "android": "https://dc.lft.to/lastmile_qr_scan"}, "is_reserved": 0, "fusion_lon": 0.0, "fusion_lat": 0.0, "lon": -77.03187683333333, "name": "b6a5030bb88ca1b66f8ed15a8c2e9fab"}, {"bike_id": "1d756cc008815035def473db0c3d8d64", "type": "electric_scooter", "is_disabled": 0, "lat": 38.908918, "rental_uris": {"ios": "https://dc.lft.to/lastmile_qr_scan", "android": "https://dc.lft.to/lastmile_qr_scan"}, "is_reserved": 0, "fusion_lon": 0.0, "fusion_lat": 0.0, "lon": -77.04301633333333, "name": "1d756cc008815035def473db0c3d8d64"}, {"bike_id": "01d23a19cdfd78ee3c9e524322126274", "type": "electric_scooter", "is_disabled": 0, "lat": 38.90266066666667, "rental_uris": {"ios": "https://dc.lft.to/lastmile_qr_scan", "android": "https://dc.lft.to/lastmile_qr_scan"}, "is_reserved": 0, "fusion_lon": 0.0, "fusion_lat": 0.0, "lon": -77.00327833333333, "name": "01d23a19cdfd78ee3c9e524322126274"}, {"bike_id": "91c2b5c3201524204251c92746252114", "type": "electric_scooter", "is_disabled": 0, "lat": 38.91755916666666, "rental_uris": {"ios": "https://dc.lft.to/lastmile_qr_scan", "android": "https://dc.lft.to/lastmile_qr_scan"}, "is_reserved": 0, "fusion_lon": 0.0, "fusion_lat": 0.0, "lon": -77.0280965, "name": "91c2b5c3201524204251c92746252114"}, {"bike_id": "505a5558d41fcf8bc4a6fcc1ae0e3f96", "type": "electric_scooter", "is_disabled": 0, "lat": 38.91575266666667, "rental_uris": {"ios": "https://dc.lft.to/lastmile_qr_scan", "android": "https://dc.lft.to/lastmile_qr_scan"}, "is_reserved": 0, "fusion_lon": 0.0, "fusion_lat": 0.0, "lon": -77.01998583333334, "name": "505a5558d41fcf8bc4a6fcc1ae0e3f96"}, {"bike_id": "a2c6b5617233788cf2c7f9e5da7349c6", "type": "electric_scooter", "is_disabled": 0, "lat": 38.91117716666667, "rental_uris": {"ios": "https://dc.lft.to/lastmile_qr_scan", "android": "https://dc.lft.to/lastmile_qr_scan"}, "is_reserved": 0, "fusion_lon": 0.0, "fusion_lat": 0.0, "lon": -77.0053455, "name": "a2c6b5617233788cf2c7f9e5da7349c6"}, {"bike_id": "7573e2d8e1520edb41c492f6bd2ace4e", "type": "electric_scooter", "is_disabled": 0, "lat": 38.9211035, "rental_uris": {"ios": "https://dc.lft.to/lastmile_qr_scan", "android": "https://dc.lft.to/lastmile_qr_scan"}, "is_reserved": 0, "fusion_lon": 0.0, "fusion_lat": 0.0, "lon": -77.04379333333333, "name": "7573e2d8e1520edb41c492f6bd2ace4e"}, {"bike_id": "7e03631e17e1a25710fce46940e6a70e", "type": "electric_scooter", "is_disabled": 0, "lat": 38.93129916666667, "rental_uris": {"ios": "https://dc.lft.to/lastmile_qr_scan", "android": "https://dc.lft.to/lastmile_qr_scan"}, "is_reserved": 0, "fusion_lon": 0.0, "fusion_lat": 0.0, "lon": -77.038526, "name": "7e03631e17e1a25710fce46940e6a70e"}, {"bike_id": "321ee4836a3e83ffecd5a2277fc688f2", "type": "electric_scooter", "is_disabled": 0, "lat": 38.90505183333333, "rental_uris": {"ios": "https://dc.lft.to/lastmile_qr_scan", "android": "https://dc.lft.to/lastmile_qr_scan"}, "is_reserved": 0, "fusion_lon": 0.0, "fusion_lat": 0.0, "lon": -77.01983133333333, "name": "321ee4836a3e83ffecd5a2277fc688f2"}, {"bike_id": "d76e414317ba3158997292487b3ec681", "type": "electric_scooter", "is_disabled": 0, "lat": 38.919871666666666, "rental_uris": {"ios": "https://dc.lft.to/lastmile_qr_scan", "android": "https://dc.lft.to/lastmile_qr_scan"}, "is_reserved": 0, "fusion_lon": 0.0, "fusion_lat": 0.0, "lon": -77.032666, "name": "d76e414317ba3158997292487b3ec681"}, {"bike_id": "000ac29327789fa45c3a41da0d0f6b9b", "type": "electric_scooter", "is_disabled": 0, "lat": 38.93206683333333, "rental_uris": {"ios": "https://dc.lft.to/lastmile_qr_scan", "android": "https://dc.lft.to/lastmile_qr_scan"}, "is_reserved": 0, "fusion_lon": 0.0, "fusion_lat": 0.0, "lon": -77.0365685, "name": "000ac29327789fa45c3a41da0d0f6b9b"}, {"bike_id": "70a1ab674746ff83cb5bf0b22971a378", "type": "electric_scooter", "is_disabled": 0, "lat": 38.92090683333333, "rental_uris": {"ios": "https://dc.lft.to/lastmile_qr_scan", "android": "https://dc.lft.to/lastmile_qr_scan"}, "is_reserved": 0, "fusion_lon": 0.0, "fusion_lat": 0.0, "lon": -77.025366, "name": "70a1ab674746ff83cb5bf0b22971a378"}, {"bike_id": "5d6247a208fff0ec888dc4a430ec98ae", "type": "electric_scooter", "is_disabled": 0, "lat": 38.90124266666667, "rental_uris": {"ios": "https://dc.lft.to/lastmile_qr_scan", "android": "https://dc.lft.to/lastmile_qr_scan"}, "is_reserved": 0, "fusion_lon": 0.0, "fusion_lat": 0.0, "lon": -77.0451945, "name": "5d6247a208fff0ec888dc4a430ec98ae"}, {"bike_id": "5d37c5aee31ef6b8353c75761836360a", "type": "electric_bike", "is_disabled": 0, "lat": 38.878828, "rental_uris": {"ios": "https://dc.lft.to/lastmile_qr_scan", "android": "https://dc.lft.to/lastmile_qr_scan"}, "is_reserved": 0, "fusion_lon": 0.0, "fusion_lat": 0.0, "lon": -77.09613333333333, "name": "5d37c5aee31ef6b8353c75761836360a"},