{"data": {"bikes": [{"lon": -76.93174033333334, "bike_id": "dc2e57e2a228a7dd153a698f026f3f25", "lat": 38.8988365, "fusion_lon": 0.0, "fusion_lat": 0.0, "type": "electric_scooter", "name": "dc2e57e2a228a7dd153a698f026f3f25", "is_disabled": 0, "rental_uris": {"ios": "https://dc.lft.to/lastmile_qr_scan", "android": "https://dc.lft.to/lastmile_qr_scan"}, "is_reserved": 0}, {"lon": -77.0251, "bike_id": "5b73b4a2d9d94698fccfc39f922da100", "lat": 38.9169165, "fusion_lon": 0.0, "fusion_lat": 0.0, "type": "electric_scooter", "name": "5b73b4a2d9d94698fccfc39f922da100", "is_disabled": 0, "rental_uris": {"ios": "https://dc.lft.to/lastmile_qr_scan", "android": "https://dc.lft.to/lastmile_qr_scan"}, "is_reserved": 0}, {"lon": -77.0317445, "bike_id": "013ff69fba5b0d31d80f4e9582cf55a7", "lat": 38.914159833333336, "fusion_lon": 0.0, "fusion_lat": 0.0, "type": "electric_scooter", "name": "013ff69fba5b0d31d80f4e9582cf55a7", "is_disabled": 0, "rental_uris": {"ios": "https://dc.lft.to/lastmile_qr_scan", "android": "https://dc.lft.to/lastmile_qr_scan"}, "is_reserved": 0}, {"lon": -76.95743283333333, "bike_id": "9304e3b2d4758c42d9e1463a4d477bb2", "lat": 38.884252333333336, "fusion_lon": 0.0, "fusion_lat": 0.0, "type": "electric_scooter", "name": "9304e3b2d4758c42d9e1463a4d477bb2", "is_disabled": 0, "rental_uris": {"ios": "https://dc.lft.to/lastmile_qr_scan", "android": "https://dc.lft.to/lastmile_qr_scan"}, "is_reserved": 0}, {"lon": -76.936424, "bike_id": "66336614bb0df22b0546ad241d8e27b9", "lat": 38.90061883333333, "fusion_lon": 0.0, "fusion_lat": 0.0, "type": "electric_scooter", "name": "66336614bb0df22b0546ad241d8e27b9", "is_disabled": 0, "rental_uris": {"ios": "https://dc.lft.to/lastmile_qr_scan", "android": "https://dc.lft.to/lastmile_qr_scan"}, "is_reserved": 0}, {"lon": -76.9302415, "bike_id": "943c8cdd8432a71e3aba4f56ad6f92cb", "lat": 38.8963975, "fusion_lon": 0.0, "fusion_lat": 0.0, "type": "electric_bike", "name": "943c8cdd8432a71e3aba4f56ad6f92cb", "is_disabled": 0, "rental_uris": {"ios": "https://dc.lft.to/lastmile_qr_scan", "android": "https://dc.lft.to/lastmile_qr_scan"}, "is_reserved": 0}, {"lon": -77.03418466666666, "bike_id": "b903645ecfd63c2ac415817af515e09b", "lat": 38.9335875, "fusion_lon": 0.0, "fusion_lat": 0.0, "type": "electric_scooter", "name": "b903645ecfd63c2ac415817af515e09b", "is_disabled": 0, "rental_uris": {"ios": "https://dc.lft.to/lastmile_qr_scan", "android": "https://dc.lft.to/lastmile_qr_scan"}, "is_reserved": 0}, {"lon": -76.87494716666667, "bike_id": "eb7b6ced34c6166ee38b0af601c2122d", "lat": 38.99089333333333, "fusion_lon": 0.0, "fusion_lat": 0.0, "type": "electric_bike", "name": "eb7b6ced34c6166ee38b0af601c2122d", "is_disabled": 0, "rental_uris": {"ios": "https://dc.lft.to/lastmile_qr_scan", "android": "https://dc.lft.to/lastmile_qr_scan"}, "is_reserved": 0}, {"lon": -77.03807483333334, "bike_id": "758a6c66e8b49ddb6db3af1a0ad76bcc", "lat": 38.92064883333333, "fusion_lon": 0.0, "fusion_lat": 0.0, "type": "electric_scooter", "name": "758a6c66e8b49ddb6db3af1a0ad76bcc", "is_disabled": 0, "rental_uris": {"ios": "https://dc.lft.to/lastmile_qr_scan", "android": "https://dc.lft.to/lastmile_qr_scan"}, "is_reserved": 0}, {"lon": -77.03443333333334, "bike_id": "43327f1cad538bec36d96b91870323de", "lat": 38.908159166666664, "fusion_lon": 0.0, "fusion_lat": 0.0, "type": "electric_scooter", "name": "43327f1cad538bec36d96b91870323de", "is_disabled": 0, "rental_uris": {"ios": "https://dc.lft.to/lastmile_qr_scan", "android": "https://dc.lft.to/lastmile_qr_scan"}, "is_reserved": 0}, {"lon": -77.0065195, "bike_id": "150d74a09cac71319205d15234447236", "lat": 38.838887, "fusion_lon": 0.0, "fusion_lat": 0.0, "type": "electric_scooter", "name": "150d74a09cac71319205d15234447236", "is_disabled": 0, "rental_uris": {"ios": "https://dc.lft.to/lastmile_qr_scan", "android": "https://dc.lft.to/lastmile_qr_scan"}, "is_reserved": 0}, {"lon": -77.040857, "bike_id": "a8d10f2b4713709f4833e336efb01bc3", "lat": 38.916960833333334, "fusion_lon": 0.0, "fusion_lat": 0.0, "type": "electric_scooter", "name": "a8d10f2b4713709f4833e336efb01bc3", "is_disabled": 0, "rental_uris": {"ios": "https://dc.lft.to/lastmile_qr_scan", "android": "https://dc.lft.to/lastmile_qr_scan"}, "is_reserved": 0}, {"lon": -77.03288333333333, "bike_id": "85c948959a85e8fa918926d4c9402d78", "lat": 38.956505, "fusion_lon": 0.0, "fusion_lat": 0.0, "type": "electric_scooter", "name": "85c948959a85e8fa918926d4c9402d78", "is_disabled": 0, "rental_uris": {"ios": "https://dc.lft.to/lastmile_qr_scan", "android": "https://dc.lft.to/lastmile_qr_scan"}, "is_reserved": 0}, {"lon": -77.03634516666666, "bike_id": "32547d5119ed9bac7c821a1c0e6be310", "lat": 38.911835833333335, "fusion_lon": 0.0, "fusion_lat": 0.0, "type": "electric_scooter", "name": "32547d5119ed9bac7c821a1c0e6be310", "is_disabled": 0, "rental_uris": {"ios": "https://dc.lft.to/lastmile_qr_scan", "android": "https://dc.lft.to/lastmile_qr_scan"}, "is_reserved": 0}, {"lon": -77.023179, "bike_id": "9abac6e5889da3c6404df87671805480", "lat": 38.878818333333335, "fusion_lon": 0.0, "fusion_lat": 0.0, "type": "electric_scooter", "name": "9abac6e5889da3c6404df87671805480", "is_disabled": 0, "rental_uris": {"ios": "https://dc.lft.to/lastmile_qr_scan", "android": "https://dc.lft.to/lastmile_qr_scan"}, "is_reserved": 0}, {"lon": -77.02115666666667, "bike_id": "b5a8cbb77f3a1dafbbf8b06386fa5d22", "lat": 38.9301395, "fusion_lon": 0.0, "fusion_lat": 0.0, "type": "electric_scooter", "name": "b5a8cbb77f3a1dafbbf8b06386fa5d22", "is_disabled": 0, "rental_uris": {"ios": "https://dc.lft.to/lastmile_qr_scan", "android": "https://dc.lft.to/lastmile_qr_scan"}, "is_reserved": 0}, {"lon": -77.03089183333333, "bike_id": "d2c9669c25b50b5a3ef92302eaefb9bd", "lat": 38.90999633333333, "fusion_lon": 0.0, "fusion_lat": 0.0, "type": "electric_scooter", "name": "d2c9669c25b50b5a3ef92302eaefb9bd", "is_disabled": 0, "rental_uris": {"ios": "https://dc.lft.to/lastmile_qr_scan", "android": "https://dc.lft.to/lastmile_qr_scan"}, "is_reserved": 0}, {"lon": -77.08591966666667, "bike_id": "e349314189e089dad232aa9317c77ed4", "lat": 38.90869383333333, "fusion_lon": 0.0, "fusion_lat": 0.0, "type": "electric_scooter", "name": "e349314189e089dad232aa9317c77ed4", "is_disabled": 0, "rental_uris": {"ios": "https://dc.lft.to/lastmile_qr_scan", "android": "https://dc.lft.to/lastmile_qr_scan"}, "is_reserved": 0}, {"lon": -76.94631516666666, "bike_id": "94799aaed5678567a5c783e8a7353777", "lat": 38.89832966666667, "fusion_lon": 0.0, "fusion_lat": 0.0, "type": "electric_scooter", "name": "94799aaed5678567a5c783e8a7353777", "is_disabled": 0, "rental_uris": {"ios": "https://dc.lft.to/lastmile_qr_scan", "android": "https://dc.lft.to/lastmile_qr_scan"}, "is_reserved": 0}, {"lon": -77.00041333333333, "bike_id": "8dbeeb1f96c6d4e39d3d60f7960d229b", "lat": 38.90690033333333, "fusion_lon": 0.0, "fusion_lat": 0.0, "type": "electric_scooter", "name": "8dbeeb1f96c6d4e39d3d60f7960d229b", "is_disabled": 0, "rental_uris": {"ios": "https://dc.lft.to/lastmile_qr_scan", "android": "https://dc.lft.to/lastmile_qr_scan"}, "is_reserved": 0}, {"lon": -77.02054483333333, "bike_id": "2dc049973be27a3cb4e6b5310d213c2b", "lat": 38.923527, "fusion_lon": 0.0, "fusion_lat": 0.0, "type": "electric_scooter", "name": "2dc049973be27a3cb4e6b5310d213c2b", "is_disabled": 0, "rental_uris": {"ios": "https://dc.lft.to/lastmile_qr_scan", "android": "https://dc.lft.to/lastmile_qr_scan"}, "is_reserved": 0}, {"lon": -77.00312, "bike_id": "da43b588f56afffb5c56fd6c548bd92a", "lat": 38.923546, "fusion_lon": 0.0, "fusion_lat": 0.0, "type": "electric_scooter", "name": "da43b588f56afffb5c56fd6c548bd92a", "is_disabled": 0, "rental_uris": {"ios": "https://dc.lft.to/lastmile_qr_scan", "android": "https://dc.lft.to/lastmile_qr_scan"}, "is_reserved": 0}, {"lon": -76.983758, "bike_id": "30be18ab14d793e3b6ba35875db9164c", "lat": 38.90647383333334, "fusion_lon": 0.0, "fusion_lat": 0.0, "type": "electric_scooter", "name": "30be18ab14d793e3b6ba35875db9164c", "is_disabled": 0, "rental_uris": {"ios": "https://dc.lft.to/lastmile_qr_scan", "android": "https://dc.lft.to/lastmile_qr_scan"}, "is_reserved": 0}, {"lon": -76.99188316666667, "bike_id": "73744c7e345557ecba11b7257630e4a7", "lat": 38.908351833333334, "fusion_lon": 0.0, "fusion_lat": 0.0, "type": "electric_scooter", "name": "73744c7e345557ecba11b7257630e4a7", "is_disabled": 0, "rental_uris": {"ios": "https://dc.lft.to/lastmile_qr_scan", "android": "https://dc.lft.to/lastmile_qr_scan"}, "is_reserved": 0}, {"lon": -77.01996816666667, "bike_id": "42a2ae78feaaf76bf3a4097a07174d92", "lat": 38.887401833333335, "fusion_lon": 0.0, "fusion_lat": 0.0, "type": "electric_scooter", "name": "42a2ae78feaaf76bf3a4097a07174d92", "is_disabled": 0, "rental_uris": {"ios": "https://dc.lft.to/lastmile_qr_scan", "android": "https://dc.lft.to/lastmile_qr_scan"}, "is_reserved": 0}, {"lon": -76.9871085, "bike_id": "35f5c6957b13cb05e7cfef8447a8a2a6", "lat": 38.86696233333333, "fusion_lon": 0.0, "fusion_lat": 0.0, "type": "electric_scooter", "name": "35f5c6957b13cb05e7cfef8447a8a2a6", "is_disabled": 0, "rental_uris": {"ios": "https://dc.lft.to/lastmile_qr_scan", "android": "https://dc.lft.to/lastmile_qr_scan"}, "is_reserved": 0}, {"lon": -77.008834, "bike_id": "ab542e173bba6f67be4cea3c4cca8b83", "lat": 38.9179475, "fusion_lon": 0.0, "fusion_lat": 0.0, "type": "electric_scooter", "name": "ab542e173bba6f67be4cea3c4cca8b83", "is_disabled": 0, "rental_uris": {"ios": "https://dc.lft.to/lastmile_qr_scan", "android": "https://dc.lft.to/lastmile_qr_scan"}, "is_reserved": 0}, {"lon": -77.01977433333333, "bike_id": "5722bdf4b1b6507b8027e9407ef40f2f", "lat": 38.96031466666667, "fusion_lon": 0.0, "fusion_lat": 0.0, "type": "electric_scooter", "name": "5722bdf4b1b6507b8027e9407ef40f2f", "is_disabled": 0, "rental_uris": {"ios": "https://dc.lft.to/lastmile_qr_scan", "android": "https://dc.lft.to/lastmile_qr_scan"}, "is_reserved": 0}, {"lon": -77.032298, "bike_id": "1621f93fa5e1437d4f128dfd04e8a4b1", "lat": 38.9171145, "fusion_lon": 0.0, "fusion_lat": 0.0, "type": "electric_scooter", "name": "1621f93fa5e1437d4f128dfd04e8a4b1", "is_disabled": 0, "rental_uris": {"ios": "https://dc.lft.to/lastmile_qr_scan", "android": "https://dc.lft.to/lastmile_qr_scan"}, "is_reserved": 0}, {"lon": -77.03200966666667, "bike_id": "65ca3e0bd366126373e6880224232749", "lat": 38.938681, "fusion_lon": 0.0, "fusion_lat": 0.0, "type": "electric_scooter", "name": "65ca3e0bd366126373e6880224232749", "is_disabled": 0, "rental_uris": {"ios": "https://dc.lft.to/lastmile_qr_scan", "android": "https://dc.lft.to/lastmile_qr_scan"}, "is_reserved": 0}, {"lon": -77.01415383333334, "bike_id": "4c3958dc89a59f5abaf86f633d4575e4", "lat": 38.9285415, "fusion_lon": 0.0, "fusion_lat": 0.0, "type": "electric_scooter", "name": "4c3958dc89a59f5abaf86f633d4575e4", "is_disabled": 0, "rental_uris": {"ios": "https://dc.lft.to/lastmile_qr_scan", "android": "https://dc.lft.to/lastmile_qr_scan"}, "is_reserved": 0}, {"lon": -77.00152616666666, "bike_id": "1517cfb040cbd8cd2a4d29515b05a12c", "lat": 38.842824666666665, "fusion_lon": 0.0, "fusion_lat": 0.0, "type": "electric_scooter", "name": "1517cfb040cbd8cd2a4d29515b05a12c", "is_disabled": 0, "rental_uris": {"ios": "https://dc.lft.to/lastmile_qr_scan", "android": "https://dc.lft.to/lastmile_qr_scan"}, "is_reserved": 0}, {"lon": -77.01976116666667, "bike_id": "32a5bc4127975639ff7b5537f21e66aa", "lat": 38.921276166666665, "fusion_lon": 0.0, "fusion_lat": 0.0, "type": "electric_scooter", "name": "32a5bc4127975639ff7b5537f21e66aa", "is_disabled": 0, "rental_uris": {"ios": "https://dc.lft.to/lastmile_qr_scan", "android": "https://dc.lft.to/lastmile_qr_scan"}, "is_reserved": 0}, {"lon": -77.05006483333334, "bike_id": "98fc3cf18fc76dd40db2dd3e4dc3b85a", "lat": 38.90077983333333, "fusion_lon": 0.0, "fusion_lat": 0.0, "type": "electric_scooter", "name": "98fc3cf18fc76dd40db2dd3e4dc3b85a", "is_disabled": 0, "rental_uris": {"ios": "https://dc.lft.to/lastmile_qr_scan", "android": "https://dc.lft.to/lastmile_qr_scan"}, "is_reserved": 0}, {"lon": -77.022074, "bike_id": "85eb60cb8c0bcf580b517c6baab7c1d2", "lat": 38.902135, "fusion_lon": 0.0, "fusion_lat": 0.0, "type": "electric_scooter", "name": "85eb60cb8c0bcf580b517c6baab7c1d2", "is_disabled": 0, "rental_uris": {"ios": "https://dc.lft.to/lastmile_qr_scan", "android": "https://dc.lft.to/lastmile_qr_scan"}, "is_reserved": 0}, {"lon": -77.03770883333334, "bike_id": "19b86ad2315b2e13e1551d40a4314182", "lat": 38.9254415, "fusion_lon": 0.0, "fusion_lat": 0.0, "type": "electric_scooter", "name": "19b86ad2315b2e13e1551d40a4314182", "is_disabled": 0, "rental_uris": {"ios": "https://dc.lft.to/lastmile_qr_scan", "android": "https://dc.lft.to/lastmile_qr_scan"}, "is_reserved": 0}, {"lon": -76.98706333333334, "bike_id": "ea14271ed6182a4185765bc2c0638c41", "lat": 38.866995833333334, "fusion_lon": 0.0, "fusion_lat": 0.0, "type": "electric_scooter", "name": "ea14271ed6182a4185765bc2c0638c41", "is_disabled": 0, "rental_uris": {"ios": "https://dc.lft.to/lastmile_qr_scan", "android": "https://dc.lft.to/lastmile_qr_scan"}, "is_reserved": 0}, {"lon": -76.931767, "bike_id": "098529a660f97631467c40997a2b91d2", "lat": 38.898850833333334, "fusion_lon": 0.0, "fusion_lat": 0.0, "type": "electric_scooter", "name": "098529a660f97631467c40997a2b91d2", "is_disabled": 0, "rental_uris": {"ios": "https://dc.lft.to/lastmile_qr_scan", "android": "https://dc.lft.to/lastmile_qr_scan"}, "is_reserved": 0}, {"lon": -77.0548645, "bike_id": "131db631c28e3372c60e2d4f5109bad6", "lat": 38.93541233333333, "fusion_lon": 0.0, "fusion_lat": 0.0, "type": "electric_scooter", "name": "131db631c28e3372c60e2d4f5109bad6", "is_disabled": 0, "rental_uris": {"ios": "https://dc.lft.to/lastmile_qr_scan", "android": "https://dc.lft.to/lastmile_qr_scan"}, "is_reserved": 0}, {"lon": -77.021483, "bike_id": "a3f4f127ae61177ee70f150d61178538", "lat": 38.894632666666666, "fusion_lon": 0.0, "fusion_lat": 0.0, "type": "electric_scooter", "name": "a3f4f127ae61177ee70f150d61178538", "is_disabled": 0, "rental_uris": {"ios": "https://dc.lft.to/lastmile_qr_scan", "android": "https://dc.lft.to/lastmile_qr_scan"}, "is_reserved": 0}, {"lon": -77.026924, "bike_id": "7564456f41eee1e2d764c0ba1ec3f17a", "lat": 38.908411, "fusion_lon": 0.0, "fusion_lat": 0.0, "type": "electric_scooter", "name": "7564456f41eee1e2d764c0ba1ec3f17a", "is_disabled": 0, "rental_uris": {"ios": "https://dc.lft.to/lastmile_qr_scan", "android": "https://dc.lft.to/lastmile_qr_scan"}, "is_reserved": 0}, {"lon": -77.09071183333333, "bike_id": "e7c0983e306610d7b5cb10a39e53f4f7", "lat": 38.978524, "fusion_lon": 0.0, "fusion_lat": 0.0, "type": "electric_bike", "name": "e7c0983e306610d7b5cb10a39e53f4f7", "is_disabled": 0, "rental_uris": {"ios": "https://dc.lft.to/lastmile_qr_scan", "android": "https://dc.lft.to/lastmile_qr_scan"}, "is_reserved": 0}, {"lon": -77.03259883333334, "bike_id": "1ef6821fd7b256d09b3e396642095de6", "lat": 38.92534533333333, "fusion_lon": 0.0, "fusion_lat": 0.0, "type": "electric_scooter", "name": "1ef6821fd7b256d09b3e396642095de6", "is_disabled": 0, "rental_uris": {"ios": "https://dc.lft.to/lastmile_qr_scan", "android": "https://dc.lft.to/lastmile_qr_scan"}, "is_reserved": 0}, {"lon": -77.13098683333334, "bike_id": "ce662fe3e10196df0a527923cdef1937", "lat": 39.0243325, "fusion_lon": 0.0, "fusion_lat": 0.0, "type": "electric_bike", "name": "ce662fe3e10196df0a527923cdef1937", "is_disabled": 0, "rental_uris": {"ios": "https://dc.lft.to/lastmile_qr_scan", "android": "https://dc.lft.to/lastmile_qr_scan"}, "is_reserved": 0}, {"lon": -77.01923383333333, "bike_id": "a5669fd20ef44ed0ec5b1ccfefbb3909", "lat": 38.92215016666667, "fusion_lon": 0.0, "fusion_lat": 0.0, "type": "electric_scooter", "name": "a5669fd20ef44ed0ec5b1ccfefbb3909", "is_disabled": 0, "rental_uris": {"ios": "https://dc.lft.to/lastmile_qr_scan", "android": "https://dc.lft.to/lastmile_qr_scan"}, "is_reserved": 0}, {"lon": -77.02716883333333, "bike_id": "20abc7919db1e120148dfe854ddde527", "lat": 38.91682566666667, "fusion_lon": 0.0, "fusion_lat": 0.0, "type": "electric_scooter", "name": "20abc7919db1e120148dfe854ddde527", "is_disabled": 0, "rental_uris": {"ios": "https://dc.lft.to/lastmile_qr_scan", "android": "https://dc.lft.to/lastmile_qr_scan"}, "is_reserved": 0}, {"lon": -77.05807116666666, "bike_id": "921dd4ac51983712103696597123ff79", "lat": 38.904978, "fusion_lon": 0.0, "fusion_lat": 0.0, "type": "electric_scooter", "name": "921dd4ac51983712103696597123ff79", "is_disabled": 0, "rental_uris": {"ios": "https://dc.lft.to/lastmile_qr_scan", "android": "https://dc.lft.to/lastmile_qr_scan"}, "is_reserved": 0}, {"lon": -77.01537116666667, "bike_id": "6bc3f1b9ad7e32b1cc0c6175ef3fecc8", "lat": 38.902633, "fusion_lon": 0.0, "fusion_lat": 0.0, "type": "electric_scooter", "name": "6bc3f1b9ad7e32b1cc0c6175ef3fecc8", "is_disabled": 0, "rental_uris": {"ios": "https://dc.lft.to/lastmile_qr_scan", "android": "https://dc.lft.to/lastmile_qr_scan"}, "is_reserved": 0}, {"lon": -76.983697, "bike_id": "8c1438227debb1cea7a87f2d51aad4db", "lat": 38.89973483333333, "fusion_lon": 0.0, "fusion_lat": 0.0, "type": "electric_scooter", "name": "8c1438227debb1cea7a87f2d51aad4db", "is_disabled": 0, "rental_uris": {"ios": "https://dc.lft.to/lastmile_qr_scan", "android": "https://dc.lft.to/lastmile_qr_scan"}, "is_reserved": 0}, {"lon": -77.003701, "bike_id": "b77bf20e1e202ea28c24ad51c8474761", "lat": 38.897293166666664, "fusion_lon": 0.0, "fusion_lat": 0.0, "type": "electric_scooter", "name": "b77bf20e1e202ea28c24ad51c8474761", "is_disabled": 0, "rental_uris": {"ios": "https://dc.lft.to/lastmile_qr_scan", "android": "https://dc.lft.to/lastmile_qr_scan"}, "is_reserved": 0}, {"lon": -77.025206, "bike_id": "cca551b2b82ab1b95acd2df8c67364ba", "lat": 38.91919, "fusion_lon": 0.0, "fusion_lat": 0.0, "type": "electric_scooter", "name": "cca551b2b82ab1b95acd2df8c67364ba", "is_disabled": 0, "rental_uris": {"ios": "https://dc.lft.to/lastmile_qr_scan", "android": "https://dc.lft.to/lastmile_qr_scan"}, "is_reserved": 0}, {"lon": -77.063846, "bike_id": "78ebea256f556f13a69b078d867e11a0", "lat": 38.908284333333334, "fusion_lon": 0.0, "fusion_lat": 0.0, "type": "electric_scooter", "name": "78ebea256f556f13a69b078d867e11a0", "is_disabled": 0, "rental_uris": {"ios": "https://dc.lft.to/lastmile_qr_scan", "android": "https://dc.lft.to/lastmile_qr_scan"}, "is_reserved": 0}, {"lon": -77.02422183333333, "bike_id": "a31bde935119e56e629d6ab16691d220", "lat": 38.92655966666667, "fusion_lon": 0.0, "fusion_lat": 0.0, "type": "electric_scooter", "name": "a31bde935119e56e629d6ab16691d220", "is_disabled": 0, "rental_uris": {"ios": "https://dc.lft.to/lastmile_qr_scan", "android": "https://dc.lft.to/lastmile_qr_scan"}, "is_reserved": 0}, {"lon": -77.018547, "bike_id": "6dafd2e2d87ac9f060ba1ef0503945fc", "lat": 38.903702, "fusion_lon": 0.0, "fusion_lat": 0.0, "type": "electric_scooter", "name": "6dafd2e2d87ac9f060ba1ef0503945fc", "is_disabled": 0, "rental_uris": {"ios": "https://dc.lft.to/lastmile_qr_scan", "android": "https://dc.lft.to/lastmile_qr_scan"}, "is_reserved": 0}, {"lon": -76.98897083333334, "bike_id": "d529f35d046e51ef45eaf719bcfcdd0d", "lat": 38.91342916666667, "fusion_lon": 0.0, "fusion_lat": 0.0, "type": "electric_scooter", "name": "d529f35d046e51ef45eaf719bcfcdd0d", "is_disabled": 0, "rental_uris": {"ios": "https://dc.lft.to/lastmile_qr_scan", "android": "https://dc.lft.to/lastmile_qr_scan"}, "is_reserved": 0}, {"lon": -77.02177283333333, "bike_id": "178b6ad482a33e2770be843e8334aeab", "lat": 38.90999583333333, "fusion_lon": 0.0, "fusion_lat": 0.0, "type": "electric_scooter", "name": "178b6ad482a33e2770be843e8334aeab", "is_disabled": 0, "rental_uris": {"ios": "https://dc.lft.to/lastmile_qr_scan", "android": "https://dc.lft.to/lastmile_qr_scan"}, "is_reserved": 0}, {"lon": -77.032007, "bike_id": "fb7e71fd4c209426d61ca1f4834c497f", "lat": 38.9078545, "fusion_lon": 0.0, "fusion_lat": 0.0, "type": "electric_scooter", "name": "fb7e71fd4c209426d61ca1f4834c497f", "is_disabled": 0, "rental_uris": {"ios": "https://dc.lft.to/lastmile_qr_scan", "android": "https://dc.lft.to/lastmile_qr_scan"}, "is_reserved": 0}, {"lon": -77.00840616666666, "bike_id": "2841a9cafa57c28a1e6fe5c2e0c9073a", "lat": 38.916262833333334, "fusion_lon": 0.0, "fusion_lat": 0.0, "type": "electric_scooter", "name": "2841a9cafa57c28a1e6fe5c2e0c9073a", "is_disabled": 0, "rental_uris": {"ios": "https://dc.lft.to/lastmile_qr_scan", "android": "https://dc.lft.to/lastmile_qr_scan"}, "is_reserved": 0}, {"lon": -77.04038933333334, "bike_id": "b53e7025fa3537ced9c64f476ec82267", "lat": 38.8999945, "fusion_lon": 0.0, "fusion_lat": 0.0, "type": "electric_scooter", "name": "b53e7025fa3537ced9c64f476ec82267", "is_disabled": 0, "rental_uris": {"ios": "https://dc.lft.to/lastmile_qr_scan", "android": "https://dc.lft.to/lastmile_qr_scan"}, "is_reserved": 0}, {"lon": -77.04260283333333, "bike_id": "4f88ace43fd124ea809869143ee81999", "lat": 38.90022883333334, "fusion_lon": 0.0, "fusion_lat": 0.0, "type": "electric_scooter", "name": "4f88ace43fd124ea809869143ee81999", "is_disabled": 0, "rental_uris": {"ios": "https://dc.lft.to/lastmile_qr_scan", "android": "https://dc.lft.to/lastmile_qr_scan"}, "is_reserved": 0}, {"lon": -77.03824133333333, "bike_id": "969f7d9ba82abf5594536d03e57726e9", "lat": 38.906742666666666, "fusion_lon": 0.0, "fusion_lat": 0.0, "type": "electric_scooter", "name": "969f7d9ba82abf5594536d03e57726e9", "is_disabled": 0, "rental_uris": {"ios": "https://dc.lft.to/lastmile_qr_scan", "android": "https://dc.lft.to/lastmile_qr_scan"}, "is_reserved": 0}, {"lon": -77.03445233333333, "bike_id": "70072db88c5dbdcd679acef3719b40eb", "lat": 38.914923333333334, "fusion_lon": 0.0, "fusion_lat": 0.0, "type": "electric_scooter", "name": "70072db88c5dbdcd679acef3719b40eb", "is_disabled": 0, "rental_uris": {"ios": "https://dc.lft.to/lastmile_qr_scan", "android": "https://dc.lft.to/lastmile_qr_scan"}, "is_reserved": 0}, {"lon": -77.03658266666666, "bike_id": "d90820696300cf5a1ff2e744737f300d", "lat": 38.936079666666664, "fusion_lon": 0.0, "fusion_lat": 0.0, "type": "electric_scooter", "name": "d90820696300cf5a1ff2e744737f300d", "is_disabled": 0, "rental_uris": {"ios": "https://dc.lft.to/lastmile_qr_scan", "android": "https://dc.lft.to/lastmile_qr_scan"}, "is_reserved": 0}, {"lon": -76.98102466666667, "bike_id": "1b7d7f49ac5fd44dcabc199b7ab6b25b", "lat": 38.9040285, "fusion_lon": 0.0, "fusion_lat": 0.0, "type": "electric_scooter", "name": "1b7d7f49ac5fd44dcabc199b7ab6b25b", "is_disabled": 0, "rental_uris": {"ios": "https://dc.lft.to/lastmile_qr_scan", "android": "https://dc.lft.to/lastmile_qr_scan"}, "is_reserved": 0}, {"lon": -77.01820766666667, "bike_id": "485145e2ad34dcdd33146b08f2e9957a", "lat": 38.909724, "fusion_lon": 0.0, "fusion_lat": 0.0, "type": "electric_scooter", "name": "485145e2ad34dcdd33146b08f2e9957a", "is_disabled": 0, "rental_uris": {"ios": "https://dc.lft.to/lastmile_qr_scan", "android": "https://dc.lft.to/lastmile_qr_scan"}, "is_reserved": 0}, {"lon": -77.02633216666666, "bike_id": "bea4bf4fd048677cb843b71c2af4d0ac", "lat": 38.900378333333336, "fusion_lon": 0.0, "fusion_lat": 0.0, "type": "electric_scooter", "name": "bea4bf4fd048677cb843b71c2af4d0ac", "is_disabled": 0, "rental_uris": {"ios": "https://dc.lft.to/lastmile_qr_scan", "android": "https://dc.lft.to/lastmile_qr_scan"}, "is_reserved": 0}, {"lon": -76.99773833333333, "bike_id": "831c1430dc16286bed68be95f955b7e1", "lat": 38.844282666666665, "fusion_lon": 0.0, "fusion_lat": 0.0, "type": "electric_scooter", "name": "831c1430dc16286bed68be95f955b7e1", "is_disabled": 0, "rental_uris": {"ios": "https://dc.lft.to/lastmile_qr_scan", "android": "https://dc.lft.to/lastmile_qr_scan"}, "is_reserved": 0}, {"lon": -77.03486333333333, "bike_id": "e4dddfb61684310127e398b6d69e72c2", "lat": 38.920399333333336, "fusion_lon": 0.0, "fusion_lat": 0.0, "type": "electric_scooter", "name": "e4dddfb61684310127e398b6d69e72c2", "is_disabled": 0, "rental_uris": {"ios": "https://dc.lft.to/lastmile_qr_scan", "android": "https://dc.lft.to/lastmile_qr_scan"}, "is_reserved": 0}, {"lon": -77.029612, "bike_id": "4202ed172126ee963028bb7716e2bddc", "lat": 38.9306, "fusion_lon": 0.0, "fusion_lat": 0.0, "type": "electric_scooter", "name": "4202ed172126ee963028bb7716e2bddc", "is_disabled": 0, "rental_uris": {"ios": "https://dc.lft.to/lastmile_qr_scan", "android": "https://dc.lft.to/lastmile_qr_scan"}, "is_reserved": 0}, {"lon": -77.0675125, "bike_id": "93819db8023558bc4e2acc0c16b0fc66", "lat": 38.9034045, "fusion_lon": 0.0, "fusion_lat": 0.0, "type": "electric_scooter", "name": "93819db8023558bc4e2acc0c16b0fc66", "is_disabled": 0, "rental_uris": {"ios": "https://dc.lft.to/lastmile_qr_scan", "android": "https://dc.lft.to/lastmile_qr_scan"}, "is_reserved": 0}, {"lon": -77.03941983333333, "bike_id": "aff4dcd52a6e5725fc2635b846999ed3", "lat": 38.930644, "fusion_lon": 0.0, "fusion_lat": 0.0, "type": "electric_scooter", "name": "aff4dcd52a6e5725fc2635b846999ed3", "is_disabled": 0, "rental_uris": {"ios": "https://dc.lft.to/lastmile_qr_scan", "android": "https://dc.lft.to/lastmile_qr_scan"}, "is_reserved": 0}, {"lon": -77.03203833333333, "bike_id": "a67b520671d3e7d17ba2870925eb2879", "lat": 38.896436, "fusion_lon": 0.0, "fusion_lat": 0.0, "type": "electric_scooter", "name": "a67b520671d3e7d17ba2870925eb2879", "is_disabled": 0, "rental_uris": {"ios": "https://dc.lft.to/lastmile_qr_scan", "android": "https://dc.lft.to/lastmile_qr_scan"}, "is_reserved": 0}, {"lon": -76.92998733333333, "bike_id": "2607e0e12ecbbd8ca6a5d9abf6fa7611", "lat": 38.9018705, "fusion_lon": 0.0, "fusion_lat": 0.0, "type": "electric_scooter", "name": "2607e0e12ecbbd8ca6a5d9abf6fa7611", "is_disabled": 0, "rental_uris": {"ios": "https://dc.lft.to/lastmile_qr_scan", "android": "https://dc.lft.to/lastmile_qr_scan"}, "is_reserved": 0}, {"lon": -77.01401316666667, "bike_id": "99b86741f766a123b0901f42c886fc1e", "lat": 38.928519666666666, "fusion_lon": 0.0, "fusion_lat": 0.0, "type": "electric_scooter", "name": "99b86741f766a123b0901f42c886fc1e", "is_disabled": 0, "rental_uris": {"ios": "https://dc.lft.to/lastmile_qr_scan", "android": "https://dc.lft.to/lastmile_qr_scan"}, "is_reserved": 0}, {"lon": -77.04013316666666, "bike_id": "170c9220714f0894f92b7dfdd7edcc21", "lat": 38.91120183333334, "fusion_lon": 0.0, "fusion_lat": 0.0, "type": "electric_scooter", "name": "170c9220714f0894f92b7dfdd7edcc21", "is_disabled": 0, "rental_uris": {"ios": "https://dc.lft.to/lastmile_qr_scan", "android": "https://dc.lft.to/lastmile_qr_scan"}, "is_reserved": 0}, {"lon": -77.02714466666667, "bike_id": "ccb35de697ff4351b8329e749c7fd5c3", "lat": 38.92588766666667, "fusion_lon": 0.0, "fusion_lat": 0.0, "type": "electric_scooter", "name": "ccb35de697ff4351b8329e749c7fd5c3", "is_disabled": 0, "rental_uris": {"ios": "https://dc.lft.to/lastmile_qr_scan", "android": "https://dc.lft.to/lastmile_qr_scan"}, "is_reserved": 0}, {"lon": -77.0174095, "bike_id": "9f34eb2a03dd2b4e7155341f29a55c8a", "lat": 38.91618233333333, "fusion_lon": 0.0, "fusion_lat": 0.0, "type": "electric_bike", "name": "9f34eb2a03dd2b4e7155341f29a55c8a", "is_disabled": 0, "rental_uris": {"ios": "https://dc.lft.to/lastmile_qr_scan", "android": "https://dc.lft.to/lastmile_qr_scan"}, "is_reserved": 0}, {"lon": -77.03169933333334, "bike_id": "ab87e28ff2a74ec0e14aa6a259e1ea78", "lat": 38.91117033333333, "fusion_lon": 0.0, "fusion_lat": 0.0, "type": "electric_scooter", "name": "ab87e28ff2a74ec0e14aa6a259e1ea78", "is_disabled": 0, "rental_uris": {"ios": "https://dc.lft.to/lastmile_qr_scan", "android": "https://dc.lft.to/lastmile_qr_scan"}, "is_reserved": 0}, {"lon": -77.07276783333333, "bike_id": "2e51a8b2871d711c8b855d83f1c2d7c1", "lat": 38.914364, "fusion_lon": 0.0, "fusion_lat": 0.0, "type": "electric_scooter", "name": "2e51a8b2871d711c8b855d83f1c2d7c1", "is_disabled": 0, "rental_uris": {"ios": "https://dc.lft.to/lastmile_qr_scan", "android": "https://dc.lft.to/lastmile_qr_scan"}, "is_reserved": 0}, {"lon": -77.02524966666667, "bike_id": "f33ee8912b41bf924255ae88652bcc78", "lat": 38.92897716666667, "fusion_lon": 0.0, "fusion_lat": 0.0, "type": "electric_scooter", "name": "f33ee8912b41bf924255ae88652bcc78", "is_disabled": 0, "rental_uris": {"ios": "https://dc.lft.to/lastmile_qr_scan", "android": "https://dc.lft.to/lastmile_qr_scan"}, "is_reserved": 0}, {"lon": -76.985063, "bike_id": "02df9a709e776bafc12d6c7018865a3a", "lat": 38.880811666666666, "fusion_lon": 0.0, "fusion_lat": 0.0, "type": "electric_scooter", "name": "02df9a709e776bafc12d6c7018865a3a", "is_disabled": 0, "rental_uris": {"ios": "https://dc.lft.to/lastmile_qr_scan", "android": "https://dc.lft.to/lastmile_qr_scan"}, "is_reserved": 0}, {"lon": -77.037629, "bike_id": "140435ef0db590252bcc5b12f2864368", "lat": 38.907735833333334, "fusion_lon": 0.0, "fusion_lat": 0.0, "type": "electric_scooter", "name": "140435ef0db590252bcc5b12f2864368", "is_disabled": 0, "rental_uris": {"ios": "https://dc.lft.to/lastmile_qr_scan", "android": "https://dc.lft.to/lastmile_qr_scan"}, "is_reserved": 0}, {"lon": -77.02872683333334, "bike_id": "9a2f4dc32d3a8641cdc5db8a64f00aa3", "lat": 38.91695266666667, "fusion_lon": 0.0, "fusion_lat": 0.0, "type": "electric_scooter", "name": "9a2f4dc32d3a8641cdc5db8a64f00aa3", "is_disabled": 0, "rental_uris": {"ios": "https://dc.lft.to/lastmile_qr_scan", "android": "https://dc.lft.to/lastmile_qr_scan"}, "is_reserved": 0}, {"lon": -77.02845383333333, "bike_id": "c406533faea2600f0aa4b27d2c39b2d9", "lat": 38.934166, "fusion_lon": 0.0, "fusion_lat": 0.0, "type": "electric_scooter", "name": "c406533faea2600f0aa4b27d2c39b2d9", "is_disabled": 0, "rental_uris": {"ios": "https://dc.lft.to/lastmile_qr_scan", "android": "https://dc.lft.to/lastmile_qr_scan"}, "is_reserved": 0}, {"lon": -77.02970883333333, "bike_id": "240d354eab5629ff9259f68bbac98aaa", "lat": 38.914541, "fusion_lon": 0.0, "fusion_lat": 0.0, "type": "electric_scooter", "name": "240d354eab5629ff9259f68bbac98aaa", "is_disabled": 0, "rental_uris": {"ios": "https://dc.lft.to/lastmile_qr_scan", "android": "https://dc.lft.to/lastmile_qr_scan"}, "is_reserved": 0}, {"lon": -77.02288333333334, "bike_id": "cec56af6fbde5df9c8951c9a2268e33a", "lat": 38.90787266666667, "fusion_lon": 0.0, "fusion_lat": 0.0, "type": "electric_scooter", "name": "cec56af6fbde5df9c8951c9a2268e33a", "is_disabled": 0, "rental_uris": {"ios": "https://dc.lft.to/lastmile_qr_scan", "android": "https://dc.lft.to/lastmile_qr_scan"}, "is_reserved": 0}, {"lon": -77.013422, "bike_id": "681560c2620bd5365a705701a2967d1a", "lat": 38.878139166666664, "fusion_lon": 0.0, "fusion_lat": 0.0, "type": "electric_scooter", "name": "681560c2620bd5365a705701a2967d1a", "is_disabled": 0, "rental_uris": {"ios": "https://dc.lft.to/lastmile_qr_scan", "android": "https://dc.lft.to/lastmile_qr_scan"}, "is_reserved": 0}, {"lon": -77.00200366666667, "bike_id": "c7ab8fb7e74e6043ce37004e211fe271", "lat": 38.902377333333334, "fusion_lon": 0.0, "fusion_lat": 0.0, "type": "electric_scooter", "name": "c7ab8fb7e74e6043ce37004e211fe271", "is_disabled": 0, "rental_uris": {"ios": "https://dc.lft.to/lastmile_qr_scan", "android": "https://dc.lft.to/lastmile_qr_scan"}, "is_reserved": 0}, {"lon": -77.02076483333333, "bike_id": "1b088619f9c7d52fbb42ee7b1c3c16ef", "lat": 38.88189216666667, "fusion_lon": 0.0, "fusion_lat": 0.0, "type": "electric_scooter", "name": "1b088619f9c7d52fbb42ee7b1c3c16ef", "is_disabled": 0, "rental_uris": {"ios": "https://dc.lft.to/lastmile_qr_scan", "android": "https://dc.lft.to/lastmile_qr_scan"}, "is_reserved": 0}, {"lon": -77.02101033333334, "bike_id": "4554d0ab0c109bd034e5baff82f4983d", "lat": 38.914770833333336, "fusion_lon": 0.0, "fusion_lat": 0.0, "type": "electric_scooter", "name": "4554d0ab0c109bd034e5baff82f4983d", "is_disabled": 0, "rental_uris": {"ios": "https://dc.lft.to/lastmile_qr_scan", "android": "https://dc.lft.to/lastmile_qr_scan"}, "is_reserved": 0}, {"lon": -77.02713916666667, "bike_id": "b686b161572a66df8f1ca193cc84dd68", "lat": 38.909513833333335, "fusion_lon": 0.0, "fusion_lat": 0.0, "type": "electric_scooter", "name": "b686b161572a66df8f1ca193cc84dd68", "is_disabled": 0, "rental_uris": {"ios": "https://dc.lft.to/lastmile_qr_scan", "android": "https://dc.lft.to/lastmile_qr_scan"}, "is_reserved": 0}, {"lon": -76.9977365, "bike_id": "a07f5ec1005ca2cd5fb70a17ddd81be9", "lat": 38.961545666666666, "fusion_lon": 0.0, "fusion_lat": 0.0, "type": "electric_bike", "name": "a07f5ec1005ca2cd5fb70a17ddd81be9", "is_disabled": 0, "rental_uris": {"ios": "https://dc.lft.to/lastmile_qr_scan", "android": "https://dc.lft.to/lastmile_qr_scan"}, "is_reserved": 0}, {"lon": -77.04681383333333, "bike_id": "61cb0ce5cc8d161890b93c4a7dd7e4e9", "lat": 38.89741316666667, "fusion_lon": 0.0, "fusion_lat": 0.0, "type": "electric_scooter", "name": "61cb0ce5cc8d161890b93c4a7dd7e4e9", "is_disabled": 0, "rental_uris": {"ios": "https://dc.lft.to/lastmile_qr_scan", "android": "https://dc.lft.to/lastmile_qr_scan"}, "is_reserved": 0}, {"lon": -77.04915183333334, "bike_id": "f7ae466667ee96be7839fd638d4921a6", "lat": 38.90852233333333, "fusion_lon": 0.0, "fusion_lat": 0.0, "type": "electric_scooter", "name": "f7ae466667ee96be7839fd638d4921a6", "is_disabled": 0, "rental_uris": {"ios": "https://dc.lft.to/lastmile_qr_scan", "android": "https://dc.lft.to/lastmile_qr_scan"}, "is_reserved": 0}, {"lon": -77.02691533333333, "bike_id": "6fe16ef5dc71391f2174983d8d2eedd7", "lat": 38.908441333333336, "fusion_lon": 0.0, "fusion_lat": 0.0, "type": "electric_scooter", "name": "6fe16ef5dc71391f2174983d8d2eedd7", "is_disabled": 0, "rental_uris": {"ios": "https://dc.lft.to/lastmile_qr_scan", "android": "https://dc.lft.to/lastmile_qr_scan"}, "is_reserved": 0}, {"lon": -76.9884055, "bike_id": "7a3a2046f69e7e4499e8e068ebba73b1", "lat": 38.842735, "fusion_lon": 0.0, "fusion_lat": 0.0, "type": "electric_bike", "name": "7a3a2046f69e7e4499e8e068ebba73b1", "is_disabled": 0, "rental_uris": {"ios": "https://dc.lft.to/lastmile_qr_scan", "android": "https://dc.lft.to/lastmile_qr_scan"}, "is_reserved": 0}, {"lon": -76.97236566666666, "bike_id": "3612f0dbf5fd0087568ca427c94dd6bc", "lat": 38.9034675, "fusion_lon": 0.0, "fusion_lat": 0.0, "type": "electric_scooter", "name": "3612f0dbf5fd0087568ca427c94dd6bc", "is_disabled": 0, "rental_uris": {"ios": "https://dc.lft.to/lastmile_qr_scan", "android": "https://dc.lft.to/lastmile_qr_scan"}, "is_reserved": 0}, {"lon": -77.04806583333334, "bike_id": "8be7294b6a25d9f044f89cda2052a6f1", "lat": 38.8973425, "fusion_lon": 0.0, "fusion_lat": 0.0, "type": "electric_scooter", "name": "8be7294b6a25d9f044f89cda2052a6f1", "is_disabled": 0, "rental_uris": {"ios": "https://dc.lft.to/lastmile_qr_scan", "android": "https://dc.lft.to/lastmile_qr_scan"}, "is_reserved": 0}, {"lon": -77.0759355, "bike_id": "111098d37e8e70e6d388d682b9c038f3", "lat": 38.912167833333335, "fusion_lon": 0.0, "fusion_lat": 0.0, "type": "electric_scooter", "name": "111098d37e8e70e6d388d682b9c038f3", "is_disabled": 0, "rental_uris": {"ios": "https://dc.lft.to/lastmile_qr_scan", "android": "https://dc.lft.to/lastmile_qr_scan"}, "is_reserved": 0}, {"lon": -77.0199745, "bike_id": "ace2c7042c134af87224969bbd61e6ce", "lat": 38.9662675, "fusion_lon": 0.0, "fusion_lat": 0.0, "type": "electric_scooter", "name": "ace2c7042c134af87224969bbd61e6ce", "is_disabled": 0, "rental_uris": {"ios": "https://dc.lft.to/lastmile_qr_scan", "android": "https://dc.lft.to/lastmile_qr_scan"}, "is_reserved": 0}, {"lon": -77.03133666666666, "bike_id": "8961e38933e86311ae94f92ae593c0b7", "lat": 38.920336, "fusion_lon": 0.0, "fusion_lat": 0.0, "type": "electric_scooter", "name": "8961e38933e86311ae94f92ae593c0b7", "is_disabled": 0, "rental_uris": {"ios": "https://dc.lft.to/lastmile_qr_scan", "android": "https://dc.lft.to/lastmile_qr_scan"}, "is_reserved": 0}, {"lon": -77.03216216666667, "bike_id": "bfb735a302659467f31d1b7004276dfc", "lat": 38.89223333333333, "fusion_lon": 0.0, "fusion_lat": 0.0, "type": "electric_scooter", "name": "bfb735a302659467f31d1b7004276dfc", "is_disabled": 0, "rental_uris": {"ios": "https://dc.lft.to/lastmile_qr_scan", "android": "https://dc.lft.to/lastmile_qr_scan"}, "is_reserved": 0}, {"lon": -77.0280435, "bike_id": "94d228613fb2617d3bfb59a2729d1017", "lat": 38.914255, "fusion_lon": 0.0, "fusion_lat": 0.0, "type": "electric_scooter", "name": "94d228613fb2617d3bfb59a2729d1017", "is_disabled": 0, "rental_uris": {"ios": "https://dc.lft.to/lastmile_qr_scan", "android": "https://dc.lft.to/lastmile_qr_scan"}, "is_reserved": 0}, {"lon": -76.99455533333334, "bike_id": "d62c0d7a26bcad3a4090c97f5c14b48c", "lat": 38.9036925, "fusion_lon": 0.0, "fusion_lat": 0.0, "type": "electric_scooter", "name": "d62c0d7a26bcad3a4090c97f5c14b48c", "is_disabled": 0, "rental_uris": {"ios": "https://dc.lft.to/lastmile_qr_scan", "android": "https://dc.lft.to/lastmile_qr_scan"}, "is_reserved": 0}, {"lon": -77.039809, "bike_id": "cb84042f5d9ccabb270e9441a1ec09b5", "lat": 38.8921975, "fusion_lon": 0.0, "fusion_lat": 0.0, "type": "electric_scooter", "name": "cb84042f5d9ccabb270e9441a1ec09b5", "is_disabled": 0, "rental_uris": {"ios": "https://dc.lft.to/lastmile_qr_scan", "android": "https://dc.lft.to/lastmile_qr_scan"}, "is_reserved": 0}, {"lon": -77.02307333333333, "bike_id": "4f5feced27109565a04c5d3155cf1931", "lat": 38.942006666666664, "fusion_lon": 0.0, "fusion_lat": 0.0, "type": "electric_scooter", "name": "4f5feced27109565a04c5d3155cf1931", "is_disabled": 0, "rental_uris": {"ios": "https://dc.lft.to/lastmile_qr_scan", "android": "https://dc.lft.to/lastmile_qr_scan"}, "is_reserved": 0}, {"lon": -77.072388, "bike_id": "6a1a61ae73f569b3d688eeeb435ce614", "lat": 38.898975166666666, "fusion_lon": 0.0, "fusion_lat": 0.0, "type": "electric_scooter", "name": "6a1a61ae73f569b3d688eeeb435ce614", "is_disabled": 0, "rental_uris": {"ios": "https://dc.lft.to/lastmile_qr_scan", "android": "https://dc.lft.to/lastmile_qr_scan"}, "is_reserved": 0}, {"lon": -77.000749, "bike_id": "57bf8d3fa5e9c7b5c1b6614029b77ff4", "lat": 38.87379683333333, "fusion_lon": 0.0, "fusion_lat": 0.0, "type": "electric_scooter", "name": "57bf8d3fa5e9c7b5c1b6614029b77ff4", "is_disabled": 0, "rental_uris": {"ios": "https://dc.lft.to/lastmile_qr_scan", "android": "https://dc.lft.to/lastmile_qr_scan"}, "is_reserved": 0}, {"lon": -77.02773383333333, "bike_id": "eaa532cefe57e021d88f9e5de9f62bf7", "lat": 38.954253666666666, "fusion_lon": 0.0, "fusion_lat": 0.0, "type": "electric_scooter", "name": "eaa532cefe57e021d88f9e5de9f62bf7", "is_disabled": 0, "rental_uris": {"ios": "https://dc.lft.to/lastmile_qr_scan", "android": "https://dc.lft.to/lastmile_qr_scan"}, "is_reserved": 0}, {"lon": -77.00559466666667, "bike_id": "05e85f3eeaf3615242f1941392308897", "lat": 38.87468166666667, "fusion_lon": 0.0, "fusion_lat": 0.0, "type": "electric_scooter", "name": "05e85f3eeaf3615242f1941392308897", "is_disabled": 0, "rental_uris": {"ios": "https://dc.lft.to/lastmile_qr_scan", "android": "https://dc.lft.to/lastmile_qr_scan"}, "is_reserved": 0}, {"lon": -76.9073775, "bike_id": "a92f1b57ee6817276dbaef9b6f878bc2", "lat": 38.896168833333334, "fusion_lon": 0.0, "fusion_lat": 0.0, "type": "electric_bike", "name": "a92f1b57ee6817276dbaef9b6f878bc2", "is_disabled": 0, "rental_uris": {"ios": "https://dc.lft.to/lastmile_qr_scan", "android": "https://dc.lft.to/lastmile_qr_scan"}, "is_reserved": 0}, {"lon": -77.04474866666666, "bike_id": "57231416406fd3ce00463a08ca75b23f", "lat": 38.9238295, "fusion_lon": 0.0, "fusion_lat": 0.0, "type": "electric_scooter", "name": "57231416406fd3ce00463a08ca75b23f", "is_disabled": 0, "rental_uris": {"ios": "https://dc.lft.to/lastmile_qr_scan", "android": "https://dc.lft.to/lastmile_qr_scan"}, "is_reserved": 0}, {"lon": -77.03980283333334, "bike_id": "1e47e8e5f3c7c57c5a525185102c6b70", "lat": 38.93338883333333, "fusion_lon": 0.0, "fusion_lat": 0.0, "type": "electric_scooter", "name": "1e47e8e5f3c7c57c5a525185102c6b70", "is_disabled": 0, "rental_uris": {"ios": "https://dc.lft.to/lastmile_qr_scan", "android": "https://dc.lft.to/lastmile_qr_scan"}, "is_reserved": 0}, {"lon": -77.03236083333333, "bike_id": "7a005352365b084f68f93e6048e55931", "lat": 38.928692833333336, "fusion_lon": 0.0, "fusion_lat": 0.0, "type": "electric_scooter", "name": "7a005352365b084f68f93e6048e55931", "is_disabled": 0, "rental_uris": {"ios": "https://dc.lft.to/lastmile_qr_scan", "android": "https://dc.lft.to/lastmile_qr_scan"}, "is_reserved": 0}, {"lon": -76.98524016666667, "bike_id": "940cde7016791ba164ad374875c747d3", "lat": 38.86685883333333, "fusion_lon": 0.0, "fusion_lat": 0.0, "type": "electric_scooter", "name": "940cde7016791ba164ad374875c747d3", "is_disabled": 0, "rental_uris": {"ios": "https://dc.lft.to/lastmile_qr_scan", "android": "https://dc.lft.to/lastmile_qr_scan"}, "is_reserved": 0}, {"lon": -76.98909566666667, "bike_id": "e1d1c5f5dae62b57361986f94d4d9208", "lat": 38.90139333333333, "fusion_lon": 0.0, "fusion_lat": 0.0, "type": "electric_scooter", "name": "e1d1c5f5dae62b57361986f94d4d9208", "is_disabled": 0, "rental_uris": {"ios": "https://dc.lft.to/lastmile_qr_scan", "android": "https://dc.lft.to/lastmile_qr_scan"}, "is_reserved": 0}, {"lon": -77.03145016666667, "bike_id": "aba451a607dccaee1164bb7b41844997", "lat": 38.920298333333335, "fusion_lon": 0.0, "fusion_lat": 0.0, "type": "electric_scooter", "name": "aba451a607dccaee1164bb7b41844997", "is_disabled": 0, "rental_uris": {"ios": "https://dc.lft.to/lastmile_qr_scan", "android": "https://dc.lft.to/lastmile_qr_scan"}, "is_reserved": 0}, {"lon": -77.04868333333333, "bike_id": "1af279c80082c9a0505f09718aa43ff3", "lat": 38.8922095, "fusion_lon": 0.0, "fusion_lat": 0.0, "type": "electric_scooter", "name": "1af279c80082c9a0505f09718aa43ff3", "is_disabled": 0, "rental_uris": {"ios": "https://dc.lft.to/lastmile_qr_scan", "android": "https://dc.lft.to/lastmile_qr_scan"}, "is_reserved": 0}, {"lon": -77.06977933333333, "bike_id": "1551aeed0d0c29195bf878b74b6664d5", "lat": 38.95521766666667, "fusion_lon": 0.0, "fusion_lat": 0.0, "type": "electric_scooter", "name": "1551aeed0d0c29195bf878b74b6664d5", "is_disabled": 0, "rental_uris": {"ios": "https://dc.lft.to/lastmile_qr_scan", "android": "https://dc.lft.to/lastmile_qr_scan"}, "is_reserved": 0}, {"lon": -77.03255933333334, "bike_id": "c64cb939bac10cd93c7c78ac92340501", "lat": 38.928921833333334, "fusion_lon": 0.0, "fusion_lat": 0.0, "type": "electric_scooter", "name": "c64cb939bac10cd93c7c78ac92340501", "is_disabled": 0, "rental_uris": {"ios": "https://dc.lft.to/lastmile_qr_scan", "android": "https://dc.lft.to/lastmile_qr_scan"}, "is_reserved": 0}, {"lon": -77.12525466666666, "bike_id": "17f4a463dc5cde4c76374a71fc6ae2d3", "lat": 39.0563205, "fusion_lon": 0.0, "fusion_lat": 0.0, "type": "electric_bike", "name": "17f4a463dc5cde4c76374a71fc6ae2d3", "is_disabled": 0, "rental_uris": {"ios": "https://dc.lft.to/lastmile_qr_scan", "android": "https://dc.lft.to/lastmile_qr_scan"}, "is_reserved": 0}, {"lon": -77.03627216666666, "bike_id": "53afa0392216b52d30d8651d0f5bb926", "lat": 38.930793333333334, "fusion_lon": 0.0, "fusion_lat": 0.0, "type": "electric_scooter", "name": "53afa0392216b52d30d8651d0f5bb926", "is_disabled": 0, "rental_uris": {"ios": "https://dc.lft.to/lastmile_qr_scan", "android": "https://dc.lft.to/lastmile_qr_scan"}, "is_reserved": 0}, {"lon": -76.9992685, "bike_id": "4b94fe9a18e14bf7859035aacd4bab86", "lat": 38.84314916666666, "fusion_lon": 0.0, "fusion_lat": 0.0, "type": "electric_scooter", "name": "4b94fe9a18e14bf7859035aacd4bab86", "is_disabled": 0, "rental_uris": {"ios": "https://dc.lft.to/lastmile_qr_scan", "android": "https://dc.lft.to/lastmile_qr_scan"}, "is_reserved": 0}, {"lon": -77.0745165, "bike_id": "7e665fb0c2ffde6afad4dcdc83950306", "lat": 38.94510983333333, "fusion_lon": 0.0, "fusion_lat": 0.0, "type": "electric_scooter", "name": "7e665fb0c2ffde6afad4dcdc83950306", "is_disabled": 0, "rental_uris": {"ios": "https://dc.lft.to/lastmile_qr_scan", "android": "https://dc.lft.to/lastmile_qr_scan"}, "is_reserved": 0}, {"lon": -77.0515215, "bike_id": "a5b26d2c2465cbe0f2a8c8c7e1e7bb8d", "lat": 38.9274095, "fusion_lon": 0.0, "fusion_lat": 0.0, "type": "electric_scooter", "name": "a5b26d2c2465cbe0f2a8c8c7e1e7bb8d", "is_disabled": 0, "rental_uris": {"ios": "https://dc.lft.to/lastmile_qr_scan", "android": "https://dc.lft.to/lastmile_qr_scan"}, "is_reserved": 0}, {"lon": -77.0270355, "bike_id": "137f014bdc586a311d0e2864c6defd5d", "lat": 38.906701, "fusion_lon": 0.0, "fusion_lat": 0.0, "type": "electric_scooter", "name": "137f014bdc586a311d0e2864c6defd5d", "is_disabled": 0, "rental_uris": {"ios": "https://dc.lft.to/lastmile_qr_scan", "android": "https://dc.lft.to/lastmile_qr_scan"}, "is_reserved": 0}, {"lon": -76.93731883333334, "bike_id": "1686dc009e9f09d2688ab8e69aa2c95f", "lat": 38.89015283333333, "fusion_lon": 0.0, "fusion_lat": 0.0, "type": "electric_scooter", "name": "1686dc009e9f09d2688ab8e69aa2c95f", "is_disabled": 0, "rental_uris": {"ios": "https://dc.lft.to/lastmile_qr_scan", "android": "https://dc.lft.to/lastmile_qr_scan"}, "is_reserved": 0}, {"lon": -77.0343265, "bike_id": "96a603dd7795ec15e52c5f9b98caaba2", "lat": 38.909751166666666, "fusion_lon": 0.0, "fusion_lat": 0.0, "type": "electric_scooter", "name": "96a603dd7795ec15e52c5f9b98caaba2", "is_disabled": 0, "rental_uris": {"ios": "https://dc.lft.to/lastmile_qr_scan", "android": "https://dc.lft.to/lastmile_qr_scan"}, "is_reserved": 0}, {"lon": -77.01732133333333, "bike_id": "531c154f34216e18a2b0117503565495", "lat": 38.94206416666667, "fusion_lon": 0.0, "fusion_lat": 0.0, "type": "electric_scooter", "name": "531c154f34216e18a2b0117503565495", "is_disabled": 0, "rental_uris": {"ios": "https://dc.lft.to/lastmile_qr_scan", "android": "https://dc.lft.to/lastmile_qr_scan"}, "is_reserved": 0}, {"lon": -77.02186233333333, "bike_id": "595c3ee3461c240993e6dea207a1f545", "lat": 38.912685, "fusion_lon": 0.0, "fusion_lat": 0.0, "type": "electric_scooter", "name": "595c3ee3461c240993e6dea207a1f545", "is_disabled": 0, "rental_uris": {"ios": "https://dc.lft.to/lastmile_qr_scan", "android": "https://dc.lft.to/lastmile_qr_scan"}, "is_reserved": 0}, {"lon": -77.023244, "bike_id": "f7b94b2e80493955e85e71e7f2b4f078", "lat": 38.929852833333335, "fusion_lon": 0.0, "fusion_lat": 0.0, "type": "electric_scooter", "name": "f7b94b2e80493955e85e71e7f2b4f078", "is_disabled": 0, "rental_uris": {"ios": "https://dc.lft.to/lastmile_qr_scan", "android": "https://dc.lft.to/lastmile_qr_scan"}, "is_reserved": 0}, {"lon": -77.02900166666667, "bike_id": "59f51e25c89510545918cfa060c48c1f", "lat": 38.9281525, "fusion_lon": 0.0, "fusion_lat": 0.0, "type": "electric_scooter", "name": "59f51e25c89510545918cfa060c48c1f", "is_disabled": 0, "rental_uris": {"ios": "https://dc.lft.to/lastmile_qr_scan", "android": "https://dc.lft.to/lastmile_qr_scan"}, "is_reserved": 0}, {"lon": -77.02608566666666, "bike_id": "a742f01be375940b9c781458cd397e98", "lat": 38.883845666666666, "fusion_lon": 0.0, "fusion_lat": 0.0, "type": "electric_scooter", "name": "a742f01be375940b9c781458cd397e98", "is_disabled": 0, "rental_uris": {"ios": "https://dc.lft.to/lastmile_qr_scan", "android": "https://dc.lft.to/lastmile_qr_scan"}, "is_reserved": 0}, {"lon": -77.04573783333333, "bike_id": "7a305fc3dff4df174a6a397020d9985b", "lat": 38.91336066666667, "fusion_lon": 0.0, "fusion_lat": 0.0, "type": "electric_scooter", "name": "7a305fc3dff4df174a6a397020d9985b", "is_disabled": 0, "rental_uris": {"ios": "https://dc.lft.to/lastmile_qr_scan", "android": "https://dc.lft.to/lastmile_qr_scan"}, "is_reserved": 0}, {"lon": -76.99484566666666, "bike_id": "2135f3c570a0b731f44ef1b946165b45", "lat": 38.897395333333336, "fusion_lon": 0.0, "fusion_lat": 0.0, "type": "electric_scooter", "name": "2135f3c570a0b731f44ef1b946165b45", "is_disabled": 0, "rental_uris": {"ios": "https://dc.lft.to/lastmile_qr_scan", "android": "https://dc.lft.to/lastmile_qr_scan"}, "is_reserved": 0}, {"lon": -77.02499833333333, "bike_id": "657c498d982ea3f22f50ab93fc588bec", "lat": 38.91920733333333, "fusion_lon": 0.0, "fusion_lat": 0.0, "type": "electric_scooter", "name": "657c498d982ea3f22f50ab93fc588bec", "is_disabled": 0, "rental_uris": {"ios": "https://dc.lft.to/lastmile_qr_scan", "android": "https://dc.lft.to/lastmile_qr_scan"}, "is_reserved": 0}, {"lon": -77.02161216666667, "bike_id": "b186ad6f8a4e67a73c6ba1e6b045198c", "lat": 38.897135166666665, "fusion_lon": 0.0, "fusion_lat": 0.0, "type": "electric_scooter", "name": "b186ad6f8a4e67a73c6ba1e6b045198c", "is_disabled": 0, "rental_uris": {"ios": "https://dc.lft.to/lastmile_qr_scan", "android": "https://dc.lft.to/lastmile_qr_scan"}, "is_reserved": 0}, {"lon": -77.02904633333333, "bike_id": "c43989997709daac74e07e14bf8d7183", "lat": 38.940377833333336, "fusion_lon": 0.0, "fusion_lat": 0.0, "type": "electric_scooter", "name": "c43989997709daac74e07e14bf8d7183", "is_disabled": 0, "rental_uris": {"ios": "https://dc.lft.to/lastmile_qr_scan", "android": "https://dc.lft.to/lastmile_qr_scan"}, "is_reserved": 0}, {"lon": -77.06296383333333, "bike_id": "0ebdd9b9bf8223ebb5e49674ef4c0dcb", "lat": 38.906076166666665, "fusion_lon": 0.0, "fusion_lat": 0.0, "type": "electric_scooter", "name": "0ebdd9b9bf8223ebb5e49674ef4c0dcb", "is_disabled": 0, "rental_uris": {"ios": "https://dc.lft.to/lastmile_qr_scan", "android": "https://dc.lft.to/lastmile_qr_scan"}, "is_reserved": 0}, {"lon": -77.02561233333333, "bike_id": "6981fdc575135d9d81275854ba8dd4c7", "lat": 38.918136, "fusion_lon": 0.0, "fusion_lat": 0.0, "type": "electric_scooter", "name": "6981fdc575135d9d81275854ba8dd4c7", "is_disabled": 0, "rental_uris": {"ios": "https://dc.lft.to/lastmile_qr_scan", "android": "https://dc.lft.to/lastmile_qr_scan"}, "is_reserved": 0}, {"lon": -77.02371166666667, "bike_id": "8bc131ab84275e2ec7d7aeb58b4da9a2", "lat": 38.917829, "fusion_lon": 0.0, "fusion_lat": 0.0, "type": "electric_scooter", "name": "8bc131ab84275e2ec7d7aeb58b4da9a2", "is_disabled": 0, "rental_uris": {"ios": "https://dc.lft.to/lastmile_qr_scan", "android": "https://dc.lft.to/lastmile_qr_scan"}, "is_reserved": 0}, {"lon": -77.04011233333334, "bike_id": "958a829814310bcac6993d29739edad7", "lat": 38.91555866666667, "fusion_lon": 0.0, "fusion_lat": 0.0, "type": "electric_scooter", "name": "958a829814310bcac6993d29739edad7", "is_disabled": 0, "rental_uris": {"ios": "https://dc.lft.to/lastmile_qr_scan", "android": "https://dc.lft.to/lastmile_qr_scan"}, "is_reserved": 0}, {"lon": -77.0280015, "bike_id": "deef2bab29f7b05cc66fcd3b8e697185", "lat": 38.920199833333335, "fusion_lon": 0.0, "fusion_lat": 0.0, "type": "electric_scooter", "name": "deef2bab29f7b05cc66fcd3b8e697185", "is_disabled": 0, "rental_uris": {"ios": "https://dc.lft.to/lastmile_qr_scan", "android": "https://dc.lft.to/lastmile_qr_scan"}, "is_reserved": 0}, {"lon": -77.045395, "bike_id": "aade6556da0cafeab4786ec5ee162c09", "lat": 38.920522166666665, "fusion_lon": 0.0, "fusion_lat": 0.0, "type": "electric_scooter", "name": "aade6556da0cafeab4786ec5ee162c09", "is_disabled": 0, "rental_uris": {"ios": "https://dc.lft.to/lastmile_qr_scan", "android": "https://dc.lft.to/lastmile_qr_scan"}, "is_reserved": 0}, {"lon": -77.027332, "bike_id": "e168467f04dbee5651874941b0a1f475", "lat": 38.93211083333333, "fusion_lon": 0.0, "fusion_lat": 0.0, "type": "electric_scooter", "name": "e168467f04dbee5651874941b0a1f475", "is_disabled": 0, "rental_uris": {"ios": "https://dc.lft.to/lastmile_qr_scan", "android": "https://dc.lft.to/lastmile_qr_scan"}, "is_reserved": 0}, {"lon": -77.02087966666667, "bike_id": "31abcfda8e2b9e312a1e2bc0805a5890", "lat": 38.93116966666667, "fusion_lon": 0.0, "fusion_lat": 0.0, "type": "electric_scooter", "name": "31abcfda8e2b9e312a1e2bc0805a5890", "is_disabled": 0, "rental_uris": {"ios": "https://dc.lft.to/lastmile_qr_scan", "android": "https://dc.lft.to/lastmile_qr_scan"}, "is_reserved": 0}, {"lon": -77.03328716666667, "bike_id": "b24bd7bbda9eb6663c00bbf2d50eaa64", "lat": 38.909727833333335, "fusion_lon": 0.0, "fusion_lat": 0.0, "type": "electric_scooter", "name": "b24bd7bbda9eb6663c00bbf2d50eaa64", "is_disabled": 0, "rental_uris": {"ios": "https://dc.lft.to/lastmile_qr_scan", "android": "https://dc.lft.to/lastmile_qr_scan"}, "is_reserved": 0}, {"lon": -77.02264033333333, "bike_id": "ea7ca5ff8fd92c3219d8a97a5ce18838", "lat": 38.907211333333336, "fusion_lon": 0.0, "fusion_lat": 0.0, "type": "electric_scooter", "name": "ea7ca5ff8fd92c3219d8a97a5ce18838", "is_disabled": 0, "rental_uris": {"ios": "https://dc.lft.to/lastmile_qr_scan", "android": "https://dc.lft.to/lastmile_qr_scan"}, "is_reserved": 0}, {"lon": -77.0415765, "bike_id": "e0ae63259c0e10e6c8efdc7eff2b4c45", "lat": 38.89746733333333, "fusion_lon": 0.0, "fusion_lat": 0.0, "type": "electric_scooter", "name": "e0ae63259c0e10e6c8efdc7eff2b4c45", "is_disabled": 0, "rental_uris": {"ios": "https://dc.lft.to/lastmile_qr_scan", "android": "https://dc.lft.to/lastmile_qr_scan"}, "is_reserved": 0}, {"lon": -77.02395066666666, "bike_id": "e412d3e6847d9b45ad652ac62ac98997", "lat": 38.89734816666667, "fusion_lon": 0.0, "fusion_lat": 0.0, "type": "electric_scooter", "name": "e412d3e6847d9b45ad652ac62ac98997", "is_disabled": 0, "rental_uris": {"ios": "https://dc.lft.to/lastmile_qr_scan", "android": "https://dc.lft.to/lastmile_qr_scan"}, "is_reserved": 0}, {"lon": -77.03354716666666, "bike_id": "91c77f4fcfcfbee6274f6a4eebb77423", "lat": 38.9234865, "fusion_lon": 0.0, "fusion_lat": 0.0, "type": "electric_scooter", "name": "91c77f4fcfcfbee6274f6a4eebb77423", "is_disabled": 0, "rental_uris": {"ios": "https://dc.lft.to/lastmile_qr_scan", "android": "https://dc.lft.to/lastmile_qr_scan"}, "is_reserved": 0}, {"lon": -76.98237883333333, "bike_id": "cf00f3cbbbb8f2daffa3575f27b4d9c0", "lat": 38.888668, "fusion_lon": 0.0, "fusion_lat": 0.0, "type": "electric_scooter", "name": "cf00f3cbbbb8f2daffa3575f27b4d9c0", "is_disabled": 0, "rental_uris": {"ios": "https://dc.lft.to/lastmile_qr_scan", "android": "https://dc.lft.to/lastmile_qr_scan"}, "is_reserved": 0}, {"lon": -77.039461, "bike_id": "25ced5ae5b71e14ace4862f0eb100027", "lat": 38.91573416666667, "fusion_lon": 0.0, "fusion_lat": 0.0, "type": "electric_scooter", "name": "25ced5ae5b71e14ace4862f0eb100027", "is_disabled": 0, "rental_uris": {"ios": "https://dc.lft.to/lastmile_qr_scan", "android": "https://dc.lft.to/lastmile_qr_scan"}, "is_reserved": 0}, {"lon": -77.04159383333334, "bike_id": "53c2ba423216073397e9a17e93750d9c", "lat": 38.91252566666667, "fusion_lon": 0.0, "fusion_lat": 0.0, "type": "electric_scooter", "name": "53c2ba423216073397e9a17e93750d9c", "is_disabled": 0, "rental_uris": {"ios": "https://dc.lft.to/lastmile_qr_scan", "android": "https://dc.lft.to/lastmile_qr_scan"}, "is_reserved": 0}, {"lon": -77.06489916666666, "bike_id": "cd0e16f6453be6858d996297029f4547", "lat": 38.92909183333333, "fusion_lon": 0.0, "fusion_lat": 0.0, "type": "electric_scooter", "name": "cd0e16f6453be6858d996297029f4547", "is_disabled": 0, "rental_uris": {"ios": "https://dc.lft.to/lastmile_qr_scan", "android": "https://dc.lft.to/lastmile_qr_scan"}, "is_reserved": 0}, {"lon": -77.00217383333333, "bike_id": "37aee17e6d8e16d88581dc713e67e238", "lat": 38.90018233333333, "fusion_lon": 0.0, "fusion_lat": 0.0, "type": "electric_scooter", "name": "37aee17e6d8e16d88581dc713e67e238", "is_disabled": 0, "rental_uris": {"ios": "https://dc.lft.to/lastmile_qr_scan", "android": "https://dc.lft.to/lastmile_qr_scan"}, "is_reserved": 0}, {"lon": -77.01830016666666, "bike_id": "8e0307401512a52dee87e010f0cb579e", "lat": 38.901186333333335, "fusion_lon": 0.0, "fusion_lat": 0.0, "type": "electric_scooter", "name": "8e0307401512a52dee87e010f0cb579e", "is_disabled": 0, "rental_uris": {"ios": "https://dc.lft.to/lastmile_qr_scan", "android": "https://dc.lft.to/lastmile_qr_scan"}, "is_reserved": 0}, {"lon": -77.048033, "bike_id": "cdc4e9ffe6ac17ccd2cfa641ceabe974", "lat": 38.9140715, "fusion_lon": 0.0, "fusion_lat": 0.0, "type": "electric_scooter", "name": "cdc4e9ffe6ac17ccd2cfa641ceabe974", "is_disabled": 0, "rental_uris": {"ios": "https://dc.lft.to/lastmile_qr_scan", "android": "https://dc.lft.to/lastmile_qr_scan"}, "is_reserved": 0}, {"lon": -77.02452133333334, "bike_id": "01e768c6ae372c9c6df055435a7cd1eb", "lat": 38.8844345, "fusion_lon": 0.0, "fusion_lat": 0.0, "type": "electric_scooter", "name": "01e768c6ae372c9c6df055435a7cd1eb", "is_disabled": 0, "rental_uris": {"ios": "https://dc.lft.to/lastmile_qr_scan", "android": "https://dc.lft.to/lastmile_qr_scan"}, "is_reserved": 0}, {"lon": -77.00361116666667, "bike_id": "4a9299def1e39eed74b5e10ebcb5c2e6", "lat": 38.89879583333333, "fusion_lon": 0.0, "fusion_lat": 0.0, "type": "electric_scooter", "name": "4a9299def1e39eed74b5e10ebcb5c2e6", "is_disabled": 0, "rental_uris": {"ios": "https://dc.lft.to/lastmile_qr_scan", "android": "https://dc.lft.to/lastmile_qr_scan"}, "is_reserved": 0}, {"lon": -77.02307833333333, "bike_id": "f5169d9bd11945509a7cb6f687f2dcdb", "lat": 38.9177955, "fusion_lon": 0.0, "fusion_lat": 0.0, "type": "electric_scooter", "name": "f5169d9bd11945509a7cb6f687f2dcdb", "is_disabled": 0, "rental_uris": {"ios": "https://dc.lft.to/lastmile_qr_scan", "android": "https://dc.lft.to/lastmile_qr_scan"}, "is_reserved": 0}, {"lon": -77.02236983333333, "bike_id": "b7832e1a16486e229dfee54646bef23f", "lat": 38.962034833333334, "fusion_lon": 0.0, "fusion_lat": 0.0, "type": "electric_scooter", "name": "b7832e1a16486e229dfee54646bef23f", "is_disabled": 0, "rental_uris": {"ios": "https://dc.lft.to/lastmile_qr_scan", "android": "https://dc.lft.to/lastmile_qr_scan"}, "is_reserved": 0}, {"lon": -77.029326, "bike_id": "f22481edb5e3d672b68ec13053814380", "lat": 38.91692783333333, "fusion_lon": 0.0, "fusion_lat": 0.0, "type": "electric_scooter", "name": "f22481edb5e3d672b68ec13053814380", "is_disabled": 0, "rental_uris": {"ios": "https://dc.lft.to/lastmile_qr_scan", "android": "https://dc.lft.to/lastmile_qr_scan"}, "is_reserved": 0}, {"lon": -77.06011433333333, "bike_id": "fa699a2380cafc9a1c04dd3df40b765a", "lat": 38.90113733333333, "fusion_lon": 0.0, "fusion_lat": 0.0, "type": "electric_scooter", "name": "fa699a2380cafc9a1c04dd3df40b765a", "is_disabled": 0, "rental_uris": {"ios": "https://dc.lft.to/lastmile_qr_scan", "android": "https://dc.lft.to/lastmile_qr_scan"}, "is_reserved": 0}, {"lon": -77.019675, "bike_id": "55113ee0063eb1a6ffc32ca4a1b9302e", "lat": 38.87846666666667, "fusion_lon": 0.0, "fusion_lat": 0.0, "type": "electric_scooter", "name": "55113ee0063eb1a6ffc32ca4a1b9302e", "is_disabled": 0, "rental_uris": {"ios": "https://dc.lft.to/lastmile_qr_scan", "android": "https://dc.lft.to/lastmile_qr_scan"}, "is_reserved": 0}, {"lon": -77.048769, "bike_id": "a82e2b69a8d8e14d94f1abe82999a879", "lat": 38.892329, "fusion_lon": 0.0, "fusion_lat": 0.0, "type": "electric_scooter", "name": "a82e2b69a8d8e14d94f1abe82999a879", "is_disabled": 0, "rental_uris": {"ios": "https://dc.lft.to/lastmile_qr_scan", "android": "https://dc.lft.to/lastmile_qr_scan"}, "is_reserved": 0}, {"lon": -77.021834, "bike_id": "559229a78c3e32c90224d84b62a86cf6", "lat": 38.901084166666664, "fusion_lon": 0.0, "fusion_lat": 0.0, "type": "electric_scooter", "name": "559229a78c3e32c90224d84b62a86cf6", "is_disabled": 0, "rental_uris": {"ios": "https://dc.lft.to/lastmile_qr_scan", "android": "https://dc.lft.to/lastmile_qr_scan"}, "is_reserved": 0}, {"lon": -77.0252455, "bike_id": "6b070f974055fc2752647e265beaccd0", "lat": 38.905759833333335, "fusion_lon": 0.0, "fusion_lat": 0.0, "type": "electric_scooter", "name": "6b070f974055fc2752647e265beaccd0", "is_disabled": 0, "rental_uris": {"ios": "https://dc.lft.to/lastmile_qr_scan", "android": "https://dc.lft.to/lastmile_qr_scan"}, "is_reserved": 0}, {"lon": -77.023139, "bike_id": "e17bead63c2629fdaaba90f218a8f38b", "lat": 38.894906166666665, "fusion_lon": 0.0, "fusion_lat": 0.0, "type": "electric_scooter", "name": "e17bead63c2629fdaaba90f218a8f38b", "is_disabled": 0, "rental_uris": {"ios": "https://dc.lft.to/lastmile_qr_scan", "android": "https://dc.lft.to/lastmile_qr_scan"}, "is_reserved": 0}, {"lon": -77.02695033333333, "bike_id": "3d7e758ecfcab0bc6d4fa800d0342484", "lat": 38.92663783333333, "fusion_lon": 0.0, "fusion_lat": 0.0, "type": "electric_scooter", "name": "3d7e758ecfcab0bc6d4fa800d0342484", "is_disabled": 0, "rental_uris": {"ios": "https://dc.lft.to/lastmile_qr_scan", "android": "https://dc.lft.to/lastmile_qr_scan"}, "is_reserved": 0}, {"lon": -76.95747033333333, "bike_id": "4e11d6095b679862fec28945378ea77d", "lat": 38.884286833333334, "fusion_lon": 0.0, "fusion_lat": 0.0, "type": "electric_scooter", "name": "4e11d6095b679862fec28945378ea77d", "is_disabled": 0, "rental_uris": {"ios": "https://dc.lft.to/lastmile_qr_scan", "android": "https://dc.lft.to/lastmile_qr_scan"}, "is_reserved": 0}, {"lon": -77.04196616666667, "bike_id": "f4898dce0437cf7bceec13b5eaac78fc", "lat": 38.89979133333333, "fusion_lon": 0.0, "fusion_lat": 0.0, "type": "electric_scooter", "name": "f4898dce0437cf7bceec13b5eaac78fc", "is_disabled": 0, "rental_uris": {"ios": "https://dc.lft.to/lastmile_qr_scan", "android": "https://dc.lft.to/lastmile_qr_scan"}, "is_reserved": 0}, {"lon": -77.11707683333333, "bike_id": "ce7e3052f2d9729ac67c987f5b50efb1", "lat": 38.86744983333333, "fusion_lon": 0.0, "fusion_lat": 0.0, "type": "electric_bike", "name": "ce7e3052f2d9729ac67c987f5b50efb1", "is_disabled": 0, "rental_uris": {"ios": "https://dc.lft.to/lastmile_qr_scan", "android": "https://dc.lft.to/lastmile_qr_scan"}, "is_reserved": 0}, {"lon": -77.02289083333334, "bike_id": "d24a8f32e0422f969bf440dc4291d15a", "lat": 38.909708, "fusion_lon": 0.0, "fusion_lat": 0.0, "type": "electric_scooter", "name": "d24a8f32e0422f969bf440dc4291d15a", "is_disabled": 0, "rental_uris": {"ios": "https://dc.lft.to/lastmile_qr_scan", "android": "https://dc.lft.to/lastmile_qr_scan"}, "is_reserved": 0}, {"lon": -77.023585, "bike_id": "cd00a6cc25d3e3fad31603fd579a60f5", "lat": 38.922283, "fusion_lon": 0.0, "fusion_lat": 0.0, "type": "electric_scooter", "name": "cd00a6cc25d3e3fad31603fd579a60f5", "is_disabled": 0, "rental_uris": {"ios": "https://dc.lft.to/lastmile_qr_scan", "android": "https://dc.lft.to/lastmile_qr_scan"}, "is_reserved": 0}, {"lon": -76.98384966666667, "bike_id": "a6f1c7d222b78b7bc3652faeaa6cea38", "lat": 38.89884333333333, "fusion_lon": 0.0, "fusion_lat": 0.0, "type": "electric_bike", "name": "a6f1c7d222b78b7bc3652faeaa6cea38", "is_disabled": 0, "rental_uris": {"ios": "https://dc.lft.to/lastmile_qr_scan", "android": "https://dc.lft.to/lastmile_qr_scan"}, "is_reserved": 0}, {"lon": -77.00050016666667, "bike_id": "783d87b69a59f9419f0e5624d93a0360", "lat": 38.92390016666667, "fusion_lon": 0.0, "fusion_lat": 0.0, "type": "electric_scooter", "name": "783d87b69a59f9419f0e5624d93a0360", "is_disabled": 0, "rental_uris": {"ios": "https://dc.lft.to/lastmile_qr_scan", "android": "https://dc.lft.to/lastmile_qr_scan"}, "is_reserved": 0}, {"lon": -77.02248666666667, "bike_id": "2dbdbb60b6674028a995a799570ae2d5", "lat": 38.927399, "fusion_lon": 0.0, "fusion_lat": 0.0, "type": "electric_scooter", "name": "2dbdbb60b6674028a995a799570ae2d5", "is_disabled": 0, "rental_uris": {"ios": "https://dc.lft.to/lastmile_qr_scan", "android": "https://dc.lft.to/lastmile_qr_scan"}, "is_reserved": 0}, {"lon": -76.94069466666667, "bike_id": "51a4aa9beb27270b611e6bc51c96090b", "lat": 38.893182, "fusion_lon": 0.0, "fusion_lat": 0.0, "type": "electric_scooter", "name": "51a4aa9beb27270b611e6bc51c96090b", "is_disabled": 0, "rental_uris": {"ios": "https://dc.lft.to/lastmile_qr_scan", "android": "https://dc.lft.to/lastmile_qr_scan"}, "is_reserved": 0}, {"lon": -77.03022383333334, "bike_id": "ddca98d9944b0be6494c515e9960e2aa", "lat": 38.8844695, "fusion_lon": 0.0, "fusion_lat": 0.0, "type": "electric_scooter", "name": "ddca98d9944b0be6494c515e9960e2aa", "is_disabled": 0, "rental_uris": {"ios": "https://dc.lft.to/lastmile_qr_scan", "android": "https://dc.lft.to/lastmile_qr_scan"}, "is_reserved": 0}, {"lon": -77.0320745, "bike_id": "dd57f3e18f114b2721ec59ecb6d3679c", "lat": 38.906854, "fusion_lon": 0.0, "fusion_lat": 0.0, "type": "electric_scooter", "name": "dd57f3e18f114b2721ec59ecb6d3679c", "is_disabled": 0, "rental_uris": {"ios": "https://dc.lft.to/lastmile_qr_scan", "android": "https://dc.lft.to/lastmile_qr_scan"}, "is_reserved": 0}, {"lon": -76.99809533333334, "bike_id": "4158c02d9a6fc8ccad78b0f8840264c4", "lat": 38.82918766666667, "fusion_lon": 0.0, "fusion_lat": 0.0, "type": "electric_bike", "name": "4158c02d9a6fc8ccad78b0f8840264c4", "is_disabled": 0, "rental_uris": {"ios": "https://dc.lft.to/lastmile_qr_scan", "android": "https://dc.lft.to/lastmile_qr_scan"}, "is_reserved": 0}, {"lon": -77.040479, "bike_id": "211aa99ba03d14007fd5b0a5f46cf285", "lat": 38.92876166666667, "fusion_lon": 0.0, "fusion_lat": 0.0, "type": "electric_scooter", "name": "211aa99ba03d14007fd5b0a5f46cf285", "is_disabled": 0, "rental_uris": {"ios": "https://dc.lft.to/lastmile_qr_scan", "android": "https://dc.lft.to/lastmile_qr_scan"}, "is_reserved": 0}, {"lon": -77.03961466666667, "bike_id": "04318898b4e5c2e61680b201820f532f", "lat": 38.916297166666666, "fusion_lon": 0.0, "fusion_lat": 0.0, "type": "electric_scooter", "name": "04318898b4e5c2e61680b201820f532f", "is_disabled": 0, "rental_uris": {"ios": "https://dc.lft.to/lastmile_qr_scan", "android": "https://dc.lft.to/lastmile_qr_scan"}, "is_reserved": 0}, {"lon": -77.02624166666666, "bike_id": "4c5347e3e9bbb390ad29829b1fa358bf", "lat": 38.93356966666666, "fusion_lon": 0.0, "fusion_lat": 0.0, "type": "electric_scooter", "name": "4c5347e3e9bbb390ad29829b1fa358bf", "is_disabled": 0, "rental_uris": {"ios": "https://dc.lft.to/lastmile_qr_scan", "android": "https://dc.lft.to/lastmile_qr_scan"}, "is_reserved": 0}, {"lon": -77.03777916666667, "bike_id": "e7f9e420e70812c1cb9e79802c052d50", "lat": 38.929664333333335, "fusion_lon": 0.0, "fusion_lat": 0.0, "type": "electric_scooter", "name": "e7f9e420e70812c1cb9e79802c052d50", "is_disabled": 0, "rental_uris": {"ios": "https://dc.lft.to/lastmile_qr_scan", "android": "https://dc.lft.to/lastmile_qr_scan"}, "is_reserved": 0}, {"lon": -76.98404433333333, "bike_id": "c6141551affd60d8097e3fa1487ca3dd", "lat": 38.906274333333336, "fusion_lon": 0.0, "fusion_lat": 0.0, "type": "electric_scooter", "name": "c6141551affd60d8097e3fa1487ca3dd", "is_disabled": 0, "rental_uris": {"ios": "https://dc.lft.to/lastmile_qr_scan", "android": "https://dc.lft.to/lastmile_qr_scan"}, "is_reserved": 0}, {"lon": -77.045103, "bike_id": "c3c398b1bf5c281416908c88d3321dbb", "lat": 38.886010666666664, "fusion_lon": 0.0, "fusion_lat": 0.0, "type": "electric_scooter", "name": "c3c398b1bf5c281416908c88d3321dbb", "is_disabled": 0, "rental_uris": {"ios": "https://dc.lft.to/lastmile_qr_scan", "android": "https://dc.lft.to/lastmile_qr_scan"}, "is_reserved": 0}, {"lon": -76.98939833333333, "bike_id": "6fd5cde2ab338c0069be9a91ea3eda3a", "lat": 38.918365333333334, "fusion_lon": 0.0, "fusion_lat": 0.0, "type": "electric_scooter", "name": "6fd5cde2ab338c0069be9a91ea3eda3a", "is_disabled": 0, "rental_uris": {"ios": "https://dc.lft.to/lastmile_qr_scan", "android": "https://dc.lft.to/lastmile_qr_scan"}, "is_reserved": 0}, {"lon": -76.9877445, "bike_id": "27003fdb7bcacc70090e4faf8450b6f9", "lat": 38.866015166666664, "fusion_lon": 0.0, "fusion_lat": 0.0, "type": "electric_bike", "name": "27003fdb7bcacc70090e4faf8450b6f9", "is_disabled": 0, "rental_uris": {"ios": "https://dc.lft.to/lastmile_qr_scan", "android": "https://dc.lft.to/lastmile_qr_scan"}, "is_reserved": 0}, {"lon": -77.04241233333333, "bike_id": "2ac44b9a34fda3d0ebf2b62cea029a78", "lat": 38.90960033333333, "fusion_lon": 0.0, "fusion_lat": 0.0, "type": "electric_scooter", "name": "2ac44b9a34fda3d0ebf2b62cea029a78", "is_disabled": 0, "rental_uris": {"ios": "https://dc.lft.to/lastmile_qr_scan", "android": "https://dc.lft.to/lastmile_qr_scan"}, "is_reserved": 0}, {"lon": -76.99613016666666, "bike_id": "641abd1f15ece8be4ee3c3ec7f02449c", "lat": 38.90107016666666, "fusion_lon": 0.0, "fusion_lat": 0.0, "type": "electric_scooter", "name": "641abd1f15ece8be4ee3c3ec7f02449c", "is_disabled": 0, "rental_uris": {"ios": "https://dc.lft.to/lastmile_qr_scan", "android": "https://dc.lft.to/lastmile_qr_scan"}, "is_reserved": 0}, {"lon": -77.02571133333333, "bike_id": "a37907e03858403447897a6bb5c79a46", "lat": 38.91336916666667, "fusion_lon": 0.0, "fusion_lat": 0.0, "type": "electric_scooter", "name": "a37907e03858403447897a6bb5c79a46", "is_disabled": 0, "rental_uris": {"ios": "https://dc.lft.to/lastmile_qr_scan", "android": "https://dc.lft.to/lastmile_qr_scan"}, "is_reserved": 0}, {"lon": -77.04304733333333, "bike_id": "65d40198fe018ced254ed934394b544e", "lat": 38.9224745, "fusion_lon": 0.0, "fusion_lat": 0.0, "type": "electric_scooter", "name": "65d40198fe018ced254ed934394b544e", "is_disabled": 0, "rental_uris": {"ios": "https://dc.lft.to/lastmile_qr_scan", "android": "https://dc.lft.to/lastmile_qr_scan"}, "is_reserved": 0}, {"lon": -77.02538216666666, "bike_id": "db8cee33d4ed9d7c8b8c5bea92782cf5", "lat": 38.94096066666667, "fusion_lon": 0.0, "fusion_lat": 0.0, "type": "electric_scooter", "name": "db8cee33d4ed9d7c8b8c5bea92782cf5", "is_disabled": 0, "rental_uris": {"ios": "https://dc.lft.to/lastmile_qr_scan", "android": "https://dc.lft.to/lastmile_qr_scan"}, "is_reserved": 0}, {"lon": -76.9988455, "bike_id": "8b5ed714cbe17c0d73c3f0b6289690e4", "lat": 38.92056983333333, "fusion_lon": 0.0, "fusion_lat": 0.0, "type": "electric_scooter", "name": "8b5ed714cbe17c0d73c3f0b6289690e4", "is_disabled": 0, "rental_uris": {"ios": "https://dc.lft.to/lastmile_qr_scan", "android": "https://dc.lft.to/lastmile_qr_scan"}, "is_reserved": 0}, {"lon": -76.97292166666666, "bike_id": "1ff7eb8bd16c6cf06acf90bab3b6c2f2", "lat": 38.91645066666667, "fusion_lon": 0.0, "fusion_lat": 0.0, "type": "electric_scooter", "name": "1ff7eb8bd16c6cf06acf90bab3b6c2f2", "is_disabled": 0, "rental_uris": {"ios": "https://dc.lft.to/lastmile_qr_scan", "android": "https://dc.lft.to/lastmile_qr_scan"}, "is_reserved": 0}, {"lon": -76.99350616666666, "bike_id": "fc732a979b9d231e61ff7adae3bca10d", "lat": 38.84505583333333, "fusion_lon": 0.0, "fusion_lat": 0.0, "type": "electric_bike", "name": "fc732a979b9d231e61ff7adae3bca10d", "is_disabled": 0, "rental_uris": {"ios": "https://dc.lft.to/lastmile_qr_scan", "android": "https://dc.lft.to/lastmile_qr_scan"}, "is_reserved": 0}, {"lon": -77.01810166666667, "bike_id": "24ef7613c2619365fa00a409ca397a21", "lat": 38.9202365, "fusion_lon": 0.0, "fusion_lat": 0.0, "type": "electric_scooter", "name": "24ef7613c2619365fa00a409ca397a21", "is_disabled": 0, "rental_uris": {"ios": "https://dc.lft.to/lastmile_qr_scan", "android": "https://dc.lft.to/lastmile_qr_scan"}, "is_reserved": 0}, {"lon": -77.0264715, "bike_id": "3cea1abc531f987412fee492dd835021", "lat": 38.93865133333333, "fusion_lon": 0.0, "fusion_lat": 0.0, "type": "electric_scooter", "name": "3cea1abc531f987412fee492dd835021", "is_disabled": 0, "rental_uris": {"ios": "https://dc.lft.to/lastmile_qr_scan", "android": "https://dc.lft.to/lastmile_qr_scan"}, "is_reserved": 0}, {"lon": -77.01055666666667, "bike_id": "fd6f0ec3406a67b8fae3b4f46096d1e0", "lat": 38.878678666666666, "fusion_lon": 0.0, "fusion_lat": 0.0, "type": "electric_scooter", "name": "fd6f0ec3406a67b8fae3b4f46096d1e0", "is_disabled": 0, "rental_uris": {"ios": "https://dc.lft.to/lastmile_qr_scan", "android": "https://dc.lft.to/lastmile_qr_scan"}, "is_reserved": 0}, {"lon": -77.0310545, "bike_id": "ec1dbf285059030304a418144465055c", "lat": 38.9155825, "fusion_lon": 0.0, "fusion_lat": 0.0, "type": "electric_scooter", "name": "ec1dbf285059030304a418144465055c", "is_disabled": 0, "rental_uris": {"ios": "https://dc.lft.to/lastmile_qr_scan", "android": "https://dc.lft.to/lastmile_qr_scan"}, "is_reserved": 0}, {"lon": -76.99959666666666, "bike_id": "3b09bbbfb0da6de0ffe04774397ac300", "lat": 38.908548833333334, "fusion_lon": 0.0, "fusion_lat": 0.0, "type": "electric_scooter", "name": "3b09bbbfb0da6de0ffe04774397ac300", "is_disabled": 0, "rental_uris": {"ios": "https://dc.lft.to/lastmile_qr_scan", "android": "https://dc.lft.to/lastmile_qr_scan"}, "is_reserved": 0}, {"lon": -77.04353916666666, "bike_id": "a75ad2e322f747eddc3d112a35a3f15a", "lat": 38.911201, "fusion_lon": 0.0, "fusion_lat": 0.0, "type": "electric_scooter", "name": "a75ad2e322f747eddc3d112a35a3f15a", "is_disabled": 0, "rental_uris": {"ios": "https://dc.lft.to/lastmile_qr_scan", "android": "https://dc.lft.to/lastmile_qr_scan"}, "is_reserved": 0}, {"lon": -77.0114575, "bike_id": "34f7c69f7fd279ae4bbedf1f0d5b3c39", "lat": 38.90643716666666, "fusion_lon": 0.0, "fusion_lat": 0.0, "type": "electric_scooter", "name": "34f7c69f7fd279ae4bbedf1f0d5b3c39", "is_disabled": 0, "rental_uris": {"ios": "https://dc.lft.to/lastmile_qr_scan", "android": "https://dc.lft.to/lastmile_qr_scan"}, "is_reserved": 0}, {"lon": -76.97300616666666, "bike_id": "103085b2533fb015a3afbf59b7c43cd6", "lat": 38.916497, "fusion_lon": 0.0, "fusion_lat": 0.0, "type": "electric_bike", "name": "103085b2533fb015a3afbf59b7c43cd6", "is_disabled": 0, "rental_uris": {"ios": "https://dc.lft.to/lastmile_qr_scan", "android": "https://dc.lft.to/lastmile_qr_scan"}, "is_reserved": 0}, {"lon": -77.0265125, "bike_id": "d5f470266576ac38903de6c962bd825f", "lat": 38.89746566666667, "fusion_lon": 0.0, "fusion_lat": 0.0, "type": "electric_scooter", "name": "d5f470266576ac38903de6c962bd825f", "is_disabled": 0, "rental_uris": {"ios": "https://dc.lft.to/lastmile_qr_scan", "android": "https://dc.lft.to/lastmile_qr_scan"}, "is_reserved": 0}, {"lon": -77.02963883333334, "bike_id": "5eec38cca8f9b8d8f356ee631f29b4f2", "lat": 38.904893666666666, "fusion_lon": 0.0, "fusion_lat": 0.0, "type": "electric_scooter", "name": "5eec38cca8f9b8d8f356ee631f29b4f2", "is_disabled": 0, "rental_uris": {"ios": "https://dc.lft.to/lastmile_qr_scan", "android": "https://dc.lft.to/lastmile_qr_scan"}, "is_reserved": 0}, {"lon": -76.9654275, "bike_id": "cdd8fe6be98e6607ab5bb123b94e842d", "lat": 38.9183965, "fusion_lon": 0.0, "fusion_lat": 0.0, "type": "electric_scooter", "name": "cdd8fe6be98e6607ab5bb123b94e842d", "is_disabled": 0, "rental_uris": {"ios": "https://dc.lft.to/lastmile_qr_scan", "android": "https://dc.lft.to/lastmile_qr_scan"}, "is_reserved": 0}, {"lon": -76.99448583333333, "bike_id": "e89562722dfeee98273fdc5debba4b61", "lat": 38.862790833333335, "fusion_lon": 0.0, "fusion_lat": 0.0, "type": "electric_scooter", "name": "e89562722dfeee98273fdc5debba4b61", "is_disabled": 0, "rental_uris": {"ios": "https://dc.lft.to/lastmile_qr_scan", "android": "https://dc.lft.to/lastmile_qr_scan"}, "is_reserved": 0}, {"lon": -77.23331883333333, "bike_id": "3651379b1242124ec3219ef0bf02ddd4", "lat": 38.872728333333335, "fusion_lon": 0.0, "fusion_lat": 0.0, "type": "electric_bike", "name": "3651379b1242124ec3219ef0bf02ddd4", "is_disabled": 0, "rental_uris": {"ios": "https://dc.lft.to/lastmile_qr_scan", "android": "https://dc.lft.to/lastmile_qr_scan"}, "is_reserved": 0}, {"lon": -76.94996266666666, "bike_id": "ce117be103c284ee2699a604a64c820e", "lat": 38.89377966666667, "fusion_lon": 0.0, "fusion_lat": 0.0, "type": "electric_scooter", "name": "ce117be103c284ee2699a604a64c820e", "is_disabled": 0, "rental_uris": {"ios": "https://dc.lft.to/lastmile_qr_scan", "android": "https://dc.lft.to/lastmile_qr_scan"}, "is_reserved": 0}, {"lon": -77.02695216666666, "bike_id": "95f47cf36fd2dc4eb4f46fd7ec36fff0", "lat": 38.9084345, "fusion_lon": 0.0, "fusion_lat": 0.0, "type": "electric_scooter", "name": "95f47cf36fd2dc4eb4f46fd7ec36fff0", "is_disabled": 0, "rental_uris": {"ios": "https://dc.lft.to/lastmile_qr_scan", "android": "https://dc.lft.to/lastmile_qr_scan"}, "is_reserved": 0}, {"lon": -76.98883533333333, "bike_id": "40e10d47e0a270b03a68caf647b874af", "lat": 38.86648666666667, "fusion_lon": 0.0, "fusion_lat": 0.0, "type": "electric_scooter", "name": "40e10d47e0a270b03a68caf647b874af", "is_disabled": 0, "rental_uris": {"ios": "https://dc.lft.to/lastmile_qr_scan", "android": "https://dc.lft.to/lastmile_qr_scan"}, "is_reserved": 0}, {"lon": -77.00102633333333, "bike_id": "9b0473e4c817ff3edd118b7e8d3342f1", "lat": 38.91240766666667, "fusion_lon": 0.0, "fusion_lat": 0.0, "type": "electric_scooter", "name": "9b0473e4c817ff3edd118b7e8d3342f1", "is_disabled": 0, "rental_uris": {"ios": "https://dc.lft.to/lastmile_qr_scan", "android": "https://dc.lft.to/lastmile_qr_scan"}, "is_reserved": 0}, {"lon": -77.067722, "bike_id": "8d998691472b22b363a041c01d3fa7f3", "lat": 38.905053, "fusion_lon": 0.0, "fusion_lat": 0.0, "type": "electric_scooter", "name": "8d998691472b22b363a041c01d3fa7f3", "is_disabled": 0, "rental_uris": {"ios": "https://dc.lft.to/lastmile_qr_scan", "android": "https://dc.lft.to/lastmile_qr_scan"}, "is_reserved": 0}, {"lon": -77.03972866666666, "bike_id": "e5ccad63cbe1ed0d75e512c3e24e9f81", "lat": 38.92801866666667, "fusion_lon": 0.0, "fusion_lat": 0.0, "type": "electric_scooter", "name": "e5ccad63cbe1ed0d75e512c3e24e9f81", "is_disabled": 0, "rental_uris": {"ios": "https://dc.lft.to/lastmile_qr_scan", "android": "https://dc.lft.to/lastmile_qr_scan"}, "is_reserved": 0}, {"lon": -77.02794583333333, "bike_id": "f8777fa09023ae8da3734839ec8df6e2", "lat": 38.9296305, "fusion_lon": 0.0, "fusion_lat": 0.0, "type": "electric_scooter", "name": "f8777fa09023ae8da3734839ec8df6e2", "is_disabled": 0, "rental_uris": {"ios": "https://dc.lft.to/lastmile_qr_scan", "android": "https://dc.lft.to/lastmile_qr_scan"}, "is_reserved": 0}, {"lon": -76.98520383333333, "bike_id": "7a23b52a8653e9bccb16c7ae8aad4607", "lat": 38.866789833333335, "fusion_lon": 0.0, "fusion_lat": 0.0, "type": "electric_scooter", "name": "7a23b52a8653e9bccb16c7ae8aad4607", "is_disabled": 0, "rental_uris": {"ios": "https://dc.lft.to/lastmile_qr_scan", "android": "https://dc.lft.to/lastmile_qr_scan"}, "is_reserved": 0}, {"lon": -77.00291283333334, "bike_id": "4f7040422d9f6d4a0297e3d080618dee", "lat": 38.90133083333333, "fusion_lon": 0.0, "fusion_lat": 0.0, "type": "electric_scooter", "name": "4f7040422d9f6d4a0297e3d080618dee", "is_disabled": 0, "rental_uris": {"ios": "https://dc.lft.to/lastmile_qr_scan", "android": "https://dc.lft.to/lastmile_qr_scan"}, "is_reserved": 0}, {"lon": -77.05857633333333, "bike_id": "2dc34dad5367514dc551764b35783983", "lat": 38.936056, "fusion_lon": 0.0, "fusion_lat": 0.0, "type": "electric_scooter", "name": "2dc34dad5367514dc551764b35783983", "is_disabled": 0, "rental_uris": {"ios": "https://dc.lft.to/lastmile_qr_scan", "android": "https://dc.lft.to/lastmile_qr_scan"}, "is_reserved": 0}, {"lon": -77.01696083333333, "bike_id": "0a7489f371f039f9783a793fa4bdb7c5", "lat": 38.879229333333335, "fusion_lon": 0.0, "fusion_lat": 0.0, "type": "electric_scooter", "name": "0a7489f371f039f9783a793fa4bdb7c5", "is_disabled": 0, "rental_uris": {"ios": "https://dc.lft.to/lastmile_qr_scan", "android": "https://dc.lft.to/lastmile_qr_scan"}, "is_reserved": 0}, {"lon": -77.03909083333333, "bike_id": "02b76bb556ca242e34a0bcce493edf58", "lat": 38.918368, "fusion_lon": 0.0, "fusion_lat": 0.0, "type": "electric_scooter", "name": "02b76bb556ca242e34a0bcce493edf58", "is_disabled": 0, "rental_uris": {"ios": "https://dc.lft.to/lastmile_qr_scan", "android": "https://dc.lft.to/lastmile_qr_scan"}, "is_reserved": 0}, {"lon": -76.98081266666667, "bike_id": "1ad918a5822e078aed83337764076661", "lat": 38.8842325, "fusion_lon": 0.0, "fusion_lat": 0.0, "type": "electric_scooter", "name": "1ad918a5822e078aed83337764076661", "is_disabled": 0, "rental_uris": {"ios": "https://dc.lft.to/lastmile_qr_scan", "android": "https://dc.lft.to/lastmile_qr_scan"}, "is_reserved": 0}, {"lon": -76.98555733333333, "bike_id": "91ce59011ec096fc21158acae2e4fa4f", "lat": 38.90915583333334, "fusion_lon": 0.0, "fusion_lat": 0.0, "type": "electric_scooter", "name": "91ce59011ec096fc21158acae2e4fa4f", "is_disabled": 0, "rental_uris": {"ios": "https://dc.lft.to/lastmile_qr_scan", "android": "https://dc.lft.to/lastmile_qr_scan"}, "is_reserved": 0}, {"lon": -77.03636283333333, "bike_id": "ee1feecf6f99ffeab0384803757d1fb1", "lat": 38.91215166666667, "fusion_lon": 0.0, "fusion_lat": 0.0, "type": "electric_scooter", "name": "ee1feecf6f99ffeab0384803757d1fb1", "is_disabled": 0, "rental_uris": {"ios": "https://dc.lft.to/lastmile_qr_scan", "android": "https://dc.lft.to/lastmile_qr_scan"}, "is_reserved": 0}, {"lon": -77.03192016666667, "bike_id": "32741a82aba369cfffffffd9b2204818", "lat": 38.92879033333333, "fusion_lon": 0.0, "fusion_lat": 0.0, "type": "electric_scooter", "name": "32741a82aba369cfffffffd9b2204818", "is_disabled": 0, "rental_uris": {"ios": "https://dc.lft.to/lastmile_qr_scan", "android": "https://dc.lft.to/lastmile_qr_scan"}, "is_reserved": 0}, {"lon": -76.97331983333333, "bike_id": "b5027d6324e58d5adbcf685ee031b269", "lat": 38.8651845, "fusion_lon": 0.0, "fusion_lat": 0.0, "type": "electric_bike", "name": "b5027d6324e58d5adbcf685ee031b269", "is_disabled": 0, "rental_uris": {"ios": "https://dc.lft.to/lastmile_qr_scan", "android": "https://dc.lft.to/lastmile_qr_scan"}, "is_reserved": 0}, {"lon": -77.03172, "bike_id": "510d4cd706a104c4e5cc0743e08d9ea3", "lat": 38.93604, "fusion_lon": 0.0, "fusion_lat": 0.0, "type": "electric_scooter", "name": "510d4cd706a104c4e5cc0743e08d9ea3", "is_disabled": 0, "rental_uris": {"ios": "https://dc.lft.to/lastmile_qr_scan", "android": "https://dc.lft.to/lastmile_qr_scan"}, "is_reserved": 0}, {"lon": -76.98350216666667, "bike_id": "d0f3f44b271af6fc2e309d3b34e2e99f", "lat": 38.89212066666666, "fusion_lon": 0.0, "fusion_lat": 0.0, "type": "electric_bike", "name": "d0f3f44b271af6fc2e309d3b34e2e99f", "is_disabled": 0, "rental_uris": {"ios": "https://dc.lft.to/lastmile_qr_scan", "android": "https://dc.lft.to/lastmile_qr_scan"}, "is_reserved": 0}, {"lon": -77.03176333333333, "bike_id": "5cc988552f69b161362b3fd536c70013", "lat": 38.9203365, "fusion_lon": 0.0, "fusion_lat": 0.0, "type": "electric_scooter", "name": "5cc988552f69b161362b3fd536c70013", "is_disabled": 0, "rental_uris": {"ios": "https://dc.lft.to/lastmile_qr_scan", "android": "https://dc.lft.to/lastmile_qr_scan"}, "is_reserved": 0}, {"lon": -77.04558283333333, "bike_id": "5f839248af77396e5032c0b487f70d10", "lat": 38.91591966666667, "fusion_lon": 0.0, "fusion_lat": 0.0, "type": "electric_scooter", "name": "5f839248af77396e5032c0b487f70d10", "is_disabled": 0, "rental_uris": {"ios": "https://dc.lft.to/lastmile_qr_scan", "android": "https://dc.lft.to/lastmile_qr_scan"}, "is_reserved": 0}, {"lon": -77.02269166666666, "bike_id": "e94d28fa521abd669f1c4ddc9a44bada", "lat": 38.902847333333334, "fusion_lon": 0.0, "fusion_lat": 0.0, "type": "electric_scooter", "name": "e94d28fa521abd669f1c4ddc9a44bada", "is_disabled": 0, "rental_uris": {"ios": "https://dc.lft.to/lastmile_qr_scan", "android": "https://dc.lft.to/lastmile_qr_scan"}, "is_reserved": 0}, {"lon": -77.0178545, "bike_id": "eff7395d40497b9d6cdeb3273814dbf6", "lat": 38.92097783333333, "fusion_lon": 0.0, "fusion_lat": 0.0, "type": "electric_scooter", "name": "eff7395d40497b9d6cdeb3273814dbf6", "is_disabled": 0, "rental_uris": {"ios": "https://dc.lft.to/lastmile_qr_scan", "android": "https://dc.lft.to/lastmile_qr_scan"}, "is_reserved": 0}, {"lon": -77.00051833333333, "bike_id": "562d73df92df257882846c36646f124e", "lat": 38.876556, "fusion_lon": 0.0, "fusion_lat": 0.0, "type": "electric_bike", "name": "562d73df92df257882846c36646f124e", "is_disabled": 0, "rental_uris": {"ios": "https://dc.lft.to/lastmile_qr_scan", "android": "https://dc.lft.to/lastmile_qr_scan"}, "is_reserved": 0}, {"lon": -77.18560783333334, "bike_id": "25d36448505db9bfc8d4d85feff353e7", "lat": 39.09975766666667, "fusion_lon": 0.0, "fusion_lat": 0.0, "type": "electric_bike", "name": "25d36448505db9bfc8d4d85feff353e7", "is_disabled": 0, "rental_uris": {"ios": "https://dc.lft.to/lastmile_qr_scan", "android": "https://dc.lft.to/lastmile_qr_scan"}, "is_reserved": 0}, {"lon": -76.9773675, "bike_id": "57b51a2d3382a96d59c2c10400191248", "lat": 38.864943833333335, "fusion_lon": 0.0, "fusion_lat": 0.0, "type": "electric_bike", "name": "57b51a2d3382a96d59c2c10400191248", "is_disabled": 0, "rental_uris": {"ios": "https://dc.lft.to/lastmile_qr_scan", "android": "https://dc.lft.to/lastmile_qr_scan"}, "is_reserved": 0}, {"lon": -77.00711433333333, "bike_id": "3650501e08a3048a10caa6c2691a2041", "lat": 38.9459525, "fusion_lon": 0.0, "fusion_lat": 0.0, "type": "electric_bike", "name": "3650501e08a3048a10caa6c2691a2041", "is_disabled": 0, "rental_uris": {"ios": "https://dc.lft.to/lastmile_qr_scan", "android": "https://dc.lft.to/lastmile_qr_scan"}, "is_reserved": 0}, {"lon": -76.96255966666666, "bike_id": "b4c47452c9dc4541815dcc5ef9d97de2", "lat": 38.88246266666667, "fusion_lon": 0.0, "fusion_lat": 0.0, "type": "electric_bike", "name": "b4c47452c9dc4541815dcc5ef9d97de2", "is_disabled": 0, "rental_uris": {"ios": "https://dc.lft.to/lastmile_qr_scan", "android": "https://dc.lft.to/lastmile_qr_scan"}, "is_reserved": 0}, {"lon": -77.00655833333333, "bike_id": "93399b3e7195e9233cda6bf30c57c48f", "lat": 38.944619833333334, "fusion_lon": 0.0, "fusion_lat": 0.0, "type": "electric_scooter", "name": "93399b3e7195e9233cda6bf30c57c48f", "is_disabled": 0, "rental_uris": {"ios": "https://dc.lft.to/lastmile_qr_scan", "android": "https://dc.lft.to/lastmile_qr_scan"}, "is_reserved": 0}, {"lon": -77.05271783333333, "bike_id": "f3ee394c4ee37711009744183339d926", "lat": 38.899651666666664, "fusion_lon": 0.0, "fusion_lat": 0.0, "type": "electric_scooter", "name": "f3ee394c4ee37711009744183339d926", "is_disabled": 0, "rental_uris": {"ios": "https://dc.lft.to/lastmile_qr_scan", "android": "https://dc.lft.to/lastmile_qr_scan"}, "is_reserved": 0}, {"lon": -76.98540833333334, "bike_id": "538e565a4a3c3fd53c304e8213bb0a0d", "lat": 38.89657666666667, "fusion_lon": 0.0, "fusion_lat": 0.0, "type": "electric_scooter", "name": "538e565a4a3c3fd53c304e8213bb0a0d", "is_disabled": 0, "rental_uris": {"ios": "https://dc.lft.to/lastmile_qr_scan", "android": "https://dc.lft.to/lastmile_qr_scan"}, "is_reserved": 0}, {"lon": -77.0263005, "bike_id": "4044fee10eebca1346c2076ab27b9109", "lat": 38.917026666666665, "fusion_lon": 0.0, "fusion_lat": 0.0, "type": "electric_scooter", "name": "4044fee10eebca1346c2076ab27b9109", "is_disabled": 0, "rental_uris": {"ios": "https://dc.lft.to/lastmile_qr_scan", "android": "https://dc.lft.to/lastmile_qr_scan"}, "is_reserved": 0}, {"lon": -77.03311816666667, "bike_id": "1d690bc189b42bdce93cd4f152fbc9fd", "lat": 38.925460666666666, "fusion_lon": 0.0, "fusion_lat": 0.0, "type": "electric_scooter", "name": "1d690bc189b42bdce93cd4f152fbc9fd", "is_disabled": 0, "rental_uris": {"ios": "https://dc.lft.to/lastmile_qr_scan", "android": "https://dc.lft.to/lastmile_qr_scan"}, "is_reserved": 0}, {"lon": -77.04159383333334, "bike_id": "938108a7c09f3bed8776941bcbe1e415", "lat": 38.912530833333335, "fusion_lon": 0.0, "fusion_lat": 0.0, "type": "electric_scooter", "name": "938108a7c09f3bed8776941bcbe1e415", "is_disabled": 0, "rental_uris": {"ios": "https://dc.lft.to/lastmile_qr_scan", "android": "https://dc.lft.to/lastmile_qr_scan"}, "is_reserved": 0}, {"lon": -77.04765183333333, "bike_id": "c3bfa7a8ff2beab2bd0615e8ad4904f6", "lat": 38.921349166666666, "fusion_lon": 0.0, "fusion_lat": 0.0, "type": "electric_scooter", "name": "c3bfa7a8ff2beab2bd0615e8ad4904f6", "is_disabled": 0, "rental_uris": {"ios": "https://dc.lft.to/lastmile_qr_scan", "android": "https://dc.lft.to/lastmile_qr_scan"}, "is_reserved": 0}, {"lon": -77.0321515, "bike_id": "334f80fb0a421da215482a7b6571660c", "lat": 38.9141185, "fusion_lon": 0.0, "fusion_lat": 0.0, "type": "electric_scooter", "name": "334f80fb0a421da215482a7b6571660c", "is_disabled": 0, "rental_uris": {"ios": "https://dc.lft.to/lastmile_qr_scan", "android": "https://dc.lft.to/lastmile_qr_scan"}, "is_reserved": 0}, {"lon": -77.019366, "bike_id": "c4e1c79f87175b103dd2e352c6dfd5f8", "lat": 38.936877, "fusion_lon": 0.0, "fusion_lat": 0.0, "type": "electric_scooter", "name": "c4e1c79f87175b103dd2e352c6dfd5f8", "is_disabled": 0, "rental_uris": {"ios": "https://dc.lft.to/lastmile_qr_scan", "android": "https://dc.lft.to/lastmile_qr_scan"}, "is_reserved": 0}, {"lon": -76.99532983333333, "bike_id": "11c4259ea30190af674dd6cbc267223a", "lat": 38.88372966666667, "fusion_lon": 0.0, "fusion_lat": 0.0, "type": "electric_scooter", "name": "11c4259ea30190af674dd6cbc267223a", "is_disabled": 0, "rental_uris": {"ios": "https://dc.lft.to/lastmile_qr_scan", "android": "https://dc.lft.to/lastmile_qr_scan"}, "is_reserved": 0}, {"lon": -77.05051116666667, "bike_id": "b2ab4d1c90acdce191ad8e021cd80810", "lat": 38.9236275, "fusion_lon": 0.0, "fusion_lat": 0.0, "type": "electric_scooter", "name": "b2ab4d1c90acdce191ad8e021cd80810", "is_disabled": 0, "rental_uris": {"ios": "https://dc.lft.to/lastmile_qr_scan", "android": "https://dc.lft.to/lastmile_qr_scan"}, "is_reserved": 0}, {"lon": -77.04431866666667, "bike_id": "1139f1fec9c1bc08733cc9b4c8fae668", "lat": 38.905758, "fusion_lon": 0.0, "fusion_lat": 0.0, "type": "electric_bike", "name": "1139f1fec9c1bc08733cc9b4c8fae668", "is_disabled": 0, "rental_uris": {"ios": "https://dc.lft.to/lastmile_qr_scan", "android": "https://dc.lft.to/lastmile_qr_scan"}, "is_reserved": 0}, {"lon": -76.93124483333334, "bike_id": "6b94d6432f0dd76f5d0cdc4d5fdee6cf", "lat": 38.901360833333335, "fusion_lon": 0.0, "fusion_lat": 0.0, "type": "electric_scooter", "name": "6b94d6432f0dd76f5d0cdc4d5fdee6cf", "is_disabled": 0, "rental_uris": {"ios": "https://dc.lft.to/lastmile_qr_scan", "android": "https://dc.lft.to/lastmile_qr_scan"}, "is_reserved": 0}, {"lon": -77.03854916666667, "bike_id": "93f284a221b8b8da7215cabe4cbee9fc", "lat": 38.91778333333333, "fusion_lon": 0.0, "fusion_lat": 0.0, "type": "electric_scooter", "name": "93f284a221b8b8da7215cabe4cbee9fc", "is_disabled": 0, "rental_uris": {"ios": "https://dc.lft.to/lastmile_qr_scan", "android": "https://dc.lft.to/lastmile_qr_scan"}, "is_reserved": 0}, {"lon": -76.9948895, "bike_id": "22534e99be541a8642bd99c973679356", "lat": 38.86247016666667, "fusion_lon": 0.0, "fusion_lat": 0.0, "type": "electric_scooter", "name": "22534e99be541a8642bd99c973679356", "is_disabled": 0, "rental_uris": {"ios": "https://dc.lft.to/lastmile_qr_scan", "android": "https://dc.lft.to/lastmile_qr_scan"}, "is_reserved": 0}, {"lon": -77.02514283333333, "bike_id": "5e05523d1918a06a8c63a4a7fdbae190", "lat": 38.916877166666666, "fusion_lon": 0.0, "fusion_lat": 0.0, "type": "electric_scooter", "name": "5e05523d1918a06a8c63a4a7fdbae190", "is_disabled": 0, "rental_uris": {"ios": "https://dc.lft.to/lastmile_qr_scan", "android": "https://dc.lft.to/lastmile_qr_scan"}, "is_reserved": 0}, {"lon": -76.98706366666667, "bike_id": "7393e1be07c4e42fe4b81d3f7ed5560a", "lat": 38.865357333333336, "fusion_lon": 0.0, "fusion_lat": 0.0, "type": "electric_scooter", "name": "7393e1be07c4e42fe4b81d3f7ed5560a", "is_disabled": 0, "rental_uris": {"ios": "https://dc.lft.to/lastmile_qr_scan", "android": "https://dc.lft.to/lastmile_qr_scan"}, "is_reserved": 0}, {"lon": -77.0256935, "bike_id": "af181c21f6d8cbc0d422690085696da0", "lat": 38.89753733333333, "fusion_lon": 0.0, "fusion_lat": 0.0, "type": "electric_scooter", "name": "af181c21f6d8cbc0d422690085696da0", "is_disabled": 0, "rental_uris": {"ios": "https://dc.lft.to/lastmile_qr_scan", "android": "https://dc.lft.to/lastmile_qr_scan"}, "is_reserved": 0}, {"lon": -76.9933305, "bike_id": "c7b1795672e0f0f19615faba81657f26", "lat": 38.8714255, "fusion_lon": 0.0, "fusion_lat": 0.0, "type": "electric_scooter", "name": "c7b1795672e0f0f19615faba81657f26", "is_disabled": 0, "rental_uris": {"ios": "https://dc.lft.to/lastmile_qr_scan", "android": "https://dc.lft.to/lastmile_qr_scan"}, "is_reserved": 0}, {"lon": -77.02481533333334, "bike_id": "98bf8b2ce06f0da620aef303982d0cca", "lat": 38.880117, "fusion_lon": 0.0, "fusion_lat": 0.0, "type": "electric_scooter", "name": "98bf8b2ce06f0da620aef303982d0cca", "is_disabled": 0, "rental_uris": {"ios": "https://dc.lft.to/lastmile_qr_scan", "android": "https://dc.lft.to/lastmile_qr_scan"}, "is_reserved": 0}, {"lon": -77.02321616666667, "bike_id": "c96aae06e863f193a9b460fc30f62c44", "lat": 38.92226566666667, "fusion_lon": 0.0, "fusion_lat": 0.0, "type": "electric_scooter", "name": "c96aae06e863f193a9b460fc30f62c44", "is_disabled": 0, "rental_uris": {"ios": "https://dc.lft.to/lastmile_qr_scan", "android": "https://dc.lft.to/lastmile_qr_scan"}, "is_reserved": 0}, {"lon": -77.04255866666666, "bike_id": "6f64f52a6a88535b100fdeb93210bea6", "lat": 38.9229145, "fusion_lon": 0.0, "fusion_lat": 0.0, "type": "electric_scooter", "name": "6f64f52a6a88535b100fdeb93210bea6", "is_disabled": 0, "rental_uris": {"ios": "https://dc.lft.to/lastmile_qr_scan", "android": "https://dc.lft.to/lastmile_qr_scan"}, "is_reserved": 0}, {"lon": -77.0329305, "bike_id": "ea53787867a4ffb20c52840099ef18b9", "lat": 38.903602, "fusion_lon": 0.0, "fusion_lat": 0.0, "type": "electric_scooter", "name": "ea53787867a4ffb20c52840099ef18b9", "is_disabled": 0, "rental_uris": {"ios": "https://dc.lft.to/lastmile_qr_scan", "android": "https://dc.lft.to/lastmile_qr_scan"}, "is_reserved": 0}, {"lon": -77.0311995, "bike_id": "59a63113ec488246a3adc7da5ca07a32", "lat": 38.91700816666667, "fusion_lon": 0.0, "fusion_lat": 0.0, "type": "electric_scooter", "name": "59a63113ec488246a3adc7da5ca07a32", "is_disabled": 0, "rental_uris": {"ios": "https://dc.lft.to/lastmile_qr_scan", "android": "https://dc.lft.to/lastmile_qr_scan"}, "is_reserved": 0}, {"lon": -77.05578166666666, "bike_id": "a249963652b8732d508bdd1b73fab3c4", "lat": 38.915978333333335, "fusion_lon": 0.0, "fusion_lat": 0.0, "type": "electric_scooter", "name": "a249963652b8732d508bdd1b73fab3c4", "is_disabled": 0, "rental_uris": {"ios": "https://dc.lft.to/lastmile_qr_scan", "android": "https://dc.lft.to/lastmile_qr_scan"}, "is_reserved": 0}, {"lon": -76.99001033333333, "bike_id": "3dcaf3a3a71187ec8c9fc5820b1207fd", "lat": 38.8650135, "fusion_lon": 0.0, "fusion_lat": 0.0, "type": "electric_scooter", "name": "3dcaf3a3a71187ec8c9fc5820b1207fd", "is_disabled": 0, "rental_uris": {"ios": "https://dc.lft.to/lastmile_qr_scan", "android": "https://dc.lft.to/lastmile_qr_scan"}, "is_reserved": 0}, {"lon": -77.03331916666667, "bike_id": "c4916ed2a5ece80a439d90f06ed3ba2b", "lat": 38.9364365, "fusion_lon": 0.0, "fusion_lat": 0.0, "type": "electric_scooter", "name": "c4916ed2a5ece80a439d90f06ed3ba2b", "is_disabled": 0, "rental_uris": {"ios": "https://dc.lft.to/lastmile_qr_scan", "android": "https://dc.lft.to/lastmile_qr_scan"}, "is_reserved": 0}, {"lon": -77.02083883333333, "bike_id": "31a4b157979a400c63281c6fd36fe6cf", "lat": 38.95756516666667, "fusion_lon": 0.0, "fusion_lat": 0.0, "type": "electric_scooter", "name": "31a4b157979a400c63281c6fd36fe6cf", "is_disabled": 0, "rental_uris": {"ios": "https://dc.lft.to/lastmile_qr_scan", "android": "https://dc.lft.to/lastmile_qr_scan"}, "is_reserved": 0}, {"lon": -76.98723016666666, "bike_id": "f24eeeee533812f71d36413412932b95", "lat": 38.8671015, "fusion_lon": 0.0, "fusion_lat": 0.0, "type": "electric_scooter", "name": "f24eeeee533812f71d36413412932b95", "is_disabled": 0, "rental_uris": {"ios": "https://dc.lft.to/lastmile_qr_scan", "android": "https://dc.lft.to/lastmile_qr_scan"}, "is_reserved": 0}, {"lon": -77.00382416666666, "bike_id": "41069246fca4f7ed83a3ff72e9350ba8", "lat": 38.83603383333333, "fusion_lon": 0.0, "fusion_lat": 0.0, "type": "electric_bike", "name": "41069246fca4f7ed83a3ff72e9350ba8", "is_disabled": 0, "rental_uris": {"ios": "https://dc.lft.to/lastmile_qr_scan", "android": "https://dc.lft.to/lastmile_qr_scan"}, "is_reserved": 0}, {"lon": -77.0355535, "bike_id": "1f7aaa63797ffbc95b4579408900ab46", "lat": 38.924787, "fusion_lon": 0.0, "fusion_lat": 0.0, "type": "electric_scooter", "name": "1f7aaa63797ffbc95b4579408900ab46", "is_disabled": 0, "rental_uris": {"ios": "https://dc.lft.to/lastmile_qr_scan", "android": "https://dc.lft.to/lastmile_qr_scan"}, "is_reserved": 0}, {"lon": -77.02165933333333, "bike_id": "cdd7f22c06b7fb4ddae09a73e69f3b06", "lat": 38.929998166666664, "fusion_lon": 0.0, "fusion_lat": 0.0, "type": "electric_scooter", "name": "cdd7f22c06b7fb4ddae09a73e69f3b06", "is_disabled": 0, "rental_uris": {"ios": "https://dc.lft.to/lastmile_qr_scan", "android": "https://dc.lft.to/lastmile_qr_scan"}, "is_reserved": 0}, {"lon": -77.02608983333333, "bike_id": "704b4cdc828fc63810f422bb358edc7f", "lat": 38.934877166666666, "fusion_lon": 0.0, "fusion_lat": 0.0, "type": "electric_scooter", "name": "704b4cdc828fc63810f422bb358edc7f", "is_disabled": 0, "rental_uris": {"ios": "https://dc.lft.to/lastmile_qr_scan", "android": "https://dc.lft.to/lastmile_qr_scan"}, "is_reserved": 0}, {"lon": -77.034391, "bike_id": "fcd4544cc60f61821568235b0c58262c", "lat": 38.9050895, "fusion_lon": 0.0, "fusion_lat": 0.0, "type": "electric_scooter", "name": "fcd4544cc60f61821568235b0c58262c", "is_disabled": 0, "rental_uris": {"ios": "https://dc.lft.to/lastmile_qr_scan", "android": "https://dc.lft.to/lastmile_qr_scan"}, "is_reserved": 0}, {"lon": -77.03258116666667, "bike_id": "85a11b1abe8867546b39a90c9dedc717", "lat": 38.93208816666667, "fusion_lon": 0.0, "fusion_lat": 0.0, "type": "electric_scooter", "name": "85a11b1abe8867546b39a90c9dedc717", "is_disabled": 0, "rental_uris": {"ios": "https://dc.lft.to/lastmile_qr_scan", "android": "https://dc.lft.to/lastmile_qr_scan"}, "is_reserved": 0}, {"lon": -77.03579783333333, "bike_id": "d350ac1f3df74fc4d194871ca2641f78", "lat": 38.910431, "fusion_lon": 0.0, "fusion_lat": 0.0, "type": "electric_scooter", "name": "d350ac1f3df74fc4d194871ca2641f78", "is_disabled": 0, "rental_uris": {"ios": "https://dc.lft.to/lastmile_qr_scan", "android": "https://dc.lft.to/lastmile_qr_scan"}, "is_reserved": 0}, {"lon": -77.03181316666667, "bike_id": "787f7abd7ecfc404183fa1e173994ca6", "lat": 38.91741066666667, "fusion_lon": 0.0, "fusion_lat": 0.0, "type": "electric_scooter", "name": "787f7abd7ecfc404183fa1e173994ca6", "is_disabled": 0, "rental_uris": {"ios": "https://dc.lft.to/lastmile_qr_scan", "android": "https://dc.lft.to/lastmile_qr_scan"}, "is_reserved": 0}, {"lon": -77.0326155, "bike_id": "1967efec1fff29f93ee8858aa5fa5e6b", "lat": 38.937743833333336, "fusion_lon": 0.0, "fusion_lat": 0.0, "type": "electric_scooter", "name": "1967efec1fff29f93ee8858aa5fa5e6b", "is_disabled": 0, "rental_uris": {"ios": "https://dc.lft.to/lastmile_qr_scan", "android": "https://dc.lft.to/lastmile_qr_scan"}, "is_reserved": 0}, {"lon": -77.03484083333333, "bike_id": "8fe1f507643e2bb87f2d49b00627a21d", "lat": 38.934379, "fusion_lon": 0.0, "fusion_lat": 0.0, "type": "electric_scooter", "name": "8fe1f507643e2bb87f2d49b00627a21d", "is_disabled": 0, "rental_uris": {"ios": "https://dc.lft.to/lastmile_qr_scan", "android": "https://dc.lft.to/lastmile_qr_scan"}, "is_reserved": 0}, {"lon": -77.0441565, "bike_id": "ca910dfed0ec660a6fab009ea927254a", "lat": 38.91130116666667, "fusion_lon": 0.0, "fusion_lat": 0.0, "type": "electric_scooter", "name": "ca910dfed0ec660a6fab009ea927254a", "is_disabled": 0, "rental_uris": {"ios": "https://dc.lft.to/lastmile_qr_scan", "android": "https://dc.lft.to/lastmile_qr_scan"}, "is_reserved": 0}, {"lon": -76.99291483333333, "bike_id": "b5d58c8fd7442f5d459712ffec073f7f", "lat": 38.898858833333335, "fusion_lon": 0.0, "fusion_lat": 0.0, "type": "electric_scooter", "name": "b5d58c8fd7442f5d459712ffec073f7f", "is_disabled": 0, "rental_uris": {"ios": "https://dc.lft.to/lastmile_qr_scan", "android": "https://dc.lft.to/lastmile_qr_scan"}, "is_reserved": 0}, {"lon": -77.02752666666666, "bike_id": "08fd466a4b2aa44b9a56ab0320e5f049", "lat": 38.91695, "fusion_lon": 0.0, "fusion_lat": 0.0, "type": "electric_scooter", "name": "08fd466a4b2aa44b9a56ab0320e5f049", "is_disabled": 0, "rental_uris": {"ios": "https://dc.lft.to/lastmile_qr_scan", "android": "https://dc.lft.to/lastmile_qr_scan"}, "is_reserved": 0}, {"lon": -77.04226833333334, "bike_id": "90175835e98feb30c13c619a02366d1a", "lat": 38.91330416666667, "fusion_lon": 0.0, "fusion_lat": 0.0, "type": "electric_scooter", "name": "90175835e98feb30c13c619a02366d1a", "is_disabled": 0, "rental_uris": {"ios": "https://dc.lft.to/lastmile_qr_scan", "android": "https://dc.lft.to/lastmile_qr_scan"}, "is_reserved": 0},