{"data": {"bikes": [{"name": "06a706e78d4793811d0cdddee445d823", "fusion_lat": 0.0, "type": "electric_scooter", "lat": 38.923768333333335, "is_reserved": 0, "is_disabled": 0, "fusion_lon": 0.0, "bike_id": "06a706e78d4793811d0cdddee445d823", "lon": -77.01914833333333, "rental_uris": {"ios": "https://dc.lft.to/lastmile_qr_scan", "android": "https://dc.lft.to/lastmile_qr_scan"}}, {"name": "1d5688516988644fbad08118a24b7bc0", "fusion_lat": 0.0, "type": "electric_scooter", "lat": 38.903583, "is_reserved": 0, "is_disabled": 0, "fusion_lon": 0.0, "bike_id": "1d5688516988644fbad08118a24b7bc0", "lon": -77.035513, "rental_uris": {"ios": "https://dc.lft.to/lastmile_qr_scan", "android": "https://dc.lft.to/lastmile_qr_scan"}}, {"name": "e13d994e7ff1841044bbfe0cd9e25f8e", "fusion_lat": 0.0, "type": "electric_scooter", "lat": 38.9012365, "is_reserved": 0, "is_disabled": 0, "fusion_lon": 0.0, "bike_id": "e13d994e7ff1841044bbfe0cd9e25f8e", "lon": -77.04990616666667, "rental_uris": {"ios": "https://dc.lft.to/lastmile_qr_scan", "android": "https://dc.lft.to/lastmile_qr_scan"}}, {"name": "a5b5ad334c4e63885cc79dc779247a19", "fusion_lat": 0.0, "type": "electric_scooter", "lat": 38.9065, "is_reserved": 0, "is_disabled": 0, "fusion_lon": 0.0, "bike_id": "a5b5ad334c4e63885cc79dc779247a19", "lon": -77.0530445, "rental_uris": {"ios": "https://dc.lft.to/lastmile_qr_scan", "android": "https://dc.lft.to/lastmile_qr_scan"}}, {"name": "f5b1d15a0306250cb9b17d46ea37a843", "fusion_lat": 0.0, "type": "electric_scooter", "lat": 38.89850166666667, "is_reserved": 0, "is_disabled": 0, "fusion_lon": 0.0, "bike_id": "f5b1d15a0306250cb9b17d46ea37a843", "lon": -77.0160855, "rental_uris": {"ios": "https://dc.lft.to/lastmile_qr_scan", "android": "https://dc.lft.to/lastmile_qr_scan"}}, {"name": "02c67f90fae84bd6ea3a8430ae855b39", "fusion_lat": 0.0, "type": "electric_scooter", "lat": 38.902513, "is_reserved": 0, "is_disabled": 0, "fusion_lon": 0.0, "bike_id": "02c67f90fae84bd6ea3a8430ae855b39", "lon": -77.02146233333333, "rental_uris": {"ios": "https://dc.lft.to/lastmile_qr_scan", "android": "https://dc.lft.to/lastmile_qr_scan"}}, {"name": "84bd94c039b6a490c2a62b1c2d2b1d89", "fusion_lat": 0.0, "type": "electric_scooter", "lat": 38.9133395, "is_reserved": 0, "is_disabled": 0, "fusion_lon": 0.0, "bike_id": "84bd94c039b6a490c2a62b1c2d2b1d89", "lon": -77.048323, "rental_uris": {"ios": "https://dc.lft.to/lastmile_qr_scan", "android": "https://dc.lft.to/lastmile_qr_scan"}}, {"name": "21d77691cb59904302ee417930cb8132", "fusion_lat": 0.0, "type": "electric_scooter", "lat": 38.903711666666666, "is_reserved": 0, "is_disabled": 0, "fusion_lon": 0.0, "bike_id": "21d77691cb59904302ee417930cb8132", "lon": -77.03632766666666, "rental_uris": {"ios": "https://dc.lft.to/lastmile_qr_scan", "android": "https://dc.lft.to/lastmile_qr_scan"}}, {"name": "bb895417d438fdb5ec8fa30bac196478", "fusion_lat": 0.0, "type": "electric_scooter", "lat": 38.90751866666667, "is_reserved": 0, "is_disabled": 0, "fusion_lon": 0.0, "bike_id": "bb895417d438fdb5ec8fa30bac196478", "lon": -77.03601383333333, "rental_uris": {"ios": "https://dc.lft.to/lastmile_qr_scan", "android": "https://dc.lft.to/lastmile_qr_scan"}}, {"name": "47e56f9a05008230a5daa276cf8d183d", "fusion_lat": 0.0, "type": "electric_scooter", "lat": 38.89902083333333, "is_reserved": 0, "is_disabled": 0, "fusion_lon": 0.0, "bike_id": "47e56f9a05008230a5daa276cf8d183d", "lon": -77.03932566666667, "rental_uris": {"ios": "https://dc.lft.to/lastmile_qr_scan", "android": "https://dc.lft.to/lastmile_qr_scan"}}, {"name": "ad38d514e76aac3406f228019aae889b", "fusion_lat": 0.0, "type": "electric_scooter", "lat": 38.89970066666667, "is_reserved": 0, "is_disabled": 0, "fusion_lon": 0.0, "bike_id": "ad38d514e76aac3406f228019aae889b", "lon": -77.0552935, "rental_uris": {"ios": "https://dc.lft.to/lastmile_qr_scan", "android": "https://dc.lft.to/lastmile_qr_scan"}}, {"name": "a12f8a09b3f07c6e76786cd0a4521744", "fusion_lat": 0.0, "type": "electric_scooter", "lat": 38.8988245, "is_reserved": 0, "is_disabled": 0, "fusion_lon": 0.0, "bike_id": "a12f8a09b3f07c6e76786cd0a4521744", "lon": -76.9317705, "rental_uris": {"ios": "https://dc.lft.to/lastmile_qr_scan", "android": "https://dc.lft.to/lastmile_qr_scan"}}, {"name": "cb576bc62c415b46676a86b0a9240ad0", "fusion_lat": 0.0, "type": "electric_scooter", "lat": 38.863564, "is_reserved": 0, "is_disabled": 0, "fusion_lon": 0.0, "bike_id": "cb576bc62c415b46676a86b0a9240ad0", "lon": -76.99066166666667, "rental_uris": {"ios": "https://dc.lft.to/lastmile_qr_scan", "android": "https://dc.lft.to/lastmile_qr_scan"}}, {"name": "3d8e5495fd7834c0561e02b862a1f6d1", "fusion_lat": 0.0, "type": "electric_scooter", "lat": 38.9031585, "is_reserved": 0, "is_disabled": 0, "fusion_lon": 0.0, "bike_id": "3d8e5495fd7834c0561e02b862a1f6d1", "lon": -77.03202283333333, "rental_uris": {"ios": "https://dc.lft.to/lastmile_qr_scan", "android": "https://dc.lft.to/lastmile_qr_scan"}}, {"name": "e64f14fa3faac589ec4c54c24d00efef", "fusion_lat": 0.0, "type": "electric_scooter", "lat": 38.922927333333334, "is_reserved": 0, "is_disabled": 0, "fusion_lon": 0.0, "bike_id": "e64f14fa3faac589ec4c54c24d00efef", "lon": -77.04204066666667, "rental_uris": {"ios": "https://dc.lft.to/lastmile_qr_scan", "android": "https://dc.lft.to/lastmile_qr_scan"}}, {"name": "6178376abcb97db3cbc7b35913370af4", "fusion_lat": 0.0, "type": "electric_scooter", "lat": 38.8804975, "is_reserved": 0, "is_disabled": 0, "fusion_lon": 0.0, "bike_id": "6178376abcb97db3cbc7b35913370af4", "lon": -77.01323433333333, "rental_uris": {"ios": "https://dc.lft.to/lastmile_qr_scan", "android": "https://dc.lft.to/lastmile_qr_scan"}}, {"name": "a362196a067765fe14059d2bc863acda", "fusion_lat": 0.0, "type": "electric_scooter", "lat": 38.90528833333333, "is_reserved": 0, "is_disabled": 0, "fusion_lon": 0.0, "bike_id": "a362196a067765fe14059d2bc863acda", "lon": -77.053332, "rental_uris": {"ios": "https://dc.lft.to/lastmile_qr_scan", "android": "https://dc.lft.to/lastmile_qr_scan"}}, {"name": "16131c7aa127743f9a8a4bba1493a51a", "fusion_lat": 0.0, "type": "electric_scooter", "lat": 38.89827366666667, "is_reserved": 0, "is_disabled": 0, "fusion_lon": 0.0, "bike_id": "16131c7aa127743f9a8a4bba1493a51a", "lon": -76.9878005, "rental_uris": {"ios": "https://dc.lft.to/lastmile_qr_scan", "android": "https://dc.lft.to/lastmile_qr_scan"}}, {"name": "644bf24404b70fcf0917edb996589790", "fusion_lat": 0.0, "type": "electric_scooter", "lat": 38.89621666666667, "is_reserved": 0, "is_disabled": 0, "fusion_lon": 0.0, "bike_id": "644bf24404b70fcf0917edb996589790", "lon": -77.026845, "rental_uris": {"ios": "https://dc.lft.to/lastmile_qr_scan", "android": "https://dc.lft.to/lastmile_qr_scan"}}, {"name": "97d189908bc6aba9cc8791f1834c359f", "fusion_lat": 0.0, "type": "electric_scooter", "lat": 38.942044833333334, "is_reserved": 0, "is_disabled": 0, "fusion_lon": 0.0, "bike_id": "97d189908bc6aba9cc8791f1834c359f", "lon": -77.03587633333333, "rental_uris": {"ios": "https://dc.lft.to/lastmile_qr_scan", "android": "https://dc.lft.to/lastmile_qr_scan"}}, {"name": "ac12177eb75151524a445c02ca1efb05", "fusion_lat": 0.0, "type": "electric_scooter", "lat": 38.93297666666667, "is_reserved": 0, "is_disabled": 0, "fusion_lon": 0.0, "bike_id": "ac12177eb75151524a445c02ca1efb05", "lon": -77.02464866666666, "rental_uris": {"ios": "https://dc.lft.to/lastmile_qr_scan", "android": "https://dc.lft.to/lastmile_qr_scan"}}, {"name": "aa3490e9d59c40edf4d95c2cbc6fc06a", "fusion_lat": 0.0, "type": "electric_bike", "lat": 38.89961616666667, "is_reserved": 0, "is_disabled": 0, "fusion_lon": 0.0, "bike_id": "aa3490e9d59c40edf4d95c2cbc6fc06a", "lon": -77.03929483333333, "rental_uris": {"ios": "https://dc.lft.to/lastmile_qr_scan", "android": "https://dc.lft.to/lastmile_qr_scan"}}, {"name": "718cb1f42a4c03c90a0615f4afabfe96", "fusion_lat": 0.0, "type": "electric_scooter", "lat": 38.896683, "is_reserved": 0, "is_disabled": 0, "fusion_lon": 0.0, "bike_id": "718cb1f42a4c03c90a0615f4afabfe96", "lon": -77.04886566666667, "rental_uris": {"ios": "https://dc.lft.to/lastmile_qr_scan", "android": "https://dc.lft.to/lastmile_qr_scan"}}, {"name": "e20caa2a3fdcc83990cba2ca2e5886fb", "fusion_lat": 0.0, "type": "electric_scooter", "lat": 38.924180166666666, "is_reserved": 0, "is_disabled": 0, "fusion_lon": 0.0, "bike_id": "e20caa2a3fdcc83990cba2ca2e5886fb", "lon": -77.01949016666667, "rental_uris": {"ios": "https://dc.lft.to/lastmile_qr_scan", "android": "https://dc.lft.to/lastmile_qr_scan"}}, {"name": "cfbc76358164af45f5a649c70b9aa083", "fusion_lat": 0.0, "type": "electric_scooter", "lat": 38.91107066666667, "is_reserved": 0, "is_disabled": 0, "fusion_lon": 0.0, "bike_id": "cfbc76358164af45f5a649c70b9aa083", "lon": -77.03476333333333, "rental_uris": {"ios": "https://dc.lft.to/lastmile_qr_scan", "android": "https://dc.lft.to/lastmile_qr_scan"}}, {"name": "fb119b8b41424275a6e5dc2887490b83", "fusion_lat": 0.0, "type": "electric_scooter", "lat": 38.90464633333333, "is_reserved": 0, "is_disabled": 0, "fusion_lon": 0.0, "bike_id": "fb119b8b41424275a6e5dc2887490b83", "lon": -77.0415745, "rental_uris": {"ios": "https://dc.lft.to/lastmile_qr_scan", "android": "https://dc.lft.to/lastmile_qr_scan"}}, {"name": "0abf22265865e29957a57605de67f9c5", "fusion_lat": 0.0, "type": "electric_scooter", "lat": 38.92871983333333, "is_reserved": 0, "is_disabled": 0, "fusion_lon": 0.0, "bike_id": "0abf22265865e29957a57605de67f9c5", "lon": -77.041277, "rental_uris": {"ios": "https://dc.lft.to/lastmile_qr_scan", "android": "https://dc.lft.to/lastmile_qr_scan"}}, {"name": "76325021fa21d6887c863224f6f6050c", "fusion_lat": 0.0, "type": "electric_scooter", "lat": 38.933642666666664, "is_reserved": 0, "is_disabled": 0, "fusion_lon": 0.0, "bike_id": "76325021fa21d6887c863224f6f6050c", "lon": -77.05727466666667, "rental_uris": {"ios": "https://dc.lft.to/lastmile_qr_scan", "android": "https://dc.lft.to/lastmile_qr_scan"}}, {"name": "63db6a7c781e4c3ad01a4820ce63f15d", "fusion_lat": 0.0, "type": "electric_bike", "lat": 38.95479233333333, "is_reserved": 0, "is_disabled": 0, "fusion_lon": 0.0, "bike_id": "63db6a7c781e4c3ad01a4820ce63f15d", "lon": -77.08239133333333, "rental_uris": {"ios": "https://dc.lft.to/lastmile_qr_scan", "android": "https://dc.lft.to/lastmile_qr_scan"}}, {"name": "6cd3e4f6c4518a5d9cba743a3e20866d", "fusion_lat": 0.0, "type": "electric_scooter", "lat": 38.895487833333334, "is_reserved": 0, "is_disabled": 0, "fusion_lon": 0.0, "bike_id": "6cd3e4f6c4518a5d9cba743a3e20866d", "lon": -77.04680816666666, "rental_uris": {"ios": "https://dc.lft.to/lastmile_qr_scan", "android": "https://dc.lft.to/lastmile_qr_scan"}}, {"name": "ead243f35ad616fb1217922e4d433228", "fusion_lat": 0.0, "type": "electric_scooter", "lat": 38.902781166666664, "is_reserved": 0, "is_disabled": 0, "fusion_lon": 0.0, "bike_id": "ead243f35ad616fb1217922e4d433228", "lon": -77.01884083333333, "rental_uris": {"ios": "https://dc.lft.to/lastmile_qr_scan", "android": "https://dc.lft.to/lastmile_qr_scan"}}, {"name": "3247b161c9346a64ae798c756dd0513b", "fusion_lat": 0.0, "type": "electric_scooter", "lat": 38.902363, "is_reserved": 0, "is_disabled": 0, "fusion_lon": 0.0, "bike_id": "3247b161c9346a64ae798c756dd0513b", "lon": -77.00197283333334, "rental_uris": {"ios": "https://dc.lft.to/lastmile_qr_scan", "android": "https://dc.lft.to/lastmile_qr_scan"}}, {"name": "7ad15a8213d1e9ba1d1c14cb80fcf19a", "fusion_lat": 0.0, "type": "electric_scooter", "lat": 38.923662, "is_reserved": 0, "is_disabled": 0, "fusion_lon": 0.0, "bike_id": "7ad15a8213d1e9ba1d1c14cb80fcf19a", "lon": -77.01913966666666, "rental_uris": {"ios": "https://dc.lft.to/lastmile_qr_scan", "android": "https://dc.lft.to/lastmile_qr_scan"}}, {"name": "c7dc9c3be4b60ac59ff88994a4ef6507", "fusion_lat": 0.0, "type": "electric_bike", "lat": 38.868694, "is_reserved": 0, "is_disabled": 0, "fusion_lon": 0.0, "bike_id": "c7dc9c3be4b60ac59ff88994a4ef6507", "lon": -76.9166435, "rental_uris": {"ios": "https://dc.lft.to/lastmile_qr_scan", "android": "https://dc.lft.to/lastmile_qr_scan"}}, {"name": "f2b47ebebc0cba4a759333017d8e57b6", "fusion_lat": 0.0, "type": "electric_scooter", "lat": 38.91413766666667, "is_reserved": 0, "is_disabled": 0, "fusion_lon": 0.0, "bike_id": "f2b47ebebc0cba4a759333017d8e57b6", "lon": -77.0097105, "rental_uris": {"ios": "https://dc.lft.to/lastmile_qr_scan", "android": "https://dc.lft.to/lastmile_qr_scan"}}, {"name": "85dcfd9c2884ffca0667343c3008b02d", "fusion_lat": 0.0, "type": "electric_scooter", "lat": 38.90599983333333, "is_reserved": 0, "is_disabled": 0, "fusion_lon": 0.0, "bike_id": "85dcfd9c2884ffca0667343c3008b02d", "lon": -77.00264383333334, "rental_uris": {"ios": "https://dc.lft.to/lastmile_qr_scan", "android": "https://dc.lft.to/lastmile_qr_scan"}}, {"name": "d009c9ffedfcf29f58678febb0564104", "fusion_lat": 0.0, "type": "electric_scooter", "lat": 38.88086533333333, "is_reserved": 0, "is_disabled": 0, "fusion_lon": 0.0, "bike_id": "d009c9ffedfcf29f58678febb0564104", "lon": -77.02592516666667, "rental_uris": {"ios": "https://dc.lft.to/lastmile_qr_scan", "android": "https://dc.lft.to/lastmile_qr_scan"}}, {"name": "2df9cc8dffad080e17703233e83fdf1b", "fusion_lat": 0.0, "type": "electric_scooter", "lat": 38.918661, "is_reserved": 0, "is_disabled": 0, "fusion_lon": 0.0, "bike_id": "2df9cc8dffad080e17703233e83fdf1b", "lon": -77.04443383333333, "rental_uris": {"ios": "https://dc.lft.to/lastmile_qr_scan", "android": "https://dc.lft.to/lastmile_qr_scan"}}, {"name": "bef0ada3a0f6ac322cd7392654936372", "fusion_lat": 0.0, "type": "electric_scooter", "lat": 38.9006935, "is_reserved": 0, "is_disabled": 0, "fusion_lon": 0.0, "bike_id": "bef0ada3a0f6ac322cd7392654936372", "lon": -77.02817633333333, "rental_uris": {"ios": "https://dc.lft.to/lastmile_qr_scan", "android": "https://dc.lft.to/lastmile_qr_scan"}}, {"name": "8239eebb53f84602a2721ddc3f003b27", "fusion_lat": 0.0, "type": "electric_scooter", "lat": 38.8988895, "is_reserved": 0, "is_disabled": 0, "fusion_lon": 0.0, "bike_id": "8239eebb53f84602a2721ddc3f003b27", "lon": -77.03979016666666, "rental_uris": {"ios": "https://dc.lft.to/lastmile_qr_scan", "android": "https://dc.lft.to/lastmile_qr_scan"}}, {"name": "a2b9a93792041139cbe94c6db9ed3da1", "fusion_lat": 0.0, "type": "electric_scooter", "lat": 38.896738166666665, "is_reserved": 0, "is_disabled": 0, "fusion_lon": 0.0, "bike_id": "a2b9a93792041139cbe94c6db9ed3da1", "lon": -76.94719516666666, "rental_uris": {"ios": "https://dc.lft.to/lastmile_qr_scan", "android": "https://dc.lft.to/lastmile_qr_scan"}}, {"name": "f824c8562691e6126b73e0bc382fa7b4", "fusion_lat": 0.0, "type": "electric_scooter", "lat": 38.90338716666667, "is_reserved": 0, "is_disabled": 0, "fusion_lon": 0.0, "bike_id": "f824c8562691e6126b73e0bc382fa7b4", "lon": -77.025808, "rental_uris": {"ios": "https://dc.lft.to/lastmile_qr_scan", "android": "https://dc.lft.to/lastmile_qr_scan"}}, {"name": "8c238cc85fb789f3d225cc0d3424aa65", "fusion_lat": 0.0, "type": "electric_scooter", "lat": 38.929458333333336, "is_reserved": 0, "is_disabled": 0, "fusion_lon": 0.0, "bike_id": "8c238cc85fb789f3d225cc0d3424aa65", "lon": -76.9974635, "rental_uris": {"ios": "https://dc.lft.to/lastmile_qr_scan", "android": "https://dc.lft.to/lastmile_qr_scan"}}, {"name": "7e4da4b146370911711736529b24afca", "fusion_lat": 0.0, "type": "electric_scooter", "lat": 38.92896966666667, "is_reserved": 0, "is_disabled": 0, "fusion_lon": 0.0, "bike_id": "7e4da4b146370911711736529b24afca", "lon": -77.01636416666666, "rental_uris": {"ios": "https://dc.lft.to/lastmile_qr_scan", "android": "https://dc.lft.to/lastmile_qr_scan"}}, {"name": "cef92bc16a9f64fc79f4492a6b6e1cfd", "fusion_lat": 0.0, "type": "electric_scooter", "lat": 38.88005866666666, "is_reserved": 0, "is_disabled": 0, "fusion_lon": 0.0, "bike_id": "cef92bc16a9f64fc79f4492a6b6e1cfd", "lon": -77.0248235, "rental_uris": {"ios": "https://dc.lft.to/lastmile_qr_scan", "android": "https://dc.lft.to/lastmile_qr_scan"}}, {"name": "6a85e01e67c02d272237b3bbe0a6c561", "fusion_lat": 0.0, "type": "electric_scooter", "lat": 38.906667666666664, "is_reserved": 0, "is_disabled": 0, "fusion_lon": 0.0, "bike_id": "6a85e01e67c02d272237b3bbe0a6c561", "lon": -77.03856883333333, "rental_uris": {"ios": "https://dc.lft.to/lastmile_qr_scan", "android": "https://dc.lft.to/lastmile_qr_scan"}}, {"name": "c259026722de6016c1d8a0e0c05fd3de", "fusion_lat": 0.0, "type": "electric_scooter", "lat": 38.895318, "is_reserved": 0, "is_disabled": 0, "fusion_lon": 0.0, "bike_id": "c259026722de6016c1d8a0e0c05fd3de", "lon": -77.02421783333334, "rental_uris": {"ios": "https://dc.lft.to/lastmile_qr_scan", "android": "https://dc.lft.to/lastmile_qr_scan"}}, {"name": "8a30b9cb3ad53d90b65466d0c8582b34", "fusion_lat": 0.0, "type": "electric_scooter", "lat": 38.892277166666666, "is_reserved": 0, "is_disabled": 0, "fusion_lon": 0.0, "bike_id": "8a30b9cb3ad53d90b65466d0c8582b34", "lon": -77.05003616666667, "rental_uris": {"ios": "https://dc.lft.to/lastmile_qr_scan", "android": "https://dc.lft.to/lastmile_qr_scan"}}, {"name": "667f66ae4fd7a2aa8fc916b4e18ca6e1", "fusion_lat": 0.0, "type": "electric_scooter", "lat": 38.9241875, "is_reserved": 0, "is_disabled": 0, "fusion_lon": 0.0, "bike_id": "667f66ae4fd7a2aa8fc916b4e18ca6e1", "lon": -77.01943433333334, "rental_uris": {"ios": "https://dc.lft.to/lastmile_qr_scan", "android": "https://dc.lft.to/lastmile_qr_scan"}}, {"name": "ae9c979ef9f8f45e074faa2e93ea4c77", "fusion_lat": 0.0, "type": "electric_bike", "lat": 38.94361633333333, "is_reserved": 0, "is_disabled": 0, "fusion_lon": 0.0, "bike_id": "ae9c979ef9f8f45e074faa2e93ea4c77", "lon": -77.02631833333334, "rental_uris": {"ios": "https://dc.lft.to/lastmile_qr_scan", "android": "https://dc.lft.to/lastmile_qr_scan"}}, {"name": "b37d2e26e01e3f0ddcaf912d87943bdc", "fusion_lat": 0.0, "type": "electric_scooter", "lat": 38.93609933333333, "is_reserved": 0, "is_disabled": 0, "fusion_lon": 0.0, "bike_id": "b37d2e26e01e3f0ddcaf912d87943bdc", "lon": -77.032123, "rental_uris": {"ios": "https://dc.lft.to/lastmile_qr_scan", "android": "https://dc.lft.to/lastmile_qr_scan"}}, {"name": "4276e55a3f9eaf5f0d579fe02a2e4961", "fusion_lat": 0.0, "type": "electric_scooter", "lat": 38.9014115, "is_reserved": 0, "is_disabled": 0, "fusion_lon": 0.0, "bike_id": "4276e55a3f9eaf5f0d579fe02a2e4961", "lon": -77.00065233333333, "rental_uris": {"ios": "https://dc.lft.to/lastmile_qr_scan", "android": "https://dc.lft.to/lastmile_qr_scan"}}, {"name": "c6fbd258eddc6fe6922366effd6f016f", "fusion_lat": 0.0, "type": "electric_scooter", "lat": 38.91801616666667, "is_reserved": 0, "is_disabled": 0, "fusion_lon": 0.0, "bike_id": "c6fbd258eddc6fe6922366effd6f016f", "lon": -77.024287, "rental_uris": {"ios": "https://dc.lft.to/lastmile_qr_scan", "android": "https://dc.lft.to/lastmile_qr_scan"}}, {"name": "11a6aa791cba91b9ab1ccd02a04c6401", "fusion_lat": 0.0, "type": "electric_scooter", "lat": 38.922083, "is_reserved": 0, "is_disabled": 0, "fusion_lon": 0.0, "bike_id": "11a6aa791cba91b9ab1ccd02a04c6401", "lon": -77.042383, "rental_uris": {"ios": "https://dc.lft.to/lastmile_qr_scan", "android": "https://dc.lft.to/lastmile_qr_scan"}}, {"name": "2d66c350cbe5ef0b7785b63836b34f0e", "fusion_lat": 0.0, "type": "electric_bike", "lat": 38.83856816666667, "is_reserved": 0, "is_disabled": 0, "fusion_lon": 0.0, "bike_id": "2d66c350cbe5ef0b7785b63836b34f0e", "lon": -77.08864516666667, "rental_uris": {"ios": "https://dc.lft.to/lastmile_qr_scan", "android": "https://dc.lft.to/lastmile_qr_scan"}}, {"name": "d6197a8b2c809de7e552cac33900f9b5", "fusion_lat": 0.0, "type": "electric_scooter", "lat": 38.918034666666664, "is_reserved": 0, "is_disabled": 0, "fusion_lon": 0.0, "bike_id": "d6197a8b2c809de7e552cac33900f9b5", "lon": -77.02816866666667, "rental_uris": {"ios": "https://dc.lft.to/lastmile_qr_scan", "android": "https://dc.lft.to/lastmile_qr_scan"}}, {"name": "920d2063aeac096c509ef704b492c37f", "fusion_lat": 0.0, "type": "electric_scooter", "lat": 38.90295016666666, "is_reserved": 0, "is_disabled": 0, "fusion_lon": 0.0, "bike_id": "920d2063aeac096c509ef704b492c37f", "lon": -77.03196733333333, "rental_uris": {"ios": "https://dc.lft.to/lastmile_qr_scan", "android": "https://dc.lft.to/lastmile_qr_scan"}}, {"name": "68d9eecab250af6d4d5b5b7463a9c9fb", "fusion_lat": 0.0, "type": "electric_bike", "lat": 38.973197166666665, "is_reserved": 0, "is_disabled": 0, "fusion_lon": 0.0, "bike_id": "68d9eecab250af6d4d5b5b7463a9c9fb", "lon": -77.02148216666667, "rental_uris": {"ios": "https://dc.lft.to/lastmile_qr_scan", "android": "https://dc.lft.to/lastmile_qr_scan"}}, {"name": "71935a16e6d40014bb241c52022017d0", "fusion_lat": 0.0, "type": "electric_scooter", "lat": 38.9396025, "is_reserved": 0, "is_disabled": 0, "fusion_lon": 0.0, "bike_id": "71935a16e6d40014bb241c52022017d0", "lon": -77.032835, "rental_uris": {"ios": "https://dc.lft.to/lastmile_qr_scan", "android": "https://dc.lft.to/lastmile_qr_scan"}}, {"name": "c5da6bddc77d1e618fabab5d7bc78b43", "fusion_lat": 0.0, "type": "electric_scooter", "lat": 38.889286, "is_reserved": 0, "is_disabled": 0, "fusion_lon": 0.0, "bike_id": "c5da6bddc77d1e618fabab5d7bc78b43", "lon": -76.94782966666666, "rental_uris": {"ios": "https://dc.lft.to/lastmile_qr_scan", "android": "https://dc.lft.to/lastmile_qr_scan"}}, {"name": "0330bd8923521ac48d1c1a61a17a288e", "fusion_lat": 0.0, "type": "electric_scooter", "lat": 38.88480916666666, "is_reserved": 0, "is_disabled": 0, "fusion_lon": 0.0, "bike_id": "0330bd8923521ac48d1c1a61a17a288e", "lon": -77.00707983333334, "rental_uris": {"ios": "https://dc.lft.to/lastmile_qr_scan", "android": "https://dc.lft.to/lastmile_qr_scan"}}, {"name": "d43c5ce41ea02d25a7c58c59e1711f49", "fusion_lat": 0.0, "type": "electric_scooter", "lat": 38.903274333333336, "is_reserved": 0, "is_disabled": 0, "fusion_lon": 0.0, "bike_id": "d43c5ce41ea02d25a7c58c59e1711f49", "lon": -77.0384045, "rental_uris": {"ios": "https://dc.lft.to/lastmile_qr_scan", "android": "https://dc.lft.to/lastmile_qr_scan"}}, {"name": "e0fecfd2f6c345cba76467e2d3bd37c6", "fusion_lat": 0.0, "type": "electric_scooter", "lat": 38.9014025, "is_reserved": 0, "is_disabled": 0, "fusion_lon": 0.0, "bike_id": "e0fecfd2f6c345cba76467e2d3bd37c6", "lon": -77.00038716666667, "rental_uris": {"ios": "https://dc.lft.to/lastmile_qr_scan", "android": "https://dc.lft.to/lastmile_qr_scan"}}, {"name": "149454d9db810846aa9263a9000232f2", "fusion_lat": 0.0, "type": "electric_scooter", "lat": 38.9309245, "is_reserved": 0, "is_disabled": 0, "fusion_lon": 0.0, "bike_id": "149454d9db810846aa9263a9000232f2", "lon": -77.02402966666666, "rental_uris": {"ios": "https://dc.lft.to/lastmile_qr_scan", "android": "https://dc.lft.to/lastmile_qr_scan"}}, {"name": "47ee493a0f8bf761c5f0f1d9d206eacc", "fusion_lat": 0.0, "type": "electric_scooter", "lat": 38.9038675, "is_reserved": 0, "is_disabled": 0, "fusion_lon": 0.0, "bike_id": "47ee493a0f8bf761c5f0f1d9d206eacc", "lon": -77.045044, "rental_uris": {"ios": "https://dc.lft.to/lastmile_qr_scan", "android": "https://dc.lft.to/lastmile_qr_scan"}}, {"name": "cf415cdfa2ca6cfd4d257da521ec46a8", "fusion_lat": 0.0, "type": "electric_scooter", "lat": 38.87719033333333, "is_reserved": 0, "is_disabled": 0, "fusion_lon": 0.0, "bike_id": "cf415cdfa2ca6cfd4d257da521ec46a8", "lon": -76.993806, "rental_uris": {"ios": "https://dc.lft.to/lastmile_qr_scan", "android": "https://dc.lft.to/lastmile_qr_scan"}}, {"name": "4a113ebf58cfaabf2bc7b173f8c2557a", "fusion_lat": 0.0, "type": "electric_scooter", "lat": 38.902451, "is_reserved": 0, "is_disabled": 0, "fusion_lon": 0.0, "bike_id": "4a113ebf58cfaabf2bc7b173f8c2557a", "lon": -77.02649166666667, "rental_uris": {"ios": "https://dc.lft.to/lastmile_qr_scan", "android": "https://dc.lft.to/lastmile_qr_scan"}}, {"name": "97c95cb130735f276bd8570ddb5cf26b", "fusion_lat": 0.0, "type": "electric_scooter", "lat": 38.907285, "is_reserved": 0, "is_disabled": 0, "fusion_lon": 0.0, "bike_id": "97c95cb130735f276bd8570ddb5cf26b", "lon": -77.01068816666667, "rental_uris": {"ios": "https://dc.lft.to/lastmile_qr_scan", "android": "https://dc.lft.to/lastmile_qr_scan"}}, {"name": "2767a6c1384c8c389a53c4725b276b06", "fusion_lat": 0.0, "type": "electric_scooter", "lat": 38.91292933333333, "is_reserved": 0, "is_disabled": 0, "fusion_lon": 0.0, "bike_id": "2767a6c1384c8c389a53c4725b276b06", "lon": -77.06112316666666, "rental_uris": {"ios": "https://dc.lft.to/lastmile_qr_scan", "android": "https://dc.lft.to/lastmile_qr_scan"}}, {"name": "fe215a577e8766cce528f535a85e2705", "fusion_lat": 0.0, "type": "electric_scooter", "lat": 38.86247766666666, "is_reserved": 0, "is_disabled": 0, "fusion_lon": 0.0, "bike_id": "fe215a577e8766cce528f535a85e2705", "lon": -76.995308, "rental_uris": {"ios": "https://dc.lft.to/lastmile_qr_scan", "android": "https://dc.lft.to/lastmile_qr_scan"}}, {"name": "1618da4f7dda8f407a7095fe7651006a", "fusion_lat": 0.0, "type": "electric_scooter", "lat": 38.915608, "is_reserved": 0, "is_disabled": 0, "fusion_lon": 0.0, "bike_id": "1618da4f7dda8f407a7095fe7651006a", "lon": -77.03834283333333, "rental_uris": {"ios": "https://dc.lft.to/lastmile_qr_scan", "android": "https://dc.lft.to/lastmile_qr_scan"}}, {"name": "49100ec2c6692a0cd1222076ce59d4da", "fusion_lat": 0.0, "type": "electric_scooter", "lat": 38.90249466666667, "is_reserved": 0, "is_disabled": 0, "fusion_lon": 0.0, "bike_id": "49100ec2c6692a0cd1222076ce59d4da", "lon": -77.03965166666667, "rental_uris": {"ios": "https://dc.lft.to/lastmile_qr_scan", "android": "https://dc.lft.to/lastmile_qr_scan"}}, {"name": "abb88715c502c94ebe6dd3f38951527e", "fusion_lat": 0.0, "type": "electric_scooter", "lat": 38.9285555, "is_reserved": 0, "is_disabled": 0, "fusion_lon": 0.0, "bike_id": "abb88715c502c94ebe6dd3f38951527e", "lon": -77.03339766666667, "rental_uris": {"ios": "https://dc.lft.to/lastmile_qr_scan", "android": "https://dc.lft.to/lastmile_qr_scan"}}, {"name": "12aaba5eddd5c5779a65d70de34654c5", "fusion_lat": 0.0, "type": "electric_scooter", "lat": 38.93736166666667, "is_reserved": 0, "is_disabled": 0, "fusion_lon": 0.0, "bike_id": "12aaba5eddd5c5779a65d70de34654c5", "lon": -77.03259283333334, "rental_uris": {"ios": "https://dc.lft.to/lastmile_qr_scan", "android": "https://dc.lft.to/lastmile_qr_scan"}}, {"name": "03fc4b00a3355a2b624299076c89d818", "fusion_lat": 0.0, "type": "electric_scooter", "lat": 38.906005666666665, "is_reserved": 0, "is_disabled": 0, "fusion_lon": 0.0, "bike_id": "03fc4b00a3355a2b624299076c89d818", "lon": -77.04143433333333, "rental_uris": {"ios": "https://dc.lft.to/lastmile_qr_scan", "android": "https://dc.lft.to/lastmile_qr_scan"}}, {"name": "071a2223129e826324d7279f9a20d6e5", "fusion_lat": 0.0, "type": "electric_scooter", "lat": 38.907482333333334, "is_reserved": 0, "is_disabled": 0, "fusion_lon": 0.0, "bike_id": "071a2223129e826324d7279f9a20d6e5", "lon": -77.03098583333333, "rental_uris": {"ios": "https://dc.lft.to/lastmile_qr_scan", "android": "https://dc.lft.to/lastmile_qr_scan"}}, {"name": "541952669a2cca24b023d4b7edf8a23e", "fusion_lat": 0.0, "type": "electric_scooter", "lat": 38.906485833333335, "is_reserved": 0, "is_disabled": 0, "fusion_lon": 0.0, "bike_id": "541952669a2cca24b023d4b7edf8a23e", "lon": -77.03907866666667, "rental_uris": {"ios": "https://dc.lft.to/lastmile_qr_scan", "android": "https://dc.lft.to/lastmile_qr_scan"}}, {"name": "8fa6dff3f648eec3d241c8ac2eb4bfd1", "fusion_lat": 0.0, "type": "electric_scooter", "lat": 38.89879116666667, "is_reserved": 0, "is_disabled": 0, "fusion_lon": 0.0, "bike_id": "8fa6dff3f648eec3d241c8ac2eb4bfd1", "lon": -77.03334183333334, "rental_uris": {"ios": "https://dc.lft.to/lastmile_qr_scan", "android": "https://dc.lft.to/lastmile_qr_scan"}}, {"name": "3f131fe65ad0c3d9961cde7231f8428c", "fusion_lat": 0.0, "type": "electric_scooter", "lat": 38.9243875, "is_reserved": 0, "is_disabled": 0, "fusion_lon": 0.0, "bike_id": "3f131fe65ad0c3d9961cde7231f8428c", "lon": -77.02975883333333, "rental_uris": {"ios": "https://dc.lft.to/lastmile_qr_scan", "android": "https://dc.lft.to/lastmile_qr_scan"}}, {"name": "9a3f7df1ca08fe6662f381eefd2c8ae0", "fusion_lat": 0.0, "type": "electric_scooter", "lat": 38.9329475, "is_reserved": 0, "is_disabled": 0, "fusion_lon": 0.0, "bike_id": "9a3f7df1ca08fe6662f381eefd2c8ae0", "lon": -77.02289683333333, "rental_uris": {"ios": "https://dc.lft.to/lastmile_qr_scan", "android": "https://dc.lft.to/lastmile_qr_scan"}}, {"name": "10403dffa2388bcc28e60d86abbca15f", "fusion_lat": 0.0, "type": "electric_scooter", "lat": 38.898581666666665, "is_reserved": 0, "is_disabled": 0, "fusion_lon": 0.0, "bike_id": "10403dffa2388bcc28e60d86abbca15f", "lon": -77.03188016666667, "rental_uris": {"ios": "https://dc.lft.to/lastmile_qr_scan", "android": "https://dc.lft.to/lastmile_qr_scan"}}, {"name": "1329f42bfff554e218f7da099907a4d6", "fusion_lat": 0.0, "type": "electric_scooter", "lat": 38.949557666666664, "is_reserved": 0, "is_disabled": 0, "fusion_lon": 0.0, "bike_id": "1329f42bfff554e218f7da099907a4d6", "lon": -77.02721533333333, "rental_uris": {"ios": "https://dc.lft.to/lastmile_qr_scan", "android": "https://dc.lft.to/lastmile_qr_scan"}}, {"name": "70afa929c986d91c7661a1fd9425c578", "fusion_lat": 0.0, "type": "electric_scooter", "lat": 38.90241783333333, "is_reserved": 0, "is_disabled": 0, "fusion_lon": 0.0, "bike_id": "70afa929c986d91c7661a1fd9425c578", "lon": -77.027122, "rental_uris": {"ios": "https://dc.lft.to/lastmile_qr_scan", "android": "https://dc.lft.to/lastmile_qr_scan"}}, {"name": "0a7efe34e5d4cd75c2602bf210fd6433", "fusion_lat": 0.0, "type": "electric_bike", "lat": 38.8804195, "is_reserved": 0, "is_disabled": 0, "fusion_lon": 0.0, "bike_id": "0a7efe34e5d4cd75c2602bf210fd6433", "lon": -77.01323033333334, "rental_uris": {"ios": "https://dc.lft.to/lastmile_qr_scan", "android": "https://dc.lft.to/lastmile_qr_scan"}}, {"name": "5c8a139e92ff71d7350861919b5c42e5", "fusion_lat": 0.0, "type": "electric_scooter", "lat": 38.9111345, "is_reserved": 0, "is_disabled": 0, "fusion_lon": 0.0, "bike_id": "5c8a139e92ff71d7350861919b5c42e5", "lon": -77.04357516666667, "rental_uris": {"ios": "https://dc.lft.to/lastmile_qr_scan", "android": "https://dc.lft.to/lastmile_qr_scan"}}, {"name": "a34d92256cb87e17df8b7d0cddb84751", "fusion_lat": 0.0, "type": "electric_bike", "lat": 38.81927266666667, "is_reserved": 0, "is_disabled": 0, "fusion_lon": 0.0, "bike_id": "a34d92256cb87e17df8b7d0cddb84751", "lon": -77.00222333333333, "rental_uris": {"ios": "https://dc.lft.to/lastmile_qr_scan", "android": "https://dc.lft.to/lastmile_qr_scan"}}, {"name": "7abf941fa4272a122c519aab39261721", "fusion_lat": 0.0, "type": "electric_scooter", "lat": 38.91726633333333, "is_reserved": 0, "is_disabled": 0, "fusion_lon": 0.0, "bike_id": "7abf941fa4272a122c519aab39261721", "lon": -77.03838833333333, "rental_uris": {"ios": "https://dc.lft.to/lastmile_qr_scan", "android": "https://dc.lft.to/lastmile_qr_scan"}}, {"name": "d9168af5948fe031e20398277d121a18", "fusion_lat": 0.0, "type": "electric_scooter", "lat": 38.928999166666664, "is_reserved": 0, "is_disabled": 0, "fusion_lon": 0.0, "bike_id": "d9168af5948fe031e20398277d121a18", "lon": -77.05454783333333, "rental_uris": {"ios": "https://dc.lft.to/lastmile_qr_scan", "android": "https://dc.lft.to/lastmile_qr_scan"}}, {"name": "240b2fbfa5b010422ffd4ab93b0ac4e4", "fusion_lat": 0.0, "type": "electric_bike", "lat": 38.8522465, "is_reserved": 0, "is_disabled": 0, "fusion_lon": 0.0, "bike_id": "240b2fbfa5b010422ffd4ab93b0ac4e4", "lon": -77.12958083333334, "rental_uris": {"ios": "https://dc.lft.to/lastmile_qr_scan", "android": "https://dc.lft.to/lastmile_qr_scan"}}, {"name": "82aa41a44beef423108a04ea11df040c", "fusion_lat": 0.0, "type": "electric_scooter", "lat": 38.91618366666667, "is_reserved": 0, "is_disabled": 0, "fusion_lon": 0.0, "bike_id": "82aa41a44beef423108a04ea11df040c", "lon": -77.0316555, "rental_uris": {"ios": "https://dc.lft.to/lastmile_qr_scan", "android": "https://dc.lft.to/lastmile_qr_scan"}}, {"name": "15e3fbcd42fe58caa5322721b018643d", "fusion_lat": 0.0, "type": "electric_scooter", "lat": 38.91109933333333, "is_reserved": 0, "is_disabled": 0, "fusion_lon": 0.0, "bike_id": "15e3fbcd42fe58caa5322721b018643d", "lon": -77.04233816666667, "rental_uris": {"ios": "https://dc.lft.to/lastmile_qr_scan", "android": "https://dc.lft.to/lastmile_qr_scan"}}, {"name": "ac2fee7441a4eb71e1235889917d0bc5", "fusion_lat": 0.0, "type": "electric_scooter", "lat": 38.919472166666665, "is_reserved": 0, "is_disabled": 0, "fusion_lon": 0.0, "bike_id": "ac2fee7441a4eb71e1235889917d0bc5", "lon": -77.01383516666667, "rental_uris": {"ios": "https://dc.lft.to/lastmile_qr_scan", "android": "https://dc.lft.to/lastmile_qr_scan"}}, {"name": "0a48dc030914d9a982b46dd2cc9acd5e", "fusion_lat": 0.0, "type": "electric_scooter", "lat": 38.9394765, "is_reserved": 0, "is_disabled": 0, "fusion_lon": 0.0, "bike_id": "0a48dc030914d9a982b46dd2cc9acd5e", "lon": -77.03266916666666, "rental_uris": {"ios": "https://dc.lft.to/lastmile_qr_scan", "android": "https://dc.lft.to/lastmile_qr_scan"}}, {"name": "cbb6e5c925e3209e2bfaefc78ab0539f", "fusion_lat": 0.0, "type": "electric_scooter", "lat": 38.8804915, "is_reserved": 0, "is_disabled": 0, "fusion_lon": 0.0, "bike_id": "cbb6e5c925e3209e2bfaefc78ab0539f", "lon": -76.9598285, "rental_uris": {"ios": "https://dc.lft.to/lastmile_qr_scan", "android": "https://dc.lft.to/lastmile_qr_scan"}}, {"name": "ca9aca3e08c8b5a7dbe1c735b9e7628f", "fusion_lat": 0.0, "type": "electric_bike", "lat": 38.98452016666667, "is_reserved": 0, "is_disabled": 0, "fusion_lon": 0.0, "bike_id": "ca9aca3e08c8b5a7dbe1c735b9e7628f", "lon": -76.9552335, "rental_uris": {"ios": "https://dc.lft.to/lastmile_qr_scan", "android": "https://dc.lft.to/lastmile_qr_scan"}}, {"name": "986260f517861fa1b8b29f8898dbf6d4", "fusion_lat": 0.0, "type": "electric_scooter", "lat": 38.93951883333333, "is_reserved": 0, "is_disabled": 0, "fusion_lon": 0.0, "bike_id": "986260f517861fa1b8b29f8898dbf6d4", "lon": -77.03275766666667, "rental_uris": {"ios": "https://dc.lft.to/lastmile_qr_scan", "android": "https://dc.lft.to/lastmile_qr_scan"}}, {"name": "a5a8bb8a59ff9549b08b982608b2da47", "fusion_lat": 0.0, "type": "electric_bike", "lat": 38.865961666666664, "is_reserved": 0, "is_disabled": 0, "fusion_lon": 0.0, "bike_id": "a5a8bb8a59ff9549b08b982608b2da47", "lon": -76.932315, "rental_uris": {"ios": "https://dc.lft.to/lastmile_qr_scan", "android": "https://dc.lft.to/lastmile_qr_scan"}}, {"name": "5e02bb199a46fc95e17b070c81a5d891", "fusion_lat": 0.0, "type": "electric_scooter", "lat": 38.902704, "is_reserved": 0, "is_disabled": 0, "fusion_lon": 0.0, "bike_id": "5e02bb199a46fc95e17b070c81a5d891", "lon": -77.040512, "rental_uris": {"ios": "https://dc.lft.to/lastmile_qr_scan", "android": "https://dc.lft.to/lastmile_qr_scan"}}, {"name": "7f7b918e781751dd8c2350a97b873fc5", "fusion_lat": 0.0, "type": "electric_bike", "lat": 38.8788185, "is_reserved": 0, "is_disabled": 0, "fusion_lon": 0.0, "bike_id": "7f7b918e781751dd8c2350a97b873fc5", "lon": -77.02296383333334, "rental_uris": {"ios": "https://dc.lft.to/lastmile_qr_scan", "android": "https://dc.lft.to/lastmile_qr_scan"}}, {"name": "e4e4ac85465768cd9101055609b38048", "fusion_lat": 0.0, "type": "electric_scooter", "lat": 38.91574883333333, "is_reserved": 0, "is_disabled": 0, "fusion_lon": 0.0, "bike_id": "e4e4ac85465768cd9101055609b38048", "lon": -77.03189866666666, "rental_uris": {"ios": "https://dc.lft.to/lastmile_qr_scan", "android": "https://dc.lft.to/lastmile_qr_scan"}}, {"name": "4c88c697e1ddb2f933f2cddebf43d27f", "fusion_lat": 0.0, "type": "electric_scooter", "lat": 38.8777895, "is_reserved": 0, "is_disabled": 0, "fusion_lon": 0.0, "bike_id": "4c88c697e1ddb2f933f2cddebf43d27f", "lon": -76.994097, "rental_uris": {"ios": "https://dc.lft.to/lastmile_qr_scan", "android": "https://dc.lft.to/lastmile_qr_scan"}}, {"name": "966b01b3877632f75a22dc0248c8c361", "fusion_lat": 0.0, "type": "electric_scooter", "lat": 38.90494666666667, "is_reserved": 0, "is_disabled": 0, "fusion_lon": 0.0, "bike_id": "966b01b3877632f75a22dc0248c8c361", "lon": -77.04651383333334, "rental_uris": {"ios": "https://dc.lft.to/lastmile_qr_scan", "android": "https://dc.lft.to/lastmile_qr_scan"}}, {"name": "3831b0ac8a465d61b5cd363d075ca38c", "fusion_lat": 0.0, "type": "electric_scooter", "lat": 38.89216533333333, "is_reserved": 0, "is_disabled": 0, "fusion_lon": 0.0, "bike_id": "3831b0ac8a465d61b5cd363d075ca38c", "lon": -77.03096066666667, "rental_uris": {"ios": "https://dc.lft.to/lastmile_qr_scan", "android": "https://dc.lft.to/lastmile_qr_scan"}}, {"name": "275f0184ce189722f1fa9955e448267e", "fusion_lat": 0.0, "type": "electric_scooter", "lat": 38.90239916666667, "is_reserved": 0, "is_disabled": 0, "fusion_lon": 0.0, "bike_id": "275f0184ce189722f1fa9955e448267e", "lon": -77.04485983333333, "rental_uris": {"ios": "https://dc.lft.to/lastmile_qr_scan", "android": "https://dc.lft.to/lastmile_qr_scan"}}, {"name": "21da2fd55d6147407221087cf18802da", "fusion_lat": 0.0, "type": "electric_scooter", "lat": 38.899890166666665, "is_reserved": 0, "is_disabled": 0, "fusion_lon": 0.0, "bike_id": "21da2fd55d6147407221087cf18802da", "lon": -77.0294245, "rental_uris": {"ios": "https://dc.lft.to/lastmile_qr_scan", "android": "https://dc.lft.to/lastmile_qr_scan"}}, {"name": "076618aeb51de5e9f45929868bbeb7a9", "fusion_lat": 0.0, "type": "electric_scooter", "lat": 38.8607155, "is_reserved": 0, "is_disabled": 0, "fusion_lon": 0.0, "bike_id": "076618aeb51de5e9f45929868bbeb7a9", "lon": -76.96739333333333, "rental_uris": {"ios": "https://dc.lft.to/lastmile_qr_scan", "android": "https://dc.lft.to/lastmile_qr_scan"}}, {"name": "cf1b021a0511f67411880c27729390d2", "fusion_lat": 0.0, "type": "electric_bike", "lat": 38.908995, "is_reserved": 0, "is_disabled": 0, "fusion_lon": 0.0, "bike_id": "cf1b021a0511f67411880c27729390d2", "lon": -77.072719, "rental_uris": {"ios": "https://dc.lft.to/lastmile_qr_scan", "android": "https://dc.lft.to/lastmile_qr_scan"}}, {"name": "fc43a280f75354cfaf7628230c0eb064", "fusion_lat": 0.0, "type": "electric_scooter", "lat": 38.94801283333334, "is_reserved": 0, "is_disabled": 0, "fusion_lon": 0.0, "bike_id": "fc43a280f75354cfaf7628230c0eb064", "lon": -77.0791035, "rental_uris": {"ios": "https://dc.lft.to/lastmile_qr_scan", "android": "https://dc.lft.to/lastmile_qr_scan"}}, {"name": "52f57afb838f18089f41a4309ba162ae", "fusion_lat": 0.0, "type": "electric_bike", "lat": 38.89969133333334, "is_reserved": 0, "is_disabled": 0, "fusion_lon": 0.0, "bike_id": "52f57afb838f18089f41a4309ba162ae", "lon": -77.047168, "rental_uris": {"ios": "https://dc.lft.to/lastmile_qr_scan", "android": "https://dc.lft.to/lastmile_qr_scan"}}, {"name": "894c2a755121e52f54926d76139f8f80", "fusion_lat": 0.0, "type": "electric_scooter", "lat": 38.92132516666667, "is_reserved": 0, "is_disabled": 0, "fusion_lon": 0.0, "bike_id": "894c2a755121e52f54926d76139f8f80", "lon": -77.039005, "rental_uris": {"ios": "https://dc.lft.to/lastmile_qr_scan", "android": "https://dc.lft.to/lastmile_qr_scan"}}, {"name": "02264d394b004996227ad68939169b4a", "fusion_lat": 0.0, "type": "electric_scooter", "lat": 38.919405, "is_reserved": 0, "is_disabled": 0, "fusion_lon": 0.0, "bike_id": "02264d394b004996227ad68939169b4a", "lon": -77.04547816666667, "rental_uris": {"ios": "https://dc.lft.to/lastmile_qr_scan", "android": "https://dc.lft.to/lastmile_qr_scan"}}, {"name": "7f0feaccb0f93d0553cb16a82ca65e7d", "fusion_lat": 0.0, "type": "electric_scooter", "lat": 38.933559333333335, "is_reserved": 0, "is_disabled": 0, "fusion_lon": 0.0, "bike_id": "7f0feaccb0f93d0553cb16a82ca65e7d", "lon": -77.03448733333333, "rental_uris": {"ios": "https://dc.lft.to/lastmile_qr_scan", "android": "https://dc.lft.to/lastmile_qr_scan"}}, {"name": "da1f336facfe6a00fda8ed63a3b0a284", "fusion_lat": 0.0, "type": "electric_scooter", "lat": 38.92160766666667, "is_reserved": 0, "is_disabled": 0, "fusion_lon": 0.0, "bike_id": "da1f336facfe6a00fda8ed63a3b0a284", "lon": -77.04220483333333, "rental_uris": {"ios": "https://dc.lft.to/lastmile_qr_scan", "android": "https://dc.lft.to/lastmile_qr_scan"}}, {"name": "d335f5816e891f36125f1c14771dc038", "fusion_lat": 0.0, "type": "electric_bike", "lat": 38.83823666666667, "is_reserved": 0, "is_disabled": 0, "fusion_lon": 0.0, "bike_id": "d335f5816e891f36125f1c14771dc038", "lon": -76.9968175, "rental_uris": {"ios": "https://dc.lft.to/lastmile_qr_scan", "android": "https://dc.lft.to/lastmile_qr_scan"}}, {"name": "d0ef952a4f91803945ccb55daaa9c1a5", "fusion_lat": 0.0, "type": "electric_scooter", "lat": 38.911078333333336, "is_reserved": 0, "is_disabled": 0, "fusion_lon": 0.0, "bike_id": "d0ef952a4f91803945ccb55daaa9c1a5", "lon": -77.03145183333334, "rental_uris": {"ios": "https://dc.lft.to/lastmile_qr_scan", "android": "https://dc.lft.to/lastmile_qr_scan"}}, {"name": "ac7a44238500f2ccc24a272876aea2c6", "fusion_lat": 0.0, "type": "electric_scooter", "lat": 38.9002755, "is_reserved": 0, "is_disabled": 0, "fusion_lon": 0.0, "bike_id": "ac7a44238500f2ccc24a272876aea2c6", "lon": -77.00201516666667, "rental_uris": {"ios": "https://dc.lft.to/lastmile_qr_scan", "android": "https://dc.lft.to/lastmile_qr_scan"}}, {"name": "2862477631a5acece5c5581a8320dab5", "fusion_lat": 0.0, "type": "electric_scooter", "lat": 38.85846566666667, "is_reserved": 0, "is_disabled": 0, "fusion_lon": 0.0, "bike_id": "2862477631a5acece5c5581a8320dab5", "lon": -76.95882433333334, "rental_uris": {"ios": "https://dc.lft.to/lastmile_qr_scan", "android": "https://dc.lft.to/lastmile_qr_scan"}}, {"name": "7616a20fde19fce9df5adba638b9022c", "fusion_lat": 0.0, "type": "electric_scooter", "lat": 38.932877500000004, "is_reserved": 0, "is_disabled": 0, "fusion_lon": 0.0, "bike_id": "7616a20fde19fce9df5adba638b9022c", "lon": -77.03981633333333, "rental_uris": {"ios": "https://dc.lft.to/lastmile_qr_scan", "android": "https://dc.lft.to/lastmile_qr_scan"}}, {"name": "5c742ba8e0cb9904241f79d7e21f0e46", "fusion_lat": 0.0, "type": "electric_scooter", "lat": 38.88679416666667, "is_reserved": 0, "is_disabled": 0, "fusion_lon": 0.0, "bike_id": "5c742ba8e0cb9904241f79d7e21f0e46", "lon": -76.95757916666666, "rental_uris": {"ios": "https://dc.lft.to/lastmile_qr_scan", "android": "https://dc.lft.to/lastmile_qr_scan"}}, {"name": "76e5bf62a4300dc465f4af8cd981e7e0", "fusion_lat": 0.0, "type": "electric_bike", "lat": 38.94227266666667, "is_reserved": 0, "is_disabled": 0, "fusion_lon": 0.0, "bike_id": "76e5bf62a4300dc465f4af8cd981e7e0", "lon": -77.01386966666666, "rental_uris": {"ios": "https://dc.lft.to/lastmile_qr_scan", "android": "https://dc.lft.to/lastmile_qr_scan"}}, {"name": "2f81230ba1faf4ee166bd94e21aedb21", "fusion_lat": 0.0, "type": "electric_scooter", "lat": 38.907792, "is_reserved": 0, "is_disabled": 0, "fusion_lon": 0.0, "bike_id": "2f81230ba1faf4ee166bd94e21aedb21", "lon": -77.07167916666667, "rental_uris": {"ios": "https://dc.lft.to/lastmile_qr_scan", "android": "https://dc.lft.to/lastmile_qr_scan"}}, {"name": "b971e13b7c17b034ab2a14a579ee8595", "fusion_lat": 0.0, "type": "electric_scooter", "lat": 38.917786166666666, "is_reserved": 0, "is_disabled": 0, "fusion_lon": 0.0, "bike_id": "b971e13b7c17b034ab2a14a579ee8595", "lon": -77.0236935, "rental_uris": {"ios": "https://dc.lft.to/lastmile_qr_scan", "android": "https://dc.lft.to/lastmile_qr_scan"}}, {"name": "ceae0958c85e05745e7081848fe8e59d", "fusion_lat": 0.0, "type": "electric_scooter", "lat": 38.89451966666667, "is_reserved": 0, "is_disabled": 0, "fusion_lon": 0.0, "bike_id": "ceae0958c85e05745e7081848fe8e59d", "lon": -77.0191805, "rental_uris": {"ios": "https://dc.lft.to/lastmile_qr_scan", "android": "https://dc.lft.to/lastmile_qr_scan"}}, {"name": "059db7e2dce1222576612081b2b4a68f", "fusion_lat": 0.0, "type": "electric_scooter", "lat": 38.93783116666667, "is_reserved": 0, "is_disabled": 0, "fusion_lon": 0.0, "bike_id": "059db7e2dce1222576612081b2b4a68f", "lon": -77.059911, "rental_uris": {"ios": "https://dc.lft.to/lastmile_qr_scan", "android": "https://dc.lft.to/lastmile_qr_scan"}}, {"name": "1fde1a8d0de98a16e4e3d1c763288563", "fusion_lat": 0.0, "type": "electric_scooter", "lat": 38.89739466666666, "is_reserved": 0, "is_disabled": 0, "fusion_lon": 0.0, "bike_id": "1fde1a8d0de98a16e4e3d1c763288563", "lon": -76.938494, "rental_uris": {"ios": "https://dc.lft.to/lastmile_qr_scan", "android": "https://dc.lft.to/lastmile_qr_scan"}}, {"name": "cb67bdad7c2f176cc579d33f0ab1e8bc", "fusion_lat": 0.0, "type": "electric_scooter", "lat": 38.89481033333333, "is_reserved": 0, "is_disabled": 0, "fusion_lon": 0.0, "bike_id": "cb67bdad7c2f176cc579d33f0ab1e8bc", "lon": -76.99515966666667, "rental_uris": {"ios": "https://dc.lft.to/lastmile_qr_scan", "android": "https://dc.lft.to/lastmile_qr_scan"}}, {"name": "f009cd85c9143a061ec2c1372ebf90fe", "fusion_lat": 0.0, "type": "electric_scooter", "lat": 38.8874135, "is_reserved": 0, "is_disabled": 0, "fusion_lon": 0.0, "bike_id": "f009cd85c9143a061ec2c1372ebf90fe", "lon": -77.028443, "rental_uris": {"ios": "https://dc.lft.to/lastmile_qr_scan", "android": "https://dc.lft.to/lastmile_qr_scan"}}, {"name": "4f42b48a63da84fb685434f449858c70", "fusion_lat": 0.0, "type": "electric_bike", "lat": 38.91855666666667, "is_reserved": 0, "is_disabled": 0, "fusion_lon": 0.0, "bike_id": "4f42b48a63da84fb685434f449858c70", "lon": -76.960917, "rental_uris": {"ios": "https://dc.lft.to/lastmile_qr_scan", "android": "https://dc.lft.to/lastmile_qr_scan"}}, {"name": "75e437ff6586240d979945f21b2f5360", "fusion_lat": 0.0, "type": "electric_scooter", "lat": 38.92046283333333, "is_reserved": 0, "is_disabled": 0, "fusion_lon": 0.0, "bike_id": "75e437ff6586240d979945f21b2f5360", "lon": -77.034718, "rental_uris": {"ios": "https://dc.lft.to/lastmile_qr_scan", "android": "https://dc.lft.to/lastmile_qr_scan"}}, {"name": "50e16dc7449f69718f38bd894babb4f3", "fusion_lat": 0.0, "type": "electric_bike", "lat": 38.82446216666666, "is_reserved": 0, "is_disabled": 0, "fusion_lon": 0.0, "bike_id": "50e16dc7449f69718f38bd894babb4f3", "lon": -77.07039733333333, "rental_uris": {"ios": "https://dc.lft.to/lastmile_qr_scan", "android": "https://dc.lft.to/lastmile_qr_scan"}}, {"name": "023ab95a96feb30130e5af8b9fe09147", "fusion_lat": 0.0, "type": "electric_scooter", "lat": 38.90270116666667, "is_reserved": 0, "is_disabled": 0, "fusion_lon": 0.0, "bike_id": "023ab95a96feb30130e5af8b9fe09147", "lon": -77.030338, "rental_uris": {"ios": "https://dc.lft.to/lastmile_qr_scan", "android": "https://dc.lft.to/lastmile_qr_scan"}}, {"name": "7f91cd9801d652d7560b32c73f853129", "fusion_lat": 0.0, "type": "electric_bike", "lat": 38.92642216666667, "is_reserved": 0, "is_disabled": 0, "fusion_lon": 0.0, "bike_id": "7f91cd9801d652d7560b32c73f853129", "lon": -77.0283875, "rental_uris": {"ios": "https://dc.lft.to/lastmile_qr_scan", "android": "https://dc.lft.to/lastmile_qr_scan"}}, {"name": "4bc5d5ea997baf0b64f7b64c5a1d9166", "fusion_lat": 0.0, "type": "electric_scooter", "lat": 38.9029875, "is_reserved": 0, "is_disabled": 0, "fusion_lon": 0.0, "bike_id": "4bc5d5ea997baf0b64f7b64c5a1d9166", "lon": -77.04338016666667, "rental_uris": {"ios": "https://dc.lft.to/lastmile_qr_scan", "android": "https://dc.lft.to/lastmile_qr_scan"}}, {"name": "99e87e43863589a040994a0d79034253", "fusion_lat": 0.0, "type": "electric_scooter", "lat": 38.92088966666667, "is_reserved": 0, "is_disabled": 0, "fusion_lon": 0.0, "bike_id": "99e87e43863589a040994a0d79034253", "lon": -77.02232766666667, "rental_uris": {"ios": "https://dc.lft.to/lastmile_qr_scan", "android": "https://dc.lft.to/lastmile_qr_scan"}}, {"name": "cfa0621cc4fb6a8a9d03c6a596e1e3be", "fusion_lat": 0.0, "type": "electric_scooter", "lat": 38.896285166666665, "is_reserved": 0, "is_disabled": 0, "fusion_lon": 0.0, "bike_id": "cfa0621cc4fb6a8a9d03c6a596e1e3be", "lon": -77.0295495, "rental_uris": {"ios": "https://dc.lft.to/lastmile_qr_scan", "android": "https://dc.lft.to/lastmile_qr_scan"}}, {"name": "3beca6c2480aa737e78cde694a2ec5dd", "fusion_lat": 0.0, "type": "electric_scooter", "lat": 38.92312883333334, "is_reserved": 0, "is_disabled": 0, "fusion_lon": 0.0, "bike_id": "3beca6c2480aa737e78cde694a2ec5dd", "lon": -77.0297105, "rental_uris": {"ios": "https://dc.lft.to/lastmile_qr_scan", "android": "https://dc.lft.to/lastmile_qr_scan"}}, {"name": "9b6045be8006b32bc0aa116fc8bb631e", "fusion_lat": 0.0, "type": "electric_scooter", "lat": 38.917224, "is_reserved": 0, "is_disabled": 0, "fusion_lon": 0.0, "bike_id": "9b6045be8006b32bc0aa116fc8bb631e", "lon": -77.038375, "rental_uris": {"ios": "https://dc.lft.to/lastmile_qr_scan", "android": "https://dc.lft.to/lastmile_qr_scan"}}, {"name": "390bf0aee4a4d7ad8dad550b320e426b", "fusion_lat": 0.0, "type": "electric_scooter", "lat": 38.899175166666666, "is_reserved": 0, "is_disabled": 0, "fusion_lon": 0.0, "bike_id": "390bf0aee4a4d7ad8dad550b320e426b", "lon": -76.93384966666666, "rental_uris": {"ios": "https://dc.lft.to/lastmile_qr_scan", "android": "https://dc.lft.to/lastmile_qr_scan"}}, {"name": "00af3e65b46861de9b2976440f374c58", "fusion_lat": 0.0, "type": "electric_scooter", "lat": 38.9417325, "is_reserved": 0, "is_disabled": 0, "fusion_lon": 0.0, "bike_id": "00af3e65b46861de9b2976440f374c58", "lon": -77.04128516666667, "rental_uris": {"ios": "https://dc.lft.to/lastmile_qr_scan", "android": "https://dc.lft.to/lastmile_qr_scan"}}, {"name": "d7080bed240d1f8c9adeaa5e372ee245", "fusion_lat": 0.0, "type": "electric_scooter", "lat": 38.90272683333333, "is_reserved": 0, "is_disabled": 0, "fusion_lon": 0.0, "bike_id": "d7080bed240d1f8c9adeaa5e372ee245", "lon": -77.03435066666667, "rental_uris": {"ios": "https://dc.lft.to/lastmile_qr_scan", "android": "https://dc.lft.to/lastmile_qr_scan"}}, {"name": "3ee8dbe8770e5c611d2e4d45a970797e", "fusion_lat": 0.0, "type": "electric_scooter", "lat": 38.87419933333334, "is_reserved": 0, "is_disabled": 0, "fusion_lon": 0.0, "bike_id": "3ee8dbe8770e5c611d2e4d45a970797e", "lon": -76.971801, "rental_uris": {"ios": "https://dc.lft.to/lastmile_qr_scan", "android": "https://dc.lft.to/lastmile_qr_scan"}}, {"name": "490ea483ba65c571c767c73df917d3df", "fusion_lat": 0.0, "type": "electric_scooter", "lat": 38.89875283333333, "is_reserved": 0, "is_disabled": 0, "fusion_lon": 0.0, "bike_id": "490ea483ba65c571c767c73df917d3df", "lon": -76.931602, "rental_uris": {"ios": "https://dc.lft.to/lastmile_qr_scan", "android": "https://dc.lft.to/lastmile_qr_scan"}}, {"name": "6ae310e5e88e7d74825ea947b60cf7c2", "fusion_lat": 0.0, "type": "electric_bike", "lat": 38.8638675, "is_reserved": 0, "is_disabled": 0, "fusion_lon": 0.0, "bike_id": "6ae310e5e88e7d74825ea947b60cf7c2", "lon": -76.98993366666667, "rental_uris": {"ios": "https://dc.lft.to/lastmile_qr_scan", "android": "https://dc.lft.to/lastmile_qr_scan"}}, {"name": "e08266b480542023f32e07c0be237b81", "fusion_lat": 0.0, "type": "electric_scooter", "lat": 38.900258666666666, "is_reserved": 0, "is_disabled": 0, "fusion_lon": 0.0, "bike_id": "e08266b480542023f32e07c0be237b81", "lon": -77.01183866666666, "rental_uris": {"ios": "https://dc.lft.to/lastmile_qr_scan", "android": "https://dc.lft.to/lastmile_qr_scan"}}, {"name": "86e6cdb87f1270eb58334e3fc25ba835", "fusion_lat": 0.0, "type": "electric_scooter", "lat": 38.91841216666667, "is_reserved": 0, "is_disabled": 0, "fusion_lon": 0.0, "bike_id": "86e6cdb87f1270eb58334e3fc25ba835", "lon": -77.0259985, "rental_uris": {"ios": "https://dc.lft.to/lastmile_qr_scan", "android": "https://dc.lft.to/lastmile_qr_scan"}}, {"name": "78f38367a63469f5c3aeaf53d8d261bc", "fusion_lat": 0.0, "type": "electric_scooter", "lat": 38.836039666666665, "is_reserved": 0, "is_disabled": 0, "fusion_lon": 0.0, "bike_id": "78f38367a63469f5c3aeaf53d8d261bc", "lon": -76.99355716666666, "rental_uris": {"ios": "https://dc.lft.to/lastmile_qr_scan", "android": "https://dc.lft.to/lastmile_qr_scan"}}, {"name": "8646c0c488c40aeeaab63d39ee79b877", "fusion_lat": 0.0, "type": "electric_scooter", "lat": 38.9011515, "is_reserved": 0, "is_disabled": 0, "fusion_lon": 0.0, "bike_id": "8646c0c488c40aeeaab63d39ee79b877", "lon": -77.04994183333334, "rental_uris": {"ios": "https://dc.lft.to/lastmile_qr_scan", "android": "https://dc.lft.to/lastmile_qr_scan"}}, {"name": "3f85469a36f1b116936e63f998891fe2", "fusion_lat": 0.0, "type": "electric_scooter", "lat": 38.903354, "is_reserved": 0, "is_disabled": 0, "fusion_lon": 0.0, "bike_id": "3f85469a36f1b116936e63f998891fe2", "lon": -77.066474, "rental_uris": {"ios": "https://dc.lft.to/lastmile_qr_scan", "android": "https://dc.lft.to/lastmile_qr_scan"}}, {"name": "1dcf67664d0508635672d6d1321ffd73", "fusion_lat": 0.0, "type": "electric_bike", "lat": 38.948974166666666, "is_reserved": 0, "is_disabled": 0, "fusion_lon": 0.0, "bike_id": "1dcf67664d0508635672d6d1321ffd73", "lon": -76.96372433333333, "rental_uris": {"ios": "https://dc.lft.to/lastmile_qr_scan", "android": "https://dc.lft.to/lastmile_qr_scan"}}, {"name": "ae8881105f169cd02b18639477cb8c1d", "fusion_lat": 0.0, "type": "electric_scooter", "lat": 38.901247166666664, "is_reserved": 0, "is_disabled": 0, "fusion_lon": 0.0, "bike_id": "ae8881105f169cd02b18639477cb8c1d", "lon": -77.03962333333334, "rental_uris": {"ios": "https://dc.lft.to/lastmile_qr_scan", "android": "https://dc.lft.to/lastmile_qr_scan"}}, {"name": "de5f062aa021b11f6f710285b7efc106", "fusion_lat": 0.0, "type": "electric_scooter", "lat": 38.90369583333333, "is_reserved": 0, "is_disabled": 0, "fusion_lon": 0.0, "bike_id": "de5f062aa021b11f6f710285b7efc106", "lon": -77.01103483333333, "rental_uris": {"ios": "https://dc.lft.to/lastmile_qr_scan", "android": "https://dc.lft.to/lastmile_qr_scan"}}, {"name": "665e64e673c92f355ad413b9c5b7e9f7", "fusion_lat": 0.0, "type": "electric_scooter", "lat": 38.9290045, "is_reserved": 0, "is_disabled": 0, "fusion_lon": 0.0, "bike_id": "665e64e673c92f355ad413b9c5b7e9f7", "lon": -77.054526, "rental_uris": {"ios": "https://dc.lft.to/lastmile_qr_scan", "android": "https://dc.lft.to/lastmile_qr_scan"}}, {"name": "cba2a55e217bd6d8de04d002ada194ed", "fusion_lat": 0.0, "type": "electric_bike", "lat": 38.943747333333334, "is_reserved": 0, "is_disabled": 0, "fusion_lon": 0.0, "bike_id": "cba2a55e217bd6d8de04d002ada194ed", "lon": -77.07744733333334, "rental_uris": {"ios": "https://dc.lft.to/lastmile_qr_scan", "android": "https://dc.lft.to/lastmile_qr_scan"}}, {"name": "21c3ba8a988c5e688c651b1374285bd5", "fusion_lat": 0.0, "type": "electric_scooter", "lat": 38.9225205, "is_reserved": 0, "is_disabled": 0, "fusion_lon": 0.0, "bike_id": "21c3ba8a988c5e688c651b1374285bd5", "lon": -77.01950666666667, "rental_uris": {"ios": "https://dc.lft.to/lastmile_qr_scan", "android": "https://dc.lft.to/lastmile_qr_scan"}}, {"name": "eee473a2ec1748a76de90cf1f4c6793f", "fusion_lat": 0.0, "type": "electric_bike", "lat": 38.998237833333334, "is_reserved": 0, "is_disabled": 0, "fusion_lon": 0.0, "bike_id": "eee473a2ec1748a76de90cf1f4c6793f", "lon": -76.88364583333333, "rental_uris": {"ios": "https://dc.lft.to/lastmile_qr_scan", "android": "https://dc.lft.to/lastmile_qr_scan"}}, {"name": "3f260ee82186972fccc19e9c77793edc", "fusion_lat": 0.0, "type": "electric_scooter", "lat": 38.961118666666664, "is_reserved": 0, "is_disabled": 0, "fusion_lon": 0.0, "bike_id": "3f260ee82186972fccc19e9c77793edc", "lon": -77.028131, "rental_uris": {"ios": "https://dc.lft.to/lastmile_qr_scan", "android": "https://dc.lft.to/lastmile_qr_scan"}}, {"name": "29a92d706d0eb5195f23fdb036484db4", "fusion_lat": 0.0, "type": "electric_scooter", "lat": 38.911882166666665, "is_reserved": 0, "is_disabled": 0, "fusion_lon": 0.0, "bike_id": "29a92d706d0eb5195f23fdb036484db4", "lon": -76.99619966666667, "rental_uris": {"ios": "https://dc.lft.to/lastmile_qr_scan", "android": "https://dc.lft.to/lastmile_qr_scan"}}, {"name": "e69225e226c9082de4bc93e2669b7393", "fusion_lat": 0.0, "type": "electric_scooter", "lat": 38.898335333333335, "is_reserved": 0, "is_disabled": 0, "fusion_lon": 0.0, "bike_id": "e69225e226c9082de4bc93e2669b7393", "lon": -76.94643316666667, "rental_uris": {"ios": "https://dc.lft.to/lastmile_qr_scan", "android": "https://dc.lft.to/lastmile_qr_scan"}}, {"name": "91c758ad5c75e5264276ed4894db260d", "fusion_lat": 0.0, "type": "electric_scooter", "lat": 38.884903, "is_reserved": 0, "is_disabled": 0, "fusion_lon": 0.0, "bike_id": "91c758ad5c75e5264276ed4894db260d", "lon": -77.00728883333333, "rental_uris": {"ios": "https://dc.lft.to/lastmile_qr_scan", "android": "https://dc.lft.to/lastmile_qr_scan"}}, {"name": "f088e0f68a56016d841fff5670569b49", "fusion_lat": 0.0, "type": "electric_scooter", "lat": 38.9160685, "is_reserved": 0, "is_disabled": 0, "fusion_lon": 0.0, "bike_id": "f088e0f68a56016d841fff5670569b49", "lon": -77.02301783333333, "rental_uris": {"ios": "https://dc.lft.to/lastmile_qr_scan", "android": "https://dc.lft.to/lastmile_qr_scan"}}, {"name": "89f267c64f88608ac1a87fe5fd11758b", "fusion_lat": 0.0, "type": "electric_scooter", "lat": 38.88740833333333, "is_reserved": 0, "is_disabled": 0, "fusion_lon": 0.0, "bike_id": "89f267c64f88608ac1a87fe5fd11758b", "lon": -77.0256895, "rental_uris": {"ios": "https://dc.lft.to/lastmile_qr_scan", "android": "https://dc.lft.to/lastmile_qr_scan"}}, {"name": "7a0e28b4bf6848f34ba0d8d8a6d50425", "fusion_lat": 0.0, "type": "electric_scooter", "lat": 38.92316666666667, "is_reserved": 0, "is_disabled": 0, "fusion_lon": 0.0, "bike_id": "7a0e28b4bf6848f34ba0d8d8a6d50425", "lon": -77.04515133333334, "rental_uris": {"ios": "https://dc.lft.to/lastmile_qr_scan", "android": "https://dc.lft.to/lastmile_qr_scan"}}, {"name": "495ba772c3d170e7cb94868a0a064c0e", "fusion_lat": 0.0, "type": "electric_scooter", "lat": 38.91783616666667, "is_reserved": 0, "is_disabled": 0, "fusion_lon": 0.0, "bike_id": "495ba772c3d170e7cb94868a0a064c0e", "lon": -77.02363416666667, "rental_uris": {"ios": "https://dc.lft.to/lastmile_qr_scan", "android": "https://dc.lft.to/lastmile_qr_scan"}}, {"name": "e18d110c8bcc3433ec5dd1774cd30bb9", "fusion_lat": 0.0, "type": "electric_scooter", "lat": 38.9171695, "is_reserved": 0, "is_disabled": 0, "fusion_lon": 0.0, "bike_id": "e18d110c8bcc3433ec5dd1774cd30bb9", "lon": -77.0439915, "rental_uris": {"ios": "https://dc.lft.to/lastmile_qr_scan", "android": "https://dc.lft.to/lastmile_qr_scan"}}, {"name": "458a096b11ef4377540548e54f5021a9", "fusion_lat": 0.0, "type": "electric_scooter", "lat": 38.92688, "is_reserved": 0, "is_disabled": 0, "fusion_lon": 0.0, "bike_id": "458a096b11ef4377540548e54f5021a9", "lon": -77.03773116666666, "rental_uris": {"ios": "https://dc.lft.to/lastmile_qr_scan", "android": "https://dc.lft.to/lastmile_qr_scan"}}, {"name": "354fb5f4063906429fd184b8f1b56d74", "fusion_lat": 0.0, "type": "electric_scooter", "lat": 38.86218783333333, "is_reserved": 0, "is_disabled": 0, "fusion_lon": 0.0, "bike_id": "354fb5f4063906429fd184b8f1b56d74", "lon": -76.99491316666666, "rental_uris": {"ios": "https://dc.lft.to/lastmile_qr_scan", "android": "https://dc.lft.to/lastmile_qr_scan"}}, {"name": "f9cefdd412f38d9d72af99a93eb92c8d", "fusion_lat": 0.0, "type": "electric_scooter", "lat": 38.90503783333333, "is_reserved": 0, "is_disabled": 0, "fusion_lon": 0.0, "bike_id": "f9cefdd412f38d9d72af99a93eb92c8d", "lon": -77.04487783333333, "rental_uris": {"ios": "https://dc.lft.to/lastmile_qr_scan", "android": "https://dc.lft.to/lastmile_qr_scan"}}, {"name": "7f844a6eca006c209917db9a05686154", "fusion_lat": 0.0, "type": "electric_scooter", "lat": 38.93255883333333, "is_reserved": 0, "is_disabled": 0, "fusion_lon": 0.0, "bike_id": "7f844a6eca006c209917db9a05686154", "lon": -77.03998166666666, "rental_uris": {"ios": "https://dc.lft.to/lastmile_qr_scan", "android": "https://dc.lft.to/lastmile_qr_scan"}}, {"name": "def7974d28ce8e28db3efdc1d5200b9e", "fusion_lat": 0.0, "type": "electric_scooter", "lat": 38.904722, "is_reserved": 0, "is_disabled": 0, "fusion_lon": 0.0, "bike_id": "def7974d28ce8e28db3efdc1d5200b9e", "lon": -77.0356015, "rental_uris": {"ios": "https://dc.lft.to/lastmile_qr_scan", "android": "https://dc.lft.to/lastmile_qr_scan"}}, {"name": "4b655ca3055ffb8be4d8b91b1d54489f", "fusion_lat": 0.0, "type": "electric_scooter", "lat": 38.9169375, "is_reserved": 0, "is_disabled": 0, "fusion_lon": 0.0, "bike_id": "4b655ca3055ffb8be4d8b91b1d54489f", "lon": -77.024619, "rental_uris": {"ios": "https://dc.lft.to/lastmile_qr_scan", "android": "https://dc.lft.to/lastmile_qr_scan"}}, {"name": "215cb28b07bc2c30047c800bc4260008", "fusion_lat": 0.0, "type": "electric_scooter", "lat": 38.902843833333336, "is_reserved": 0, "is_disabled": 0, "fusion_lon": 0.0, "bike_id": "215cb28b07bc2c30047c800bc4260008", "lon": -77.03640566666667, "rental_uris": {"ios": "https://dc.lft.to/lastmile_qr_scan", "android": "https://dc.lft.to/lastmile_qr_scan"}}, {"name": "86af81152e336b0a3bea56181bb74a2a", "fusion_lat": 0.0, "type": "electric_scooter", "lat": 38.905514333333336, "is_reserved": 0, "is_disabled": 0, "fusion_lon": 0.0, "bike_id": "86af81152e336b0a3bea56181bb74a2a", "lon": -77.0443675, "rental_uris": {"ios": "https://dc.lft.to/lastmile_qr_scan", "android": "https://dc.lft.to/lastmile_qr_scan"}}, {"name": "8593266e9383f53017520dbe275c8cee", "fusion_lat": 0.0, "type": "electric_bike", "lat": 38.87084016666667, "is_reserved": 0, "is_disabled": 0, "fusion_lon": 0.0, "bike_id": "8593266e9383f53017520dbe275c8cee", "lon": -77.012115, "rental_uris": {"ios": "https://dc.lft.to/lastmile_qr_scan", "android": "https://dc.lft.to/lastmile_qr_scan"}}, {"name": "3012d0bd139ff6c72531def904a5a1eb", "fusion_lat": 0.0, "type": "electric_scooter", "lat": 38.89802983333333, "is_reserved": 0, "is_disabled": 0, "fusion_lon": 0.0, "bike_id": "3012d0bd139ff6c72531def904a5a1eb", "lon": -76.9949535, "rental_uris": {"ios": "https://dc.lft.to/lastmile_qr_scan", "android": "https://dc.lft.to/lastmile_qr_scan"}}, {"name": "9d91ba1131576b58d1b9f2e1131772ab", "fusion_lat": 0.0, "type": "electric_scooter", "lat": 38.903455666666666, "is_reserved": 0, "is_disabled": 0, "fusion_lon": 0.0, "bike_id": "9d91ba1131576b58d1b9f2e1131772ab", "lon": -77.03823866666667, "rental_uris": {"ios": "https://dc.lft.to/lastmile_qr_scan", "android": "https://dc.lft.to/lastmile_qr_scan"}}, {"name": "41b46730892c623173e4b32fb244bf46", "fusion_lat": 0.0, "type": "electric_scooter", "lat": 38.9067605, "is_reserved": 0, "is_disabled": 0, "fusion_lon": 0.0, "bike_id": "41b46730892c623173e4b32fb244bf46", "lon": -77.0383255, "rental_uris": {"ios": "https://dc.lft.to/lastmile_qr_scan", "android": "https://dc.lft.to/lastmile_qr_scan"}}, {"name": "9e893ed5c8f0cc15d6e29e8d11dc8fb1", "fusion_lat": 0.0, "type": "electric_scooter", "lat": 38.92342166666667, "is_reserved": 0, "is_disabled": 0, "fusion_lon": 0.0, "bike_id": "9e893ed5c8f0cc15d6e29e8d11dc8fb1", "lon": -77.05096733333333, "rental_uris": {"ios": "https://dc.lft.to/lastmile_qr_scan", "android": "https://dc.lft.to/lastmile_qr_scan"}}, {"name": "c9114a0565bb5026ba3c6e6c661f777b", "fusion_lat": 0.0, "type": "electric_scooter", "lat": 38.905683833333335, "is_reserved": 0, "is_disabled": 0, "fusion_lon": 0.0, "bike_id": "c9114a0565bb5026ba3c6e6c661f777b", "lon": -77.02211283333334, "rental_uris": {"ios": "https://dc.lft.to/lastmile_qr_scan", "android": "https://dc.lft.to/lastmile_qr_scan"}}, {"name": "8819ad5d350ff21c63c7c8fdae15f9a6", "fusion_lat": 0.0, "type": "electric_bike", "lat": 38.910348, "is_reserved": 0, "is_disabled": 0, "fusion_lon": 0.0, "bike_id": "8819ad5d350ff21c63c7c8fdae15f9a6", "lon": -77.03435333333333, "rental_uris": {"ios": "https://dc.lft.to/lastmile_qr_scan", "android": "https://dc.lft.to/lastmile_qr_scan"}}, {"name": "545e4a488f7591e8a8d5979371398941", "fusion_lat": 0.0, "type": "electric_scooter", "lat": 38.896395, "is_reserved": 0, "is_disabled": 0, "fusion_lon": 0.0, "bike_id": "545e4a488f7591e8a8d5979371398941", "lon": -77.026751, "rental_uris": {"ios": "https://dc.lft.to/lastmile_qr_scan", "android": "https://dc.lft.to/lastmile_qr_scan"}}, {"name": "4c6163e261f991d39847cdd02182c6c9", "fusion_lat": 0.0, "type": "electric_scooter", "lat": 38.95922683333333, "is_reserved": 0, "is_disabled": 0, "fusion_lon": 0.0, "bike_id": "4c6163e261f991d39847cdd02182c6c9", "lon": -77.0332355, "rental_uris": {"ios": "https://dc.lft.to/lastmile_qr_scan", "android": "https://dc.lft.to/lastmile_qr_scan"}}, {"name": "40e24f3df34650700471e74e4ae4c0a8", "fusion_lat": 0.0, "type": "electric_scooter", "lat": 38.897762, "is_reserved": 0, "is_disabled": 0, "fusion_lon": 0.0, "bike_id": "40e24f3df34650700471e74e4ae4c0a8", "lon": -77.047823, "rental_uris": {"ios": "https://dc.lft.to/lastmile_qr_scan", "android": "https://dc.lft.to/lastmile_qr_scan"}}, {"name": "01b578ecbcc5a050022cce56d6992227", "fusion_lat": 0.0, "type": "electric_scooter", "lat": 38.86221116666667, "is_reserved": 0, "is_disabled": 0, "fusion_lon": 0.0, "bike_id": "01b578ecbcc5a050022cce56d6992227", "lon": -76.99484566666666, "rental_uris": {"ios": "https://dc.lft.to/lastmile_qr_scan", "android": "https://dc.lft.to/lastmile_qr_scan"}}, {"name": "c6580cbc687dc719ea0b6be1d3f07f4f", "fusion_lat": 0.0, "type": "electric_scooter", "lat": 38.8949305, "is_reserved": 0, "is_disabled": 0, "fusion_lon": 0.0, "bike_id": "c6580cbc687dc719ea0b6be1d3f07f4f", "lon": -77.02384033333334, "rental_uris": {"ios": "https://dc.lft.to/lastmile_qr_scan", "android": "https://dc.lft.to/lastmile_qr_scan"}}, {"name": "b25977c77512af178beb572d78980986", "fusion_lat": 0.0, "type": "electric_scooter", "lat": 38.926135333333335, "is_reserved": 0, "is_disabled": 0, "fusion_lon": 0.0, "bike_id": "b25977c77512af178beb572d78980986", "lon": -77.0216325, "rental_uris": {"ios": "https://dc.lft.to/lastmile_qr_scan", "android": "https://dc.lft.to/lastmile_qr_scan"}}, {"name": "499ea8f75378cae6df56dc2ee6154635", "fusion_lat": 0.0, "type": "electric_scooter", "lat": 38.895081, "is_reserved": 0, "is_disabled": 0, "fusion_lon": 0.0, "bike_id": "499ea8f75378cae6df56dc2ee6154635", "lon": -76.94885383333333, "rental_uris": {"ios": "https://dc.lft.to/lastmile_qr_scan", "android": "https://dc.lft.to/lastmile_qr_scan"}}, {"name": "958ae26948301cbf99f3d7f1aa3d404b", "fusion_lat": 0.0, "type": "electric_scooter", "lat": 38.9236195, "is_reserved": 0, "is_disabled": 0, "fusion_lon": 0.0, "bike_id": "958ae26948301cbf99f3d7f1aa3d404b", "lon": -77.05028433333334, "rental_uris": {"ios": "https://dc.lft.to/lastmile_qr_scan", "android": "https://dc.lft.to/lastmile_qr_scan"}}, {"name": "af26c4a6120acdeafa682107c0c839ae", "fusion_lat": 0.0, "type": "electric_scooter", "lat": 38.898222, "is_reserved": 0, "is_disabled": 0, "fusion_lon": 0.0, "bike_id": "af26c4a6120acdeafa682107c0c839ae", "lon": -77.00372216666666, "rental_uris": {"ios": "https://dc.lft.to/lastmile_qr_scan", "android": "https://dc.lft.to/lastmile_qr_scan"}}, {"name": "da21be22dfe7e9a8926969b9e3808362", "fusion_lat": 0.0, "type": "electric_scooter", "lat": 38.896814, "is_reserved": 0, "is_disabled": 0, "fusion_lon": 0.0, "bike_id": "da21be22dfe7e9a8926969b9e3808362", "lon": -77.01197216666667, "rental_uris": {"ios": "https://dc.lft.to/lastmile_qr_scan", "android": "https://dc.lft.to/lastmile_qr_scan"}}, {"name": "bdbe3583587da2d25162efef428b8d41", "fusion_lat": 0.0, "type": "electric_scooter", "lat": 38.88007133333333, "is_reserved": 0, "is_disabled": 0, "fusion_lon": 0.0, "bike_id": "bdbe3583587da2d25162efef428b8d41", "lon": -76.9312235, "rental_uris": {"ios": "https://dc.lft.to/lastmile_qr_scan", "android": "https://dc.lft.to/lastmile_qr_scan"}}, {"name": "ec350fd2b7221aefeb27d5b172a59a98", "fusion_lat": 0.0, "type": "electric_scooter", "lat": 38.89831316666667, "is_reserved": 0, "is_disabled": 0, "fusion_lon": 0.0, "bike_id": "ec350fd2b7221aefeb27d5b172a59a98", "lon": -76.946398, "rental_uris": {"ios": "https://dc.lft.to/lastmile_qr_scan", "android": "https://dc.lft.to/lastmile_qr_scan"}}, {"name": "dc8269d4781727f5af82569ace76dad8", "fusion_lat": 0.0, "type": "electric_scooter", "lat": 38.89279966666667, "is_reserved": 0, "is_disabled": 0, "fusion_lon": 0.0, "bike_id": "dc8269d4781727f5af82569ace76dad8", "lon": -77.05036033333333, "rental_uris": {"ios": "https://dc.lft.to/lastmile_qr_scan", "android": "https://dc.lft.to/lastmile_qr_scan"}}, {"name": "d5170fee7764f4a1c10b85256e36e7b4", "fusion_lat": 0.0, "type": "electric_scooter", "lat": 38.910517166666665, "is_reserved": 0, "is_disabled": 0, "fusion_lon": 0.0, "bike_id": "d5170fee7764f4a1c10b85256e36e7b4", "lon": -77.04579666666666, "rental_uris": {"ios": "https://dc.lft.to/lastmile_qr_scan", "android": "https://dc.lft.to/lastmile_qr_scan"}}, {"name": "6499d2630f64980b57a9cedc1e8c58e7", "fusion_lat": 0.0, "type": "electric_bike", "lat": 38.8951585, "is_reserved": 0, "is_disabled": 0, "fusion_lon": 0.0, "bike_id": "6499d2630f64980b57a9cedc1e8c58e7", "lon": -77.04353216666667, "rental_uris": {"ios": "https://dc.lft.to/lastmile_qr_scan", "android": "https://dc.lft.to/lastmile_qr_scan"}}, {"name": "0223c706e1f30b8e21d9ffca3a7f60a0", "fusion_lat": 0.0, "type": "electric_scooter", "lat": 38.929801166666664, "is_reserved": 0, "is_disabled": 0, "fusion_lon": 0.0, "bike_id": "0223c706e1f30b8e21d9ffca3a7f60a0", "lon": -77.02613666666667, "rental_uris": {"ios": "https://dc.lft.to/lastmile_qr_scan", "android": "https://dc.lft.to/lastmile_qr_scan"}}, {"name": "e49e14955a8634c51ffc854b4ddc0079", "fusion_lat": 0.0, "type": "electric_scooter", "lat": 38.94202, "is_reserved": 0, "is_disabled": 0, "fusion_lon": 0.0, "bike_id": "e49e14955a8634c51ffc854b4ddc0079", "lon": -77.025118, "rental_uris": {"ios": "https://dc.lft.to/lastmile_qr_scan", "android": "https://dc.lft.to/lastmile_qr_scan"}}, {"name": "d8ff1b3d4f45d3ce812ebc1f6cc60bfa", "fusion_lat": 0.0, "type": "electric_scooter", "lat": 38.891845, "is_reserved": 0, "is_disabled": 0, "fusion_lon": 0.0, "bike_id": "d8ff1b3d4f45d3ce812ebc1f6cc60bfa", "lon": -77.00329716666667, "rental_uris": {"ios": "https://dc.lft.to/lastmile_qr_scan", "android": "https://dc.lft.to/lastmile_qr_scan"}}, {"name": "f68ab4e2771f33c101b0b79fe81b4774", "fusion_lat": 0.0, "type": "electric_scooter", "lat": 38.90117883333333, "is_reserved": 0, "is_disabled": 0, "fusion_lon": 0.0, "bike_id": "f68ab4e2771f33c101b0b79fe81b4774", "lon": -77.0317115, "rental_uris": {"ios": "https://dc.lft.to/lastmile_qr_scan", "android": "https://dc.lft.to/lastmile_qr_scan"}}, {"name": "133f92fd144a89fe7d1d0fac2b5a2cce", "fusion_lat": 0.0, "type": "electric_scooter", "lat": 38.89899466666667, "is_reserved": 0, "is_disabled": 0, "fusion_lon": 0.0, "bike_id": "133f92fd144a89fe7d1d0fac2b5a2cce", "lon": -77.0328555, "rental_uris": {"ios": "https://dc.lft.to/lastmile_qr_scan", "android": "https://dc.lft.to/lastmile_qr_scan"}}, {"name": "a989822db05cfdde41926e843447ed5d", "fusion_lat": 0.0, "type": "electric_scooter", "lat": 38.9083235, "is_reserved": 0, "is_disabled": 0, "fusion_lon": 0.0, "bike_id": "a989822db05cfdde41926e843447ed5d", "lon": -77.03666783333334, "rental_uris": {"ios": "https://dc.lft.to/lastmile_qr_scan", "android": "https://dc.lft.to/lastmile_qr_scan"}}, {"name": "66a51b13918871deaf6f8753cccb6cc0", "fusion_lat": 0.0, "type": "electric_scooter", "lat": 38.86510333333333, "is_reserved": 0, "is_disabled": 0, "fusion_lon": 0.0, "bike_id": "66a51b13918871deaf6f8753cccb6cc0", "lon": -76.9901, "rental_uris": {"ios": "https://dc.lft.to/lastmile_qr_scan", "android": "https://dc.lft.to/lastmile_qr_scan"}}, {"name": "a59603c20203416f61fe5c5d800e8bd4", "fusion_lat": 0.0, "type": "electric_scooter", "lat": 38.92837333333333, "is_reserved": 0, "is_disabled": 0, "fusion_lon": 0.0, "bike_id": "a59603c20203416f61fe5c5d800e8bd4", "lon": -77.05418816666666, "rental_uris": {"ios": "https://dc.lft.to/lastmile_qr_scan", "android": "https://dc.lft.to/lastmile_qr_scan"}}, {"name": "f6bf3a1f55bae64c7d87ab0656e6c8f7", "fusion_lat": 0.0, "type": "electric_scooter", "lat": 38.918936333333335, "is_reserved": 0, "is_disabled": 0, "fusion_lon": 0.0, "bike_id": "f6bf3a1f55bae64c7d87ab0656e6c8f7", "lon": -77.05291833333334, "rental_uris": {"ios": "https://dc.lft.to/lastmile_qr_scan", "android": "https://dc.lft.to/lastmile_qr_scan"}}, {"name": "82846ebadd8885f8ebb182d737b15538", "fusion_lat": 0.0, "type": "electric_bike", "lat": 38.827314666666666, "is_reserved": 0, "is_disabled": 0, "fusion_lon": 0.0, "bike_id": "82846ebadd8885f8ebb182d737b15538", "lon": -77.00861966666666, "rental_uris": {"ios": "https://dc.lft.to/lastmile_qr_scan", "android": "https://dc.lft.to/lastmile_qr_scan"}}, {"name": "92e9f263f7bad6f5d8264d301a4b8eca", "fusion_lat": 0.0, "type": "electric_scooter", "lat": 38.9118755, "is_reserved": 0, "is_disabled": 0, "fusion_lon": 0.0, "bike_id": "92e9f263f7bad6f5d8264d301a4b8eca", "lon": -77.04538466666666, "rental_uris": {"ios": "https://dc.lft.to/lastmile_qr_scan", "android": "https://dc.lft.to/lastmile_qr_scan"}}, {"name": "322c014841046ba2a4a2e5c616e7b83c", "fusion_lat": 0.0, "type": "electric_scooter", "lat": 38.928867833333335, "is_reserved": 0, "is_disabled": 0, "fusion_lon": 0.0, "bike_id": "322c014841046ba2a4a2e5c616e7b83c", "lon": -77.02310516666667, "rental_uris": {"ios": "https://dc.lft.to/lastmile_qr_scan", "android": "https://dc.lft.to/lastmile_qr_scan"}}, {"name": "e3b7491771121374fe7804e0f7a417df", "fusion_lat": 0.0, "type": "electric_scooter", "lat": 38.926433833333334, "is_reserved": 0, "is_disabled": 0, "fusion_lon": 0.0, "bike_id": "e3b7491771121374fe7804e0f7a417df", "lon": -77.03696016666666, "rental_uris": {"ios": "https://dc.lft.to/lastmile_qr_scan", "android": "https://dc.lft.to/lastmile_qr_scan"}}, {"name": "60d23bcfef91b8af0b4b1bdf973bdc3a", "fusion_lat": 0.0, "type": "electric_scooter", "lat": 38.93760233333333, "is_reserved": 0, "is_disabled": 0, "fusion_lon": 0.0, "bike_id": "60d23bcfef91b8af0b4b1bdf973bdc3a", "lon": -77.03279333333333, "rental_uris": {"ios": "https://dc.lft.to/lastmile_qr_scan", "android": "https://dc.lft.to/lastmile_qr_scan"}}, {"name": "804acb9ae717645ea1ea970fafd8234b", "fusion_lat": 0.0, "type": "electric_scooter", "lat": 38.89195766666667, "is_reserved": 0, "is_disabled": 0, "fusion_lon": 0.0, "bike_id": "804acb9ae717645ea1ea970fafd8234b", "lon": -77.00240233333334, "rental_uris": {"ios": "https://dc.lft.to/lastmile_qr_scan", "android": "https://dc.lft.to/lastmile_qr_scan"}}, {"name": "5077e07ce176b1bca3478efa4cd64a78", "fusion_lat": 0.0, "type": "electric_scooter", "lat": 38.89959733333333, "is_reserved": 0, "is_disabled": 0, "fusion_lon": 0.0, "bike_id": "5077e07ce176b1bca3478efa4cd64a78", "lon": -77.015072, "rental_uris": {"ios": "https://dc.lft.to/lastmile_qr_scan", "android": "https://dc.lft.to/lastmile_qr_scan"}}, {"name": "b07664446e3262f9f4ff2b592f3d24e8", "fusion_lat": 0.0, "type": "electric_scooter", "lat": 38.90259283333333, "is_reserved": 0, "is_disabled": 0, "fusion_lon": 0.0, "bike_id": "b07664446e3262f9f4ff2b592f3d24e8", "lon": -76.99597966666667, "rental_uris": {"ios": "https://dc.lft.to/lastmile_qr_scan", "android": "https://dc.lft.to/lastmile_qr_scan"}}, {"name": "83cadb3740971b9ff2e86215f465fdcc", "fusion_lat": 0.0, "type": "electric_scooter", "lat": 38.889162, "is_reserved": 0, "is_disabled": 0, "fusion_lon": 0.0, "bike_id": "83cadb3740971b9ff2e86215f465fdcc", "lon": -76.95372683333333, "rental_uris": {"ios": "https://dc.lft.to/lastmile_qr_scan", "android": "https://dc.lft.to/lastmile_qr_scan"}}, {"name": "435c5ef569bb8cbe5d4f87f2459b30b3", "fusion_lat": 0.0, "type": "electric_scooter", "lat": 38.9346925, "is_reserved": 0, "is_disabled": 0, "fusion_lon": 0.0, "bike_id": "435c5ef569bb8cbe5d4f87f2459b30b3", "lon": -77.02845233333333, "rental_uris": {"ios": "https://dc.lft.to/lastmile_qr_scan", "android": "https://dc.lft.to/lastmile_qr_scan"}}, {"name": "ff952e51c632fb4f6482366871aa1d96", "fusion_lat": 0.0, "type": "electric_scooter", "lat": 38.93418116666667, "is_reserved": 0, "is_disabled": 0, "fusion_lon": 0.0, "bike_id": "ff952e51c632fb4f6482366871aa1d96", "lon": -77.0724615, "rental_uris": {"ios": "https://dc.lft.to/lastmile_qr_scan", "android": "https://dc.lft.to/lastmile_qr_scan"}}, {"name": "f2cdee52278d579d5b0501ba75475cfe", "fusion_lat": 0.0, "type": "electric_scooter", "lat": 38.90273966666667, "is_reserved": 0, "is_disabled": 0, "fusion_lon": 0.0, "bike_id": "f2cdee52278d579d5b0501ba75475cfe", "lon": -77.03842066666667, "rental_uris": {"ios": "https://dc.lft.to/lastmile_qr_scan", "android": "https://dc.lft.to/lastmile_qr_scan"}}, {"name": "1310e6e9816cb811a2d100010217e343", "fusion_lat": 0.0, "type": "electric_bike", "lat": 38.924287166666666, "is_reserved": 0, "is_disabled": 0, "fusion_lon": 0.0, "bike_id": "1310e6e9816cb811a2d100010217e343", "lon": -76.99130966666667, "rental_uris": {"ios": "https://dc.lft.to/lastmile_qr_scan", "android": "https://dc.lft.to/lastmile_qr_scan"}}, {"name": "b9733500782532ecbc17a297339447b2", "fusion_lat": 0.0, "type": "electric_scooter", "lat": 38.917768333333335, "is_reserved": 0, "is_disabled": 0, "fusion_lon": 0.0, "bike_id": "b9733500782532ecbc17a297339447b2", "lon": -77.04300366666666, "rental_uris": {"ios": "https://dc.lft.to/lastmile_qr_scan", "android": "https://dc.lft.to/lastmile_qr_scan"}}, {"name": "2dfda947c21f035e03e859a5217c11e3", "fusion_lat": 0.0, "type": "electric_scooter", "lat": 38.928237333333335, "is_reserved": 0, "is_disabled": 0, "fusion_lon": 0.0, "bike_id": "2dfda947c21f035e03e859a5217c11e3", "lon": -77.02257716666666, "rental_uris": {"ios": "https://dc.lft.to/lastmile_qr_scan", "android": "https://dc.lft.to/lastmile_qr_scan"}}, {"name": "999d21af9a7d7fbd540e41b57d995bce", "fusion_lat": 0.0, "type": "electric_scooter", "lat": 38.90311666666667, "is_reserved": 0, "is_disabled": 0, "fusion_lon": 0.0, "bike_id": "999d21af9a7d7fbd540e41b57d995bce", "lon": -77.036413, "rental_uris": {"ios": "https://dc.lft.to/lastmile_qr_scan", "android": "https://dc.lft.to/lastmile_qr_scan"}}, {"name": "8f4d4a4753dcc0e6ea103053b4829451", "fusion_lat": 0.0, "type": "electric_scooter", "lat": 38.901437666666666, "is_reserved": 0, "is_disabled": 0, "fusion_lon": 0.0, "bike_id": "8f4d4a4753dcc0e6ea103053b4829451", "lon": -77.04692766666666, "rental_uris": {"ios": "https://dc.lft.to/lastmile_qr_scan", "android": "https://dc.lft.to/lastmile_qr_scan"}}, {"name": "0a33b96f1a691030cf83e60c17ee0fce", "fusion_lat": 0.0, "type": "electric_scooter", "lat": 38.94199966666667, "is_reserved": 0, "is_disabled": 0, "fusion_lon": 0.0, "bike_id": "0a33b96f1a691030cf83e60c17ee0fce", "lon": -77.02512316666666, "rental_uris": {"ios": "https://dc.lft.to/lastmile_qr_scan", "android": "https://dc.lft.to/lastmile_qr_scan"}}, {"name": "0ae9204e1dc94c661c1e953080e099fa", "fusion_lat": 0.0, "type": "electric_bike", "lat": 38.8811865, "is_reserved": 0, "is_disabled": 0, "fusion_lon": 0.0, "bike_id": "0ae9204e1dc94c661c1e953080e099fa", "lon": -77.013429, "rental_uris": {"ios": "https://dc.lft.to/lastmile_qr_scan", "android": "https://dc.lft.to/lastmile_qr_scan"}}, {"name": "355865d1c6079ddd78455ef827d3f924", "fusion_lat": 0.0, "type": "electric_scooter", "lat": 38.905196833333335, "is_reserved": 0, "is_disabled": 0, "fusion_lon": 0.0, "bike_id": "355865d1c6079ddd78455ef827d3f924", "lon": -77.03447516666667, "rental_uris": {"ios": "https://dc.lft.to/lastmile_qr_scan", "android": "https://dc.lft.to/lastmile_qr_scan"}}, {"name": "9f8627a651c43c09e9147c23cbba920c", "fusion_lat": 0.0, "type": "electric_scooter", "lat": 38.90343166666667, "is_reserved": 0, "is_disabled": 0, "fusion_lon": 0.0, "bike_id": "9f8627a651c43c09e9147c23cbba920c", "lon": -77.05311333333333, "rental_uris": {"ios": "https://dc.lft.to/lastmile_qr_scan", "android": "https://dc.lft.to/lastmile_qr_scan"}}, {"name": "845553bde9dd102082410ec10db42279", "fusion_lat": 0.0, "type": "electric_bike", "lat": 38.831473333333335, "is_reserved": 0, "is_disabled": 0, "fusion_lon": 0.0, "bike_id": "845553bde9dd102082410ec10db42279", "lon": -77.11333616666667, "rental_uris": {"ios": "https://dc.lft.to/lastmile_qr_scan", "android": "https://dc.lft.to/lastmile_qr_scan"}}, {"name": "77d8ba8d024f308ef2a085b09392cf96", "fusion_lat": 0.0, "type": "electric_scooter", "lat": 38.89219816666667, "is_reserved": 0, "is_disabled": 0, "fusion_lon": 0.0, "bike_id": "77d8ba8d024f308ef2a085b09392cf96", "lon": -77.03089966666667, "rental_uris": {"ios": "https://dc.lft.to/lastmile_qr_scan", "android": "https://dc.lft.to/lastmile_qr_scan"}}, {"name": "4da07fc6b5c7098b646d1d89972148aa", "fusion_lat": 0.0, "type": "electric_scooter", "lat": 38.90042666666667, "is_reserved": 0, "is_disabled": 0, "fusion_lon": 0.0, "bike_id": "4da07fc6b5c7098b646d1d89972148aa", "lon": -77.00212666666667, "rental_uris": {"ios": "https://dc.lft.to/lastmile_qr_scan", "android": "https://dc.lft.to/lastmile_qr_scan"}}, {"name": "b59e5216949015a2103634c846d11837", "fusion_lat": 0.0, "type": "electric_scooter", "lat": 38.91833416666667, "is_reserved": 0, "is_disabled": 0, "fusion_lon": 0.0, "bike_id": "b59e5216949015a2103634c846d11837", "lon": -77.02290516666666, "rental_uris": {"ios": "https://dc.lft.to/lastmile_qr_scan", "android": "https://dc.lft.to/lastmile_qr_scan"}}, {"name": "6949ac92d3f1aeea3b505746c4141165", "fusion_lat": 0.0, "type": "electric_scooter", "lat": 38.87416733333333, "is_reserved": 0, "is_disabled": 0, "fusion_lon": 0.0, "bike_id": "6949ac92d3f1aeea3b505746c4141165", "lon": -76.960852, "rental_uris": {"ios": "https://dc.lft.to/lastmile_qr_scan", "android": "https://dc.lft.to/lastmile_qr_scan"}}, {"name": "798fa4925ed31c2395c61d792e49f663", "fusion_lat": 0.0, "type": "electric_scooter", "lat": 38.896471166666664, "is_reserved": 0, "is_disabled": 0, "fusion_lon": 0.0, "bike_id": "798fa4925ed31c2395c61d792e49f663", "lon": -76.94850883333334, "rental_uris": {"ios": "https://dc.lft.to/lastmile_qr_scan", "android": "https://dc.lft.to/lastmile_qr_scan"}}, {"name": "0009a81b57f5e4812a56c9c988a7cdfe", "fusion_lat": 0.0, "type": "electric_scooter", "lat": 38.942870666666664, "is_reserved": 0, "is_disabled": 0, "fusion_lon": 0.0, "bike_id": "0009a81b57f5e4812a56c9c988a7cdfe", "lon": -77.02168433333334, "rental_uris": {"ios": "https://dc.lft.to/lastmile_qr_scan", "android": "https://dc.lft.to/lastmile_qr_scan"}}, {"name": "90406981f2ac00882bd1b839d8d307db", "fusion_lat": 0.0, "type": "electric_scooter", "lat": 38.90376116666667, "is_reserved": 0, "is_disabled": 0, "fusion_lon": 0.0, "bike_id": "90406981f2ac00882bd1b839d8d307db", "lon": -77.0321025, "rental_uris": {"ios": "https://dc.lft.to/lastmile_qr_scan", "android": "https://dc.lft.to/lastmile_qr_scan"}}, {"name": "e414f6118fd4014c42e178b66ab1b4fb", "fusion_lat": 0.0, "type": "electric_scooter", "lat": 38.88895183333333, "is_reserved": 0, "is_disabled": 0, "fusion_lon": 0.0, "bike_id": "e414f6118fd4014c42e178b66ab1b4fb", "lon": -77.03282366666667, "rental_uris": {"ios": "https://dc.lft.to/lastmile_qr_scan", "android": "https://dc.lft.to/lastmile_qr_scan"}}, {"name": "bec81b7d8a8801feb3c86d8ed9681409", "fusion_lat": 0.0, "type": "electric_scooter", "lat": 38.9187495, "is_reserved": 0, "is_disabled": 0, "fusion_lon": 0.0, "bike_id": "bec81b7d8a8801feb3c86d8ed9681409", "lon": -77.0230715, "rental_uris": {"ios": "https://dc.lft.to/lastmile_qr_scan", "android": "https://dc.lft.to/lastmile_qr_scan"}}, {"name": "4b4f0d7e7fda5ba454e754c475ca4daf", "fusion_lat": 0.0, "type": "electric_scooter", "lat": 38.90980033333334, "is_reserved": 0, "is_disabled": 0, "fusion_lon": 0.0, "bike_id": "4b4f0d7e7fda5ba454e754c475ca4daf", "lon": -77.067112, "rental_uris": {"ios": "https://dc.lft.to/lastmile_qr_scan", "android": "https://dc.lft.to/lastmile_qr_scan"}}, {"name": "1130f6ba573871014f06a97f0a193457", "fusion_lat": 0.0, "type": "electric_scooter", "lat": 38.90797166666667, "is_reserved": 0, "is_disabled": 0, "fusion_lon": 0.0, "bike_id": "1130f6ba573871014f06a97f0a193457", "lon": -77.000466, "rental_uris": {"ios": "https://dc.lft.to/lastmile_qr_scan", "android": "https://dc.lft.to/lastmile_qr_scan"}}, {"name": "11b8384b2f4f1ebf74aad89888dfc44e", "fusion_lat": 0.0, "type": "electric_scooter", "lat": 38.89995283333333, "is_reserved": 0, "is_disabled": 0, "fusion_lon": 0.0, "bike_id": "11b8384b2f4f1ebf74aad89888dfc44e", "lon": -76.98554433333334, "rental_uris": {"ios": "https://dc.lft.to/lastmile_qr_scan", "android": "https://dc.lft.to/lastmile_qr_scan"}}, {"name": "2f381373f9ef8ebe81e5c92ec220f6ae", "fusion_lat": 0.0, "type": "electric_scooter", "lat": 38.884497833333334, "is_reserved": 0, "is_disabled": 0, "fusion_lon": 0.0, "bike_id": "2f381373f9ef8ebe81e5c92ec220f6ae", "lon": -77.02610716666666, "rental_uris": {"ios": "https://dc.lft.to/lastmile_qr_scan", "android": "https://dc.lft.to/lastmile_qr_scan"}}, {"name": "47c72db7fc6268ae88e400ba44c06ac1", "fusion_lat": 0.0, "type": "electric_scooter", "lat": 38.91405833333334, "is_reserved": 0, "is_disabled": 0, "fusion_lon": 0.0, "bike_id": "47c72db7fc6268ae88e400ba44c06ac1", "lon": -77.03908516666667, "rental_uris": {"ios": "https://dc.lft.to/lastmile_qr_scan", "android": "https://dc.lft.to/lastmile_qr_scan"}}, {"name": "9e3b122aaee889ed78dd4b79e7078552", "fusion_lat": 0.0, "type": "electric_scooter", "lat": 38.8919265, "is_reserved": 0, "is_disabled": 0, "fusion_lon": 0.0, "bike_id": "9e3b122aaee889ed78dd4b79e7078552", "lon": -77.00286016666666, "rental_uris": {"ios": "https://dc.lft.to/lastmile_qr_scan", "android": "https://dc.lft.to/lastmile_qr_scan"}}, {"name": "77b8d1a58627d0d0be260077608ea96f", "fusion_lat": 0.0, "type": "electric_scooter", "lat": 38.900446, "is_reserved": 0, "is_disabled": 0, "fusion_lon": 0.0, "bike_id": "77b8d1a58627d0d0be260077608ea96f", "lon": -77.04470383333333, "rental_uris": {"ios": "https://dc.lft.to/lastmile_qr_scan", "android": "https://dc.lft.to/lastmile_qr_scan"}}, {"name": "0aaa7a11140bf43b95c5e03d1b8d27f6", "fusion_lat": 0.0, "type": "electric_bike", "lat": 38.96901583333333, "is_reserved": 0, "is_disabled": 0, "fusion_lon": 0.0, "bike_id": "0aaa7a11140bf43b95c5e03d1b8d27f6", "lon": -76.95805183333333, "rental_uris": {"ios": "https://dc.lft.to/lastmile_qr_scan", "android": "https://dc.lft.to/lastmile_qr_scan"}}, {"name": "29c98395a86aec460e5e6a79a3c07f6f", "fusion_lat": 0.0, "type": "electric_scooter", "lat": 38.898590666666664, "is_reserved": 0, "is_disabled": 0, "fusion_lon": 0.0, "bike_id": "29c98395a86aec460e5e6a79a3c07f6f", "lon": -77.03185733333333, "rental_uris": {"ios": "https://dc.lft.to/lastmile_qr_scan", "android": "https://dc.lft.to/lastmile_qr_scan"}}, {"name": "8377dbabc93156ac47b129804399f0cd", "fusion_lat": 0.0, "type": "electric_scooter", "lat": 38.90370866666667, "is_reserved": 0, "is_disabled": 0, "fusion_lon": 0.0, "bike_id": "8377dbabc93156ac47b129804399f0cd", "lon": -77.03382466666666, "rental_uris": {"ios": "https://dc.lft.to/lastmile_qr_scan", "android": "https://dc.lft.to/lastmile_qr_scan"}}, {"name": "4f92119e070628ca1c092304148729c5", "fusion_lat": 0.0, "type": "electric_scooter", "lat": 38.87429766666666, "is_reserved": 0, "is_disabled": 0, "fusion_lon": 0.0, "bike_id": "4f92119e070628ca1c092304148729c5", "lon": -77.0206815, "rental_uris": {"ios": "https://dc.lft.to/lastmile_qr_scan", "android": "https://dc.lft.to/lastmile_qr_scan"}}, {"name": "229d06f423b13c8c0b7147d57b639f88", "fusion_lat": 0.0, "type": "electric_scooter", "lat": 38.8909315, "is_reserved": 0, "is_disabled": 0, "fusion_lon": 0.0, "bike_id": "229d06f423b13c8c0b7147d57b639f88", "lon": -76.98203466666666, "rental_uris": {"ios": "https://dc.lft.to/lastmile_qr_scan", "android": "https://dc.lft.to/lastmile_qr_scan"}}, {"name": "5ff9f6dbbe34d7a7d830c584fdca752f", "fusion_lat": 0.0, "type": "electric_scooter", "lat": 38.898478, "is_reserved": 0, "is_disabled": 0, "fusion_lon": 0.0, "bike_id": "5ff9f6dbbe34d7a7d830c584fdca752f", "lon": -77.03954283333333, "rental_uris": {"ios": "https://dc.lft.to/lastmile_qr_scan", "android": "https://dc.lft.to/lastmile_qr_scan"}}, {"name": "f91f8189092574a10f4ac0ac979f4d76", "fusion_lat": 0.0, "type": "electric_scooter", "lat": 38.9111245, "is_reserved": 0, "is_disabled": 0, "fusion_lon": 0.0, "bike_id": "f91f8189092574a10f4ac0ac979f4d76", "lon": -77.044595, "rental_uris": {"ios": "https://dc.lft.to/lastmile_qr_scan", "android": "https://dc.lft.to/lastmile_qr_scan"}}, {"name": "ac6ab800efc07c10348b1b51419d2f96", "fusion_lat": 0.0, "type": "electric_scooter", "lat": 38.91258366666667, "is_reserved": 0, "is_disabled": 0, "fusion_lon": 0.0, "bike_id": "ac6ab800efc07c10348b1b51419d2f96", "lon": -77.03143633333333, "rental_uris": {"ios": "https://dc.lft.to/lastmile_qr_scan", "android": "https://dc.lft.to/lastmile_qr_scan"}}, {"name": "555307541a2a1e68838f8eda613a6389", "fusion_lat": 0.0, "type": "electric_scooter", "lat": 38.90568433333333, "is_reserved": 0, "is_disabled": 0, "fusion_lon": 0.0, "bike_id": "555307541a2a1e68838f8eda613a6389", "lon": -77.04065683333333, "rental_uris": {"ios": "https://dc.lft.to/lastmile_qr_scan", "android": "https://dc.lft.to/lastmile_qr_scan"}}, {"name": "3775003072770c11f36e1176140243c9", "fusion_lat": 0.0, "type": "electric_bike", "lat": 38.896493666666665, "is_reserved": 0, "is_disabled": 0, "fusion_lon": 0.0, "bike_id": "3775003072770c11f36e1176140243c9", "lon": -77.02585683333334, "rental_uris": {"ios": "https://dc.lft.to/lastmile_qr_scan", "android": "https://dc.lft.to/lastmile_qr_scan"}}, {"name": "733a0e764c3bc371a567ab6a5e183303", "fusion_lat": 0.0, "type": "electric_bike", "lat": 38.97076, "is_reserved": 0, "is_disabled": 0, "fusion_lon": 0.0, "bike_id": "733a0e764c3bc371a567ab6a5e183303", "lon": -76.93614166666667, "rental_uris": {"ios": "https://dc.lft.to/lastmile_qr_scan", "android": "https://dc.lft.to/lastmile_qr_scan"}}, {"name": "8d834207d8815b7d9f740dba014a7b09", "fusion_lat": 0.0, "type": "electric_scooter", "lat": 38.9184685, "is_reserved": 0, "is_disabled": 0, "fusion_lon": 0.0, "bike_id": "8d834207d8815b7d9f740dba014a7b09", "lon": -77.06147966666667, "rental_uris": {"ios": "https://dc.lft.to/lastmile_qr_scan", "android": "https://dc.lft.to/lastmile_qr_scan"}}, {"name": "994c7ddae0ea80ee16129caab0cad29f", "fusion_lat": 0.0, "type": "electric_scooter", "lat": 38.90487266666667, "is_reserved": 0, "is_disabled": 0, "fusion_lon": 0.0, "bike_id": "994c7ddae0ea80ee16129caab0cad29f", "lon": -77.02935033333333, "rental_uris": {"ios": "https://dc.lft.to/lastmile_qr_scan", "android": "https://dc.lft.to/lastmile_qr_scan"}}, {"name": "778c67592f4cea8d17ad5909193c2232", "fusion_lat": 0.0, "type": "electric_scooter", "lat": 38.92314183333333, "is_reserved": 0, "is_disabled": 0, "fusion_lon": 0.0, "bike_id": "778c67592f4cea8d17ad5909193c2232", "lon": -77.02976916666667, "rental_uris": {"ios": "https://dc.lft.to/lastmile_qr_scan", "android": "https://dc.lft.to/lastmile_qr_scan"}}, {"name": "3f8d25c42a95d120b09badb47138b20a", "fusion_lat": 0.0, "type": "electric_scooter", "lat": 38.922673, "is_reserved": 0, "is_disabled": 0, "fusion_lon": 0.0, "bike_id": "3f8d25c42a95d120b09badb47138b20a", "lon": -77.03402983333334, "rental_uris": {"ios": "https://dc.lft.to/lastmile_qr_scan", "android": "https://dc.lft.to/lastmile_qr_scan"}}, {"name": "c3c4d16bcfe864c7586f90b14c0f6905", "fusion_lat": 0.0, "type": "electric_scooter", "lat": 38.93712166666667, "is_reserved": 0, "is_disabled": 0, "fusion_lon": 0.0, "bike_id": "c3c4d16bcfe864c7586f90b14c0f6905", "lon": -77.03646083333334, "rental_uris": {"ios": "https://dc.lft.to/lastmile_qr_scan", "android": "https://dc.lft.to/lastmile_qr_scan"}}, {"name": "c1f0e84ed5f3b940b6e984b075a00dd1", "fusion_lat": 0.0, "type": "electric_scooter", "lat": 38.95404333333333, "is_reserved": 0, "is_disabled": 0, "fusion_lon": 0.0, "bike_id": "c1f0e84ed5f3b940b6e984b075a00dd1", "lon": -77.027457, "rental_uris": {"ios": "https://dc.lft.to/lastmile_qr_scan", "android": "https://dc.lft.to/lastmile_qr_scan"}}, {"name": "6c83ea93a3de4b0bff4b99a8e1c1197f", "fusion_lat": 0.0, "type": "electric_bike", "lat": 39.0304185, "is_reserved": 0, "is_disabled": 0, "fusion_lon": 0.0, "bike_id": "6c83ea93a3de4b0bff4b99a8e1c1197f", "lon": -77.09478233333333, "rental_uris": {"ios": "https://dc.lft.to/lastmile_qr_scan", "android": "https://dc.lft.to/lastmile_qr_scan"}}, {"name": "89912dd14ef29f76b353a2b678e0c10d", "fusion_lat": 0.0, "type": "electric_scooter", "lat": 38.896858333333334, "is_reserved": 0, "is_disabled": 0, "fusion_lon": 0.0, "bike_id": "89912dd14ef29f76b353a2b678e0c10d", "lon": -77.00491966666667, "rental_uris": {"ios": "https://dc.lft.to/lastmile_qr_scan", "android": "https://dc.lft.to/lastmile_qr_scan"}}, {"name": "5421d11d06d096a72e012bbba49faa63", "fusion_lat": 0.0, "type": "electric_bike", "lat": 39.033447333333335, "is_reserved": 0, "is_disabled": 0, "fusion_lon": 0.0, "bike_id": "5421d11d06d096a72e012bbba49faa63", "lon": -77.04905516666666, "rental_uris": {"ios": "https://dc.lft.to/lastmile_qr_scan", "android": "https://dc.lft.to/lastmile_qr_scan"}}, {"name": "be37762bb898788629466864d5c5b51f", "fusion_lat": 0.0, "type": "electric_scooter", "lat": 38.9238215, "is_reserved": 0, "is_disabled": 0, "fusion_lon": 0.0, "bike_id": "be37762bb898788629466864d5c5b51f", "lon": -77.01912116666666, "rental_uris": {"ios": "https://dc.lft.to/lastmile_qr_scan", "android": "https://dc.lft.to/lastmile_qr_scan"}}, {"name": "7a9ec9fed3a28378cd3d0e8a44a812dd", "fusion_lat": 0.0, "type": "electric_scooter", "lat": 38.910067166666664, "is_reserved": 0, "is_disabled": 0, "fusion_lon": 0.0, "bike_id": "7a9ec9fed3a28378cd3d0e8a44a812dd", "lon": -77.04423366666667, "rental_uris": {"ios": "https://dc.lft.to/lastmile_qr_scan", "android": "https://dc.lft.to/lastmile_qr_scan"}}, {"name": "40ea2cdc75100cfe5818fce21b806f42", "fusion_lat": 0.0, "type": "electric_scooter", "lat": 38.906222166666666, "is_reserved": 0, "is_disabled": 0, "fusion_lon": 0.0, "bike_id": "40ea2cdc75100cfe5818fce21b806f42", "lon": -77.051466, "rental_uris": {"ios": "https://dc.lft.to/lastmile_qr_scan", "android": "https://dc.lft.to/lastmile_qr_scan"}}, {"name": "76eaae9347611bae3e4178bafc07b9ce", "fusion_lat": 0.0, "type": "electric_scooter", "lat": 38.9077975, "is_reserved": 0, "is_disabled": 0, "fusion_lon": 0.0, "bike_id": "76eaae9347611bae3e4178bafc07b9ce", "lon": -77.03831066666666, "rental_uris": {"ios": "https://dc.lft.to/lastmile_qr_scan", "android": "https://dc.lft.to/lastmile_qr_scan"}}, {"name": "9a1438c12f074b6dcaa9a9baccfd9a5e", "fusion_lat": 0.0, "type": "electric_scooter", "lat": 38.933097333333336, "is_reserved": 0, "is_disabled": 0, "fusion_lon": 0.0, "bike_id": "9a1438c12f074b6dcaa9a9baccfd9a5e", "lon": -77.037675, "rental_uris": {"ios": "https://dc.lft.to/lastmile_qr_scan", "android": "https://dc.lft.to/lastmile_qr_scan"}}, {"name": "449a5410d47da59ebf51ea92a95b8a96", "fusion_lat": 0.0, "type": "electric_scooter", "lat": 38.9156155, "is_reserved": 0, "is_disabled": 0, "fusion_lon": 0.0, "bike_id": "449a5410d47da59ebf51ea92a95b8a96", "lon": -77.04673866666667, "rental_uris": {"ios": "https://dc.lft.to/lastmile_qr_scan", "android": "https://dc.lft.to/lastmile_qr_scan"}}, {"name": "59dd1324206ea89256c5efa9264936b2", "fusion_lat": 0.0, "type": "electric_scooter", "lat": 38.973924333333336, "is_reserved": 0, "is_disabled": 0, "fusion_lon": 0.0, "bike_id": "59dd1324206ea89256c5efa9264936b2", "lon": -77.01810483333334, "rental_uris": {"ios": "https://dc.lft.to/lastmile_qr_scan", "android": "https://dc.lft.to/lastmile_qr_scan"}}, {"name": "a3c38cfabec78a793153d9d0b69b8c5d", "fusion_lat": 0.0, "type": "electric_scooter", "lat": 38.93951833333333, "is_reserved": 0, "is_disabled": 0, "fusion_lon": 0.0, "bike_id": "a3c38cfabec78a793153d9d0b69b8c5d", "lon": -77.07237466666666, "rental_uris": {"ios": "https://dc.lft.to/lastmile_qr_scan", "android": "https://dc.lft.to/lastmile_qr_scan"}}, {"name": "6917e49a2cfa57d1b8ec4d88142bb2ee", "fusion_lat": 0.0, "type": "electric_scooter", "lat": 38.93606283333333, "is_reserved": 0, "is_disabled": 0, "fusion_lon": 0.0, "bike_id": "6917e49a2cfa57d1b8ec4d88142bb2ee", "lon": -77.05857883333333, "rental_uris": {"ios": "https://dc.lft.to/lastmile_qr_scan", "android": "https://dc.lft.to/lastmile_qr_scan"}}, {"name": "7c06cbd8be0993ba1f8eceef5a3b7e6a", "fusion_lat": 0.0, "type": "electric_scooter", "lat": 38.90938383333334, "is_reserved": 0, "is_disabled": 0, "fusion_lon": 0.0, "bike_id": "7c06cbd8be0993ba1f8eceef5a3b7e6a", "lon": -77.0472695, "rental_uris": {"ios": "https://dc.lft.to/lastmile_qr_scan", "android": "https://dc.lft.to/lastmile_qr_scan"}}, {"name": "3026119b051dba7d55bf1b6369e7b0c3", "fusion_lat": 0.0, "type": "electric_scooter", "lat": 38.90650266666667, "is_reserved": 0, "is_disabled": 0, "fusion_lon": 0.0, "bike_id": "3026119b051dba7d55bf1b6369e7b0c3", "lon": -77.05134266666667, "rental_uris": {"ios": "https://dc.lft.to/lastmile_qr_scan", "android": "https://dc.lft.to/lastmile_qr_scan"}}, {"name": "8bbcf65366485b8bf878edfcac9ac1ce", "fusion_lat": 0.0, "type": "electric_scooter", "lat": 38.92486516666666, "is_reserved": 0, "is_disabled": 0, "fusion_lon": 0.0, "bike_id": "8bbcf65366485b8bf878edfcac9ac1ce", "lon": -77.02714216666666, "rental_uris": {"ios": "https://dc.lft.to/lastmile_qr_scan", "android": "https://dc.lft.to/lastmile_qr_scan"}}, {"name": "2331b7f5ca0c1bc8cdb2efb19afd6699", "fusion_lat": 0.0, "type": "electric_scooter", "lat": 38.897200166666664, "is_reserved": 0, "is_disabled": 0, "fusion_lon": 0.0, "bike_id": "2331b7f5ca0c1bc8cdb2efb19afd6699", "lon": -77.04333883333334, "rental_uris": {"ios": "https://dc.lft.to/lastmile_qr_scan", "android": "https://dc.lft.to/lastmile_qr_scan"}}, {"name": "07fc1e48932a1c0396f75489b841b987", "fusion_lat": 0.0, "type": "electric_scooter", "lat": 38.8923755, "is_reserved": 0, "is_disabled": 0, "fusion_lon": 0.0, "bike_id": "07fc1e48932a1c0396f75489b841b987", "lon": -77.03185916666666, "rental_uris": {"ios": "https://dc.lft.to/lastmile_qr_scan", "android": "https://dc.lft.to/lastmile_qr_scan"}}, {"name": "18a2d8c9f0e90aa9c9ac2cb2b6b4d759", "fusion_lat": 0.0, "type": "electric_scooter", "lat": 38.90723666666667, "is_reserved": 0, "is_disabled": 0, "fusion_lon": 0.0, "bike_id": "18a2d8c9f0e90aa9c9ac2cb2b6b4d759", "lon": -77.03351466666666, "rental_uris": {"ios": "https://dc.lft.to/lastmile_qr_scan", "android": "https://dc.lft.to/lastmile_qr_scan"}}, {"name": "d2281edf4a3a0b245589597b38ce4efb", "fusion_lat": 0.0, "type": "electric_scooter", "lat": 38.9301205, "is_reserved": 0, "is_disabled": 0, "fusion_lon": 0.0, "bike_id": "d2281edf4a3a0b245589597b38ce4efb", "lon": -77.023302, "rental_uris": {"ios": "https://dc.lft.to/lastmile_qr_scan", "android": "https://dc.lft.to/lastmile_qr_scan"}}, {"name": "26c7ca512d117a454eafd04029ebf06a", "fusion_lat": 0.0, "type": "electric_scooter", "lat": 38.928983, "is_reserved": 0, "is_disabled": 0, "fusion_lon": 0.0, "bike_id": "26c7ca512d117a454eafd04029ebf06a", "lon": -77.05452766666667, "rental_uris": {"ios": "https://dc.lft.to/lastmile_qr_scan", "android": "https://dc.lft.to/lastmile_qr_scan"}}, {"name": "952af2503d398630f245b390fd823b8f", "fusion_lat": 0.0, "type": "electric_scooter", "lat": 38.89904533333333, "is_reserved": 0, "is_disabled": 0, "fusion_lon": 0.0, "bike_id": "952af2503d398630f245b390fd823b8f", "lon": -77.01505816666666, "rental_uris": {"ios": "https://dc.lft.to/lastmile_qr_scan", "android": "https://dc.lft.to/lastmile_qr_scan"}}, {"name": "1f22dd6988fec12101a76dd780f1e3fb", "fusion_lat": 0.0, "type": "electric_scooter", "lat": 38.862074666666665, "is_reserved": 0, "is_disabled": 0, "fusion_lon": 0.0, "bike_id": "1f22dd6988fec12101a76dd780f1e3fb", "lon": -76.99470233333334, "rental_uris": {"ios": "https://dc.lft.to/lastmile_qr_scan", "android": "https://dc.lft.to/lastmile_qr_scan"}}, {"name": "099fe451956813846d666b9163189cf6", "fusion_lat": 0.0, "type": "electric_bike", "lat": 38.81509233333333, "is_reserved": 0, "is_disabled": 0, "fusion_lon": 0.0, "bike_id": "099fe451956813846d666b9163189cf6", "lon": -77.126509, "rental_uris": {"ios": "https://dc.lft.to/lastmile_qr_scan", "android": "https://dc.lft.to/lastmile_qr_scan"}}, {"name": "35499bdd67e671dd84fa9cb54e368790", "fusion_lat": 0.0, "type": "electric_scooter", "lat": 38.91099916666667, "is_reserved": 0, "is_disabled": 0, "fusion_lon": 0.0, "bike_id": "35499bdd67e671dd84fa9cb54e368790", "lon": -77.031859, "rental_uris": {"ios": "https://dc.lft.to/lastmile_qr_scan", "android": "https://dc.lft.to/lastmile_qr_scan"}},