{"data": {"bikes": [{"bike_id": "43652c917d358fb1e520fd5e93fd8983", "type": "electric_scooter", "is_disabled": 0, "lat": 38.92191866666667, "rental_uris": {"ios": "https://dc.lft.to/lastmile_qr_scan", "android": "https://dc.lft.to/lastmile_qr_scan"}, "is_reserved": 0, "fusion_lon": 0.0, "fusion_lat": 0.0, "lon": -76.9970495, "name": "43652c917d358fb1e520fd5e93fd8983"}, {"bike_id": "54ef2bf3743a7a17f0f922752b19b19e", "type": "electric_scooter", "is_disabled": 0, "lat": 38.90164133333333, "rental_uris": {"ios": "https://dc.lft.to/lastmile_qr_scan", "android": "https://dc.lft.to/lastmile_qr_scan"}, "is_reserved": 0, "fusion_lon": 0.0, "fusion_lat": 0.0, "lon": -76.930257, "name": "54ef2bf3743a7a17f0f922752b19b19e"}, {"bike_id": "ea6bff90e623734e3b8be53054536e03", "type": "electric_scooter", "is_disabled": 0, "lat": 38.88697883333333, "rental_uris": {"ios": "https://dc.lft.to/lastmile_qr_scan", "android": "https://dc.lft.to/lastmile_qr_scan"}, "is_reserved": 0, "fusion_lon": 0.0, "fusion_lat": 0.0, "lon": -76.99610966666667, "name": "ea6bff90e623734e3b8be53054536e03"}, {"bike_id": "3dc057e46658e79708f9ce27b06eecd3", "type": "electric_scooter", "is_disabled": 0, "lat": 38.917086166666664, "rental_uris": {"ios": "https://dc.lft.to/lastmile_qr_scan", "android": "https://dc.lft.to/lastmile_qr_scan"}, "is_reserved": 0, "fusion_lon": 0.0, "fusion_lat": 0.0, "lon": -77.03247016666667, "name": "3dc057e46658e79708f9ce27b06eecd3"}, {"bike_id": "280399bf0e8f8206a46135cd7d7c2fdc", "type": "electric_scooter", "is_disabled": 0, "lat": 38.9563505, "rental_uris": {"ios": "https://dc.lft.to/lastmile_qr_scan", "android": "https://dc.lft.to/lastmile_qr_scan"}, "is_reserved": 0, "fusion_lon": 0.0, "fusion_lat": 0.0, "lon": -77.01154483333333, "name": "280399bf0e8f8206a46135cd7d7c2fdc"}, {"bike_id": "bdf636c1be2f8eeb29b4888eef463474", "type": "electric_scooter", "is_disabled": 0, "lat": 38.95657116666667, "rental_uris": {"ios": "https://dc.lft.to/lastmile_qr_scan", "android": "https://dc.lft.to/lastmile_qr_scan"}, "is_reserved": 0, "fusion_lon": 0.0, "fusion_lat": 0.0, "lon": -77.0100855, "name": "bdf636c1be2f8eeb29b4888eef463474"}, {"bike_id": "d6bf0fe07851e77d90ec7fa9654ea12c", "type": "electric_scooter", "is_disabled": 0, "lat": 38.917026, "rental_uris": {"ios": "https://dc.lft.to/lastmile_qr_scan", "android": "https://dc.lft.to/lastmile_qr_scan"}, "is_reserved": 0, "fusion_lon": 0.0, "fusion_lat": 0.0, "lon": -77.023937, "name": "d6bf0fe07851e77d90ec7fa9654ea12c"}, {"bike_id": "06c1a7e6d13a031f760570625ffa7e59", "type": "electric_scooter", "is_disabled": 0, "lat": 38.87678233333333, "rental_uris": {"ios": "https://dc.lft.to/lastmile_qr_scan", "android": "https://dc.lft.to/lastmile_qr_scan"}, "is_reserved": 0, "fusion_lon": 0.0, "fusion_lat": 0.0, "lon": -77.000639, "name": "06c1a7e6d13a031f760570625ffa7e59"}, {"bike_id": "03b3ca30e2da3809d16b23c8c266c832", "type": "electric_bike", "is_disabled": 0, "lat": 38.79851433333333, "rental_uris": {"ios": "https://dc.lft.to/lastmile_qr_scan", "android": "https://dc.lft.to/lastmile_qr_scan"}, "is_reserved": 0, "fusion_lon": 0.0, "fusion_lat": 0.0, "lon": -77.06315183333334, "name": "03b3ca30e2da3809d16b23c8c266c832"}, {"bike_id": "53c9de728126412821b4c9441dc42268", "type": "electric_scooter", "is_disabled": 0, "lat": 38.905169, "rental_uris": {"ios": "https://dc.lft.to/lastmile_qr_scan", "android": "https://dc.lft.to/lastmile_qr_scan"}, "is_reserved": 0, "fusion_lon": 0.0, "fusion_lat": 0.0, "lon": -77.06383333333333, "name": "53c9de728126412821b4c9441dc42268"}, {"bike_id": "4442af4357f1475ca7be6461e1182480", "type": "electric_scooter", "is_disabled": 0, "lat": 38.915048, "rental_uris": {"ios": "https://dc.lft.to/lastmile_qr_scan", "android": "https://dc.lft.to/lastmile_qr_scan"}, "is_reserved": 0, "fusion_lon": 0.0, "fusion_lat": 0.0, "lon": -77.01777383333334, "name": "4442af4357f1475ca7be6461e1182480"}, {"bike_id": "db1284ede2e27e5b6d695044e0c3108e", "type": "electric_scooter", "is_disabled": 0, "lat": 38.907249666666665, "rental_uris": {"ios": "https://dc.lft.to/lastmile_qr_scan", "android": "https://dc.lft.to/lastmile_qr_scan"}, "is_reserved": 0, "fusion_lon": 0.0, "fusion_lat": 0.0, "lon": -77.039377, "name": "db1284ede2e27e5b6d695044e0c3108e"}, {"bike_id": "25150aca52b1a912b2c56f9e5bff2699", "type": "electric_scooter", "is_disabled": 0, "lat": 38.911168333333336, "rental_uris": {"ios": "https://dc.lft.to/lastmile_qr_scan", "android": "https://dc.lft.to/lastmile_qr_scan"}, "is_reserved": 0, "fusion_lon": 0.0, "fusion_lat": 0.0, "lon": -77.03174283333334, "name": "25150aca52b1a912b2c56f9e5bff2699"}, {"bike_id": "f8a243f4409c2797641526b0592af443", "type": "electric_scooter", "is_disabled": 0, "lat": 38.924539, "rental_uris": {"ios": "https://dc.lft.to/lastmile_qr_scan", "android": "https://dc.lft.to/lastmile_qr_scan"}, "is_reserved": 0, "fusion_lon": 0.0, "fusion_lat": 0.0, "lon": -77.043988, "name": "f8a243f4409c2797641526b0592af443"}, {"bike_id": "67634e286e3c070f3de719163a2d7f15", "type": "electric_scooter", "is_disabled": 0, "lat": 38.886594333333335, "rental_uris": {"ios": "https://dc.lft.to/lastmile_qr_scan", "android": "https://dc.lft.to/lastmile_qr_scan"}, "is_reserved": 0, "fusion_lon": 0.0, "fusion_lat": 0.0, "lon": -77.001146, "name": "67634e286e3c070f3de719163a2d7f15"}, {"bike_id": "b6c362ab8f321f1f5cac0f3bc5c2e3ff", "type": "electric_bike", "is_disabled": 0, "lat": 38.9953255, "rental_uris": {"ios": "https://dc.lft.to/lastmile_qr_scan", "android": "https://dc.lft.to/lastmile_qr_scan"}, "is_reserved": 0, "fusion_lon": 0.0, "fusion_lat": 0.0, "lon": -77.069516, "name": "b6c362ab8f321f1f5cac0f3bc5c2e3ff"}, {"bike_id": "9c98a71ee2f320fa01fbe46d015ca8f8", "type": "electric_scooter", "is_disabled": 0, "lat": 38.862422333333335, "rental_uris": {"ios": "https://dc.lft.to/lastmile_qr_scan", "android": "https://dc.lft.to/lastmile_qr_scan"}, "is_reserved": 0, "fusion_lon": 0.0, "fusion_lat": 0.0, "lon": -76.99501, "name": "9c98a71ee2f320fa01fbe46d015ca8f8"}, {"bike_id": "bebd336055681c133ba856315fcb6c1c", "type": "electric_scooter", "is_disabled": 0, "lat": 38.876475666666664, "rental_uris": {"ios": "https://dc.lft.to/lastmile_qr_scan", "android": "https://dc.lft.to/lastmile_qr_scan"}, "is_reserved": 0, "fusion_lon": 0.0, "fusion_lat": 0.0, "lon": -76.9650765, "name": "bebd336055681c133ba856315fcb6c1c"}, {"bike_id": "4a5d3ef43a9b06afe16eb3732eac8779", "type": "electric_scooter", "is_disabled": 0, "lat": 38.927483333333335, "rental_uris": {"ios": "https://dc.lft.to/lastmile_qr_scan", "android": "https://dc.lft.to/lastmile_qr_scan"}, "is_reserved": 0, "fusion_lon": 0.0, "fusion_lat": 0.0, "lon": -77.03349366666667, "name": "4a5d3ef43a9b06afe16eb3732eac8779"}, {"bike_id": "7e7787229ff8ac22f7dcb659fe51be14", "type": "electric_bike", "is_disabled": 0, "lat": 38.99448966666667, "rental_uris": {"ios": "https://dc.lft.to/lastmile_qr_scan", "android": "https://dc.lft.to/lastmile_qr_scan"}, "is_reserved": 0, "fusion_lon": 0.0, "fusion_lat": 0.0, "lon": -77.0292095, "name": "7e7787229ff8ac22f7dcb659fe51be14"}, {"bike_id": "3a4c4650f9d3bd43202d9b0ef73a69fb", "type": "electric_scooter", "is_disabled": 0, "lat": 38.86191066666667, "rental_uris": {"ios": "https://dc.lft.to/lastmile_qr_scan", "android": "https://dc.lft.to/lastmile_qr_scan"}, "is_reserved": 0, "fusion_lon": 0.0, "fusion_lat": 0.0, "lon": -76.9595165, "name": "3a4c4650f9d3bd43202d9b0ef73a69fb"}, {"bike_id": "f7bcfe30225008cb7aa7322e4256314b", "type": "electric_scooter", "is_disabled": 0, "lat": 38.96850466666667, "rental_uris": {"ios": "https://dc.lft.to/lastmile_qr_scan", "android": "https://dc.lft.to/lastmile_qr_scan"}, "is_reserved": 0, "fusion_lon": 0.0, "fusion_lat": 0.0, "lon": -77.0272555, "name": "f7bcfe30225008cb7aa7322e4256314b"}, {"bike_id": "22461c45c5600b0688f2e16f38f3ab9b", "type": "electric_scooter", "is_disabled": 0, "lat": 38.8621325, "rental_uris": {"ios": "https://dc.lft.to/lastmile_qr_scan", "android": "https://dc.lft.to/lastmile_qr_scan"}, "is_reserved": 0, "fusion_lon": 0.0, "fusion_lat": 0.0, "lon": -76.9947165, "name": "22461c45c5600b0688f2e16f38f3ab9b"}, {"bike_id": "e14a7e41021ec25b3169a75e75cd78f3", "type": "electric_scooter", "is_disabled": 0, "lat": 38.90611583333333, "rental_uris": {"ios": "https://dc.lft.to/lastmile_qr_scan", "android": "https://dc.lft.to/lastmile_qr_scan"}, "is_reserved": 0, "fusion_lon": 0.0, "fusion_lat": 0.0, "lon": -77.0398995, "name": "e14a7e41021ec25b3169a75e75cd78f3"}, {"bike_id": "8ff6b11228fc8ec222d660e2973fcfec", "type": "electric_scooter", "is_disabled": 0, "lat": 38.92163883333333, "rental_uris": {"ios": "https://dc.lft.to/lastmile_qr_scan", "android": "https://dc.lft.to/lastmile_qr_scan"}, "is_reserved": 0, "fusion_lon": 0.0, "fusion_lat": 0.0, "lon": -77.0384605, "name": "8ff6b11228fc8ec222d660e2973fcfec"}, {"bike_id": "3946d2e7f7182a52c9d303da2170f235", "type": "electric_scooter", "is_disabled": 0, "lat": 38.9335145, "rental_uris": {"ios": "https://dc.lft.to/lastmile_qr_scan", "android": "https://dc.lft.to/lastmile_qr_scan"}, "is_reserved": 0, "fusion_lon": 0.0, "fusion_lat": 0.0, "lon": -77.06214233333333, "name": "3946d2e7f7182a52c9d303da2170f235"}, {"bike_id": "a31f554b36013fef9ce982ea7e065955", "type": "electric_scooter", "is_disabled": 0, "lat": 38.90823866666667, "rental_uris": {"ios": "https://dc.lft.to/lastmile_qr_scan", "android": "https://dc.lft.to/lastmile_qr_scan"}, "is_reserved": 0, "fusion_lon": 0.0, "fusion_lat": 0.0, "lon": -77.063697, "name": "a31f554b36013fef9ce982ea7e065955"}, {"bike_id": "a4a602f5a56cee8a21144cb801da0ba3", "type": "electric_scooter", "is_disabled": 0, "lat": 38.89716583333333, "rental_uris": {"ios": "https://dc.lft.to/lastmile_qr_scan", "android": "https://dc.lft.to/lastmile_qr_scan"}, "is_reserved": 0, "fusion_lon": 0.0, "fusion_lat": 0.0, "lon": -76.98838283333333, "name": "a4a602f5a56cee8a21144cb801da0ba3"}, {"bike_id": "ae871a607a671ad0edc276c222f99be1", "type": "electric_scooter", "is_disabled": 0, "lat": 38.92254533333333, "rental_uris": {"ios": "https://dc.lft.to/lastmile_qr_scan", "android": "https://dc.lft.to/lastmile_qr_scan"}, "is_reserved": 0, "fusion_lon": 0.0, "fusion_lat": 0.0, "lon": -77.01968583333333, "name": "ae871a607a671ad0edc276c222f99be1"}, {"bike_id": "71585f9868f8db1d2095ca82ca6397c5", "type": "electric_scooter", "is_disabled": 0, "lat": 38.85758116666667, "rental_uris": {"ios": "https://dc.lft.to/lastmile_qr_scan", "android": "https://dc.lft.to/lastmile_qr_scan"}, "is_reserved": 0, "fusion_lon": 0.0, "fusion_lat": 0.0, "lon": -76.9930175, "name": "71585f9868f8db1d2095ca82ca6397c5"}, {"bike_id": "38ead75cc6fb4970c2920d4faefdd850", "type": "electric_scooter", "is_disabled": 0, "lat": 38.89484316666667, "rental_uris": {"ios": "https://dc.lft.to/lastmile_qr_scan", "android": "https://dc.lft.to/lastmile_qr_scan"}, "is_reserved": 0, "fusion_lon": 0.0, "fusion_lat": 0.0, "lon": -76.99519633333334, "name": "38ead75cc6fb4970c2920d4faefdd850"}, {"bike_id": "e81a2c40cc94f11674877e2e293f639b", "type": "electric_scooter", "is_disabled": 0, "lat": 38.905265166666666, "rental_uris": {"ios": "https://dc.lft.to/lastmile_qr_scan", "android": "https://dc.lft.to/lastmile_qr_scan"}, "is_reserved": 0, "fusion_lon": 0.0, "fusion_lat": 0.0, "lon": -76.98624283333334, "name": "e81a2c40cc94f11674877e2e293f639b"}, {"bike_id": "b82b197c334cfbd4f5feb6d127928471", "type": "electric_bike", "is_disabled": 0, "lat": 38.8294385, "rental_uris": {"ios": "https://dc.lft.to/lastmile_qr_scan", "android": "https://dc.lft.to/lastmile_qr_scan"}, "is_reserved": 0, "fusion_lon": 0.0, "fusion_lat": 0.0, "lon": -77.12362666666667, "name": "b82b197c334cfbd4f5feb6d127928471"}, {"bike_id": "6243416521e0a2096e44a6530df1e9e4", "type": "electric_scooter", "is_disabled": 0, "lat": 38.935158, "rental_uris": {"ios": "https://dc.lft.to/lastmile_qr_scan", "android": "https://dc.lft.to/lastmile_qr_scan"}, "is_reserved": 0, "fusion_lon": 0.0, "fusion_lat": 0.0, "lon": -77.03286483333333, "name": "6243416521e0a2096e44a6530df1e9e4"}, {"bike_id": "8f7d922f4f49513cc369c174d4d2040e", "type": "electric_bike", "is_disabled": 0, "lat": 38.930786166666664, "rental_uris": {"ios": "https://dc.lft.to/lastmile_qr_scan", "android": "https://dc.lft.to/lastmile_qr_scan"}, "is_reserved": 0, "fusion_lon": 0.0, "fusion_lat": 0.0, "lon": -77.02000283333334, "name": "8f7d922f4f49513cc369c174d4d2040e"}, {"bike_id": "0561246ac0f2cf886b12767d9312e88c", "type": "electric_scooter", "is_disabled": 0, "lat": 38.94182933333333, "rental_uris": {"ios": "https://dc.lft.to/lastmile_qr_scan", "android": "https://dc.lft.to/lastmile_qr_scan"}, "is_reserved": 0, "fusion_lon": 0.0, "fusion_lat": 0.0, "lon": -77.02533533333333, "name": "0561246ac0f2cf886b12767d9312e88c"}, {"bike_id": "edb4237c6a47f434bca9b5e71812f88e", "type": "electric_scooter", "is_disabled": 0, "lat": 38.866982666666665, "rental_uris": {"ios": "https://dc.lft.to/lastmile_qr_scan", "android": "https://dc.lft.to/lastmile_qr_scan"}, "is_reserved": 0, "fusion_lon": 0.0, "fusion_lat": 0.0, "lon": -76.98716766666666, "name": "edb4237c6a47f434bca9b5e71812f88e"}, {"bike_id": "622762663a893b2d38ce02beb8d9ac0c", "type": "electric_scooter", "is_disabled": 0, "lat": 38.937717666666664, "rental_uris": {"ios": "https://dc.lft.to/lastmile_qr_scan", "android": "https://dc.lft.to/lastmile_qr_scan"}, "is_reserved": 0, "fusion_lon": 0.0, "fusion_lat": 0.0, "lon": -77.01971533333334, "name": "622762663a893b2d38ce02beb8d9ac0c"}, {"bike_id": "62bf11970b9a5137300ccffa79e69bb6", "type": "electric_scooter", "is_disabled": 0, "lat": 38.92109516666667, "rental_uris": {"ios": "https://dc.lft.to/lastmile_qr_scan", "android": "https://dc.lft.to/lastmile_qr_scan"}, "is_reserved": 0, "fusion_lon": 0.0, "fusion_lat": 0.0, "lon": -77.01780916666667, "name": "62bf11970b9a5137300ccffa79e69bb6"}, {"bike_id": "3e6811a81070253fe4276a0704ec5299", "type": "electric_scooter", "is_disabled": 0, "lat": 38.914991, "rental_uris": {"ios": "https://dc.lft.to/lastmile_qr_scan", "android": "https://dc.lft.to/lastmile_qr_scan"}, "is_reserved": 0, "fusion_lon": 0.0, "fusion_lat": 0.0, "lon": -77.03185183333333, "name": "3e6811a81070253fe4276a0704ec5299"}, {"bike_id": "05dbbf299b4b5dad34c61a1b6823ea3b", "type": "electric_scooter", "is_disabled": 0, "lat": 38.91101, "rental_uris": {"ios": "https://dc.lft.to/lastmile_qr_scan", "android": "https://dc.lft.to/lastmile_qr_scan"}, "is_reserved": 0, "fusion_lon": 0.0, "fusion_lat": 0.0, "lon": -77.00220133333333, "name": "05dbbf299b4b5dad34c61a1b6823ea3b"}, {"bike_id": "a142d1fdad3feeebef200211fc31537d", "type": "electric_scooter", "is_disabled": 0, "lat": 38.8984355, "rental_uris": {"ios": "https://dc.lft.to/lastmile_qr_scan", "android": "https://dc.lft.to/lastmile_qr_scan"}, "is_reserved": 0, "fusion_lon": 0.0, "fusion_lat": 0.0, "lon": -77.02280166666667, "name": "a142d1fdad3feeebef200211fc31537d"}, {"bike_id": "57b173e7fcd800e4a75b3ee6639c4e44", "type": "electric_scooter", "is_disabled": 0, "lat": 38.883101, "rental_uris": {"ios": "https://dc.lft.to/lastmile_qr_scan", "android": "https://dc.lft.to/lastmile_qr_scan"}, "is_reserved": 0, "fusion_lon": 0.0, "fusion_lat": 0.0, "lon": -77.0035315, "name": "57b173e7fcd800e4a75b3ee6639c4e44"}, {"bike_id": "fa1f48da409da02daba85e456cbf183a", "type": "electric_scooter", "is_disabled": 0, "lat": 38.917062, "rental_uris": {"ios": "https://dc.lft.to/lastmile_qr_scan", "android": "https://dc.lft.to/lastmile_qr_scan"}, "is_reserved": 0, "fusion_lon": 0.0, "fusion_lat": 0.0, "lon": -77.0280735, "name": "fa1f48da409da02daba85e456cbf183a"}, {"bike_id": "8095485f4219054aec7f8c61cf08a761", "type": "electric_scooter", "is_disabled": 0, "lat": 38.899856166666666, "rental_uris": {"ios": "https://dc.lft.to/lastmile_qr_scan", "android": "https://dc.lft.to/lastmile_qr_scan"}, "is_reserved": 0, "fusion_lon": 0.0, "fusion_lat": 0.0, "lon": -76.95001483333333, "name": "8095485f4219054aec7f8c61cf08a761"}, {"bike_id": "66da6f8bbf3a16041b63a892d2166d1c", "type": "electric_scooter", "is_disabled": 0, "lat": 38.915641666666666, "rental_uris": {"ios": "https://dc.lft.to/lastmile_qr_scan", "android": "https://dc.lft.to/lastmile_qr_scan"}, "is_reserved": 0, "fusion_lon": 0.0, "fusion_lat": 0.0, "lon": -77.03140366666666, "name": "66da6f8bbf3a16041b63a892d2166d1c"}, {"bike_id": "ec364c7e227e01d7c0a7647e2e847bbd", "type": "electric_scooter", "is_disabled": 0, "lat": 38.913842333333335, "rental_uris": {"ios": "https://dc.lft.to/lastmile_qr_scan", "android": "https://dc.lft.to/lastmile_qr_scan"}, "is_reserved": 0, "fusion_lon": 0.0, "fusion_lat": 0.0, "lon": -77.03940666666666, "name": "ec364c7e227e01d7c0a7647e2e847bbd"}, {"bike_id": "67dd8b776e1de126e1ba1b9553064d66", "type": "electric_scooter", "is_disabled": 0, "lat": 38.8589035, "rental_uris": {"ios": "https://dc.lft.to/lastmile_qr_scan", "android": "https://dc.lft.to/lastmile_qr_scan"}, "is_reserved": 0, "fusion_lon": 0.0, "fusion_lat": 0.0, "lon": -76.99728683333333, "name": "67dd8b776e1de126e1ba1b9553064d66"}, {"bike_id": "01ab979b3bad4cc54c11b92a376ba672", "type": "electric_scooter", "is_disabled": 0, "lat": 38.8781355, "rental_uris": {"ios": "https://dc.lft.to/lastmile_qr_scan", "android": "https://dc.lft.to/lastmile_qr_scan"}, "is_reserved": 0, "fusion_lon": 0.0, "fusion_lat": 0.0, "lon": -76.97174083333333, "name": "01ab979b3bad4cc54c11b92a376ba672"}, {"bike_id": "64cad14530ae82216a9633ea93db880d", "type": "electric_scooter", "is_disabled": 0, "lat": 38.8947945, "rental_uris": {"ios": "https://dc.lft.to/lastmile_qr_scan", "android": "https://dc.lft.to/lastmile_qr_scan"}, "is_reserved": 0, "fusion_lon": 0.0, "fusion_lat": 0.0, "lon": -77.01093383333334, "name": "64cad14530ae82216a9633ea93db880d"}, {"bike_id": "88c43f0422a40a8e69203c23a267dd0c", "type": "electric_scooter", "is_disabled": 0, "lat": 38.9124445, "rental_uris": {"ios": "https://dc.lft.to/lastmile_qr_scan", "android": "https://dc.lft.to/lastmile_qr_scan"}, "is_reserved": 0, "fusion_lon": 0.0, "fusion_lat": 0.0, "lon": -77.022209, "name": "88c43f0422a40a8e69203c23a267dd0c"}, {"bike_id": "499610468b0cf2220ac2a47f24870825", "type": "electric_scooter", "is_disabled": 0, "lat": 38.90721516666667, "rental_uris": {"ios": "https://dc.lft.to/lastmile_qr_scan", "android": "https://dc.lft.to/lastmile_qr_scan"}, "is_reserved": 0, "fusion_lon": 0.0, "fusion_lat": 0.0, "lon": -77.026236, "name": "499610468b0cf2220ac2a47f24870825"}, {"bike_id": "614dde7a74295ab65974328b836324fe", "type": "electric_scooter", "is_disabled": 0, "lat": 38.940650166666664, "rental_uris": {"ios": "https://dc.lft.to/lastmile_qr_scan", "android": "https://dc.lft.to/lastmile_qr_scan"}, "is_reserved": 0, "fusion_lon": 0.0, "fusion_lat": 0.0, "lon": -77.06116083333333, "name": "614dde7a74295ab65974328b836324fe"}, {"bike_id": "43389c8e43bc4f25d9e5cb855259d0f6", "type": "electric_scooter", "is_disabled": 0, "lat": 38.91035983333333, "rental_uris": {"ios": "https://dc.lft.to/lastmile_qr_scan", "android": "https://dc.lft.to/lastmile_qr_scan"}, "is_reserved": 0, "fusion_lon": 0.0, "fusion_lat": 0.0, "lon": -77.03804166666667, "name": "43389c8e43bc4f25d9e5cb855259d0f6"}, {"bike_id": "9d2bb85199247c3a469c9d4a408b7c3f", "type": "electric_scooter", "is_disabled": 0, "lat": 38.8996035, "rental_uris": {"ios": "https://dc.lft.to/lastmile_qr_scan", "android": "https://dc.lft.to/lastmile_qr_scan"}, "is_reserved": 0, "fusion_lon": 0.0, "fusion_lat": 0.0, "lon": -77.02191266666667, "name": "9d2bb85199247c3a469c9d4a408b7c3f"}, {"bike_id": "126608b807081aff50cf5195f32f9f18", "type": "electric_scooter", "is_disabled": 0, "lat": 38.94294133333333, "rental_uris": {"ios": "https://dc.lft.to/lastmile_qr_scan", "android": "https://dc.lft.to/lastmile_qr_scan"}, "is_reserved": 0, "fusion_lon": 0.0, "fusion_lat": 0.0, "lon": -77.02167916666667, "name": "126608b807081aff50cf5195f32f9f18"}, {"bike_id": "55630d1f50f9da65054a0555ba142f00", "type": "electric_scooter", "is_disabled": 0, "lat": 38.90789016666667, "rental_uris": {"ios": "https://dc.lft.to/lastmile_qr_scan", "android": "https://dc.lft.to/lastmile_qr_scan"}, "is_reserved": 0, "fusion_lon": 0.0, "fusion_lat": 0.0, "lon": -77.04163466666667, "name": "55630d1f50f9da65054a0555ba142f00"}, {"bike_id": "849496b664d31741c2ec4c462bd1a37d", "type": "electric_scooter", "is_disabled": 0, "lat": 38.91671816666667, "rental_uris": {"ios": "https://dc.lft.to/lastmile_qr_scan", "android": "https://dc.lft.to/lastmile_qr_scan"}, "is_reserved": 0, "fusion_lon": 0.0, "fusion_lat": 0.0, "lon": -77.02392683333333, "name": "849496b664d31741c2ec4c462bd1a37d"}, {"bike_id": "9f70a20196ca803a06dbef44c9941b2b", "type": "electric_scooter", "is_disabled": 0, "lat": 38.9025955, "rental_uris": {"ios": "https://dc.lft.to/lastmile_qr_scan", "android": "https://dc.lft.to/lastmile_qr_scan"}, "is_reserved": 0, "fusion_lon": 0.0, "fusion_lat": 0.0, "lon": -77.0293845, "name": "9f70a20196ca803a06dbef44c9941b2b"}, {"bike_id": "26c3da4ad5c2b0b9a16279c2e276eaf1", "type": "electric_scooter", "is_disabled": 0, "lat": 38.90988816666667, "rental_uris": {"ios": "https://dc.lft.to/lastmile_qr_scan", "android": "https://dc.lft.to/lastmile_qr_scan"}, "is_reserved": 0, "fusion_lon": 0.0, "fusion_lat": 0.0, "lon": -77.02210566666666, "name": "26c3da4ad5c2b0b9a16279c2e276eaf1"}, {"bike_id": "e6e26518ccf357a33257108c6361a2f5", "type": "electric_scooter", "is_disabled": 0, "lat": 38.915915166666665, "rental_uris": {"ios": "https://dc.lft.to/lastmile_qr_scan", "android": "https://dc.lft.to/lastmile_qr_scan"}, "is_reserved": 0, "fusion_lon": 0.0, "fusion_lat": 0.0, "lon": -77.001968, "name": "e6e26518ccf357a33257108c6361a2f5"}, {"bike_id": "9b282cf7faa0bd0d2b815071f7566bf4", "type": "electric_scooter", "is_disabled": 0, "lat": 38.9053755, "rental_uris": {"ios": "https://dc.lft.to/lastmile_qr_scan", "android": "https://dc.lft.to/lastmile_qr_scan"}, "is_reserved": 0, "fusion_lon": 0.0, "fusion_lat": 0.0, "lon": -77.05803666666667, "name": "9b282cf7faa0bd0d2b815071f7566bf4"}, {"bike_id": "d4477e1a27d4bc703d627875d616732c", "type": "electric_scooter", "is_disabled": 0, "lat": 38.899677, "rental_uris": {"ios": "https://dc.lft.to/lastmile_qr_scan", "android": "https://dc.lft.to/lastmile_qr_scan"}, "is_reserved": 0, "fusion_lon": 0.0, "fusion_lat": 0.0, "lon": -76.9831495, "name": "d4477e1a27d4bc703d627875d616732c"}, {"bike_id": "75de8749cc15320dc9e7e57edd34399b", "type": "electric_scooter", "is_disabled": 0, "lat": 38.9047425, "rental_uris": {"ios": "https://dc.lft.to/lastmile_qr_scan", "android": "https://dc.lft.to/lastmile_qr_scan"}, "is_reserved": 0, "fusion_lon": 0.0, "fusion_lat": 0.0, "lon": -77.0090375, "name": "75de8749cc15320dc9e7e57edd34399b"}, {"bike_id": "c120e0f3ccd70a237eeb40b8502a489f", "type": "electric_scooter", "is_disabled": 0, "lat": 38.89735566666667, "rental_uris": {"ios": "https://dc.lft.to/lastmile_qr_scan", "android": "https://dc.lft.to/lastmile_qr_scan"}, "is_reserved": 0, "fusion_lon": 0.0, "fusion_lat": 0.0, "lon": -76.94729716666667, "name": "c120e0f3ccd70a237eeb40b8502a489f"}, {"bike_id": "f558e74349fad46b91c53dbf09fb4d71", "type": "electric_scooter", "is_disabled": 0, "lat": 38.90407583333333, "rental_uris": {"ios": "https://dc.lft.to/lastmile_qr_scan", "android": "https://dc.lft.to/lastmile_qr_scan"}, "is_reserved": 0, "fusion_lon": 0.0, "fusion_lat": 0.0, "lon": -76.97335533333333, "name": "f558e74349fad46b91c53dbf09fb4d71"}, {"bike_id": "80641eaaebcb9c897246056e197d9e4b", "type": "electric_bike", "is_disabled": 0, "lat": 38.8589065, "rental_uris": {"ios": "https://dc.lft.to/lastmile_qr_scan", "android": "https://dc.lft.to/lastmile_qr_scan"}, "is_reserved": 0, "fusion_lon": 0.0, "fusion_lat": 0.0, "lon": -77.11867866666667, "name": "80641eaaebcb9c897246056e197d9e4b"}, {"bike_id": "26b31313073c1e2a9d40e434e1487cb2", "type": "electric_scooter", "is_disabled": 0, "lat": 38.898153666666666, "rental_uris": {"ios": "https://dc.lft.to/lastmile_qr_scan", "android": "https://dc.lft.to/lastmile_qr_scan"}, "is_reserved": 0, "fusion_lon": 0.0, "fusion_lat": 0.0, "lon": -77.048907, "name": "26b31313073c1e2a9d40e434e1487cb2"}, {"bike_id": "5d85a420f55a9d31a8787ac8ff196ce9", "type": "electric_scooter", "is_disabled": 0, "lat": 38.88065483333333, "rental_uris": {"ios": "https://dc.lft.to/lastmile_qr_scan", "android": "https://dc.lft.to/lastmile_qr_scan"}, "is_reserved": 0, "fusion_lon": 0.0, "fusion_lat": 0.0, "lon": -77.02555916666667, "name": "5d85a420f55a9d31a8787ac8ff196ce9"}, {"bike_id": "a5f3331030fa0b431ba8a946a1aa082c", "type": "electric_scooter", "is_disabled": 0, "lat": 38.90578416666666, "rental_uris": {"ios": "https://dc.lft.to/lastmile_qr_scan", "android": "https://dc.lft.to/lastmile_qr_scan"}, "is_reserved": 0, "fusion_lon": 0.0, "fusion_lat": 0.0, "lon": -77.05146466666666, "name": "a5f3331030fa0b431ba8a946a1aa082c"}, {"bike_id": "e613e79512d546f7e66c6dff9db70cf1", "type": "electric_scooter", "is_disabled": 0, "lat": 38.9392905, "rental_uris": {"ios": "https://dc.lft.to/lastmile_qr_scan", "android": "https://dc.lft.to/lastmile_qr_scan"}, "is_reserved": 0, "fusion_lon": 0.0, "fusion_lat": 0.0, "lon": -77.03677733333333, "name": "e613e79512d546f7e66c6dff9db70cf1"}, {"bike_id": "15622a5f7e9e599392be946ff6766887", "type": "electric_scooter", "is_disabled": 0, "lat": 38.876772333333335, "rental_uris": {"ios": "https://dc.lft.to/lastmile_qr_scan", "android": "https://dc.lft.to/lastmile_qr_scan"}, "is_reserved": 0, "fusion_lon": 0.0, "fusion_lat": 0.0, "lon": -77.00047566666667, "name": "15622a5f7e9e599392be946ff6766887"}, {"bike_id": "20252a8c9ebf047ee2a782a221a8af8b", "type": "electric_scooter", "is_disabled": 0, "lat": 38.94997466666667, "rental_uris": {"ios": "https://dc.lft.to/lastmile_qr_scan", "android": "https://dc.lft.to/lastmile_qr_scan"}, "is_reserved": 0, "fusion_lon": 0.0, "fusion_lat": 0.0, "lon": -77.01828933333333, "name": "20252a8c9ebf047ee2a782a221a8af8b"}, {"bike_id": "da5d2e44bdf485c827a0a6dc73fd05a2", "type": "electric_scooter", "is_disabled": 0, "lat": 38.9125005, "rental_uris": {"ios": "https://dc.lft.to/lastmile_qr_scan", "android": "https://dc.lft.to/lastmile_qr_scan"}, "is_reserved": 0, "fusion_lon": 0.0, "fusion_lat": 0.0, "lon": -77.024281, "name": "da5d2e44bdf485c827a0a6dc73fd05a2"}, {"bike_id": "717953059dc2b38a7f8a28a293bce02b", "type": "electric_scooter", "is_disabled": 0, "lat": 38.91638783333333, "rental_uris": {"ios": "https://dc.lft.to/lastmile_qr_scan", "android": "https://dc.lft.to/lastmile_qr_scan"}, "is_reserved": 0, "fusion_lon": 0.0, "fusion_lat": 0.0, "lon": -77.0221275, "name": "717953059dc2b38a7f8a28a293bce02b"}, {"bike_id": "bdd1bfb722d656273d3d1aad422b22af", "type": "electric_scooter", "is_disabled": 0, "lat": 38.93195033333333, "rental_uris": {"ios": "https://dc.lft.to/lastmile_qr_scan", "android": "https://dc.lft.to/lastmile_qr_scan"}, "is_reserved": 0, "fusion_lon": 0.0, "fusion_lat": 0.0, "lon": -77.02397966666666, "name": "bdd1bfb722d656273d3d1aad422b22af"}, {"bike_id": "b82b5ad788510a272be04b7daa26a2cb", "type": "electric_scooter", "is_disabled": 0, "lat": 38.9050055, "rental_uris": {"ios": "https://dc.lft.to/lastmile_qr_scan", "android": "https://dc.lft.to/lastmile_qr_scan"}, "is_reserved": 0, "fusion_lon": 0.0, "fusion_lat": 0.0, "lon": -77.068881, "name": "b82b5ad788510a272be04b7daa26a2cb"}, {"bike_id": "138a920182e5d336d1e52ece6a012bdb", "type": "electric_scooter", "is_disabled": 0, "lat": 38.89827566666666, "rental_uris": {"ios": "https://dc.lft.to/lastmile_qr_scan", "android": "https://dc.lft.to/lastmile_qr_scan"}, "is_reserved": 0, "fusion_lon": 0.0, "fusion_lat": 0.0, "lon": -77.03329633333334, "name": "138a920182e5d336d1e52ece6a012bdb"}, {"bike_id": "5fb14e41db66d71968a65331caf1f4f2", "type": "electric_scooter", "is_disabled": 0, "lat": 38.876289666666665, "rental_uris": {"ios": "https://dc.lft.to/lastmile_qr_scan", "android": "https://dc.lft.to/lastmile_qr_scan"}, "is_reserved": 0, "fusion_lon": 0.0, "fusion_lat": 0.0, "lon": -76.96528633333334, "name": "5fb14e41db66d71968a65331caf1f4f2"}, {"bike_id": "7eb8cdbb78ce1f8d3e65f247a0148d69", "type": "electric_bike", "is_disabled": 0, "lat": 38.886380333333335, "rental_uris": {"ios": "https://dc.lft.to/lastmile_qr_scan", "android": "https://dc.lft.to/lastmile_qr_scan"}, "is_reserved": 0, "fusion_lon": 0.0, "fusion_lat": 0.0, "lon": -77.12984033333333, "name": "7eb8cdbb78ce1f8d3e65f247a0148d69"}, {"bike_id": "3c661dba44bdbc7e1edc9a6ab140116e", "type": "electric_scooter", "is_disabled": 0, "lat": 38.900488333333335, "rental_uris": {"ios": "https://dc.lft.to/lastmile_qr_scan", "android": "https://dc.lft.to/lastmile_qr_scan"}, "is_reserved": 0, "fusion_lon": 0.0, "fusion_lat": 0.0, "lon": -77.0130655, "name": "3c661dba44bdbc7e1edc9a6ab140116e"}, {"bike_id": "6b9fd4b34260598abf229c837bbf3184", "type": "electric_bike", "is_disabled": 0, "lat": 38.9523135, "rental_uris": {"ios": "https://dc.lft.to/lastmile_qr_scan", "android": "https://dc.lft.to/lastmile_qr_scan"}, "is_reserved": 0, "fusion_lon": 0.0, "fusion_lat": 0.0, "lon": -76.97958366666667, "name": "6b9fd4b34260598abf229c837bbf3184"}, {"bike_id": "c3030e68e787e48ee00f7505e1253298", "type": "electric_scooter", "is_disabled": 0, "lat": 38.900597, "rental_uris": {"ios": "https://dc.lft.to/lastmile_qr_scan", "android": "https://dc.lft.to/lastmile_qr_scan"}, "is_reserved": 0, "fusion_lon": 0.0, "fusion_lat": 0.0, "lon": -76.92744333333333, "name": "c3030e68e787e48ee00f7505e1253298"}, {"bike_id": "804045de1402fcfd04d744d03649dc3a", "type": "electric_scooter", "is_disabled": 0, "lat": 38.965048833333334, "rental_uris": {"ios": "https://dc.lft.to/lastmile_qr_scan", "android": "https://dc.lft.to/lastmile_qr_scan"}, "is_reserved": 0, "fusion_lon": 0.0, "fusion_lat": 0.0, "lon": -77.002013, "name": "804045de1402fcfd04d744d03649dc3a"}, {"bike_id": "a143938d48158373136e23ec1b8efe54", "type": "electric_scooter", "is_disabled": 0, "lat": 38.93554983333333, "rental_uris": {"ios": "https://dc.lft.to/lastmile_qr_scan", "android": "https://dc.lft.to/lastmile_qr_scan"}, "is_reserved": 0, "fusion_lon": 0.0, "fusion_lat": 0.0, "lon": -77.058827, "name": "a143938d48158373136e23ec1b8efe54"}, {"bike_id": "eaaea4e8bf1bfedc5ccb5c76868909fd", "type": "electric_scooter", "is_disabled": 0, "lat": 38.909712999999996, "rental_uris": {"ios": "https://dc.lft.to/lastmile_qr_scan", "android": "https://dc.lft.to/lastmile_qr_scan"}, "is_reserved": 0, "fusion_lon": 0.0, "fusion_lat": 0.0, "lon": -77.0482695, "name": "eaaea4e8bf1bfedc5ccb5c76868909fd"}, {"bike_id": "dd202c4c55f2aad0add98d804f5e87b2", "type": "electric_scooter", "is_disabled": 0, "lat": 38.90985333333333, "rental_uris": {"ios": "https://dc.lft.to/lastmile_qr_scan", "android": "https://dc.lft.to/lastmile_qr_scan"}, "is_reserved": 0, "fusion_lon": 0.0, "fusion_lat": 0.0, "lon": -77.01510183333333, "name": "dd202c4c55f2aad0add98d804f5e87b2"}, {"bike_id": "f26d795ad51a6d26668ba5fff034c8d5", "type": "electric_scooter", "is_disabled": 0, "lat": 38.91139783333333, "rental_uris": {"ios": "https://dc.lft.to/lastmile_qr_scan", "android": "https://dc.lft.to/lastmile_qr_scan"}, "is_reserved": 0, "fusion_lon": 0.0, "fusion_lat": 0.0, "lon": -77.0442565, "name": "f26d795ad51a6d26668ba5fff034c8d5"}, {"bike_id": "70502a0ae291c69c915e58af438db804", "type": "electric_scooter", "is_disabled": 0, "lat": 38.899617, "rental_uris": {"ios": "https://dc.lft.to/lastmile_qr_scan", "android": "https://dc.lft.to/lastmile_qr_scan"}, "is_reserved": 0, "fusion_lon": 0.0, "fusion_lat": 0.0, "lon": -77.016074, "name": "70502a0ae291c69c915e58af438db804"}, {"bike_id": "1f96408002efeb1d47ff7e0946d48333", "type": "electric_bike", "is_disabled": 0, "lat": 38.93896983333333, "rental_uris": {"ios": "https://dc.lft.to/lastmile_qr_scan", "android": "https://dc.lft.to/lastmile_qr_scan"}, "is_reserved": 0, "fusion_lon": 0.0, "fusion_lat": 0.0, "lon": -77.06354283333333, "name": "1f96408002efeb1d47ff7e0946d48333"}, {"bike_id": "695026a59cd698931ac2fb98c9c2a1a7", "type": "electric_scooter", "is_disabled": 0, "lat": 38.916902666666665, "rental_uris": {"ios": "https://dc.lft.to/lastmile_qr_scan", "android": "https://dc.lft.to/lastmile_qr_scan"}, "is_reserved": 0, "fusion_lon": 0.0, "fusion_lat": 0.0, "lon": -77.025228, "name": "695026a59cd698931ac2fb98c9c2a1a7"}, {"bike_id": "301c588371d00f4b11cee2306597a0e1", "type": "electric_scooter", "is_disabled": 0, "lat": 38.90781833333333, "rental_uris": {"ios": "https://dc.lft.to/lastmile_qr_scan", "android": "https://dc.lft.to/lastmile_qr_scan"}, "is_reserved": 0, "fusion_lon": 0.0, "fusion_lat": 0.0, "lon": -77.0725805, "name": "301c588371d00f4b11cee2306597a0e1"}, {"bike_id": "13281185e37b8fbc419b73aeb1d8269c", "type": "electric_scooter", "is_disabled": 0, "lat": 38.844322166666664, "rental_uris": {"ios": "https://dc.lft.to/lastmile_qr_scan", "android": "https://dc.lft.to/lastmile_qr_scan"}, "is_reserved": 0, "fusion_lon": 0.0, "fusion_lat": 0.0, "lon": -76.99874916666667, "name": "13281185e37b8fbc419b73aeb1d8269c"}, {"bike_id": "30790fee55cda0c70cdeaa9ea05df14f", "type": "electric_scooter", "is_disabled": 0, "lat": 38.923652833333335, "rental_uris": {"ios": "https://dc.lft.to/lastmile_qr_scan", "android": "https://dc.lft.to/lastmile_qr_scan"}, "is_reserved": 0, "fusion_lon": 0.0, "fusion_lat": 0.0, "lon": -77.05047683333333, "name": "30790fee55cda0c70cdeaa9ea05df14f"}, {"bike_id": "8ba937304eb496a67d51e89564498931", "type": "electric_scooter", "is_disabled": 0, "lat": 38.93397066666667, "rental_uris": {"ios": "https://dc.lft.to/lastmile_qr_scan", "android": "https://dc.lft.to/lastmile_qr_scan"}, "is_reserved": 0, "fusion_lon": 0.0, "fusion_lat": 0.0, "lon": -77.03525983333333, "name": "8ba937304eb496a67d51e89564498931"}, {"bike_id": "352d42d249cc036feba166772e2fa79b", "type": "electric_scooter", "is_disabled": 0, "lat": 38.920937333333335, "rental_uris": {"ios": "https://dc.lft.to/lastmile_qr_scan", "android": "https://dc.lft.to/lastmile_qr_scan"}, "is_reserved": 0, "fusion_lon": 0.0, "fusion_lat": 0.0, "lon": -77.03167966666666, "name": "352d42d249cc036feba166772e2fa79b"}, {"bike_id": "d5545b1c651d83b3d6744232ceaa7844", "type": "electric_scooter", "is_disabled": 0, "lat": 38.90943166666667, "rental_uris": {"ios": "https://dc.lft.to/lastmile_qr_scan", "android": "https://dc.lft.to/lastmile_qr_scan"}, "is_reserved": 0, "fusion_lon": 0.0, "fusion_lat": 0.0, "lon": -77.055649, "name": "d5545b1c651d83b3d6744232ceaa7844"}, {"bike_id": "acfd283cb67aee5c510455004115e77e", "type": "electric_scooter", "is_disabled": 0, "lat": 38.910576666666664, "rental_uris": {"ios": "https://dc.lft.to/lastmile_qr_scan", "android": "https://dc.lft.to/lastmile_qr_scan"}, "is_reserved": 0, "fusion_lon": 0.0, "fusion_lat": 0.0, "lon": -77.04513283333333, "name": "acfd283cb67aee5c510455004115e77e"}, {"bike_id": "cbb6310dd0ce9780e6a67ceb455f4e83", "type": "electric_scooter", "is_disabled": 0, "lat": 38.9296745, "rental_uris": {"ios": "https://dc.lft.to/lastmile_qr_scan", "android": "https://dc.lft.to/lastmile_qr_scan"}, "is_reserved": 0, "fusion_lon": 0.0, "fusion_lat": 0.0, "lon": -77.02793966666667, "name": "cbb6310dd0ce9780e6a67ceb455f4e83"}, {"bike_id": "05b9ae691a92bbcd5c2b5356ccbc343e", "type": "electric_scooter", "is_disabled": 0, "lat": 38.93827433333333, "rental_uris": {"ios": "https://dc.lft.to/lastmile_qr_scan", "android": "https://dc.lft.to/lastmile_qr_scan"}, "is_reserved": 0, "fusion_lon": 0.0, "fusion_lat": 0.0, "lon": -76.99048816666667, "name": "05b9ae691a92bbcd5c2b5356ccbc343e"}, {"bike_id": "043c5fd211fb66ed0ceb5d582bdcc3b0", "type": "electric_scooter", "is_disabled": 0, "lat": 38.9123785, "rental_uris": {"ios": "https://dc.lft.to/lastmile_qr_scan", "android": "https://dc.lft.to/lastmile_qr_scan"}, "is_reserved": 0, "fusion_lon": 0.0, "fusion_lat": 0.0, "lon": -77.04511283333333, "name": "043c5fd211fb66ed0ceb5d582bdcc3b0"}, {"bike_id": "b216c7dc6b73b0efbda7bbf4492271a9", "type": "electric_bike", "is_disabled": 0, "lat": 38.845263333333335, "rental_uris": {"ios": "https://dc.lft.to/lastmile_qr_scan", "android": "https://dc.lft.to/lastmile_qr_scan"}, "is_reserved": 0, "fusion_lon": 0.0, "fusion_lat": 0.0, "lon": -76.9740025, "name": "b216c7dc6b73b0efbda7bbf4492271a9"}, {"bike_id": "b67fe8a0283d2614cb9d4352faf4c630", "type": "electric_scooter", "is_disabled": 0, "lat": 38.91175483333333, "rental_uris": {"ios": "https://dc.lft.to/lastmile_qr_scan", "android": "https://dc.lft.to/lastmile_qr_scan"}, "is_reserved": 0, "fusion_lon": 0.0, "fusion_lat": 0.0, "lon": -77.03851683333333, "name": "b67fe8a0283d2614cb9d4352faf4c630"}, {"bike_id": "738816d204e1a4b669ca6d2901e0a6c0", "type": "electric_scooter", "is_disabled": 0, "lat": 38.947849833333336, "rental_uris": {"ios": "https://dc.lft.to/lastmile_qr_scan", "android": "https://dc.lft.to/lastmile_qr_scan"}, "is_reserved": 0, "fusion_lon": 0.0, "fusion_lat": 0.0, "lon": -77.02141333333333, "name": "738816d204e1a4b669ca6d2901e0a6c0"}, {"bike_id": "41e07ec5d5b01c86f91d68f2f11061ce", "type": "electric_bike", "is_disabled": 0, "lat": 38.90212833333333, "rental_uris": {"ios": "https://dc.lft.to/lastmile_qr_scan", "android": "https://dc.lft.to/lastmile_qr_scan"}, "is_reserved": 0, "fusion_lon": 0.0, "fusion_lat": 0.0, "lon": -77.01609366666666, "name": "41e07ec5d5b01c86f91d68f2f11061ce"}, {"bike_id": "5c5304aca5cb9051efbdd1ba2a53bec6", "type": "electric_scooter", "is_disabled": 0, "lat": 38.92322033333333, "rental_uris": {"ios": "https://dc.lft.to/lastmile_qr_scan", "android": "https://dc.lft.to/lastmile_qr_scan"}, "is_reserved": 0, "fusion_lon": 0.0, "fusion_lat": 0.0, "lon": -77.021388, "name": "5c5304aca5cb9051efbdd1ba2a53bec6"}, {"bike_id": "134539865d0189e52bfa4074fa7cba51", "type": "electric_scooter", "is_disabled": 0, "lat": 38.921568, "rental_uris": {"ios": "https://dc.lft.to/lastmile_qr_scan", "android": "https://dc.lft.to/lastmile_qr_scan"}, "is_reserved": 0, "fusion_lon": 0.0, "fusion_lat": 0.0, "lon": -77.0386965, "name": "134539865d0189e52bfa4074fa7cba51"}, {"bike_id": "b2bbd49051cac791477370394d421fb6", "type": "electric_scooter", "is_disabled": 0, "lat": 38.881813, "rental_uris": {"ios": "https://dc.lft.to/lastmile_qr_scan", "android": "https://dc.lft.to/lastmile_qr_scan"}, "is_reserved": 0, "fusion_lon": 0.0, "fusion_lat": 0.0, "lon": -77.02813666666667, "name": "b2bbd49051cac791477370394d421fb6"}, {"bike_id": "4432094af050b5f932ddab1aa61e0353", "type": "electric_scooter", "is_disabled": 0, "lat": 38.9030395, "rental_uris": {"ios": "https://dc.lft.to/lastmile_qr_scan", "android": "https://dc.lft.to/lastmile_qr_scan"}, "is_reserved": 0, "fusion_lon": 0.0, "fusion_lat": 0.0, "lon": -77.05051633333333, "name": "4432094af050b5f932ddab1aa61e0353"}, {"bike_id": "cee33a3302ef8b60f94e917b411085db", "type": "electric_scooter", "is_disabled": 0, "lat": 38.90775216666667, "rental_uris": {"ios": "https://dc.lft.to/lastmile_qr_scan", "android": "https://dc.lft.to/lastmile_qr_scan"}, "is_reserved": 0, "fusion_lon": 0.0, "fusion_lat": 0.0, "lon": -77.04179383333333, "name": "cee33a3302ef8b60f94e917b411085db"}, {"bike_id": "4150f3a2d810394b5efd0127786e3517", "type": "electric_scooter", "is_disabled": 0, "lat": 38.875687166666665, "rental_uris": {"ios": "https://dc.lft.to/lastmile_qr_scan", "android": "https://dc.lft.to/lastmile_qr_scan"}, "is_reserved": 0, "fusion_lon": 0.0, "fusion_lat": 0.0, "lon": -77.01278033333334, "name": "4150f3a2d810394b5efd0127786e3517"}, {"bike_id": "a31f85608856c171e9237f8a32489928", "type": "electric_scooter", "is_disabled": 0, "lat": 38.89605183333333, "rental_uris": {"ios": "https://dc.lft.to/lastmile_qr_scan", "android": "https://dc.lft.to/lastmile_qr_scan"}, "is_reserved": 0, "fusion_lon": 0.0, "fusion_lat": 0.0, "lon": -77.00926483333333, "name": "a31f85608856c171e9237f8a32489928"}, {"bike_id": "dae9ffe7259d7c03073e2d7423928bbe", "type": "electric_scooter", "is_disabled": 0, "lat": 38.90392516666667, "rental_uris": {"ios": "https://dc.lft.to/lastmile_qr_scan", "android": "https://dc.lft.to/lastmile_qr_scan"}, "is_reserved": 0, "fusion_lon": 0.0, "fusion_lat": 0.0, "lon": -77.048758, "name": "dae9ffe7259d7c03073e2d7423928bbe"}, {"bike_id": "01295e175784ff818b29c431e72f236d", "type": "electric_scooter", "is_disabled": 0, "lat": 38.897361833333335, "rental_uris": {"ios": "https://dc.lft.to/lastmile_qr_scan", "android": "https://dc.lft.to/lastmile_qr_scan"}, "is_reserved": 0, "fusion_lon": 0.0, "fusion_lat": 0.0, "lon": -76.94725366666667, "name": "01295e175784ff818b29c431e72f236d"}, {"bike_id": "e432438405720a2e035f4536fe4767b0", "type": "electric_scooter", "is_disabled": 0, "lat": 38.9238065, "rental_uris": {"ios": "https://dc.lft.to/lastmile_qr_scan", "android": "https://dc.lft.to/lastmile_qr_scan"}, "is_reserved": 0, "fusion_lon": 0.0, "fusion_lat": 0.0, "lon": -77.02809883333333, "name": "e432438405720a2e035f4536fe4767b0"}, {"bike_id": "3087e3ac55c082b488326eb9f9f00967", "type": "electric_scooter", "is_disabled": 0, "lat": 38.92947, "rental_uris": {"ios": "https://dc.lft.to/lastmile_qr_scan", "android": "https://dc.lft.to/lastmile_qr_scan"}, "is_reserved": 0, "fusion_lon": 0.0, "fusion_lat": 0.0, "lon": -77.03467183333333, "name": "3087e3ac55c082b488326eb9f9f00967"}, {"bike_id": "dfd6b47c707bfe0f6a1b36a70835847b", "type": "electric_bike", "is_disabled": 0, "lat": 39.034191, "rental_uris": {"ios": "https://dc.lft.to/lastmile_qr_scan", "android": "https://dc.lft.to/lastmile_qr_scan"}, "is_reserved": 0, "fusion_lon": 0.0, "fusion_lat": 0.0, "lon": -77.041662, "name": "dfd6b47c707bfe0f6a1b36a70835847b"}, {"bike_id": "b3379b4b80d8a7d2261d0ce7393b4924", "type": "electric_scooter", "is_disabled": 0, "lat": 38.92753183333333, "rental_uris": {"ios": "https://dc.lft.to/lastmile_qr_scan", "android": "https://dc.lft.to/lastmile_qr_scan"}, "is_reserved": 0, "fusion_lon": 0.0, "fusion_lat": 0.0, "lon": -77.02432116666667, "name": "b3379b4b80d8a7d2261d0ce7393b4924"}, {"bike_id": "5dfdba83589ba372ab341874370bc1a7", "type": "electric_scooter", "is_disabled": 0, "lat": 38.900226, "rental_uris": {"ios": "https://dc.lft.to/lastmile_qr_scan", "android": "https://dc.lft.to/lastmile_qr_scan"}, "is_reserved": 0, "fusion_lon": 0.0, "fusion_lat": 0.0, "lon": -77.00231616666666, "name": "5dfdba83589ba372ab341874370bc1a7"}, {"bike_id": "cbc772b402fa5af231ccce2c69495aa3", "type": "electric_scooter", "is_disabled": 0, "lat": 38.91402033333333, "rental_uris": {"ios": "https://dc.lft.to/lastmile_qr_scan", "android": "https://dc.lft.to/lastmile_qr_scan"}, "is_reserved": 0, "fusion_lon": 0.0, "fusion_lat": 0.0, "lon": -77.03170633333333, "name": "cbc772b402fa5af231ccce2c69495aa3"}, {"bike_id": "6569c85108cc8f688fe5e4906a91a183", "type": "electric_scooter", "is_disabled": 0, "lat": 38.90267133333333, "rental_uris": {"ios": "https://dc.lft.to/lastmile_qr_scan", "android": "https://dc.lft.to/lastmile_qr_scan"}, "is_reserved": 0, "fusion_lon": 0.0, "fusion_lat": 0.0, "lon": -77.04853533333333, "name": "6569c85108cc8f688fe5e4906a91a183"}, {"bike_id": "a05e135abe49c26b736f6ea95c010df5", "type": "electric_bike", "is_disabled": 0, "lat": 39.05785083333333, "rental_uris": {"ios": "https://dc.lft.to/lastmile_qr_scan", "android": "https://dc.lft.to/lastmile_qr_scan"}, "is_reserved": 0, "fusion_lon": 0.0, "fusion_lat": 0.0, "lon": -77.1502175, "name": "a05e135abe49c26b736f6ea95c010df5"}, {"bike_id": "779bc2941808502812abaf8f876b3a57", "type": "electric_bike", "is_disabled": 0, "lat": 38.81983616666667, "rental_uris": {"ios": "https://dc.lft.to/lastmile_qr_scan", "android": "https://dc.lft.to/lastmile_qr_scan"}, "is_reserved": 0, "fusion_lon": 0.0, "fusion_lat": 0.0, "lon": -76.99810533333333, "name": "779bc2941808502812abaf8f876b3a57"}, {"bike_id": "64452e5604f23210b96bef7601963bfb", "type": "electric_scooter", "is_disabled": 0, "lat": 38.915664, "rental_uris": {"ios": "https://dc.lft.to/lastmile_qr_scan", "android": "https://dc.lft.to/lastmile_qr_scan"}, "is_reserved": 0, "fusion_lon": 0.0, "fusion_lat": 0.0, "lon": -77.01198333333333, "name": "64452e5604f23210b96bef7601963bfb"}, {"bike_id": "f4863ccfbdd320718e9dc5b7467759bd", "type": "electric_scooter", "is_disabled": 0, "lat": 38.91647183333333, "rental_uris": {"ios": "https://dc.lft.to/lastmile_qr_scan", "android": "https://dc.lft.to/lastmile_qr_scan"}, "is_reserved": 0, "fusion_lon": 0.0, "fusion_lat": 0.0, "lon": -77.02387833333333, "name": "f4863ccfbdd320718e9dc5b7467759bd"}, {"bike_id": "17c4723045e56ea090226eee819d6f22", "type": "electric_scooter", "is_disabled": 0, "lat": 38.856999333333334, "rental_uris": {"ios": "https://dc.lft.to/lastmile_qr_scan", "android": "https://dc.lft.to/lastmile_qr_scan"}, "is_reserved": 0, "fusion_lon": 0.0, "fusion_lat": 0.0, "lon": -76.98971683333333, "name": "17c4723045e56ea090226eee819d6f22"}, {"bike_id": "40710786b0cdf027b7cc11a2c3451dfa", "type": "electric_scooter", "is_disabled": 0, "lat": 38.901451333333334, "rental_uris": {"ios": "https://dc.lft.to/lastmile_qr_scan", "android": "https://dc.lft.to/lastmile_qr_scan"}, "is_reserved": 0, "fusion_lon": 0.0, "fusion_lat": 0.0, "lon": -77.02774916666667, "name": "40710786b0cdf027b7cc11a2c3451dfa"}, {"bike_id": "e353769c642b9b7ca2b3220124a971b9", "type": "electric_scooter", "is_disabled": 0, "lat": 38.90522433333334, "rental_uris": {"ios": "https://dc.lft.to/lastmile_qr_scan", "android": "https://dc.lft.to/lastmile_qr_scan"}, "is_reserved": 0, "fusion_lon": 0.0, "fusion_lat": 0.0, "lon": -77.0501055, "name": "e353769c642b9b7ca2b3220124a971b9"}, {"bike_id": "86a4d14b4a35cf72b1c8b9c6dc66a877", "type": "electric_scooter", "is_disabled": 0, "lat": 38.916947666666665, "rental_uris": {"ios": "https://dc.lft.to/lastmile_qr_scan", "android": "https://dc.lft.to/lastmile_qr_scan"}, "is_reserved": 0, "fusion_lon": 0.0, "fusion_lat": 0.0, "lon": -77.02519083333334, "name": "86a4d14b4a35cf72b1c8b9c6dc66a877"}, {"bike_id": "9d455493b2e8fecc30807e4653ab4dc7", "type": "electric_scooter", "is_disabled": 0, "lat": 38.911074166666666, "rental_uris": {"ios": "https://dc.lft.to/lastmile_qr_scan", "android": "https://dc.lft.to/lastmile_qr_scan"}, "is_reserved": 0, "fusion_lon": 0.0, "fusion_lat": 0.0, "lon": -77.044749, "name": "9d455493b2e8fecc30807e4653ab4dc7"}, {"bike_id": "3a3c241ffd2a452ff917fc9f6da2ebda", "type": "electric_scooter", "is_disabled": 0, "lat": 38.90069783333333, "rental_uris": {"ios": "https://dc.lft.to/lastmile_qr_scan", "android": "https://dc.lft.to/lastmile_qr_scan"}, "is_reserved": 0, "fusion_lon": 0.0, "fusion_lat": 0.0, "lon": -76.99023083333333, "name": "3a3c241ffd2a452ff917fc9f6da2ebda"}, {"bike_id": "100964a61f37b1dc2636cd56992c2a2a", "type": "electric_scooter", "is_disabled": 0, "lat": 38.90351283333333, "rental_uris": {"ios": "https://dc.lft.to/lastmile_qr_scan", "android": "https://dc.lft.to/lastmile_qr_scan"}, "is_reserved": 0, "fusion_lon": 0.0, "fusion_lat": 0.0, "lon": -77.0162215, "name": "100964a61f37b1dc2636cd56992c2a2a"}, {"bike_id": "06aca6e296233d41143d358bce46f8b4", "type": "electric_scooter", "is_disabled": 0, "lat": 38.871157833333335, "rental_uris": {"ios": "https://dc.lft.to/lastmile_qr_scan", "android": "https://dc.lft.to/lastmile_qr_scan"}, "is_reserved": 0, "fusion_lon": 0.0, "fusion_lat": 0.0, "lon": -76.982479, "name": "06aca6e296233d41143d358bce46f8b4"}, {"bike_id": "8b00e5d2fe390c8009d3d69934461065", "type": "electric_scooter", "is_disabled": 0, "lat": 38.852045333333336, "rental_uris": {"ios": "https://dc.lft.to/lastmile_qr_scan", "android": "https://dc.lft.to/lastmile_qr_scan"}, "is_reserved": 0, "fusion_lon": 0.0, "fusion_lat": 0.0, "lon": -76.985538, "name": "8b00e5d2fe390c8009d3d69934461065"}, {"bike_id": "7e502f30fb2e08b7657c9f464094d162", "type": "electric_scooter", "is_disabled": 0, "lat": 38.902700833333334, "rental_uris": {"ios": "https://dc.lft.to/lastmile_qr_scan", "android": "https://dc.lft.to/lastmile_qr_scan"}, "is_reserved": 0, "fusion_lon": 0.0, "fusion_lat": 0.0, "lon": -77.02999583333333, "name": "7e502f30fb2e08b7657c9f464094d162"}, {"bike_id": "406a5f991090eefb57258c7c5e890cd8", "type": "electric_scooter", "is_disabled": 0, "lat": 38.8927445, "rental_uris": {"ios": "https://dc.lft.to/lastmile_qr_scan", "android": "https://dc.lft.to/lastmile_qr_scan"}, "is_reserved": 0, "fusion_lon": 0.0, "fusion_lat": 0.0, "lon": -77.033311, "name": "406a5f991090eefb57258c7c5e890cd8"}, {"bike_id": "9f16b34f34c877eb9f76a18cfbf23cef", "type": "electric_scooter", "is_disabled": 0, "lat": 38.89006416666667, "rental_uris": {"ios": "https://dc.lft.to/lastmile_qr_scan", "android": "https://dc.lft.to/lastmile_qr_scan"}, "is_reserved": 0, "fusion_lon": 0.0, "fusion_lat": 0.0, "lon": -76.93748316666667, "name": "9f16b34f34c877eb9f76a18cfbf23cef"}, {"bike_id": "38ad354119f42c1ac0a65343a7631eb9", "type": "electric_scooter", "is_disabled": 0, "lat": 38.8841805, "rental_uris": {"ios": "https://dc.lft.to/lastmile_qr_scan", "android": "https://dc.lft.to/lastmile_qr_scan"}, "is_reserved": 0, "fusion_lon": 0.0, "fusion_lat": 0.0, "lon": -76.95749233333333, "name": "38ad354119f42c1ac0a65343a7631eb9"}, {"bike_id": "37f195f26b71f5e0ff1146aa482dc3ae", "type": "electric_scooter", "is_disabled": 0, "lat": 38.9103575, "rental_uris": {"ios": "https://dc.lft.to/lastmile_qr_scan", "android": "https://dc.lft.to/lastmile_qr_scan"}, "is_reserved": 0, "fusion_lon": 0.0, "fusion_lat": 0.0, "lon": -77.03801183333333, "name": "37f195f26b71f5e0ff1146aa482dc3ae"}, {"bike_id": "2f07c960d374203f948f91992c3dd1f1", "type": "electric_scooter", "is_disabled": 0, "lat": 38.90236216666667, "rental_uris": {"ios": "https://dc.lft.to/lastmile_qr_scan", "android": "https://dc.lft.to/lastmile_qr_scan"}, "is_reserved": 0, "fusion_lon": 0.0, "fusion_lat": 0.0, "lon": -77.0175435, "name": "2f07c960d374203f948f91992c3dd1f1"}, {"bike_id": "551fe82a1457f5ca780791d448df9dec", "type": "electric_scooter", "is_disabled": 0, "lat": 38.92060033333333, "rental_uris": {"ios": "https://dc.lft.to/lastmile_qr_scan", "android": "https://dc.lft.to/lastmile_qr_scan"}, "is_reserved": 0, "fusion_lon": 0.0, "fusion_lat": 0.0, "lon": -77.02428116666667, "name": "551fe82a1457f5ca780791d448df9dec"}, {"bike_id": "1ae539b9e16a9580385f45809645186d", "type": "electric_scooter", "is_disabled": 0, "lat": 38.91780033333333, "rental_uris": {"ios": "https://dc.lft.to/lastmile_qr_scan", "android": "https://dc.lft.to/lastmile_qr_scan"}, "is_reserved": 0, "fusion_lon": 0.0, "fusion_lat": 0.0, "lon": -77.02311383333333, "name": "1ae539b9e16a9580385f45809645186d"}, {"bike_id": "9625a469940bd56760d33a3db673ccc6", "type": "electric_scooter", "is_disabled": 0, "lat": 38.91443, "rental_uris": {"ios": "https://dc.lft.to/lastmile_qr_scan", "android": "https://dc.lft.to/lastmile_qr_scan"}, "is_reserved": 0, "fusion_lon": 0.0, "fusion_lat": 0.0, "lon": -77.026026, "name": "9625a469940bd56760d33a3db673ccc6"}, {"bike_id": "57dd3173eae61b2b93a4a5cbc2e5dead", "type": "electric_scooter", "is_disabled": 0, "lat": 38.90114716666667, "rental_uris": {"ios": "https://dc.lft.to/lastmile_qr_scan", "android": "https://dc.lft.to/lastmile_qr_scan"}, "is_reserved": 0, "fusion_lon": 0.0, "fusion_lat": 0.0, "lon": -77.01790183333334, "name": "57dd3173eae61b2b93a4a5cbc2e5dead"}, {"bike_id": "4c46d900fdf67a862d1e914faba4cbd8", "type": "electric_scooter", "is_disabled": 0, "lat": 38.887563166666666, "rental_uris": {"ios": "https://dc.lft.to/lastmile_qr_scan", "android": "https://dc.lft.to/lastmile_qr_scan"}, "is_reserved": 0, "fusion_lon": 0.0, "fusion_lat": 0.0, "lon": -77.029426, "name": "4c46d900fdf67a862d1e914faba4cbd8"}, {"bike_id": "fe64d50b83f0154b6cfff1f118138149", "type": "electric_scooter", "is_disabled": 0, "lat": 38.92474216666667, "rental_uris": {"ios": "https://dc.lft.to/lastmile_qr_scan", "android": "https://dc.lft.to/lastmile_qr_scan"}, "is_reserved": 0, "fusion_lon": 0.0, "fusion_lat": 0.0, "lon": -77.03969783333334, "name": "fe64d50b83f0154b6cfff1f118138149"}, {"bike_id": "c4ebe3c6140f1b6c229dda82cc96476f", "type": "electric_scooter", "is_disabled": 0, "lat": 38.904855, "rental_uris": {"ios": "https://dc.lft.to/lastmile_qr_scan", "android": "https://dc.lft.to/lastmile_qr_scan"}, "is_reserved": 0, "fusion_lon": 0.0, "fusion_lat": 0.0, "lon": -77.02959916666667, "name": "c4ebe3c6140f1b6c229dda82cc96476f"}, {"bike_id": "20e0da30d4af0a943b4de08adbfae608", "type": "electric_scooter", "is_disabled": 0, "lat": 38.91455466666667, "rental_uris": {"ios": "https://dc.lft.to/lastmile_qr_scan", "android": "https://dc.lft.to/lastmile_qr_scan"}, "is_reserved": 0, "fusion_lon": 0.0, "fusion_lat": 0.0, "lon": -77.07107083333334, "name": "20e0da30d4af0a943b4de08adbfae608"}, {"bike_id": "88baf77afaa4a1347832c5abd639d044", "type": "electric_scooter", "is_disabled": 0, "lat": 38.917064, "rental_uris": {"ios": "https://dc.lft.to/lastmile_qr_scan", "android": "https://dc.lft.to/lastmile_qr_scan"}, "is_reserved": 0, "fusion_lon": 0.0, "fusion_lat": 0.0, "lon": -77.0324815, "name": "88baf77afaa4a1347832c5abd639d044"}, {"bike_id": "68a959149e940f3b81e67fada8d38862", "type": "electric_scooter", "is_disabled": 0, "lat": 38.91754183333333, "rental_uris": {"ios": "https://dc.lft.to/lastmile_qr_scan", "android": "https://dc.lft.to/lastmile_qr_scan"}, "is_reserved": 0, "fusion_lon": 0.0, "fusion_lat": 0.0, "lon": -77.03859483333333, "name": "68a959149e940f3b81e67fada8d38862"}, {"bike_id": "422580330df4437a5f513a0061de80d0", "type": "electric_scooter", "is_disabled": 0, "lat": 38.936516833333336, "rental_uris": {"ios": "https://dc.lft.to/lastmile_qr_scan", "android": "https://dc.lft.to/lastmile_qr_scan"}, "is_reserved": 0, "fusion_lon": 0.0, "fusion_lat": 0.0, "lon": -77.03352866666667, "name": "422580330df4437a5f513a0061de80d0"}, {"bike_id": "6b58fb53c7f05822e6f19818995f9413", "type": "electric_scooter", "is_disabled": 0, "lat": 38.9160265, "rental_uris": {"ios": "https://dc.lft.to/lastmile_qr_scan", "android": "https://dc.lft.to/lastmile_qr_scan"}, "is_reserved": 0, "fusion_lon": 0.0, "fusion_lat": 0.0, "lon": -77.04609366666666, "name": "6b58fb53c7f05822e6f19818995f9413"}, {"bike_id": "e67552e5061408ed4778643415ee7aa5", "type": "electric_scooter", "is_disabled": 0, "lat": 38.90145, "rental_uris": {"ios": "https://dc.lft.to/lastmile_qr_scan", "android": "https://dc.lft.to/lastmile_qr_scan"}, "is_reserved": 0, "fusion_lon": 0.0, "fusion_lat": 0.0, "lon": -76.93085283333333, "name": "e67552e5061408ed4778643415ee7aa5"}, {"bike_id": "2fcafcb7d2ff3eac0468dc6d3088d576", "type": "electric_scooter", "is_disabled": 0, "lat": 38.899133, "rental_uris": {"ios": "https://dc.lft.to/lastmile_qr_scan", "android": "https://dc.lft.to/lastmile_qr_scan"}, "is_reserved": 0, "fusion_lon": 0.0, "fusion_lat": 0.0, "lon": -76.933686, "name": "2fcafcb7d2ff3eac0468dc6d3088d576"}, {"bike_id": "8c37f6de12642679f2e1e7416d80ee22", "type": "electric_scooter", "is_disabled": 0, "lat": 38.912702, "rental_uris": {"ios": "https://dc.lft.to/lastmile_qr_scan", "android": "https://dc.lft.to/lastmile_qr_scan"}, "is_reserved": 0, "fusion_lon": 0.0, "fusion_lat": 0.0, "lon": -77.0391365, "name": "8c37f6de12642679f2e1e7416d80ee22"}, {"bike_id": "9c6f52485652cd3e2e21cb33db297c19", "type": "electric_scooter", "is_disabled": 0, "lat": 38.935346833333334, "rental_uris": {"ios": "https://dc.lft.to/lastmile_qr_scan", "android": "https://dc.lft.to/lastmile_qr_scan"}, "is_reserved": 0, "fusion_lon": 0.0, "fusion_lat": 0.0, "lon": -77.0235555, "name": "9c6f52485652cd3e2e21cb33db297c19"}, {"bike_id": "7ef69c30c2ffb94846a7ec9a49cd40d4", "type": "electric_scooter", "is_disabled": 0, "lat": 38.89833633333333, "rental_uris": {"ios": "https://dc.lft.to/lastmile_qr_scan", "android": "https://dc.lft.to/lastmile_qr_scan"}, "is_reserved": 0, "fusion_lon": 0.0, "fusion_lat": 0.0, "lon": -77.03102966666667, "name": "7ef69c30c2ffb94846a7ec9a49cd40d4"}, {"bike_id": "cb6d0844fe249a188b78287a60172a12", "type": "electric_scooter", "is_disabled": 0, "lat": 38.91925966666667, "rental_uris": {"ios": "https://dc.lft.to/lastmile_qr_scan", "android": "https://dc.lft.to/lastmile_qr_scan"}, "is_reserved": 0, "fusion_lon": 0.0, "fusion_lat": 0.0, "lon": -77.02513716666667, "name": "cb6d0844fe249a188b78287a60172a12"}, {"bike_id": "37afe0192d83bdaa12e11dddd8a5793b", "type": "electric_scooter", "is_disabled": 0, "lat": 38.925300666666665, "rental_uris": {"ios": "https://dc.lft.to/lastmile_qr_scan", "android": "https://dc.lft.to/lastmile_qr_scan"}, "is_reserved": 0, "fusion_lon": 0.0, "fusion_lat": 0.0, "lon": -77.034947, "name": "37afe0192d83bdaa12e11dddd8a5793b"}, {"bike_id": "f6d9219dbdd3a494526f3237ab1c1da2", "type": "electric_scooter", "is_disabled": 0, "lat": 38.905240166666665, "rental_uris": {"ios": "https://dc.lft.to/lastmile_qr_scan", "android": "https://dc.lft.to/lastmile_qr_scan"}, "is_reserved": 0, "fusion_lon": 0.0, "fusion_lat": 0.0, "lon": -77.04864166666667, "name": "f6d9219dbdd3a494526f3237ab1c1da2"}, {"bike_id": "c39ac516039337430f0b91dcb6aaed23", "type": "electric_scooter", "is_disabled": 0, "lat": 38.923382, "rental_uris": {"ios": "https://dc.lft.to/lastmile_qr_scan", "android": "https://dc.lft.to/lastmile_qr_scan"}, "is_reserved": 0, "fusion_lon": 0.0, "fusion_lat": 0.0, "lon": -77.05116566666666, "name": "c39ac516039337430f0b91dcb6aaed23"}, {"bike_id": "9268bb5a69033522ee3c0e01d3d5015c", "type": "electric_scooter", "is_disabled": 0, "lat": 38.933228166666666, "rental_uris": {"ios": "https://dc.lft.to/lastmile_qr_scan", "android": "https://dc.lft.to/lastmile_qr_scan"}, "is_reserved": 0, "fusion_lon": 0.0, "fusion_lat": 0.0, "lon": -77.02392383333333, "name": "9268bb5a69033522ee3c0e01d3d5015c"}, {"bike_id": "e2de2860f49a8a3582e047dbfdc6fa29", "type": "electric_bike", "is_disabled": 0, "lat": 38.87297133333333, "rental_uris": {"ios": "https://dc.lft.to/lastmile_qr_scan", "android": "https://dc.lft.to/lastmile_qr_scan"}, "is_reserved": 0, "fusion_lon": 0.0, "fusion_lat": 0.0, "lon": -77.1393115, "name": "e2de2860f49a8a3582e047dbfdc6fa29"}, {"bike_id": "7f6e78af052e8dc56906fc600cc50afd", "type": "electric_scooter", "is_disabled": 0, "lat": 38.9018835, "rental_uris": {"ios": "https://dc.lft.to/lastmile_qr_scan", "android": "https://dc.lft.to/lastmile_qr_scan"}, "is_reserved": 0, "fusion_lon": 0.0, "fusion_lat": 0.0, "lon": -76.98016033333333, "name": "7f6e78af052e8dc56906fc600cc50afd"}, {"bike_id": "222b7896785c22187be1cbcbd1f03c22", "type": "electric_scooter", "is_disabled": 0, "lat": 38.892306833333336, "rental_uris": {"ios": "https://dc.lft.to/lastmile_qr_scan", "android": "https://dc.lft.to/lastmile_qr_scan"}, "is_reserved": 0, "fusion_lon": 0.0, "fusion_lat": 0.0, "lon": -77.04678016666666, "name": "222b7896785c22187be1cbcbd1f03c22"}, {"bike_id": "8ae67d002b4fe14257f852942acd5665", "type": "electric_scooter", "is_disabled": 0, "lat": 38.91690583333333, "rental_uris": {"ios": "https://dc.lft.to/lastmile_qr_scan", "android": "https://dc.lft.to/lastmile_qr_scan"}, "is_reserved": 0, "fusion_lon": 0.0, "fusion_lat": 0.0, "lon": -77.02879216666666, "name": "8ae67d002b4fe14257f852942acd5665"}, {"bike_id": "7581d1b8d58d1417573cadf7e4028b19", "type": "electric_scooter", "is_disabled": 0, "lat": 38.93916183333333, "rental_uris": {"ios": "https://dc.lft.to/lastmile_qr_scan", "android": "https://dc.lft.to/lastmile_qr_scan"}, "is_reserved": 0, "fusion_lon": 0.0, "fusion_lat": 0.0, "lon": -77.0605645, "name": "7581d1b8d58d1417573cadf7e4028b19"}, {"bike_id": "7b4f9fd97361bbfebff9445cf3110b66", "type": "electric_scooter", "is_disabled": 0, "lat": 38.93742433333333, "rental_uris": {"ios": "https://dc.lft.to/lastmile_qr_scan", "android": "https://dc.lft.to/lastmile_qr_scan"}, "is_reserved": 0, "fusion_lon": 0.0, "fusion_lat": 0.0, "lon": -77.035096, "name": "7b4f9fd97361bbfebff9445cf3110b66"}, {"bike_id": "0b2a048bc50e297bd46095e28eeac319", "type": "electric_scooter", "is_disabled": 0, "lat": 38.936614166666665, "rental_uris": {"ios": "https://dc.lft.to/lastmile_qr_scan", "android": "https://dc.lft.to/lastmile_qr_scan"}, "is_reserved": 0, "fusion_lon": 0.0, "fusion_lat": 0.0, "lon": -77.0239305, "name": "0b2a048bc50e297bd46095e28eeac319"}, {"bike_id": "288e7cad7d8e8b138de45505757cfc3d", "type": "electric_scooter", "is_disabled": 0, "lat": 38.92029633333333, "rental_uris": {"ios": "https://dc.lft.to/lastmile_qr_scan", "android": "https://dc.lft.to/lastmile_qr_scan"}, "is_reserved": 0, "fusion_lon": 0.0, "fusion_lat": 0.0, "lon": -77.01312766666666, "name": "288e7cad7d8e8b138de45505757cfc3d"}, {"bike_id": "efe3a7076467ea28f8ce530d3392001e", "type": "electric_scooter", "is_disabled": 0, "lat": 38.9176345, "rental_uris": {"ios": "https://dc.lft.to/lastmile_qr_scan", "android": "https://dc.lft.to/lastmile_qr_scan"}, "is_reserved": 0, "fusion_lon": 0.0, "fusion_lat": 0.0, "lon": -77.02295733333334, "name": "efe3a7076467ea28f8ce530d3392001e"}, {"bike_id": "23209c1a60eb2287ac8b1a5b1ec1b612", "type": "electric_scooter", "is_disabled": 0, "lat": 38.90067666666667, "rental_uris": {"ios": "https://dc.lft.to/lastmile_qr_scan", "android": "https://dc.lft.to/lastmile_qr_scan"}, "is_reserved": 0, "fusion_lon": 0.0, "fusion_lat": 0.0, "lon": -77.01700983333333, "name": "23209c1a60eb2287ac8b1a5b1ec1b612"}, {"bike_id": "43533da2c184a21b0c915f3d162c195e", "type": "electric_scooter", "is_disabled": 0, "lat": 38.920546333333334, "rental_uris": {"ios": "https://dc.lft.to/lastmile_qr_scan", "android": "https://dc.lft.to/lastmile_qr_scan"}, "is_reserved": 0, "fusion_lon": 0.0, "fusion_lat": 0.0, "lon": -77.0425685, "name": "43533da2c184a21b0c915f3d162c195e"}, {"bike_id": "b4e64a883abc606e96925d043fd630ee", "type": "electric_scooter", "is_disabled": 0, "lat": 38.90730083333333, "rental_uris": {"ios": "https://dc.lft.to/lastmile_qr_scan", "android": "https://dc.lft.to/lastmile_qr_scan"}, "is_reserved": 0, "fusion_lon": 0.0, "fusion_lat": 0.0, "lon": -77.02886366666667, "name": "b4e64a883abc606e96925d043fd630ee"}, {"bike_id": "64d6ed00b071f1778633a28b8e1ce68d", "type": "electric_scooter", "is_disabled": 0, "lat": 38.911111, "rental_uris": {"ios": "https://dc.lft.to/lastmile_qr_scan", "android": "https://dc.lft.to/lastmile_qr_scan"}, "is_reserved": 0, "fusion_lon": 0.0, "fusion_lat": 0.0, "lon": -77.0472655, "name": "64d6ed00b071f1778633a28b8e1ce68d"}, {"bike_id": "2ab46010e9edb234d848b5e685cdef69", "type": "electric_scooter", "is_disabled": 0, "lat": 38.9275135, "rental_uris": {"ios": "https://dc.lft.to/lastmile_qr_scan", "android": "https://dc.lft.to/lastmile_qr_scan"}, "is_reserved": 0, "fusion_lon": 0.0, "fusion_lat": 0.0, "lon": -77.02537516666666, "name": "2ab46010e9edb234d848b5e685cdef69"}, {"bike_id": "93396318735f46b5dd94447128f89c0b", "type": "electric_scooter", "is_disabled": 0, "lat": 38.916976, "rental_uris": {"ios": "https://dc.lft.to/lastmile_qr_scan", "android": "https://dc.lft.to/lastmile_qr_scan"}, "is_reserved": 0, "fusion_lon": 0.0, "fusion_lat": 0.0, "lon": -77.03775483333334, "name": "93396318735f46b5dd94447128f89c0b"}, {"bike_id": "b1535a8d28983d8620eba0113c1931dc", "type": "electric_scooter", "is_disabled": 0, "lat": 38.9073795, "rental_uris": {"ios": "https://dc.lft.to/lastmile_qr_scan", "android": "https://dc.lft.to/lastmile_qr_scan"}, "is_reserved": 0, "fusion_lon": 0.0, "fusion_lat": 0.0, "lon": -77.02184516666667, "name": "b1535a8d28983d8620eba0113c1931dc"}, {"bike_id": "6afa662beac87c03e39dc2cce4d2360c", "type": "electric_scooter", "is_disabled": 0, "lat": 38.8973035, "rental_uris": {"ios": "https://dc.lft.to/lastmile_qr_scan", "android": "https://dc.lft.to/lastmile_qr_scan"}, "is_reserved": 0, "fusion_lon": 0.0, "fusion_lat": 0.0, "lon": -77.00355683333333, "name": "6afa662beac87c03e39dc2cce4d2360c"}, {"bike_id": "d06093ff8d95c709ac98ae7de4a2fa34", "type": "electric_scooter", "is_disabled": 0, "lat": 38.9205995, "rental_uris": {"ios": "https://dc.lft.to/lastmile_qr_scan", "android": "https://dc.lft.to/lastmile_qr_scan"}, "is_reserved": 0, "fusion_lon": 0.0, "fusion_lat": 0.0, "lon": -77.032543, "name": "d06093ff8d95c709ac98ae7de4a2fa34"}, {"bike_id": "8a7ade96bf1fa6a4a1c41e760ec8cbf9", "type": "electric_scooter", "is_disabled": 0, "lat": 38.917364, "rental_uris": {"ios": "https://dc.lft.to/lastmile_qr_scan", "android": "https://dc.lft.to/lastmile_qr_scan"}, "is_reserved": 0, "fusion_lon": 0.0, "fusion_lat": 0.0, "lon": -77.04071566666667, "name": "8a7ade96bf1fa6a4a1c41e760ec8cbf9"}, {"bike_id": "a5a7845b9b1b018963f7c86e4182aa93", "type": "electric_scooter", "is_disabled": 0, "lat": 38.90203416666667, "rental_uris": {"ios": "https://dc.lft.to/lastmile_qr_scan", "android": "https://dc.lft.to/lastmile_qr_scan"}, "is_reserved": 0, "fusion_lon": 0.0, "fusion_lat": 0.0, "lon": -77.02174, "name": "a5a7845b9b1b018963f7c86e4182aa93"}, {"bike_id": "6f91fe1ab811284cc71e2975b637a03d", "type": "electric_bike", "is_disabled": 0, "lat": 38.8535555, "rental_uris": {"ios": "https://dc.lft.to/lastmile_qr_scan", "android": "https://dc.lft.to/lastmile_qr_scan"}, "is_reserved": 0, "fusion_lon": 0.0, "fusion_lat": 0.0, "lon": -77.134672, "name": "6f91fe1ab811284cc71e2975b637a03d"}, {"bike_id": "de3d7ef95b276f1cd5674b33cc19c1b5", "type": "electric_scooter", "is_disabled": 0, "lat": 38.9429185, "rental_uris": {"ios": "https://dc.lft.to/lastmile_qr_scan", "android": "https://dc.lft.to/lastmile_qr_scan"}, "is_reserved": 0, "fusion_lon": 0.0, "fusion_lat": 0.0, "lon": -77.02169866666667, "name": "de3d7ef95b276f1cd5674b33cc19c1b5"}, {"bike_id": "200c44d3f4765cef866a0ecf02e34e6b", "type": "electric_scooter", "is_disabled": 0, "lat": 38.907258, "rental_uris": {"ios": "https://dc.lft.to/lastmile_qr_scan", "android": "https://dc.lft.to/lastmile_qr_scan"}, "is_reserved": 0, "fusion_lon": 0.0, "fusion_lat": 0.0, "lon": -77.040256, "name": "200c44d3f4765cef866a0ecf02e34e6b"}, {"bike_id": "178034da8c43acf0851bf2f1768fc14b", "type": "electric_scooter", "is_disabled": 0, "lat": 38.897451, "rental_uris": {"ios": "https://dc.lft.to/lastmile_qr_scan", "android": "https://dc.lft.to/lastmile_qr_scan"}, "is_reserved": 0, "fusion_lon": 0.0, "fusion_lat": 0.0, "lon": -76.97974833333333, "name": "178034da8c43acf0851bf2f1768fc14b"}, {"bike_id": "6e47fdcc238c8604f72539eff51eb6b4", "type": "electric_scooter", "is_disabled": 0, "lat": 38.9249675, "rental_uris": {"ios": "https://dc.lft.to/lastmile_qr_scan", "android": "https://dc.lft.to/lastmile_qr_scan"}, "is_reserved": 0, "fusion_lon": 0.0, "fusion_lat": 0.0, "lon": -77.05107883333334, "name": "6e47fdcc238c8604f72539eff51eb6b4"}, {"bike_id": "4e19018ed1259d435bc1975a5ee5ee16", "type": "electric_scooter", "is_disabled": 0, "lat": 38.907135, "rental_uris": {"ios": "https://dc.lft.to/lastmile_qr_scan", "android": "https://dc.lft.to/lastmile_qr_scan"}, "is_reserved": 0, "fusion_lon": 0.0, "fusion_lat": 0.0, "lon": -77.02398416666666, "name": "4e19018ed1259d435bc1975a5ee5ee16"}, {"bike_id": "8cd1a2f363f812a444ee0e41bc75afcf", "type": "electric_scooter", "is_disabled": 0, "lat": 38.92215866666667, "rental_uris": {"ios": "https://dc.lft.to/lastmile_qr_scan", "android": "https://dc.lft.to/lastmile_qr_scan"}, "is_reserved": 0, "fusion_lon": 0.0, "fusion_lat": 0.0, "lon": -77.0346465, "name": "8cd1a2f363f812a444ee0e41bc75afcf"}, {"bike_id": "c3ca7a91ded8cfb9a4f4b088412fb2b1", "type": "electric_scooter", "is_disabled": 0, "lat": 38.90273066666666, "rental_uris": {"ios": "https://dc.lft.to/lastmile_qr_scan", "android": "https://dc.lft.to/lastmile_qr_scan"}, "is_reserved": 0, "fusion_lon": 0.0, "fusion_lat": 0.0, "lon": -77.01744016666666, "name": "c3ca7a91ded8cfb9a4f4b088412fb2b1"}, {"bike_id": "ef71dd78155f9256b363c01c66ef0e34", "type": "electric_scooter", "is_disabled": 0, "lat": 38.917086166666664, "rental_uris": {"ios": "https://dc.lft.to/lastmile_qr_scan", "android": "https://dc.lft.to/lastmile_qr_scan"}, "is_reserved": 0, "fusion_lon": 0.0, "fusion_lat": 0.0, "lon": -77.03779016666667, "name": "ef71dd78155f9256b363c01c66ef0e34"}, {"bike_id": "47ee4ba72033994479ec844373de2f94", "type": "electric_scooter", "is_disabled": 0, "lat": 38.940306166666666, "rental_uris": {"ios": "https://dc.lft.to/lastmile_qr_scan", "android": "https://dc.lft.to/lastmile_qr_scan"}, "is_reserved": 0, "fusion_lon": 0.0, "fusion_lat": 0.0, "lon": -77.02803016666667, "name": "47ee4ba72033994479ec844373de2f94"}, {"bike_id": "6c058d58d507d00263bf88df6b43d19f", "type": "electric_scooter", "is_disabled": 0, "lat": 38.907518, "rental_uris": {"ios": "https://dc.lft.to/lastmile_qr_scan", "android": "https://dc.lft.to/lastmile_qr_scan"}, "is_reserved": 0, "fusion_lon": 0.0, "fusion_lat": 0.0, "lon": -77.0419935, "name": "6c058d58d507d00263bf88df6b43d19f"}, {"bike_id": "533bb523728e0981f53b423d93499806", "type": "electric_scooter", "is_disabled": 0, "lat": 38.91496716666666, "rental_uris": {"ios": "https://dc.lft.to/lastmile_qr_scan", "android": "https://dc.lft.to/lastmile_qr_scan"}, "is_reserved": 0, "fusion_lon": 0.0, "fusion_lat": 0.0, "lon": -77.03183566666667, "name": "533bb523728e0981f53b423d93499806"}, {"bike_id": "4a4071a0e66d74628d32a8475c212141", "type": "electric_bike", "is_disabled": 0, "lat": 39.039922, "rental_uris": {"ios": "https://dc.lft.to/lastmile_qr_scan", "android": "https://dc.lft.to/lastmile_qr_scan"}, "is_reserved": 0, "fusion_lon": 0.0, "fusion_lat": 0.0, "lon": -76.99927716666667, "name": "4a4071a0e66d74628d32a8475c212141"}, {"bike_id": "5b6e7317aa3cd3887306523bf346e79a", "type": "electric_scooter", "is_disabled": 0, "lat": 38.899702166666664, "rental_uris": {"ios": "https://dc.lft.to/lastmile_qr_scan", "android": "https://dc.lft.to/lastmile_qr_scan"}, "is_reserved": 0, "fusion_lon": 0.0, "fusion_lat": 0.0, "lon": -77.02176633333333, "name": "5b6e7317aa3cd3887306523bf346e79a"}, {"bike_id": "13a89f1ada42fa81f010f4ae4eeb02fe", "type": "electric_scooter", "is_disabled": 0, "lat": 38.91704216666667, "rental_uris": {"ios": "https://dc.lft.to/lastmile_qr_scan", "android": "https://dc.lft.to/lastmile_qr_scan"}, "is_reserved": 0, "fusion_lon": 0.0, "fusion_lat": 0.0, "lon": -77.04617883333333, "name": "13a89f1ada42fa81f010f4ae4eeb02fe"}, {"bike_id": "9b7484bcc83b8f5a7659acc8de3b19ac", "type": "electric_scooter", "is_disabled": 0, "lat": 38.909206166666664, "rental_uris": {"ios": "https://dc.lft.to/lastmile_qr_scan", "android": "https://dc.lft.to/lastmile_qr_scan"}, "is_reserved": 0, "fusion_lon": 0.0, "fusion_lat": 0.0, "lon": -76.99966483333333, "name": "9b7484bcc83b8f5a7659acc8de3b19ac"}, {"bike_id": "df4ecce9f349be27e75c96b4ddbd85e9", "type": "electric_scooter", "is_disabled": 0, "lat": 38.900394, "rental_uris": {"ios": "https://dc.lft.to/lastmile_qr_scan", "android": "https://dc.lft.to/lastmile_qr_scan"}, "is_reserved": 0, "fusion_lon": 0.0, "fusion_lat": 0.0, "lon": -77.03662383333334, "name": "df4ecce9f349be27e75c96b4ddbd85e9"}, {"bike_id": "cf244cb7dddf08f40e8df618a7fbfc3c", "type": "electric_scooter", "is_disabled": 0, "lat": 38.89298433333333, "rental_uris": {"ios": "https://dc.lft.to/lastmile_qr_scan", "android": "https://dc.lft.to/lastmile_qr_scan"}, "is_reserved": 0, "fusion_lon": 0.0, "fusion_lat": 0.0, "lon": -77.0488075, "name": "cf244cb7dddf08f40e8df618a7fbfc3c"}, {"bike_id": "c67c6f3d69b17ca7d0d1d8a8480a22b9", "type": "electric_scooter", "is_disabled": 0, "lat": 38.89293033333333, "rental_uris": {"ios": "https://dc.lft.to/lastmile_qr_scan", "android": "https://dc.lft.to/lastmile_qr_scan"}, "is_reserved": 0, "fusion_lon": 0.0, "fusion_lat": 0.0, "lon": -77.04876266666666, "name": "c67c6f3d69b17ca7d0d1d8a8480a22b9"}, {"bike_id": "02a2953959397b49971a8d0943d8333c", "type": "electric_scooter", "is_disabled": 0, "lat": 38.86442783333333, "rental_uris": {"ios": "https://dc.lft.to/lastmile_qr_scan", "android": "https://dc.lft.to/lastmile_qr_scan"}, "is_reserved": 0, "fusion_lon": 0.0, "fusion_lat": 0.0, "lon": -76.97987983333333, "name": "02a2953959397b49971a8d0943d8333c"}, {"bike_id": "8fe2296258aee0af4dafbcbd314a04a9", "type": "electric_scooter", "is_disabled": 0, "lat": 38.876366833333336, "rental_uris": {"ios": "https://dc.lft.to/lastmile_qr_scan", "android": "https://dc.lft.to/lastmile_qr_scan"}, "is_reserved": 0, "fusion_lon": 0.0, "fusion_lat": 0.0, "lon": -77.00066333333334, "name": "8fe2296258aee0af4dafbcbd314a04a9"}, {"bike_id": "1751d31f66259b3ae20d10851a4b119d", "type": "electric_scooter", "is_disabled": 0, "lat": 38.906451833333335, "rental_uris": {"ios": "https://dc.lft.to/lastmile_qr_scan", "android": "https://dc.lft.to/lastmile_qr_scan"}, "is_reserved": 0, "fusion_lon": 0.0, "fusion_lat": 0.0, "lon": -77.01835616666666, "name": "1751d31f66259b3ae20d10851a4b119d"}, {"bike_id": "cb015c4e74e0940ec1a998da9aa15c43", "type": "electric_scooter", "is_disabled": 0, "lat": 38.89255816666667, "rental_uris": {"ios": "https://dc.lft.to/lastmile_qr_scan", "android": "https://dc.lft.to/lastmile_qr_scan"}, "is_reserved": 0, "fusion_lon": 0.0, "fusion_lat": 0.0, "lon": -76.925754, "name": "cb015c4e74e0940ec1a998da9aa15c43"}, {"bike_id": "68294f4681c4f7e7d68565ab85771d0e", "type": "electric_scooter", "is_disabled": 0, "lat": 38.908514, "rental_uris": {"ios": "https://dc.lft.to/lastmile_qr_scan", "android": "https://dc.lft.to/lastmile_qr_scan"}, "is_reserved": 0, "fusion_lon": 0.0, "fusion_lat": 0.0, "lon": -77.03010266666666, "name": "68294f4681c4f7e7d68565ab85771d0e"}, {"bike_id": "b99314fcf13149d09eedc4aa738c16f9", "type": "electric_scooter", "is_disabled": 0, "lat": 38.87436433333333, "rental_uris": {"ios": "https://dc.lft.to/lastmile_qr_scan", "android": "https://dc.lft.to/lastmile_qr_scan"}, "is_reserved": 0, "fusion_lon": 0.0, "fusion_lat": 0.0, "lon": -77.00055366666666, "name": "b99314fcf13149d09eedc4aa738c16f9"}, {"bike_id": "9eea390eedc35cfd0a6f0501ac3c90f4", "type": "electric_scooter", "is_disabled": 0, "lat": 38.9565085, "rental_uris": {"ios": "https://dc.lft.to/lastmile_qr_scan", "android": "https://dc.lft.to/lastmile_qr_scan"}, "is_reserved": 0, "fusion_lon": 0.0, "fusion_lat": 0.0, "lon": -77.023973, "name": "9eea390eedc35cfd0a6f0501ac3c90f4"}, {"bike_id": "3535b8b24a1197922a80b753bbfb1996", "type": "electric_scooter", "is_disabled": 0, "lat": 38.920063999999996, "rental_uris": {"ios": "https://dc.lft.to/lastmile_qr_scan", "android": "https://dc.lft.to/lastmile_qr_scan"}, "is_reserved": 0, "fusion_lon": 0.0, "fusion_lat": 0.0, "lon": -77.04166483333333, "name": "3535b8b24a1197922a80b753bbfb1996"}, {"bike_id": "83bc15d9e58cab51a94b0cc83a377c59", "type": "electric_scooter", "is_disabled": 0, "lat": 38.916759, "rental_uris": {"ios": "https://dc.lft.to/lastmile_qr_scan", "android": "https://dc.lft.to/lastmile_qr_scan"}, "is_reserved": 0, "fusion_lon": 0.0, "fusion_lat": 0.0, "lon": -77.02533016666666, "name": "83bc15d9e58cab51a94b0cc83a377c59"}, {"bike_id": "b2f846b7e23cdf74723c862445a936ec", "type": "electric_scooter", "is_disabled": 0, "lat": 38.914916166666664, "rental_uris": {"ios": "https://dc.lft.to/lastmile_qr_scan", "android": "https://dc.lft.to/lastmile_qr_scan"}, "is_reserved": 0, "fusion_lon": 0.0, "fusion_lat": 0.0, "lon": -77.03128666666667, "name": "b2f846b7e23cdf74723c862445a936ec"}, {"bike_id": "95c07ce929f03ce0a942f9d4a9a4f980", "type": "electric_scooter", "is_disabled": 0, "lat": 38.898729, "rental_uris": {"ios": "https://dc.lft.to/lastmile_qr_scan", "android": "https://dc.lft.to/lastmile_qr_scan"}, "is_reserved": 0, "fusion_lon": 0.0, "fusion_lat": 0.0, "lon": -76.9318565, "name": "95c07ce929f03ce0a942f9d4a9a4f980"}, {"bike_id": "1275e62bced5788525f6549cf34d9c35", "type": "electric_scooter", "is_disabled": 0, "lat": 38.931109666666664, "rental_uris": {"ios": "https://dc.lft.to/lastmile_qr_scan", "android": "https://dc.lft.to/lastmile_qr_scan"}, "is_reserved": 0, "fusion_lon": 0.0, "fusion_lat": 0.0, "lon": -77.04116583333334, "name": "1275e62bced5788525f6549cf34d9c35"}, {"bike_id": "004ee5e39c553bfa6e6fb17fedf5e8b4", "type": "electric_scooter", "is_disabled": 0, "lat": 38.899877000000004, "rental_uris": {"ios": "https://dc.lft.to/lastmile_qr_scan", "android": "https://dc.lft.to/lastmile_qr_scan"}, "is_reserved": 0, "fusion_lon": 0.0, "fusion_lat": 0.0, "lon": -77.019302, "name": "004ee5e39c553bfa6e6fb17fedf5e8b4"}, {"bike_id": "9950916d8c7cdd5bb7dc8cdf6465c9f0", "type": "electric_scooter", "is_disabled": 0, "lat": 38.91123366666667, "rental_uris": {"ios": "https://dc.lft.to/lastmile_qr_scan", "android": "https://dc.lft.to/lastmile_qr_scan"}, "is_reserved": 0, "fusion_lon": 0.0, "fusion_lat": 0.0, "lon": -77.037369, "name": "9950916d8c7cdd5bb7dc8cdf6465c9f0"}, {"bike_id": "8966b407879a2f1b990a185456c0c300", "type": "electric_bike", "is_disabled": 0, "lat": 38.939677833333334, "rental_uris": {"ios": "https://dc.lft.to/lastmile_qr_scan", "android": "https://dc.lft.to/lastmile_qr_scan"}, "is_reserved": 0, "fusion_lon": 0.0, "fusion_lat": 0.0, "lon": -77.05256633333333, "name": "8966b407879a2f1b990a185456c0c300"}, {"bike_id": "e36b3a4951aa3faeaa71e4984a2cac75", "type": "electric_scooter", "is_disabled": 0, "lat": 38.92125683333333, "rental_uris": {"ios": "https://dc.lft.to/lastmile_qr_scan", "android": "https://dc.lft.to/lastmile_qr_scan"}, "is_reserved": 0, "fusion_lon": 0.0, "fusion_lat": 0.0, "lon": -77.02716483333333, "name": "e36b3a4951aa3faeaa71e4984a2cac75"}, {"bike_id": "8e67ac49bdf3303d758751d8eddd5d86", "type": "electric_scooter", "is_disabled": 0, "lat": 38.8922345, "rental_uris": {"ios": "https://dc.lft.to/lastmile_qr_scan", "android": "https://dc.lft.to/lastmile_qr_scan"}, "is_reserved": 0, "fusion_lon": 0.0, "fusion_lat": 0.0, "lon": -77.04801533333334, "name": "8e67ac49bdf3303d758751d8eddd5d86"}, {"bike_id": "877c6201161824236a39207b97ac73d5", "type": "electric_scooter", "is_disabled": 0, "lat": 38.92243366666667, "rental_uris": {"ios": "https://dc.lft.to/lastmile_qr_scan", "android": "https://dc.lft.to/lastmile_qr_scan"}, "is_reserved": 0, "fusion_lon": 0.0, "fusion_lat": 0.0, "lon": -77.04276633333333, "name": "877c6201161824236a39207b97ac73d5"}, {"bike_id": "48aa8e66dc90eff786a51b8b46c6b32f", "type": "electric_scooter", "is_disabled": 0, "lat": 38.916963, "rental_uris": {"ios": "https://dc.lft.to/lastmile_qr_scan", "android": "https://dc.lft.to/lastmile_qr_scan"}, "is_reserved": 0, "fusion_lon": 0.0, "fusion_lat": 0.0, "lon": -77.03763716666667, "name": "48aa8e66dc90eff786a51b8b46c6b32f"}, {"bike_id": "a25542284c2e53ca841ae4de29a007d7", "type": "electric_scooter", "is_disabled": 0, "lat": 38.88352783333333, "rental_uris": {"ios": "https://dc.lft.to/lastmile_qr_scan", "android": "https://dc.lft.to/lastmile_qr_scan"}, "is_reserved": 0, "fusion_lon": 0.0, "fusion_lat": 0.0, "lon": -77.01977316666667, "name": "a25542284c2e53ca841ae4de29a007d7"}, {"bike_id": "9de2c0c737066d69c84baa70351aaacb", "type": "electric_bike", "is_disabled": 0, "lat": 38.9256735, "rental_uris": {"ios": "https://dc.lft.to/lastmile_qr_scan", "android": "https://dc.lft.to/lastmile_qr_scan"}, "is_reserved": 0, "fusion_lon": 0.0, "fusion_lat": 0.0, "lon": -77.04379216666666, "name": "9de2c0c737066d69c84baa70351aaacb"}, {"bike_id": "7db93fa7450bcd9be343e89255403478", "type": "electric_scooter", "is_disabled": 0, "lat": 38.93046916666667, "rental_uris": {"ios": "https://dc.lft.to/lastmile_qr_scan", "android": "https://dc.lft.to/lastmile_qr_scan"}, "is_reserved": 0, "fusion_lon": 0.0, "fusion_lat": 0.0, "lon": -77.03187783333334, "name": "7db93fa7450bcd9be343e89255403478"}, {"bike_id": "2b7bff7c8e2c381c66068742d92ce6f1", "type": "electric_scooter", "is_disabled": 0, "lat": 38.924746166666665, "rental_uris": {"ios": "https://dc.lft.to/lastmile_qr_scan", "android": "https://dc.lft.to/lastmile_qr_scan"}, "is_reserved": 0, "fusion_lon": 0.0, "fusion_lat": 0.0, "lon": -77.02837066666666, "name": "2b7bff7c8e2c381c66068742d92ce6f1"}, {"bike_id": "a93c54de5f60b008849b10196af20422", "type": "electric_scooter", "is_disabled": 0, "lat": 38.91177166666667, "rental_uris": {"ios": "https://dc.lft.to/lastmile_qr_scan", "android": "https://dc.lft.to/lastmile_qr_scan"}, "is_reserved": 0, "fusion_lon": 0.0, "fusion_lat": 0.0, "lon": -77.00467166666667, "name": "a93c54de5f60b008849b10196af20422"}, {"bike_id": "b40de33f9a41c7650d6e47d951447f60", "type": "electric_scooter", "is_disabled": 0, "lat": 38.9152825, "rental_uris": {"ios": "https://dc.lft.to/lastmile_qr_scan", "android": "https://dc.lft.to/lastmile_qr_scan"}, "is_reserved": 0, "fusion_lon": 0.0, "fusion_lat": 0.0, "lon": -77.021993, "name": "b40de33f9a41c7650d6e47d951447f60"}, {"bike_id": "901889f6316f68ada6c69d7353ae2943", "type": "electric_scooter", "is_disabled": 0, "lat": 38.903878666666664, "rental_uris": {"ios": "https://dc.lft.to/lastmile_qr_scan", "android": "https://dc.lft.to/lastmile_qr_scan"}, "is_reserved": 0, "fusion_lon": 0.0, "fusion_lat": 0.0, "lon": -77.06867316666667, "name": "901889f6316f68ada6c69d7353ae2943"}, {"bike_id": "39756dfbae8f71d6f8b4ef71e0c0379d", "type": "electric_scooter", "is_disabled": 0, "lat": 38.90814566666667, "rental_uris": {"ios": "https://dc.lft.to/lastmile_qr_scan", "android": "https://dc.lft.to/lastmile_qr_scan"}, "is_reserved": 0, "fusion_lon": 0.0, "fusion_lat": 0.0, "lon": -77.033696, "name": "39756dfbae8f71d6f8b4ef71e0c0379d"}, {"bike_id": "43fab75a45dabacb7fe7f14011854779", "type": "electric_scooter", "is_disabled": 0, "lat": 38.94142083333333, "rental_uris": {"ios": "https://dc.lft.to/lastmile_qr_scan", "android": "https://dc.lft.to/lastmile_qr_scan"}, "is_reserved": 0, "fusion_lon": 0.0, "fusion_lat": 0.0, "lon": -77.02327033333333, "name": "43fab75a45dabacb7fe7f14011854779"}, {"bike_id": "be7038287d8ee50b3eefc81474dd8cd5", "type": "electric_scooter", "is_disabled": 0, "lat": 38.929742166666664, "rental_uris": {"ios": "https://dc.lft.to/lastmile_qr_scan", "android": "https://dc.lft.to/lastmile_qr_scan"}, "is_reserved": 0, "fusion_lon": 0.0, "fusion_lat": 0.0, "lon": -77.01303433333334, "name": "be7038287d8ee50b3eefc81474dd8cd5"}, {"bike_id": "92d7173c322c9155251db9b4e9be62e9", "type": "electric_scooter", "is_disabled": 0, "lat": 38.8952515, "rental_uris": {"ios": "https://dc.lft.to/lastmile_qr_scan", "android": "https://dc.lft.to/lastmile_qr_scan"}, "is_reserved": 0, "fusion_lon": 0.0, "fusion_lat": 0.0, "lon": -76.94894483333333, "name": "92d7173c322c9155251db9b4e9be62e9"}, {"bike_id": "17c79290a8fc4ba77fbdd996d0aa8a65", "type": "electric_scooter", "is_disabled": 0, "lat": 38.897358, "rental_uris": {"ios": "https://dc.lft.to/lastmile_qr_scan", "android": "https://dc.lft.to/lastmile_qr_scan"}, "is_reserved": 0, "fusion_lon": 0.0, "fusion_lat": 0.0, "lon": -76.9472705, "name": "17c79290a8fc4ba77fbdd996d0aa8a65"}, {"bike_id": "920a96405d5b809a41d92a803bf27942", "type": "electric_scooter", "is_disabled": 0, "lat": 38.928785833333336, "rental_uris": {"ios": "https://dc.lft.to/lastmile_qr_scan", "android": "https://dc.lft.to/lastmile_qr_scan"}, "is_reserved": 0, "fusion_lon": 0.0, "fusion_lat": 0.0, "lon": -77.02713633333333, "name": "920a96405d5b809a41d92a803bf27942"}, {"bike_id": "3d033761c374a74f8da5147bf17333d8", "type": "electric_scooter", "is_disabled": 0, "lat": 38.90050933333333, "rental_uris": {"ios": "https://dc.lft.to/lastmile_qr_scan", "android": "https://dc.lft.to/lastmile_qr_scan"}, "is_reserved": 0, "fusion_lon": 0.0, "fusion_lat": 0.0, "lon": -77.0006685, "name": "3d033761c374a74f8da5147bf17333d8"}, {"bike_id": "8257758a11d2d64c83df8b676cc60998", "type": "electric_scooter", "is_disabled": 0, "lat": 38.90349033333333, "rental_uris": {"ios": "https://dc.lft.to/lastmile_qr_scan", "android": "https://dc.lft.to/lastmile_qr_scan"}, "is_reserved": 0, "fusion_lon": 0.0, "fusion_lat": 0.0, "lon": -77.03556683333333, "name": "8257758a11d2d64c83df8b676cc60998"}, {"bike_id": "51303826c4201e0a290bfd9f9f7016af", "type": "electric_scooter", "is_disabled": 0, "lat": 38.923173, "rental_uris": {"ios": "https://dc.lft.to/lastmile_qr_scan", "android": "https://dc.lft.to/lastmile_qr_scan"}, "is_reserved": 0, "fusion_lon": 0.0, "fusion_lat": 0.0, "lon": -77.02971033333333, "name": "51303826c4201e0a290bfd9f9f7016af"}, {"bike_id": "d9a839354995e862a3cf4995fb4d8c4e", "type": "electric_scooter", "is_disabled": 0, "lat": 38.915581833333334, "rental_uris": {"ios": "https://dc.lft.to/lastmile_qr_scan", "android": "https://dc.lft.to/lastmile_qr_scan"}, "is_reserved": 0, "fusion_lon": 0.0, "fusion_lat": 0.0, "lon": -77.033221, "name": "d9a839354995e862a3cf4995fb4d8c4e"}, {"bike_id": "c55f68ebad3c5c4ded7d788bae5e925d", "type": "electric_scooter", "is_disabled": 0, "lat": 38.921569166666664, "rental_uris": {"ios": "https://dc.lft.to/lastmile_qr_scan", "android": "https://dc.lft.to/lastmile_qr_scan"}, "is_reserved": 0, "fusion_lon": 0.0, "fusion_lat": 0.0, "lon": -77.03439883333333, "name": "c55f68ebad3c5c4ded7d788bae5e925d"}, {"bike_id": "bed93f44cf0610829fe7d92b3c86fe16", "type": "electric_scooter", "is_disabled": 0, "lat": 38.92477233333334, "rental_uris": {"ios": "https://dc.lft.to/lastmile_qr_scan", "android": "https://dc.lft.to/lastmile_qr_scan"}, "is_reserved": 0, "fusion_lon": 0.0, "fusion_lat": 0.0, "lon": -77.03787566666666, "name": "bed93f44cf0610829fe7d92b3c86fe16"}, {"bike_id": "dc6251db206ae73a667772aa949127a5", "type": "electric_scooter", "is_disabled": 0, "lat": 38.923585833333334, "rental_uris": {"ios": "https://dc.lft.to/lastmile_qr_scan", "android": "https://dc.lft.to/lastmile_qr_scan"}, "is_reserved": 0, "fusion_lon": 0.0, "fusion_lat": 0.0, "lon": -77.07637133333333, "name": "dc6251db206ae73a667772aa949127a5"}, {"bike_id": "0c49ef5deaca66c56069afdd9dfb7d2b", "type": "electric_scooter", "is_disabled": 0, "lat": 38.96557516666667, "rental_uris": {"ios": "https://dc.lft.to/lastmile_qr_scan", "android": "https://dc.lft.to/lastmile_qr_scan"}, "is_reserved": 0, "fusion_lon": 0.0, "fusion_lat": 0.0, "lon": -77.00204216666667, "name": "0c49ef5deaca66c56069afdd9dfb7d2b"}, {"bike_id": "d85e514b16a5f7ca06bb1a3e4ff9e951", "type": "electric_scooter", "is_disabled": 0, "lat": 38.9140955, "rental_uris": {"ios": "https://dc.lft.to/lastmile_qr_scan", "android": "https://dc.lft.to/lastmile_qr_scan"}, "is_reserved": 0, "fusion_lon": 0.0, "fusion_lat": 0.0, "lon": -77.03994466666667, "name": "d85e514b16a5f7ca06bb1a3e4ff9e951"}, {"bike_id": "5e7a94d9d28410a28318d7e4a40ae2bb", "type": "electric_scooter", "is_disabled": 0, "lat": 38.91597766666667, "rental_uris": {"ios": "https://dc.lft.to/lastmile_qr_scan", "android": "https://dc.lft.to/lastmile_qr_scan"}, "is_reserved": 0, "fusion_lon": 0.0, "fusion_lat": 0.0, "lon": -77.02137466666667, "name": "5e7a94d9d28410a28318d7e4a40ae2bb"}, {"bike_id": "f89148e7439b64a9345d202fa6ce0339", "type": "electric_scooter", "is_disabled": 0, "lat": 38.91916766666667, "rental_uris": {"ios": "https://dc.lft.to/lastmile_qr_scan", "android": "https://dc.lft.to/lastmile_qr_scan"}, "is_reserved": 0, "fusion_lon": 0.0, "fusion_lat": 0.0, "lon": -77.03023816666666, "name": "f89148e7439b64a9345d202fa6ce0339"}, {"bike_id": "03e7b55f0f6b73d1785a271780d4b28e", "type": "electric_scooter", "is_disabled": 0, "lat": 38.9197495, "rental_uris": {"ios": "https://dc.lft.to/lastmile_qr_scan", "android": "https://dc.lft.to/lastmile_qr_scan"}, "is_reserved": 0, "fusion_lon": 0.0, "fusion_lat": 0.0, "lon": -77.039696, "name": "03e7b55f0f6b73d1785a271780d4b28e"}, {"bike_id": "55fa1495b005cfc8fad43aac551617e9", "type": "electric_scooter", "is_disabled": 0, "lat": 38.88301516666667, "rental_uris": {"ios": "https://dc.lft.to/lastmile_qr_scan", "android": "https://dc.lft.to/lastmile_qr_scan"}, "is_reserved": 0, "fusion_lon": 0.0, "fusion_lat": 0.0, "lon": -76.94211416666667, "name": "55fa1495b005cfc8fad43aac551617e9"}, {"bike_id": "de6e60805a6dd04c8962ea8ea9348cb3", "type": "electric_scooter", "is_disabled": 0, "lat": 38.85452733333333, "rental_uris": {"ios": "https://dc.lft.to/lastmile_qr_scan", "android": "https://dc.lft.to/lastmile_qr_scan"}, "is_reserved": 0, "fusion_lon": 0.0, "fusion_lat": 0.0, "lon": -76.9723595, "name": "de6e60805a6dd04c8962ea8ea9348cb3"}, {"bike_id": "aa9d2cdffbfa0f15a96a270d2ae1754c", "type": "electric_scooter", "is_disabled": 0, "lat": 38.920798, "rental_uris": {"ios": "https://dc.lft.to/lastmile_qr_scan", "android": "https://dc.lft.to/lastmile_qr_scan"}, "is_reserved": 0, "fusion_lon": 0.0, "fusion_lat": 0.0, "lon": -77.023761, "name": "aa9d2cdffbfa0f15a96a270d2ae1754c"}, {"bike_id": "e1f6768d44dd5eb619315b9313c08eb8", "type": "electric_scooter", "is_disabled": 0, "lat": 38.91597816666667, "rental_uris": {"ios": "https://dc.lft.to/lastmile_qr_scan", "android": "https://dc.lft.to/lastmile_qr_scan"}, "is_reserved": 0, "fusion_lon": 0.0, "fusion_lat": 0.0, "lon": -77.00199283333333, "name": "e1f6768d44dd5eb619315b9313c08eb8"}, {"bike_id": "c53ab5aa47456955e7b0388d23b24a2e", "type": "electric_bike", "is_disabled": 0, "lat": 38.908675333333335, "rental_uris": {"ios": "https://dc.lft.to/lastmile_qr_scan", "android": "https://dc.lft.to/lastmile_qr_scan"}, "is_reserved": 0, "fusion_lon": 0.0, "fusion_lat": 0.0, "lon": -77.0764705, "name": "c53ab5aa47456955e7b0388d23b24a2e"}, {"bike_id": "9fe7d02c33f76ce58c84e6cd8c64c8e6", "type": "electric_scooter", "is_disabled": 0, "lat": 38.90016383333333, "rental_uris": {"ios": "https://dc.lft.to/lastmile_qr_scan", "android": "https://dc.lft.to/lastmile_qr_scan"}, "is_reserved": 0, "fusion_lon": 0.0, "fusion_lat": 0.0, "lon": -77.00099533333334, "name": "9fe7d02c33f76ce58c84e6cd8c64c8e6"}, {"bike_id": "e8a03ef4092ca32e5f27bc51662b84ff", "type": "electric_scooter", "is_disabled": 0, "lat": 38.911181, "rental_uris": {"ios": "https://dc.lft.to/lastmile_qr_scan", "android": "https://dc.lft.to/lastmile_qr_scan"}, "is_reserved": 0, "fusion_lon": 0.0, "fusion_lat": 0.0, "lon": -77.02240316666666, "name": "e8a03ef4092ca32e5f27bc51662b84ff"}, {"bike_id": "2f5b97df56b572b3e68de0d08ae73d26", "type": "electric_scooter", "is_disabled": 0, "lat": 38.9171715, "rental_uris": {"ios": "https://dc.lft.to/lastmile_qr_scan", "android": "https://dc.lft.to/lastmile_qr_scan"}, "is_reserved": 0, "fusion_lon": 0.0, "fusion_lat": 0.0, "lon": -77.0289735, "name": "2f5b97df56b572b3e68de0d08ae73d26"}, {"bike_id": "5007552b8347f159d5b4606d2d631b22", "type": "electric_scooter", "is_disabled": 0, "lat": 38.89475633333333, "rental_uris": {"ios": "https://dc.lft.to/lastmile_qr_scan", "android": "https://dc.lft.to/lastmile_qr_scan"}, "is_reserved": 0, "fusion_lon": 0.0, "fusion_lat": 0.0, "lon": -76.99488116666667, "name": "5007552b8347f159d5b4606d2d631b22"}, {"bike_id": "05b3d4a01da53c8f256cf3a2b6921f42", "type": "electric_scooter", "is_disabled": 0, "lat": 38.917114833333336, "rental_uris": {"ios": "https://dc.lft.to/lastmile_qr_scan", "android": "https://dc.lft.to/lastmile_qr_scan"}, "is_reserved": 0, "fusion_lon": 0.0, "fusion_lat": 0.0, "lon": -77.02401383333333, "name": "05b3d4a01da53c8f256cf3a2b6921f42"}, {"bike_id": "0af12d39fa8b613a93c4e3437f946a84", "type": "electric_scooter", "is_disabled": 0, "lat": 38.8983935, "rental_uris": {"ios": "https://dc.lft.to/lastmile_qr_scan", "android": "https://dc.lft.to/lastmile_qr_scan"}, "is_reserved": 0, "fusion_lon": 0.0, "fusion_lat": 0.0, "lon": -76.946399, "name": "0af12d39fa8b613a93c4e3437f946a84"}, {"bike_id": "8af70631b0c64e15835c5de27d0d2838", "type": "electric_scooter", "is_disabled": 0, "lat": 38.919630166666664, "rental_uris": {"ios": "https://dc.lft.to/lastmile_qr_scan", "android": "https://dc.lft.to/lastmile_qr_scan"}, "is_reserved": 0, "fusion_lon": 0.0, "fusion_lat": 0.0, "lon": -77.01432633333333, "name": "8af70631b0c64e15835c5de27d0d2838"}, {"bike_id": "463f6179d7b51021a06b7c1e4fbb647f", "type": "electric_bike", "is_disabled": 0, "lat": 39.014798, "rental_uris": {"ios": "https://dc.lft.to/lastmile_qr_scan", "android": "https://dc.lft.to/lastmile_qr_scan"}, "is_reserved": 0, "fusion_lon": 0.0, "fusion_lat": 0.0, "lon": -77.0549905, "name": "463f6179d7b51021a06b7c1e4fbb647f"}, {"bike_id": "fe26468833eb32120ed04a6edae066c2", "type": "electric_scooter", "is_disabled": 0, "lat": 38.892289166666664, "rental_uris": {"ios": "https://dc.lft.to/lastmile_qr_scan", "android": "https://dc.lft.to/lastmile_qr_scan"}, "is_reserved": 0, "fusion_lon": 0.0, "fusion_lat": 0.0, "lon": -77.01376716666667, "name": "fe26468833eb32120ed04a6edae066c2"}, {"bike_id": "dab8ca6b8c1c67a7740814acc4feb3e5", "type": "electric_scooter", "is_disabled": 0, "lat": 38.9166635, "rental_uris": {"ios": "https://dc.lft.to/lastmile_qr_scan", "android": "https://dc.lft.to/lastmile_qr_scan"}, "is_reserved": 0, "fusion_lon": 0.0, "fusion_lat": 0.0, "lon": -77.022787, "name": "dab8ca6b8c1c67a7740814acc4feb3e5"}, {"bike_id": "b0c14ec55e48396e7abff3016d920349", "type": "electric_scooter", "is_disabled": 0, "lat": 38.902157, "rental_uris": {"ios": "https://dc.lft.to/lastmile_qr_scan", "android": "https://dc.lft.to/lastmile_qr_scan"}, "is_reserved": 0, "fusion_lon": 0.0, "fusion_lat": 0.0, "lon": -77.02320366666666, "name": "b0c14ec55e48396e7abff3016d920349"}, {"bike_id": "2da1239173025a0d244d46b45f068ca2", "type": "electric_scooter", "is_disabled": 0, "lat": 38.91041083333333, "rental_uris": {"ios": "https://dc.lft.to/lastmile_qr_scan", "android": "https://dc.lft.to/lastmile_qr_scan"}, "is_reserved": 0, "fusion_lon": 0.0, "fusion_lat": 0.0, "lon": -77.04087516666667, "name": "2da1239173025a0d244d46b45f068ca2"}, {"bike_id": "814a0a29d3c1a57497b4f2912b4b976e", "type": "electric_scooter", "is_disabled": 0, "lat": 38.91692783333333, "rental_uris": {"ios": "https://dc.lft.to/lastmile_qr_scan", "android": "https://dc.lft.to/lastmile_qr_scan"}, "is_reserved": 0, "fusion_lon": 0.0, "fusion_lat": 0.0, "lon": -77.03776333333333, "name": "814a0a29d3c1a57497b4f2912b4b976e"}, {"bike_id": "137f2298d00afb0ecda86128b8cc8797", "type": "electric_scooter", "is_disabled": 0, "lat": 38.91100216666667, "rental_uris": {"ios": "https://dc.lft.to/lastmile_qr_scan", "android": "https://dc.lft.to/lastmile_qr_scan"}, "is_reserved": 0, "fusion_lon": 0.0, "fusion_lat": 0.0, "lon": -77.04215533333333, "name": "137f2298d00afb0ecda86128b8cc8797"}, {"bike_id": "59e3dbbeacf9937ee4644581c805f87b", "type": "electric_scooter", "is_disabled": 0, "lat": 38.916067166666664, "rental_uris": {"ios": "https://dc.lft.to/lastmile_qr_scan", "android": "https://dc.lft.to/lastmile_qr_scan"}, "is_reserved": 0, "fusion_lon": 0.0, "fusion_lat": 0.0, "lon": -77.03391516666667, "name": "59e3dbbeacf9937ee4644581c805f87b"}, {"bike_id": "187bcbc42c904fbb437df2532a30f572", "type": "electric_bike", "is_disabled": 0, "lat": 38.80024366666667, "rental_uris": {"ios": "https://dc.lft.to/lastmile_qr_scan", "android": "https://dc.lft.to/lastmile_qr_scan"}, "is_reserved": 0, "fusion_lon": 0.0, "fusion_lat": 0.0, "lon": -77.06342083333334, "name": "187bcbc42c904fbb437df2532a30f572"}, {"bike_id": "8a92d0da77a5b8f7434f130171e70ff5", "type": "electric_scooter", "is_disabled": 0, "lat": 38.8650455, "rental_uris": {"ios": "https://dc.lft.to/lastmile_qr_scan", "android": "https://dc.lft.to/lastmile_qr_scan"}, "is_reserved": 0, "fusion_lon": 0.0, "fusion_lat": 0.0, "lon": -76.99003983333333, "name": "8a92d0da77a5b8f7434f130171e70ff5"}, {"bike_id": "73fd035afe5833ca95a35f28986860de", "type": "electric_scooter", "is_disabled": 0, "lat": 38.92259333333333, "rental_uris": {"ios": "https://dc.lft.to/lastmile_qr_scan", "android": "https://dc.lft.to/lastmile_qr_scan"}, "is_reserved": 0, "fusion_lon": 0.0, "fusion_lat": 0.0, "lon": -77.0351995, "name": "73fd035afe5833ca95a35f28986860de"}, {"bike_id": "25f3242d5f29fe8fa003aea4d9a67d5a", "type": "electric_scooter", "is_disabled": 0, "lat": 38.9232675, "rental_uris": {"ios": "https://dc.lft.to/lastmile_qr_scan", "android": "https://dc.lft.to/lastmile_qr_scan"}, "is_reserved": 0, "fusion_lon": 0.0, "fusion_lat": 0.0, "lon": -77.0574495, "name": "25f3242d5f29fe8fa003aea4d9a67d5a"}, {"bike_id": "d4127f2dfccb020d075a82fcad60e20c", "type": "electric_scooter", "is_disabled": 0, "lat": 38.923981166666664, "rental_uris": {"ios": "https://dc.lft.to/lastmile_qr_scan", "android": "https://dc.lft.to/lastmile_qr_scan"}, "is_reserved": 0, "fusion_lon": 0.0, "fusion_lat": 0.0, "lon": -77.04465566666667, "name": "d4127f2dfccb020d075a82fcad60e20c"}, {"bike_id": "53160390a67b943dda450ecd0dfe794e", "type": "electric_scooter", "is_disabled": 0, "lat": 38.905704666666665, "rental_uris": {"ios": "https://dc.lft.to/lastmile_qr_scan", "android": "https://dc.lft.to/lastmile_qr_scan"}, "is_reserved": 0, "fusion_lon": 0.0, "fusion_lat": 0.0, "lon": -77.0220235, "name": "53160390a67b943dda450ecd0dfe794e"}, {"bike_id": "31c5033c0f5f0b96a9707b99812121d3", "type": "electric_scooter", "is_disabled": 0, "lat": 38.93361983333333, "rental_uris": {"ios": "https://dc.lft.to/lastmile_qr_scan", "android": "https://dc.lft.to/lastmile_qr_scan"}, "is_reserved": 0, "fusion_lon": 0.0, "fusion_lat": 0.0, "lon": -77.04116233333333, "name": "31c5033c0f5f0b96a9707b99812121d3"}, {"bike_id": "019ff9dc720454340bbea94320aa9bfc", "type": "electric_scooter", "is_disabled": 0, "lat": 38.9163285, "rental_uris": {"ios": "https://dc.lft.to/lastmile_qr_scan", "android": "https://dc.lft.to/lastmile_qr_scan"}, "is_reserved": 0, "fusion_lon": 0.0, "fusion_lat": 0.0, "lon": -77.02015733333333, "name": "019ff9dc720454340bbea94320aa9bfc"}, {"bike_id": "f607958dc3e16f1303778356eeba7c5a", "type": "electric_scooter", "is_disabled": 0, "lat": 38.91697716666667, "rental_uris": {"ios": "https://dc.lft.to/lastmile_qr_scan", "android": "https://dc.lft.to/lastmile_qr_scan"}, "is_reserved": 0, "fusion_lon": 0.0, "fusion_lat": 0.0, "lon": -77.02676, "name": "f607958dc3e16f1303778356eeba7c5a"}, {"bike_id": "3a27a17df52a82eef52200bada399cc2", "type": "electric_scooter", "is_disabled": 0, "lat": 38.90867016666667, "rental_uris": {"ios": "https://dc.lft.to/lastmile_qr_scan", "android": "https://dc.lft.to/lastmile_qr_scan"}, "is_reserved": 0, "fusion_lon": 0.0, "fusion_lat": 0.0, "lon": -77.03225866666666, "name": "3a27a17df52a82eef52200bada399cc2"}, {"bike_id": "1a5c61ee1ea68fd18d313303b83626c5", "type": "electric_scooter", "is_disabled": 0, "lat": 38.88657766666667, "rental_uris": {"ios": "https://dc.lft.to/lastmile_qr_scan", "android": "https://dc.lft.to/lastmile_qr_scan"}, "is_reserved": 0, "fusion_lon": 0.0, "fusion_lat": 0.0, "lon": -77.02840616666667, "name": "1a5c61ee1ea68fd18d313303b83626c5"}, {"bike_id": "6ffddcd4cda5eb101c6ca5525fca75c0", "type": "electric_bike", "is_disabled": 0, "lat": 38.80973183333333, "rental_uris": {"ios": "https://dc.lft.to/lastmile_qr_scan", "android": "https://dc.lft.to/lastmile_qr_scan"}, "is_reserved": 0, "fusion_lon": 0.0, "fusion_lat": 0.0, "lon": -77.086311, "name": "6ffddcd4cda5eb101c6ca5525fca75c0"}, {"bike_id": "a39089473bc8f4435773d82b2521a59a", "type": "electric_scooter", "is_disabled": 0, "lat": 38.917741666666664, "rental_uris": {"ios": "https://dc.lft.to/lastmile_qr_scan", "android": "https://dc.lft.to/lastmile_qr_scan"}, "is_reserved": 0, "fusion_lon": 0.0, "fusion_lat": 0.0, "lon": -77.047663, "name": "a39089473bc8f4435773d82b2521a59a"}, {"bike_id": "17841d145eb0b5b9b5bf1130f929511a", "type": "electric_scooter", "is_disabled": 0, "lat": 38.90316, "rental_uris": {"ios": "https://dc.lft.to/lastmile_qr_scan", "android": "https://dc.lft.to/lastmile_qr_scan"}, "is_reserved": 0, "fusion_lon": 0.0, "fusion_lat": 0.0, "lon": -76.99131883333334, "name": "17841d145eb0b5b9b5bf1130f929511a"}, {"bike_id": "e12dbba731b8c7732f7b8366a3199929", "type": "electric_scooter", "is_disabled": 0, "lat": 38.92861416666667, "rental_uris": {"ios": "https://dc.lft.to/lastmile_qr_scan", "android": "https://dc.lft.to/lastmile_qr_scan"}, "is_reserved": 0, "fusion_lon": 0.0, "fusion_lat": 0.0, "lon": -77.0371275, "name": "e12dbba731b8c7732f7b8366a3199929"}, {"bike_id": "9ab6811aa857f84fea356b31e7dfe34c", "type": "electric_scooter", "is_disabled": 0, "lat": 38.91416366666667, "rental_uris": {"ios": "https://dc.lft.to/lastmile_qr_scan", "android": "https://dc.lft.to/lastmile_qr_scan"}, "is_reserved": 0, "fusion_lon": 0.0, "fusion_lat": 0.0, "lon": -77.0180215, "name": "9ab6811aa857f84fea356b31e7dfe34c"}, {"bike_id": "0fa9336f2ff8f79ee660990d0850c0c8", "type": "electric_scooter", "is_disabled": 0, "lat": 38.955784, "rental_uris": {"ios": "https://dc.lft.to/lastmile_qr_scan", "android": "https://dc.lft.to/lastmile_qr_scan"}, "is_reserved": 0, "fusion_lon": 0.0, "fusion_lat": 0.0, "lon": -77.08041083333333, "name": "0fa9336f2ff8f79ee660990d0850c0c8"},