{"data": {"bikes": [{"is_disabled": 0, "fusion_lon": 0.0, "fusion_lat": 0.0, "lat": 38.876604666666665, "type": "electric_scooter", "lon": -77.00745966666666, "bike_id": "0759f79a74848cc65562297c872b318a", "rental_uris": {"android": "https://dc.lft.to/lastmile_qr_scan", "ios": "https://dc.lft.to/lastmile_qr_scan"}, "name": "0759f79a74848cc65562297c872b318a", "is_reserved": 0}, {"is_disabled": 0, "fusion_lon": 0.0, "fusion_lat": 0.0, "lat": 38.90955833333334, "type": "electric_scooter", "lon": -77.039487, "bike_id": "5f481f8a91fa7213f6f01cdd0c504910", "rental_uris": {"android": "https://dc.lft.to/lastmile_qr_scan", "ios": "https://dc.lft.to/lastmile_qr_scan"}, "name": "5f481f8a91fa7213f6f01cdd0c504910", "is_reserved": 0}, {"is_disabled": 0, "fusion_lon": 0.0, "fusion_lat": 0.0, "lat": 38.92665783333333, "type": "electric_scooter", "lon": -77.01501516666667, "bike_id": "23ea53e6b3339f7a70237d5276549c2c", "rental_uris": {"android": "https://dc.lft.to/lastmile_qr_scan", "ios": "https://dc.lft.to/lastmile_qr_scan"}, "name": "23ea53e6b3339f7a70237d5276549c2c", "is_reserved": 0}, {"is_disabled": 0, "fusion_lon": 0.0, "fusion_lat": 0.0, "lat": 39.052693, "type": "electric_bike", "lon": -77.04381566666666, "bike_id": "4209a81d7751f9eee1e6f02051d428b4", "rental_uris": {"android": "https://dc.lft.to/lastmile_qr_scan", "ios": "https://dc.lft.to/lastmile_qr_scan"}, "name": "4209a81d7751f9eee1e6f02051d428b4", "is_reserved": 0}, {"is_disabled": 0, "fusion_lon": 0.0, "fusion_lat": 0.0, "lat": 38.93362333333334, "type": "electric_scooter", "lon": -77.05747316666667, "bike_id": "3765bf527b70eb094b6511fb2647ba41", "rental_uris": {"android": "https://dc.lft.to/lastmile_qr_scan", "ios": "https://dc.lft.to/lastmile_qr_scan"}, "name": "3765bf527b70eb094b6511fb2647ba41", "is_reserved": 0}, {"is_disabled": 0, "fusion_lon": 0.0, "fusion_lat": 0.0, "lat": 38.917010833333336, "type": "electric_bike", "lon": -77.09565233333333, "bike_id": "02ca679346791a3f7cc961e1eb59a3db", "rental_uris": {"android": "https://dc.lft.to/lastmile_qr_scan", "ios": "https://dc.lft.to/lastmile_qr_scan"}, "name": "02ca679346791a3f7cc961e1eb59a3db", "is_reserved": 0}, {"is_disabled": 0, "fusion_lon": 0.0, "fusion_lat": 0.0, "lat": 38.865013, "type": "electric_scooter", "lon": -76.99002616666667, "bike_id": "6a866aa82a46efc92f6e60f44ded93e9", "rental_uris": {"android": "https://dc.lft.to/lastmile_qr_scan", "ios": "https://dc.lft.to/lastmile_qr_scan"}, "name": "6a866aa82a46efc92f6e60f44ded93e9", "is_reserved": 0}, {"is_disabled": 0, "fusion_lon": 0.0, "fusion_lat": 0.0, "lat": 38.90383933333333, "type": "electric_scooter", "lon": -77.038135, "bike_id": "fdeeebd307690752b5863d9538836151", "rental_uris": {"android": "https://dc.lft.to/lastmile_qr_scan", "ios": "https://dc.lft.to/lastmile_qr_scan"}, "name": "fdeeebd307690752b5863d9538836151", "is_reserved": 0}, {"is_disabled": 0, "fusion_lon": 0.0, "fusion_lat": 0.0, "lat": 38.92812033333333, "type": "electric_scooter", "lon": -77.02346233333333, "bike_id": "508c0f4c00aad32fbad8e64cee15af24", "rental_uris": {"android": "https://dc.lft.to/lastmile_qr_scan", "ios": "https://dc.lft.to/lastmile_qr_scan"}, "name": "508c0f4c00aad32fbad8e64cee15af24", "is_reserved": 0}, {"is_disabled": 0, "fusion_lon": 0.0, "fusion_lat": 0.0, "lat": 38.908635833333335, "type": "electric_scooter", "lon": -77.0322095, "bike_id": "b2e78b0aed5971eedb1753ebfadbc807", "rental_uris": {"android": "https://dc.lft.to/lastmile_qr_scan", "ios": "https://dc.lft.to/lastmile_qr_scan"}, "name": "b2e78b0aed5971eedb1753ebfadbc807", "is_reserved": 0}, {"is_disabled": 0, "fusion_lon": 0.0, "fusion_lat": 0.0, "lat": 38.948949666666664, "type": "electric_bike", "lon": -76.9636965, "bike_id": "2359d5cce71c0a4aebd40ad48bef3cbf", "rental_uris": {"android": "https://dc.lft.to/lastmile_qr_scan", "ios": "https://dc.lft.to/lastmile_qr_scan"}, "name": "2359d5cce71c0a4aebd40ad48bef3cbf", "is_reserved": 0}, {"is_disabled": 0, "fusion_lon": 0.0, "fusion_lat": 0.0, "lat": 38.8610515, "type": "electric_scooter", "lon": -76.98372333333333, "bike_id": "c27851fcb54222a471a50e09feb078c4", "rental_uris": {"android": "https://dc.lft.to/lastmile_qr_scan", "ios": "https://dc.lft.to/lastmile_qr_scan"}, "name": "c27851fcb54222a471a50e09feb078c4", "is_reserved": 0}, {"is_disabled": 0, "fusion_lon": 0.0, "fusion_lat": 0.0, "lat": 38.896209666666664, "type": "electric_scooter", "lon": -76.99637533333333, "bike_id": "733412a12e9f5bb9a793b37126c34bac", "rental_uris": {"android": "https://dc.lft.to/lastmile_qr_scan", "ios": "https://dc.lft.to/lastmile_qr_scan"}, "name": "733412a12e9f5bb9a793b37126c34bac", "is_reserved": 0}, {"is_disabled": 0, "fusion_lon": 0.0, "fusion_lat": 0.0, "lat": 38.920732, "type": "electric_scooter", "lon": -77.02517316666666, "bike_id": "bc4cfd584b453781f138f0a42275d8c8", "rental_uris": {"android": "https://dc.lft.to/lastmile_qr_scan", "ios": "https://dc.lft.to/lastmile_qr_scan"}, "name": "bc4cfd584b453781f138f0a42275d8c8", "is_reserved": 0}, {"is_disabled": 0, "fusion_lon": 0.0, "fusion_lat": 0.0, "lat": 38.918702, "type": "electric_bike", "lon": -76.96124133333333, "bike_id": "d37324757d9759f943195a03c92bc4dd", "rental_uris": {"android": "https://dc.lft.to/lastmile_qr_scan", "ios": "https://dc.lft.to/lastmile_qr_scan"}, "name": "d37324757d9759f943195a03c92bc4dd", "is_reserved": 0}, {"is_disabled": 0, "fusion_lon": 0.0, "fusion_lat": 0.0, "lat": 38.92250466666667, "type": "electric_scooter", "lon": -77.030857, "bike_id": "8f9cf0f20e33b43f182a71ffdd9c614f", "rental_uris": {"android": "https://dc.lft.to/lastmile_qr_scan", "ios": "https://dc.lft.to/lastmile_qr_scan"}, "name": "8f9cf0f20e33b43f182a71ffdd9c614f", "is_reserved": 0}, {"is_disabled": 0, "fusion_lon": 0.0, "fusion_lat": 0.0, "lat": 38.9353935, "type": "electric_scooter", "lon": -77.07282716666667, "bike_id": "e5f64d259a96a3355b3ea97a47fa4299", "rental_uris": {"android": "https://dc.lft.to/lastmile_qr_scan", "ios": "https://dc.lft.to/lastmile_qr_scan"}, "name": "e5f64d259a96a3355b3ea97a47fa4299", "is_reserved": 0}, {"is_disabled": 0, "fusion_lon": 0.0, "fusion_lat": 0.0, "lat": 38.932477, "type": "electric_scooter", "lon": -77.03275616666667, "bike_id": "7259bb41f40ff04aacd1d5538d495778", "rental_uris": {"android": "https://dc.lft.to/lastmile_qr_scan", "ios": "https://dc.lft.to/lastmile_qr_scan"}, "name": "7259bb41f40ff04aacd1d5538d495778", "is_reserved": 0}, {"is_disabled": 0, "fusion_lon": 0.0, "fusion_lat": 0.0, "lat": 38.901749, "type": "electric_scooter", "lon": -76.92824683333333, "bike_id": "0c9dc6383df4f4342388275bbd4be435", "rental_uris": {"android": "https://dc.lft.to/lastmile_qr_scan", "ios": "https://dc.lft.to/lastmile_qr_scan"}, "name": "0c9dc6383df4f4342388275bbd4be435", "is_reserved": 0}, {"is_disabled": 0, "fusion_lon": 0.0, "fusion_lat": 0.0, "lat": 38.905152, "type": "electric_scooter", "lon": -77.04757616666667, "bike_id": "089ae6d436bc3c18508b5008ca990580", "rental_uris": {"android": "https://dc.lft.to/lastmile_qr_scan", "ios": "https://dc.lft.to/lastmile_qr_scan"}, "name": "089ae6d436bc3c18508b5008ca990580", "is_reserved": 0}, {"is_disabled": 0, "fusion_lon": 0.0, "fusion_lat": 0.0, "lat": 38.90531033333333, "type": "electric_scooter", "lon": -77.02954666666666, "bike_id": "6254738938a43a72289b6a86658eb619", "rental_uris": {"android": "https://dc.lft.to/lastmile_qr_scan", "ios": "https://dc.lft.to/lastmile_qr_scan"}, "name": "6254738938a43a72289b6a86658eb619", "is_reserved": 0}, {"is_disabled": 0, "fusion_lon": 0.0, "fusion_lat": 0.0, "lat": 38.91257066666667, "type": "electric_scooter", "lon": -77.03267883333334, "bike_id": "c422ef87698a6cfdeb3a98ae68d6bbe2", "rental_uris": {"android": "https://dc.lft.to/lastmile_qr_scan", "ios": "https://dc.lft.to/lastmile_qr_scan"}, "name": "c422ef87698a6cfdeb3a98ae68d6bbe2", "is_reserved": 0}, {"is_disabled": 0, "fusion_lon": 0.0, "fusion_lat": 0.0, "lat": 38.915638666666666, "type": "electric_scooter", "lon": -77.03275533333333, "bike_id": "341244705ddedbd375e4320fbd629e7b", "rental_uris": {"android": "https://dc.lft.to/lastmile_qr_scan", "ios": "https://dc.lft.to/lastmile_qr_scan"}, "name": "341244705ddedbd375e4320fbd629e7b", "is_reserved": 0}, {"is_disabled": 0, "fusion_lon": 0.0, "fusion_lat": 0.0, "lat": 38.902379833333335, "type": "electric_scooter", "lon": -77.0020105, "bike_id": "8f7216caa8193d532a432ecb4195f6c9", "rental_uris": {"android": "https://dc.lft.to/lastmile_qr_scan", "ios": "https://dc.lft.to/lastmile_qr_scan"}, "name": "8f7216caa8193d532a432ecb4195f6c9", "is_reserved": 0}, {"is_disabled": 0, "fusion_lon": 0.0, "fusion_lat": 0.0, "lat": 38.905437666666664, "type": "electric_scooter", "lon": -77.0295315, "bike_id": "876fcfc5b9b625dcfb1242af9a9aba7e", "rental_uris": {"android": "https://dc.lft.to/lastmile_qr_scan", "ios": "https://dc.lft.to/lastmile_qr_scan"}, "name": "876fcfc5b9b625dcfb1242af9a9aba7e", "is_reserved": 0}, {"is_disabled": 0, "fusion_lon": 0.0, "fusion_lat": 0.0, "lat": 38.8850515, "type": "electric_scooter", "lon": -77.00564566666667, "bike_id": "08fd9577b92cf8ea40e9c315adaab40a", "rental_uris": {"android": "https://dc.lft.to/lastmile_qr_scan", "ios": "https://dc.lft.to/lastmile_qr_scan"}, "name": "08fd9577b92cf8ea40e9c315adaab40a", "is_reserved": 0}, {"is_disabled": 0, "fusion_lon": 0.0, "fusion_lat": 0.0, "lat": 38.917818, "type": "electric_scooter", "lon": -77.022984, "bike_id": "9e4c15dcd4ba75272894712b8cb4353b", "rental_uris": {"android": "https://dc.lft.to/lastmile_qr_scan", "ios": "https://dc.lft.to/lastmile_qr_scan"}, "name": "9e4c15dcd4ba75272894712b8cb4353b", "is_reserved": 0}, {"is_disabled": 0, "fusion_lon": 0.0, "fusion_lat": 0.0, "lat": 38.89967683333333, "type": "electric_scooter", "lon": -77.04614433333333, "bike_id": "24aa125b8419f2d2cb237ead5ff7b9e6", "rental_uris": {"android": "https://dc.lft.to/lastmile_qr_scan", "ios": "https://dc.lft.to/lastmile_qr_scan"}, "name": "24aa125b8419f2d2cb237ead5ff7b9e6", "is_reserved": 0}, {"is_disabled": 0, "fusion_lon": 0.0, "fusion_lat": 0.0, "lat": 38.897168666666666, "type": "electric_scooter", "lon": -77.00794733333333, "bike_id": "33fb01eb628926cef7d738727430595a", "rental_uris": {"android": "https://dc.lft.to/lastmile_qr_scan", "ios": "https://dc.lft.to/lastmile_qr_scan"}, "name": "33fb01eb628926cef7d738727430595a", "is_reserved": 0}, {"is_disabled": 0, "fusion_lon": 0.0, "fusion_lat": 0.0, "lat": 38.940870833333335, "type": "electric_scooter", "lon": -77.027184, "bike_id": "3dbcaf55a957952b56da93f7176a182c", "rental_uris": {"android": "https://dc.lft.to/lastmile_qr_scan", "ios": "https://dc.lft.to/lastmile_qr_scan"}, "name": "3dbcaf55a957952b56da93f7176a182c", "is_reserved": 0}, {"is_disabled": 0, "fusion_lon": 0.0, "fusion_lat": 0.0, "lat": 38.91750033333334, "type": "electric_bike", "lon": -76.989844, "bike_id": "0d2e836587e1c66fc3410d811a4a14dd", "rental_uris": {"android": "https://dc.lft.to/lastmile_qr_scan", "ios": "https://dc.lft.to/lastmile_qr_scan"}, "name": "0d2e836587e1c66fc3410d811a4a14dd", "is_reserved": 0}, {"is_disabled": 0, "fusion_lon": 0.0, "fusion_lat": 0.0, "lat": 38.90783783333333, "type": "electric_scooter", "lon": -77.045173, "bike_id": "6798fd7b58e6711f04ab3f26e1cf4326", "rental_uris": {"android": "https://dc.lft.to/lastmile_qr_scan", "ios": "https://dc.lft.to/lastmile_qr_scan"}, "name": "6798fd7b58e6711f04ab3f26e1cf4326", "is_reserved": 0}, {"is_disabled": 0, "fusion_lon": 0.0, "fusion_lat": 0.0, "lat": 38.890432, "type": "electric_scooter", "lon": -76.93753166666667, "bike_id": "428dbc517ad4c5e21e7ff541d35f6898", "rental_uris": {"android": "https://dc.lft.to/lastmile_qr_scan", "ios": "https://dc.lft.to/lastmile_qr_scan"}, "name": "428dbc517ad4c5e21e7ff541d35f6898", "is_reserved": 0}, {"is_disabled": 0, "fusion_lon": 0.0, "fusion_lat": 0.0, "lat": 38.897695666666664, "type": "electric_scooter", "lon": -77.05139166666666, "bike_id": "f7d900a4c64d7a20d7fcc2dd45beed87", "rental_uris": {"android": "https://dc.lft.to/lastmile_qr_scan", "ios": "https://dc.lft.to/lastmile_qr_scan"}, "name": "f7d900a4c64d7a20d7fcc2dd45beed87", "is_reserved": 0}, {"is_disabled": 0, "fusion_lon": 0.0, "fusion_lat": 0.0, "lat": 38.906727833333335, "type": "electric_scooter", "lon": -77.03850016666667, "bike_id": "474d1eb5df09c79c08f64a487c7fb076", "rental_uris": {"android": "https://dc.lft.to/lastmile_qr_scan", "ios": "https://dc.lft.to/lastmile_qr_scan"}, "name": "474d1eb5df09c79c08f64a487c7fb076", "is_reserved": 0}, {"is_disabled": 0, "fusion_lon": 0.0, "fusion_lat": 0.0, "lat": 38.90257833333333, "type": "electric_scooter", "lon": -77.01756816666666, "bike_id": "6b2b3dd57b2de2cfe056269f2101b4fb", "rental_uris": {"android": "https://dc.lft.to/lastmile_qr_scan", "ios": "https://dc.lft.to/lastmile_qr_scan"}, "name": "6b2b3dd57b2de2cfe056269f2101b4fb", "is_reserved": 0}, {"is_disabled": 0, "fusion_lon": 0.0, "fusion_lat": 0.0, "lat": 38.9032135, "type": "electric_scooter", "lon": -77.04341566666666, "bike_id": "a78048808165c47425574ba7643118ed", "rental_uris": {"android": "https://dc.lft.to/lastmile_qr_scan", "ios": "https://dc.lft.to/lastmile_qr_scan"}, "name": "a78048808165c47425574ba7643118ed", "is_reserved": 0}, {"is_disabled": 0, "fusion_lon": 0.0, "fusion_lat": 0.0, "lat": 39.022959, "type": "electric_bike", "lon": -77.02105383333334, "bike_id": "62585701eac25281bd5daa809552aa86", "rental_uris": {"android": "https://dc.lft.to/lastmile_qr_scan", "ios": "https://dc.lft.to/lastmile_qr_scan"}, "name": "62585701eac25281bd5daa809552aa86", "is_reserved": 0}, {"is_disabled": 0, "fusion_lon": 0.0, "fusion_lat": 0.0, "lat": 38.9605125, "type": "electric_scooter", "lon": -77.08572933333333, "bike_id": "478402b394ea017edd69e43f2a50cf2e", "rental_uris": {"android": "https://dc.lft.to/lastmile_qr_scan", "ios": "https://dc.lft.to/lastmile_qr_scan"}, "name": "478402b394ea017edd69e43f2a50cf2e", "is_reserved": 0}, {"is_disabled": 0, "fusion_lon": 0.0, "fusion_lat": 0.0, "lat": 38.893216333333335, "type": "electric_scooter", "lon": -77.02132816666666, "bike_id": "ac15893b94b2a57cf42a9cbac3221e4d", "rental_uris": {"android": "https://dc.lft.to/lastmile_qr_scan", "ios": "https://dc.lft.to/lastmile_qr_scan"}, "name": "ac15893b94b2a57cf42a9cbac3221e4d", "is_reserved": 0}, {"is_disabled": 0, "fusion_lon": 0.0, "fusion_lat": 0.0, "lat": 38.8984465, "type": "electric_scooter", "lon": -76.94453983333334, "bike_id": "a65df63c13efee049e6cc75b4dde5374", "rental_uris": {"android": "https://dc.lft.to/lastmile_qr_scan", "ios": "https://dc.lft.to/lastmile_qr_scan"}, "name": "a65df63c13efee049e6cc75b4dde5374", "is_reserved": 0}, {"is_disabled": 0, "fusion_lon": 0.0, "fusion_lat": 0.0, "lat": 38.97674283333333, "type": "electric_bike", "lon": -76.97168283333333, "bike_id": "94066018a2207164745305ed38510b9a", "rental_uris": {"android": "https://dc.lft.to/lastmile_qr_scan", "ios": "https://dc.lft.to/lastmile_qr_scan"}, "name": "94066018a2207164745305ed38510b9a", "is_reserved": 0}, {"is_disabled": 0, "fusion_lon": 0.0, "fusion_lat": 0.0, "lat": 38.90373183333333, "type": "electric_scooter", "lon": -77.02203283333333, "bike_id": "9a84a5b56a7b1c3995107d0da82923a0", "rental_uris": {"android": "https://dc.lft.to/lastmile_qr_scan", "ios": "https://dc.lft.to/lastmile_qr_scan"}, "name": "9a84a5b56a7b1c3995107d0da82923a0", "is_reserved": 0}, {"is_disabled": 0, "fusion_lon": 0.0, "fusion_lat": 0.0, "lat": 38.899184, "type": "electric_scooter", "lon": -77.05420783333334, "bike_id": "4bb000bcfcb7f9687d39a360247e97ec", "rental_uris": {"android": "https://dc.lft.to/lastmile_qr_scan", "ios": "https://dc.lft.to/lastmile_qr_scan"}, "name": "4bb000bcfcb7f9687d39a360247e97ec", "is_reserved": 0}, {"is_disabled": 0, "fusion_lon": 0.0, "fusion_lat": 0.0, "lat": 38.892343, "type": "electric_bike", "lon": -76.95222233333334, "bike_id": "bdc1fd3521ed13e708e2f171e7ab6f17", "rental_uris": {"android": "https://dc.lft.to/lastmile_qr_scan", "ios": "https://dc.lft.to/lastmile_qr_scan"}, "name": "bdc1fd3521ed13e708e2f171e7ab6f17", "is_reserved": 0}, {"is_disabled": 0, "fusion_lon": 0.0, "fusion_lat": 0.0, "lat": 38.8960125, "type": "electric_scooter", "lon": -77.0092265, "bike_id": "952926eb6e7770549d572862fe512032", "rental_uris": {"android": "https://dc.lft.to/lastmile_qr_scan", "ios": "https://dc.lft.to/lastmile_qr_scan"}, "name": "952926eb6e7770549d572862fe512032", "is_reserved": 0}, {"is_disabled": 0, "fusion_lon": 0.0, "fusion_lat": 0.0, "lat": 38.90542966666667, "type": "electric_scooter", "lon": -77.0467095, "bike_id": "d8be1a592e5daa5d8b5bde509ebd11f3", "rental_uris": {"android": "https://dc.lft.to/lastmile_qr_scan", "ios": "https://dc.lft.to/lastmile_qr_scan"}, "name": "d8be1a592e5daa5d8b5bde509ebd11f3", "is_reserved": 0}, {"is_disabled": 0, "fusion_lon": 0.0, "fusion_lat": 0.0, "lat": 38.925896333333334, "type": "electric_bike", "lon": -76.88911816666666, "bike_id": "9abe4dd9d88ac33fb3254a0ed33a371d", "rental_uris": {"android": "https://dc.lft.to/lastmile_qr_scan", "ios": "https://dc.lft.to/lastmile_qr_scan"}, "name": "9abe4dd9d88ac33fb3254a0ed33a371d", "is_reserved": 0}, {"is_disabled": 0, "fusion_lon": 0.0, "fusion_lat": 0.0, "lat": 38.90725, "type": "electric_scooter", "lon": -77.029487, "bike_id": "1f243f9e3759e356c726df2c18aaae4e", "rental_uris": {"android": "https://dc.lft.to/lastmile_qr_scan", "ios": "https://dc.lft.to/lastmile_qr_scan"}, "name": "1f243f9e3759e356c726df2c18aaae4e", "is_reserved": 0}, {"is_disabled": 0, "fusion_lon": 0.0, "fusion_lat": 0.0, "lat": 38.954148, "type": "electric_scooter", "lon": -77.02844883333333, "bike_id": "d33fefd3c891518da90b262212b00820", "rental_uris": {"android": "https://dc.lft.to/lastmile_qr_scan", "ios": "https://dc.lft.to/lastmile_qr_scan"}, "name": "d33fefd3c891518da90b262212b00820", "is_reserved": 0}, {"is_disabled": 0, "fusion_lon": 0.0, "fusion_lat": 0.0, "lat": 38.92835816666667, "type": "electric_scooter", "lon": -77.01402466666667, "bike_id": "484d9ba62e64c9b32432e0b141be82a6", "rental_uris": {"android": "https://dc.lft.to/lastmile_qr_scan", "ios": "https://dc.lft.to/lastmile_qr_scan"}, "name": "484d9ba62e64c9b32432e0b141be82a6", "is_reserved": 0}, {"is_disabled": 0, "fusion_lon": 0.0, "fusion_lat": 0.0, "lat": 38.866708833333334, "type": "electric_scooter", "lon": -76.988856, "bike_id": "1c6959bc6efd76e4b3059045c571319a", "rental_uris": {"android": "https://dc.lft.to/lastmile_qr_scan", "ios": "https://dc.lft.to/lastmile_qr_scan"}, "name": "1c6959bc6efd76e4b3059045c571319a", "is_reserved": 0}, {"is_disabled": 0, "fusion_lon": 0.0, "fusion_lat": 0.0, "lat": 38.8955435, "type": "electric_scooter", "lon": -77.04675683333333, "bike_id": "6d04ce0b80ca9359211e8ed63eb5ff17", "rental_uris": {"android": "https://dc.lft.to/lastmile_qr_scan", "ios": "https://dc.lft.to/lastmile_qr_scan"}, "name": "6d04ce0b80ca9359211e8ed63eb5ff17", "is_reserved": 0}, {"is_disabled": 0, "fusion_lon": 0.0, "fusion_lat": 0.0, "lat": 38.8824955, "type": "electric_scooter", "lon": -77.00347933333333, "bike_id": "cb1600fea16cb4a5c94b85bb715333fe", "rental_uris": {"android": "https://dc.lft.to/lastmile_qr_scan", "ios": "https://dc.lft.to/lastmile_qr_scan"}, "name": "cb1600fea16cb4a5c94b85bb715333fe", "is_reserved": 0}, {"is_disabled": 0, "fusion_lon": 0.0, "fusion_lat": 0.0, "lat": 38.91853016666666, "type": "electric_bike", "lon": -76.9609015, "bike_id": "b88f68a260ed98376471b9eceaf7669b", "rental_uris": {"android": "https://dc.lft.to/lastmile_qr_scan", "ios": "https://dc.lft.to/lastmile_qr_scan"}, "name": "b88f68a260ed98376471b9eceaf7669b", "is_reserved": 0}, {"is_disabled": 0, "fusion_lon": 0.0, "fusion_lat": 0.0, "lat": 38.879212333333335, "type": "electric_scooter", "lon": -77.00046916666666, "bike_id": "43ce7487cb8703d9be109beaf468e68a", "rental_uris": {"android": "https://dc.lft.to/lastmile_qr_scan", "ios": "https://dc.lft.to/lastmile_qr_scan"}, "name": "43ce7487cb8703d9be109beaf468e68a", "is_reserved": 0}, {"is_disabled": 0, "fusion_lon": 0.0, "fusion_lat": 0.0, "lat": 38.95057966666667, "type": "electric_bike", "lon": -76.96736433333334, "bike_id": "b060e2af859ec133f710894008a84cd7", "rental_uris": {"android": "https://dc.lft.to/lastmile_qr_scan", "ios": "https://dc.lft.to/lastmile_qr_scan"}, "name": "b060e2af859ec133f710894008a84cd7", "is_reserved": 0}, {"is_disabled": 0, "fusion_lon": 0.0, "fusion_lat": 0.0, "lat": 38.92245416666667, "type": "electric_scooter", "lon": -77.030761, "bike_id": "947a0fd24fe4baa95c7362fd0faa64b2", "rental_uris": {"android": "https://dc.lft.to/lastmile_qr_scan", "ios": "https://dc.lft.to/lastmile_qr_scan"}, "name": "947a0fd24fe4baa95c7362fd0faa64b2", "is_reserved": 0}, {"is_disabled": 0, "fusion_lon": 0.0, "fusion_lat": 0.0, "lat": 38.96305433333333, "type": "electric_bike", "lon": -77.05760816666667, "bike_id": "b28f0a2fce3f2b22168bd7f3e2539756", "rental_uris": {"android": "https://dc.lft.to/lastmile_qr_scan", "ios": "https://dc.lft.to/lastmile_qr_scan"}, "name": "b28f0a2fce3f2b22168bd7f3e2539756", "is_reserved": 0}, {"is_disabled": 0, "fusion_lon": 0.0, "fusion_lat": 0.0, "lat": 38.93603933333333, "type": "electric_scooter", "lon": -77.05858716666667, "bike_id": "19a901ffd80feb68b0d46ee97c3eea13", "rental_uris": {"android": "https://dc.lft.to/lastmile_qr_scan", "ios": "https://dc.lft.to/lastmile_qr_scan"}, "name": "19a901ffd80feb68b0d46ee97c3eea13", "is_reserved": 0}, {"is_disabled": 0, "fusion_lon": 0.0, "fusion_lat": 0.0, "lat": 38.83348266666667, "type": "electric_bike", "lon": -76.96557783333333, "bike_id": "c574320e375458de2aea000ccb545878", "rental_uris": {"android": "https://dc.lft.to/lastmile_qr_scan", "ios": "https://dc.lft.to/lastmile_qr_scan"}, "name": "c574320e375458de2aea000ccb545878", "is_reserved": 0}, {"is_disabled": 0, "fusion_lon": 0.0, "fusion_lat": 0.0, "lat": 38.90122933333333, "type": "electric_scooter", "lon": -77.03052016666666, "bike_id": "b7b949477cee18530b5b9a293f4323b0", "rental_uris": {"android": "https://dc.lft.to/lastmile_qr_scan", "ios": "https://dc.lft.to/lastmile_qr_scan"}, "name": "b7b949477cee18530b5b9a293f4323b0", "is_reserved": 0}, {"is_disabled": 0, "fusion_lon": 0.0, "fusion_lat": 0.0, "lat": 38.904901333333335, "type": "electric_scooter", "lon": -77.02946666666666, "bike_id": "5b7078b5d5e641511e45e00e0b678ce1", "rental_uris": {"android": "https://dc.lft.to/lastmile_qr_scan", "ios": "https://dc.lft.to/lastmile_qr_scan"}, "name": "5b7078b5d5e641511e45e00e0b678ce1", "is_reserved": 0}, {"is_disabled": 0, "fusion_lon": 0.0, "fusion_lat": 0.0, "lat": 38.891932, "type": "electric_scooter", "lon": -77.00291766666666, "bike_id": "1d8c91693cbf6cee5ee1269b6057fb88", "rental_uris": {"android": "https://dc.lft.to/lastmile_qr_scan", "ios": "https://dc.lft.to/lastmile_qr_scan"}, "name": "1d8c91693cbf6cee5ee1269b6057fb88", "is_reserved": 0}, {"is_disabled": 0, "fusion_lon": 0.0, "fusion_lat": 0.0, "lat": 38.911919166666664, "type": "electric_scooter", "lon": -77.031366, "bike_id": "5759c9932dfd13c9b0c2d3ef0581ea6e", "rental_uris": {"android": "https://dc.lft.to/lastmile_qr_scan", "ios": "https://dc.lft.to/lastmile_qr_scan"}, "name": "5759c9932dfd13c9b0c2d3ef0581ea6e", "is_reserved": 0}, {"is_disabled": 0, "fusion_lon": 0.0, "fusion_lat": 0.0, "lat": 38.879936666666666, "type": "electric_scooter", "lon": -76.98542816666667, "bike_id": "dc9894509dc658a858d2bdc2070ae2f4", "rental_uris": {"android": "https://dc.lft.to/lastmile_qr_scan", "ios": "https://dc.lft.to/lastmile_qr_scan"}, "name": "dc9894509dc658a858d2bdc2070ae2f4", "is_reserved": 0}, {"is_disabled": 0, "fusion_lon": 0.0, "fusion_lat": 0.0, "lat": 38.8859, "type": "electric_scooter", "lon": -77.01749733333334, "bike_id": "e1e87b4b9943501579e667001ca67d87", "rental_uris": {"android": "https://dc.lft.to/lastmile_qr_scan", "ios": "https://dc.lft.to/lastmile_qr_scan"}, "name": "e1e87b4b9943501579e667001ca67d87", "is_reserved": 0}, {"is_disabled": 0, "fusion_lon": 0.0, "fusion_lat": 0.0, "lat": 38.868467833333334, "type": "electric_bike", "lon": -77.09726866666666, "bike_id": "fe5087b0c0a4d764b0ba0d6614c8eb93", "rental_uris": {"android": "https://dc.lft.to/lastmile_qr_scan", "ios": "https://dc.lft.to/lastmile_qr_scan"}, "name": "fe5087b0c0a4d764b0ba0d6614c8eb93", "is_reserved": 0}, {"is_disabled": 0, "fusion_lon": 0.0, "fusion_lat": 0.0, "lat": 39.017322166666666, "type": "electric_bike", "lon": -77.06385283333333, "bike_id": "2fbead17d53a2a568e13b9fad3391f55", "rental_uris": {"android": "https://dc.lft.to/lastmile_qr_scan", "ios": "https://dc.lft.to/lastmile_qr_scan"}, "name": "2fbead17d53a2a568e13b9fad3391f55", "is_reserved": 0}, {"is_disabled": 0, "fusion_lon": 0.0, "fusion_lat": 0.0, "lat": 38.85650733333333, "type": "electric_bike", "lon": -77.0852985, "bike_id": "020dd3bde5bf1f109cf21b3a4442eb06", "rental_uris": {"android": "https://dc.lft.to/lastmile_qr_scan", "ios": "https://dc.lft.to/lastmile_qr_scan"}, "name": "020dd3bde5bf1f109cf21b3a4442eb06", "is_reserved": 0}, {"is_disabled": 0, "fusion_lon": 0.0, "fusion_lat": 0.0, "lat": 38.92585966666667, "type": "electric_scooter", "lon": -77.0321155, "bike_id": "2c23eb126634f233be43a20d9848990c", "rental_uris": {"android": "https://dc.lft.to/lastmile_qr_scan", "ios": "https://dc.lft.to/lastmile_qr_scan"}, "name": "2c23eb126634f233be43a20d9848990c", "is_reserved": 0}, {"is_disabled": 0, "fusion_lon": 0.0, "fusion_lat": 0.0, "lat": 38.84934716666667, "type": "electric_bike", "lon": -77.10013316666667, "bike_id": "b4f1b637d275fc0520531fc044e087b1", "rental_uris": {"android": "https://dc.lft.to/lastmile_qr_scan", "ios": "https://dc.lft.to/lastmile_qr_scan"}, "name": "b4f1b637d275fc0520531fc044e087b1", "is_reserved": 0}, {"is_disabled": 0, "fusion_lon": 0.0, "fusion_lat": 0.0, "lat": 38.91179116666667, "type": "electric_scooter", "lon": -77.04154366666667, "bike_id": "34dd1b02af3ae72a96e90a6551dc7d5b", "rental_uris": {"android": "https://dc.lft.to/lastmile_qr_scan", "ios": "https://dc.lft.to/lastmile_qr_scan"}, "name": "34dd1b02af3ae72a96e90a6551dc7d5b", "is_reserved": 0}, {"is_disabled": 0, "fusion_lon": 0.0, "fusion_lat": 0.0, "lat": 38.886129833333335, "type": "electric_scooter", "lon": -77.0057805, "bike_id": "81318f9c64e9ae5c4a35b64456b1f81e", "rental_uris": {"android": "https://dc.lft.to/lastmile_qr_scan", "ios": "https://dc.lft.to/lastmile_qr_scan"}, "name": "81318f9c64e9ae5c4a35b64456b1f81e", "is_reserved": 0}, {"is_disabled": 0, "fusion_lon": 0.0, "fusion_lat": 0.0, "lat": 38.89670866666667, "type": "electric_scooter", "lon": -77.051337, "bike_id": "294422a3620cc6f7640851cd73307c65", "rental_uris": {"android": "https://dc.lft.to/lastmile_qr_scan", "ios": "https://dc.lft.to/lastmile_qr_scan"}, "name": "294422a3620cc6f7640851cd73307c65", "is_reserved": 0}, {"is_disabled": 0, "fusion_lon": 0.0, "fusion_lat": 0.0, "lat": 38.956359666666664, "type": "electric_scooter", "lon": -77.09100866666667, "bike_id": "be35ce425c5eae38695b72d5a42ff9b7", "rental_uris": {"android": "https://dc.lft.to/lastmile_qr_scan", "ios": "https://dc.lft.to/lastmile_qr_scan"}, "name": "be35ce425c5eae38695b72d5a42ff9b7", "is_reserved": 0}, {"is_disabled": 0, "fusion_lon": 0.0, "fusion_lat": 0.0, "lat": 38.87830433333333, "type": "electric_scooter", "lon": -77.02281583333334, "bike_id": "3364fb0ad11be880f64f9d83c84e2a7c", "rental_uris": {"android": "https://dc.lft.to/lastmile_qr_scan", "ios": "https://dc.lft.to/lastmile_qr_scan"}, "name": "3364fb0ad11be880f64f9d83c84e2a7c", "is_reserved": 0}, {"is_disabled": 0, "fusion_lon": 0.0, "fusion_lat": 0.0, "lat": 38.862472333333336, "type": "electric_scooter", "lon": -76.99531383333333, "bike_id": "e535d5c9d3c48bd1c1f8835e9023063d", "rental_uris": {"android": "https://dc.lft.to/lastmile_qr_scan", "ios": "https://dc.lft.to/lastmile_qr_scan"}, "name": "e535d5c9d3c48bd1c1f8835e9023063d", "is_reserved": 0}, {"is_disabled": 0, "fusion_lon": 0.0, "fusion_lat": 0.0, "lat": 38.89455616666667, "type": "electric_scooter", "lon": -76.94823533333333, "bike_id": "b071ee7b09b3344ba27c7b7bd8bf400e", "rental_uris": {"android": "https://dc.lft.to/lastmile_qr_scan", "ios": "https://dc.lft.to/lastmile_qr_scan"}, "name": "b071ee7b09b3344ba27c7b7bd8bf400e", "is_reserved": 0}, {"is_disabled": 0, "fusion_lon": 0.0, "fusion_lat": 0.0, "lat": 38.84431333333333, "type": "electric_scooter", "lon": -76.997835, "bike_id": "044ef2075272cc71071d700eb369d2c2", "rental_uris": {"android": "https://dc.lft.to/lastmile_qr_scan", "ios": "https://dc.lft.to/lastmile_qr_scan"}, "name": "044ef2075272cc71071d700eb369d2c2", "is_reserved": 0}, {"is_disabled": 0, "fusion_lon": 0.0, "fusion_lat": 0.0, "lat": 38.89913383333333, "type": "electric_scooter", "lon": -77.04048283333333, "bike_id": "4bec80de23cd2e558772676ae6e0fc47", "rental_uris": {"android": "https://dc.lft.to/lastmile_qr_scan", "ios": "https://dc.lft.to/lastmile_qr_scan"}, "name": "4bec80de23cd2e558772676ae6e0fc47", "is_reserved": 0}, {"is_disabled": 0, "fusion_lon": 0.0, "fusion_lat": 0.0, "lat": 38.9168825, "type": "electric_scooter", "lon": -77.03680983333334, "bike_id": "31a3bd4780640d96f558ba9008ea9933", "rental_uris": {"android": "https://dc.lft.to/lastmile_qr_scan", "ios": "https://dc.lft.to/lastmile_qr_scan"}, "name": "31a3bd4780640d96f558ba9008ea9933", "is_reserved": 0}, {"is_disabled": 0, "fusion_lon": 0.0, "fusion_lat": 0.0, "lat": 38.86607733333334, "type": "electric_scooter", "lon": -77.010733, "bike_id": "5437ad5cd8900e48e01a2ce36f989557", "rental_uris": {"android": "https://dc.lft.to/lastmile_qr_scan", "ios": "https://dc.lft.to/lastmile_qr_scan"}, "name": "5437ad5cd8900e48e01a2ce36f989557", "is_reserved": 0}, {"is_disabled": 0, "fusion_lon": 0.0, "fusion_lat": 0.0, "lat": 39.058131333333336, "type": "electric_bike", "lon": -77.12626616666667, "bike_id": "00fa591fb3f1717eb1a2db392a5b60e8", "rental_uris": {"android": "https://dc.lft.to/lastmile_qr_scan", "ios": "https://dc.lft.to/lastmile_qr_scan"}, "name": "00fa591fb3f1717eb1a2db392a5b60e8", "is_reserved": 0}, {"is_disabled": 0, "fusion_lon": 0.0, "fusion_lat": 0.0, "lat": 38.917694166666664, "type": "electric_scooter", "lon": -77.015001, "bike_id": "1ecb11d6512ae0332b0cf069ac3b1b39", "rental_uris": {"android": "https://dc.lft.to/lastmile_qr_scan", "ios": "https://dc.lft.to/lastmile_qr_scan"}, "name": "1ecb11d6512ae0332b0cf069ac3b1b39", "is_reserved": 0}, {"is_disabled": 0, "fusion_lon": 0.0, "fusion_lat": 0.0, "lat": 38.89356433333333, "type": "electric_scooter", "lon": -77.003388, "bike_id": "565e278a0ba8c4ec320ec443b0efcd28", "rental_uris": {"android": "https://dc.lft.to/lastmile_qr_scan", "ios": "https://dc.lft.to/lastmile_qr_scan"}, "name": "565e278a0ba8c4ec320ec443b0efcd28", "is_reserved": 0}, {"is_disabled": 0, "fusion_lon": 0.0, "fusion_lat": 0.0, "lat": 38.89218966666667, "type": "electric_scooter", "lon": -77.031864, "bike_id": "2331d7b969c86fc8266e572353b7c6c2", "rental_uris": {"android": "https://dc.lft.to/lastmile_qr_scan", "ios": "https://dc.lft.to/lastmile_qr_scan"}, "name": "2331d7b969c86fc8266e572353b7c6c2", "is_reserved": 0}, {"is_disabled": 0, "fusion_lon": 0.0, "fusion_lat": 0.0, "lat": 38.928099333333336, "type": "electric_scooter", "lon": -77.0234715, "bike_id": "a3d885ab8683acc347263c487cbb9cb6", "rental_uris": {"android": "https://dc.lft.to/lastmile_qr_scan", "ios": "https://dc.lft.to/lastmile_qr_scan"}, "name": "a3d885ab8683acc347263c487cbb9cb6", "is_reserved": 0}, {"is_disabled": 0, "fusion_lon": 0.0, "fusion_lat": 0.0, "lat": 38.90572933333333, "type": "electric_scooter", "lon": -77.0346585, "bike_id": "068d10c42b4a696b9fdf20ad006b7998", "rental_uris": {"android": "https://dc.lft.to/lastmile_qr_scan", "ios": "https://dc.lft.to/lastmile_qr_scan"}, "name": "068d10c42b4a696b9fdf20ad006b7998", "is_reserved": 0}, {"is_disabled": 0, "fusion_lon": 0.0, "fusion_lat": 0.0, "lat": 38.898399833333336, "type": "electric_scooter", "lon": -77.02915833333333, "bike_id": "4f904fffd18a2f3a2144a899f7a5f270", "rental_uris": {"android": "https://dc.lft.to/lastmile_qr_scan", "ios": "https://dc.lft.to/lastmile_qr_scan"}, "name": "4f904fffd18a2f3a2144a899f7a5f270", "is_reserved": 0}, {"is_disabled": 0, "fusion_lon": 0.0, "fusion_lat": 0.0, "lat": 38.9296825, "type": "electric_scooter", "lon": -77.00537383333334, "bike_id": "c1b8873b466fb68de5b746a80d5c079c", "rental_uris": {"android": "https://dc.lft.to/lastmile_qr_scan", "ios": "https://dc.lft.to/lastmile_qr_scan"}, "name": "c1b8873b466fb68de5b746a80d5c079c", "is_reserved": 0}, {"is_disabled": 0, "fusion_lon": 0.0, "fusion_lat": 0.0, "lat": 38.901245333333335, "type": "electric_scooter", "lon": -77.02786633333334, "bike_id": "a9213bfda33f95a545a1b93e7fa0d407", "rental_uris": {"android": "https://dc.lft.to/lastmile_qr_scan", "ios": "https://dc.lft.to/lastmile_qr_scan"}, "name": "a9213bfda33f95a545a1b93e7fa0d407", "is_reserved": 0}, {"is_disabled": 0, "fusion_lon": 0.0, "fusion_lat": 0.0, "lat": 38.905313666666665, "type": "electric_scooter", "lon": -77.0534585, "bike_id": "d5f2b1758e2b69f9114effaf378333e9", "rental_uris": {"android": "https://dc.lft.to/lastmile_qr_scan", "ios": "https://dc.lft.to/lastmile_qr_scan"}, "name": "d5f2b1758e2b69f9114effaf378333e9", "is_reserved": 0}, {"is_disabled": 0, "fusion_lon": 0.0, "fusion_lat": 0.0, "lat": 38.895192, "type": "electric_scooter", "lon": -77.02208566666667, "bike_id": "1569b1a0e34e38f778e33c07d75592f7", "rental_uris": {"android": "https://dc.lft.to/lastmile_qr_scan", "ios": "https://dc.lft.to/lastmile_qr_scan"}, "name": "1569b1a0e34e38f778e33c07d75592f7", "is_reserved": 0}, {"is_disabled": 0, "fusion_lon": 0.0, "fusion_lat": 0.0, "lat": 38.89454116666667, "type": "electric_scooter", "lon": -77.0225105, "bike_id": "3cb42bc06c9d90cde28f4f83ba2c58f3", "rental_uris": {"android": "https://dc.lft.to/lastmile_qr_scan", "ios": "https://dc.lft.to/lastmile_qr_scan"}, "name": "3cb42bc06c9d90cde28f4f83ba2c58f3", "is_reserved": 0}, {"is_disabled": 0, "fusion_lon": 0.0, "fusion_lat": 0.0, "lat": 38.952661666666664, "type": "electric_bike", "lon": -77.06981216666667, "bike_id": "d8b707e5bcc3ba2dc93c0057d7e7add1", "rental_uris": {"android": "https://dc.lft.to/lastmile_qr_scan", "ios": "https://dc.lft.to/lastmile_qr_scan"}, "name": "d8b707e5bcc3ba2dc93c0057d7e7add1", "is_reserved": 0}, {"is_disabled": 0, "fusion_lon": 0.0, "fusion_lat": 0.0, "lat": 38.84615316666667, "type": "electric_scooter", "lon": -76.99632633333333, "bike_id": "0727a47b0057f29f05249fa088dfc5c0", "rental_uris": {"android": "https://dc.lft.to/lastmile_qr_scan", "ios": "https://dc.lft.to/lastmile_qr_scan"}, "name": "0727a47b0057f29f05249fa088dfc5c0", "is_reserved": 0}, {"is_disabled": 0, "fusion_lon": 0.0, "fusion_lat": 0.0, "lat": 38.918340666666666, "type": "electric_scooter", "lon": -77.03215483333334, "bike_id": "1d83a5ad66feb1a52147796828b917d6", "rental_uris": {"android": "https://dc.lft.to/lastmile_qr_scan", "ios": "https://dc.lft.to/lastmile_qr_scan"}, "name": "1d83a5ad66feb1a52147796828b917d6", "is_reserved": 0}, {"is_disabled": 0, "fusion_lon": 0.0, "fusion_lat": 0.0, "lat": 38.9095245, "type": "electric_scooter", "lon": -77.02383033333334, "bike_id": "0e9215a210d9f48a98a681d22cd17898", "rental_uris": {"android": "https://dc.lft.to/lastmile_qr_scan", "ios": "https://dc.lft.to/lastmile_qr_scan"}, "name": "0e9215a210d9f48a98a681d22cd17898", "is_reserved": 0}, {"is_disabled": 0, "fusion_lon": 0.0, "fusion_lat": 0.0, "lat": 38.899377666666666, "type": "electric_scooter", "lon": -77.01496866666666, "bike_id": "92e4c48f0df68e5a3a3b8d25fae360bb", "rental_uris": {"android": "https://dc.lft.to/lastmile_qr_scan", "ios": "https://dc.lft.to/lastmile_qr_scan"}, "name": "92e4c48f0df68e5a3a3b8d25fae360bb", "is_reserved": 0}, {"is_disabled": 0, "fusion_lon": 0.0, "fusion_lat": 0.0, "lat": 38.9122315, "type": "electric_scooter", "lon": -77.031769, "bike_id": "9fe1356b210fbbdd8fd3a29c9496d930", "rental_uris": {"android": "https://dc.lft.to/lastmile_qr_scan", "ios": "https://dc.lft.to/lastmile_qr_scan"}, "name": "9fe1356b210fbbdd8fd3a29c9496d930", "is_reserved": 0}, {"is_disabled": 0, "fusion_lon": 0.0, "fusion_lat": 0.0, "lat": 38.88656116666667, "type": "electric_bike", "lon": -77.16230433333334, "bike_id": "92a220edb171807f0a38f98d26504a17", "rental_uris": {"android": "https://dc.lft.to/lastmile_qr_scan", "ios": "https://dc.lft.to/lastmile_qr_scan"}, "name": "92a220edb171807f0a38f98d26504a17", "is_reserved": 0}, {"is_disabled": 0, "fusion_lon": 0.0, "fusion_lat": 0.0, "lat": 38.8924325, "type": "electric_scooter", "lon": -77.04660216666667, "bike_id": "8c75bf5a980f56d80c125223591328db", "rental_uris": {"android": "https://dc.lft.to/lastmile_qr_scan", "ios": "https://dc.lft.to/lastmile_qr_scan"}, "name": "8c75bf5a980f56d80c125223591328db", "is_reserved": 0}, {"is_disabled": 0, "fusion_lon": 0.0, "fusion_lat": 0.0, "lat": 38.949817, "type": "electric_scooter", "lon": -77.02702366666666, "bike_id": "dce8f062e4cbdf1b25194fe348a4fa1a", "rental_uris": {"android": "https://dc.lft.to/lastmile_qr_scan", "ios": "https://dc.lft.to/lastmile_qr_scan"}, "name": "dce8f062e4cbdf1b25194fe348a4fa1a", "is_reserved": 0}, {"is_disabled": 0, "fusion_lon": 0.0, "fusion_lat": 0.0, "lat": 38.95310283333333, "type": "electric_scooter", "lon": -77.0359915, "bike_id": "d22756a52943ce6cb68419438cf6f841", "rental_uris": {"android": "https://dc.lft.to/lastmile_qr_scan", "ios": "https://dc.lft.to/lastmile_qr_scan"}, "name": "d22756a52943ce6cb68419438cf6f841", "is_reserved": 0}, {"is_disabled": 0, "fusion_lon": 0.0, "fusion_lat": 0.0, "lat": 38.98729516666667, "type": "electric_bike", "lon": -77.0271865, "bike_id": "516a7d28bb25d0ba6ce8fc0fbf03827f", "rental_uris": {"android": "https://dc.lft.to/lastmile_qr_scan", "ios": "https://dc.lft.to/lastmile_qr_scan"}, "name": "516a7d28bb25d0ba6ce8fc0fbf03827f", "is_reserved": 0}, {"is_disabled": 0, "fusion_lon": 0.0, "fusion_lat": 0.0, "lat": 38.89791066666667, "type": "electric_scooter", "lon": -76.93048616666667, "bike_id": "adb35993d1d074f395441a32cdd39d2f", "rental_uris": {"android": "https://dc.lft.to/lastmile_qr_scan", "ios": "https://dc.lft.to/lastmile_qr_scan"}, "name": "adb35993d1d074f395441a32cdd39d2f", "is_reserved": 0}, {"is_disabled": 0, "fusion_lon": 0.0, "fusion_lat": 0.0, "lat": 38.91694183333333, "type": "electric_scooter", "lon": -77.0408155, "bike_id": "0f628cf91987f83436f0c2160fbe5056", "rental_uris": {"android": "https://dc.lft.to/lastmile_qr_scan", "ios": "https://dc.lft.to/lastmile_qr_scan"}, "name": "0f628cf91987f83436f0c2160fbe5056", "is_reserved": 0}, {"is_disabled": 0, "fusion_lon": 0.0, "fusion_lat": 0.0, "lat": 38.898480166666666, "type": "electric_scooter", "lon": -76.99035083333334, "bike_id": "cc8b8ff9cf8c98aa10d32b68517d83bd", "rental_uris": {"android": "https://dc.lft.to/lastmile_qr_scan", "ios": "https://dc.lft.to/lastmile_qr_scan"}, "name": "cc8b8ff9cf8c98aa10d32b68517d83bd", "is_reserved": 0}, {"is_disabled": 0, "fusion_lon": 0.0, "fusion_lat": 0.0, "lat": 38.92795383333333, "type": "electric_scooter", "lon": -77.027426, "bike_id": "8589baec642f8b4c0182a9c0f8a6ff67", "rental_uris": {"android": "https://dc.lft.to/lastmile_qr_scan", "ios": "https://dc.lft.to/lastmile_qr_scan"}, "name": "8589baec642f8b4c0182a9c0f8a6ff67", "is_reserved": 0}, {"is_disabled": 0, "fusion_lon": 0.0, "fusion_lat": 0.0, "lat": 38.9278795, "type": "electric_scooter", "lon": -77.02738633333334, "bike_id": "947606ab509092acbb43a0bda1fddebd", "rental_uris": {"android": "https://dc.lft.to/lastmile_qr_scan", "ios": "https://dc.lft.to/lastmile_qr_scan"}, "name": "947606ab509092acbb43a0bda1fddebd", "is_reserved": 0}, {"is_disabled": 0, "fusion_lon": 0.0, "fusion_lat": 0.0, "lat": 38.90235233333333, "type": "electric_scooter", "lon": -77.01737233333333, "bike_id": "716085d24f74f2530470d0f1ea61feaa", "rental_uris": {"android": "https://dc.lft.to/lastmile_qr_scan", "ios": "https://dc.lft.to/lastmile_qr_scan"}, "name": "716085d24f74f2530470d0f1ea61feaa", "is_reserved": 0}, {"is_disabled": 0, "fusion_lon": 0.0, "fusion_lat": 0.0, "lat": 38.874546, "type": "electric_scooter", "lon": -77.00507483333334, "bike_id": "f6f5455c14bb9ae12895fef3488f3a47", "rental_uris": {"android": "https://dc.lft.to/lastmile_qr_scan", "ios": "https://dc.lft.to/lastmile_qr_scan"}, "name": "f6f5455c14bb9ae12895fef3488f3a47", "is_reserved": 0}, {"is_disabled": 0, "fusion_lon": 0.0, "fusion_lat": 0.0, "lat": 38.9138055, "type": "electric_scooter", "lon": -77.017033, "bike_id": "69b07fd3d70020264f2eb63028a91ee7", "rental_uris": {"android": "https://dc.lft.to/lastmile_qr_scan", "ios": "https://dc.lft.to/lastmile_qr_scan"}, "name": "69b07fd3d70020264f2eb63028a91ee7", "is_reserved": 0}, {"is_disabled": 0, "fusion_lon": 0.0, "fusion_lat": 0.0, "lat": 38.90390683333333, "type": "electric_scooter", "lon": -77.0279995, "bike_id": "50ddabf24c760d1d4af94ae79b8c184b", "rental_uris": {"android": "https://dc.lft.to/lastmile_qr_scan", "ios": "https://dc.lft.to/lastmile_qr_scan"}, "name": "50ddabf24c760d1d4af94ae79b8c184b", "is_reserved": 0}, {"is_disabled": 0, "fusion_lon": 0.0, "fusion_lat": 0.0, "lat": 38.9451655, "type": "electric_bike", "lon": -77.0067525, "bike_id": "92012d190a302bd26b14e47341f9ffe2", "rental_uris": {"android": "https://dc.lft.to/lastmile_qr_scan", "ios": "https://dc.lft.to/lastmile_qr_scan"}, "name": "92012d190a302bd26b14e47341f9ffe2", "is_reserved": 0}, {"is_disabled": 0, "fusion_lon": 0.0, "fusion_lat": 0.0, "lat": 38.91805266666667, "type": "electric_scooter", "lon": -77.0268795, "bike_id": "d3d6a99bd63597b642b5a171b5051b74", "rental_uris": {"android": "https://dc.lft.to/lastmile_qr_scan", "ios": "https://dc.lft.to/lastmile_qr_scan"}, "name": "d3d6a99bd63597b642b5a171b5051b74", "is_reserved": 0}, {"is_disabled": 0, "fusion_lon": 0.0, "fusion_lat": 0.0, "lat": 38.900172, "type": "electric_scooter", "lon": -77.0332645, "bike_id": "8d133443cb992cd7b5856482dde76e50", "rental_uris": {"android": "https://dc.lft.to/lastmile_qr_scan", "ios": "https://dc.lft.to/lastmile_qr_scan"}, "name": "8d133443cb992cd7b5856482dde76e50", "is_reserved": 0}, {"is_disabled": 0, "fusion_lon": 0.0, "fusion_lat": 0.0, "lat": 38.9161145, "type": "electric_scooter", "lon": -77.02482233333333, "bike_id": "a13b09b3b546a9259797b0d20ab5aa93", "rental_uris": {"android": "https://dc.lft.to/lastmile_qr_scan", "ios": "https://dc.lft.to/lastmile_qr_scan"}, "name": "a13b09b3b546a9259797b0d20ab5aa93", "is_reserved": 0}, {"is_disabled": 0, "fusion_lon": 0.0, "fusion_lat": 0.0, "lat": 38.92013883333333, "type": "electric_scooter", "lon": -77.03207966666666, "bike_id": "4ccd69275209533c2cec44d063300728", "rental_uris": {"android": "https://dc.lft.to/lastmile_qr_scan", "ios": "https://dc.lft.to/lastmile_qr_scan"}, "name": "4ccd69275209533c2cec44d063300728", "is_reserved": 0}, {"is_disabled": 0, "fusion_lon": 0.0, "fusion_lat": 0.0, "lat": 38.952004333333335, "type": "electric_bike", "lon": -77.0237185, "bike_id": "8ba9b8cfc6e2a7af4b4ad4148feb48f5", "rental_uris": {"android": "https://dc.lft.to/lastmile_qr_scan", "ios": "https://dc.lft.to/lastmile_qr_scan"}, "name": "8ba9b8cfc6e2a7af4b4ad4148feb48f5", "is_reserved": 0}, {"is_disabled": 0, "fusion_lon": 0.0, "fusion_lat": 0.0, "lat": 38.9198195, "type": "electric_scooter", "lon": -77.03806833333333, "bike_id": "dd6b7da26b64d80d69ac3d1f253ccb1a", "rental_uris": {"android": "https://dc.lft.to/lastmile_qr_scan", "ios": "https://dc.lft.to/lastmile_qr_scan"}, "name": "dd6b7da26b64d80d69ac3d1f253ccb1a", "is_reserved": 0}, {"is_disabled": 0, "fusion_lon": 0.0, "fusion_lat": 0.0, "lat": 38.92491733333333, "type": "electric_scooter", "lon": -77.0392855, "bike_id": "dce8d6aa7ae3f55ddfea2cfd7022e676", "rental_uris": {"android": "https://dc.lft.to/lastmile_qr_scan", "ios": "https://dc.lft.to/lastmile_qr_scan"}, "name": "dce8d6aa7ae3f55ddfea2cfd7022e676", "is_reserved": 0}, {"is_disabled": 0, "fusion_lon": 0.0, "fusion_lat": 0.0, "lat": 38.90587216666667, "type": "electric_scooter", "lon": -77.023992, "bike_id": "7cc4f6f3887ed7f10ed63834c44fed5e", "rental_uris": {"android": "https://dc.lft.to/lastmile_qr_scan", "ios": "https://dc.lft.to/lastmile_qr_scan"}, "name": "7cc4f6f3887ed7f10ed63834c44fed5e", "is_reserved": 0}, {"is_disabled": 0, "fusion_lon": 0.0, "fusion_lat": 0.0, "lat": 38.956308666666665, "type": "electric_scooter", "lon": -77.02979833333333, "bike_id": "fb1b656406456bac55fd6845d09bce01", "rental_uris": {"android": "https://dc.lft.to/lastmile_qr_scan", "ios": "https://dc.lft.to/lastmile_qr_scan"}, "name": "fb1b656406456bac55fd6845d09bce01", "is_reserved": 0}, {"is_disabled": 0, "fusion_lon": 0.0, "fusion_lat": 0.0, "lat": 38.9027545, "type": "electric_scooter", "lon": -77.038544, "bike_id": "3e5da0a96c0609bcbf6524c09043edff", "rental_uris": {"android": "https://dc.lft.to/lastmile_qr_scan", "ios": "https://dc.lft.to/lastmile_qr_scan"}, "name": "3e5da0a96c0609bcbf6524c09043edff", "is_reserved": 0}, {"is_disabled": 0, "fusion_lon": 0.0, "fusion_lat": 0.0, "lat": 38.902287666666666, "type": "electric_scooter", "lon": -77.04664083333333, "bike_id": "45391bcd1307e988c93916851ec18736", "rental_uris": {"android": "https://dc.lft.to/lastmile_qr_scan", "ios": "https://dc.lft.to/lastmile_qr_scan"}, "name": "45391bcd1307e988c93916851ec18736", "is_reserved": 0}, {"is_disabled": 0, "fusion_lon": 0.0, "fusion_lat": 0.0, "lat": 38.910867, "type": "electric_bike", "lon": -76.98484683333334, "bike_id": "b499b5c15c74a0e6bfb4115fdfc84d72", "rental_uris": {"android": "https://dc.lft.to/lastmile_qr_scan", "ios": "https://dc.lft.to/lastmile_qr_scan"}, "name": "b499b5c15c74a0e6bfb4115fdfc84d72", "is_reserved": 0}, {"is_disabled": 0, "fusion_lon": 0.0, "fusion_lat": 0.0, "lat": 38.907180833333335, "type": "electric_scooter", "lon": -77.03959333333333, "bike_id": "74e25b5c6ef4f5ca70b7faed6f5903f2", "rental_uris": {"android": "https://dc.lft.to/lastmile_qr_scan", "ios": "https://dc.lft.to/lastmile_qr_scan"}, "name": "74e25b5c6ef4f5ca70b7faed6f5903f2", "is_reserved": 0}, {"is_disabled": 0, "fusion_lon": 0.0, "fusion_lat": 0.0, "lat": 38.85064366666667, "type": "electric_bike", "lon": -76.97329733333333, "bike_id": "f6902b724be3ced0cbd84fbfaa742adf", "rental_uris": {"android": "https://dc.lft.to/lastmile_qr_scan", "ios": "https://dc.lft.to/lastmile_qr_scan"}, "name": "f6902b724be3ced0cbd84fbfaa742adf", "is_reserved": 0}, {"is_disabled": 0, "fusion_lon": 0.0, "fusion_lat": 0.0, "lat": 38.88118216666667, "type": "electric_scooter", "lon": -76.99598566666667, "bike_id": "ca86ee79395508ff0b640550f9cce289", "rental_uris": {"android": "https://dc.lft.to/lastmile_qr_scan", "ios": "https://dc.lft.to/lastmile_qr_scan"}, "name": "ca86ee79395508ff0b640550f9cce289", "is_reserved": 0}, {"is_disabled": 0, "fusion_lon": 0.0, "fusion_lat": 0.0, "lat": 38.8960115, "type": "electric_scooter", "lon": -77.01119916666667, "bike_id": "661d68fa3950461b2bc91233ecc2c0dc", "rental_uris": {"android": "https://dc.lft.to/lastmile_qr_scan", "ios": "https://dc.lft.to/lastmile_qr_scan"}, "name": "661d68fa3950461b2bc91233ecc2c0dc", "is_reserved": 0}, {"is_disabled": 0, "fusion_lon": 0.0, "fusion_lat": 0.0, "lat": 38.936858666666666, "type": "electric_scooter", "lon": -77.03277016666667, "bike_id": "9b8c6c0fafea246dce83da91a654d502", "rental_uris": {"android": "https://dc.lft.to/lastmile_qr_scan", "ios": "https://dc.lft.to/lastmile_qr_scan"}, "name": "9b8c6c0fafea246dce83da91a654d502", "is_reserved": 0}, {"is_disabled": 0, "fusion_lon": 0.0, "fusion_lat": 0.0, "lat": 38.880750166666665, "type": "electric_scooter", "lon": -77.00644066666666, "bike_id": "cdf27e1d3d1eca1d861046c753d5d04e", "rental_uris": {"android": "https://dc.lft.to/lastmile_qr_scan", "ios": "https://dc.lft.to/lastmile_qr_scan"}, "name": "cdf27e1d3d1eca1d861046c753d5d04e", "is_reserved": 0}, {"is_disabled": 0, "fusion_lon": 0.0, "fusion_lat": 0.0, "lat": 38.93490383333334, "type": "electric_scooter", "lon": -77.0272545, "bike_id": "1998b3488b5bfa0714c6a1946a6621d7", "rental_uris": {"android": "https://dc.lft.to/lastmile_qr_scan", "ios": "https://dc.lft.to/lastmile_qr_scan"}, "name": "1998b3488b5bfa0714c6a1946a6621d7", "is_reserved": 0}, {"is_disabled": 0, "fusion_lon": 0.0, "fusion_lat": 0.0, "lat": 38.90061216666667, "type": "electric_scooter", "lon": -77.04888616666666, "bike_id": "6aadb76bdf12a167760c6c7fcc389dd3", "rental_uris": {"android": "https://dc.lft.to/lastmile_qr_scan", "ios": "https://dc.lft.to/lastmile_qr_scan"}, "name": "6aadb76bdf12a167760c6c7fcc389dd3", "is_reserved": 0}, {"is_disabled": 0, "fusion_lon": 0.0, "fusion_lat": 0.0, "lat": 38.91596216666667, "type": "electric_scooter", "lon": -77.02351266666666, "bike_id": "c9c39b19e301e65003db76180303497f", "rental_uris": {"android": "https://dc.lft.to/lastmile_qr_scan", "ios": "https://dc.lft.to/lastmile_qr_scan"}, "name": "c9c39b19e301e65003db76180303497f", "is_reserved": 0}, {"is_disabled": 0, "fusion_lon": 0.0, "fusion_lat": 0.0, "lat": 38.920544166666666, "type": "electric_scooter", "lon": -76.99883716666666, "bike_id": "6883d4830d1d2a98c0f807611a26206d", "rental_uris": {"android": "https://dc.lft.to/lastmile_qr_scan", "ios": "https://dc.lft.to/lastmile_qr_scan"}, "name": "6883d4830d1d2a98c0f807611a26206d", "is_reserved": 0}, {"is_disabled": 0, "fusion_lon": 0.0, "fusion_lat": 0.0, "lat": 38.89523416666667, "type": "electric_scooter", "lon": -76.94892333333334, "bike_id": "fa9c7dad44669b148fff4336534d7da5", "rental_uris": {"android": "https://dc.lft.to/lastmile_qr_scan", "ios": "https://dc.lft.to/lastmile_qr_scan"}, "name": "fa9c7dad44669b148fff4336534d7da5", "is_reserved": 0}, {"is_disabled": 0, "fusion_lon": 0.0, "fusion_lat": 0.0, "lat": 38.932486, "type": "electric_scooter", "lon": -77.02983666666667, "bike_id": "a3b29a26c81894980eaca5a7dc2ff886", "rental_uris": {"android": "https://dc.lft.to/lastmile_qr_scan", "ios": "https://dc.lft.to/lastmile_qr_scan"}, "name": "a3b29a26c81894980eaca5a7dc2ff886", "is_reserved": 0}, {"is_disabled": 0, "fusion_lon": 0.0, "fusion_lat": 0.0, "lat": 38.9157785, "type": "electric_scooter", "lon": -77.0199865, "bike_id": "5a671fd64b8742e9d5ab71b995bd6871", "rental_uris": {"android": "https://dc.lft.to/lastmile_qr_scan", "ios": "https://dc.lft.to/lastmile_qr_scan"}, "name": "5a671fd64b8742e9d5ab71b995bd6871", "is_reserved": 0}, {"is_disabled": 0, "fusion_lon": 0.0, "fusion_lat": 0.0, "lat": 38.9103925, "type": "electric_scooter", "lon": -77.03620933333333, "bike_id": "b9b60450a27f7f3075863b9962da7574", "rental_uris": {"android": "https://dc.lft.to/lastmile_qr_scan", "ios": "https://dc.lft.to/lastmile_qr_scan"}, "name": "b9b60450a27f7f3075863b9962da7574", "is_reserved": 0}, {"is_disabled": 0, "fusion_lon": 0.0, "fusion_lat": 0.0, "lat": 38.9032975, "type": "electric_bike", "lon": -76.975281, "bike_id": "70be596217e2a3ad52f01c4a0c420f97", "rental_uris": {"android": "https://dc.lft.to/lastmile_qr_scan", "ios": "https://dc.lft.to/lastmile_qr_scan"}, "name": "70be596217e2a3ad52f01c4a0c420f97", "is_reserved": 0}, {"is_disabled": 0, "fusion_lon": 0.0, "fusion_lat": 0.0, "lat": 38.885827666666664, "type": "electric_scooter", "lon": -77.0122485, "bike_id": "47d56ab450c262a5c9e0bcf7e904a625", "rental_uris": {"android": "https://dc.lft.to/lastmile_qr_scan", "ios": "https://dc.lft.to/lastmile_qr_scan"}, "name": "47d56ab450c262a5c9e0bcf7e904a625", "is_reserved": 0}, {"is_disabled": 0, "fusion_lon": 0.0, "fusion_lat": 0.0, "lat": 38.913523, "type": "electric_scooter", "lon": -77.04165666666667, "bike_id": "5f3e6f09a7d443e3b84e233ef52ac327", "rental_uris": {"android": "https://dc.lft.to/lastmile_qr_scan", "ios": "https://dc.lft.to/lastmile_qr_scan"}, "name": "5f3e6f09a7d443e3b84e233ef52ac327", "is_reserved": 0}, {"is_disabled": 0, "fusion_lon": 0.0, "fusion_lat": 0.0, "lat": 38.89349983333334, "type": "electric_scooter", "lon": -77.03994566666667, "bike_id": "bd83c1542c64c6de972821903084eb59", "rental_uris": {"android": "https://dc.lft.to/lastmile_qr_scan", "ios": "https://dc.lft.to/lastmile_qr_scan"}, "name": "bd83c1542c64c6de972821903084eb59", "is_reserved": 0}, {"is_disabled": 0, "fusion_lon": 0.0, "fusion_lat": 0.0, "lat": 38.91654583333333, "type": "electric_scooter", "lon": -77.04652216666666, "bike_id": "402b8311ea53082ee3880860d3977cf9", "rental_uris": {"android": "https://dc.lft.to/lastmile_qr_scan", "ios": "https://dc.lft.to/lastmile_qr_scan"}, "name": "402b8311ea53082ee3880860d3977cf9", "is_reserved": 0}, {"is_disabled": 0, "fusion_lon": 0.0, "fusion_lat": 0.0, "lat": 38.905583166666666, "type": "electric_scooter", "lon": -77.00611, "bike_id": "c99eb5880d2c138f0ab2c06e313691ca", "rental_uris": {"android": "https://dc.lft.to/lastmile_qr_scan", "ios": "https://dc.lft.to/lastmile_qr_scan"}, "name": "c99eb5880d2c138f0ab2c06e313691ca", "is_reserved": 0}, {"is_disabled": 0, "fusion_lon": 0.0, "fusion_lat": 0.0, "lat": 38.88198783333333, "type": "electric_scooter", "lon": -77.01749433333333, "bike_id": "d80c37ebf401990797981fa039f08a12", "rental_uris": {"android": "https://dc.lft.to/lastmile_qr_scan", "ios": "https://dc.lft.to/lastmile_qr_scan"}, "name": "d80c37ebf401990797981fa039f08a12", "is_reserved": 0}, {"is_disabled": 0, "fusion_lon": 0.0, "fusion_lat": 0.0, "lat": 38.902419333333334, "type": "electric_scooter", "lon": -77.0173605, "bike_id": "86ddbd8964a37f6f37d2115c6e3f9685", "rental_uris": {"android": "https://dc.lft.to/lastmile_qr_scan", "ios": "https://dc.lft.to/lastmile_qr_scan"}, "name": "86ddbd8964a37f6f37d2115c6e3f9685", "is_reserved": 0}, {"is_disabled": 0, "fusion_lon": 0.0, "fusion_lat": 0.0, "lat": 38.88735166666667, "type": "electric_scooter", "lon": -77.0153305, "bike_id": "c7d44c9452730a4c107c7f9549432f4c", "rental_uris": {"android": "https://dc.lft.to/lastmile_qr_scan", "ios": "https://dc.lft.to/lastmile_qr_scan"}, "name": "c7d44c9452730a4c107c7f9549432f4c", "is_reserved": 0}, {"is_disabled": 0, "fusion_lon": 0.0, "fusion_lat": 0.0, "lat": 39.05201783333333, "type": "electric_bike", "lon": -77.04408966666666, "bike_id": "764d12c2e1f4023e3d14fa8b3815f244", "rental_uris": {"android": "https://dc.lft.to/lastmile_qr_scan", "ios": "https://dc.lft.to/lastmile_qr_scan"}, "name": "764d12c2e1f4023e3d14fa8b3815f244", "is_reserved": 0}, {"is_disabled": 0, "fusion_lon": 0.0, "fusion_lat": 0.0, "lat": 38.9131165, "type": "electric_scooter", "lon": -77.020259, "bike_id": "5a8c227ab6d705610f20ba9227494172", "rental_uris": {"android": "https://dc.lft.to/lastmile_qr_scan", "ios": "https://dc.lft.to/lastmile_qr_scan"}, "name": "5a8c227ab6d705610f20ba9227494172", "is_reserved": 0}, {"is_disabled": 0, "fusion_lon": 0.0, "fusion_lat": 0.0, "lat": 38.9025475, "type": "electric_scooter", "lon": -77.03840083333333, "bike_id": "f3c42f274e8a19c50a31f3833794e98c", "rental_uris": {"android": "https://dc.lft.to/lastmile_qr_scan", "ios": "https://dc.lft.to/lastmile_qr_scan"}, "name": "f3c42f274e8a19c50a31f3833794e98c", "is_reserved": 0}, {"is_disabled": 0, "fusion_lon": 0.0, "fusion_lat": 0.0, "lat": 38.909893333333336, "type": "electric_scooter", "lon": -77.00917916666667, "bike_id": "311c05d32a012f43d8f6a616623e35c8", "rental_uris": {"android": "https://dc.lft.to/lastmile_qr_scan", "ios": "https://dc.lft.to/lastmile_qr_scan"}, "name": "311c05d32a012f43d8f6a616623e35c8", "is_reserved": 0}, {"is_disabled": 0, "fusion_lon": 0.0, "fusion_lat": 0.0, "lat": 38.88500633333334, "type": "electric_scooter", "lon": -77.00564633333333, "bike_id": "8d30f7bca4759a3f74fb24eec0c63259", "rental_uris": {"android": "https://dc.lft.to/lastmile_qr_scan", "ios": "https://dc.lft.to/lastmile_qr_scan"}, "name": "8d30f7bca4759a3f74fb24eec0c63259", "is_reserved": 0}, {"is_disabled": 0, "fusion_lon": 0.0, "fusion_lat": 0.0, "lat": 38.91910216666667, "type": "electric_scooter", "lon": -77.04174183333333, "bike_id": "8bcaffe1868c52bdad16dcda19e80d2a", "rental_uris": {"android": "https://dc.lft.to/lastmile_qr_scan", "ios": "https://dc.lft.to/lastmile_qr_scan"}, "name": "8bcaffe1868c52bdad16dcda19e80d2a", "is_reserved": 0}, {"is_disabled": 0, "fusion_lon": 0.0, "fusion_lat": 0.0, "lat": 38.897302333333336, "type": "electric_bike", "lon": -76.90538533333333, "bike_id": "7f4956cdceb6cb6b50f15dd117eaf96f", "rental_uris": {"android": "https://dc.lft.to/lastmile_qr_scan", "ios": "https://dc.lft.to/lastmile_qr_scan"}, "name": "7f4956cdceb6cb6b50f15dd117eaf96f", "is_reserved": 0}, {"is_disabled": 0, "fusion_lon": 0.0, "fusion_lat": 0.0, "lat": 38.88664216666667, "type": "electric_scooter", "lon": -77.00353, "bike_id": "d3df4b378e4ad2cdede1f7f4b9e9d128", "rental_uris": {"android": "https://dc.lft.to/lastmile_qr_scan", "ios": "https://dc.lft.to/lastmile_qr_scan"}, "name": "d3df4b378e4ad2cdede1f7f4b9e9d128", "is_reserved": 0}, {"is_disabled": 0, "fusion_lon": 0.0, "fusion_lat": 0.0, "lat": 38.93526283333333, "type": "electric_scooter", "lon": -77.0325685, "bike_id": "fca78b434baabf816b583cfa52665d08", "rental_uris": {"android": "https://dc.lft.to/lastmile_qr_scan", "ios": "https://dc.lft.to/lastmile_qr_scan"}, "name": "fca78b434baabf816b583cfa52665d08", "is_reserved": 0}, {"is_disabled": 0, "fusion_lon": 0.0, "fusion_lat": 0.0, "lat": 38.92826483333333, "type": "electric_scooter", "lon": -77.022544, "bike_id": "eb6e3be8df095f3dca6ad6d7484f6f83", "rental_uris": {"android": "https://dc.lft.to/lastmile_qr_scan", "ios": "https://dc.lft.to/lastmile_qr_scan"}, "name": "eb6e3be8df095f3dca6ad6d7484f6f83", "is_reserved": 0}, {"is_disabled": 0, "fusion_lon": 0.0, "fusion_lat": 0.0, "lat": 38.895256833333335, "type": "electric_scooter", "lon": -77.0293685, "bike_id": "ec4b7db5f204007d6672d498e23476c2", "rental_uris": {"android": "https://dc.lft.to/lastmile_qr_scan", "ios": "https://dc.lft.to/lastmile_qr_scan"}, "name": "ec4b7db5f204007d6672d498e23476c2", "is_reserved": 0}, {"is_disabled": 0, "fusion_lon": 0.0, "fusion_lat": 0.0, "lat": 38.901205833333336, "type": "electric_scooter", "lon": -77.01197166666667, "bike_id": "317e6277d8148ef8bd5f9021e845605b", "rental_uris": {"android": "https://dc.lft.to/lastmile_qr_scan", "ios": "https://dc.lft.to/lastmile_qr_scan"}, "name": "317e6277d8148ef8bd5f9021e845605b", "is_reserved": 0}, {"is_disabled": 0, "fusion_lon": 0.0, "fusion_lat": 0.0, "lat": 38.9125735, "type": "electric_scooter", "lon": -77.0169505, "bike_id": "08fd392256b81553aff5a2b8ba722358", "rental_uris": {"android": "https://dc.lft.to/lastmile_qr_scan", "ios": "https://dc.lft.to/lastmile_qr_scan"}, "name": "08fd392256b81553aff5a2b8ba722358", "is_reserved": 0}, {"is_disabled": 0, "fusion_lon": 0.0, "fusion_lat": 0.0, "lat": 38.96757066666667, "type": "electric_bike", "lon": -77.09160683333333, "bike_id": "26920536375184c379756f5d83aa514c", "rental_uris": {"android": "https://dc.lft.to/lastmile_qr_scan", "ios": "https://dc.lft.to/lastmile_qr_scan"}, "name": "26920536375184c379756f5d83aa514c", "is_reserved": 0}, {"is_disabled": 0, "fusion_lon": 0.0, "fusion_lat": 0.0, "lat": 38.91682733333333, "type": "electric_scooter", "lon": -77.046626, "bike_id": "1e549949477c13bdf37bae3a653f35ef", "rental_uris": {"android": "https://dc.lft.to/lastmile_qr_scan", "ios": "https://dc.lft.to/lastmile_qr_scan"}, "name": "1e549949477c13bdf37bae3a653f35ef", "is_reserved": 0}, {"is_disabled": 0, "fusion_lon": 0.0, "fusion_lat": 0.0, "lat": 38.8922, "type": "electric_scooter", "lon": -77.046597, "bike_id": "b596a148814ab716e41ca48ee9f429f1", "rental_uris": {"android": "https://dc.lft.to/lastmile_qr_scan", "ios": "https://dc.lft.to/lastmile_qr_scan"}, "name": "b596a148814ab716e41ca48ee9f429f1", "is_reserved": 0}, {"is_disabled": 0, "fusion_lon": 0.0, "fusion_lat": 0.0, "lat": 38.8888805, "type": "electric_scooter", "lon": -77.0155095, "bike_id": "2749709d677132ba33772273ec9ebb53", "rental_uris": {"android": "https://dc.lft.to/lastmile_qr_scan", "ios": "https://dc.lft.to/lastmile_qr_scan"}, "name": "2749709d677132ba33772273ec9ebb53", "is_reserved": 0}, {"is_disabled": 0, "fusion_lon": 0.0, "fusion_lat": 0.0, "lat": 38.90505133333333, "type": "electric_bike", "lon": -77.05694, "bike_id": "ddef95ff6ba325fc449b15f955c28dbf", "rental_uris": {"android": "https://dc.lft.to/lastmile_qr_scan", "ios": "https://dc.lft.to/lastmile_qr_scan"}, "name": "ddef95ff6ba325fc449b15f955c28dbf", "is_reserved": 0}, {"is_disabled": 0, "fusion_lon": 0.0, "fusion_lat": 0.0, "lat": 38.998782, "type": "electric_bike", "lon": -77.02888966666667, "bike_id": "99b6efae73adf4415aaf83c56c70206e", "rental_uris": {"android": "https://dc.lft.to/lastmile_qr_scan", "ios": "https://dc.lft.to/lastmile_qr_scan"}, "name": "99b6efae73adf4415aaf83c56c70206e", "is_reserved": 0}, {"is_disabled": 0, "fusion_lon": 0.0, "fusion_lat": 0.0, "lat": 38.904029, "type": "electric_scooter", "lon": -77.04063783333334, "bike_id": "5f00b83952600e5933004e6d5e63a45d", "rental_uris": {"android": "https://dc.lft.to/lastmile_qr_scan", "ios": "https://dc.lft.to/lastmile_qr_scan"}, "name": "5f00b83952600e5933004e6d5e63a45d", "is_reserved": 0}, {"is_disabled": 0, "fusion_lon": 0.0, "fusion_lat": 0.0, "lat": 38.9014135, "type": "electric_scooter", "lon": -77.04162566666666, "bike_id": "dfed262951b34a524d6cd1009ce7af4d", "rental_uris": {"android": "https://dc.lft.to/lastmile_qr_scan", "ios": "https://dc.lft.to/lastmile_qr_scan"}, "name": "dfed262951b34a524d6cd1009ce7af4d", "is_reserved": 0}, {"is_disabled": 0, "fusion_lon": 0.0, "fusion_lat": 0.0, "lat": 38.8580775, "type": "electric_scooter", "lon": -76.986522, "bike_id": "afb1c0342df277ff2554bc85693c59cd", "rental_uris": {"android": "https://dc.lft.to/lastmile_qr_scan", "ios": "https://dc.lft.to/lastmile_qr_scan"}, "name": "afb1c0342df277ff2554bc85693c59cd", "is_reserved": 0}, {"is_disabled": 0, "fusion_lon": 0.0, "fusion_lat": 0.0, "lat": 38.8873855, "type": "electric_scooter", "lon": -77.015285, "bike_id": "479be807346f1f75bceb997eb4ca8de7", "rental_uris": {"android": "https://dc.lft.to/lastmile_qr_scan", "ios": "https://dc.lft.to/lastmile_qr_scan"}, "name": "479be807346f1f75bceb997eb4ca8de7", "is_reserved": 0}, {"is_disabled": 0, "fusion_lon": 0.0, "fusion_lat": 0.0, "lat": 38.92055633333333, "type": "electric_scooter", "lon": -76.97804566666667, "bike_id": "76a6930f2a513802b6128c56c7aed8c8", "rental_uris": {"android": "https://dc.lft.to/lastmile_qr_scan", "ios": "https://dc.lft.to/lastmile_qr_scan"}, "name": "76a6930f2a513802b6128c56c7aed8c8", "is_reserved": 0}, {"is_disabled": 0, "fusion_lon": 0.0, "fusion_lat": 0.0, "lat": 38.883782, "type": "electric_bike", "lon": -77.03072533333334, "bike_id": "e0afae485c7bb03a899a35f899e57229", "rental_uris": {"android": "https://dc.lft.to/lastmile_qr_scan", "ios": "https://dc.lft.to/lastmile_qr_scan"}, "name": "e0afae485c7bb03a899a35f899e57229", "is_reserved": 0}, {"is_disabled": 0, "fusion_lon": 0.0, "fusion_lat": 0.0, "lat": 38.8766225, "type": "electric_scooter", "lon": -76.99369583333333, "bike_id": "1be7f3e739b851ab5e5722157f9d3194", "rental_uris": {"android": "https://dc.lft.to/lastmile_qr_scan", "ios": "https://dc.lft.to/lastmile_qr_scan"}, "name": "1be7f3e739b851ab5e5722157f9d3194", "is_reserved": 0}, {"is_disabled": 0, "fusion_lon": 0.0, "fusion_lat": 0.0, "lat": 38.917774666666666, "type": "electric_scooter", "lon": -77.036646, "bike_id": "e0c8560fd0a302781f75690e6c9c5179", "rental_uris": {"android": "https://dc.lft.to/lastmile_qr_scan", "ios": "https://dc.lft.to/lastmile_qr_scan"}, "name": "e0c8560fd0a302781f75690e6c9c5179", "is_reserved": 0}, {"is_disabled": 0, "fusion_lon": 0.0, "fusion_lat": 0.0, "lat": 38.928224, "type": "electric_scooter", "lon": -77.01404733333334, "bike_id": "5ca87c8c847e4745149c5241142e818c", "rental_uris": {"android": "https://dc.lft.to/lastmile_qr_scan", "ios": "https://dc.lft.to/lastmile_qr_scan"}, "name": "5ca87c8c847e4745149c5241142e818c", "is_reserved": 0}, {"is_disabled": 0, "fusion_lon": 0.0, "fusion_lat": 0.0, "lat": 38.846048333333336, "type": "electric_bike", "lon": -76.96884183333333, "bike_id": "d85d96f2ebd83c3c52ed00dd81a6e6ae", "rental_uris": {"android": "https://dc.lft.to/lastmile_qr_scan", "ios": "https://dc.lft.to/lastmile_qr_scan"}, "name": "d85d96f2ebd83c3c52ed00dd81a6e6ae", "is_reserved": 0}, {"is_disabled": 0, "fusion_lon": 0.0, "fusion_lat": 0.0, "lat": 38.966016333333336, "type": "electric_bike", "lon": -76.9833145, "bike_id": "eb4c48bf1e4d5e151ed8db43db91cb0a", "rental_uris": {"android": "https://dc.lft.to/lastmile_qr_scan", "ios": "https://dc.lft.to/lastmile_qr_scan"}, "name": "eb4c48bf1e4d5e151ed8db43db91cb0a", "is_reserved": 0}, {"is_disabled": 0, "fusion_lon": 0.0, "fusion_lat": 0.0, "lat": 38.87835233333333, "type": "electric_scooter", "lon": -77.022803, "bike_id": "bc661324314701b2d2ca16c582441d7f", "rental_uris": {"android": "https://dc.lft.to/lastmile_qr_scan", "ios": "https://dc.lft.to/lastmile_qr_scan"}, "name": "bc661324314701b2d2ca16c582441d7f", "is_reserved": 0}, {"is_disabled": 0, "fusion_lon": 0.0, "fusion_lat": 0.0, "lat": 38.899935, "type": "electric_scooter", "lon": -76.99856, "bike_id": "86876991c79e75d198839b31ca83cc48", "rental_uris": {"android": "https://dc.lft.to/lastmile_qr_scan", "ios": "https://dc.lft.to/lastmile_qr_scan"}, "name": "86876991c79e75d198839b31ca83cc48", "is_reserved": 0}, {"is_disabled": 0, "fusion_lon": 0.0, "fusion_lat": 0.0, "lat": 38.87577683333333, "type": "electric_scooter", "lon": -77.01992866666667, "bike_id": "0dcc5262eb3586322cbf8c8186e7b029", "rental_uris": {"android": "https://dc.lft.to/lastmile_qr_scan", "ios": "https://dc.lft.to/lastmile_qr_scan"}, "name": "0dcc5262eb3586322cbf8c8186e7b029", "is_reserved": 0}, {"is_disabled": 0, "fusion_lon": 0.0, "fusion_lat": 0.0, "lat": 38.90270066666667, "type": "electric_scooter", "lon": -77.03638633333334, "bike_id": "c8c44afb6dc0a0913cab41f67edddf36", "rental_uris": {"android": "https://dc.lft.to/lastmile_qr_scan", "ios": "https://dc.lft.to/lastmile_qr_scan"}, "name": "c8c44afb6dc0a0913cab41f67edddf36", "is_reserved": 0}, {"is_disabled": 0, "fusion_lon": 0.0, "fusion_lat": 0.0, "lat": 38.93299833333333, "type": "electric_scooter", "lon": -77.03584416666666, "bike_id": "484d635c736f9fd618b28b3d0e0e7cd5", "rental_uris": {"android": "https://dc.lft.to/lastmile_qr_scan", "ios": "https://dc.lft.to/lastmile_qr_scan"}, "name": "484d635c736f9fd618b28b3d0e0e7cd5", "is_reserved": 0}, {"is_disabled": 0, "fusion_lon": 0.0, "fusion_lat": 0.0, "lat": 38.92149583333333, "type": "electric_scooter", "lon": -77.03507183333333, "bike_id": "5a414be2b67e6060b2add0fff8113b89", "rental_uris": {"android": "https://dc.lft.to/lastmile_qr_scan", "ios": "https://dc.lft.to/lastmile_qr_scan"}, "name": "5a414be2b67e6060b2add0fff8113b89", "is_reserved": 0}, {"is_disabled": 0, "fusion_lon": 0.0, "fusion_lat": 0.0, "lat": 38.902870666666665, "type": "electric_scooter", "lon": -77.03844383333333, "bike_id": "be156c6a9c7f358750f2aedc95faba6e", "rental_uris": {"android": "https://dc.lft.to/lastmile_qr_scan", "ios": "https://dc.lft.to/lastmile_qr_scan"}, "name": "be156c6a9c7f358750f2aedc95faba6e", "is_reserved": 0}, {"is_disabled": 0, "fusion_lon": 0.0, "fusion_lat": 0.0, "lat": 38.911164166666666, "type": "electric_scooter", "lon": -77.03149316666666, "bike_id": "4e37a922bb5eb460fca27351f3680f95", "rental_uris": {"android": "https://dc.lft.to/lastmile_qr_scan", "ios": "https://dc.lft.to/lastmile_qr_scan"}, "name": "4e37a922bb5eb460fca27351f3680f95", "is_reserved": 0}, {"is_disabled": 0, "fusion_lon": 0.0, "fusion_lat": 0.0, "lat": 38.89335966666667, "type": "electric_scooter", "lon": -77.04658183333333, "bike_id": "dd04fb669149c499ecbfd4d356c70415", "rental_uris": {"android": "https://dc.lft.to/lastmile_qr_scan", "ios": "https://dc.lft.to/lastmile_qr_scan"}, "name": "dd04fb669149c499ecbfd4d356c70415", "is_reserved": 0}, {"is_disabled": 0, "fusion_lon": 0.0, "fusion_lat": 0.0, "lat": 38.908484, "type": "electric_scooter", "lon": -77.02384666666667, "bike_id": "2774dd2af365c5bdcf88b5b0748f9f17", "rental_uris": {"android": "https://dc.lft.to/lastmile_qr_scan", "ios": "https://dc.lft.to/lastmile_qr_scan"}, "name": "2774dd2af365c5bdcf88b5b0748f9f17", "is_reserved": 0}, {"is_disabled": 0, "fusion_lon": 0.0, "fusion_lat": 0.0, "lat": 38.925481166666664, "type": "electric_scooter", "lon": -77.05190583333334, "bike_id": "f43f4d2a6883ddaf84d1d4d6e14876f7", "rental_uris": {"android": "https://dc.lft.to/lastmile_qr_scan", "ios": "https://dc.lft.to/lastmile_qr_scan"}, "name": "f43f4d2a6883ddaf84d1d4d6e14876f7", "is_reserved": 0}, {"is_disabled": 0, "fusion_lon": 0.0, "fusion_lat": 0.0, "lat": 38.89670516666666, "type": "electric_scooter", "lon": -76.94717583333333, "bike_id": "9033a7d833fb63b5b5bc9202455aeb99", "rental_uris": {"android": "https://dc.lft.to/lastmile_qr_scan", "ios": "https://dc.lft.to/lastmile_qr_scan"}, "name": "9033a7d833fb63b5b5bc9202455aeb99", "is_reserved": 0}, {"is_disabled": 0, "fusion_lon": 0.0, "fusion_lat": 0.0, "lat": 38.887427833333334, "type": "electric_scooter", "lon": -77.01492833333333, "bike_id": "d52c6476c997c51dc6d0895a993995a8", "rental_uris": {"android": "https://dc.lft.to/lastmile_qr_scan", "ios": "https://dc.lft.to/lastmile_qr_scan"}, "name": "d52c6476c997c51dc6d0895a993995a8", "is_reserved": 0}, {"is_disabled": 0, "fusion_lon": 0.0, "fusion_lat": 0.0, "lat": 38.907472, "type": "electric_scooter", "lon": -77.03471283333333, "bike_id": "c551b2467b7e13bfec7fc8eb56c494a6", "rental_uris": {"android": "https://dc.lft.to/lastmile_qr_scan", "ios": "https://dc.lft.to/lastmile_qr_scan"}, "name": "c551b2467b7e13bfec7fc8eb56c494a6", "is_reserved": 0}, {"is_disabled": 0, "fusion_lon": 0.0, "fusion_lat": 0.0, "lat": 38.848417833333336, "type": "electric_bike", "lon": -77.0804555, "bike_id": "ab69137c5cf0aa964eed313e801fe35f", "rental_uris": {"android": "https://dc.lft.to/lastmile_qr_scan", "ios": "https://dc.lft.to/lastmile_qr_scan"}, "name": "ab69137c5cf0aa964eed313e801fe35f", "is_reserved": 0}, {"is_disabled": 0, "fusion_lon": 0.0, "fusion_lat": 0.0, "lat": 38.91423016666667, "type": "electric_scooter", "lon": -77.04155516666667, "bike_id": "cf2bc6302c8cde86204dbd3a23e8db9b", "rental_uris": {"android": "https://dc.lft.to/lastmile_qr_scan", "ios": "https://dc.lft.to/lastmile_qr_scan"}, "name": "cf2bc6302c8cde86204dbd3a23e8db9b", "is_reserved": 0}, {"is_disabled": 0, "fusion_lon": 0.0, "fusion_lat": 0.0, "lat": 38.904245333333336, "type": "electric_scooter", "lon": -77.04885283333333, "bike_id": "2334355c0305896017466ee2e7074524", "rental_uris": {"android": "https://dc.lft.to/lastmile_qr_scan", "ios": "https://dc.lft.to/lastmile_qr_scan"}, "name": "2334355c0305896017466ee2e7074524", "is_reserved": 0}, {"is_disabled": 0, "fusion_lon": 0.0, "fusion_lat": 0.0, "lat": 38.95360266666667, "type": "electric_bike", "lon": -76.98094066666667, "bike_id": "acfbe5494ced1446d4ddb7e45884e3a3", "rental_uris": {"android": "https://dc.lft.to/lastmile_qr_scan", "ios": "https://dc.lft.to/lastmile_qr_scan"}, "name": "acfbe5494ced1446d4ddb7e45884e3a3", "is_reserved": 0}, {"is_disabled": 0, "fusion_lon": 0.0, "fusion_lat": 0.0, "lat": 38.930363166666666, "type": "electric_scooter", "lon": -77.03219833333333, "bike_id": "050c68db43ce1f64b0a669d85a693caf", "rental_uris": {"android": "https://dc.lft.to/lastmile_qr_scan", "ios": "https://dc.lft.to/lastmile_qr_scan"}, "name": "050c68db43ce1f64b0a669d85a693caf", "is_reserved": 0}, {"is_disabled": 0, "fusion_lon": 0.0, "fusion_lat": 0.0, "lat": 38.9058475, "type": "electric_scooter", "lon": -77.04353033333334, "bike_id": "96c8e8e30e4228f52aed6a7c15af8e93", "rental_uris": {"android": "https://dc.lft.to/lastmile_qr_scan", "ios": "https://dc.lft.to/lastmile_qr_scan"}, "name": "96c8e8e30e4228f52aed6a7c15af8e93", "is_reserved": 0}, {"is_disabled": 0, "fusion_lon": 0.0, "fusion_lat": 0.0, "lat": 38.94448166666667, "type": "electric_scooter", "lon": -77.0635225, "bike_id": "10202226f95748708a925611d59c861a", "rental_uris": {"android": "https://dc.lft.to/lastmile_qr_scan", "ios": "https://dc.lft.to/lastmile_qr_scan"}, "name": "10202226f95748708a925611d59c861a", "is_reserved": 0}, {"is_disabled": 0, "fusion_lon": 0.0, "fusion_lat": 0.0, "lat": 38.89832633333333, "type": "electric_scooter", "lon": -77.03172116666667, "bike_id": "de3a16674f9ef4d60464d05794f60c8f", "rental_uris": {"android": "https://dc.lft.to/lastmile_qr_scan", "ios": "https://dc.lft.to/lastmile_qr_scan"}, "name": "de3a16674f9ef4d60464d05794f60c8f", "is_reserved": 0}, {"is_disabled": 0, "fusion_lon": 0.0, "fusion_lat": 0.0, "lat": 38.92147716666667, "type": "electric_scooter", "lon": -77.03864483333334, "bike_id": "1f17edb721730740ab7ba98c2d924399", "rental_uris": {"android": "https://dc.lft.to/lastmile_qr_scan", "ios": "https://dc.lft.to/lastmile_qr_scan"}, "name": "1f17edb721730740ab7ba98c2d924399", "is_reserved": 0}, {"is_disabled": 0, "fusion_lon": 0.0, "fusion_lat": 0.0, "lat": 38.947496, "type": "electric_scooter", "lon": -77.02980416666666, "bike_id": "afe27d27a9df09c197c48e421a2d37ce", "rental_uris": {"android": "https://dc.lft.to/lastmile_qr_scan", "ios": "https://dc.lft.to/lastmile_qr_scan"}, "name": "afe27d27a9df09c197c48e421a2d37ce", "is_reserved": 0}, {"is_disabled": 0, "fusion_lon": 0.0, "fusion_lat": 0.0, "lat": 38.931087833333336, "type": "electric_scooter", "lon": -77.01244716666666, "bike_id": "ddc38f3efa54a574683c9b80fd435d3e", "rental_uris": {"android": "https://dc.lft.to/lastmile_qr_scan", "ios": "https://dc.lft.to/lastmile_qr_scan"}, "name": "ddc38f3efa54a574683c9b80fd435d3e", "is_reserved": 0}, {"is_disabled": 0, "fusion_lon": 0.0, "fusion_lat": 0.0, "lat": 38.926444333333336, "type": "electric_scooter", "lon": -77.03715216666667, "bike_id": "9c5b906b03ea03b6a3986ef639ed447f", "rental_uris": {"android": "https://dc.lft.to/lastmile_qr_scan", "ios": "https://dc.lft.to/lastmile_qr_scan"}, "name": "9c5b906b03ea03b6a3986ef639ed447f", "is_reserved": 0}, {"is_disabled": 0, "fusion_lon": 0.0, "fusion_lat": 0.0, "lat": 38.909738, "type": "electric_scooter", "lon": -77.0317885, "bike_id": "021ffb1d2eb68a6211dcc998f65eb273", "rental_uris": {"android": "https://dc.lft.to/lastmile_qr_scan", "ios": "https://dc.lft.to/lastmile_qr_scan"}, "name": "021ffb1d2eb68a6211dcc998f65eb273", "is_reserved": 0}, {"is_disabled": 0, "fusion_lon": 0.0, "fusion_lat": 0.0, "lat": 38.863603166666664, "type": "electric_scooter", "lon": -76.990547, "bike_id": "abec4801af2161cf2b7a7d93c1699094", "rental_uris": {"android": "https://dc.lft.to/lastmile_qr_scan", "ios": "https://dc.lft.to/lastmile_qr_scan"}, "name": "abec4801af2161cf2b7a7d93c1699094", "is_reserved": 0}, {"is_disabled": 0, "fusion_lon": 0.0, "fusion_lat": 0.0, "lat": 38.902310666666665, "type": "electric_scooter", "lon": -77.0269125, "bike_id": "29eb3d00a2556efa1f3cc57192121aea", "rental_uris": {"android": "https://dc.lft.to/lastmile_qr_scan", "ios": "https://dc.lft.to/lastmile_qr_scan"}, "name": "29eb3d00a2556efa1f3cc57192121aea", "is_reserved": 0}, {"is_disabled": 0, "fusion_lon": 0.0, "fusion_lat": 0.0, "lat": 38.901711666666664, "type": "electric_scooter", "lon": -77.01881033333333, "bike_id": "f8ad541414398165757272d6e9e445b9", "rental_uris": {"android": "https://dc.lft.to/lastmile_qr_scan", "ios": "https://dc.lft.to/lastmile_qr_scan"}, "name": "f8ad541414398165757272d6e9e445b9", "is_reserved": 0}, {"is_disabled": 0, "fusion_lon": 0.0, "fusion_lat": 0.0, "lat": 38.9041765, "type": "electric_scooter", "lon": -77.04359116666667, "bike_id": "e5e55ac0385d1f14a2600cda1a1748d8", "rental_uris": {"android": "https://dc.lft.to/lastmile_qr_scan", "ios": "https://dc.lft.to/lastmile_qr_scan"}, "name": "e5e55ac0385d1f14a2600cda1a1748d8", "is_reserved": 0}, {"is_disabled": 0, "fusion_lon": 0.0, "fusion_lat": 0.0, "lat": 38.899623, "type": "electric_scooter", "lon": -77.0478495, "bike_id": "93534cc5b4b974cf3f44debe970a51fe", "rental_uris": {"android": "https://dc.lft.to/lastmile_qr_scan", "ios": "https://dc.lft.to/lastmile_qr_scan"}, "name": "93534cc5b4b974cf3f44debe970a51fe", "is_reserved": 0}, {"is_disabled": 0, "fusion_lon": 0.0, "fusion_lat": 0.0, "lat": 38.921643333333336, "type": "electric_scooter", "lon": -76.99398783333334, "bike_id": "bd5c067e08e92c647b443af05e9c1a4a", "rental_uris": {"android": "https://dc.lft.to/lastmile_qr_scan", "ios": "https://dc.lft.to/lastmile_qr_scan"}, "name": "bd5c067e08e92c647b443af05e9c1a4a", "is_reserved": 0}, {"is_disabled": 0, "fusion_lon": 0.0, "fusion_lat": 0.0, "lat": 38.902667, "type": "electric_scooter", "lon": -77.03436966666666, "bike_id": "475fa0b705ec9a5a053cc8936666e027", "rental_uris": {"android": "https://dc.lft.to/lastmile_qr_scan", "ios": "https://dc.lft.to/lastmile_qr_scan"}, "name": "475fa0b705ec9a5a053cc8936666e027", "is_reserved": 0}, {"is_disabled": 0, "fusion_lon": 0.0, "fusion_lat": 0.0, "lat": 38.86354216666667, "type": "electric_scooter", "lon": -76.99057216666667, "bike_id": "bf6a9d41f40175c1a2c5244b907e0da4", "rental_uris": {"android": "https://dc.lft.to/lastmile_qr_scan", "ios": "https://dc.lft.to/lastmile_qr_scan"}, "name": "bf6a9d41f40175c1a2c5244b907e0da4", "is_reserved": 0}, {"is_disabled": 0, "fusion_lon": 0.0, "fusion_lat": 0.0, "lat": 38.8997615, "type": "electric_scooter", "lon": -77.02039183333333, "bike_id": "995062b44f8b857b9d485f4cc680930e", "rental_uris": {"android": "https://dc.lft.to/lastmile_qr_scan", "ios": "https://dc.lft.to/lastmile_qr_scan"}, "name": "995062b44f8b857b9d485f4cc680930e", "is_reserved": 0}, {"is_disabled": 0, "fusion_lon": 0.0, "fusion_lat": 0.0, "lat": 38.89470983333333, "type": "electric_scooter", "lon": -76.99414783333333, "bike_id": "dbf2a52760caafa2de4e3ede89ae0312", "rental_uris": {"android": "https://dc.lft.to/lastmile_qr_scan", "ios": "https://dc.lft.to/lastmile_qr_scan"}, "name": "dbf2a52760caafa2de4e3ede89ae0312", "is_reserved": 0}, {"is_disabled": 0, "fusion_lon": 0.0, "fusion_lat": 0.0, "lat": 38.94278883333333, "type": "electric_scooter", "lon": -77.0293645, "bike_id": "375255979d34e7eaedec2c81309c0455", "rental_uris": {"android": "https://dc.lft.to/lastmile_qr_scan", "ios": "https://dc.lft.to/lastmile_qr_scan"}, "name": "375255979d34e7eaedec2c81309c0455", "is_reserved": 0}, {"is_disabled": 0, "fusion_lon": 0.0, "fusion_lat": 0.0, "lat": 38.908278, "type": "electric_scooter", "lon": -76.99696466666667, "bike_id": "b540736dbd69e738a546c44240cb73c7", "rental_uris": {"android": "https://dc.lft.to/lastmile_qr_scan", "ios": "https://dc.lft.to/lastmile_qr_scan"}, "name": "b540736dbd69e738a546c44240cb73c7", "is_reserved": 0}, {"is_disabled": 0, "fusion_lon": 0.0, "fusion_lat": 0.0, "lat": 38.928921833333334, "type": "electric_scooter", "lon": -77.03268883333334, "bike_id": "518b26b0e336a83c4dc81d2723871cbf", "rental_uris": {"android": "https://dc.lft.to/lastmile_qr_scan", "ios": "https://dc.lft.to/lastmile_qr_scan"}, "name": "518b26b0e336a83c4dc81d2723871cbf", "is_reserved": 0}, {"is_disabled": 0, "fusion_lon": 0.0, "fusion_lat": 0.0, "lat": 38.916826, "type": "electric_scooter", "lon": -76.980812, "bike_id": "43274885b2bf1c72a1a8960401ca6559", "rental_uris": {"android": "https://dc.lft.to/lastmile_qr_scan", "ios": "https://dc.lft.to/lastmile_qr_scan"}, "name": "43274885b2bf1c72a1a8960401ca6559", "is_reserved": 0}, {"is_disabled": 0, "fusion_lon": 0.0, "fusion_lat": 0.0, "lat": 38.893985666666666, "type": "electric_scooter", "lon": -77.02175966666667, "bike_id": "5cb4b430b8d9008816d3d9544b94f330", "rental_uris": {"android": "https://dc.lft.to/lastmile_qr_scan", "ios": "https://dc.lft.to/lastmile_qr_scan"}, "name": "5cb4b430b8d9008816d3d9544b94f330", "is_reserved": 0}, {"is_disabled": 0, "fusion_lon": 0.0, "fusion_lat": 0.0, "lat": 38.932905833333336, "type": "electric_scooter", "lon": -77.028447, "bike_id": "30a4ba032e0578c8d59840897e87e36e", "rental_uris": {"android": "https://dc.lft.to/lastmile_qr_scan", "ios": "https://dc.lft.to/lastmile_qr_scan"}, "name": "30a4ba032e0578c8d59840897e87e36e", "is_reserved": 0}, {"is_disabled": 0, "fusion_lon": 0.0, "fusion_lat": 0.0, "lat": 39.029988333333336, "type": "electric_bike", "lon": -77.10652883333333, "bike_id": "4ce954c818cfc554955132aa1308b7c1", "rental_uris": {"android": "https://dc.lft.to/lastmile_qr_scan", "ios": "https://dc.lft.to/lastmile_qr_scan"}, "name": "4ce954c818cfc554955132aa1308b7c1", "is_reserved": 0}, {"is_disabled": 0, "fusion_lon": 0.0, "fusion_lat": 0.0, "lat": 38.905248666666665, "type": "electric_scooter", "lon": -77.05088666666667, "bike_id": "1f6b9c248532f14c785becf4bb4cd3c9", "rental_uris": {"android": "https://dc.lft.to/lastmile_qr_scan", "ios": "https://dc.lft.to/lastmile_qr_scan"}, "name": "1f6b9c248532f14c785becf4bb4cd3c9", "is_reserved": 0}, {"is_disabled": 0, "fusion_lon": 0.0, "fusion_lat": 0.0, "lat": 38.89730083333333, "type": "electric_scooter", "lon": -77.04673733333334, "bike_id": "a35e0f0ac4cb6a4ac13cf9c7994a76d3", "rental_uris": {"android": "https://dc.lft.to/lastmile_qr_scan", "ios": "https://dc.lft.to/lastmile_qr_scan"}, "name": "a35e0f0ac4cb6a4ac13cf9c7994a76d3", "is_reserved": 0}, {"is_disabled": 0, "fusion_lon": 0.0, "fusion_lat": 0.0, "lat": 38.90719133333333, "type": "electric_scooter", "lon": -77.0335505, "bike_id": "4e6092530d014bfa942c0357c08f13bf", "rental_uris": {"android": "https://dc.lft.to/lastmile_qr_scan", "ios": "https://dc.lft.to/lastmile_qr_scan"}, "name": "4e6092530d014bfa942c0357c08f13bf", "is_reserved": 0}, {"is_disabled": 0, "fusion_lon": 0.0, "fusion_lat": 0.0, "lat": 38.89856833333333, "type": "electric_scooter", "lon": -77.03958183333333, "bike_id": "fb798e75bb5603d40f26f941cf50dda3", "rental_uris": {"android": "https://dc.lft.to/lastmile_qr_scan", "ios": "https://dc.lft.to/lastmile_qr_scan"}, "name": "fb798e75bb5603d40f26f941cf50dda3", "is_reserved": 0}, {"is_disabled": 0, "fusion_lon": 0.0, "fusion_lat": 0.0, "lat": 38.985599, "type": "electric_bike", "lon": -76.9882945, "bike_id": "afedba9c0e4ebc706e3b70d936265ba8", "rental_uris": {"android": "https://dc.lft.to/lastmile_qr_scan", "ios": "https://dc.lft.to/lastmile_qr_scan"}, "name": "afedba9c0e4ebc706e3b70d936265ba8", "is_reserved": 0}, {"is_disabled": 0, "fusion_lon": 0.0, "fusion_lat": 0.0, "lat": 38.8429175, "type": "electric_scooter", "lon": -76.9994895, "bike_id": "65a52113dbba7e1b871c23b379764b52", "rental_uris": {"android": "https://dc.lft.to/lastmile_qr_scan", "ios": "https://dc.lft.to/lastmile_qr_scan"}, "name": "65a52113dbba7e1b871c23b379764b52", "is_reserved": 0}, {"is_disabled": 0, "fusion_lon": 0.0, "fusion_lat": 0.0, "lat": 38.9006895, "type": "electric_scooter", "lon": -77.00751733333334, "bike_id": "18b17b9834517fa10d7ed9b33aca1e6c", "rental_uris": {"android": "https://dc.lft.to/lastmile_qr_scan", "ios": "https://dc.lft.to/lastmile_qr_scan"}, "name": "18b17b9834517fa10d7ed9b33aca1e6c", "is_reserved": 0}, {"is_disabled": 0, "fusion_lon": 0.0, "fusion_lat": 0.0, "lat": 38.848802666666664, "type": "electric_scooter", "lon": -77.005212, "bike_id": "79d044f1cfcd59f4881c4629f9e86a6c", "rental_uris": {"android": "https://dc.lft.to/lastmile_qr_scan", "ios": "https://dc.lft.to/lastmile_qr_scan"}, "name": "79d044f1cfcd59f4881c4629f9e86a6c", "is_reserved": 0}, {"is_disabled": 0, "fusion_lon": 0.0, "fusion_lat": 0.0, "lat": 38.91870866666667, "type": "electric_scooter", "lon": -77.044613, "bike_id": "4d4dabf5da2a618973c3cfec941aa502", "rental_uris": {"android": "https://dc.lft.to/lastmile_qr_scan", "ios": "https://dc.lft.to/lastmile_qr_scan"}, "name": "4d4dabf5da2a618973c3cfec941aa502", "is_reserved": 0}, {"is_disabled": 0, "fusion_lon": 0.0, "fusion_lat": 0.0, "lat": 38.925973666666664, "type": "electric_scooter", "lon": -77.02156666666667, "bike_id": "7655c24f2685cba2bcbe0ab1cce14ded", "rental_uris": {"android": "https://dc.lft.to/lastmile_qr_scan", "ios": "https://dc.lft.to/lastmile_qr_scan"}, "name": "7655c24f2685cba2bcbe0ab1cce14ded", "is_reserved": 0}, {"is_disabled": 0, "fusion_lon": 0.0, "fusion_lat": 0.0, "lat": 38.9180675, "type": "electric_scooter", "lon": -77.04156883333333, "bike_id": "1667fc400779b60023238c0aa8c40300", "rental_uris": {"android": "https://dc.lft.to/lastmile_qr_scan", "ios": "https://dc.lft.to/lastmile_qr_scan"}, "name": "1667fc400779b60023238c0aa8c40300", "is_reserved": 0}, {"is_disabled": 0, "fusion_lon": 0.0, "fusion_lat": 0.0, "lat": 38.9207435, "type": "electric_scooter", "lon": -77.02391633333333, "bike_id": "e5233bfa2a4805e3d47cf4ec1fb8435d", "rental_uris": {"android": "https://dc.lft.to/lastmile_qr_scan", "ios": "https://dc.lft.to/lastmile_qr_scan"}, "name": "e5233bfa2a4805e3d47cf4ec1fb8435d", "is_reserved": 0}, {"is_disabled": 0, "fusion_lon": 0.0, "fusion_lat": 0.0, "lat": 38.87774116666667, "type": "electric_scooter", "lon": -77.014333, "bike_id": "ccfbb815dff93e7ccb766475b6432f3f", "rental_uris": {"android": "https://dc.lft.to/lastmile_qr_scan", "ios": "https://dc.lft.to/lastmile_qr_scan"}, "name": "ccfbb815dff93e7ccb766475b6432f3f", "is_reserved": 0}, {"is_disabled": 0, "fusion_lon": 0.0, "fusion_lat": 0.0, "lat": 38.981324666666666, "type": "electric_bike", "lon": -77.00764966666667, "bike_id": "dcfc47b6b682ddf0c732114a7c27aadc", "rental_uris": {"android": "https://dc.lft.to/lastmile_qr_scan", "ios": "https://dc.lft.to/lastmile_qr_scan"}, "name": "dcfc47b6b682ddf0c732114a7c27aadc", "is_reserved": 0}, {"is_disabled": 0, "fusion_lon": 0.0, "fusion_lat": 0.0, "lat": 38.9209565, "type": "electric_scooter", "lon": -77.01796516666667, "bike_id": "1d4739ac0c565c38e9686b74879c1b61", "rental_uris": {"android": "https://dc.lft.to/lastmile_qr_scan", "ios": "https://dc.lft.to/lastmile_qr_scan"}, "name": "1d4739ac0c565c38e9686b74879c1b61", "is_reserved": 0}, {"is_disabled": 0, "fusion_lon": 0.0, "fusion_lat": 0.0, "lat": 38.93702016666667, "type": "electric_scooter", "lon": -77.0610435, "bike_id": "890ca3a6b90fd9015c50917a0e8430d9", "rental_uris": {"android": "https://dc.lft.to/lastmile_qr_scan", "ios": "https://dc.lft.to/lastmile_qr_scan"}, "name": "890ca3a6b90fd9015c50917a0e8430d9", "is_reserved": 0}, {"is_disabled": 0, "fusion_lon": 0.0, "fusion_lat": 0.0, "lat": 38.937177, "type": "electric_scooter", "lon": -77.023945, "bike_id": "2bc7f77da3082ded7b7d3befad25b6f2", "rental_uris": {"android": "https://dc.lft.to/lastmile_qr_scan", "ios": "https://dc.lft.to/lastmile_qr_scan"}, "name": "2bc7f77da3082ded7b7d3befad25b6f2", "is_reserved": 0}, {"is_disabled": 0, "fusion_lon": 0.0, "fusion_lat": 0.0, "lat": 38.89718033333333, "type": "electric_scooter", "lon": -77.0079425, "bike_id": "0171532b19a33505ec4e9d3a48956682", "rental_uris": {"android": "https://dc.lft.to/lastmile_qr_scan", "ios": "https://dc.lft.to/lastmile_qr_scan"}, "name": "0171532b19a33505ec4e9d3a48956682", "is_reserved": 0}, {"is_disabled": 0, "fusion_lon": 0.0, "fusion_lat": 0.0, "lat": 38.894231166666664, "type": "electric_scooter", "lon": -76.91220416666667, "bike_id": "b737ec8f7b01a0199afa656d9827bbed", "rental_uris": {"android": "https://dc.lft.to/lastmile_qr_scan", "ios": "https://dc.lft.to/lastmile_qr_scan"}, "name": "b737ec8f7b01a0199afa656d9827bbed", "is_reserved": 0}, {"is_disabled": 0, "fusion_lon": 0.0, "fusion_lat": 0.0, "lat": 38.8964905, "type": "electric_scooter", "lon": -77.050319, "bike_id": "80c6132ed47a401e8f9a316af52cb99d", "rental_uris": {"android": "https://dc.lft.to/lastmile_qr_scan", "ios": "https://dc.lft.to/lastmile_qr_scan"}, "name": "80c6132ed47a401e8f9a316af52cb99d", "is_reserved": 0}, {"is_disabled": 0, "fusion_lon": 0.0, "fusion_lat": 0.0, "lat": 38.926024166666664, "type": "electric_scooter", "lon": -77.02151583333334, "bike_id": "3eabfc7e657cafe52e0ef070200cf1ce", "rental_uris": {"android": "https://dc.lft.to/lastmile_qr_scan", "ios": "https://dc.lft.to/lastmile_qr_scan"}, "name": "3eabfc7e657cafe52e0ef070200cf1ce", "is_reserved": 0}, {"is_disabled": 0, "fusion_lon": 0.0, "fusion_lat": 0.0, "lat": 38.911824833333334, "type": "electric_scooter", "lon": -77.04159816666666, "bike_id": "f12cb52d1e1558f4830f719ce01d5e16", "rental_uris": {"android": "https://dc.lft.to/lastmile_qr_scan", "ios": "https://dc.lft.to/lastmile_qr_scan"}, "name": "f12cb52d1e1558f4830f719ce01d5e16", "is_reserved": 0}, {"is_disabled": 0, "fusion_lon": 0.0, "fusion_lat": 0.0, "lat": 38.90497216666667, "type": "electric_scooter", "lon": -77.02958133333334, "bike_id": "e604a180b009bfd83da4af638802fef7", "rental_uris": {"android": "https://dc.lft.to/lastmile_qr_scan", "ios": "https://dc.lft.to/lastmile_qr_scan"}, "name": "e604a180b009bfd83da4af638802fef7", "is_reserved": 0}, {"is_disabled": 0, "fusion_lon": 0.0, "fusion_lat": 0.0, "lat": 38.83807016666667, "type": "electric_scooter", "lon": -77.004332, "bike_id": "1bc0d4dc9c9354bcf92fd2d4163e3183", "rental_uris": {"android": "https://dc.lft.to/lastmile_qr_scan", "ios": "https://dc.lft.to/lastmile_qr_scan"}, "name": "1bc0d4dc9c9354bcf92fd2d4163e3183", "is_reserved": 0}, {"is_disabled": 0, "fusion_lon": 0.0, "fusion_lat": 0.0, "lat": 38.89374133333333, "type": "electric_scooter", "lon": -77.04789716666667, "bike_id": "1db1e09ffe371672f0360226babe4d66", "rental_uris": {"android": "https://dc.lft.to/lastmile_qr_scan", "ios": "https://dc.lft.to/lastmile_qr_scan"}, "name": "1db1e09ffe371672f0360226babe4d66", "is_reserved": 0}, {"is_disabled": 0, "fusion_lon": 0.0, "fusion_lat": 0.0, "lat": 38.90967933333334, "type": "electric_scooter", "lon": -77.0321395, "bike_id": "00f5f121f66395e173cb84bd932551c3", "rental_uris": {"android": "https://dc.lft.to/lastmile_qr_scan", "ios": "https://dc.lft.to/lastmile_qr_scan"}, "name": "00f5f121f66395e173cb84bd932551c3", "is_reserved": 0}, {"is_disabled": 0, "fusion_lon": 0.0, "fusion_lat": 0.0, "lat": 38.89862683333333, "type": "electric_scooter", "lon": -77.03356483333333, "bike_id": "022f3881ad344f7e833a1699e63ba185", "rental_uris": {"android": "https://dc.lft.to/lastmile_qr_scan", "ios": "https://dc.lft.to/lastmile_qr_scan"}, "name": "022f3881ad344f7e833a1699e63ba185", "is_reserved": 0}, {"is_disabled": 0, "fusion_lon": 0.0, "fusion_lat": 0.0, "lat": 38.88139833333334, "type": "electric_scooter", "lon": -76.99160166666667, "bike_id": "e4a2ded684d423af7c633643e536c00e", "rental_uris": {"android": "https://dc.lft.to/lastmile_qr_scan", "ios": "https://dc.lft.to/lastmile_qr_scan"}, "name": "e4a2ded684d423af7c633643e536c00e", "is_reserved": 0}, {"is_disabled": 0, "fusion_lon": 0.0, "fusion_lat": 0.0, "lat": 38.9213835, "type": "electric_scooter", "lon": -77.043591, "bike_id": "2065c40215a1e5cb3fbe7a16b229bf18", "rental_uris": {"android": "https://dc.lft.to/lastmile_qr_scan", "ios": "https://dc.lft.to/lastmile_qr_scan"}, "name": "2065c40215a1e5cb3fbe7a16b229bf18", "is_reserved": 0}, {"is_disabled": 0, "fusion_lon": 0.0, "fusion_lat": 0.0, "lat": 38.863344166666664, "type": "electric_bike", "lon": -76.98722383333333, "bike_id": "52285f8c550b765ef3e8d7e8caa2e5a6", "rental_uris": {"android": "https://dc.lft.to/lastmile_qr_scan", "ios": "https://dc.lft.to/lastmile_qr_scan"}, "name": "52285f8c550b765ef3e8d7e8caa2e5a6", "is_reserved": 0}, {"is_disabled": 0, "fusion_lon": 0.0, "fusion_lat": 0.0, "lat": 38.902324, "type": "electric_scooter", "lon": -77.00200466666666, "bike_id": "388b0e888b3370cd61ffb2ee3ffc150c", "rental_uris": {"android": "https://dc.lft.to/lastmile_qr_scan", "ios": "https://dc.lft.to/lastmile_qr_scan"}, "name": "388b0e888b3370cd61ffb2ee3ffc150c", "is_reserved": 0}, {"is_disabled": 0, "fusion_lon": 0.0, "fusion_lat": 0.0, "lat": 38.887665, "type": "electric_scooter", "lon": -77.01546016666667, "bike_id": "7522e2c8b3dc014ae1e1d4b1d834c33b", "rental_uris": {"android": "https://dc.lft.to/lastmile_qr_scan", "ios": "https://dc.lft.to/lastmile_qr_scan"}, "name": "7522e2c8b3dc014ae1e1d4b1d834c33b", "is_reserved": 0}, {"is_disabled": 0, "fusion_lon": 0.0, "fusion_lat": 0.0, "lat": 38.904376, "type": "electric_scooter", "lon": -77.034658, "bike_id": "dca816dc96e3a5677dbd02f3a1d45151", "rental_uris": {"android": "https://dc.lft.to/lastmile_qr_scan", "ios": "https://dc.lft.to/lastmile_qr_scan"}, "name": "dca816dc96e3a5677dbd02f3a1d45151", "is_reserved": 0}, {"is_disabled": 0, "fusion_lon": 0.0, "fusion_lat": 0.0, "lat": 38.956464, "type": "electric_scooter", "lon": -77.01494516666666, "bike_id": "64a2724a28e6f4f54338214653841a69", "rental_uris": {"android": "https://dc.lft.to/lastmile_qr_scan", "ios": "https://dc.lft.to/lastmile_qr_scan"}, "name": "64a2724a28e6f4f54338214653841a69", "is_reserved": 0}, {"is_disabled": 0, "fusion_lon": 0.0, "fusion_lat": 0.0, "lat": 38.897508333333334, "type": "electric_scooter", "lon": -77.02478533333333, "bike_id": "014086941412c9f0dd682fc55856fe7c", "rental_uris": {"android": "https://dc.lft.to/lastmile_qr_scan", "ios": "https://dc.lft.to/lastmile_qr_scan"}, "name": "014086941412c9f0dd682fc55856fe7c", "is_reserved": 0}, {"is_disabled": 0, "fusion_lon": 0.0, "fusion_lat": 0.0, "lat": 38.902135666666666, "type": "electric_scooter", "lon": -77.0479105, "bike_id": "bf375b8cddb4e1ad904c5f764e14218f", "rental_uris": {"android": "https://dc.lft.to/lastmile_qr_scan", "ios": "https://dc.lft.to/lastmile_qr_scan"}, "name": "bf375b8cddb4e1ad904c5f764e14218f", "is_reserved": 0}, {"is_disabled": 0, "fusion_lon": 0.0, "fusion_lat": 0.0, "lat": 38.806935, "type": "electric_bike", "lon": -77.09363183333333, "bike_id": "588b9e420894bbee8b93fbee6e7a85ab", "rental_uris": {"android": "https://dc.lft.to/lastmile_qr_scan", "ios": "https://dc.lft.to/lastmile_qr_scan"}, "name": "588b9e420894bbee8b93fbee6e7a85ab", "is_reserved": 0}, {"is_disabled": 0, "fusion_lon": 0.0, "fusion_lat": 0.0, "lat": 38.89482783333333, "type": "electric_scooter", "lon": -77.00214133333333, "bike_id": "5d6f21a2da1f126cf83d332fce10ec49", "rental_uris": {"android": "https://dc.lft.to/lastmile_qr_scan", "ios": "https://dc.lft.to/lastmile_qr_scan"}, "name": "5d6f21a2da1f126cf83d332fce10ec49", "is_reserved": 0}, {"is_disabled": 0, "fusion_lon": 0.0, "fusion_lat": 0.0, "lat": 38.898812, "type": "electric_scooter", "lon": -77.0327495, "bike_id": "dc243727571c4826111e275eb3b0940c", "rental_uris": {"android": "https://dc.lft.to/lastmile_qr_scan", "ios": "https://dc.lft.to/lastmile_qr_scan"}, "name": "dc243727571c4826111e275eb3b0940c", "is_reserved": 0}, {"is_disabled": 0, "fusion_lon": 0.0, "fusion_lat": 0.0, "lat": 38.921599, "type": "electric_scooter", "lon": -77.03383583333333, "bike_id": "50db6dc9ce261cbeee85c23ea22ec8c7", "rental_uris": {"android": "https://dc.lft.to/lastmile_qr_scan", "ios": "https://dc.lft.to/lastmile_qr_scan"}, "name": "50db6dc9ce261cbeee85c23ea22ec8c7", "is_reserved": 0}, {"is_disabled": 0, "fusion_lon": 0.0, "fusion_lat": 0.0, "lat": 38.91805216666667, "type": "electric_scooter", "lon": -77.02691133333333, "bike_id": "725feb4b641d49229d882e3c01f69fd4", "rental_uris": {"android": "https://dc.lft.to/lastmile_qr_scan", "ios": "https://dc.lft.to/lastmile_qr_scan"}, "name": "725feb4b641d49229d882e3c01f69fd4", "is_reserved": 0}, {"is_disabled": 0, "fusion_lon": 0.0, "fusion_lat": 0.0, "lat": 38.941763, "type": "electric_scooter", "lon": -77.03653016666667, "bike_id": "2454718d0d507c3bb94e1a2b126fdbe1", "rental_uris": {"android": "https://dc.lft.to/lastmile_qr_scan", "ios": "https://dc.lft.to/lastmile_qr_scan"}, "name": "2454718d0d507c3bb94e1a2b126fdbe1", "is_reserved": 0}, {"is_disabled": 0, "fusion_lon": 0.0, "fusion_lat": 0.0, "lat": 38.923429666666664, "type": "electric_scooter", "lon": -77.03516566666667, "bike_id": "64053c54d88b70faf352fbeee29e4cd4", "rental_uris": {"android": "https://dc.lft.to/lastmile_qr_scan", "ios": "https://dc.lft.to/lastmile_qr_scan"}, "name": "64053c54d88b70faf352fbeee29e4cd4", "is_reserved": 0}, {"is_disabled": 0, "fusion_lon": 0.0, "fusion_lat": 0.0, "lat": 38.91816583333333, "type": "electric_scooter", "lon": -77.04001416666667, "bike_id": "4b465bead9fa368b85a7ab05b9bd2d4d", "rental_uris": {"android": "https://dc.lft.to/lastmile_qr_scan", "ios": "https://dc.lft.to/lastmile_qr_scan"}, "name": "4b465bead9fa368b85a7ab05b9bd2d4d", "is_reserved": 0}, {"is_disabled": 0, "fusion_lon": 0.0, "fusion_lat": 0.0, "lat": 38.89822083333333, "type": "electric_scooter", "lon": -77.00739766666666, "bike_id": "c18f4b0acc8c83bd0ca6ee5f22065137", "rental_uris": {"android": "https://dc.lft.to/lastmile_qr_scan", "ios": "https://dc.lft.to/lastmile_qr_scan"}, "name": "c18f4b0acc8c83bd0ca6ee5f22065137", "is_reserved": 0}, {"is_disabled": 0, "fusion_lon": 0.0, "fusion_lat": 0.0, "lat": 38.922346166666664, "type": "electric_scooter", "lon": -77.02876283333333, "bike_id": "81f5c054263f5bb8dd8a9e67bd537917", "rental_uris": {"android": "https://dc.lft.to/lastmile_qr_scan", "ios": "https://dc.lft.to/lastmile_qr_scan"}, "name": "81f5c054263f5bb8dd8a9e67bd537917", "is_reserved": 0}, {"is_disabled": 0, "fusion_lon": 0.0, "fusion_lat": 0.0, "lat": 38.92340183333334, "type": "electric_scooter", "lon": -77.03514433333333, "bike_id": "d211cbf460af39a2c80431219478ef98", "rental_uris": {"android": "https://dc.lft.to/lastmile_qr_scan", "ios": "https://dc.lft.to/lastmile_qr_scan"}, "name": "d211cbf460af39a2c80431219478ef98", "is_reserved": 0}, {"is_disabled": 0, "fusion_lon": 0.0, "fusion_lat": 0.0, "lat": 38.895978666666664, "type": "electric_scooter", "lon": -77.02938416666667, "bike_id": "8874b1e48cda80d5494edff96f2a4c42", "rental_uris": {"android": "https://dc.lft.to/lastmile_qr_scan", "ios": "https://dc.lft.to/lastmile_qr_scan"}, "name": "8874b1e48cda80d5494edff96f2a4c42", "is_reserved": 0}, {"is_disabled": 0, "fusion_lon": 0.0, "fusion_lat": 0.0, "lat": 38.8318855, "type": "electric_bike", "lon": -77.07683666666667, "bike_id": "30bf3a601a173282c63011804326bfe4", "rental_uris": {"android": "https://dc.lft.to/lastmile_qr_scan", "ios": "https://dc.lft.to/lastmile_qr_scan"}, "name": "30bf3a601a173282c63011804326bfe4", "is_reserved": 0}, {"is_disabled": 0, "fusion_lon": 0.0, "fusion_lat": 0.0, "lat": 38.9026135, "type": "electric_scooter", "lon": -77.03438916666667, "bike_id": "f071e84f6ad01df62932f26e0f6cedef", "rental_uris": {"android": "https://dc.lft.to/lastmile_qr_scan", "ios": "https://dc.lft.to/lastmile_qr_scan"}, "name": "f071e84f6ad01df62932f26e0f6cedef", "is_reserved": 0}, {"is_disabled": 0, "fusion_lon": 0.0, "fusion_lat": 0.0, "lat": 38.913349833333335, "type": "electric_scooter", "lon": -77.04862083333333, "bike_id": "24a49e235195e838b183cf9ea641a870", "rental_uris": {"android": "https://dc.lft.to/lastmile_qr_scan", "ios": "https://dc.lft.to/lastmile_qr_scan"}, "name": "24a49e235195e838b183cf9ea641a870", "is_reserved": 0}, {"is_disabled": 0, "fusion_lon": 0.0, "fusion_lat": 0.0, "lat": 38.912124166666665, "type": "electric_scooter", "lon": -77.051188, "bike_id": "5034ac54cf746ca14cf0b1b1559f661d", "rental_uris": {"android": "https://dc.lft.to/lastmile_qr_scan", "ios": "https://dc.lft.to/lastmile_qr_scan"}, "name": "5034ac54cf746ca14cf0b1b1559f661d", "is_reserved": 0}, {"is_disabled": 0, "fusion_lon": 0.0, "fusion_lat": 0.0, "lat": 38.955517, "type": "electric_bike", "lon": -76.93546383333333, "bike_id": "409fc5624a18c88e8685e07d20d64501", "rental_uris": {"android": "https://dc.lft.to/lastmile_qr_scan", "ios": "https://dc.lft.to/lastmile_qr_scan"}, "name": "409fc5624a18c88e8685e07d20d64501", "is_reserved": 0}, {"is_disabled": 0, "fusion_lon": 0.0, "fusion_lat": 0.0, "lat": 38.8331385, "type": "electric_scooter", "lon": -77.00004233333334, "bike_id": "941e6d3ef0cdcf345229093c0783ed58", "rental_uris": {"android": "https://dc.lft.to/lastmile_qr_scan", "ios": "https://dc.lft.to/lastmile_qr_scan"}, "name": "941e6d3ef0cdcf345229093c0783ed58", "is_reserved": 0}, {"is_disabled": 0, "fusion_lon": 0.0, "fusion_lat": 0.0, "lat": 38.828547666666665, "type": "electric_bike", "lon": -77.112301, "bike_id": "6af8bfb2bd0c9466f6fc6eb0565cd815", "rental_uris": {"android": "https://dc.lft.to/lastmile_qr_scan", "ios": "https://dc.lft.to/lastmile_qr_scan"}, "name": "6af8bfb2bd0c9466f6fc6eb0565cd815", "is_reserved": 0}, {"is_disabled": 0, "fusion_lon": 0.0, "fusion_lat": 0.0, "lat": 38.91705283333334, "type": "electric_scooter", "lon": -77.02435383333334, "bike_id": "526b5ad77a0f1fb090c0733a1ea21766", "rental_uris": {"android": "https://dc.lft.to/lastmile_qr_scan", "ios": "https://dc.lft.to/lastmile_qr_scan"}, "name": "526b5ad77a0f1fb090c0733a1ea21766", "is_reserved": 0}, {"is_disabled": 0, "fusion_lon": 0.0, "fusion_lat": 0.0, "lat": 38.925853333333336, "type": "electric_scooter", "lon": -77.055386, "bike_id": "2af26a6ee777335282edb42b5e67cf94", "rental_uris": {"android": "https://dc.lft.to/lastmile_qr_scan", "ios": "https://dc.lft.to/lastmile_qr_scan"}, "name": "2af26a6ee777335282edb42b5e67cf94", "is_reserved": 0},