{"data": {"bikes": [{"is_reserved": 0, "type": "electric_scooter", "bike_id": "6a0799eeb942f0e70a3bb437c70e37bf", "lat": 38.933572833333336, "lon": -77.0572105, "rental_uris": {"android": "https://dc.lft.to/lastmile_qr_scan", "ios": "https://dc.lft.to/lastmile_qr_scan"}, "is_disabled": 0, "fusion_lat": 0.0, "name": "6a0799eeb942f0e70a3bb437c70e37bf", "fusion_lon": 0.0}, {"is_reserved": 0, "type": "electric_scooter", "bike_id": "6b986edf6247a319c66571e1ad27a475", "lat": 38.918225666666665, "lon": -77.01207966666666, "rental_uris": {"android": "https://dc.lft.to/lastmile_qr_scan", "ios": "https://dc.lft.to/lastmile_qr_scan"}, "is_disabled": 0, "fusion_lat": 0.0, "name": "6b986edf6247a319c66571e1ad27a475", "fusion_lon": 0.0}, {"is_reserved": 0, "type": "electric_scooter", "bike_id": "edbd383bf82301428b251fca4f324dcd", "lat": 38.898909, "lon": -77.00731833333333, "rental_uris": {"android": "https://dc.lft.to/lastmile_qr_scan", "ios": "https://dc.lft.to/lastmile_qr_scan"}, "is_disabled": 0, "fusion_lat": 0.0, "name": "edbd383bf82301428b251fca4f324dcd", "fusion_lon": 0.0}, {"is_reserved": 0, "type": "electric_scooter", "bike_id": "2439d5d55c317fe7a0b5ce1702f2639a", "lat": 38.92633466666667, "lon": -77.042471, "rental_uris": {"android": "https://dc.lft.to/lastmile_qr_scan", "ios": "https://dc.lft.to/lastmile_qr_scan"}, "is_disabled": 0, "fusion_lat": 0.0, "name": "2439d5d55c317fe7a0b5ce1702f2639a", "fusion_lon": 0.0}, {"is_reserved": 0, "type": "electric_scooter", "bike_id": "8f4912bb795a2a83076db299bd3e5e76", "lat": 38.894365, "lon": -77.02635566666666, "rental_uris": {"android": "https://dc.lft.to/lastmile_qr_scan", "ios": "https://dc.lft.to/lastmile_qr_scan"}, "is_disabled": 0, "fusion_lat": 0.0, "name": "8f4912bb795a2a83076db299bd3e5e76", "fusion_lon": 0.0}, {"is_reserved": 0, "type": "electric_scooter", "bike_id": "4998fac9f4c187536de6147a39cf6d9e", "lat": 38.92402883333333, "lon": -77.0425915, "rental_uris": {"android": "https://dc.lft.to/lastmile_qr_scan", "ios": "https://dc.lft.to/lastmile_qr_scan"}, "is_disabled": 0, "fusion_lat": 0.0, "name": "4998fac9f4c187536de6147a39cf6d9e", "fusion_lon": 0.0}, {"is_reserved": 0, "type": "electric_scooter", "bike_id": "a0fa787714c09b6694443e995efbb419", "lat": 38.943244666666665, "lon": -77.012548, "rental_uris": {"android": "https://dc.lft.to/lastmile_qr_scan", "ios": "https://dc.lft.to/lastmile_qr_scan"}, "is_disabled": 0, "fusion_lat": 0.0, "name": "a0fa787714c09b6694443e995efbb419", "fusion_lon": 0.0}, {"is_reserved": 0, "type": "electric_scooter", "bike_id": "ba952cea26d7d1b92424b006bec2fe37", "lat": 38.90896333333333, "lon": -76.99619266666667, "rental_uris": {"android": "https://dc.lft.to/lastmile_qr_scan", "ios": "https://dc.lft.to/lastmile_qr_scan"}, "is_disabled": 0, "fusion_lat": 0.0, "name": "ba952cea26d7d1b92424b006bec2fe37", "fusion_lon": 0.0}, {"is_reserved": 0, "type": "electric_scooter", "bike_id": "953d11e3c0516d0d969a90ce21bcefdd", "lat": 38.93704533333333, "lon": -77.02400383333334, "rental_uris": {"android": "https://dc.lft.to/lastmile_qr_scan", "ios": "https://dc.lft.to/lastmile_qr_scan"}, "is_disabled": 0, "fusion_lat": 0.0, "name": "953d11e3c0516d0d969a90ce21bcefdd", "fusion_lon": 0.0}, {"is_reserved": 0, "type": "electric_scooter", "bike_id": "5ec7c59f3339fe24e4c215c6d2b1101b", "lat": 38.90590866666667, "lon": -77.02977583333333, "rental_uris": {"android": "https://dc.lft.to/lastmile_qr_scan", "ios": "https://dc.lft.to/lastmile_qr_scan"}, "is_disabled": 0, "fusion_lat": 0.0, "name": "5ec7c59f3339fe24e4c215c6d2b1101b", "fusion_lon": 0.0}, {"is_reserved": 0, "type": "electric_scooter", "bike_id": "57b8c5ac82ceefe35b12d4e89121b6be", "lat": 38.97516366666667, "lon": -77.0173865, "rental_uris": {"android": "https://dc.lft.to/lastmile_qr_scan", "ios": "https://dc.lft.to/lastmile_qr_scan"}, "is_disabled": 0, "fusion_lat": 0.0, "name": "57b8c5ac82ceefe35b12d4e89121b6be", "fusion_lon": 0.0}, {"is_reserved": 0, "type": "electric_scooter", "bike_id": "e36cee750875345e4877982e4e95b1aa", "lat": 38.943242, "lon": -77.06522166666667, "rental_uris": {"android": "https://dc.lft.to/lastmile_qr_scan", "ios": "https://dc.lft.to/lastmile_qr_scan"}, "is_disabled": 0, "fusion_lat": 0.0, "name": "e36cee750875345e4877982e4e95b1aa", "fusion_lon": 0.0}, {"is_reserved": 0, "type": "electric_scooter", "bike_id": "83b075017099b2b464cdc5abc4e22927", "lat": 38.8838065, "lon": -77.04606066666666, "rental_uris": {"android": "https://dc.lft.to/lastmile_qr_scan", "ios": "https://dc.lft.to/lastmile_qr_scan"}, "is_disabled": 0, "fusion_lat": 0.0, "name": "83b075017099b2b464cdc5abc4e22927", "fusion_lon": 0.0}, {"is_reserved": 0, "type": "electric_scooter", "bike_id": "3f71df69feaa8e022dbefc56d90665bd", "lat": 38.92342583333333, "lon": -77.05234233333333, "rental_uris": {"android": "https://dc.lft.to/lastmile_qr_scan", "ios": "https://dc.lft.to/lastmile_qr_scan"}, "is_disabled": 0, "fusion_lat": 0.0, "name": "3f71df69feaa8e022dbefc56d90665bd", "fusion_lon": 0.0}, {"is_reserved": 0, "type": "electric_scooter", "bike_id": "43fd3da3b36c8239bdba45e655b155f9", "lat": 38.89227266666666, "lon": -77.04486516666667, "rental_uris": {"android": "https://dc.lft.to/lastmile_qr_scan", "ios": "https://dc.lft.to/lastmile_qr_scan"}, "is_disabled": 0, "fusion_lat": 0.0, "name": "43fd3da3b36c8239bdba45e655b155f9", "fusion_lon": 0.0}, {"is_reserved": 0, "type": "electric_scooter", "bike_id": "696e9578e0d535944a530535b07fbd31", "lat": 38.93568966666667, "lon": -77.03260166666666, "rental_uris": {"android": "https://dc.lft.to/lastmile_qr_scan", "ios": "https://dc.lft.to/lastmile_qr_scan"}, "is_disabled": 0, "fusion_lat": 0.0, "name": "696e9578e0d535944a530535b07fbd31", "fusion_lon": 0.0}, {"is_reserved": 0, "type": "electric_scooter", "bike_id": "13a354511029e9a8cb2a30a441f3e8bb", "lat": 38.9239135, "lon": -77.0505195, "rental_uris": {"android": "https://dc.lft.to/lastmile_qr_scan", "ios": "https://dc.lft.to/lastmile_qr_scan"}, "is_disabled": 0, "fusion_lat": 0.0, "name": "13a354511029e9a8cb2a30a441f3e8bb", "fusion_lon": 0.0}, {"is_reserved": 0, "type": "electric_scooter", "bike_id": "1f4001784a6f3610b7befb84db3364f8", "lat": 38.900399166666666, "lon": -76.98834066666667, "rental_uris": {"android": "https://dc.lft.to/lastmile_qr_scan", "ios": "https://dc.lft.to/lastmile_qr_scan"}, "is_disabled": 0, "fusion_lat": 0.0, "name": "1f4001784a6f3610b7befb84db3364f8", "fusion_lon": 0.0}, {"is_reserved": 0, "type": "electric_scooter", "bike_id": "04471acefca7e637be8b87a9a160cb6c", "lat": 38.8922415, "lon": -77.04490433333333, "rental_uris": {"android": "https://dc.lft.to/lastmile_qr_scan", "ios": "https://dc.lft.to/lastmile_qr_scan"}, "is_disabled": 0, "fusion_lat": 0.0, "name": "04471acefca7e637be8b87a9a160cb6c", "fusion_lon": 0.0}, {"is_reserved": 0, "type": "electric_scooter", "bike_id": "00ba93d2b9ffbdcee2549e569621b6d5", "lat": 38.90091533333333, "lon": -77.02332583333333, "rental_uris": {"android": "https://dc.lft.to/lastmile_qr_scan", "ios": "https://dc.lft.to/lastmile_qr_scan"}, "is_disabled": 0, "fusion_lat": 0.0, "name": "00ba93d2b9ffbdcee2549e569621b6d5", "fusion_lon": 0.0}, {"is_reserved": 0, "type": "electric_bike", "bike_id": "11c5a56ad46aa969d4f2dece55ba4b71", "lat": 38.79332483333334, "lon": -77.000557, "rental_uris": {"android": "https://dc.lft.to/lastmile_qr_scan", "ios": "https://dc.lft.to/lastmile_qr_scan"}, "is_disabled": 0, "fusion_lat": 0.0, "name": "11c5a56ad46aa969d4f2dece55ba4b71", "fusion_lon": 0.0}, {"is_reserved": 0, "type": "electric_scooter", "bike_id": "a5c462102e93d378048b36a537718340", "lat": 38.92482483333333, "lon": -77.027222, "rental_uris": {"android": "https://dc.lft.to/lastmile_qr_scan", "ios": "https://dc.lft.to/lastmile_qr_scan"}, "is_disabled": 0, "fusion_lat": 0.0, "name": "a5c462102e93d378048b36a537718340", "fusion_lon": 0.0}, {"is_reserved": 0, "type": "electric_scooter", "bike_id": "f58d102434d82128cb84440e2ae451e1", "lat": 38.9129075, "lon": -77.02300083333333, "rental_uris": {"android": "https://dc.lft.to/lastmile_qr_scan", "ios": "https://dc.lft.to/lastmile_qr_scan"}, "is_disabled": 0, "fusion_lat": 0.0, "name": "f58d102434d82128cb84440e2ae451e1", "fusion_lon": 0.0}, {"is_reserved": 0, "type": "electric_scooter", "bike_id": "cc6544c3723a598258c7626b14e56106", "lat": 38.927037166666665, "lon": -77.0026545, "rental_uris": {"android": "https://dc.lft.to/lastmile_qr_scan", "ios": "https://dc.lft.to/lastmile_qr_scan"}, "is_disabled": 0, "fusion_lat": 0.0, "name": "cc6544c3723a598258c7626b14e56106", "fusion_lon": 0.0}, {"is_reserved": 0, "type": "electric_scooter", "bike_id": "cb29b2e61aba7b4234026ef116051154", "lat": 38.873382166666666, "lon": -76.99168833333333, "rental_uris": {"android": "https://dc.lft.to/lastmile_qr_scan", "ios": "https://dc.lft.to/lastmile_qr_scan"}, "is_disabled": 0, "fusion_lat": 0.0, "name": "cb29b2e61aba7b4234026ef116051154", "fusion_lon": 0.0}, {"is_reserved": 0, "type": "electric_scooter", "bike_id": "3592ac86d790c3a38c4266ef5912250e", "lat": 38.894282, "lon": -77.0209555, "rental_uris": {"android": "https://dc.lft.to/lastmile_qr_scan", "ios": "https://dc.lft.to/lastmile_qr_scan"}, "is_disabled": 0, "fusion_lat": 0.0, "name": "3592ac86d790c3a38c4266ef5912250e", "fusion_lon": 0.0}, {"is_reserved": 0, "type": "electric_scooter", "bike_id": "63cca972aba6f057e9dad86d6699231d", "lat": 38.91252933333333, "lon": -77.0016065, "rental_uris": {"android": "https://dc.lft.to/lastmile_qr_scan", "ios": "https://dc.lft.to/lastmile_qr_scan"}, "is_disabled": 0, "fusion_lat": 0.0, "name": "63cca972aba6f057e9dad86d6699231d", "fusion_lon": 0.0}, {"is_reserved": 0, "type": "electric_scooter", "bike_id": "6bc277bb08344273b811cfe22ca3a6e8", "lat": 38.89227733333333, "lon": -77.050009, "rental_uris": {"android": "https://dc.lft.to/lastmile_qr_scan", "ios": "https://dc.lft.to/lastmile_qr_scan"}, "is_disabled": 0, "fusion_lat": 0.0, "name": "6bc277bb08344273b811cfe22ca3a6e8", "fusion_lon": 0.0}, {"is_reserved": 0, "type": "electric_scooter", "bike_id": "0f51d410f6faa35e150f754860b244f7", "lat": 38.89236416666667, "lon": -77.04892266666667, "rental_uris": {"android": "https://dc.lft.to/lastmile_qr_scan", "ios": "https://dc.lft.to/lastmile_qr_scan"}, "is_disabled": 0, "fusion_lat": 0.0, "name": "0f51d410f6faa35e150f754860b244f7", "fusion_lon": 0.0}, {"is_reserved": 0, "type": "electric_scooter", "bike_id": "4268cbdb5effaa75a2423d163cf971fd", "lat": 38.90338033333333, "lon": -77.02004033333333, "rental_uris": {"android": "https://dc.lft.to/lastmile_qr_scan", "ios": "https://dc.lft.to/lastmile_qr_scan"}, "is_disabled": 0, "fusion_lat": 0.0, "name": "4268cbdb5effaa75a2423d163cf971fd", "fusion_lon": 0.0}, {"is_reserved": 0, "type": "electric_scooter", "bike_id": "4bf987f5cf370f68067443108427fbc5", "lat": 38.905595166666664, "lon": -77.00424516666666, "rental_uris": {"android": "https://dc.lft.to/lastmile_qr_scan", "ios": "https://dc.lft.to/lastmile_qr_scan"}, "is_disabled": 0, "fusion_lat": 0.0, "name": "4bf987f5cf370f68067443108427fbc5", "fusion_lon": 0.0}, {"is_reserved": 0, "type": "electric_scooter", "bike_id": "722d49db9f4d8c13176c4d7b7c004850", "lat": 38.87467133333333, "lon": -77.00544916666666, "rental_uris": {"android": "https://dc.lft.to/lastmile_qr_scan", "ios": "https://dc.lft.to/lastmile_qr_scan"}, "is_disabled": 0, "fusion_lat": 0.0, "name": "722d49db9f4d8c13176c4d7b7c004850", "fusion_lon": 0.0}, {"is_reserved": 0, "type": "electric_scooter", "bike_id": "4d244d7c0a55d56e0010c516ca532ee3", "lat": 38.932266166666665, "lon": -76.99746866666666, "rental_uris": {"android": "https://dc.lft.to/lastmile_qr_scan", "ios": "https://dc.lft.to/lastmile_qr_scan"}, "is_disabled": 0, "fusion_lat": 0.0, "name": "4d244d7c0a55d56e0010c516ca532ee3", "fusion_lon": 0.0}, {"is_reserved": 0, "type": "electric_scooter", "bike_id": "55067456208ce5cd03b1650ecf37c0b2", "lat": 38.896180333333334, "lon": -76.99726483333333, "rental_uris": {"android": "https://dc.lft.to/lastmile_qr_scan", "ios": "https://dc.lft.to/lastmile_qr_scan"}, "is_disabled": 0, "fusion_lat": 0.0, "name": "55067456208ce5cd03b1650ecf37c0b2", "fusion_lon": 0.0}, {"is_reserved": 0, "type": "electric_scooter", "bike_id": "57f1a1a7683dcba2d50e11c74255d547", "lat": 38.89222133333333, "lon": -77.03186216666667, "rental_uris": {"android": "https://dc.lft.to/lastmile_qr_scan", "ios": "https://dc.lft.to/lastmile_qr_scan"}, "is_disabled": 0, "fusion_lat": 0.0, "name": "57f1a1a7683dcba2d50e11c74255d547", "fusion_lon": 0.0}, {"is_reserved": 0, "type": "electric_scooter", "bike_id": "a895e50eaf1f2c1c63346728ca46eb51", "lat": 38.916454, "lon": -77.0217755, "rental_uris": {"android": "https://dc.lft.to/lastmile_qr_scan", "ios": "https://dc.lft.to/lastmile_qr_scan"}, "is_disabled": 0, "fusion_lat": 0.0, "name": "a895e50eaf1f2c1c63346728ca46eb51", "fusion_lon": 0.0}, {"is_reserved": 0, "type": "electric_scooter", "bike_id": "3ab2d17de454c18e7e2accaa6f8a7b37", "lat": 38.89006633333333, "lon": -76.93739883333333, "rental_uris": {"android": "https://dc.lft.to/lastmile_qr_scan", "ios": "https://dc.lft.to/lastmile_qr_scan"}, "is_disabled": 0, "fusion_lat": 0.0, "name": "3ab2d17de454c18e7e2accaa6f8a7b37", "fusion_lon": 0.0}, {"is_reserved": 0, "type": "electric_bike", "bike_id": "4263488d6ca5a15a5ad43c929f402a20", "lat": 38.85787083333334, "lon": -77.099604, "rental_uris": {"android": "https://dc.lft.to/lastmile_qr_scan", "ios": "https://dc.lft.to/lastmile_qr_scan"}, "is_disabled": 0, "fusion_lat": 0.0, "name": "4263488d6ca5a15a5ad43c929f402a20", "fusion_lon": 0.0}, {"is_reserved": 0, "type": "electric_scooter", "bike_id": "dfd04a038c5c3d261c14099727c36369", "lat": 38.923952666666665, "lon": -77.05059883333334, "rental_uris": {"android": "https://dc.lft.to/lastmile_qr_scan", "ios": "https://dc.lft.to/lastmile_qr_scan"}, "is_disabled": 0, "fusion_lat": 0.0, "name": "dfd04a038c5c3d261c14099727c36369", "fusion_lon": 0.0}, {"is_reserved": 0, "type": "electric_scooter", "bike_id": "1b986f7093f8a4d2cc52f937263b94d8", "lat": 38.883709333333336, "lon": -76.99514916666666, "rental_uris": {"android": "https://dc.lft.to/lastmile_qr_scan", "ios": "https://dc.lft.to/lastmile_qr_scan"}, "is_disabled": 0, "fusion_lat": 0.0, "name": "1b986f7093f8a4d2cc52f937263b94d8", "fusion_lon": 0.0}, {"is_reserved": 0, "type": "electric_scooter", "bike_id": "667081841c87707eb664eda0124aaeb1", "lat": 38.923615166666664, "lon": -77.05108466666667, "rental_uris": {"android": "https://dc.lft.to/lastmile_qr_scan", "ios": "https://dc.lft.to/lastmile_qr_scan"}, "is_disabled": 0, "fusion_lat": 0.0, "name": "667081841c87707eb664eda0124aaeb1", "fusion_lon": 0.0}, {"is_reserved": 0, "type": "electric_scooter", "bike_id": "9ebef1131451e43c88366685ea8d66eb", "lat": 38.917991666666666, "lon": -77.0269695, "rental_uris": {"android": "https://dc.lft.to/lastmile_qr_scan", "ios": "https://dc.lft.to/lastmile_qr_scan"}, "is_disabled": 0, "fusion_lat": 0.0, "name": "9ebef1131451e43c88366685ea8d66eb", "fusion_lon": 0.0}, {"is_reserved": 0, "type": "electric_scooter", "bike_id": "6d3b6b10d733b8ea2916ddd21932dfc1", "lat": 38.897236, "lon": -77.02752866666667, "rental_uris": {"android": "https://dc.lft.to/lastmile_qr_scan", "ios": "https://dc.lft.to/lastmile_qr_scan"}, "is_disabled": 0, "fusion_lat": 0.0, "name": "6d3b6b10d733b8ea2916ddd21932dfc1", "fusion_lon": 0.0}, {"is_reserved": 0, "type": "electric_scooter", "bike_id": "f7790b22922ee6e9f5a83a50f0fd1fae", "lat": 38.921213, "lon": -77.0189385, "rental_uris": {"android": "https://dc.lft.to/lastmile_qr_scan", "ios": "https://dc.lft.to/lastmile_qr_scan"}, "is_disabled": 0, "fusion_lat": 0.0, "name": "f7790b22922ee6e9f5a83a50f0fd1fae", "fusion_lon": 0.0}, {"is_reserved": 0, "type": "electric_scooter", "bike_id": "a3827f3a0f14a1c1d618c54452c5e3de", "lat": 38.9307355, "lon": -77.0281715, "rental_uris": {"android": "https://dc.lft.to/lastmile_qr_scan", "ios": "https://dc.lft.to/lastmile_qr_scan"}, "is_disabled": 0, "fusion_lat": 0.0, "name": "a3827f3a0f14a1c1d618c54452c5e3de", "fusion_lon": 0.0}, {"is_reserved": 0, "type": "electric_scooter", "bike_id": "b5f22676149ac130adebb5b5ee886e12", "lat": 38.90738733333333, "lon": -77.00798066666667, "rental_uris": {"android": "https://dc.lft.to/lastmile_qr_scan", "ios": "https://dc.lft.to/lastmile_qr_scan"}, "is_disabled": 0, "fusion_lat": 0.0, "name": "b5f22676149ac130adebb5b5ee886e12", "fusion_lon": 0.0}, {"is_reserved": 0, "type": "electric_bike", "bike_id": "fa85af670a7e8da4d83542fd758917f4", "lat": 38.9456155, "lon": -76.95837083333333, "rental_uris": {"android": "https://dc.lft.to/lastmile_qr_scan", "ios": "https://dc.lft.to/lastmile_qr_scan"}, "is_disabled": 0, "fusion_lat": 0.0, "name": "fa85af670a7e8da4d83542fd758917f4", "fusion_lon": 0.0}, {"is_reserved": 0, "type": "electric_scooter", "bike_id": "d81301280dbfc5af082bca7340287c49", "lat": 38.9168645, "lon": -77.036223, "rental_uris": {"android": "https://dc.lft.to/lastmile_qr_scan", "ios": "https://dc.lft.to/lastmile_qr_scan"}, "is_disabled": 0, "fusion_lat": 0.0, "name": "d81301280dbfc5af082bca7340287c49", "fusion_lon": 0.0}, {"is_reserved": 0, "type": "electric_bike", "bike_id": "8e6fd68d58cf2199426978a203551652", "lat": 38.958715833333336, "lon": -76.9704865, "rental_uris": {"android": "https://dc.lft.to/lastmile_qr_scan", "ios": "https://dc.lft.to/lastmile_qr_scan"}, "is_disabled": 0, "fusion_lat": 0.0, "name": "8e6fd68d58cf2199426978a203551652", "fusion_lon": 0.0}, {"is_reserved": 0, "type": "electric_scooter", "bike_id": "a9a1034c1f905ed9a28db424b811d8d2", "lat": 38.90502, "lon": -77.02945166666667, "rental_uris": {"android": "https://dc.lft.to/lastmile_qr_scan", "ios": "https://dc.lft.to/lastmile_qr_scan"}, "is_disabled": 0, "fusion_lat": 0.0, "name": "a9a1034c1f905ed9a28db424b811d8d2", "fusion_lon": 0.0}, {"is_reserved": 0, "type": "electric_scooter", "bike_id": "43285640eb434632ac74741ef1e05a3b", "lat": 38.8921835, "lon": -77.03186916666667, "rental_uris": {"android": "https://dc.lft.to/lastmile_qr_scan", "ios": "https://dc.lft.to/lastmile_qr_scan"}, "is_disabled": 0, "fusion_lat": 0.0, "name": "43285640eb434632ac74741ef1e05a3b", "fusion_lon": 0.0}, {"is_reserved": 0, "type": "electric_scooter", "bike_id": "d5b05a12a98f9cfbcbfc7db71c77659a", "lat": 38.8992655, "lon": -76.94579183333333, "rental_uris": {"android": "https://dc.lft.to/lastmile_qr_scan", "ios": "https://dc.lft.to/lastmile_qr_scan"}, "is_disabled": 0, "fusion_lat": 0.0, "name": "d5b05a12a98f9cfbcbfc7db71c77659a", "fusion_lon": 0.0}, {"is_reserved": 0, "type": "electric_scooter", "bike_id": "dde3c83438e572872b21bb367add873d", "lat": 38.90448766666667, "lon": -77.0585105, "rental_uris": {"android": "https://dc.lft.to/lastmile_qr_scan", "ios": "https://dc.lft.to/lastmile_qr_scan"}, "is_disabled": 0, "fusion_lat": 0.0, "name": "dde3c83438e572872b21bb367add873d", "fusion_lon": 0.0}, {"is_reserved": 0, "type": "electric_scooter", "bike_id": "346a01bd1ca365256e829561d728d4e8", "lat": 38.92433066666667, "lon": -77.04035083333333, "rental_uris": {"android": "https://dc.lft.to/lastmile_qr_scan", "ios": "https://dc.lft.to/lastmile_qr_scan"}, "is_disabled": 0, "fusion_lat": 0.0, "name": "346a01bd1ca365256e829561d728d4e8", "fusion_lon": 0.0}, {"is_reserved": 0, "type": "electric_scooter", "bike_id": "4aee9b4ff9b5892db5ec7d9e67f23b48", "lat": 38.90268433333333, "lon": -77.00324083333334, "rental_uris": {"android": "https://dc.lft.to/lastmile_qr_scan", "ios": "https://dc.lft.to/lastmile_qr_scan"}, "is_disabled": 0, "fusion_lat": 0.0, "name": "4aee9b4ff9b5892db5ec7d9e67f23b48", "fusion_lon": 0.0}, {"is_reserved": 0, "type": "electric_scooter", "bike_id": "320f86f64bbd9502d1078375ff18e1b9", "lat": 38.91648033333333, "lon": -77.0217665, "rental_uris": {"android": "https://dc.lft.to/lastmile_qr_scan", "ios": "https://dc.lft.to/lastmile_qr_scan"}, "is_disabled": 0, "fusion_lat": 0.0, "name": "320f86f64bbd9502d1078375ff18e1b9", "fusion_lon": 0.0}, {"is_reserved": 0, "type": "electric_scooter", "bike_id": "de78a1ce00ae516e22d1bbd505dac78a", "lat": 38.908675, "lon": -77.00186283333333, "rental_uris": {"android": "https://dc.lft.to/lastmile_qr_scan", "ios": "https://dc.lft.to/lastmile_qr_scan"}, "is_disabled": 0, "fusion_lat": 0.0, "name": "de78a1ce00ae516e22d1bbd505dac78a", "fusion_lon": 0.0}, {"is_reserved": 0, "type": "electric_scooter", "bike_id": "e45e3e53351764f99e7123b0d4345937", "lat": 38.92447133333334, "lon": -77.02027666666666, "rental_uris": {"android": "https://dc.lft.to/lastmile_qr_scan", "ios": "https://dc.lft.to/lastmile_qr_scan"}, "is_disabled": 0, "fusion_lat": 0.0, "name": "e45e3e53351764f99e7123b0d4345937", "fusion_lon": 0.0}, {"is_reserved": 0, "type": "electric_scooter", "bike_id": "0cded765b48a96b3e585d62531852ec3", "lat": 38.917979, "lon": -77.03185666666667, "rental_uris": {"android": "https://dc.lft.to/lastmile_qr_scan", "ios": "https://dc.lft.to/lastmile_qr_scan"}, "is_disabled": 0, "fusion_lat": 0.0, "name": "0cded765b48a96b3e585d62531852ec3", "fusion_lon": 0.0}, {"is_reserved": 0, "type": "electric_scooter", "bike_id": "ff23143bd364f5e3901cf37532295cb2", "lat": 38.9400445, "lon": -77.02740416666667, "rental_uris": {"android": "https://dc.lft.to/lastmile_qr_scan", "ios": "https://dc.lft.to/lastmile_qr_scan"}, "is_disabled": 0, "fusion_lat": 0.0, "name": "ff23143bd364f5e3901cf37532295cb2", "fusion_lon": 0.0}, {"is_reserved": 0, "type": "electric_scooter", "bike_id": "ce1eb85d3705814e426345686871346f", "lat": 38.911091, "lon": -77.03295316666667, "rental_uris": {"android": "https://dc.lft.to/lastmile_qr_scan", "ios": "https://dc.lft.to/lastmile_qr_scan"}, "is_disabled": 0, "fusion_lat": 0.0, "name": "ce1eb85d3705814e426345686871346f", "fusion_lon": 0.0}, {"is_reserved": 0, "type": "electric_scooter", "bike_id": "a2f1f60551987c322b1a5c488460761c", "lat": 38.92751883333333, "lon": -77.02424483333333, "rental_uris": {"android": "https://dc.lft.to/lastmile_qr_scan", "ios": "https://dc.lft.to/lastmile_qr_scan"}, "is_disabled": 0, "fusion_lat": 0.0, "name": "a2f1f60551987c322b1a5c488460761c", "fusion_lon": 0.0}, {"is_reserved": 0, "type": "electric_scooter", "bike_id": "fdd25c62a55017336027fe3af9297eac", "lat": 38.92144866666667, "lon": -77.03503833333333, "rental_uris": {"android": "https://dc.lft.to/lastmile_qr_scan", "ios": "https://dc.lft.to/lastmile_qr_scan"}, "is_disabled": 0, "fusion_lat": 0.0, "name": "fdd25c62a55017336027fe3af9297eac", "fusion_lon": 0.0}, {"is_reserved": 0, "type": "electric_scooter", "bike_id": "20d9f8e2d367f4b8cf0dd87203ef75bb", "lat": 38.92362466666667, "lon": -77.04311883333334, "rental_uris": {"android": "https://dc.lft.to/lastmile_qr_scan", "ios": "https://dc.lft.to/lastmile_qr_scan"}, "is_disabled": 0, "fusion_lat": 0.0, "name": "20d9f8e2d367f4b8cf0dd87203ef75bb", "fusion_lon": 0.0}, {"is_reserved": 0, "type": "electric_scooter", "bike_id": "f9b8dababcc9e90553b1082b4bd936b1", "lat": 38.892286166666665, "lon": -77.01766366666666, "rental_uris": {"android": "https://dc.lft.to/lastmile_qr_scan", "ios": "https://dc.lft.to/lastmile_qr_scan"}, "is_disabled": 0, "fusion_lat": 0.0, "name": "f9b8dababcc9e90553b1082b4bd936b1", "fusion_lon": 0.0}, {"is_reserved": 0, "type": "electric_bike", "bike_id": "09b7a70dff79ec0bb96864a93f4b0a7d", "lat": 38.90897183333333, "lon": -77.07276883333333, "rental_uris": {"android": "https://dc.lft.to/lastmile_qr_scan", "ios": "https://dc.lft.to/lastmile_qr_scan"}, "is_disabled": 0, "fusion_lat": 0.0, "name": "09b7a70dff79ec0bb96864a93f4b0a7d", "fusion_lon": 0.0}, {"is_reserved": 0, "type": "electric_scooter", "bike_id": "f086eced9eb2f00ae163605631b01f2d", "lat": 38.9518315, "lon": -77.0261315, "rental_uris": {"android": "https://dc.lft.to/lastmile_qr_scan", "ios": "https://dc.lft.to/lastmile_qr_scan"}, "is_disabled": 0, "fusion_lat": 0.0, "name": "f086eced9eb2f00ae163605631b01f2d", "fusion_lon": 0.0}, {"is_reserved": 0, "type": "electric_scooter", "bike_id": "92354b6d1951aee85f4942c0555fa8ca", "lat": 38.9065, "lon": -77.075587, "rental_uris": {"android": "https://dc.lft.to/lastmile_qr_scan", "ios": "https://dc.lft.to/lastmile_qr_scan"}, "is_disabled": 0, "fusion_lat": 0.0, "name": "92354b6d1951aee85f4942c0555fa8ca", "fusion_lon": 0.0}, {"is_reserved": 0, "type": "electric_scooter", "bike_id": "4d7dea23f9d74f403ab9ea52702012e7", "lat": 38.9226065, "lon": -77.03659733333333, "rental_uris": {"android": "https://dc.lft.to/lastmile_qr_scan", "ios": "https://dc.lft.to/lastmile_qr_scan"}, "is_disabled": 0, "fusion_lat": 0.0, "name": "4d7dea23f9d74f403ab9ea52702012e7", "fusion_lon": 0.0}, {"is_reserved": 0, "type": "electric_scooter", "bike_id": "64c826082a318483477d745f0a3ec4b2", "lat": 38.90578266666667, "lon": -76.98432233333334, "rental_uris": {"android": "https://dc.lft.to/lastmile_qr_scan", "ios": "https://dc.lft.to/lastmile_qr_scan"}, "is_disabled": 0, "fusion_lat": 0.0, "name": "64c826082a318483477d745f0a3ec4b2", "fusion_lon": 0.0}, {"is_reserved": 0, "type": "electric_scooter", "bike_id": "95cdfa0bf43022d32d447cab688b5236", "lat": 38.93699516666667, "lon": -77.05598033333334, "rental_uris": {"android": "https://dc.lft.to/lastmile_qr_scan", "ios": "https://dc.lft.to/lastmile_qr_scan"}, "is_disabled": 0, "fusion_lat": 0.0, "name": "95cdfa0bf43022d32d447cab688b5236", "fusion_lon": 0.0}, {"is_reserved": 0, "type": "electric_scooter", "bike_id": "c57ad186eb2fbb6b79db6740a9acdd86", "lat": 38.90972516666667, "lon": -77.02403533333333, "rental_uris": {"android": "https://dc.lft.to/lastmile_qr_scan", "ios": "https://dc.lft.to/lastmile_qr_scan"}, "is_disabled": 0, "fusion_lat": 0.0, "name": "c57ad186eb2fbb6b79db6740a9acdd86", "fusion_lon": 0.0}, {"is_reserved": 0, "type": "electric_scooter", "bike_id": "3e75486b4a1fed14d3d3ffe19d0d5385", "lat": 38.895053, "lon": -77.0219905, "rental_uris": {"android": "https://dc.lft.to/lastmile_qr_scan", "ios": "https://dc.lft.to/lastmile_qr_scan"}, "is_disabled": 0, "fusion_lat": 0.0, "name": "3e75486b4a1fed14d3d3ffe19d0d5385", "fusion_lon": 0.0}, {"is_reserved": 0, "type": "electric_scooter", "bike_id": "b0b806a07bdc9375854aa34eb08934d4", "lat": 38.89509966666667, "lon": -76.9921995, "rental_uris": {"android": "https://dc.lft.to/lastmile_qr_scan", "ios": "https://dc.lft.to/lastmile_qr_scan"}, "is_disabled": 0, "fusion_lat": 0.0, "name": "b0b806a07bdc9375854aa34eb08934d4", "fusion_lon": 0.0}, {"is_reserved": 0, "type": "electric_scooter", "bike_id": "8720466dd194f8a4e805e560b67438d9", "lat": 38.887452333333336, "lon": -76.98357016666667, "rental_uris": {"android": "https://dc.lft.to/lastmile_qr_scan", "ios": "https://dc.lft.to/lastmile_qr_scan"}, "is_disabled": 0, "fusion_lat": 0.0, "name": "8720466dd194f8a4e805e560b67438d9", "fusion_lon": 0.0}, {"is_reserved": 0, "type": "electric_scooter", "bike_id": "b3c2b418f120c11e4e88cae8d477e805", "lat": 38.89968066666667, "lon": -77.0231495, "rental_uris": {"android": "https://dc.lft.to/lastmile_qr_scan", "ios": "https://dc.lft.to/lastmile_qr_scan"}, "is_disabled": 0, "fusion_lat": 0.0, "name": "b3c2b418f120c11e4e88cae8d477e805", "fusion_lon": 0.0}, {"is_reserved": 0, "type": "electric_bike", "bike_id": "329b40ff7d8e466dc9ffc4e28c9aaeba", "lat": 38.958495166666665, "lon": -76.986243, "rental_uris": {"android": "https://dc.lft.to/lastmile_qr_scan", "ios": "https://dc.lft.to/lastmile_qr_scan"}, "is_disabled": 0, "fusion_lat": 0.0, "name": "329b40ff7d8e466dc9ffc4e28c9aaeba", "fusion_lon": 0.0}, {"is_reserved": 0, "type": "electric_scooter", "bike_id": "bf068e1333de92b46d0443be76ec3827", "lat": 38.90041083333333, "lon": -77.00746216666667, "rental_uris": {"android": "https://dc.lft.to/lastmile_qr_scan", "ios": "https://dc.lft.to/lastmile_qr_scan"}, "is_disabled": 0, "fusion_lat": 0.0, "name": "bf068e1333de92b46d0443be76ec3827", "fusion_lon": 0.0}, {"is_reserved": 0, "type": "electric_scooter", "bike_id": "e17b0d1d09333d60f61ce2d0d68b624a", "lat": 38.924254833333336, "lon": -77.01937033333333, "rental_uris": {"android": "https://dc.lft.to/lastmile_qr_scan", "ios": "https://dc.lft.to/lastmile_qr_scan"}, "is_disabled": 0, "fusion_lat": 0.0, "name": "e17b0d1d09333d60f61ce2d0d68b624a", "fusion_lon": 0.0}, {"is_reserved": 0, "type": "electric_scooter", "bike_id": "7c01734a4fcb13e290f18d6d3b3d16e8", "lat": 38.897842833333335, "lon": -77.01663033333334, "rental_uris": {"android": "https://dc.lft.to/lastmile_qr_scan", "ios": "https://dc.lft.to/lastmile_qr_scan"}, "is_disabled": 0, "fusion_lat": 0.0, "name": "7c01734a4fcb13e290f18d6d3b3d16e8", "fusion_lon": 0.0}, {"is_reserved": 0, "type": "electric_scooter", "bike_id": "7b4abbc2869042866aa1bd5a96a6fcf5", "lat": 38.92240533333333, "lon": -77.03516783333333, "rental_uris": {"android": "https://dc.lft.to/lastmile_qr_scan", "ios": "https://dc.lft.to/lastmile_qr_scan"}, "is_disabled": 0, "fusion_lat": 0.0, "name": "7b4abbc2869042866aa1bd5a96a6fcf5", "fusion_lon": 0.0}, {"is_reserved": 0, "type": "electric_scooter", "bike_id": "7bd89b8f88c4b75731dc554a6f18228a", "lat": 38.901283166666666, "lon": -77.0499645, "rental_uris": {"android": "https://dc.lft.to/lastmile_qr_scan", "ios": "https://dc.lft.to/lastmile_qr_scan"}, "is_disabled": 0, "fusion_lat": 0.0, "name": "7bd89b8f88c4b75731dc554a6f18228a", "fusion_lon": 0.0}, {"is_reserved": 0, "type": "electric_scooter", "bike_id": "bd965bf6fb4a60eafbbaaa6cf621c185", "lat": 38.941774, "lon": -77.02565633333333, "rental_uris": {"android": "https://dc.lft.to/lastmile_qr_scan", "ios": "https://dc.lft.to/lastmile_qr_scan"}, "is_disabled": 0, "fusion_lat": 0.0, "name": "bd965bf6fb4a60eafbbaaa6cf621c185", "fusion_lon": 0.0}, {"is_reserved": 0, "type": "electric_scooter", "bike_id": "aaed6a9d6cbe94d1a6015a3c295c3874", "lat": 38.878666833333334, "lon": -76.96257383333334, "rental_uris": {"android": "https://dc.lft.to/lastmile_qr_scan", "ios": "https://dc.lft.to/lastmile_qr_scan"}, "is_disabled": 0, "fusion_lat": 0.0, "name": "aaed6a9d6cbe94d1a6015a3c295c3874", "fusion_lon": 0.0}, {"is_reserved": 0, "type": "electric_scooter", "bike_id": "b5256f13dd073464eafda9540deaccac", "lat": 38.92430483333333, "lon": -77.0203205, "rental_uris": {"android": "https://dc.lft.to/lastmile_qr_scan", "ios": "https://dc.lft.to/lastmile_qr_scan"}, "is_disabled": 0, "fusion_lat": 0.0, "name": "b5256f13dd073464eafda9540deaccac", "fusion_lon": 0.0}, {"is_reserved": 0, "type": "electric_scooter", "bike_id": "79c9e9e7a2b31df1fea4f1d65c88ce1e", "lat": 38.895924, "lon": -76.92985066666667, "rental_uris": {"android": "https://dc.lft.to/lastmile_qr_scan", "ios": "https://dc.lft.to/lastmile_qr_scan"}, "is_disabled": 0, "fusion_lat": 0.0, "name": "79c9e9e7a2b31df1fea4f1d65c88ce1e", "fusion_lon": 0.0}, {"is_reserved": 0, "type": "electric_scooter", "bike_id": "dd097dcff460ed1e0015a7f7e8562797", "lat": 38.97002416666667, "lon": -77.0091005, "rental_uris": {"android": "https://dc.lft.to/lastmile_qr_scan", "ios": "https://dc.lft.to/lastmile_qr_scan"}, "is_disabled": 0, "fusion_lat": 0.0, "name": "dd097dcff460ed1e0015a7f7e8562797", "fusion_lon": 0.0}, {"is_reserved": 0, "type": "electric_scooter", "bike_id": "cecbb03ce751c8de683bc0e433966944", "lat": 38.892175, "lon": -77.02417416666667, "rental_uris": {"android": "https://dc.lft.to/lastmile_qr_scan", "ios": "https://dc.lft.to/lastmile_qr_scan"}, "is_disabled": 0, "fusion_lat": 0.0, "name": "cecbb03ce751c8de683bc0e433966944", "fusion_lon": 0.0}, {"is_reserved": 0, "type": "electric_scooter", "bike_id": "29edde0c6816588d8196d023ed5be96d", "lat": 38.90546533333333, "lon": -77.03247766666667, "rental_uris": {"android": "https://dc.lft.to/lastmile_qr_scan", "ios": "https://dc.lft.to/lastmile_qr_scan"}, "is_disabled": 0, "fusion_lat": 0.0, "name": "29edde0c6816588d8196d023ed5be96d", "fusion_lon": 0.0}, {"is_reserved": 0, "type": "electric_scooter", "bike_id": "e0e0f4f3592339246bcf8ee887d77fdc", "lat": 38.87643333333333, "lon": -77.00807283333333, "rental_uris": {"android": "https://dc.lft.to/lastmile_qr_scan", "ios": "https://dc.lft.to/lastmile_qr_scan"}, "is_disabled": 0, "fusion_lat": 0.0, "name": "e0e0f4f3592339246bcf8ee887d77fdc", "fusion_lon": 0.0}, {"is_reserved": 0, "type": "electric_scooter", "bike_id": "6e54bc3f729127cd927df30436d2cd57", "lat": 38.898511, "lon": -77.02211866666667, "rental_uris": {"android": "https://dc.lft.to/lastmile_qr_scan", "ios": "https://dc.lft.to/lastmile_qr_scan"}, "is_disabled": 0, "fusion_lat": 0.0, "name": "6e54bc3f729127cd927df30436d2cd57", "fusion_lon": 0.0}, {"is_reserved": 0, "type": "electric_scooter", "bike_id": "e14d3b2367a581c968bccf273e4372e1", "lat": 38.923921, "lon": -77.04454566666666, "rental_uris": {"android": "https://dc.lft.to/lastmile_qr_scan", "ios": "https://dc.lft.to/lastmile_qr_scan"}, "is_disabled": 0, "fusion_lat": 0.0, "name": "e14d3b2367a581c968bccf273e4372e1", "fusion_lon": 0.0}, {"is_reserved": 0, "type": "electric_scooter", "bike_id": "147ab9373718651bb5a866733722c41f", "lat": 38.903717, "lon": -77.04006483333333, "rental_uris": {"android": "https://dc.lft.to/lastmile_qr_scan", "ios": "https://dc.lft.to/lastmile_qr_scan"}, "is_disabled": 0, "fusion_lat": 0.0, "name": "147ab9373718651bb5a866733722c41f", "fusion_lon": 0.0}, {"is_reserved": 0, "type": "electric_scooter", "bike_id": "724932dfe7220923f33aeb296b3b2a9b", "lat": 38.8983325, "lon": -77.0304275, "rental_uris": {"android": "https://dc.lft.to/lastmile_qr_scan", "ios": "https://dc.lft.to/lastmile_qr_scan"}, "is_disabled": 0, "fusion_lat": 0.0, "name": "724932dfe7220923f33aeb296b3b2a9b", "fusion_lon": 0.0}, {"is_reserved": 0, "type": "electric_scooter", "bike_id": "9ca93ac64ad5db05e8807ecefd2435cd", "lat": 38.89516416666667, "lon": -77.039608, "rental_uris": {"android": "https://dc.lft.to/lastmile_qr_scan", "ios": "https://dc.lft.to/lastmile_qr_scan"}, "is_disabled": 0, "fusion_lat": 0.0, "name": "9ca93ac64ad5db05e8807ecefd2435cd", "fusion_lon": 0.0}, {"is_reserved": 0, "type": "electric_scooter", "bike_id": "8029ad2b514d745e5322a00d784e6b25", "lat": 38.91671866666667, "lon": -77.0346175, "rental_uris": {"android": "https://dc.lft.to/lastmile_qr_scan", "ios": "https://dc.lft.to/lastmile_qr_scan"}, "is_disabled": 0, "fusion_lat": 0.0, "name": "8029ad2b514d745e5322a00d784e6b25", "fusion_lon": 0.0}, {"is_reserved": 0, "type": "electric_scooter", "bike_id": "f85be46f835cfc08c90b39998491419f", "lat": 38.94658783333333, "lon": -77.03282016666667, "rental_uris": {"android": "https://dc.lft.to/lastmile_qr_scan", "ios": "https://dc.lft.to/lastmile_qr_scan"}, "is_disabled": 0, "fusion_lat": 0.0, "name": "f85be46f835cfc08c90b39998491419f", "fusion_lon": 0.0}, {"is_reserved": 0, "type": "electric_scooter", "bike_id": "a15d9772724f16e5a652a261f6db2118", "lat": 38.8991135, "lon": -76.93364466666667, "rental_uris": {"android": "https://dc.lft.to/lastmile_qr_scan", "ios": "https://dc.lft.to/lastmile_qr_scan"}, "is_disabled": 0, "fusion_lat": 0.0, "name": "a15d9772724f16e5a652a261f6db2118", "fusion_lon": 0.0}, {"is_reserved": 0, "type": "electric_scooter", "bike_id": "b1b4bc6d56bffa6017ebb387028c7932", "lat": 38.8764995, "lon": -77.00740183333333, "rental_uris": {"android": "https://dc.lft.to/lastmile_qr_scan", "ios": "https://dc.lft.to/lastmile_qr_scan"}, "is_disabled": 0, "fusion_lat": 0.0, "name": "b1b4bc6d56bffa6017ebb387028c7932", "fusion_lon": 0.0}, {"is_reserved": 0, "type": "electric_scooter", "bike_id": "e8179c24204bd3e88a7b0203685bd3b1", "lat": 38.90726033333333, "lon": -77.00493183333333, "rental_uris": {"android": "https://dc.lft.to/lastmile_qr_scan", "ios": "https://dc.lft.to/lastmile_qr_scan"}, "is_disabled": 0, "fusion_lat": 0.0, "name": "e8179c24204bd3e88a7b0203685bd3b1", "fusion_lon": 0.0}, {"is_reserved": 0, "type": "electric_scooter", "bike_id": "0877b1352396be0882c5e1e2f91f541c", "lat": 38.9242475, "lon": -77.0404435, "rental_uris": {"android": "https://dc.lft.to/lastmile_qr_scan", "ios": "https://dc.lft.to/lastmile_qr_scan"}, "is_disabled": 0, "fusion_lat": 0.0, "name": "0877b1352396be0882c5e1e2f91f541c", "fusion_lon": 0.0}, {"is_reserved": 0, "type": "electric_scooter", "bike_id": "fcd1c7d2724f7c75f7a76abcc14faf7f", "lat": 38.904968833333335, "lon": -77.02950183333333, "rental_uris": {"android": "https://dc.lft.to/lastmile_qr_scan", "ios": "https://dc.lft.to/lastmile_qr_scan"}, "is_disabled": 0, "fusion_lat": 0.0, "name": "fcd1c7d2724f7c75f7a76abcc14faf7f", "fusion_lon": 0.0}, {"is_reserved": 0, "type": "electric_scooter", "bike_id": "2c60e14a0ac2ddf8484b5e1b10983ecd", "lat": 38.93889433333333, "lon": -77.032601, "rental_uris": {"android": "https://dc.lft.to/lastmile_qr_scan", "ios": "https://dc.lft.to/lastmile_qr_scan"}, "is_disabled": 0, "fusion_lat": 0.0, "name": "2c60e14a0ac2ddf8484b5e1b10983ecd", "fusion_lon": 0.0}, {"is_reserved": 0, "type": "electric_scooter", "bike_id": "2d76c028d8a2600e228b2040fd506c10", "lat": 38.852216166666665, "lon": -76.99424116666667, "rental_uris": {"android": "https://dc.lft.to/lastmile_qr_scan", "ios": "https://dc.lft.to/lastmile_qr_scan"}, "is_disabled": 0, "fusion_lat": 0.0, "name": "2d76c028d8a2600e228b2040fd506c10", "fusion_lon": 0.0}, {"is_reserved": 0, "type": "electric_scooter", "bike_id": "f674bf21fc24fe5901a513e57ff78573", "lat": 38.9140335, "lon": -77.03221016666667, "rental_uris": {"android": "https://dc.lft.to/lastmile_qr_scan", "ios": "https://dc.lft.to/lastmile_qr_scan"}, "is_disabled": 0, "fusion_lat": 0.0, "name": "f674bf21fc24fe5901a513e57ff78573", "fusion_lon": 0.0}, {"is_reserved": 0, "type": "electric_bike", "bike_id": "beb6d26947e8c40184b782d6bce37916", "lat": 38.831408833333334, "lon": -77.113452, "rental_uris": {"android": "https://dc.lft.to/lastmile_qr_scan", "ios": "https://dc.lft.to/lastmile_qr_scan"}, "is_disabled": 0, "fusion_lat": 0.0, "name": "beb6d26947e8c40184b782d6bce37916", "fusion_lon": 0.0}, {"is_reserved": 0, "type": "electric_scooter", "bike_id": "43f773e5ff46bbbe1f845dabfb60feb7", "lat": 38.90028816666667, "lon": -76.9986835, "rental_uris": {"android": "https://dc.lft.to/lastmile_qr_scan", "ios": "https://dc.lft.to/lastmile_qr_scan"}, "is_disabled": 0, "fusion_lat": 0.0, "name": "43f773e5ff46bbbe1f845dabfb60feb7", "fusion_lon": 0.0}, {"is_reserved": 0, "type": "electric_scooter", "bike_id": "89d05d6895f38597adb5ad323b2c47b5", "lat": 38.912637333333336, "lon": -77.01248716666667, "rental_uris": {"android": "https://dc.lft.to/lastmile_qr_scan", "ios": "https://dc.lft.to/lastmile_qr_scan"}, "is_disabled": 0, "fusion_lat": 0.0, "name": "89d05d6895f38597adb5ad323b2c47b5", "fusion_lon": 0.0}, {"is_reserved": 0, "type": "electric_scooter", "bike_id": "9341d1e8b1d8aaf8e364ab741244853e", "lat": 38.905256666666666, "lon": -77.06530316666667, "rental_uris": {"android": "https://dc.lft.to/lastmile_qr_scan", "ios": "https://dc.lft.to/lastmile_qr_scan"}, "is_disabled": 0, "fusion_lat": 0.0, "name": "9341d1e8b1d8aaf8e364ab741244853e", "fusion_lon": 0.0}, {"is_reserved": 0, "type": "electric_scooter", "bike_id": "77679c6671efebd89a6909528982c95f", "lat": 38.901089999999996, "lon": -77.03832316666667, "rental_uris": {"android": "https://dc.lft.to/lastmile_qr_scan", "ios": "https://dc.lft.to/lastmile_qr_scan"}, "is_disabled": 0, "fusion_lat": 0.0, "name": "77679c6671efebd89a6909528982c95f", "fusion_lon": 0.0}, {"is_reserved": 0, "type": "electric_scooter", "bike_id": "9556bcd6a6c2ad5db03d3edd2c01bb8e", "lat": 38.885083, "lon": -77.01115216666666, "rental_uris": {"android": "https://dc.lft.to/lastmile_qr_scan", "ios": "https://dc.lft.to/lastmile_qr_scan"}, "is_disabled": 0, "fusion_lat": 0.0, "name": "9556bcd6a6c2ad5db03d3edd2c01bb8e", "fusion_lon": 0.0}, {"is_reserved": 0, "type": "electric_scooter", "bike_id": "ce06b45cbe02a9c1b45692314ded9570", "lat": 38.9469065, "lon": -77.022426, "rental_uris": {"android": "https://dc.lft.to/lastmile_qr_scan", "ios": "https://dc.lft.to/lastmile_qr_scan"}, "is_disabled": 0, "fusion_lat": 0.0, "name": "ce06b45cbe02a9c1b45692314ded9570", "fusion_lon": 0.0}, {"is_reserved": 0, "type": "electric_scooter", "bike_id": "bc68bde220e867ab515ae82c56c94752", "lat": 38.91565933333333, "lon": -77.02968666666666, "rental_uris": {"android": "https://dc.lft.to/lastmile_qr_scan", "ios": "https://dc.lft.to/lastmile_qr_scan"}, "is_disabled": 0, "fusion_lat": 0.0, "name": "bc68bde220e867ab515ae82c56c94752", "fusion_lon": 0.0}, {"is_reserved": 0, "type": "electric_scooter", "bike_id": "e92f446d86d03a2dfa9e5622a7588372", "lat": 38.892154833333336, "lon": -77.02417583333333, "rental_uris": {"android": "https://dc.lft.to/lastmile_qr_scan", "ios": "https://dc.lft.to/lastmile_qr_scan"}, "is_disabled": 0, "fusion_lat": 0.0, "name": "e92f446d86d03a2dfa9e5622a7588372", "fusion_lon": 0.0}, {"is_reserved": 0, "type": "electric_scooter", "bike_id": "3a006cce7bbcd334e9e12e54ead28729", "lat": 38.90611833333333, "lon": -76.9500965, "rental_uris": {"android": "https://dc.lft.to/lastmile_qr_scan", "ios": "https://dc.lft.to/lastmile_qr_scan"}, "is_disabled": 0, "fusion_lat": 0.0, "name": "3a006cce7bbcd334e9e12e54ead28729", "fusion_lon": 0.0}, {"is_reserved": 0, "type": "electric_scooter", "bike_id": "b1c951a39eae3aee0c7a6574683ef20e", "lat": 38.9223715, "lon": -77.03347633333334, "rental_uris": {"android": "https://dc.lft.to/lastmile_qr_scan", "ios": "https://dc.lft.to/lastmile_qr_scan"}, "is_disabled": 0, "fusion_lat": 0.0, "name": "b1c951a39eae3aee0c7a6574683ef20e", "fusion_lon": 0.0}, {"is_reserved": 0, "type": "electric_scooter", "bike_id": "c21bb55e44762ed17cbbfab868a2f4f4", "lat": 38.9417885, "lon": -77.02493133333333, "rental_uris": {"android": "https://dc.lft.to/lastmile_qr_scan", "ios": "https://dc.lft.to/lastmile_qr_scan"}, "is_disabled": 0, "fusion_lat": 0.0, "name": "c21bb55e44762ed17cbbfab868a2f4f4", "fusion_lon": 0.0}, {"is_reserved": 0, "type": "electric_scooter", "bike_id": "e9dc0d3e8d61de5109095c82acadcba8", "lat": 38.87469883333333, "lon": -77.00552083333334, "rental_uris": {"android": "https://dc.lft.to/lastmile_qr_scan", "ios": "https://dc.lft.to/lastmile_qr_scan"}, "is_disabled": 0, "fusion_lat": 0.0, "name": "e9dc0d3e8d61de5109095c82acadcba8", "fusion_lon": 0.0}, {"is_reserved": 0, "type": "electric_scooter", "bike_id": "f670de45b2395366bf567f29908ac765", "lat": 38.982264666666666, "lon": -77.0264255, "rental_uris": {"android": "https://dc.lft.to/lastmile_qr_scan", "ios": "https://dc.lft.to/lastmile_qr_scan"}, "is_disabled": 0, "fusion_lat": 0.0, "name": "f670de45b2395366bf567f29908ac765", "fusion_lon": 0.0}, {"is_reserved": 0, "type": "electric_scooter", "bike_id": "c6accb52f89fbe9e2d0e1691cb428d3e", "lat": 38.922412666666666, "lon": -77.038874, "rental_uris": {"android": "https://dc.lft.to/lastmile_qr_scan", "ios": "https://dc.lft.to/lastmile_qr_scan"}, "is_disabled": 0, "fusion_lat": 0.0, "name": "c6accb52f89fbe9e2d0e1691cb428d3e", "fusion_lon": 0.0}, {"is_reserved": 0, "type": "electric_scooter", "bike_id": "c53720eb5b259bc5f6d8974599cf7101", "lat": 38.8851285, "lon": -76.99672616666666, "rental_uris": {"android": "https://dc.lft.to/lastmile_qr_scan", "ios": "https://dc.lft.to/lastmile_qr_scan"}, "is_disabled": 0, "fusion_lat": 0.0, "name": "c53720eb5b259bc5f6d8974599cf7101", "fusion_lon": 0.0}, {"is_reserved": 0, "type": "electric_scooter", "bike_id": "3badaa78b93432983ecfa040fa2f37dc", "lat": 38.91436783333333, "lon": -77.02389883333333, "rental_uris": {"android": "https://dc.lft.to/lastmile_qr_scan", "ios": "https://dc.lft.to/lastmile_qr_scan"}, "is_disabled": 0, "fusion_lat": 0.0, "name": "3badaa78b93432983ecfa040fa2f37dc", "fusion_lon": 0.0}, {"is_reserved": 0, "type": "electric_scooter", "bike_id": "f04d5e7f421dd5696d0d01aa9bc6467a", "lat": 38.918819166666665, "lon": -77.041728, "rental_uris": {"android": "https://dc.lft.to/lastmile_qr_scan", "ios": "https://dc.lft.to/lastmile_qr_scan"}, "is_disabled": 0, "fusion_lat": 0.0, "name": "f04d5e7f421dd5696d0d01aa9bc6467a", "fusion_lon": 0.0}, {"is_reserved": 0, "type": "electric_scooter", "bike_id": "df6861ac841d8259ca8f409092d9f758", "lat": 38.92595883333333, "lon": -77.02154433333334, "rental_uris": {"android": "https://dc.lft.to/lastmile_qr_scan", "ios": "https://dc.lft.to/lastmile_qr_scan"}, "is_disabled": 0, "fusion_lat": 0.0, "name": "df6861ac841d8259ca8f409092d9f758", "fusion_lon": 0.0}, {"is_reserved": 0, "type": "electric_scooter", "bike_id": "848a15d407b0795374f3fdf0e98e67c1", "lat": 38.926803666666665, "lon": -76.9955675, "rental_uris": {"android": "https://dc.lft.to/lastmile_qr_scan", "ios": "https://dc.lft.to/lastmile_qr_scan"}, "is_disabled": 0, "fusion_lat": 0.0, "name": "848a15d407b0795374f3fdf0e98e67c1", "fusion_lon": 0.0}, {"is_reserved": 0, "type": "electric_scooter", "bike_id": "3688e730fa3f86e86eb79c8e8147b51b", "lat": 38.92363133333333, "lon": -77.01950966666666, "rental_uris": {"android": "https://dc.lft.to/lastmile_qr_scan", "ios": "https://dc.lft.to/lastmile_qr_scan"}, "is_disabled": 0, "fusion_lat": 0.0, "name": "3688e730fa3f86e86eb79c8e8147b51b", "fusion_lon": 0.0}, {"is_reserved": 0, "type": "electric_scooter", "bike_id": "33b84a9caf8c5f7dd6e1a35f8d635a53", "lat": 38.92628033333333, "lon": -77.03534816666667, "rental_uris": {"android": "https://dc.lft.to/lastmile_qr_scan", "ios": "https://dc.lft.to/lastmile_qr_scan"}, "is_disabled": 0, "fusion_lat": 0.0, "name": "33b84a9caf8c5f7dd6e1a35f8d635a53", "fusion_lon": 0.0}, {"is_reserved": 0, "type": "electric_scooter", "bike_id": "0c10cfcc8464d9db881353cee764c5eb", "lat": 38.94904616666667, "lon": -77.03185133333334, "rental_uris": {"android": "https://dc.lft.to/lastmile_qr_scan", "ios": "https://dc.lft.to/lastmile_qr_scan"}, "is_disabled": 0, "fusion_lat": 0.0, "name": "0c10cfcc8464d9db881353cee764c5eb", "fusion_lon": 0.0}, {"is_reserved": 0, "type": "electric_scooter", "bike_id": "e661bba9ddb27753e3157d8f8aaee300", "lat": 38.916086, "lon": -77.02299183333334, "rental_uris": {"android": "https://dc.lft.to/lastmile_qr_scan", "ios": "https://dc.lft.to/lastmile_qr_scan"}, "is_disabled": 0, "fusion_lat": 0.0, "name": "e661bba9ddb27753e3157d8f8aaee300", "fusion_lon": 0.0}, {"is_reserved": 0, "type": "electric_scooter", "bike_id": "852119444aac55122158b1873eb92e9a", "lat": 38.91912133333334, "lon": -77.033988, "rental_uris": {"android": "https://dc.lft.to/lastmile_qr_scan", "ios": "https://dc.lft.to/lastmile_qr_scan"}, "is_disabled": 0, "fusion_lat": 0.0, "name": "852119444aac55122158b1873eb92e9a", "fusion_lon": 0.0}, {"is_reserved": 0, "type": "electric_scooter", "bike_id": "caa0f9f409dc210bbe42144621c10fc0", "lat": 38.911795, "lon": -77.00224083333333, "rental_uris": {"android": "https://dc.lft.to/lastmile_qr_scan", "ios": "https://dc.lft.to/lastmile_qr_scan"}, "is_disabled": 0, "fusion_lat": 0.0, "name": "caa0f9f409dc210bbe42144621c10fc0", "fusion_lon": 0.0}, {"is_reserved": 0, "type": "electric_scooter", "bike_id": "a74d681efb050ea1bc3ed02111ba1c17", "lat": 38.974901333333335, "lon": -77.0170035, "rental_uris": {"android": "https://dc.lft.to/lastmile_qr_scan", "ios": "https://dc.lft.to/lastmile_qr_scan"}, "is_disabled": 0, "fusion_lat": 0.0, "name": "a74d681efb050ea1bc3ed02111ba1c17", "fusion_lon": 0.0}, {"is_reserved": 0, "type": "electric_scooter", "bike_id": "be8ff6605198f7de35c0a0715f8c5092", "lat": 38.920486, "lon": -77.0418185, "rental_uris": {"android": "https://dc.lft.to/lastmile_qr_scan", "ios": "https://dc.lft.to/lastmile_qr_scan"}, "is_disabled": 0, "fusion_lat": 0.0, "name": "be8ff6605198f7de35c0a0715f8c5092", "fusion_lon": 0.0}, {"is_reserved": 0, "type": "electric_scooter", "bike_id": "588a85abbe35ecc4158508b1c8b54b0c", "lat": 38.89730683333333, "lon": -77.05475133333333, "rental_uris": {"android": "https://dc.lft.to/lastmile_qr_scan", "ios": "https://dc.lft.to/lastmile_qr_scan"}, "is_disabled": 0, "fusion_lat": 0.0, "name": "588a85abbe35ecc4158508b1c8b54b0c", "fusion_lon": 0.0}, {"is_reserved": 0, "type": "electric_scooter", "bike_id": "7358bc6ef625fa0dbad750a6f55144db", "lat": 38.90533, "lon": -77.04148933333333, "rental_uris": {"android": "https://dc.lft.to/lastmile_qr_scan", "ios": "https://dc.lft.to/lastmile_qr_scan"}, "is_disabled": 0, "fusion_lat": 0.0, "name": "7358bc6ef625fa0dbad750a6f55144db", "fusion_lon": 0.0}, {"is_reserved": 0, "type": "electric_scooter", "bike_id": "ec348c0eee4d6ae916b129d2b9efb3a2", "lat": 38.92416983333333, "lon": -77.01949266666666, "rental_uris": {"android": "https://dc.lft.to/lastmile_qr_scan", "ios": "https://dc.lft.to/lastmile_qr_scan"}, "is_disabled": 0, "fusion_lat": 0.0, "name": "ec348c0eee4d6ae916b129d2b9efb3a2", "fusion_lon": 0.0}, {"is_reserved": 0, "type": "electric_bike", "bike_id": "1bf17316fe6cc2c0cdaf81cb94350ec3", "lat": 38.887835833333334, "lon": -76.923466, "rental_uris": {"android": "https://dc.lft.to/lastmile_qr_scan", "ios": "https://dc.lft.to/lastmile_qr_scan"}, "is_disabled": 0, "fusion_lat": 0.0, "name": "1bf17316fe6cc2c0cdaf81cb94350ec3", "fusion_lon": 0.0}, {"is_reserved": 0, "type": "electric_scooter", "bike_id": "3b467d8d3d52d40933cafa61d21c3a3d", "lat": 38.8875495, "lon": -77.03378816666667, "rental_uris": {"android": "https://dc.lft.to/lastmile_qr_scan", "ios": "https://dc.lft.to/lastmile_qr_scan"}, "is_disabled": 0, "fusion_lat": 0.0, "name": "3b467d8d3d52d40933cafa61d21c3a3d", "fusion_lon": 0.0}, {"is_reserved": 0, "type": "electric_scooter", "bike_id": "cc2ab4bf401ae335165a03c254af33b4", "lat": 38.913247166666665, "lon": -77.0479495, "rental_uris": {"android": "https://dc.lft.to/lastmile_qr_scan", "ios": "https://dc.lft.to/lastmile_qr_scan"}, "is_disabled": 0, "fusion_lat": 0.0, "name": "cc2ab4bf401ae335165a03c254af33b4", "fusion_lon": 0.0}, {"is_reserved": 0, "type": "electric_scooter", "bike_id": "505ab1105aead3ab55ea3dbcb7ce269a", "lat": 38.92480316666666, "lon": -77.027198, "rental_uris": {"android": "https://dc.lft.to/lastmile_qr_scan", "ios": "https://dc.lft.to/lastmile_qr_scan"}, "is_disabled": 0, "fusion_lat": 0.0, "name": "505ab1105aead3ab55ea3dbcb7ce269a", "fusion_lon": 0.0}, {"is_reserved": 0, "type": "electric_scooter", "bike_id": "3f0645ed3bdefbf674c90ce9298c34e1", "lat": 38.894951666666664, "lon": -77.04626516666667, "rental_uris": {"android": "https://dc.lft.to/lastmile_qr_scan", "ios": "https://dc.lft.to/lastmile_qr_scan"}, "is_disabled": 0, "fusion_lat": 0.0, "name": "3f0645ed3bdefbf674c90ce9298c34e1", "fusion_lon": 0.0}, {"is_reserved": 0, "type": "electric_scooter", "bike_id": "c482ecaced1741977a318048517de1ee", "lat": 38.89879, "lon": -77.02938383333333, "rental_uris": {"android": "https://dc.lft.to/lastmile_qr_scan", "ios": "https://dc.lft.to/lastmile_qr_scan"}, "is_disabled": 0, "fusion_lat": 0.0, "name": "c482ecaced1741977a318048517de1ee", "fusion_lon": 0.0}, {"is_reserved": 0, "type": "electric_scooter", "bike_id": "93b7b2a4fec7f29154a568d883367e56", "lat": 38.919937833333336, "lon": -76.9860575, "rental_uris": {"android": "https://dc.lft.to/lastmile_qr_scan", "ios": "https://dc.lft.to/lastmile_qr_scan"}, "is_disabled": 0, "fusion_lat": 0.0, "name": "93b7b2a4fec7f29154a568d883367e56", "fusion_lon": 0.0}, {"is_reserved": 0, "type": "electric_scooter", "bike_id": "1fc0a13ed9d36feb079e592b0f6bb384", "lat": 38.938785833333334, "lon": -77.024807, "rental_uris": {"android": "https://dc.lft.to/lastmile_qr_scan", "ios": "https://dc.lft.to/lastmile_qr_scan"}, "is_disabled": 0, "fusion_lat": 0.0, "name": "1fc0a13ed9d36feb079e592b0f6bb384", "fusion_lon": 0.0}, {"is_reserved": 0, "type": "electric_scooter", "bike_id": "5d99bf76db81eb736316bd4e54ab6e79", "lat": 38.9056355, "lon": -77.04191333333333, "rental_uris": {"android": "https://dc.lft.to/lastmile_qr_scan", "ios": "https://dc.lft.to/lastmile_qr_scan"}, "is_disabled": 0, "fusion_lat": 0.0, "name": "5d99bf76db81eb736316bd4e54ab6e79", "fusion_lon": 0.0}, {"is_reserved": 0, "type": "electric_scooter", "bike_id": "bd409e1a5b68adbea6d37d4706e722b9", "lat": 38.924341166666665, "lon": -76.9967795, "rental_uris": {"android": "https://dc.lft.to/lastmile_qr_scan", "ios": "https://dc.lft.to/lastmile_qr_scan"}, "is_disabled": 0, "fusion_lat": 0.0, "name": "bd409e1a5b68adbea6d37d4706e722b9", "fusion_lon": 0.0}, {"is_reserved": 0, "type": "electric_scooter", "bike_id": "de62257a6b36cd9a72388a295ffd8e89", "lat": 38.94037483333334, "lon": -77.02903466666666, "rental_uris": {"android": "https://dc.lft.to/lastmile_qr_scan", "ios": "https://dc.lft.to/lastmile_qr_scan"}, "is_disabled": 0, "fusion_lat": 0.0, "name": "de62257a6b36cd9a72388a295ffd8e89", "fusion_lon": 0.0}, {"is_reserved": 0, "type": "electric_scooter", "bike_id": "2d3432afc9373e6cc09765aee9fd52e2", "lat": 38.902223, "lon": -77.0486705, "rental_uris": {"android": "https://dc.lft.to/lastmile_qr_scan", "ios": "https://dc.lft.to/lastmile_qr_scan"}, "is_disabled": 0, "fusion_lat": 0.0, "name": "2d3432afc9373e6cc09765aee9fd52e2", "fusion_lon": 0.0}, {"is_reserved": 0, "type": "electric_bike", "bike_id": "15160f3648759e36b77aa7e93c377e11", "lat": 38.84918316666667, "lon": -77.083718, "rental_uris": {"android": "https://dc.lft.to/lastmile_qr_scan", "ios": "https://dc.lft.to/lastmile_qr_scan"}, "is_disabled": 0, "fusion_lat": 0.0, "name": "15160f3648759e36b77aa7e93c377e11", "fusion_lon": 0.0}, {"is_reserved": 0, "type": "electric_scooter", "bike_id": "7dd6f7f84bbbd46d2aae09306b86ffa7", "lat": 38.89565183333333, "lon": -76.98214233333333, "rental_uris": {"android": "https://dc.lft.to/lastmile_qr_scan", "ios": "https://dc.lft.to/lastmile_qr_scan"}, "is_disabled": 0, "fusion_lat": 0.0, "name": "7dd6f7f84bbbd46d2aae09306b86ffa7", "fusion_lon": 0.0}, {"is_reserved": 0, "type": "electric_scooter", "bike_id": "e36a34a02aafb0ce6dae1097b5683dde", "lat": 38.910716, "lon": -76.9913375, "rental_uris": {"android": "https://dc.lft.to/lastmile_qr_scan", "ios": "https://dc.lft.to/lastmile_qr_scan"}, "is_disabled": 0, "fusion_lat": 0.0, "name": "e36a34a02aafb0ce6dae1097b5683dde", "fusion_lon": 0.0}, {"is_reserved": 0, "type": "electric_scooter", "bike_id": "c51bd21272db98a11c1bb7dd0ed79f9e", "lat": 38.915449, "lon": -77.02087466666667, "rental_uris": {"android": "https://dc.lft.to/lastmile_qr_scan", "ios": "https://dc.lft.to/lastmile_qr_scan"}, "is_disabled": 0, "fusion_lat": 0.0, "name": "c51bd21272db98a11c1bb7dd0ed79f9e", "fusion_lon": 0.0}, {"is_reserved": 0, "type": "electric_scooter", "bike_id": "d07e1c5ba83bfc1c5a1af55b8f804455", "lat": 38.87477533333333, "lon": -77.01743233333333, "rental_uris": {"android": "https://dc.lft.to/lastmile_qr_scan", "ios": "https://dc.lft.to/lastmile_qr_scan"}, "is_disabled": 0, "fusion_lat": 0.0, "name": "d07e1c5ba83bfc1c5a1af55b8f804455", "fusion_lon": 0.0}, {"is_reserved": 0, "type": "electric_scooter", "bike_id": "5221e8d3af0547a032c580e8dbdd0a8c", "lat": 38.923239833333334, "lon": -77.0088965, "rental_uris": {"android": "https://dc.lft.to/lastmile_qr_scan", "ios": "https://dc.lft.to/lastmile_qr_scan"}, "is_disabled": 0, "fusion_lat": 0.0, "name": "5221e8d3af0547a032c580e8dbdd0a8c", "fusion_lon": 0.0}, {"is_reserved": 0, "type": "electric_scooter", "bike_id": "f7a305dfd9afdaab167bbc7df7b27c41", "lat": 38.9156095, "lon": -77.02113266666667, "rental_uris": {"android": "https://dc.lft.to/lastmile_qr_scan", "ios": "https://dc.lft.to/lastmile_qr_scan"}, "is_disabled": 0, "fusion_lat": 0.0, "name": "f7a305dfd9afdaab167bbc7df7b27c41", "fusion_lon": 0.0}, {"is_reserved": 0, "type": "electric_scooter", "bike_id": "104f2adce75d0b2d0ac7ce42ccb43dfd", "lat": 38.91253533333333, "lon": -77.00151683333333, "rental_uris": {"android": "https://dc.lft.to/lastmile_qr_scan", "ios": "https://dc.lft.to/lastmile_qr_scan"}, "is_disabled": 0, "fusion_lat": 0.0, "name": "104f2adce75d0b2d0ac7ce42ccb43dfd", "fusion_lon": 0.0}, {"is_reserved": 0, "type": "electric_scooter", "bike_id": "6b93481fd047cee65640551e1a490488", "lat": 38.931884, "lon": -77.03757283333333, "rental_uris": {"android": "https://dc.lft.to/lastmile_qr_scan", "ios": "https://dc.lft.to/lastmile_qr_scan"}, "is_disabled": 0, "fusion_lat": 0.0, "name": "6b93481fd047cee65640551e1a490488", "fusion_lon": 0.0}, {"is_reserved": 0, "type": "electric_scooter", "bike_id": "dee83d38d1d357bbf9223a13b3af9d3d", "lat": 38.927115, "lon": -77.04046366666667, "rental_uris": {"android": "https://dc.lft.to/lastmile_qr_scan", "ios": "https://dc.lft.to/lastmile_qr_scan"}, "is_disabled": 0, "fusion_lat": 0.0, "name": "dee83d38d1d357bbf9223a13b3af9d3d", "fusion_lon": 0.0}, {"is_reserved": 0, "type": "electric_bike", "bike_id": "7a9e15df0c5e4808f3907e4a81d30219", "lat": 38.97418866666667, "lon": -77.012572, "rental_uris": {"android": "https://dc.lft.to/lastmile_qr_scan", "ios": "https://dc.lft.to/lastmile_qr_scan"}, "is_disabled": 0, "fusion_lat": 0.0, "name": "7a9e15df0c5e4808f3907e4a81d30219", "fusion_lon": 0.0}, {"is_reserved": 0, "type": "electric_scooter", "bike_id": "23c144da6e2ee87bf06f2d870d500910", "lat": 38.9007965, "lon": -77.04732683333333, "rental_uris": {"android": "https://dc.lft.to/lastmile_qr_scan", "ios": "https://dc.lft.to/lastmile_qr_scan"}, "is_disabled": 0, "fusion_lat": 0.0, "name": "23c144da6e2ee87bf06f2d870d500910", "fusion_lon": 0.0}, {"is_reserved": 0, "type": "electric_scooter", "bike_id": "b60aa871055a7593eacf0e97641a8b96", "lat": 38.925383, "lon": -77.0297825, "rental_uris": {"android": "https://dc.lft.to/lastmile_qr_scan", "ios": "https://dc.lft.to/lastmile_qr_scan"}, "is_disabled": 0, "fusion_lat": 0.0, "name": "b60aa871055a7593eacf0e97641a8b96", "fusion_lon": 0.0}, {"is_reserved": 0, "type": "electric_scooter", "bike_id": "6a459dc8846a8e750e9475e1c08ca364", "lat": 38.89730633333333, "lon": -77.00374216666667, "rental_uris": {"android": "https://dc.lft.to/lastmile_qr_scan", "ios": "https://dc.lft.to/lastmile_qr_scan"}, "is_disabled": 0, "fusion_lat": 0.0, "name": "6a459dc8846a8e750e9475e1c08ca364", "fusion_lon": 0.0}, {"is_reserved": 0, "type": "electric_scooter", "bike_id": "137cdd101a261e00be09f51ac421271e", "lat": 38.9000185, "lon": -77.01029016666666, "rental_uris": {"android": "https://dc.lft.to/lastmile_qr_scan", "ios": "https://dc.lft.to/lastmile_qr_scan"}, "is_disabled": 0, "fusion_lat": 0.0, "name": "137cdd101a261e00be09f51ac421271e", "fusion_lon": 0.0}, {"is_reserved": 0, "type": "electric_scooter", "bike_id": "f9869d4c219458f1865d3173442462f8", "lat": 38.903453999999996, "lon": -77.033008, "rental_uris": {"android": "https://dc.lft.to/lastmile_qr_scan", "ios": "https://dc.lft.to/lastmile_qr_scan"}, "is_disabled": 0, "fusion_lat": 0.0, "name": "f9869d4c219458f1865d3173442462f8", "fusion_lon": 0.0}, {"is_reserved": 0, "type": "electric_scooter", "bike_id": "07819ed3d5b7d4b0c97d533bec81877e", "lat": 38.89618083333333, "lon": -77.0261215, "rental_uris": {"android": "https://dc.lft.to/lastmile_qr_scan", "ios": "https://dc.lft.to/lastmile_qr_scan"}, "is_disabled": 0, "fusion_lat": 0.0, "name": "07819ed3d5b7d4b0c97d533bec81877e", "fusion_lon": 0.0}, {"is_reserved": 0, "type": "electric_scooter", "bike_id": "b4193b22925c2bf8ed4496bebd8b9b94", "lat": 38.900157166666666, "lon": -76.99171766666667, "rental_uris": {"android": "https://dc.lft.to/lastmile_qr_scan", "ios": "https://dc.lft.to/lastmile_qr_scan"}, "is_disabled": 0, "fusion_lat": 0.0, "name": "b4193b22925c2bf8ed4496bebd8b9b94", "fusion_lon": 0.0}, {"is_reserved": 0, "type": "electric_scooter", "bike_id": "b09b57e8b2d65e6613842bd7a5f59e6c", "lat": 38.9119165, "lon": -77.00726983333334, "rental_uris": {"android": "https://dc.lft.to/lastmile_qr_scan", "ios": "https://dc.lft.to/lastmile_qr_scan"}, "is_disabled": 0, "fusion_lat": 0.0, "name": "b09b57e8b2d65e6613842bd7a5f59e6c", "fusion_lon": 0.0}, {"is_reserved": 0, "type": "electric_bike", "bike_id": "55cf8517577a05e69c31040c8357fe53", "lat": 38.878762, "lon": -77.00608566666666, "rental_uris": {"android": "https://dc.lft.to/lastmile_qr_scan", "ios": "https://dc.lft.to/lastmile_qr_scan"}, "is_disabled": 0, "fusion_lat": 0.0, "name": "55cf8517577a05e69c31040c8357fe53", "fusion_lon": 0.0}, {"is_reserved": 0, "type": "electric_scooter", "bike_id": "abe02837837602e1f95e80794ff31296", "lat": 38.90798066666667, "lon": -77.04782216666666, "rental_uris": {"android": "https://dc.lft.to/lastmile_qr_scan", "ios": "https://dc.lft.to/lastmile_qr_scan"}, "is_disabled": 0, "fusion_lat": 0.0, "name": "abe02837837602e1f95e80794ff31296", "fusion_lon": 0.0}, {"is_reserved": 0, "type": "electric_bike", "bike_id": "ed4ca448be862520c688ec22897babca", "lat": 38.87841233333333, "lon": -77.0077, "rental_uris": {"android": "https://dc.lft.to/lastmile_qr_scan", "ios": "https://dc.lft.to/lastmile_qr_scan"}, "is_disabled": 0, "fusion_lat": 0.0, "name": "ed4ca448be862520c688ec22897babca", "fusion_lon": 0.0}, {"is_reserved": 0, "type": "electric_scooter", "bike_id": "655e1fe1b108c443789c90c6a7219615", "lat": 38.90974833333333, "lon": -77.0077425, "rental_uris": {"android": "https://dc.lft.to/lastmile_qr_scan", "ios": "https://dc.lft.to/lastmile_qr_scan"}, "is_disabled": 0, "fusion_lat": 0.0, "name": "655e1fe1b108c443789c90c6a7219615", "fusion_lon": 0.0}, {"is_reserved": 0, "type": "electric_scooter", "bike_id": "2c6b8521fb420f8afa7fa819f737eca0", "lat": 38.925869, "lon": -77.03767733333333, "rental_uris": {"android": "https://dc.lft.to/lastmile_qr_scan", "ios": "https://dc.lft.to/lastmile_qr_scan"}, "is_disabled": 0, "fusion_lat": 0.0, "name": "2c6b8521fb420f8afa7fa819f737eca0", "fusion_lon": 0.0}, {"is_reserved": 0, "type": "electric_scooter", "bike_id": "e4247adcbfc70fb887afd92da5467f30", "lat": 38.8872495, "lon": -76.983759, "rental_uris": {"android": "https://dc.lft.to/lastmile_qr_scan", "ios": "https://dc.lft.to/lastmile_qr_scan"}, "is_disabled": 0, "fusion_lat": 0.0, "name": "e4247adcbfc70fb887afd92da5467f30", "fusion_lon": 0.0}, {"is_reserved": 0, "type": "electric_scooter", "bike_id": "c295c8c469224051ebb58c82e055dc46", "lat": 38.8944795, "lon": -77.04531416666667, "rental_uris": {"android": "https://dc.lft.to/lastmile_qr_scan", "ios": "https://dc.lft.to/lastmile_qr_scan"}, "is_disabled": 0, "fusion_lat": 0.0, "name": "c295c8c469224051ebb58c82e055dc46", "fusion_lon": 0.0}, {"is_reserved": 0, "type": "electric_scooter", "bike_id": "b75123385c75b83b9e287c7adb0d26b9", "lat": 38.921708333333335, "lon": -77.0401535, "rental_uris": {"android": "https://dc.lft.to/lastmile_qr_scan", "ios": "https://dc.lft.to/lastmile_qr_scan"}, "is_disabled": 0, "fusion_lat": 0.0, "name": "b75123385c75b83b9e287c7adb0d26b9", "fusion_lon": 0.0}, {"is_reserved": 0, "type": "electric_scooter", "bike_id": "ea1c8fb929c85007bf64cfc524ad6858", "lat": 38.89576516666666, "lon": -77.04149166666667, "rental_uris": {"android": "https://dc.lft.to/lastmile_qr_scan", "ios": "https://dc.lft.to/lastmile_qr_scan"}, "is_disabled": 0, "fusion_lat": 0.0, "name": "ea1c8fb929c85007bf64cfc524ad6858", "fusion_lon": 0.0}, {"is_reserved": 0, "type": "electric_scooter", "bike_id": "09f3540ce545d4428e2c80a8ef222a47", "lat": 38.91866816666667, "lon": -77.03593683333334, "rental_uris": {"android": "https://dc.lft.to/lastmile_qr_scan", "ios": "https://dc.lft.to/lastmile_qr_scan"}, "is_disabled": 0, "fusion_lat": 0.0, "name": "09f3540ce545d4428e2c80a8ef222a47", "fusion_lon": 0.0}, {"is_reserved": 0, "type": "electric_scooter", "bike_id": "0c325ee521e65eecbbe2a54a4964b244", "lat": 38.903733, "lon": -77.0164235, "rental_uris": {"android": "https://dc.lft.to/lastmile_qr_scan", "ios": "https://dc.lft.to/lastmile_qr_scan"}, "is_disabled": 0, "fusion_lat": 0.0, "name": "0c325ee521e65eecbbe2a54a4964b244", "fusion_lon": 0.0}, {"is_reserved": 0, "type": "electric_scooter", "bike_id": "eb13e6273119a0db336a08f8d114c8eb", "lat": 38.8969475, "lon": -77.00493466666667, "rental_uris": {"android": "https://dc.lft.to/lastmile_qr_scan", "ios": "https://dc.lft.to/lastmile_qr_scan"}, "is_disabled": 0, "fusion_lat": 0.0, "name": "eb13e6273119a0db336a08f8d114c8eb", "fusion_lon": 0.0}, {"is_reserved": 0, "type": "electric_scooter", "bike_id": "8062f1569747af73c967a0c130529de6", "lat": 38.901793166666664, "lon": -76.93003, "rental_uris": {"android": "https://dc.lft.to/lastmile_qr_scan", "ios": "https://dc.lft.to/lastmile_qr_scan"}, "is_disabled": 0, "fusion_lat": 0.0, "name": "8062f1569747af73c967a0c130529de6", "fusion_lon": 0.0}, {"is_reserved": 0, "type": "electric_bike", "bike_id": "d1a50ce12ad8103c416e4a21feca208a", "lat": 38.858797833333334, "lon": -77.0955905, "rental_uris": {"android": "https://dc.lft.to/lastmile_qr_scan", "ios": "https://dc.lft.to/lastmile_qr_scan"}, "is_disabled": 0, "fusion_lat": 0.0, "name": "d1a50ce12ad8103c416e4a21feca208a", "fusion_lon": 0.0}, {"is_reserved": 0, "type": "electric_scooter", "bike_id": "139f301c73eb8acbe7e45192c75efb70", "lat": 38.92412183333333, "lon": -77.020046, "rental_uris": {"android": "https://dc.lft.to/lastmile_qr_scan", "ios": "https://dc.lft.to/lastmile_qr_scan"}, "is_disabled": 0, "fusion_lat": 0.0, "name": "139f301c73eb8acbe7e45192c75efb70", "fusion_lon": 0.0}, {"is_reserved": 0, "type": "electric_scooter", "bike_id": "1e74ccc0b208dd99cc86298192e36515", "lat": 38.923710666666665, "lon": -77.05760933333333, "rental_uris": {"android": "https://dc.lft.to/lastmile_qr_scan", "ios": "https://dc.lft.to/lastmile_qr_scan"}, "is_disabled": 0, "fusion_lat": 0.0, "name": "1e74ccc0b208dd99cc86298192e36515", "fusion_lon": 0.0}, {"is_reserved": 0, "type": "electric_scooter", "bike_id": "a401a42ab479d3dade90645e63fc5f45", "lat": 38.933556, "lon": -77.024767, "rental_uris": {"android": "https://dc.lft.to/lastmile_qr_scan", "ios": "https://dc.lft.to/lastmile_qr_scan"}, "is_disabled": 0, "fusion_lat": 0.0, "name": "a401a42ab479d3dade90645e63fc5f45", "fusion_lon": 0.0}, {"is_reserved": 0, "type": "electric_scooter", "bike_id": "569a1c80b78b57e6e350720630180465", "lat": 38.95330666666667, "lon": -77.06929916666667, "rental_uris": {"android": "https://dc.lft.to/lastmile_qr_scan", "ios": "https://dc.lft.to/lastmile_qr_scan"}, "is_disabled": 0, "fusion_lat": 0.0, "name": "569a1c80b78b57e6e350720630180465", "fusion_lon": 0.0}, {"is_reserved": 0, "type": "electric_scooter", "bike_id": "5d8fc65a0b7ee7fedc15144c060a18a1", "lat": 38.90061566666667, "lon": -77.04932366666667, "rental_uris": {"android": "https://dc.lft.to/lastmile_qr_scan", "ios": "https://dc.lft.to/lastmile_qr_scan"}, "is_disabled": 0, "fusion_lat": 0.0, "name": "5d8fc65a0b7ee7fedc15144c060a18a1", "fusion_lon": 0.0}, {"is_reserved": 0, "type": "electric_scooter", "bike_id": "97763016773adccc1bd9a4a6f974705f", "lat": 38.901615666666665, "lon": -77.03862316666667, "rental_uris": {"android": "https://dc.lft.to/lastmile_qr_scan", "ios": "https://dc.lft.to/lastmile_qr_scan"}, "is_disabled": 0, "fusion_lat": 0.0, "name": "97763016773adccc1bd9a4a6f974705f", "fusion_lon": 0.0}, {"is_reserved": 0, "type": "electric_scooter", "bike_id": "e3644a3d0b5d43eff0969d02ce8a3c3e", "lat": 38.9254885, "lon": -77.02282383333333, "rental_uris": {"android": "https://dc.lft.to/lastmile_qr_scan", "ios": "https://dc.lft.to/lastmile_qr_scan"}, "is_disabled": 0, "fusion_lat": 0.0, "name": "e3644a3d0b5d43eff0969d02ce8a3c3e", "fusion_lon": 0.0}, {"is_reserved": 0, "type": "electric_scooter", "bike_id": "52f1bd58e3f98a049935842eddcf9ae7", "lat": 38.895286, "lon": -77.0296215, "rental_uris": {"android": "https://dc.lft.to/lastmile_qr_scan", "ios": "https://dc.lft.to/lastmile_qr_scan"}, "is_disabled": 0, "fusion_lat": 0.0, "name": "52f1bd58e3f98a049935842eddcf9ae7", "fusion_lon": 0.0}, {"is_reserved": 0, "type": "electric_bike", "bike_id": "3bafbaa0479df5866f5d119096a277e6", "lat": 38.89112316666667, "lon": -77.18304833333333, "rental_uris": {"android": "https://dc.lft.to/lastmile_qr_scan", "ios": "https://dc.lft.to/lastmile_qr_scan"}, "is_disabled": 0, "fusion_lat": 0.0, "name": "3bafbaa0479df5866f5d119096a277e6", "fusion_lon": 0.0}, {"is_reserved": 0, "type": "electric_scooter", "bike_id": "69fcab704cf8e2e12192a507fbb5b1ad", "lat": 38.91802216666667, "lon": -77.03301716666667, "rental_uris": {"android": "https://dc.lft.to/lastmile_qr_scan", "ios": "https://dc.lft.to/lastmile_qr_scan"}, "is_disabled": 0, "fusion_lat": 0.0, "name": "69fcab704cf8e2e12192a507fbb5b1ad", "fusion_lon": 0.0}, {"is_reserved": 0, "type": "electric_scooter", "bike_id": "b64e0b752a521c3571ec62949c035270", "lat": 38.902677833333335, "lon": -77.00327566666667, "rental_uris": {"android": "https://dc.lft.to/lastmile_qr_scan", "ios": "https://dc.lft.to/lastmile_qr_scan"}, "is_disabled": 0, "fusion_lat": 0.0, "name": "b64e0b752a521c3571ec62949c035270", "fusion_lon": 0.0}, {"is_reserved": 0, "type": "electric_scooter", "bike_id": "efdedbd341cbc845755d2a4079482047", "lat": 38.920395666666664, "lon": -77.041957, "rental_uris": {"android": "https://dc.lft.to/lastmile_qr_scan", "ios": "https://dc.lft.to/lastmile_qr_scan"}, "is_disabled": 0, "fusion_lat": 0.0, "name": "efdedbd341cbc845755d2a4079482047", "fusion_lon": 0.0}, {"is_reserved": 0, "type": "electric_scooter", "bike_id": "01ce31479082d62107b377125400bc9f", "lat": 38.92040433333333, "lon": -77.0482345, "rental_uris": {"android": "https://dc.lft.to/lastmile_qr_scan", "ios": "https://dc.lft.to/lastmile_qr_scan"}, "is_disabled": 0, "fusion_lat": 0.0, "name": "01ce31479082d62107b377125400bc9f", "fusion_lon": 0.0}, {"is_reserved": 0, "type": "electric_scooter", "bike_id": "40ec7d9cf85d3ad1136dd26f944b5af3", "lat": 38.927613, "lon": -77.0327625, "rental_uris": {"android": "https://dc.lft.to/lastmile_qr_scan", "ios": "https://dc.lft.to/lastmile_qr_scan"}, "is_disabled": 0, "fusion_lat": 0.0, "name": "40ec7d9cf85d3ad1136dd26f944b5af3", "fusion_lon": 0.0}, {"is_reserved": 0, "type": "electric_scooter", "bike_id": "bf2a7d7aaaa885123803b694b6f8f688", "lat": 38.905705166666664, "lon": -77.00572633333333, "rental_uris": {"android": "https://dc.lft.to/lastmile_qr_scan", "ios": "https://dc.lft.to/lastmile_qr_scan"}, "is_disabled": 0, "fusion_lat": 0.0, "name": "bf2a7d7aaaa885123803b694b6f8f688", "fusion_lon": 0.0}, {"is_reserved": 0, "type": "electric_scooter", "bike_id": "01dfb39af25e0ec9dc2ebbe9446c804a", "lat": 38.944125, "lon": -77.06325216666667, "rental_uris": {"android": "https://dc.lft.to/lastmile_qr_scan", "ios": "https://dc.lft.to/lastmile_qr_scan"}, "is_disabled": 0, "fusion_lat": 0.0, "name": "01dfb39af25e0ec9dc2ebbe9446c804a", "fusion_lon": 0.0}, {"is_reserved": 0, "type": "electric_scooter", "bike_id": "21dda14a14ef8f0540c10644420cfad4", "lat": 38.897344, "lon": -77.0248795, "rental_uris": {"android": "https://dc.lft.to/lastmile_qr_scan", "ios": "https://dc.lft.to/lastmile_qr_scan"}, "is_disabled": 0, "fusion_lat": 0.0, "name": "21dda14a14ef8f0540c10644420cfad4", "fusion_lon": 0.0}, {"is_reserved": 0, "type": "electric_scooter", "bike_id": "92ca3e97a45008c20af1e21bf427bc36", "lat": 38.9191225, "lon": -77.04809983333334, "rental_uris": {"android": "https://dc.lft.to/lastmile_qr_scan", "ios": "https://dc.lft.to/lastmile_qr_scan"}, "is_disabled": 0, "fusion_lat": 0.0, "name": "92ca3e97a45008c20af1e21bf427bc36", "fusion_lon": 0.0}, {"is_reserved": 0, "type": "electric_scooter", "bike_id": "0290e056e2b9c383663c883ed315d227", "lat": 38.91677833333333, "lon": -77.02401266666666, "rental_uris": {"android": "https://dc.lft.to/lastmile_qr_scan", "ios": "https://dc.lft.to/lastmile_qr_scan"}, "is_disabled": 0, "fusion_lat": 0.0, "name": "0290e056e2b9c383663c883ed315d227", "fusion_lon": 0.0}, {"is_reserved": 0, "type": "electric_scooter", "bike_id": "47e0f57444ff0343c456fc9edd9c593a", "lat": 38.924920166666666, "lon": -77.0393025, "rental_uris": {"android": "https://dc.lft.to/lastmile_qr_scan", "ios": "https://dc.lft.to/lastmile_qr_scan"}, "is_disabled": 0, "fusion_lat": 0.0, "name": "47e0f57444ff0343c456fc9edd9c593a", "fusion_lon": 0.0}, {"is_reserved": 0, "type": "electric_scooter", "bike_id": "7c20563cc9a9aec4b9bb81f8458543dd", "lat": 38.853211, "lon": -76.980051, "rental_uris": {"android": "https://dc.lft.to/lastmile_qr_scan", "ios": "https://dc.lft.to/lastmile_qr_scan"}, "is_disabled": 0, "fusion_lat": 0.0, "name": "7c20563cc9a9aec4b9bb81f8458543dd", "fusion_lon": 0.0}, {"is_reserved": 0, "type": "electric_scooter", "bike_id": "5a2df6888af5bfe8f8a9181363f04dd7", "lat": 38.90822683333333, "lon": -77.0219305, "rental_uris": {"android": "https://dc.lft.to/lastmile_qr_scan", "ios": "https://dc.lft.to/lastmile_qr_scan"}, "is_disabled": 0, "fusion_lat": 0.0, "name": "5a2df6888af5bfe8f8a9181363f04dd7", "fusion_lon": 0.0}, {"is_reserved": 0, "type": "electric_scooter", "bike_id": "cd0f8523e892b6ce703f73e4dacad857", "lat": 38.937203, "lon": -77.03263266666667, "rental_uris": {"android": "https://dc.lft.to/lastmile_qr_scan", "ios": "https://dc.lft.to/lastmile_qr_scan"}, "is_disabled": 0, "fusion_lat": 0.0, "name": "cd0f8523e892b6ce703f73e4dacad857", "fusion_lon": 0.0}, {"is_reserved": 0, "type": "electric_scooter", "bike_id": "e7a4c2ec3c5a91da2687f0fe0e1852b3", "lat": 38.90149533333334, "lon": -77.02849183333333, "rental_uris": {"android": "https://dc.lft.to/lastmile_qr_scan", "ios": "https://dc.lft.to/lastmile_qr_scan"}, "is_disabled": 0, "fusion_lat": 0.0, "name": "e7a4c2ec3c5a91da2687f0fe0e1852b3", "fusion_lon": 0.0}, {"is_reserved": 0, "type": "electric_scooter", "bike_id": "e1ad8a3479a2e7faa3ba9a455ce4a829", "lat": 38.8953025, "lon": -77.0301645, "rental_uris": {"android": "https://dc.lft.to/lastmile_qr_scan", "ios": "https://dc.lft.to/lastmile_qr_scan"}, "is_disabled": 0, "fusion_lat": 0.0, "name": "e1ad8a3479a2e7faa3ba9a455ce4a829", "fusion_lon": 0.0}, {"is_reserved": 0, "type": "electric_scooter", "bike_id": "e02afed19b3326a1ae01f79d8ce00bce", "lat": 38.93699066666667, "lon": -77.0211825, "rental_uris": {"android": "https://dc.lft.to/lastmile_qr_scan", "ios": "https://dc.lft.to/lastmile_qr_scan"}, "is_disabled": 0, "fusion_lat": 0.0, "name": "e02afed19b3326a1ae01f79d8ce00bce", "fusion_lon": 0.0}, {"is_reserved": 0, "type": "electric_scooter", "bike_id": "1dbd8930cd3eb23a269837832c14f818", "lat": 38.92359316666667, "lon": -77.05028566666667, "rental_uris": {"android": "https://dc.lft.to/lastmile_qr_scan", "ios": "https://dc.lft.to/lastmile_qr_scan"}, "is_disabled": 0, "fusion_lat": 0.0, "name": "1dbd8930cd3eb23a269837832c14f818", "fusion_lon": 0.0}, {"is_reserved": 0, "type": "electric_scooter", "bike_id": "285ec7e26d7ea92bc1609eda2e545da8", "lat": 38.89919783333333, "lon": -76.9783645, "rental_uris": {"android": "https://dc.lft.to/lastmile_qr_scan", "ios": "https://dc.lft.to/lastmile_qr_scan"}, "is_disabled": 0, "fusion_lat": 0.0, "name": "285ec7e26d7ea92bc1609eda2e545da8", "fusion_lon": 0.0}, {"is_reserved": 0, "type": "electric_scooter", "bike_id": "fe4aac759166a2d2053f3e85e9eacca5", "lat": 38.89719816666667, "lon": -77.02275016666667, "rental_uris": {"android": "https://dc.lft.to/lastmile_qr_scan", "ios": "https://dc.lft.to/lastmile_qr_scan"}, "is_disabled": 0, "fusion_lat": 0.0, "name": "fe4aac759166a2d2053f3e85e9eacca5", "fusion_lon": 0.0}, {"is_reserved": 0, "type": "electric_scooter", "bike_id": "b7473aca9625f290c6868dff468eadc3", "lat": 38.882627166666666, "lon": -77.00360916666666, "rental_uris": {"android": "https://dc.lft.to/lastmile_qr_scan", "ios": "https://dc.lft.to/lastmile_qr_scan"}, "is_disabled": 0, "fusion_lat": 0.0, "name": "b7473aca9625f290c6868dff468eadc3", "fusion_lon": 0.0}, {"is_reserved": 0, "type": "electric_scooter", "bike_id": "370b68eef67ccc49f18e3d6911f447dd", "lat": 38.93129016666666, "lon": -77.0384985, "rental_uris": {"android": "https://dc.lft.to/lastmile_qr_scan", "ios": "https://dc.lft.to/lastmile_qr_scan"}, "is_disabled": 0, "fusion_lat": 0.0, "name": "370b68eef67ccc49f18e3d6911f447dd", "fusion_lon": 0.0}, {"is_reserved": 0, "type": "electric_scooter", "bike_id": "b86e64e89e67c5c7cb3858a1f824afe8", "lat": 38.91798133333333, "lon": -77.0342985, "rental_uris": {"android": "https://dc.lft.to/lastmile_qr_scan", "ios": "https://dc.lft.to/lastmile_qr_scan"}, "is_disabled": 0, "fusion_lat": 0.0, "name": "b86e64e89e67c5c7cb3858a1f824afe8", "fusion_lon": 0.0}, {"is_reserved": 0, "type": "electric_scooter", "bike_id": "98a3877f3ec6f0b20690accb6033f786", "lat": 38.930323, "lon": -77.08316, "rental_uris": {"android": "https://dc.lft.to/lastmile_qr_scan", "ios": "https://dc.lft.to/lastmile_qr_scan"}, "is_disabled": 0, "fusion_lat": 0.0, "name": "98a3877f3ec6f0b20690accb6033f786", "fusion_lon": 0.0}, {"is_reserved": 0, "type": "electric_scooter", "bike_id": "85a8889b3061ed0a2ff0645daad44f7c", "lat": 38.916349833333335, "lon": -77.0395635, "rental_uris": {"android": "https://dc.lft.to/lastmile_qr_scan", "ios": "https://dc.lft.to/lastmile_qr_scan"}, "is_disabled": 0, "fusion_lat": 0.0, "name": "85a8889b3061ed0a2ff0645daad44f7c", "fusion_lon": 0.0}, {"is_reserved": 0, "type": "electric_scooter", "bike_id": "bcea945f1d31a8a9bc904df3f27beb5b", "lat": 38.974967, "lon": -77.01702183333333, "rental_uris": {"android": "https://dc.lft.to/lastmile_qr_scan", "ios": "https://dc.lft.to/lastmile_qr_scan"}, "is_disabled": 0, "fusion_lat": 0.0, "name": "bcea945f1d31a8a9bc904df3f27beb5b", "fusion_lon": 0.0}, {"is_reserved": 0, "type": "electric_scooter", "bike_id": "6063d32b1cfd2128a3e4f6210ace6962", "lat": 38.91563333333333, "lon": -77.0366935, "rental_uris": {"android": "https://dc.lft.to/lastmile_qr_scan", "ios": "https://dc.lft.to/lastmile_qr_scan"}, "is_disabled": 0, "fusion_lat": 0.0, "name": "6063d32b1cfd2128a3e4f6210ace6962", "fusion_lon": 0.0}, {"is_reserved": 0, "type": "electric_scooter", "bike_id": "ab613afdc312f362f64c1249cbaf6a8d", "lat": 38.9126515, "lon": -77.01876, "rental_uris": {"android": "https://dc.lft.to/lastmile_qr_scan", "ios": "https://dc.lft.to/lastmile_qr_scan"}, "is_disabled": 0, "fusion_lat": 0.0, "name": "ab613afdc312f362f64c1249cbaf6a8d", "fusion_lon": 0.0}, {"is_reserved": 0, "type": "electric_scooter", "bike_id": "ac930823ce991dc6fad89ace3f910c6c", "lat": 38.93627, "lon": -77.064819, "rental_uris": {"android": "https://dc.lft.to/lastmile_qr_scan", "ios": "https://dc.lft.to/lastmile_qr_scan"}, "is_disabled": 0, "fusion_lat": 0.0, "name": "ac930823ce991dc6fad89ace3f910c6c", "fusion_lon": 0.0}, {"is_reserved": 0, "type": "electric_scooter", "bike_id": "fcd6cfbef6f30a3c4c6de00c9ea24195", "lat": 38.896071166666665, "lon": -77.00524033333333, "rental_uris": {"android": "https://dc.lft.to/lastmile_qr_scan", "ios": "https://dc.lft.to/lastmile_qr_scan"}, "is_disabled": 0, "fusion_lat": 0.0, "name": "fcd6cfbef6f30a3c4c6de00c9ea24195", "fusion_lon": 0.0}, {"is_reserved": 0, "type": "electric_scooter", "bike_id": "09c1826060f5f2e461b0cb3965da4f90", "lat": 38.89827666666667, "lon": -77.04822816666666, "rental_uris": {"android": "https://dc.lft.to/lastmile_qr_scan", "ios": "https://dc.lft.to/lastmile_qr_scan"}, "is_disabled": 0, "fusion_lat": 0.0, "name": "09c1826060f5f2e461b0cb3965da4f90", "fusion_lon": 0.0}, {"is_reserved": 0, "type": "electric_scooter", "bike_id": "0987422fce09ecc5a88add7225246e95", "lat": 38.920190166666664, "lon": -77.03118366666666, "rental_uris": {"android": "https://dc.lft.to/lastmile_qr_scan", "ios": "https://dc.lft.to/lastmile_qr_scan"}, "is_disabled": 0, "fusion_lat": 0.0, "name": "0987422fce09ecc5a88add7225246e95", "fusion_lon": 0.0}, {"is_reserved": 0, "type": "electric_scooter", "bike_id": "ed31abc1224e1d1e1dba4294e502550f", "lat": 38.90124083333333, "lon": -77.03371266666667, "rental_uris": {"android": "https://dc.lft.to/lastmile_qr_scan", "ios": "https://dc.lft.to/lastmile_qr_scan"}, "is_disabled": 0, "fusion_lat": 0.0, "name": "ed31abc1224e1d1e1dba4294e502550f", "fusion_lon": 0.0}, {"is_reserved": 0, "type": "electric_scooter", "bike_id": "1f2ffc63bd7c7ba6847c0a221e15030f", "lat": 38.900171666666665, "lon": -77.04488833333333, "rental_uris": {"android": "https://dc.lft.to/lastmile_qr_scan", "ios": "https://dc.lft.to/lastmile_qr_scan"}, "is_disabled": 0, "fusion_lat": 0.0, "name": "1f2ffc63bd7c7ba6847c0a221e15030f", "fusion_lon": 0.0}, {"is_reserved": 0, "type": "electric_scooter", "bike_id": "8b501100bf76496ae2bc28b3419afa63", "lat": 38.89988816666666, "lon": -77.02703783333334, "rental_uris": {"android": "https://dc.lft.to/lastmile_qr_scan", "ios": "https://dc.lft.to/lastmile_qr_scan"}, "is_disabled": 0, "fusion_lat": 0.0, "name": "8b501100bf76496ae2bc28b3419afa63", "fusion_lon": 0.0}, {"is_reserved": 0, "type": "electric_bike", "bike_id": "f65e0a5efa94e397d5feae758a138ca9", "lat": 38.99557083333333, "lon": -77.0743875, "rental_uris": {"android": "https://dc.lft.to/lastmile_qr_scan", "ios": "https://dc.lft.to/lastmile_qr_scan"}, "is_disabled": 0, "fusion_lat": 0.0, "name": "f65e0a5efa94e397d5feae758a138ca9", "fusion_lon": 0.0}, {"is_reserved": 0, "type": "electric_scooter", "bike_id": "e0541718c36ef7de58aedc598758c5ae", "lat": 38.92071216666667, "lon": -77.02395683333333, "rental_uris": {"android": "https://dc.lft.to/lastmile_qr_scan", "ios": "https://dc.lft.to/lastmile_qr_scan"}, "is_disabled": 0, "fusion_lat": 0.0, "name": "e0541718c36ef7de58aedc598758c5ae", "fusion_lon": 0.0}, {"is_reserved": 0, "type": "electric_scooter", "bike_id": "384499825e3b4379d3ee66a517f37214", "lat": 38.952488333333335, "lon": -77.02393716666667, "rental_uris": {"android": "https://dc.lft.to/lastmile_qr_scan", "ios": "https://dc.lft.to/lastmile_qr_scan"}, "is_disabled": 0, "fusion_lat": 0.0, "name": "384499825e3b4379d3ee66a517f37214", "fusion_lon": 0.0}, {"is_reserved": 0, "type": "electric_scooter", "bike_id": "2c7a114d870ccd3884e3a3935b1f3413", "lat": 38.90587333333333, "lon": -77.03635466666667, "rental_uris": {"android": "https://dc.lft.to/lastmile_qr_scan", "ios": "https://dc.lft.to/lastmile_qr_scan"}, "is_disabled": 0, "fusion_lat": 0.0, "name": "2c7a114d870ccd3884e3a3935b1f3413", "fusion_lon": 0.0}, {"is_reserved": 0, "type": "electric_scooter", "bike_id": "8b6a1721a396c890e9b4b58308a7a525", "lat": 38.917114, "lon": -77.0321875, "rental_uris": {"android": "https://dc.lft.to/lastmile_qr_scan", "ios": "https://dc.lft.to/lastmile_qr_scan"}, "is_disabled": 0, "fusion_lat": 0.0, "name": "8b6a1721a396c890e9b4b58308a7a525", "fusion_lon": 0.0}, {"is_reserved": 0, "type": "electric_scooter", "bike_id": "d95fb999602186a12eb31a79b8d9ff6b", "lat": 38.9225975, "lon": -77.03667666666666, "rental_uris": {"android": "https://dc.lft.to/lastmile_qr_scan", "ios": "https://dc.lft.to/lastmile_qr_scan"}, "is_disabled": 0, "fusion_lat": 0.0, "name": "d95fb999602186a12eb31a79b8d9ff6b", "fusion_lon": 0.0}, {"is_reserved": 0, "type": "electric_scooter", "bike_id": "6b3533c50c190413bad4a54d19bbccff", "lat": 38.91863566666667, "lon": -77.0134695, "rental_uris": {"android": "https://dc.lft.to/lastmile_qr_scan", "ios": "https://dc.lft.to/lastmile_qr_scan"}, "is_disabled": 0, "fusion_lat": 0.0, "name": "6b3533c50c190413bad4a54d19bbccff", "fusion_lon": 0.0}, {"is_reserved": 0, "type": "electric_scooter", "bike_id": "97f34c86f02c7d4d0d8d92b52cebe42f", "lat": 38.93863316666667, "lon": -77.02561483333334, "rental_uris": {"android": "https://dc.lft.to/lastmile_qr_scan", "ios": "https://dc.lft.to/lastmile_qr_scan"}, "is_disabled": 0, "fusion_lat": 0.0, "name": "97f34c86f02c7d4d0d8d92b52cebe42f", "fusion_lon": 0.0}, {"is_reserved": 0, "type": "electric_scooter", "bike_id": "9ef7b5c0550b1680a4813ed9bf27e2f1", "lat": 38.966459666666665, "lon": -77.00890383333333, "rental_uris": {"android": "https://dc.lft.to/lastmile_qr_scan", "ios": "https://dc.lft.to/lastmile_qr_scan"}, "is_disabled": 0, "fusion_lat": 0.0, "name": "9ef7b5c0550b1680a4813ed9bf27e2f1", "fusion_lon": 0.0}, {"is_reserved": 0, "type": "electric_scooter", "bike_id": "307cacede8cb779f9f1e3c3ab9898dc2", "lat": 38.926074, "lon": -77.02155416666666, "rental_uris": {"android": "https://dc.lft.to/lastmile_qr_scan", "ios": "https://dc.lft.to/lastmile_qr_scan"}, "is_disabled": 0, "fusion_lat": 0.0, "name": "307cacede8cb779f9f1e3c3ab9898dc2", "fusion_lon": 0.0}, {"is_reserved": 0, "type": "electric_scooter", "bike_id": "73e27032b5e54ed3eb1081343a40cb8f", "lat": 38.91244583333334, "lon": -77.02721583333333, "rental_uris": {"android": "https://dc.lft.to/lastmile_qr_scan", "ios": "https://dc.lft.to/lastmile_qr_scan"}, "is_disabled": 0, "fusion_lat": 0.0, "name": "73e27032b5e54ed3eb1081343a40cb8f", "fusion_lon": 0.0}, {"is_reserved": 0, "type": "electric_scooter", "bike_id": "e53326cc5ee3ec1aaee8f799a9314755", "lat": 38.893516166666664, "lon": -77.0173235, "rental_uris": {"android": "https://dc.lft.to/lastmile_qr_scan", "ios": "https://dc.lft.to/lastmile_qr_scan"}, "is_disabled": 0, "fusion_lat": 0.0, "name": "e53326cc5ee3ec1aaee8f799a9314755", "fusion_lon": 0.0}, {"is_reserved": 0, "type": "electric_scooter", "bike_id": "6cf6b2756c585d0e13a4922acd229b42", "lat": 38.89220016666667, "lon": -77.02218883333333, "rental_uris": {"android": "https://dc.lft.to/lastmile_qr_scan", "ios": "https://dc.lft.to/lastmile_qr_scan"}, "is_disabled": 0, "fusion_lat": 0.0, "name": "6cf6b2756c585d0e13a4922acd229b42", "fusion_lon": 0.0}, {"is_reserved": 0, "type": "electric_scooter", "bike_id": "d5df1af7748b08dcbe52e6ca13eb29e6", "lat": 38.864857666666666, "lon": -76.977434, "rental_uris": {"android": "https://dc.lft.to/lastmile_qr_scan", "ios": "https://dc.lft.to/lastmile_qr_scan"}, "is_disabled": 0, "fusion_lat": 0.0, "name": "d5df1af7748b08dcbe52e6ca13eb29e6", "fusion_lon": 0.0}, {"is_reserved": 0, "type": "electric_scooter", "bike_id": "53090b26d017ebe656b09300b05b1483", "lat": 38.894814333333336, "lon": -76.99575683333333, "rental_uris": {"android": "https://dc.lft.to/lastmile_qr_scan", "ios": "https://dc.lft.to/lastmile_qr_scan"}, "is_disabled": 0, "fusion_lat": 0.0, "name": "53090b26d017ebe656b09300b05b1483", "fusion_lon": 0.0}, {"is_reserved": 0, "type": "electric_scooter", "bike_id": "39ae46cb274232ad76ef7d9f4acbef1c", "lat": 38.88989083333333, "lon": -77.00338383333333, "rental_uris": {"android": "https://dc.lft.to/lastmile_qr_scan", "ios": "https://dc.lft.to/lastmile_qr_scan"}, "is_disabled": 0, "fusion_lat": 0.0, "name": "39ae46cb274232ad76ef7d9f4acbef1c", "fusion_lon": 0.0}, {"is_reserved": 0, "type": "electric_bike", "bike_id": "0d66deb8470ebf379f5c1c50d19a1015", "lat": 38.8961155, "lon": -76.90730833333333, "rental_uris": {"android": "https://dc.lft.to/lastmile_qr_scan", "ios": "https://dc.lft.to/lastmile_qr_scan"}, "is_disabled": 0, "fusion_lat": 0.0, "name": "0d66deb8470ebf379f5c1c50d19a1015", "fusion_lon": 0.0}, {"is_reserved": 0, "type": "electric_scooter", "bike_id": "031df671ffbe7982ae68b9f6e39b5f54", "lat": 38.92363983333333, "lon": -77.03059533333334, "rental_uris": {"android": "https://dc.lft.to/lastmile_qr_scan", "ios": "https://dc.lft.to/lastmile_qr_scan"}, "is_disabled": 0, "fusion_lat": 0.0, "name": "031df671ffbe7982ae68b9f6e39b5f54", "fusion_lon": 0.0}, {"is_reserved": 0, "type": "electric_scooter", "bike_id": "5147586f3be8b4bb57da13afc45d075b", "lat": 38.9086435, "lon": -77.00225733333333, "rental_uris": {"android": "https://dc.lft.to/lastmile_qr_scan", "ios": "https://dc.lft.to/lastmile_qr_scan"}, "is_disabled": 0, "fusion_lat": 0.0, "name": "5147586f3be8b4bb57da13afc45d075b", "fusion_lon": 0.0}, {"is_reserved": 0, "type": "electric_scooter", "bike_id": "470550a4de7a2bd9ff8017fef745361a", "lat": 38.926742, "lon": -77.02598283333333, "rental_uris": {"android": "https://dc.lft.to/lastmile_qr_scan", "ios": "https://dc.lft.to/lastmile_qr_scan"}, "is_disabled": 0, "fusion_lat": 0.0, "name": "470550a4de7a2bd9ff8017fef745361a", "fusion_lon": 0.0}, {"is_reserved": 0, "type": "electric_scooter", "bike_id": "f76ab3a46351a85e7fa40fce221d90e1", "lat": 38.894248, "lon": -77.05596266666667, "rental_uris": {"android": "https://dc.lft.to/lastmile_qr_scan", "ios": "https://dc.lft.to/lastmile_qr_scan"}, "is_disabled": 0, "fusion_lat": 0.0, "name": "f76ab3a46351a85e7fa40fce221d90e1", "fusion_lon": 0.0}, {"is_reserved": 0, "type": "electric_scooter", "bike_id": "6cc02f2b24a26168999c4bfac6d8f20a", "lat": 38.906687166666664, "lon": -76.980199, "rental_uris": {"android": "https://dc.lft.to/lastmile_qr_scan", "ios": "https://dc.lft.to/lastmile_qr_scan"}, "is_disabled": 0, "fusion_lat": 0.0, "name": "6cc02f2b24a26168999c4bfac6d8f20a", "fusion_lon": 0.0}, {"is_reserved": 0, "type": "electric_bike", "bike_id": "b349c20b544638cd778e71f7f1929002", "lat": 38.955495, "lon": -76.96904733333334, "rental_uris": {"android": "https://dc.lft.to/lastmile_qr_scan", "ios": "https://dc.lft.to/lastmile_qr_scan"}, "is_disabled": 0, "fusion_lat": 0.0, "name": "b349c20b544638cd778e71f7f1929002", "fusion_lon": 0.0}, {"is_reserved": 0, "type": "electric_scooter", "bike_id": "6e33a5e80fdf6a389b55aff047dc1ae9", "lat": 38.871589666666665, "lon": -77.013523, "rental_uris": {"android": "https://dc.lft.to/lastmile_qr_scan", "ios": "https://dc.lft.to/lastmile_qr_scan"}, "is_disabled": 0, "fusion_lat": 0.0, "name": "6e33a5e80fdf6a389b55aff047dc1ae9", "fusion_lon": 0.0}, {"is_reserved": 0, "type": "electric_scooter", "bike_id": "0a18b9714c0e3110afcff801d25a68d4", "lat": 38.907197, "lon": -77.0254975, "rental_uris": {"android": "https://dc.lft.to/lastmile_qr_scan", "ios": "https://dc.lft.to/lastmile_qr_scan"}, "is_disabled": 0, "fusion_lat": 0.0, "name": "0a18b9714c0e3110afcff801d25a68d4", "fusion_lon": 0.0}, {"is_reserved": 0, "type": "electric_scooter", "bike_id": "fac1e727025f35e85ad0b6bd673c4673", "lat": 38.936938166666664, "lon": -77.02710416666666, "rental_uris": {"android": "https://dc.lft.to/lastmile_qr_scan", "ios": "https://dc.lft.to/lastmile_qr_scan"}, "is_disabled": 0, "fusion_lat": 0.0, "name": "fac1e727025f35e85ad0b6bd673c4673", "fusion_lon": 0.0}, {"is_reserved": 0, "type": "electric_scooter", "bike_id": "0898917d976259d9ab2428ecf593cbfe", "lat": 38.89953333333333, "lon": -77.01628133333334, "rental_uris": {"android": "https://dc.lft.to/lastmile_qr_scan", "ios": "https://dc.lft.to/lastmile_qr_scan"}, "is_disabled": 0, "fusion_lat": 0.0, "name": "0898917d976259d9ab2428ecf593cbfe", "fusion_lon": 0.0}, {"is_reserved": 0, "type": "electric_scooter", "bike_id": "574a798cb99fed8e8221204e9ec9a126", "lat": 38.925593166666665, "lon": -76.96999683333334, "rental_uris": {"android": "https://dc.lft.to/lastmile_qr_scan", "ios": "https://dc.lft.to/lastmile_qr_scan"}, "is_disabled": 0, "fusion_lat": 0.0, "name": "574a798cb99fed8e8221204e9ec9a126", "fusion_lon": 0.0}, {"is_reserved": 0, "type": "electric_scooter", "bike_id": "f0b14947dd377380338dc78b9dc786ec", "lat": 38.944399, "lon": -77.0291015, "rental_uris": {"android": "https://dc.lft.to/lastmile_qr_scan", "ios": "https://dc.lft.to/lastmile_qr_scan"}, "is_disabled": 0, "fusion_lat": 0.0, "name": "f0b14947dd377380338dc78b9dc786ec", "fusion_lon": 0.0}, {"is_reserved": 0, "type": "electric_scooter", "bike_id": "d725f0846734d960d9f21d20645c3187", "lat": 38.898503166666664, "lon": -76.92750583333333, "rental_uris": {"android": "https://dc.lft.to/lastmile_qr_scan", "ios": "https://dc.lft.to/lastmile_qr_scan"}, "is_disabled": 0, "fusion_lat": 0.0, "name": "d725f0846734d960d9f21d20645c3187", "fusion_lon": 0.0}, {"is_reserved": 0, "type": "electric_scooter", "bike_id": "677c9b350b5da9dc461ac74fc8663a34", "lat": 38.90719083333333, "lon": -77.02580183333333, "rental_uris": {"android": "https://dc.lft.to/lastmile_qr_scan", "ios": "https://dc.lft.to/lastmile_qr_scan"}, "is_disabled": 0, "fusion_lat": 0.0, "name": "677c9b350b5da9dc461ac74fc8663a34", "fusion_lon": 0.0}, {"is_reserved": 0, "type": "electric_scooter", "bike_id": "6479782b1e73cc8d94dad81c277dc14a", "lat": 38.924029166666664, "lon": -76.9514175, "rental_uris": {"android": "https://dc.lft.to/lastmile_qr_scan", "ios": "https://dc.lft.to/lastmile_qr_scan"}, "is_disabled": 0, "fusion_lat": 0.0, "name": "6479782b1e73cc8d94dad81c277dc14a", "fusion_lon": 0.0}, {"is_reserved": 0, "type": "electric_scooter", "bike_id": "e45f655233b5f19b15fb551e9b2a55ba", "lat": 38.896044833333335, "lon": -77.02618033333333, "rental_uris": {"android": "https://dc.lft.to/lastmile_qr_scan", "ios": "https://dc.lft.to/lastmile_qr_scan"}, "is_disabled": 0, "fusion_lat": 0.0, "name": "e45f655233b5f19b15fb551e9b2a55ba", "fusion_lon": 0.0}, {"is_reserved": 0, "type": "electric_scooter", "bike_id": "8058a5856d3349419ac6ddd5c6d5d89b", "lat": 38.8999325, "lon": -77.028957, "rental_uris": {"android": "https://dc.lft.to/lastmile_qr_scan", "ios": "https://dc.lft.to/lastmile_qr_scan"}, "is_disabled": 0, "fusion_lat": 0.0, "name": "8058a5856d3349419ac6ddd5c6d5d89b", "fusion_lon": 0.0}, {"is_reserved": 0, "type": "electric_scooter", "bike_id": "a610f27985b85011c089dadb58542c6e", "lat": 38.9203175, "lon": -77.05623783333333, "rental_uris": {"android": "https://dc.lft.to/lastmile_qr_scan", "ios": "https://dc.lft.to/lastmile_qr_scan"}, "is_disabled": 0, "fusion_lat": 0.0, "name": "a610f27985b85011c089dadb58542c6e", "fusion_lon": 0.0}, {"is_reserved": 0, "type": "electric_scooter", "bike_id": "da385f51e2196c3e7b685d71cf4bd90e", "lat": 38.896263, "lon": -77.00210516666667, "rental_uris": {"android": "https://dc.lft.to/lastmile_qr_scan", "ios": "https://dc.lft.to/lastmile_qr_scan"}, "is_disabled": 0, "fusion_lat": 0.0, "name": "da385f51e2196c3e7b685d71cf4bd90e", "fusion_lon": 0.0}, {"is_reserved": 0, "type": "electric_scooter", "bike_id": "11f84965bccfb0f6715afbad0a5a1cfa", "lat": 38.8988695, "lon": -77.048742, "rental_uris": {"android": "https://dc.lft.to/lastmile_qr_scan", "ios": "https://dc.lft.to/lastmile_qr_scan"}, "is_disabled": 0, "fusion_lat": 0.0, "name": "11f84965bccfb0f6715afbad0a5a1cfa", "fusion_lon": 0.0}, {"is_reserved": 0, "type": "electric_scooter", "bike_id": "0899576a77c16d764b839a5b7fec18b6", "lat": 38.910607666666664, "lon": -77.021909, "rental_uris": {"android": "https://dc.lft.to/lastmile_qr_scan", "ios": "https://dc.lft.to/lastmile_qr_scan"}, "is_disabled": 0, "fusion_lat": 0.0, "name": "0899576a77c16d764b839a5b7fec18b6", "fusion_lon": 0.0}, {"is_reserved": 0, "type": "electric_scooter", "bike_id": "c7989607cb42718573ca90b5749702fc", "lat": 38.92801133333333, "lon": -77.03643783333334, "rental_uris": {"android": "https://dc.lft.to/lastmile_qr_scan", "ios": "https://dc.lft.to/lastmile_qr_scan"}, "is_disabled": 0, "fusion_lat": 0.0, "name": "c7989607cb42718573ca90b5749702fc", "fusion_lon": 0.0}, {"is_reserved": 0, "type": "electric_scooter", "bike_id": "90664e97c10ed9b37eea3e58d0d6c483", "lat": 38.90168216666667, "lon": -77.044681, "rental_uris": {"android": "https://dc.lft.to/lastmile_qr_scan", "ios": "https://dc.lft.to/lastmile_qr_scan"}, "is_disabled": 0, "fusion_lat": 0.0, "name": "90664e97c10ed9b37eea3e58d0d6c483", "fusion_lon": 0.0}, {"is_reserved": 0, "type": "electric_scooter", "bike_id": "1e42398135c5e4dab8dec322f12208b1", "lat": 38.9214315, "lon": -77.0103745, "rental_uris": {"android": "https://dc.lft.to/lastmile_qr_scan", "ios": "https://dc.lft.to/lastmile_qr_scan"}, "is_disabled": 0, "fusion_lat": 0.0, "name": "1e42398135c5e4dab8dec322f12208b1", "fusion_lon": 0.0}, {"is_reserved": 0, "type": "electric_bike", "bike_id": "77221a2d5324c3b85a031b7ee304d990", "lat": 38.91407483333333, "lon": -77.0048495, "rental_uris": {"android": "https://dc.lft.to/lastmile_qr_scan", "ios": "https://dc.lft.to/lastmile_qr_scan"}, "is_disabled": 0, "fusion_lat": 0.0, "name": "77221a2d5324c3b85a031b7ee304d990", "fusion_lon": 0.0}, {"is_reserved": 0, "type": "electric_scooter", "bike_id": "e1603f37bcaca0f4824dc1e3de1c5397", "lat": 38.931779166666665, "lon": -77.03857033333334, "rental_uris": {"android": "https://dc.lft.to/lastmile_qr_scan", "ios": "https://dc.lft.to/lastmile_qr_scan"}, "is_disabled": 0, "fusion_lat": 0.0, "name": "e1603f37bcaca0f4824dc1e3de1c5397", "fusion_lon": 0.0}, {"is_reserved": 0, "type": "electric_scooter", "bike_id": "f42315b307a10add3df5c9999c958c01", "lat": 38.909620333333336, "lon": -77.014412, "rental_uris": {"android": "https://dc.lft.to/lastmile_qr_scan", "ios": "https://dc.lft.to/lastmile_qr_scan"}, "is_disabled": 0, "fusion_lat": 0.0, "name": "f42315b307a10add3df5c9999c958c01", "fusion_lon": 0.0}, {"is_reserved": 0, "type": "electric_scooter", "bike_id": "ef366d4d44ab97dfe59fedf87f6c9bd0", "lat": 38.91673433333333, "lon": -77.02972516666667, "rental_uris": {"android": "https://dc.lft.to/lastmile_qr_scan", "ios": "https://dc.lft.to/lastmile_qr_scan"}, "is_disabled": 0, "fusion_lat": 0.0, "name": "ef366d4d44ab97dfe59fedf87f6c9bd0", "fusion_lon": 0.0}, {"is_reserved": 0, "type": "electric_scooter", "bike_id": "7f2ccdd7a04eb63a06a46affa1cfabfb", "lat": 38.95521016666667, "lon": -77.02400016666667, "rental_uris": {"android": "https://dc.lft.to/lastmile_qr_scan", "ios": "https://dc.lft.to/lastmile_qr_scan"}, "is_disabled": 0, "fusion_lat": 0.0, "name": "7f2ccdd7a04eb63a06a46affa1cfabfb", "fusion_lon": 0.0}, {"is_reserved": 0, "type": "electric_scooter", "bike_id": "a2a0d3a6979d57e1afa4d007c9d841d6", "lat": 38.914644833333334, "lon": -77.02283266666667, "rental_uris": {"android": "https://dc.lft.to/lastmile_qr_scan", "ios": "https://dc.lft.to/lastmile_qr_scan"}, "is_disabled": 0, "fusion_lat": 0.0, "name": "a2a0d3a6979d57e1afa4d007c9d841d6", "fusion_lon": 0.0}, {"is_reserved": 0, "type": "electric_scooter", "bike_id": "0e2804acbb61ccb3c3107bb4e82cf1dd", "lat": 38.90584616666666, "lon": -77.03637983333333, "rental_uris": {"android": "https://dc.lft.to/lastmile_qr_scan", "ios": "https://dc.lft.to/lastmile_qr_scan"}, "is_disabled": 0, "fusion_lat": 0.0, "name": "0e2804acbb61ccb3c3107bb4e82cf1dd", "fusion_lon": 0.0}, {"is_reserved": 0, "type": "electric_scooter", "bike_id": "e57958a14f2e2173480d0038a1f317d9", "lat": 38.898588833333335, "lon": -76.9776155, "rental_uris": {"android": "https://dc.lft.to/lastmile_qr_scan", "ios": "https://dc.lft.to/lastmile_qr_scan"}, "is_disabled": 0, "fusion_lat": 0.0, "name": "e57958a14f2e2173480d0038a1f317d9", "fusion_lon": 0.0}, {"is_reserved": 0, "type": "electric_bike", "bike_id": "3f65c3add312fad781fff18e88d6c1e1", "lat": 38.80671566666667, "lon": -77.08754783333333, "rental_uris": {"android": "https://dc.lft.to/lastmile_qr_scan", "ios": "https://dc.lft.to/lastmile_qr_scan"}, "is_disabled": 0, "fusion_lat": 0.0, "name": "3f65c3add312fad781fff18e88d6c1e1", "fusion_lon": 0.0}, {"is_reserved": 0, "type": "electric_bike", "bike_id": "944f64df1b4388b1e197d064171444c9", "lat": 38.8720965, "lon": -77.117359, "rental_uris": {"android": "https://dc.lft.to/lastmile_qr_scan", "ios": "https://dc.lft.to/lastmile_qr_scan"}, "is_disabled": 0, "fusion_lat": 0.0, "name": "944f64df1b4388b1e197d064171444c9", "fusion_lon": 0.0}, {"is_reserved": 0, "type": "electric_scooter", "bike_id": "53c9cb74ef2671674722bb20b4b2ecdf", "lat": 38.914103833333336, "lon": -77.03136666666667, "rental_uris": {"android": "https://dc.lft.to/lastmile_qr_scan", "ios": "https://dc.lft.to/lastmile_qr_scan"}, "is_disabled": 0, "fusion_lat": 0.0, "name": "53c9cb74ef2671674722bb20b4b2ecdf", "fusion_lon": 0.0}, {"is_reserved": 0, "type": "electric_bike", "bike_id": "52935c091f1697ae07c1b0a273bc51a6", "lat": 38.903141833333336, "lon": -76.9913285, "rental_uris": {"android": "https://dc.lft.to/lastmile_qr_scan", "ios": "https://dc.lft.to/lastmile_qr_scan"}, "is_disabled": 0, "fusion_lat": 0.0, "name": "52935c091f1697ae07c1b0a273bc51a6", "fusion_lon": 0.0}, {"is_reserved": 0, "type": "electric_scooter", "bike_id": "bd4390a2b82bdb7a20381f06148e2780", "lat": 38.92117283333333, "lon": -77.01210383333333, "rental_uris": {"android": "https://dc.lft.to/lastmile_qr_scan", "ios": "https://dc.lft.to/lastmile_qr_scan"}, "is_disabled": 0, "fusion_lat": 0.0, "name": "bd4390a2b82bdb7a20381f06148e2780", "fusion_lon": 0.0}, {"is_reserved": 0, "type": "electric_scooter", "bike_id": "d521c592cad82702cf91345ce35418a0", "lat": 38.910906, "lon": -77.02186516666667, "rental_uris": {"android": "https://dc.lft.to/lastmile_qr_scan", "ios": "https://dc.lft.to/lastmile_qr_scan"}, "is_disabled": 0, "fusion_lat": 0.0, "name": "d521c592cad82702cf91345ce35418a0", "fusion_lon": 0.0}, {"is_reserved": 0, "type": "electric_scooter", "bike_id": "4c245504441b968acafcf3e5c67522ea", "lat": 38.92135666666667, "lon": -77.04710733333333, "rental_uris": {"android": "https://dc.lft.to/lastmile_qr_scan", "ios": "https://dc.lft.to/lastmile_qr_scan"}, "is_disabled": 0, "fusion_lat": 0.0, "name": "4c245504441b968acafcf3e5c67522ea", "fusion_lon": 0.0}, {"is_reserved": 0, "type": "electric_scooter", "bike_id": "a353ed481cdfec6743be24912f96b29a", "lat": 38.917318, "lon": -77.0366165, "rental_uris": {"android": "https://dc.lft.to/lastmile_qr_scan", "ios": "https://dc.lft.to/lastmile_qr_scan"}, "is_disabled": 0, "fusion_lat": 0.0, "name": "a353ed481cdfec6743be24912f96b29a", "fusion_lon": 0.0}, {"is_reserved": 0, "type": "electric_scooter", "bike_id": "5cbc1f529dddbd1bd467b3bf41ca0c2e", "lat": 38.90471333333333, "lon": -77.0344815, "rental_uris": {"android": "https://dc.lft.to/lastmile_qr_scan", "ios": "https://dc.lft.to/lastmile_qr_scan"},