{"data": {"bikes": [{"name": "d1162d10ecef59f3b547fb37b283f46d", "fusion_lat": 0.0, "type": "electric_scooter", "lat": 38.9020715, "is_reserved": 0, "is_disabled": 0, "fusion_lon": 0.0, "bike_id": "d1162d10ecef59f3b547fb37b283f46d", "lon": -77.02377333333334, "rental_uris": {"ios": "https://dc.lft.to/lastmile_qr_scan", "android": "https://dc.lft.to/lastmile_qr_scan"}}, {"name": "76a2da8aa2e1dfbef4cef9541f65c2b3", "fusion_lat": 0.0, "type": "electric_scooter", "lat": 38.9051875, "is_reserved": 0, "is_disabled": 0, "fusion_lon": 0.0, "bike_id": "76a2da8aa2e1dfbef4cef9541f65c2b3", "lon": -77.0294065, "rental_uris": {"ios": "https://dc.lft.to/lastmile_qr_scan", "android": "https://dc.lft.to/lastmile_qr_scan"}}, {"name": "0f58bfd1e1626f615a23423a9225713f", "fusion_lat": 0.0, "type": "electric_scooter", "lat": 38.91877733333333, "is_reserved": 0, "is_disabled": 0, "fusion_lon": 0.0, "bike_id": "0f58bfd1e1626f615a23423a9225713f", "lon": -77.042155, "rental_uris": {"ios": "https://dc.lft.to/lastmile_qr_scan", "android": "https://dc.lft.to/lastmile_qr_scan"}}, {"name": "debfc6cf6bb67a4fecee4464057224f4", "fusion_lat": 0.0, "type": "electric_scooter", "lat": 38.91911116666667, "is_reserved": 0, "is_disabled": 0, "fusion_lon": 0.0, "bike_id": "debfc6cf6bb67a4fecee4464057224f4", "lon": -77.0213365, "rental_uris": {"ios": "https://dc.lft.to/lastmile_qr_scan", "android": "https://dc.lft.to/lastmile_qr_scan"}}, {"name": "23c0554c0aa799149df851e36ca931d8", "fusion_lat": 0.0, "type": "electric_scooter", "lat": 38.88656666666667, "is_reserved": 0, "is_disabled": 0, "fusion_lon": 0.0, "bike_id": "23c0554c0aa799149df851e36ca931d8", "lon": -77.00113633333333, "rental_uris": {"ios": "https://dc.lft.to/lastmile_qr_scan", "android": "https://dc.lft.to/lastmile_qr_scan"}}, {"name": "d20f0efc55bdbd3731e28b6fb76dd178", "fusion_lat": 0.0, "type": "electric_scooter", "lat": 38.90971966666667, "is_reserved": 0, "is_disabled": 0, "fusion_lon": 0.0, "bike_id": "d20f0efc55bdbd3731e28b6fb76dd178", "lon": -77.03867116666666, "rental_uris": {"ios": "https://dc.lft.to/lastmile_qr_scan", "android": "https://dc.lft.to/lastmile_qr_scan"}}, {"name": "b012676eb0affcda989e75a12ecb0fec", "fusion_lat": 0.0, "type": "electric_scooter", "lat": 38.885200166666664, "is_reserved": 0, "is_disabled": 0, "fusion_lon": 0.0, "bike_id": "b012676eb0affcda989e75a12ecb0fec", "lon": -77.03346983333333, "rental_uris": {"ios": "https://dc.lft.to/lastmile_qr_scan", "android": "https://dc.lft.to/lastmile_qr_scan"}}, {"name": "bf305b279146004ed67ff578ac4ce054", "fusion_lat": 0.0, "type": "electric_scooter", "lat": 38.87382933333333, "is_reserved": 0, "is_disabled": 0, "fusion_lon": 0.0, "bike_id": "bf305b279146004ed67ff578ac4ce054", "lon": -77.0003795, "rental_uris": {"ios": "https://dc.lft.to/lastmile_qr_scan", "android": "https://dc.lft.to/lastmile_qr_scan"}}, {"name": "1236d368d3a480156952214f2f695294", "fusion_lat": 0.0, "type": "electric_bike", "lat": 38.90625683333333, "is_reserved": 0, "is_disabled": 0, "fusion_lon": 0.0, "bike_id": "1236d368d3a480156952214f2f695294", "lon": -76.98604733333333, "rental_uris": {"ios": "https://dc.lft.to/lastmile_qr_scan", "android": "https://dc.lft.to/lastmile_qr_scan"}}, {"name": "db66bc884556b4f4f305482ac1427f71", "fusion_lat": 0.0, "type": "electric_scooter", "lat": 38.92483766666667, "is_reserved": 0, "is_disabled": 0, "fusion_lon": 0.0, "bike_id": "db66bc884556b4f4f305482ac1427f71", "lon": -77.05217533333334, "rental_uris": {"ios": "https://dc.lft.to/lastmile_qr_scan", "android": "https://dc.lft.to/lastmile_qr_scan"}}, {"name": "43d5de0cf063e0ed039aad38cfe93364", "fusion_lat": 0.0, "type": "electric_scooter", "lat": 38.910568166666664, "is_reserved": 0, "is_disabled": 0, "fusion_lon": 0.0, "bike_id": "43d5de0cf063e0ed039aad38cfe93364", "lon": -77.04576583333333, "rental_uris": {"ios": "https://dc.lft.to/lastmile_qr_scan", "android": "https://dc.lft.to/lastmile_qr_scan"}}, {"name": "ee5d3bd964704de2504a793c24fece47", "fusion_lat": 0.0, "type": "electric_scooter", "lat": 38.917290333333334, "is_reserved": 0, "is_disabled": 0, "fusion_lon": 0.0, "bike_id": "ee5d3bd964704de2504a793c24fece47", "lon": -77.00016033333333, "rental_uris": {"ios": "https://dc.lft.to/lastmile_qr_scan", "android": "https://dc.lft.to/lastmile_qr_scan"}}, {"name": "72fc849bf9838e753bf47d2b08672abd", "fusion_lat": 0.0, "type": "electric_scooter", "lat": 38.916016166666665, "is_reserved": 0, "is_disabled": 0, "fusion_lon": 0.0, "bike_id": "72fc849bf9838e753bf47d2b08672abd", "lon": -77.03845583333333, "rental_uris": {"ios": "https://dc.lft.to/lastmile_qr_scan", "android": "https://dc.lft.to/lastmile_qr_scan"}}, {"name": "fa8b97f3140dfa41c2c8281180d35a45", "fusion_lat": 0.0, "type": "electric_bike", "lat": 38.854126, "is_reserved": 0, "is_disabled": 0, "fusion_lon": 0.0, "bike_id": "fa8b97f3140dfa41c2c8281180d35a45", "lon": -76.90973833333334, "rental_uris": {"ios": "https://dc.lft.to/lastmile_qr_scan", "android": "https://dc.lft.to/lastmile_qr_scan"}}, {"name": "08159ac4a30c885d372dc0de909243ea", "fusion_lat": 0.0, "type": "electric_scooter", "lat": 38.9364365, "is_reserved": 0, "is_disabled": 0, "fusion_lon": 0.0, "bike_id": "08159ac4a30c885d372dc0de909243ea", "lon": -77.02059433333334, "rental_uris": {"ios": "https://dc.lft.to/lastmile_qr_scan", "android": "https://dc.lft.to/lastmile_qr_scan"}}, {"name": "883701889b6a75a8dc471ba4bc54c1bc", "fusion_lat": 0.0, "type": "electric_scooter", "lat": 38.935358, "is_reserved": 0, "is_disabled": 0, "fusion_lon": 0.0, "bike_id": "883701889b6a75a8dc471ba4bc54c1bc", "lon": -77.03404616666667, "rental_uris": {"ios": "https://dc.lft.to/lastmile_qr_scan", "android": "https://dc.lft.to/lastmile_qr_scan"}}, {"name": "5b19b3376b9deb6caa483d1c3d6c0a1b", "fusion_lat": 0.0, "type": "electric_scooter", "lat": 38.8952615, "is_reserved": 0, "is_disabled": 0, "fusion_lon": 0.0, "bike_id": "5b19b3376b9deb6caa483d1c3d6c0a1b", "lon": -76.948896, "rental_uris": {"ios": "https://dc.lft.to/lastmile_qr_scan", "android": "https://dc.lft.to/lastmile_qr_scan"}}, {"name": "b047bafcd46933aeb720ca7226236976", "fusion_lat": 0.0, "type": "electric_scooter", "lat": 38.900285833333335, "is_reserved": 0, "is_disabled": 0, "fusion_lon": 0.0, "bike_id": "b047bafcd46933aeb720ca7226236976", "lon": -77.00185466666667, "rental_uris": {"ios": "https://dc.lft.to/lastmile_qr_scan", "android": "https://dc.lft.to/lastmile_qr_scan"}}, {"name": "f20c0cf0111494db21dbf34281e4dd49", "fusion_lat": 0.0, "type": "electric_bike", "lat": 38.810521666666666, "is_reserved": 0, "is_disabled": 0, "fusion_lon": 0.0, "bike_id": "f20c0cf0111494db21dbf34281e4dd49", "lon": -77.085099, "rental_uris": {"ios": "https://dc.lft.to/lastmile_qr_scan", "android": "https://dc.lft.to/lastmile_qr_scan"}}, {"name": "51d9bfa8bd22b632fcdb3bf815aa7724", "fusion_lat": 0.0, "type": "electric_scooter", "lat": 38.917050333333336, "is_reserved": 0, "is_disabled": 0, "fusion_lon": 0.0, "bike_id": "51d9bfa8bd22b632fcdb3bf815aa7724", "lon": -77.01197366666666, "rental_uris": {"ios": "https://dc.lft.to/lastmile_qr_scan", "android": "https://dc.lft.to/lastmile_qr_scan"}}, {"name": "dd58294b18183a54760cf0e3fd0e5f01", "fusion_lat": 0.0, "type": "electric_bike", "lat": 39.02685783333333, "is_reserved": 0, "is_disabled": 0, "fusion_lon": 0.0, "bike_id": "dd58294b18183a54760cf0e3fd0e5f01", "lon": -77.1260305, "rental_uris": {"ios": "https://dc.lft.to/lastmile_qr_scan", "android": "https://dc.lft.to/lastmile_qr_scan"}}, {"name": "f7ed1352a0e4c4c6e91f66f4a4fa3b80", "fusion_lat": 0.0, "type": "electric_scooter", "lat": 38.921307666666664, "is_reserved": 0, "is_disabled": 0, "fusion_lon": 0.0, "bike_id": "f7ed1352a0e4c4c6e91f66f4a4fa3b80", "lon": -76.99395283333334, "rental_uris": {"ios": "https://dc.lft.to/lastmile_qr_scan", "android": "https://dc.lft.to/lastmile_qr_scan"}}, {"name": "bd74a56d1769ce730b33a0b0c963e27b", "fusion_lat": 0.0, "type": "electric_scooter", "lat": 38.90671316666667, "is_reserved": 0, "is_disabled": 0, "fusion_lon": 0.0, "bike_id": "bd74a56d1769ce730b33a0b0c963e27b", "lon": -77.0271635, "rental_uris": {"ios": "https://dc.lft.to/lastmile_qr_scan", "android": "https://dc.lft.to/lastmile_qr_scan"}}, {"name": "54b0e4f79e75cbd55121faa5f3ad9b05", "fusion_lat": 0.0, "type": "electric_scooter", "lat": 38.90151916666667, "is_reserved": 0, "is_disabled": 0, "fusion_lon": 0.0, "bike_id": "54b0e4f79e75cbd55121faa5f3ad9b05", "lon": -76.990252, "rental_uris": {"ios": "https://dc.lft.to/lastmile_qr_scan", "android": "https://dc.lft.to/lastmile_qr_scan"}}, {"name": "7369e4e963819815a26f399d9675aa79", "fusion_lat": 0.0, "type": "electric_scooter", "lat": 38.9004165, "is_reserved": 0, "is_disabled": 0, "fusion_lon": 0.0, "bike_id": "7369e4e963819815a26f399d9675aa79", "lon": -77.00189533333334, "rental_uris": {"ios": "https://dc.lft.to/lastmile_qr_scan", "android": "https://dc.lft.to/lastmile_qr_scan"}}, {"name": "e1d7f9b504da45d9365abb18a5b7e9d7", "fusion_lat": 0.0, "type": "electric_scooter", "lat": 38.89853566666667, "is_reserved": 0, "is_disabled": 0, "fusion_lon": 0.0, "bike_id": "e1d7f9b504da45d9365abb18a5b7e9d7", "lon": -77.01613116666667, "rental_uris": {"ios": "https://dc.lft.to/lastmile_qr_scan", "android": "https://dc.lft.to/lastmile_qr_scan"}}, {"name": "a379e4276edb7309c8b7c2d7186cfceb", "fusion_lat": 0.0, "type": "electric_scooter", "lat": 38.900292666666665, "is_reserved": 0, "is_disabled": 0, "fusion_lon": 0.0, "bike_id": "a379e4276edb7309c8b7c2d7186cfceb", "lon": -76.99856966666667, "rental_uris": {"ios": "https://dc.lft.to/lastmile_qr_scan", "android": "https://dc.lft.to/lastmile_qr_scan"}}, {"name": "e1640a002dcbf552d59004ce75c2d47d", "fusion_lat": 0.0, "type": "electric_scooter", "lat": 38.89372816666667, "is_reserved": 0, "is_disabled": 0, "fusion_lon": 0.0, "bike_id": "e1640a002dcbf552d59004ce75c2d47d", "lon": -76.94998033333333, "rental_uris": {"ios": "https://dc.lft.to/lastmile_qr_scan", "android": "https://dc.lft.to/lastmile_qr_scan"}}, {"name": "50c660a0aa1d2bce90a629047437f555", "fusion_lat": 0.0, "type": "electric_scooter", "lat": 38.942809, "is_reserved": 0, "is_disabled": 0, "fusion_lon": 0.0, "bike_id": "50c660a0aa1d2bce90a629047437f555", "lon": -77.0250385, "rental_uris": {"ios": "https://dc.lft.to/lastmile_qr_scan", "android": "https://dc.lft.to/lastmile_qr_scan"}}, {"name": "353385d7fc41d92300f84d7834b9a794", "fusion_lat": 0.0, "type": "electric_scooter", "lat": 38.90753683333333, "is_reserved": 0, "is_disabled": 0, "fusion_lon": 0.0, "bike_id": "353385d7fc41d92300f84d7834b9a794", "lon": -77.00777166666667, "rental_uris": {"ios": "https://dc.lft.to/lastmile_qr_scan", "android": "https://dc.lft.to/lastmile_qr_scan"}}, {"name": "385e82fb0f35908a7042076a5374d243", "fusion_lat": 0.0, "type": "electric_bike", "lat": 38.883462333333334, "is_reserved": 0, "is_disabled": 0, "fusion_lon": 0.0, "bike_id": "385e82fb0f35908a7042076a5374d243", "lon": -77.18299033333334, "rental_uris": {"ios": "https://dc.lft.to/lastmile_qr_scan", "android": "https://dc.lft.to/lastmile_qr_scan"}}, {"name": "9617239f84f610282a635de1f2590dcc", "fusion_lat": 0.0, "type": "electric_scooter", "lat": 38.9002125, "is_reserved": 0, "is_disabled": 0, "fusion_lon": 0.0, "bike_id": "9617239f84f610282a635de1f2590dcc", "lon": -76.99833066666666, "rental_uris": {"ios": "https://dc.lft.to/lastmile_qr_scan", "android": "https://dc.lft.to/lastmile_qr_scan"}}, {"name": "c4bef978e8dc6220be75747b7431bf6a", "fusion_lat": 0.0, "type": "electric_scooter", "lat": 38.88594333333333, "is_reserved": 0, "is_disabled": 0, "fusion_lon": 0.0, "bike_id": "c4bef978e8dc6220be75747b7431bf6a", "lon": -77.02210666666667, "rental_uris": {"ios": "https://dc.lft.to/lastmile_qr_scan", "android": "https://dc.lft.to/lastmile_qr_scan"}}, {"name": "77c9002217c3c0045d0846463761b202", "fusion_lat": 0.0, "type": "electric_scooter", "lat": 38.90546116666667, "is_reserved": 0, "is_disabled": 0, "fusion_lon": 0.0, "bike_id": "77c9002217c3c0045d0846463761b202", "lon": -77.0627235, "rental_uris": {"ios": "https://dc.lft.to/lastmile_qr_scan", "android": "https://dc.lft.to/lastmile_qr_scan"}}, {"name": "0297716749e9b86c2d831953bf682db7", "fusion_lat": 0.0, "type": "electric_scooter", "lat": 38.9104555, "is_reserved": 0, "is_disabled": 0, "fusion_lon": 0.0, "bike_id": "0297716749e9b86c2d831953bf682db7", "lon": -77.04373633333333, "rental_uris": {"ios": "https://dc.lft.to/lastmile_qr_scan", "android": "https://dc.lft.to/lastmile_qr_scan"}}, {"name": "52101a300a02ade7ed70a1d9788b3232", "fusion_lat": 0.0, "type": "electric_scooter", "lat": 38.92725516666667, "is_reserved": 0, "is_disabled": 0, "fusion_lon": 0.0, "bike_id": "52101a300a02ade7ed70a1d9788b3232", "lon": -77.07143483333333, "rental_uris": {"ios": "https://dc.lft.to/lastmile_qr_scan", "android": "https://dc.lft.to/lastmile_qr_scan"}}, {"name": "db067a39ebe8d6c98c4c3e4b6e23f188", "fusion_lat": 0.0, "type": "electric_scooter", "lat": 38.952643, "is_reserved": 0, "is_disabled": 0, "fusion_lon": 0.0, "bike_id": "db067a39ebe8d6c98c4c3e4b6e23f188", "lon": -77.02566066666667, "rental_uris": {"ios": "https://dc.lft.to/lastmile_qr_scan", "android": "https://dc.lft.to/lastmile_qr_scan"}}, {"name": "9a8d51356a72d87ebfb0a5f5078ebc23", "fusion_lat": 0.0, "type": "electric_scooter", "lat": 38.92390316666667, "is_reserved": 0, "is_disabled": 0, "fusion_lon": 0.0, "bike_id": "9a8d51356a72d87ebfb0a5f5078ebc23", "lon": -77.02978916666666, "rental_uris": {"ios": "https://dc.lft.to/lastmile_qr_scan", "android": "https://dc.lft.to/lastmile_qr_scan"}}, {"name": "d1ae39c1124d9032194501c991d1747d", "fusion_lat": 0.0, "type": "electric_scooter", "lat": 38.868205833333334, "is_reserved": 0, "is_disabled": 0, "fusion_lon": 0.0, "bike_id": "d1ae39c1124d9032194501c991d1747d", "lon": -76.98613933333333, "rental_uris": {"ios": "https://dc.lft.to/lastmile_qr_scan", "android": "https://dc.lft.to/lastmile_qr_scan"}}, {"name": "8d5a1b9ff9cc93bc3dfd7ff82778644e", "fusion_lat": 0.0, "type": "electric_scooter", "lat": 38.86411, "is_reserved": 0, "is_disabled": 0, "fusion_lon": 0.0, "bike_id": "8d5a1b9ff9cc93bc3dfd7ff82778644e", "lon": -76.98052316666667, "rental_uris": {"ios": "https://dc.lft.to/lastmile_qr_scan", "android": "https://dc.lft.to/lastmile_qr_scan"}}, {"name": "efa0b2ac970434688d9505655fc037a5", "fusion_lat": 0.0, "type": "electric_scooter", "lat": 38.89405516666667, "is_reserved": 0, "is_disabled": 0, "fusion_lon": 0.0, "bike_id": "efa0b2ac970434688d9505655fc037a5", "lon": -76.94793616666666, "rental_uris": {"ios": "https://dc.lft.to/lastmile_qr_scan", "android": "https://dc.lft.to/lastmile_qr_scan"}}, {"name": "676b5ac38cd5bd581d54ce501d97ed91", "fusion_lat": 0.0, "type": "electric_scooter", "lat": 38.8840125, "is_reserved": 0, "is_disabled": 0, "fusion_lon": 0.0, "bike_id": "676b5ac38cd5bd581d54ce501d97ed91", "lon": -76.985896, "rental_uris": {"ios": "https://dc.lft.to/lastmile_qr_scan", "android": "https://dc.lft.to/lastmile_qr_scan"}}, {"name": "17aade7cd10a8ec69db1d196df1a30ed", "fusion_lat": 0.0, "type": "electric_scooter", "lat": 38.9231945, "is_reserved": 0, "is_disabled": 0, "fusion_lon": 0.0, "bike_id": "17aade7cd10a8ec69db1d196df1a30ed", "lon": -77.03547533333334, "rental_uris": {"ios": "https://dc.lft.to/lastmile_qr_scan", "android": "https://dc.lft.to/lastmile_qr_scan"}}, {"name": "7c463b3eae3d1be5ff405c2965b01d28", "fusion_lat": 0.0, "type": "electric_bike", "lat": 38.896381, "is_reserved": 0, "is_disabled": 0, "fusion_lon": 0.0, "bike_id": "7c463b3eae3d1be5ff405c2965b01d28", "lon": -77.10457216666667, "rental_uris": {"ios": "https://dc.lft.to/lastmile_qr_scan", "android": "https://dc.lft.to/lastmile_qr_scan"}}, {"name": "0268ab7963431b510e10113fe9c2b002", "fusion_lat": 0.0, "type": "electric_scooter", "lat": 38.855245333333336, "is_reserved": 0, "is_disabled": 0, "fusion_lon": 0.0, "bike_id": "0268ab7963431b510e10113fe9c2b002", "lon": -76.96919633333333, "rental_uris": {"ios": "https://dc.lft.to/lastmile_qr_scan", "android": "https://dc.lft.to/lastmile_qr_scan"}}, {"name": "3e3b652def7678f267c0040fe1f0224c", "fusion_lat": 0.0, "type": "electric_scooter", "lat": 38.92486366666667, "is_reserved": 0, "is_disabled": 0, "fusion_lon": 0.0, "bike_id": "3e3b652def7678f267c0040fe1f0224c", "lon": -77.0348445, "rental_uris": {"ios": "https://dc.lft.to/lastmile_qr_scan", "android": "https://dc.lft.to/lastmile_qr_scan"}}, {"name": "e1d5fd130b5066f5d194f28bd868bb6a", "fusion_lat": 0.0, "type": "electric_scooter", "lat": 38.92062333333333, "is_reserved": 0, "is_disabled": 0, "fusion_lon": 0.0, "bike_id": "e1d5fd130b5066f5d194f28bd868bb6a", "lon": -77.02376616666666, "rental_uris": {"ios": "https://dc.lft.to/lastmile_qr_scan", "android": "https://dc.lft.to/lastmile_qr_scan"}}, {"name": "f852ced805754478a4bd99f04e7938b1", "fusion_lat": 0.0, "type": "electric_scooter", "lat": 38.9232485, "is_reserved": 0, "is_disabled": 0, "fusion_lon": 0.0, "bike_id": "f852ced805754478a4bd99f04e7938b1", "lon": -77.04107933333333, "rental_uris": {"ios": "https://dc.lft.to/lastmile_qr_scan", "android": "https://dc.lft.to/lastmile_qr_scan"}}, {"name": "03f9fc38484a59ae1e10f3bfc7b8a6cb", "fusion_lat": 0.0, "type": "electric_scooter", "lat": 38.913586, "is_reserved": 0, "is_disabled": 0, "fusion_lon": 0.0, "bike_id": "03f9fc38484a59ae1e10f3bfc7b8a6cb", "lon": -77.04352216666666, "rental_uris": {"ios": "https://dc.lft.to/lastmile_qr_scan", "android": "https://dc.lft.to/lastmile_qr_scan"}}, {"name": "96bb9db5446f7d086e307ffa6d879b55", "fusion_lat": 0.0, "type": "electric_scooter", "lat": 38.929502, "is_reserved": 0, "is_disabled": 0, "fusion_lon": 0.0, "bike_id": "96bb9db5446f7d086e307ffa6d879b55", "lon": -77.03472533333333, "rental_uris": {"ios": "https://dc.lft.to/lastmile_qr_scan", "android": "https://dc.lft.to/lastmile_qr_scan"}}, {"name": "5a59729d16e575acb0e93518a559007a", "fusion_lat": 0.0, "type": "electric_scooter", "lat": 38.902567833333336, "is_reserved": 0, "is_disabled": 0, "fusion_lon": 0.0, "bike_id": "5a59729d16e575acb0e93518a559007a", "lon": -77.04354, "rental_uris": {"ios": "https://dc.lft.to/lastmile_qr_scan", "android": "https://dc.lft.to/lastmile_qr_scan"}}, {"name": "48b88786d9853901a45b8564ee621078", "fusion_lat": 0.0, "type": "electric_scooter", "lat": 38.911007, "is_reserved": 0, "is_disabled": 0, "fusion_lon": 0.0, "bike_id": "48b88786d9853901a45b8564ee621078", "lon": -77.03699283333333, "rental_uris": {"ios": "https://dc.lft.to/lastmile_qr_scan", "android": "https://dc.lft.to/lastmile_qr_scan"}}, {"name": "f76b6ac0eb3a3cab9ccd74c103f13814", "fusion_lat": 0.0, "type": "electric_scooter", "lat": 38.852069666666665, "is_reserved": 0, "is_disabled": 0, "fusion_lon": 0.0, "bike_id": "f76b6ac0eb3a3cab9ccd74c103f13814", "lon": -76.985592, "rental_uris": {"ios": "https://dc.lft.to/lastmile_qr_scan", "android": "https://dc.lft.to/lastmile_qr_scan"}}, {"name": "634dfcdcd509917d085b3a42d58bfcc7", "fusion_lat": 0.0, "type": "electric_scooter", "lat": 38.90593633333334, "is_reserved": 0, "is_disabled": 0, "fusion_lon": 0.0, "bike_id": "634dfcdcd509917d085b3a42d58bfcc7", "lon": -77.07006266666667, "rental_uris": {"ios": "https://dc.lft.to/lastmile_qr_scan", "android": "https://dc.lft.to/lastmile_qr_scan"}}, {"name": "0750aec06e8dd6c0baf51fb8b90c5b91", "fusion_lat": 0.0, "type": "electric_scooter", "lat": 38.92212683333333, "is_reserved": 0, "is_disabled": 0, "fusion_lon": 0.0, "bike_id": "0750aec06e8dd6c0baf51fb8b90c5b91", "lon": -77.04229466666666, "rental_uris": {"ios": "https://dc.lft.to/lastmile_qr_scan", "android": "https://dc.lft.to/lastmile_qr_scan"}}, {"name": "90d634a2e749e252032b66196b3d0083", "fusion_lat": 0.0, "type": "electric_scooter", "lat": 38.93786216666667, "is_reserved": 0, "is_disabled": 0, "fusion_lon": 0.0, "bike_id": "90d634a2e749e252032b66196b3d0083", "lon": -77.0599025, "rental_uris": {"ios": "https://dc.lft.to/lastmile_qr_scan", "android": "https://dc.lft.to/lastmile_qr_scan"}}, {"name": "269840fe579fa573b7185c2bf32692e2", "fusion_lat": 0.0, "type": "electric_bike", "lat": 38.99063866666667, "is_reserved": 0, "is_disabled": 0, "fusion_lon": 0.0, "bike_id": "269840fe579fa573b7185c2bf32692e2", "lon": -77.10026766666667, "rental_uris": {"ios": "https://dc.lft.to/lastmile_qr_scan", "android": "https://dc.lft.to/lastmile_qr_scan"}}, {"name": "abe616bcfd0974a2f9ccc83d71b7870c", "fusion_lat": 0.0, "type": "electric_scooter", "lat": 38.90366516666667, "is_reserved": 0, "is_disabled": 0, "fusion_lon": 0.0, "bike_id": "abe616bcfd0974a2f9ccc83d71b7870c", "lon": -77.04011983333334, "rental_uris": {"ios": "https://dc.lft.to/lastmile_qr_scan", "android": "https://dc.lft.to/lastmile_qr_scan"}}, {"name": "ab42a15b3d3280576ec392228d798f99", "fusion_lat": 0.0, "type": "electric_scooter", "lat": 38.87650566666667, "is_reserved": 0, "is_disabled": 0, "fusion_lon": 0.0, "bike_id": "ab42a15b3d3280576ec392228d798f99", "lon": -76.96508166666666, "rental_uris": {"ios": "https://dc.lft.to/lastmile_qr_scan", "android": "https://dc.lft.to/lastmile_qr_scan"}}, {"name": "f4f833f320bbf44c1adcc573dc66e78f", "fusion_lat": 0.0, "type": "electric_scooter", "lat": 38.93839066666666, "is_reserved": 0, "is_disabled": 0, "fusion_lon": 0.0, "bike_id": "f4f833f320bbf44c1adcc573dc66e78f", "lon": -77.02482716666667, "rental_uris": {"ios": "https://dc.lft.to/lastmile_qr_scan", "android": "https://dc.lft.to/lastmile_qr_scan"}}, {"name": "8236ab47108e5cb3065a64e4c9ed4059", "fusion_lat": 0.0, "type": "electric_scooter", "lat": 38.858003833333335, "is_reserved": 0, "is_disabled": 0, "fusion_lon": 0.0, "bike_id": "8236ab47108e5cb3065a64e4c9ed4059", "lon": -76.98651483333333, "rental_uris": {"ios": "https://dc.lft.to/lastmile_qr_scan", "android": "https://dc.lft.to/lastmile_qr_scan"}}, {"name": "b7eb4a2b8a84101734320e678603a011", "fusion_lat": 0.0, "type": "electric_scooter", "lat": 38.92127816666667, "is_reserved": 0, "is_disabled": 0, "fusion_lon": 0.0, "bike_id": "b7eb4a2b8a84101734320e678603a011", "lon": -77.03659183333333, "rental_uris": {"ios": "https://dc.lft.to/lastmile_qr_scan", "android": "https://dc.lft.to/lastmile_qr_scan"}}, {"name": "7dd0a3d5ab9fc3de64df3c2bc75b66ac", "fusion_lat": 0.0, "type": "electric_scooter", "lat": 38.899822666666665, "is_reserved": 0, "is_disabled": 0, "fusion_lon": 0.0, "bike_id": "7dd0a3d5ab9fc3de64df3c2bc75b66ac", "lon": -77.02703566666666, "rental_uris": {"ios": "https://dc.lft.to/lastmile_qr_scan", "android": "https://dc.lft.to/lastmile_qr_scan"}}, {"name": "eebe14ebd12144e097fd3589a63e5f99", "fusion_lat": 0.0, "type": "electric_scooter", "lat": 38.91116733333333, "is_reserved": 0, "is_disabled": 0, "fusion_lon": 0.0, "bike_id": "eebe14ebd12144e097fd3589a63e5f99", "lon": -77.02404516666667, "rental_uris": {"ios": "https://dc.lft.to/lastmile_qr_scan", "android": "https://dc.lft.to/lastmile_qr_scan"}}, {"name": "3c700f7a8e3b2741b7392852b8c2a4d8", "fusion_lat": 0.0, "type": "electric_scooter", "lat": 38.9275195, "is_reserved": 0, "is_disabled": 0, "fusion_lon": 0.0, "bike_id": "3c700f7a8e3b2741b7392852b8c2a4d8", "lon": -77.03259183333333, "rental_uris": {"ios": "https://dc.lft.to/lastmile_qr_scan", "android": "https://dc.lft.to/lastmile_qr_scan"}}, {"name": "61183d1cf94dd574d35b7771e7007d3f", "fusion_lat": 0.0, "type": "electric_scooter", "lat": 38.89987283333333, "is_reserved": 0, "is_disabled": 0, "fusion_lon": 0.0, "bike_id": "61183d1cf94dd574d35b7771e7007d3f", "lon": -77.03131816666667, "rental_uris": {"ios": "https://dc.lft.to/lastmile_qr_scan", "android": "https://dc.lft.to/lastmile_qr_scan"}}, {"name": "0b0172f7abe126f9090da7aa36d56a83", "fusion_lat": 0.0, "type": "electric_scooter", "lat": 38.9148845, "is_reserved": 0, "is_disabled": 0, "fusion_lon": 0.0, "bike_id": "0b0172f7abe126f9090da7aa36d56a83", "lon": -77.03240616666666, "rental_uris": {"ios": "https://dc.lft.to/lastmile_qr_scan", "android": "https://dc.lft.to/lastmile_qr_scan"}}, {"name": "2f08bd624467ccb44c349cc83d9114e7", "fusion_lat": 0.0, "type": "electric_scooter", "lat": 38.89702166666667, "is_reserved": 0, "is_disabled": 0, "fusion_lon": 0.0, "bike_id": "2f08bd624467ccb44c349cc83d9114e7", "lon": -77.032621, "rental_uris": {"ios": "https://dc.lft.to/lastmile_qr_scan", "android": "https://dc.lft.to/lastmile_qr_scan"}}, {"name": "936ae73f2e9af7d8077e791bdc2b4804", "fusion_lat": 0.0, "type": "electric_scooter", "lat": 38.91807683333333, "is_reserved": 0, "is_disabled": 0, "fusion_lon": 0.0, "bike_id": "936ae73f2e9af7d8077e791bdc2b4804", "lon": -77.032142, "rental_uris": {"ios": "https://dc.lft.to/lastmile_qr_scan", "android": "https://dc.lft.to/lastmile_qr_scan"}}, {"name": "c68af3c1ae91af2a0702b069ffc33916", "fusion_lat": 0.0, "type": "electric_scooter", "lat": 38.91882, "is_reserved": 0, "is_disabled": 0, "fusion_lon": 0.0, "bike_id": "c68af3c1ae91af2a0702b069ffc33916", "lon": -77.043504, "rental_uris": {"ios": "https://dc.lft.to/lastmile_qr_scan", "android": "https://dc.lft.to/lastmile_qr_scan"}}, {"name": "6bfb9ad3163daccf9904353862d2f8be", "fusion_lat": 0.0, "type": "electric_scooter", "lat": 38.895745833333336, "is_reserved": 0, "is_disabled": 0, "fusion_lon": 0.0, "bike_id": "6bfb9ad3163daccf9904353862d2f8be", "lon": -76.948875, "rental_uris": {"ios": "https://dc.lft.to/lastmile_qr_scan", "android": "https://dc.lft.to/lastmile_qr_scan"}}, {"name": "d48e413c86cc0b3e6a3ec55669c92e2f", "fusion_lat": 0.0, "type": "electric_bike", "lat": 38.958408666666664, "is_reserved": 0, "is_disabled": 0, "fusion_lon": 0.0, "bike_id": "d48e413c86cc0b3e6a3ec55669c92e2f", "lon": -76.99865316666667, "rental_uris": {"ios": "https://dc.lft.to/lastmile_qr_scan", "android": "https://dc.lft.to/lastmile_qr_scan"}}, {"name": "c5507c3c3021be0f3e7fae6b37c2b3f6", "fusion_lat": 0.0, "type": "electric_scooter", "lat": 38.9057875, "is_reserved": 0, "is_disabled": 0, "fusion_lon": 0.0, "bike_id": "c5507c3c3021be0f3e7fae6b37c2b3f6", "lon": -77.032637, "rental_uris": {"ios": "https://dc.lft.to/lastmile_qr_scan", "android": "https://dc.lft.to/lastmile_qr_scan"}}, {"name": "9ca0aff76f9a8fcf4cd6493c954337d9", "fusion_lat": 0.0, "type": "electric_scooter", "lat": 38.9009845, "is_reserved": 0, "is_disabled": 0, "fusion_lon": 0.0, "bike_id": "9ca0aff76f9a8fcf4cd6493c954337d9", "lon": -77.04991066666666, "rental_uris": {"ios": "https://dc.lft.to/lastmile_qr_scan", "android": "https://dc.lft.to/lastmile_qr_scan"}}, {"name": "1697bb411e48ce485c1223a320719a66", "fusion_lat": 0.0, "type": "electric_scooter", "lat": 38.891285, "is_reserved": 0, "is_disabled": 0, "fusion_lon": 0.0, "bike_id": "1697bb411e48ce485c1223a320719a66", "lon": -76.991584, "rental_uris": {"ios": "https://dc.lft.to/lastmile_qr_scan", "android": "https://dc.lft.to/lastmile_qr_scan"}}, {"name": "50ecf2c1bd768a1a91d96d49fa030fa3", "fusion_lat": 0.0, "type": "electric_bike", "lat": 38.968634333333334, "is_reserved": 0, "is_disabled": 0, "fusion_lon": 0.0, "bike_id": "50ecf2c1bd768a1a91d96d49fa030fa3", "lon": -77.0333325, "rental_uris": {"ios": "https://dc.lft.to/lastmile_qr_scan", "android": "https://dc.lft.to/lastmile_qr_scan"}}, {"name": "15d9dac882199ce1ca75c139be4c0c61", "fusion_lat": 0.0, "type": "electric_scooter", "lat": 38.9141935, "is_reserved": 0, "is_disabled": 0, "fusion_lon": 0.0, "bike_id": "15d9dac882199ce1ca75c139be4c0c61", "lon": -77.03168116666667, "rental_uris": {"ios": "https://dc.lft.to/lastmile_qr_scan", "android": "https://dc.lft.to/lastmile_qr_scan"}}, {"name": "2e3f913af4af2cfd2ba6765496c15121", "fusion_lat": 0.0, "type": "electric_scooter", "lat": 38.93894183333333, "is_reserved": 0, "is_disabled": 0, "fusion_lon": 0.0, "bike_id": "2e3f913af4af2cfd2ba6765496c15121", "lon": -77.01755133333333, "rental_uris": {"ios": "https://dc.lft.to/lastmile_qr_scan", "android": "https://dc.lft.to/lastmile_qr_scan"}}, {"name": "dba3e93b704d48562c8a854cc5fa6bd0", "fusion_lat": 0.0, "type": "electric_scooter", "lat": 38.9081165, "is_reserved": 0, "is_disabled": 0, "fusion_lon": 0.0, "bike_id": "dba3e93b704d48562c8a854cc5fa6bd0", "lon": -77.04337316666667, "rental_uris": {"ios": "https://dc.lft.to/lastmile_qr_scan", "android": "https://dc.lft.to/lastmile_qr_scan"}}, {"name": "a1d07f5cb3e38f005455665362f42f65", "fusion_lat": 0.0, "type": "electric_scooter", "lat": 38.92106183333333, "is_reserved": 0, "is_disabled": 0, "fusion_lon": 0.0, "bike_id": "a1d07f5cb3e38f005455665362f42f65", "lon": -77.03920916666667, "rental_uris": {"ios": "https://dc.lft.to/lastmile_qr_scan", "android": "https://dc.lft.to/lastmile_qr_scan"}}, {"name": "8df6838d3af847f48b71665a8c6d6955", "fusion_lat": 0.0, "type": "electric_scooter", "lat": 38.924814, "is_reserved": 0, "is_disabled": 0, "fusion_lon": 0.0, "bike_id": "8df6838d3af847f48b71665a8c6d6955", "lon": -77.02998483333333, "rental_uris": {"ios": "https://dc.lft.to/lastmile_qr_scan", "android": "https://dc.lft.to/lastmile_qr_scan"}}, {"name": "834c45fe9f3219a37e2437e9519de169", "fusion_lat": 0.0, "type": "electric_bike", "lat": 38.877339166666665, "is_reserved": 0, "is_disabled": 0, "fusion_lon": 0.0, "bike_id": "834c45fe9f3219a37e2437e9519de169", "lon": -77.1185065, "rental_uris": {"ios": "https://dc.lft.to/lastmile_qr_scan", "android": "https://dc.lft.to/lastmile_qr_scan"}}, {"name": "02a74cef21b6108d2611459e84b205dc", "fusion_lat": 0.0, "type": "electric_scooter", "lat": 38.89967083333333, "is_reserved": 0, "is_disabled": 0, "fusion_lon": 0.0, "bike_id": "02a74cef21b6108d2611459e84b205dc", "lon": -77.03923533333334, "rental_uris": {"ios": "https://dc.lft.to/lastmile_qr_scan", "android": "https://dc.lft.to/lastmile_qr_scan"}}, {"name": "225d523bda29325055f6a6aab8393d58", "fusion_lat": 0.0, "type": "electric_scooter", "lat": 38.935799, "is_reserved": 0, "is_disabled": 0, "fusion_lon": 0.0, "bike_id": "225d523bda29325055f6a6aab8393d58", "lon": -77.02844333333333, "rental_uris": {"ios": "https://dc.lft.to/lastmile_qr_scan", "android": "https://dc.lft.to/lastmile_qr_scan"}}, {"name": "c59e9bb58bdac7d0f51cf64c767f687f", "fusion_lat": 0.0, "type": "electric_scooter", "lat": 38.91918783333333, "is_reserved": 0, "is_disabled": 0, "fusion_lon": 0.0, "bike_id": "c59e9bb58bdac7d0f51cf64c767f687f", "lon": -77.01126016666667, "rental_uris": {"ios": "https://dc.lft.to/lastmile_qr_scan", "android": "https://dc.lft.to/lastmile_qr_scan"}}, {"name": "4d89044bb9704618add841317d7662ed", "fusion_lat": 0.0, "type": "electric_scooter", "lat": 38.912839, "is_reserved": 0, "is_disabled": 0, "fusion_lon": 0.0, "bike_id": "4d89044bb9704618add841317d7662ed", "lon": -76.93794383333334, "rental_uris": {"ios": "https://dc.lft.to/lastmile_qr_scan", "android": "https://dc.lft.to/lastmile_qr_scan"}}, {"name": "ddf4d06430ce4ed64000dcad3c736356", "fusion_lat": 0.0, "type": "electric_scooter", "lat": 38.898337833333336, "is_reserved": 0, "is_disabled": 0, "fusion_lon": 0.0, "bike_id": "ddf4d06430ce4ed64000dcad3c736356", "lon": -76.9463775, "rental_uris": {"ios": "https://dc.lft.to/lastmile_qr_scan", "android": "https://dc.lft.to/lastmile_qr_scan"}}, {"name": "07c743ba58c3d5da37d84b0eb778b647", "fusion_lat": 0.0, "type": "electric_scooter", "lat": 38.89417366666667, "is_reserved": 0, "is_disabled": 0, "fusion_lon": 0.0, "bike_id": "07c743ba58c3d5da37d84b0eb778b647", "lon": -77.02181883333333, "rental_uris": {"ios": "https://dc.lft.to/lastmile_qr_scan", "android": "https://dc.lft.to/lastmile_qr_scan"}}, {"name": "a2f0946f740deb267b6fb5b7125a98ea", "fusion_lat": 0.0, "type": "electric_scooter", "lat": 38.900391, "is_reserved": 0, "is_disabled": 0, "fusion_lon": 0.0, "bike_id": "a2f0946f740deb267b6fb5b7125a98ea", "lon": -77.00188966666667, "rental_uris": {"ios": "https://dc.lft.to/lastmile_qr_scan", "android": "https://dc.lft.to/lastmile_qr_scan"}}, {"name": "afb086ec8b36951a230597596e9ed939", "fusion_lat": 0.0, "type": "electric_scooter", "lat": 38.9142285, "is_reserved": 0, "is_disabled": 0, "fusion_lon": 0.0, "bike_id": "afb086ec8b36951a230597596e9ed939", "lon": -77.04501166666667, "rental_uris": {"ios": "https://dc.lft.to/lastmile_qr_scan", "android": "https://dc.lft.to/lastmile_qr_scan"}}, {"name": "bac92d7cce6430066d606b5fdeba1bfd", "fusion_lat": 0.0, "type": "electric_scooter", "lat": 38.9000055, "is_reserved": 0, "is_disabled": 0, "fusion_lon": 0.0, "bike_id": "bac92d7cce6430066d606b5fdeba1bfd", "lon": -76.99461066666667, "rental_uris": {"ios": "https://dc.lft.to/lastmile_qr_scan", "android": "https://dc.lft.to/lastmile_qr_scan"}}, {"name": "39c1cf48b16b9866297d722bb7be9c7c", "fusion_lat": 0.0, "type": "electric_scooter", "lat": 38.90832616666667, "is_reserved": 0, "is_disabled": 0, "fusion_lon": 0.0, "bike_id": "39c1cf48b16b9866297d722bb7be9c7c", "lon": -76.99696233333333, "rental_uris": {"ios": "https://dc.lft.to/lastmile_qr_scan", "android": "https://dc.lft.to/lastmile_qr_scan"}}, {"name": "27252f8c79a592b4cbd10640d24bd477", "fusion_lat": 0.0, "type": "electric_scooter", "lat": 38.884299666666664, "is_reserved": 0, "is_disabled": 0, "fusion_lon": 0.0, "bike_id": "27252f8c79a592b4cbd10640d24bd477", "lon": -76.95752533333334, "rental_uris": {"ios": "https://dc.lft.to/lastmile_qr_scan", "android": "https://dc.lft.to/lastmile_qr_scan"}}, {"name": "fcbd2d45e53ae0c3b68ba48b594b5f89", "fusion_lat": 0.0, "type": "electric_scooter", "lat": 38.92526316666667, "is_reserved": 0, "is_disabled": 0, "fusion_lon": 0.0, "bike_id": "fcbd2d45e53ae0c3b68ba48b594b5f89", "lon": -77.055278, "rental_uris": {"ios": "https://dc.lft.to/lastmile_qr_scan", "android": "https://dc.lft.to/lastmile_qr_scan"}}, {"name": "7c99b00fd1ead2497e3084e703af8c32", "fusion_lat": 0.0, "type": "electric_scooter", "lat": 38.931437, "is_reserved": 0, "is_disabled": 0, "fusion_lon": 0.0, "bike_id": "7c99b00fd1ead2497e3084e703af8c32", "lon": -77.04048733333333, "rental_uris": {"ios": "https://dc.lft.to/lastmile_qr_scan", "android": "https://dc.lft.to/lastmile_qr_scan"}}, {"name": "bf63d0619ec651cdf93fd99f10c09c00", "fusion_lat": 0.0, "type": "electric_scooter", "lat": 38.85709633333333, "is_reserved": 0, "is_disabled": 0, "fusion_lon": 0.0, "bike_id": "bf63d0619ec651cdf93fd99f10c09c00", "lon": -76.9813245, "rental_uris": {"ios": "https://dc.lft.to/lastmile_qr_scan", "android": "https://dc.lft.to/lastmile_qr_scan"}}, {"name": "758482761d3883d8405bfa9ce90b71fb", "fusion_lat": 0.0, "type": "electric_scooter", "lat": 38.907849666666664, "is_reserved": 0, "is_disabled": 0, "fusion_lon": 0.0, "bike_id": "758482761d3883d8405bfa9ce90b71fb", "lon": -77.03862, "rental_uris": {"ios": "https://dc.lft.to/lastmile_qr_scan", "android": "https://dc.lft.to/lastmile_qr_scan"}}, {"name": "af2a1f99a09843e3234866340c4cb40d", "fusion_lat": 0.0, "type": "electric_bike", "lat": 38.838132, "is_reserved": 0, "is_disabled": 0, "fusion_lon": 0.0, "bike_id": "af2a1f99a09843e3234866340c4cb40d", "lon": -77.0952315, "rental_uris": {"ios": "https://dc.lft.to/lastmile_qr_scan", "android": "https://dc.lft.to/lastmile_qr_scan"}}, {"name": "45e4e2c5f5c8ac560e756d07782077b2", "fusion_lat": 0.0, "type": "electric_scooter", "lat": 38.911197666666666, "is_reserved": 0, "is_disabled": 0, "fusion_lon": 0.0, "bike_id": "45e4e2c5f5c8ac560e756d07782077b2", "lon": -77.02942483333334, "rental_uris": {"ios": "https://dc.lft.to/lastmile_qr_scan", "android": "https://dc.lft.to/lastmile_qr_scan"}}, {"name": "656c09d6e6221801ba27fd890cb6afea", "fusion_lat": 0.0, "type": "electric_scooter", "lat": 38.91174, "is_reserved": 0, "is_disabled": 0, "fusion_lon": 0.0, "bike_id": "656c09d6e6221801ba27fd890cb6afea", "lon": -77.00140383333333, "rental_uris": {"ios": "https://dc.lft.to/lastmile_qr_scan", "android": "https://dc.lft.to/lastmile_qr_scan"}}, {"name": "9af46e5ec8ce6ef016d605d3ab8333eb", "fusion_lat": 0.0, "type": "electric_scooter", "lat": 38.905066166666664, "is_reserved": 0, "is_disabled": 0, "fusion_lon": 0.0, "bike_id": "9af46e5ec8ce6ef016d605d3ab8333eb", "lon": -77.02612533333334, "rental_uris": {"ios": "https://dc.lft.to/lastmile_qr_scan", "android": "https://dc.lft.to/lastmile_qr_scan"}}, {"name": "5cdb69399dfb24f71aabd6284e72ac3a", "fusion_lat": 0.0, "type": "electric_scooter", "lat": 38.92625533333333, "is_reserved": 0, "is_disabled": 0, "fusion_lon": 0.0, "bike_id": "5cdb69399dfb24f71aabd6284e72ac3a", "lon": -77.04184983333333, "rental_uris": {"ios": "https://dc.lft.to/lastmile_qr_scan", "android": "https://dc.lft.to/lastmile_qr_scan"}}, {"name": "cae2ebbf49bbe26094f27fb85c6b59b9", "fusion_lat": 0.0, "type": "electric_scooter", "lat": 38.887404833333335, "is_reserved": 0, "is_disabled": 0, "fusion_lon": 0.0, "bike_id": "cae2ebbf49bbe26094f27fb85c6b59b9", "lon": -77.02126633333333, "rental_uris": {"ios": "https://dc.lft.to/lastmile_qr_scan", "android": "https://dc.lft.to/lastmile_qr_scan"}}, {"name": "ebe6aea0d632c7c53c3c4956de12d6c1", "fusion_lat": 0.0, "type": "electric_scooter", "lat": 38.905355166666666, "is_reserved": 0, "is_disabled": 0, "fusion_lon": 0.0, "bike_id": "ebe6aea0d632c7c53c3c4956de12d6c1", "lon": -77.05762383333334, "rental_uris": {"ios": "https://dc.lft.to/lastmile_qr_scan", "android": "https://dc.lft.to/lastmile_qr_scan"}}, {"name": "442fad8f069362e1ede70e9b97929ed7", "fusion_lat": 0.0, "type": "electric_scooter", "lat": 38.91928166666667, "is_reserved": 0, "is_disabled": 0, "fusion_lon": 0.0, "bike_id": "442fad8f069362e1ede70e9b97929ed7", "lon": -77.03418783333333, "rental_uris": {"ios": "https://dc.lft.to/lastmile_qr_scan", "android": "https://dc.lft.to/lastmile_qr_scan"}}, {"name": "8ce30eae71624ff6d62a6275e1109a2e", "fusion_lat": 0.0, "type": "electric_scooter", "lat": 38.90811266666667, "is_reserved": 0, "is_disabled": 0, "fusion_lon": 0.0, "bike_id": "8ce30eae71624ff6d62a6275e1109a2e", "lon": -77.0432985, "rental_uris": {"ios": "https://dc.lft.to/lastmile_qr_scan", "android": "https://dc.lft.to/lastmile_qr_scan"}}, {"name": "5550736a229a2b2d04cb7c30bfe5e303", "fusion_lat": 0.0, "type": "electric_scooter", "lat": 38.89403166666666, "is_reserved": 0, "is_disabled": 0, "fusion_lon": 0.0, "bike_id": "5550736a229a2b2d04cb7c30bfe5e303", "lon": -76.94804583333334, "rental_uris": {"ios": "https://dc.lft.to/lastmile_qr_scan", "android": "https://dc.lft.to/lastmile_qr_scan"}}, {"name": "3f1e1143bf82cb90448cfb0010dce194", "fusion_lat": 0.0, "type": "electric_scooter", "lat": 38.935792666666664, "is_reserved": 0, "is_disabled": 0, "fusion_lon": 0.0, "bike_id": "3f1e1143bf82cb90448cfb0010dce194", "lon": -76.99101233333333, "rental_uris": {"ios": "https://dc.lft.to/lastmile_qr_scan", "android": "https://dc.lft.to/lastmile_qr_scan"}}, {"name": "8201ba2ca5c184b0b9187af97efa5f89", "fusion_lat": 0.0, "type": "electric_bike", "lat": 38.9032905, "is_reserved": 0, "is_disabled": 0, "fusion_lon": 0.0, "bike_id": "8201ba2ca5c184b0b9187af97efa5f89", "lon": -76.97535166666667, "rental_uris": {"ios": "https://dc.lft.to/lastmile_qr_scan", "android": "https://dc.lft.to/lastmile_qr_scan"}}, {"name": "2f56801c217167a457414d50504fb3df", "fusion_lat": 0.0, "type": "electric_scooter", "lat": 38.898793833333336, "is_reserved": 0, "is_disabled": 0, "fusion_lon": 0.0, "bike_id": "2f56801c217167a457414d50504fb3df", "lon": -76.93158083333333, "rental_uris": {"ios": "https://dc.lft.to/lastmile_qr_scan", "android": "https://dc.lft.to/lastmile_qr_scan"}}, {"name": "4f15424f44ec0b76bf357b628e5442e6", "fusion_lat": 0.0, "type": "electric_scooter", "lat": 38.91133633333333, "is_reserved": 0, "is_disabled": 0, "fusion_lon": 0.0, "bike_id": "4f15424f44ec0b76bf357b628e5442e6", "lon": -77.03207333333333, "rental_uris": {"ios": "https://dc.lft.to/lastmile_qr_scan", "android": "https://dc.lft.to/lastmile_qr_scan"}}, {"name": "7ec21c7a49bd23372dd13dddf4d18f0b", "fusion_lat": 0.0, "type": "electric_scooter", "lat": 38.90742316666667, "is_reserved": 0, "is_disabled": 0, "fusion_lon": 0.0, "bike_id": "7ec21c7a49bd23372dd13dddf4d18f0b", "lon": -77.04669816666667, "rental_uris": {"ios": "https://dc.lft.to/lastmile_qr_scan", "android": "https://dc.lft.to/lastmile_qr_scan"}}, {"name": "0a63ca0f86419965a2c8382ccdf0aa41", "fusion_lat": 0.0, "type": "electric_scooter", "lat": 38.892488666666665, "is_reserved": 0, "is_disabled": 0, "fusion_lon": 0.0, "bike_id": "0a63ca0f86419965a2c8382ccdf0aa41", "lon": -77.03176316666666, "rental_uris": {"ios": "https://dc.lft.to/lastmile_qr_scan", "android": "https://dc.lft.to/lastmile_qr_scan"}}, {"name": "f3d8bc85b83043ce24d469284436389b", "fusion_lat": 0.0, "type": "electric_scooter", "lat": 38.91112, "is_reserved": 0, "is_disabled": 0, "fusion_lon": 0.0, "bike_id": "f3d8bc85b83043ce24d469284436389b", "lon": -77.01059183333334, "rental_uris": {"ios": "https://dc.lft.to/lastmile_qr_scan", "android": "https://dc.lft.to/lastmile_qr_scan"}}, {"name": "8cc460c8b871a91772dd19f399208db8", "fusion_lat": 0.0, "type": "electric_scooter", "lat": 38.911931833333334, "is_reserved": 0, "is_disabled": 0, "fusion_lon": 0.0, "bike_id": "8cc460c8b871a91772dd19f399208db8", "lon": -77.00727783333333, "rental_uris": {"ios": "https://dc.lft.to/lastmile_qr_scan", "android": "https://dc.lft.to/lastmile_qr_scan"}}, {"name": "b03b317b0a7b2dd4fd7fd1b2732213c3", "fusion_lat": 0.0, "type": "electric_scooter", "lat": 38.9517055, "is_reserved": 0, "is_disabled": 0, "fusion_lon": 0.0, "bike_id": "b03b317b0a7b2dd4fd7fd1b2732213c3", "lon": -77.02549783333333, "rental_uris": {"ios": "https://dc.lft.to/lastmile_qr_scan", "android": "https://dc.lft.to/lastmile_qr_scan"}}, {"name": "2771e414f3282e4aeb46def2e7b8fd8e", "fusion_lat": 0.0, "type": "electric_scooter", "lat": 38.92543933333333, "is_reserved": 0, "is_disabled": 0, "fusion_lon": 0.0, "bike_id": "2771e414f3282e4aeb46def2e7b8fd8e", "lon": -77.03263016666666, "rental_uris": {"ios": "https://dc.lft.to/lastmile_qr_scan", "android": "https://dc.lft.to/lastmile_qr_scan"}}, {"name": "932f0005be4ee167ec8810da6313c4a9", "fusion_lat": 0.0, "type": "electric_scooter", "lat": 38.92316483333333, "is_reserved": 0, "is_disabled": 0, "fusion_lon": 0.0, "bike_id": "932f0005be4ee167ec8810da6313c4a9", "lon": -77.03960433333333, "rental_uris": {"ios": "https://dc.lft.to/lastmile_qr_scan", "android": "https://dc.lft.to/lastmile_qr_scan"}}, {"name": "6a266a63b501062d7e2f049eff59272f", "fusion_lat": 0.0, "type": "electric_scooter", "lat": 38.931112666666664, "is_reserved": 0, "is_disabled": 0, "fusion_lon": 0.0, "bike_id": "6a266a63b501062d7e2f049eff59272f", "lon": -77.03845833333334, "rental_uris": {"ios": "https://dc.lft.to/lastmile_qr_scan", "android": "https://dc.lft.to/lastmile_qr_scan"}}, {"name": "91ca56719a5d72f48b951014cd3b0135", "fusion_lat": 0.0, "type": "electric_scooter", "lat": 38.905437, "is_reserved": 0, "is_disabled": 0, "fusion_lon": 0.0, "bike_id": "91ca56719a5d72f48b951014cd3b0135", "lon": -77.0627475, "rental_uris": {"ios": "https://dc.lft.to/lastmile_qr_scan", "android": "https://dc.lft.to/lastmile_qr_scan"}}, {"name": "cf291d40d2a83930bb0fe0f69260bba2", "fusion_lat": 0.0, "type": "electric_scooter", "lat": 38.93942416666667, "is_reserved": 0, "is_disabled": 0, "fusion_lon": 0.0, "bike_id": "cf291d40d2a83930bb0fe0f69260bba2", "lon": -77.03622866666667, "rental_uris": {"ios": "https://dc.lft.to/lastmile_qr_scan", "android": "https://dc.lft.to/lastmile_qr_scan"}}, {"name": "fffe57aa276d0a46cb2b7c501b5751c1", "fusion_lat": 0.0, "type": "electric_scooter", "lat": 38.90266533333333, "is_reserved": 0, "is_disabled": 0, "fusion_lon": 0.0, "bike_id": "fffe57aa276d0a46cb2b7c501b5751c1", "lon": -77.01552783333334, "rental_uris": {"ios": "https://dc.lft.to/lastmile_qr_scan", "android": "https://dc.lft.to/lastmile_qr_scan"}}, {"name": "55953544d77d948a70d6e3040a85253c", "fusion_lat": 0.0, "type": "electric_scooter", "lat": 38.938761666666664, "is_reserved": 0, "is_disabled": 0, "fusion_lon": 0.0, "bike_id": "55953544d77d948a70d6e3040a85253c", "lon": -77.03215216666666, "rental_uris": {"ios": "https://dc.lft.to/lastmile_qr_scan", "android": "https://dc.lft.to/lastmile_qr_scan"}}, {"name": "db685508367a0db59e2560dfe0ee0d8b", "fusion_lat": 0.0, "type": "electric_scooter", "lat": 38.905053333333335, "is_reserved": 0, "is_disabled": 0, "fusion_lon": 0.0, "bike_id": "db685508367a0db59e2560dfe0ee0d8b", "lon": -77.06941216666667, "rental_uris": {"ios": "https://dc.lft.to/lastmile_qr_scan", "android": "https://dc.lft.to/lastmile_qr_scan"}}, {"name": "7d1b1135a850b8637635613150a5b988", "fusion_lat": 0.0, "type": "electric_scooter", "lat": 38.895641833333336, "is_reserved": 0, "is_disabled": 0, "fusion_lon": 0.0, "bike_id": "7d1b1135a850b8637635613150a5b988", "lon": -77.01111833333333, "rental_uris": {"ios": "https://dc.lft.to/lastmile_qr_scan", "android": "https://dc.lft.to/lastmile_qr_scan"}}, {"name": "e10d8686ac0d30e185642857bc91fd37", "fusion_lat": 0.0, "type": "electric_bike", "lat": 38.9286065, "is_reserved": 0, "is_disabled": 0, "fusion_lon": 0.0, "bike_id": "e10d8686ac0d30e185642857bc91fd37", "lon": -77.22221633333334, "rental_uris": {"ios": "https://dc.lft.to/lastmile_qr_scan", "android": "https://dc.lft.to/lastmile_qr_scan"}}, {"name": "69c81f28e0b48cf0b685e1cbda22ed5e", "fusion_lat": 0.0, "type": "electric_scooter", "lat": 38.901299, "is_reserved": 0, "is_disabled": 0, "fusion_lon": 0.0, "bike_id": "69c81f28e0b48cf0b685e1cbda22ed5e", "lon": -77.04234733333334, "rental_uris": {"ios": "https://dc.lft.to/lastmile_qr_scan", "android": "https://dc.lft.to/lastmile_qr_scan"}}, {"name": "d5a503698ede8518059385a0052c40cb", "fusion_lat": 0.0, "type": "electric_scooter", "lat": 38.90270733333333, "is_reserved": 0, "is_disabled": 0, "fusion_lon": 0.0, "bike_id": "d5a503698ede8518059385a0052c40cb", "lon": -76.9871545, "rental_uris": {"ios": "https://dc.lft.to/lastmile_qr_scan", "android": "https://dc.lft.to/lastmile_qr_scan"}}, {"name": "73192b3c249b2fa3209b38440e298f16", "fusion_lat": 0.0, "type": "electric_scooter", "lat": 38.9140475, "is_reserved": 0, "is_disabled": 0, "fusion_lon": 0.0, "bike_id": "73192b3c249b2fa3209b38440e298f16", "lon": -77.02227383333333, "rental_uris": {"ios": "https://dc.lft.to/lastmile_qr_scan", "android": "https://dc.lft.to/lastmile_qr_scan"}}, {"name": "e179d8a9327979be066303539957464e", "fusion_lat": 0.0, "type": "electric_bike", "lat": 39.088551333333335, "is_reserved": 0, "is_disabled": 0, "fusion_lon": 0.0, "bike_id": "e179d8a9327979be066303539957464e", "lon": -77.17842816666666, "rental_uris": {"ios": "https://dc.lft.to/lastmile_qr_scan", "android": "https://dc.lft.to/lastmile_qr_scan"}}, {"name": "21672d2c922bad1fbc624f716c14e7ef", "fusion_lat": 0.0, "type": "electric_bike", "lat": 39.0535925, "is_reserved": 0, "is_disabled": 0, "fusion_lon": 0.0, "bike_id": "21672d2c922bad1fbc624f716c14e7ef", "lon": -77.04719033333333, "rental_uris": {"ios": "https://dc.lft.to/lastmile_qr_scan", "android": "https://dc.lft.to/lastmile_qr_scan"}}, {"name": "09a79401bcdca631ea7d4e6dac33b355", "fusion_lat": 0.0, "type": "electric_scooter", "lat": 38.95653433333333, "is_reserved": 0, "is_disabled": 0, "fusion_lon": 0.0, "bike_id": "09a79401bcdca631ea7d4e6dac33b355", "lon": -77.03290566666666, "rental_uris": {"ios": "https://dc.lft.to/lastmile_qr_scan", "android": "https://dc.lft.to/lastmile_qr_scan"}}, {"name": "becb63971ac53f4080b1d972ce8b4796", "fusion_lat": 0.0, "type": "electric_scooter", "lat": 38.90715616666667, "is_reserved": 0, "is_disabled": 0, "fusion_lon": 0.0, "bike_id": "becb63971ac53f4080b1d972ce8b4796", "lon": -77.0326165, "rental_uris": {"ios": "https://dc.lft.to/lastmile_qr_scan", "android": "https://dc.lft.to/lastmile_qr_scan"}}, {"name": "c8bbf75fca4ff4daff167af4aa8832cf", "fusion_lat": 0.0, "type": "electric_bike", "lat": 38.935239833333334, "is_reserved": 0, "is_disabled": 0, "fusion_lon": 0.0, "bike_id": "c8bbf75fca4ff4daff167af4aa8832cf", "lon": -76.950637, "rental_uris": {"ios": "https://dc.lft.to/lastmile_qr_scan", "android": "https://dc.lft.to/lastmile_qr_scan"}}, {"name": "101538e6507a2020132309b230a90eb1", "fusion_lat": 0.0, "type": "electric_scooter", "lat": 38.90276183333334, "is_reserved": 0, "is_disabled": 0, "fusion_lon": 0.0, "bike_id": "101538e6507a2020132309b230a90eb1", "lon": -77.03651066666667, "rental_uris": {"ios": "https://dc.lft.to/lastmile_qr_scan", "android": "https://dc.lft.to/lastmile_qr_scan"}}, {"name": "b3a22afddb92b8687468cc965037514e", "fusion_lat": 0.0, "type": "electric_scooter", "lat": 38.92247366666667, "is_reserved": 0, "is_disabled": 0, "fusion_lon": 0.0, "bike_id": "b3a22afddb92b8687468cc965037514e", "lon": -76.99391716666666, "rental_uris": {"ios": "https://dc.lft.to/lastmile_qr_scan", "android": "https://dc.lft.to/lastmile_qr_scan"}}, {"name": "a2d2a3b6d496744109cec1106a2f4181", "fusion_lat": 0.0, "type": "electric_scooter", "lat": 38.9057265, "is_reserved": 0, "is_disabled": 0, "fusion_lon": 0.0, "bike_id": "a2d2a3b6d496744109cec1106a2f4181", "lon": -77.022255, "rental_uris": {"ios": "https://dc.lft.to/lastmile_qr_scan", "android": "https://dc.lft.to/lastmile_qr_scan"}}, {"name": "91bf7d84750c6439a996d1bcd216640b", "fusion_lat": 0.0, "type": "electric_scooter", "lat": 38.865371333333336, "is_reserved": 0, "is_disabled": 0, "fusion_lon": 0.0, "bike_id": "91bf7d84750c6439a996d1bcd216640b", "lon": -76.98703316666666, "rental_uris": {"ios": "https://dc.lft.to/lastmile_qr_scan", "android": "https://dc.lft.to/lastmile_qr_scan"}}, {"name": "0b4e77b46349ef6a442086c42ad35b6c", "fusion_lat": 0.0, "type": "electric_scooter", "lat": 38.89972616666667, "is_reserved": 0, "is_disabled": 0, "fusion_lon": 0.0, "bike_id": "0b4e77b46349ef6a442086c42ad35b6c", "lon": -77.02942016666667, "rental_uris": {"ios": "https://dc.lft.to/lastmile_qr_scan", "android": "https://dc.lft.to/lastmile_qr_scan"}}, {"name": "0e9f03169673f69d8e325a8c979a5dec", "fusion_lat": 0.0, "type": "electric_scooter", "lat": 38.911291, "is_reserved": 0, "is_disabled": 0, "fusion_lon": 0.0, "bike_id": "0e9f03169673f69d8e325a8c979a5dec", "lon": -77.03179716666666, "rental_uris": {"ios": "https://dc.lft.to/lastmile_qr_scan", "android": "https://dc.lft.to/lastmile_qr_scan"}}, {"name": "663b81c87e0bf77da6ba02755e743801", "fusion_lat": 0.0, "type": "electric_scooter", "lat": 38.9095485, "is_reserved": 0, "is_disabled": 0, "fusion_lon": 0.0, "bike_id": "663b81c87e0bf77da6ba02755e743801", "lon": -77.04121666666667, "rental_uris": {"ios": "https://dc.lft.to/lastmile_qr_scan", "android": "https://dc.lft.to/lastmile_qr_scan"}}, {"name": "e99cabf20031d99d44c7ef9ba86f45ce", "fusion_lat": 0.0, "type": "electric_scooter", "lat": 38.905668166666665, "is_reserved": 0, "is_disabled": 0, "fusion_lon": 0.0, "bike_id": "e99cabf20031d99d44c7ef9ba86f45ce", "lon": -77.03451166666666, "rental_uris": {"ios": "https://dc.lft.to/lastmile_qr_scan", "android": "https://dc.lft.to/lastmile_qr_scan"}}, {"name": "6ff8edb4fa9edc70c4ca857a9f1223c5", "fusion_lat": 0.0, "type": "electric_scooter", "lat": 38.92570116666667, "is_reserved": 0, "is_disabled": 0, "fusion_lon": 0.0, "bike_id": "6ff8edb4fa9edc70c4ca857a9f1223c5", "lon": -77.0284785, "rental_uris": {"ios": "https://dc.lft.to/lastmile_qr_scan", "android": "https://dc.lft.to/lastmile_qr_scan"}}, {"name": "06321d9ca521df0a9fe8df58ea5862da", "fusion_lat": 0.0, "type": "electric_scooter", "lat": 38.91196216666667, "is_reserved": 0, "is_disabled": 0, "fusion_lon": 0.0, "bike_id": "06321d9ca521df0a9fe8df58ea5862da", "lon": -77.0007515, "rental_uris": {"ios": "https://dc.lft.to/lastmile_qr_scan", "android": "https://dc.lft.to/lastmile_qr_scan"}}, {"name": "98caf359d209fe37a7acea53998810b6", "fusion_lat": 0.0, "type": "electric_scooter", "lat": 38.92064883333333, "is_reserved": 0, "is_disabled": 0, "fusion_lon": 0.0, "bike_id": "98caf359d209fe37a7acea53998810b6", "lon": -77.029602, "rental_uris": {"ios": "https://dc.lft.to/lastmile_qr_scan", "android": "https://dc.lft.to/lastmile_qr_scan"}}, {"name": "1c85d81d7f0415febf9965f8652edf73", "fusion_lat": 0.0, "type": "electric_scooter", "lat": 38.935355333333334, "is_reserved": 0, "is_disabled": 0, "fusion_lon": 0.0, "bike_id": "1c85d81d7f0415febf9965f8652edf73", "lon": -77.0235195, "rental_uris": {"ios": "https://dc.lft.to/lastmile_qr_scan", "android": "https://dc.lft.to/lastmile_qr_scan"}}, {"name": "0d5510c5461ba4e58b72cfebca1bc542", "fusion_lat": 0.0, "type": "electric_scooter", "lat": 38.91238933333333, "is_reserved": 0, "is_disabled": 0, "fusion_lon": 0.0, "bike_id": "0d5510c5461ba4e58b72cfebca1bc542", "lon": -77.00916716666667, "rental_uris": {"ios": "https://dc.lft.to/lastmile_qr_scan", "android": "https://dc.lft.to/lastmile_qr_scan"}}, {"name": "85c13caf63d24bda0648f2698a11dfdc", "fusion_lat": 0.0, "type": "electric_scooter", "lat": 38.900217, "is_reserved": 0, "is_disabled": 0, "fusion_lon": 0.0, "bike_id": "85c13caf63d24bda0648f2698a11dfdc", "lon": -76.98839283333334, "rental_uris": {"ios": "https://dc.lft.to/lastmile_qr_scan", "android": "https://dc.lft.to/lastmile_qr_scan"}}, {"name": "a154645e01852f6d317de2af4a77d4c7", "fusion_lat": 0.0, "type": "electric_scooter", "lat": 38.91150716666667, "is_reserved": 0, "is_disabled": 0, "fusion_lon": 0.0, "bike_id": "a154645e01852f6d317de2af4a77d4c7", "lon": -77.0443355, "rental_uris": {"ios": "https://dc.lft.to/lastmile_qr_scan", "android": "https://dc.lft.to/lastmile_qr_scan"}}, {"name": "c7958222cc273cfbc29a2e65c27d43e4", "fusion_lat": 0.0, "type": "electric_scooter", "lat": 38.901422333333336, "is_reserved": 0, "is_disabled": 0, "fusion_lon": 0.0, "bike_id": "c7958222cc273cfbc29a2e65c27d43e4", "lon": -77.044987, "rental_uris": {"ios": "https://dc.lft.to/lastmile_qr_scan", "android": "https://dc.lft.to/lastmile_qr_scan"}}, {"name": "6361ae9e1fce74dec2c6db8ff251f132", "fusion_lat": 0.0, "type": "electric_scooter", "lat": 38.912880333333334, "is_reserved": 0, "is_disabled": 0, "fusion_lon": 0.0, "bike_id": "6361ae9e1fce74dec2c6db8ff251f132", "lon": -77.02385566666666, "rental_uris": {"ios": "https://dc.lft.to/lastmile_qr_scan", "android": "https://dc.lft.to/lastmile_qr_scan"}}, {"name": "3ace7b67737933832d78db0208e5166c", "fusion_lat": 0.0, "type": "electric_bike", "lat": 38.964989833333334, "is_reserved": 0, "is_disabled": 0, "fusion_lon": 0.0, "bike_id": "3ace7b67737933832d78db0208e5166c", "lon": -77.06491566666666, "rental_uris": {"ios": "https://dc.lft.to/lastmile_qr_scan", "android": "https://dc.lft.to/lastmile_qr_scan"}}, {"name": "25d654dad85c3ca5cfc886370022b4ff", "fusion_lat": 0.0, "type": "electric_scooter", "lat": 38.942934666666666, "is_reserved": 0, "is_disabled": 0, "fusion_lon": 0.0, "bike_id": "25d654dad85c3ca5cfc886370022b4ff", "lon": -77.02172016666667, "rental_uris": {"ios": "https://dc.lft.to/lastmile_qr_scan", "android": "https://dc.lft.to/lastmile_qr_scan"}}, {"name": "04f86e2fdf1c1250cff89e6520cf1e02", "fusion_lat": 0.0, "type": "electric_bike", "lat": 38.912667666666664, "is_reserved": 0, "is_disabled": 0, "fusion_lon": 0.0, "bike_id": "04f86e2fdf1c1250cff89e6520cf1e02", "lon": -77.0132415, "rental_uris": {"ios": "https://dc.lft.to/lastmile_qr_scan", "android": "https://dc.lft.to/lastmile_qr_scan"}}, {"name": "45bcc18d285768088703d88abbb7b154", "fusion_lat": 0.0, "type": "electric_bike", "lat": 38.892191333333336, "is_reserved": 0, "is_disabled": 0, "fusion_lon": 0.0, "bike_id": "45bcc18d285768088703d88abbb7b154", "lon": -77.10782633333334, "rental_uris": {"ios": "https://dc.lft.to/lastmile_qr_scan", "android": "https://dc.lft.to/lastmile_qr_scan"}}, {"name": "22c46db1d547b90296ff62fb65909add", "fusion_lat": 0.0, "type": "electric_scooter", "lat": 38.90376666666667, "is_reserved": 0, "is_disabled": 0, "fusion_lon": 0.0, "bike_id": "22c46db1d547b90296ff62fb65909add", "lon": -77.04505783333333, "rental_uris": {"ios": "https://dc.lft.to/lastmile_qr_scan", "android": "https://dc.lft.to/lastmile_qr_scan"}}, {"name": "02443aba7e0882a0983a76bbaf65f1e9", "fusion_lat": 0.0, "type": "electric_bike", "lat": 38.936579, "is_reserved": 0, "is_disabled": 0, "fusion_lon": 0.0, "bike_id": "02443aba7e0882a0983a76bbaf65f1e9", "lon": -77.03655883333333, "rental_uris": {"ios": "https://dc.lft.to/lastmile_qr_scan", "android": "https://dc.lft.to/lastmile_qr_scan"}}, {"name": "66e194de2d329cef43c15cb48816819b", "fusion_lat": 0.0, "type": "electric_scooter", "lat": 38.936608166666666, "is_reserved": 0, "is_disabled": 0, "fusion_lon": 0.0, "bike_id": "66e194de2d329cef43c15cb48816819b", "lon": -77.055008, "rental_uris": {"ios": "https://dc.lft.to/lastmile_qr_scan", "android": "https://dc.lft.to/lastmile_qr_scan"}}, {"name": "5bb923882a4b515537630d94e2d8ea97", "fusion_lat": 0.0, "type": "electric_scooter", "lat": 38.91701183333333, "is_reserved": 0, "is_disabled": 0, "fusion_lon": 0.0, "bike_id": "5bb923882a4b515537630d94e2d8ea97", "lon": -77.04083033333333, "rental_uris": {"ios": "https://dc.lft.to/lastmile_qr_scan", "android": "https://dc.lft.to/lastmile_qr_scan"}}, {"name": "de133c525412b061c0b48d1ea0e001ef", "fusion_lat": 0.0, "type": "electric_scooter", "lat": 38.912668333333336, "is_reserved": 0, "is_disabled": 0, "fusion_lon": 0.0, "bike_id": "de133c525412b061c0b48d1ea0e001ef", "lon": -77.0315135, "rental_uris": {"ios": "https://dc.lft.to/lastmile_qr_scan", "android": "https://dc.lft.to/lastmile_qr_scan"}}, {"name": "dcdc523ca62c7dfed3fe9ae85ce99927", "fusion_lat": 0.0, "type": "electric_scooter", "lat": 38.9056695, "is_reserved": 0, "is_disabled": 0, "fusion_lon": 0.0, "bike_id": "dcdc523ca62c7dfed3fe9ae85ce99927", "lon": -77.027615, "rental_uris": {"ios": "https://dc.lft.to/lastmile_qr_scan", "android": "https://dc.lft.to/lastmile_qr_scan"}}, {"name": "2034835033a71856a19c4824bd74eaa9", "fusion_lat": 0.0, "type": "electric_scooter", "lat": 38.93392516666667, "is_reserved": 0, "is_disabled": 0, "fusion_lon": 0.0, "bike_id": "2034835033a71856a19c4824bd74eaa9", "lon": -77.03576233333334, "rental_uris": {"ios": "https://dc.lft.to/lastmile_qr_scan", "android": "https://dc.lft.to/lastmile_qr_scan"}}, {"name": "3402958c6b27f8f4e05254d7d5c784e5", "fusion_lat": 0.0, "type": "electric_scooter", "lat": 38.93004883333333, "is_reserved": 0, "is_disabled": 0, "fusion_lon": 0.0, "bike_id": "3402958c6b27f8f4e05254d7d5c784e5", "lon": -77.055195, "rental_uris": {"ios": "https://dc.lft.to/lastmile_qr_scan", "android": "https://dc.lft.to/lastmile_qr_scan"}}, {"name": "295f7ca1966da9648ebd6535a323a569", "fusion_lat": 0.0, "type": "electric_scooter", "lat": 38.915643833333334, "is_reserved": 0, "is_disabled": 0, "fusion_lon": 0.0, "bike_id": "295f7ca1966da9648ebd6535a323a569", "lon": -77.04109066666666, "rental_uris": {"ios": "https://dc.lft.to/lastmile_qr_scan", "android": "https://dc.lft.to/lastmile_qr_scan"}}, {"name": "ceaae7e6033c50da6e62ed285f0a0ae3", "fusion_lat": 0.0, "type": "electric_scooter", "lat": 38.85920133333333, "is_reserved": 0, "is_disabled": 0, "fusion_lon": 0.0, "bike_id": "ceaae7e6033c50da6e62ed285f0a0ae3", "lon": -76.9897985, "rental_uris": {"ios": "https://dc.lft.to/lastmile_qr_scan", "android": "https://dc.lft.to/lastmile_qr_scan"}}, {"name": "860bac6fe289727faa7d2120a20a76be", "fusion_lat": 0.0, "type": "electric_scooter", "lat": 38.9129155, "is_reserved": 0, "is_disabled": 0, "fusion_lon": 0.0, "bike_id": "860bac6fe289727faa7d2120a20a76be", "lon": -77.061602, "rental_uris": {"ios": "https://dc.lft.to/lastmile_qr_scan", "android": "https://dc.lft.to/lastmile_qr_scan"}}, {"name": "59d4733c74b35ec472204bb853cd57a8", "fusion_lat": 0.0, "type": "electric_scooter", "lat": 38.9118555, "is_reserved": 0, "is_disabled": 0, "fusion_lon": 0.0, "bike_id": "59d4733c74b35ec472204bb853cd57a8", "lon": -77.03867616666666, "rental_uris": {"ios": "https://dc.lft.to/lastmile_qr_scan", "android": "https://dc.lft.to/lastmile_qr_scan"}}, {"name": "1daca0cb31201f9b32e20b173eb55a85", "fusion_lat": 0.0, "type": "electric_scooter", "lat": 38.91423283333334, "is_reserved": 0, "is_disabled": 0, "fusion_lon": 0.0, "bike_id": "1daca0cb31201f9b32e20b173eb55a85", "lon": -77.04156116666667, "rental_uris": {"ios": "https://dc.lft.to/lastmile_qr_scan", "android": "https://dc.lft.to/lastmile_qr_scan"}}, {"name": "e3367dfe4ef6e7205883489b9bb2bd61", "fusion_lat": 0.0, "type": "electric_scooter", "lat": 38.891899333333335, "is_reserved": 0, "is_disabled": 0, "fusion_lon": 0.0, "bike_id": "e3367dfe4ef6e7205883489b9bb2bd61", "lon": -77.01580866666667, "rental_uris": {"ios": "https://dc.lft.to/lastmile_qr_scan", "android": "https://dc.lft.to/lastmile_qr_scan"}}, {"name": "7a2d850258dfd8c6a20dfee54f42b53c", "fusion_lat": 0.0, "type": "electric_scooter", "lat": 38.9109635, "is_reserved": 0, "is_disabled": 0, "fusion_lon": 0.0, "bike_id": "7a2d850258dfd8c6a20dfee54f42b53c", "lon": -77.073478, "rental_uris": {"ios": "https://dc.lft.to/lastmile_qr_scan", "android": "https://dc.lft.to/lastmile_qr_scan"}}, {"name": "19f76901aeebfcabce9cb082faf74902", "fusion_lat": 0.0, "type": "electric_scooter", "lat": 38.883235, "is_reserved": 0, "is_disabled": 0, "fusion_lon": 0.0, "bike_id": "19f76901aeebfcabce9cb082faf74902", "lon": -77.0236935, "rental_uris": {"ios": "https://dc.lft.to/lastmile_qr_scan", "android": "https://dc.lft.to/lastmile_qr_scan"}}, {"name": "2db6c319284249177cc899386c5bb6d4", "fusion_lat": 0.0, "type": "electric_scooter", "lat": 38.952883666666665, "is_reserved": 0, "is_disabled": 0, "fusion_lon": 0.0, "bike_id": "2db6c319284249177cc899386c5bb6d4", "lon": -77.00361333333333, "rental_uris": {"ios": "https://dc.lft.to/lastmile_qr_scan", "android": "https://dc.lft.to/lastmile_qr_scan"}}, {"name": "57db8c5a3e832d9dd8717ba5dd654af2", "fusion_lat": 0.0, "type": "electric_scooter", "lat": 38.92627066666667, "is_reserved": 0, "is_disabled": 0, "fusion_lon": 0.0, "bike_id": "57db8c5a3e832d9dd8717ba5dd654af2", "lon": -77.03704, "rental_uris": {"ios": "https://dc.lft.to/lastmile_qr_scan", "android": "https://dc.lft.to/lastmile_qr_scan"}}, {"name": "748347cc7418bab63bc18ac40be51dc1", "fusion_lat": 0.0, "type": "electric_scooter", "lat": 38.911135, "is_reserved": 0, "is_disabled": 0, "fusion_lon": 0.0, "bike_id": "748347cc7418bab63bc18ac40be51dc1", "lon": -77.04598583333333, "rental_uris": {"ios": "https://dc.lft.to/lastmile_qr_scan", "android": "https://dc.lft.to/lastmile_qr_scan"}}, {"name": "c3667a26e653443b243283c14c3d7032", "fusion_lat": 0.0, "type": "electric_scooter", "lat": 38.905687666666665, "is_reserved": 0, "is_disabled": 0, "fusion_lon": 0.0, "bike_id": "c3667a26e653443b243283c14c3d7032", "lon": -77.03453633333334, "rental_uris": {"ios": "https://dc.lft.to/lastmile_qr_scan", "android": "https://dc.lft.to/lastmile_qr_scan"}}, {"name": "7dde067685de791bbc0d00de32012ac8", "fusion_lat": 0.0, "type": "electric_scooter", "lat": 38.921019333333334, "is_reserved": 0, "is_disabled": 0, "fusion_lon": 0.0, "bike_id": "7dde067685de791bbc0d00de32012ac8", "lon": -76.99193533333333, "rental_uris": {"ios": "https://dc.lft.to/lastmile_qr_scan", "android": "https://dc.lft.to/lastmile_qr_scan"}}, {"name": "22c60c3bd714f6a39698466af5518499", "fusion_lat": 0.0, "type": "electric_scooter", "lat": 38.90190416666667, "is_reserved": 0, "is_disabled": 0, "fusion_lon": 0.0, "bike_id": "22c60c3bd714f6a39698466af5518499", "lon": -77.02506716666667, "rental_uris": {"ios": "https://dc.lft.to/lastmile_qr_scan", "android": "https://dc.lft.to/lastmile_qr_scan"}}, {"name": "56094b2610a42f706d3b55cde6a4f240", "fusion_lat": 0.0, "type": "electric_scooter", "lat": 38.9565125, "is_reserved": 0, "is_disabled": 0, "fusion_lon": 0.0, "bike_id": "56094b2610a42f706d3b55cde6a4f240", "lon": -77.032851, "rental_uris": {"ios": "https://dc.lft.to/lastmile_qr_scan", "android": "https://dc.lft.to/lastmile_qr_scan"}}, {"name": "7b1145dc3e901f503dcdbca8c234bef2", "fusion_lat": 0.0, "type": "electric_scooter", "lat": 38.94704816666667, "is_reserved": 0, "is_disabled": 0, "fusion_lon": 0.0, "bike_id": "7b1145dc3e901f503dcdbca8c234bef2", "lon": -77.01937866666667, "rental_uris": {"ios": "https://dc.lft.to/lastmile_qr_scan", "android": "https://dc.lft.to/lastmile_qr_scan"}}, {"name": "5b6bb7331bce906cbb3c2fcd91706a98", "fusion_lat": 0.0, "type": "electric_scooter", "lat": 38.92483216666667, "is_reserved": 0, "is_disabled": 0, "fusion_lon": 0.0, "bike_id": "5b6bb7331bce906cbb3c2fcd91706a98", "lon": -77.052155, "rental_uris": {"ios": "https://dc.lft.to/lastmile_qr_scan", "android": "https://dc.lft.to/lastmile_qr_scan"}}, {"name": "8994aef916daee7858f8066a9ed6ce0f", "fusion_lat": 0.0, "type": "electric_bike", "lat": 39.00385933333333, "is_reserved": 0, "is_disabled": 0, "fusion_lon": 0.0, "bike_id": "8994aef916daee7858f8066a9ed6ce0f", "lon": -77.01291316666666, "rental_uris": {"ios": "https://dc.lft.to/lastmile_qr_scan", "android": "https://dc.lft.to/lastmile_qr_scan"}}, {"name": "02ece2d6b9cb0fb3ff4b6daf4534813d", "fusion_lat": 0.0, "type": "electric_scooter", "lat": 38.932065, "is_reserved": 0, "is_disabled": 0, "fusion_lon": 0.0, "bike_id": "02ece2d6b9cb0fb3ff4b6daf4534813d", "lon": -77.0366305, "rental_uris": {"ios": "https://dc.lft.to/lastmile_qr_scan", "android": "https://dc.lft.to/lastmile_qr_scan"}}, {"name": "dce4335b1b71228ed410886f3873627c", "fusion_lat": 0.0, "type": "electric_bike", "lat": 38.80787866666667, "is_reserved": 0, "is_disabled": 0, "fusion_lon": 0.0, "bike_id": "dce4335b1b71228ed410886f3873627c", "lon": -77.12957883333333, "rental_uris": {"ios": "https://dc.lft.to/lastmile_qr_scan", "android": "https://dc.lft.to/lastmile_qr_scan"}}, {"name": "9d05a79c5d5b53efc9fde87261838170", "fusion_lat": 0.0, "type": "electric_scooter", "lat": 38.95909316666667, "is_reserved": 0, "is_disabled": 0, "fusion_lon": 0.0, "bike_id": "9d05a79c5d5b53efc9fde87261838170", "lon": -77.0807935, "rental_uris": {"ios": "https://dc.lft.to/lastmile_qr_scan", "android": "https://dc.lft.to/lastmile_qr_scan"}}, {"name": "44c4976530bb0cd7bd5414ddeee0dc2f", "fusion_lat": 0.0, "type": "electric_scooter", "lat": 38.9024645, "is_reserved": 0, "is_disabled": 0, "fusion_lon": 0.0, "bike_id": "44c4976530bb0cd7bd5414ddeee0dc2f", "lon": -76.974063, "rental_uris": {"ios": "https://dc.lft.to/lastmile_qr_scan", "android": "https://dc.lft.to/lastmile_qr_scan"}}, {"name": "979def3ab726fd82e298cbc9e8e02f9f", "fusion_lat": 0.0, "type": "electric_scooter", "lat": 38.91274766666667, "is_reserved": 0, "is_disabled": 0, "fusion_lon": 0.0, "bike_id": "979def3ab726fd82e298cbc9e8e02f9f", "lon": -77.03196216666667, "rental_uris": {"ios": "https://dc.lft.to/lastmile_qr_scan", "android": "https://dc.lft.to/lastmile_qr_scan"}}, {"name": "2f486ff3767514b42b0978685f521925", "fusion_lat": 0.0, "type": "electric_scooter", "lat": 38.857905, "is_reserved": 0, "is_disabled": 0, "fusion_lon": 0.0, "bike_id": "2f486ff3767514b42b0978685f521925", "lon": -76.9909105, "rental_uris": {"ios": "https://dc.lft.to/lastmile_qr_scan", "android": "https://dc.lft.to/lastmile_qr_scan"}}, {"name": "2f9a0a3430d4be49f1b38fdde0954516", "fusion_lat": 0.0, "type": "electric_scooter", "lat": 38.90420533333333, "is_reserved": 0, "is_disabled": 0, "fusion_lon": 0.0, "bike_id": "2f9a0a3430d4be49f1b38fdde0954516", "lon": -77.05324033333333, "rental_uris": {"ios": "https://dc.lft.to/lastmile_qr_scan", "android": "https://dc.lft.to/lastmile_qr_scan"}}, {"name": "e88090d7051b627f6ffc70182c7e3f9c", "fusion_lat": 0.0, "type": "electric_scooter", "lat": 38.90640916666667, "is_reserved": 0, "is_disabled": 0, "fusion_lon": 0.0, "bike_id": "e88090d7051b627f6ffc70182c7e3f9c", "lon": -77.02605933333334, "rental_uris": {"ios": "https://dc.lft.to/lastmile_qr_scan", "android": "https://dc.lft.to/lastmile_qr_scan"}}, {"name": "b64b20b48a7a35871c0658b6db826156", "fusion_lat": 0.0, "type": "electric_scooter", "lat": 38.93865683333333, "is_reserved": 0, "is_disabled": 0, "fusion_lon": 0.0, "bike_id": "b64b20b48a7a35871c0658b6db826156", "lon": -77.02649233333334, "rental_uris": {"ios": "https://dc.lft.to/lastmile_qr_scan", "android": "https://dc.lft.to/lastmile_qr_scan"}}, {"name": "74960efe89d9612b39f147a641e4a659", "fusion_lat": 0.0, "type": "electric_scooter", "lat": 38.90470633333334, "is_reserved": 0, "is_disabled": 0, "fusion_lon": 0.0, "bike_id": "74960efe89d9612b39f147a641e4a659", "lon": -77.0279785, "rental_uris": {"ios": "https://dc.lft.to/lastmile_qr_scan", "android": "https://dc.lft.to/lastmile_qr_scan"}}, {"name": "5d9c973dc1cb32eda8932a923073d8e3", "fusion_lat": 0.0, "type": "electric_bike", "lat": 38.92867016666667, "is_reserved": 0, "is_disabled": 0, "fusion_lon": 0.0, "bike_id": "5d9c973dc1cb32eda8932a923073d8e3", "lon": -76.961055, "rental_uris": {"ios": "https://dc.lft.to/lastmile_qr_scan", "android": "https://dc.lft.to/lastmile_qr_scan"}}, {"name": "dc252d904670356ee1dd2e86ce0af42b", "fusion_lat": 0.0, "type": "electric_scooter", "lat": 38.92111166666667, "is_reserved": 0, "is_disabled": 0, "fusion_lon": 0.0, "bike_id": "dc252d904670356ee1dd2e86ce0af42b", "lon": -77.02984666666667, "rental_uris": {"ios": "https://dc.lft.to/lastmile_qr_scan", "android": "https://dc.lft.to/lastmile_qr_scan"}}, {"name": "3835cb826830dae44d4d1925d04803e6", "fusion_lat": 0.0, "type": "electric_scooter", "lat": 38.912227333333334, "is_reserved": 0, "is_disabled": 0, "fusion_lon": 0.0, "bike_id": "3835cb826830dae44d4d1925d04803e6", "lon": -77.01208816666667, "rental_uris": {"ios": "https://dc.lft.to/lastmile_qr_scan", "android": "https://dc.lft.to/lastmile_qr_scan"}}, {"name": "bc5937a08579c8dc209a5a5b51128d22", "fusion_lat": 0.0, "type": "electric_scooter", "lat": 38.941078833333336, "is_reserved": 0, "is_disabled": 0, "fusion_lon": 0.0, "bike_id": "bc5937a08579c8dc209a5a5b51128d22", "lon": -77.02667266666667, "rental_uris": {"ios": "https://dc.lft.to/lastmile_qr_scan", "android": "https://dc.lft.to/lastmile_qr_scan"}}, {"name": "e993e25070b2e50257a948ee25a29ca6", "fusion_lat": 0.0, "type": "electric_scooter", "lat": 38.90199916666667, "is_reserved": 0, "is_disabled": 0, "fusion_lon": 0.0, "bike_id": "e993e25070b2e50257a948ee25a29ca6", "lon": -76.98818716666666, "rental_uris": {"ios": "https://dc.lft.to/lastmile_qr_scan", "android": "https://dc.lft.to/lastmile_qr_scan"}}, {"name": "28054713141f6da825e732dc8b67db04", "fusion_lat": 0.0, "type": "electric_scooter", "lat": 38.86459383333333, "is_reserved": 0, "is_disabled": 0, "fusion_lon": 0.0, "bike_id": "28054713141f6da825e732dc8b67db04", "lon": -76.98246416666667, "rental_uris": {"ios": "https://dc.lft.to/lastmile_qr_scan", "android": "https://dc.lft.to/lastmile_qr_scan"}}, {"name": "45b0a6b171e7793fcc4525b7df5c3000", "fusion_lat": 0.0, "type": "electric_bike", "lat": 38.9205245, "is_reserved": 0, "is_disabled": 0, "fusion_lon": 0.0, "bike_id": "45b0a6b171e7793fcc4525b7df5c3000", "lon": -77.00362533333333, "rental_uris": {"ios": "https://dc.lft.to/lastmile_qr_scan", "android": "https://dc.lft.to/lastmile_qr_scan"}}, {"name": "f34f9a7b71068be50eefb5ee1caec885", "fusion_lat": 0.0, "type": "electric_scooter", "lat": 38.96558783333333, "is_reserved": 0, "is_disabled": 0, "fusion_lon": 0.0, "bike_id": "f34f9a7b71068be50eefb5ee1caec885", "lon": -77.01627466666666, "rental_uris": {"ios": "https://dc.lft.to/lastmile_qr_scan", "android": "https://dc.lft.to/lastmile_qr_scan"}}, {"name": "6d7980a20234514435bf2b59e55e1fe9", "fusion_lat": 0.0, "type": "electric_scooter", "lat": 38.942043166666664, "is_reserved": 0, "is_disabled": 0, "fusion_lon": 0.0, "bike_id": "6d7980a20234514435bf2b59e55e1fe9", "lon": -77.025139, "rental_uris": {"ios": "https://dc.lft.to/lastmile_qr_scan", "android": "https://dc.lft.to/lastmile_qr_scan"}}, {"name": "80e1a0f75db3cacb9125c1f02f71b5de", "fusion_lat": 0.0, "type": "electric_scooter", "lat": 38.9016315, "is_reserved": 0, "is_disabled": 0, "fusion_lon": 0.0, "bike_id": "80e1a0f75db3cacb9125c1f02f71b5de", "lon": -77.04691916666667, "rental_uris": {"ios": "https://dc.lft.to/lastmile_qr_scan", "android": "https://dc.lft.to/lastmile_qr_scan"}}, {"name": "dad22992c5dcd8e7c7139d8c0e964094", "fusion_lat": 0.0, "type": "electric_bike", "lat": 38.83159533333333, "is_reserved": 0, "is_disabled": 0, "fusion_lon": 0.0, "bike_id": "dad22992c5dcd8e7c7139d8c0e964094", "lon": -77.11304416666667, "rental_uris": {"ios": "https://dc.lft.to/lastmile_qr_scan", "android": "https://dc.lft.to/lastmile_qr_scan"}}, {"name": "5e58e86bfaf1293955817e350a133f71", "fusion_lat": 0.0, "type": "electric_scooter", "lat": 38.907363333333336, "is_reserved": 0, "is_disabled": 0, "fusion_lon": 0.0, "bike_id": "5e58e86bfaf1293955817e350a133f71", "lon": -77.043347, "rental_uris": {"ios": "https://dc.lft.to/lastmile_qr_scan", "android": "https://dc.lft.to/lastmile_qr_scan"}}, {"name": "94e85e070c90434d8441f735c2bd3153", "fusion_lat": 0.0, "type": "electric_bike", "lat": 38.924350833333335, "is_reserved": 0, "is_disabled": 0, "fusion_lon": 0.0, "bike_id": "94e85e070c90434d8441f735c2bd3153", "lon": -76.99134516666666, "rental_uris": {"ios": "https://dc.lft.to/lastmile_qr_scan", "android": "https://dc.lft.to/lastmile_qr_scan"}}, {"name": "5fd2909e7fa1f099d9742a48c0394eb7", "fusion_lat": 0.0, "type": "electric_scooter", "lat": 38.92132216666667, "is_reserved": 0, "is_disabled": 0, "fusion_lon": 0.0, "bike_id": "5fd2909e7fa1f099d9742a48c0394eb7", "lon": -77.02511383333334, "rental_uris": {"ios": "https://dc.lft.to/lastmile_qr_scan", "android": "https://dc.lft.to/lastmile_qr_scan"}}, {"name": "228d55ca3afdd8ea0b86410f0b73537b", "fusion_lat": 0.0, "type": "electric_bike", "lat": 38.842750333333335, "is_reserved": 0, "is_disabled": 0, "fusion_lon": 0.0, "bike_id": "228d55ca3afdd8ea0b86410f0b73537b", "lon": -76.9884285, "rental_uris": {"ios": "https://dc.lft.to/lastmile_qr_scan", "android": "https://dc.lft.to/lastmile_qr_scan"}}, {"name": "027678f8cb4ae01441d0c68311eb587e", "fusion_lat": 0.0, "type": "electric_scooter", "lat": 38.90852816666667, "is_reserved": 0, "is_disabled": 0, "fusion_lon": 0.0, "bike_id": "027678f8cb4ae01441d0c68311eb587e", "lon": -77.00280016666666, "rental_uris": {"ios": "https://dc.lft.to/lastmile_qr_scan", "android": "https://dc.lft.to/lastmile_qr_scan"}}, {"name": "c313bff8501a1a85726f14373759b890", "fusion_lat": 0.0, "type": "electric_bike", "lat": 38.96011883333333, "is_reserved": 0, "is_disabled": 0, "fusion_lon": 0.0, "bike_id": "c313bff8501a1a85726f14373759b890", "lon": -76.99865283333334, "rental_uris": {"ios": "https://dc.lft.to/lastmile_qr_scan", "android": "https://dc.lft.to/lastmile_qr_scan"}}, {"name": "64fb48c99f675349a1be14117366d9e3", "fusion_lat": 0.0, "type": "electric_bike", "lat": 38.8812575, "is_reserved": 0, "is_disabled": 0, "fusion_lon": 0.0, "bike_id": "64fb48c99f675349a1be14117366d9e3", "lon": -77.0134955, "rental_uris": {"ios": "https://dc.lft.to/lastmile_qr_scan", "android": "https://dc.lft.to/lastmile_qr_scan"}}, {"name": "f2b68157ebe16caea5d45f122dbee4a2", "fusion_lat": 0.0, "type": "electric_scooter", "lat": 38.92825833333333, "is_reserved": 0, "is_disabled": 0, "fusion_lon": 0.0, "bike_id": "f2b68157ebe16caea5d45f122dbee4a2", "lon": -77.02260583333333, "rental_uris": {"ios": "https://dc.lft.to/lastmile_qr_scan", "android": "https://dc.lft.to/lastmile_qr_scan"}}, {"name": "eb374b7d4da10115192f0175ba413059", "fusion_lat": 0.0, "type": "electric_scooter", "lat": 38.861540833333336, "is_reserved": 0, "is_disabled": 0, "fusion_lon": 0.0, "bike_id": "eb374b7d4da10115192f0175ba413059", "lon": -76.98925033333333, "rental_uris": {"ios": "https://dc.lft.to/lastmile_qr_scan", "android": "https://dc.lft.to/lastmile_qr_scan"}}, {"name": "bb77d3bbb47c1fa105427e01650988e4", "fusion_lat": 0.0, "type": "electric_scooter", "lat": 38.9170975, "is_reserved": 0, "is_disabled": 0, "fusion_lon": 0.0, "bike_id": "bb77d3bbb47c1fa105427e01650988e4", "lon": -77.0280105, "rental_uris": {"ios": "https://dc.lft.to/lastmile_qr_scan", "android": "https://dc.lft.to/lastmile_qr_scan"}}, {"name": "b2dd5d204126ab3ea288b2e906a55eca", "fusion_lat": 0.0, "type": "electric_scooter", "lat": 38.900552833333336, "is_reserved": 0, "is_disabled": 0, "fusion_lon": 0.0, "bike_id": "b2dd5d204126ab3ea288b2e906a55eca", "lon": -77.0021575, "rental_uris": {"ios": "https://dc.lft.to/lastmile_qr_scan", "android": "https://dc.lft.to/lastmile_qr_scan"}}, {"name": "f08355762a042c9a220162c8217a7709", "fusion_lat": 0.0, "type": "electric_scooter", "lat": 38.903629, "is_reserved": 0, "is_disabled": 0, "fusion_lon": 0.0, "bike_id": "f08355762a042c9a220162c8217a7709", "lon": -77.025987, "rental_uris": {"ios": "https://dc.lft.to/lastmile_qr_scan", "android": "https://dc.lft.to/lastmile_qr_scan"}}, {"name": "65e78f9ad2b1c0cfa3d1c48b8deef06f", "fusion_lat": 0.0, "type": "electric_scooter", "lat": 38.92579683333334, "is_reserved": 0, "is_disabled": 0, "fusion_lon": 0.0, "bike_id": "65e78f9ad2b1c0cfa3d1c48b8deef06f", "lon": -76.9949485, "rental_uris": {"ios": "https://dc.lft.to/lastmile_qr_scan", "android": "https://dc.lft.to/lastmile_qr_scan"}}, {"name": "a460697a2d6e684663960eeedae8b8bb", "fusion_lat": 0.0, "type": "electric_bike", "lat": 38.93470766666667, "is_reserved": 0, "is_disabled": 0, "fusion_lon": 0.0, "bike_id": "a460697a2d6e684663960eeedae8b8bb", "lon": -77.07292633333333, "rental_uris": {"ios": "https://dc.lft.to/lastmile_qr_scan", "android": "https://dc.lft.to/lastmile_qr_scan"}}, {"name": "5e930a0084c43ed5638db7c3a94cc471", "fusion_lat": 0.0, "type": "electric_scooter", "lat": 38.904236166666664, "is_reserved": 0, "is_disabled": 0, "fusion_lon": 0.0, "bike_id": "5e930a0084c43ed5638db7c3a94cc471", "lon": -77.053083, "rental_uris": {"ios": "https://dc.lft.to/lastmile_qr_scan", "android": "https://dc.lft.to/lastmile_qr_scan"}}, {"name": "de70759e54f41428ca28a9bcf7a83f47", "fusion_lat": 0.0, "type": "electric_scooter", "lat": 38.93376166666667, "is_reserved": 0, "is_disabled": 0, "fusion_lon": 0.0, "bike_id": "de70759e54f41428ca28a9bcf7a83f47", "lon": -77.03452333333334, "rental_uris": {"ios": "https://dc.lft.to/lastmile_qr_scan", "android": "https://dc.lft.to/lastmile_qr_scan"}}, {"name": "13159ea790109f6454a9e4a05ef421c9", "fusion_lat": 0.0, "type": "electric_scooter", "lat": 38.91698616666667, "is_reserved": 0, "is_disabled": 0, "fusion_lon": 0.0, "bike_id": "13159ea790109f6454a9e4a05ef421c9", "lon": -77.04335066666667, "rental_uris": {"ios": "https://dc.lft.to/lastmile_qr_scan", "android": "https://dc.lft.to/lastmile_qr_scan"}}, {"name": "69b53ab80e8fc82768362ca0a249c149", "fusion_lat": 0.0, "type": "electric_bike", "lat": 38.931244666666665, "is_reserved": 0, "is_disabled": 0, "fusion_lon": 0.0, "bike_id": "69b53ab80e8fc82768362ca0a249c149", "lon": -77.027048, "rental_uris": {"ios": "https://dc.lft.to/lastmile_qr_scan", "android": "https://dc.lft.to/lastmile_qr_scan"}}, {"name": "369c479d34a6452af438116cc27f4536", "fusion_lat": 0.0, "type": "electric_scooter", "lat": 38.860705833333334, "is_reserved": 0, "is_disabled": 0, "fusion_lon": 0.0, "bike_id": "369c479d34a6452af438116cc27f4536", "lon": -76.96719983333334, "rental_uris": {"ios": "https://dc.lft.to/lastmile_qr_scan", "android": "https://dc.lft.to/lastmile_qr_scan"}}, {"name": "b081e669d3b734f963abd0f5bf08ee3f", "fusion_lat": 0.0, "type": "electric_scooter", "lat": 38.909692166666666, "is_reserved": 0, "is_disabled": 0, "fusion_lon": 0.0, "bike_id": "b081e669d3b734f963abd0f5bf08ee3f", "lon": -77.023835, "rental_uris": {"ios": "https://dc.lft.to/lastmile_qr_scan", "android": "https://dc.lft.to/lastmile_qr_scan"}}, {"name": "b182e89c6ffa68c4fa92125ea0280533", "fusion_lat": 0.0, "type": "electric_scooter", "lat": 38.906687833333336, "is_reserved": 0, "is_disabled": 0, "fusion_lon": 0.0, "bike_id": "b182e89c6ffa68c4fa92125ea0280533", "lon": -77.0271985, "rental_uris": {"ios": "https://dc.lft.to/lastmile_qr_scan", "android": "https://dc.lft.to/lastmile_qr_scan"}}, {"name": "ea44b9e21e276801cd2016ce96d0aca1", "fusion_lat": 0.0, "type": "electric_scooter", "lat": 38.91942916666667, "is_reserved": 0, "is_disabled": 0, "fusion_lon": 0.0, "bike_id": "ea44b9e21e276801cd2016ce96d0aca1", "lon": -77.04539416666667, "rental_uris": {"ios": "https://dc.lft.to/lastmile_qr_scan", "android": "https://dc.lft.to/lastmile_qr_scan"}}, {"name": "99b67bf4c8328c761f1908b113784660", "fusion_lat": 0.0, "type": "electric_scooter", "lat": 38.948037666666664, "is_reserved": 0, "is_disabled": 0, "fusion_lon": 0.0, "bike_id": "99b67bf4c8328c761f1908b113784660", "lon": -77.07908266666666, "rental_uris": {"ios": "https://dc.lft.to/lastmile_qr_scan", "android": "https://dc.lft.to/lastmile_qr_scan"}}, {"name": "cff064a4d2b1d0a44e3de0d9ac56a83d", "fusion_lat": 0.0, "type": "electric_scooter", "lat": 38.89973066666667, "is_reserved": 0, "is_disabled": 0, "fusion_lon": 0.0, "bike_id": "cff064a4d2b1d0a44e3de0d9ac56a83d", "lon": -77.02941016666666, "rental_uris": {"ios": "https://dc.lft.to/lastmile_qr_scan", "android": "https://dc.lft.to/lastmile_qr_scan"}}, {"name": "753e57b17019a651f03bf51c04cdf7c0", "fusion_lat": 0.0, "type": "electric_scooter", "lat": 38.92736216666667, "is_reserved": 0, "is_disabled": 0, "fusion_lon": 0.0, "bike_id": "753e57b17019a651f03bf51c04cdf7c0", "lon": -77.0232195, "rental_uris": {"ios": "https://dc.lft.to/lastmile_qr_scan", "android": "https://dc.lft.to/lastmile_qr_scan"}}, {"name": "ccb82f48c256dfea78d7dabb43d67bc9", "fusion_lat": 0.0, "type": "electric_scooter", "lat": 38.88839816666667, "is_reserved": 0, "is_disabled": 0, "fusion_lon": 0.0, "bike_id": "ccb82f48c256dfea78d7dabb43d67bc9", "lon": -77.04904516666667, "rental_uris": {"ios": "https://dc.lft.to/lastmile_qr_scan", "android": "https://dc.lft.to/lastmile_qr_scan"}}, {"name": "7876d87c9b6fe541ff2c987eb8ff8c2b", "fusion_lat": 0.0, "type": "electric_scooter", "lat": 38.934744333333335, "is_reserved": 0, "is_disabled": 0, "fusion_lon": 0.0, "bike_id": "7876d87c9b6fe541ff2c987eb8ff8c2b", "lon": -77.02837433333333, "rental_uris": {"ios": "https://dc.lft.to/lastmile_qr_scan", "android": "https://dc.lft.to/lastmile_qr_scan"}}, {"name": "a4d354770808ba2202c0c8ac9888d87c", "fusion_lat": 0.0, "type": "electric_scooter", "lat": 38.903748666666665, "is_reserved": 0, "is_disabled": 0, "fusion_lon": 0.0, "bike_id": "a4d354770808ba2202c0c8ac9888d87c", "lon": -77.0450965, "rental_uris": {"ios": "https://dc.lft.to/lastmile_qr_scan", "android": "https://dc.lft.to/lastmile_qr_scan"}}, {"name": "cb651934de6b2785b226340f3d007298", "fusion_lat": 0.0, "type": "electric_scooter", "lat": 38.91199316666667, "is_reserved": 0, "is_disabled": 0, "fusion_lon": 0.0, "bike_id": "cb651934de6b2785b226340f3d007298", "lon": -77.04451933333333, "rental_uris": {"ios": "https://dc.lft.to/lastmile_qr_scan", "android": "https://dc.lft.to/lastmile_qr_scan"}}, {"name": "c58968475249cf737b79cda24d2fd346", "fusion_lat": 0.0, "type": "electric_scooter", "lat": 38.90255333333333, "is_reserved": 0, "is_disabled": 0, "fusion_lon": 0.0, "bike_id": "c58968475249cf737b79cda24d2fd346", "lon": -76.996107, "rental_uris": {"ios": "https://dc.lft.to/lastmile_qr_scan", "android": "https://dc.lft.to/lastmile_qr_scan"}}, {"name": "cd1c380f4e08dc68fc52aeef1cd3c331", "fusion_lat": 0.0, "type": "electric_scooter", "lat": 38.937645833333335, "is_reserved": 0, "is_disabled": 0, "fusion_lon": 0.0, "bike_id": "cd1c380f4e08dc68fc52aeef1cd3c331", "lon": -77.03282883333334, "rental_uris": {"ios": "https://dc.lft.to/lastmile_qr_scan", "android": "https://dc.lft.to/lastmile_qr_scan"}}, {"name": "6f0bd458d732afcf08478dc1dc036bdc", "fusion_lat": 0.0, "type": "electric_scooter", "lat": 38.90960616666667, "is_reserved": 0, "is_disabled": 0, "fusion_lon": 0.0, "bike_id": "6f0bd458d732afcf08478dc1dc036bdc", "lon": -77.03377883333333, "rental_uris": {"ios": "https://dc.lft.to/lastmile_qr_scan", "android": "https://dc.lft.to/lastmile_qr_scan"}}, {"name": "a4b755c369db89b376a01c957df020a9", "fusion_lat": 0.0, "type": "electric_scooter", "lat": 38.88917466666667, "is_reserved": 0, "is_disabled": 0, "fusion_lon": 0.0, "bike_id": "a4b755c369db89b376a01c957df020a9", "lon": -76.95367366666666, "rental_uris": {"ios": "https://dc.lft.to/lastmile_qr_scan", "android": "https://dc.lft.to/lastmile_qr_scan"}}, {"name": "2fe6d6e7a0bd4f4be53e71e2346f01fb", "fusion_lat": 0.0, "type": "electric_scooter", "lat": 38.928930666666666, "is_reserved": 0, "is_disabled": 0, "fusion_lon": 0.0, "bike_id": "2fe6d6e7a0bd4f4be53e71e2346f01fb", "lon": -77.02307633333334, "rental_uris": {"ios": "https://dc.lft.to/lastmile_qr_scan", "android": "https://dc.lft.to/lastmile_qr_scan"}}, {"name": "7c4707d6e80c6ca34d991d3c9018e6ae", "fusion_lat": 0.0, "type": "electric_scooter", "lat": 38.92654183333333, "is_reserved": 0, "is_disabled": 0, "fusion_lon": 0.0, "bike_id": "7c4707d6e80c6ca34d991d3c9018e6ae", "lon": -77.03697733333334, "rental_uris": {"ios": "https://dc.lft.to/lastmile_qr_scan", "android": "https://dc.lft.to/lastmile_qr_scan"}}, {"name": "9eece8bb4f5463faec240d54d5ae932d", "fusion_lat": 0.0, "type": "electric_scooter", "lat": 38.905621333333336, "is_reserved": 0, "is_disabled": 0, "fusion_lon": 0.0, "bike_id": "9eece8bb4f5463faec240d54d5ae932d", "lon": -77.027458, "rental_uris": {"ios": "https://dc.lft.to/lastmile_qr_scan", "android": "https://dc.lft.to/lastmile_qr_scan"}}, {"name": "503b4462e1df12e8f0a9eada22a03dd5", "fusion_lat": 0.0, "type": "electric_scooter", "lat": 38.892032666666665, "is_reserved": 0, "is_disabled": 0, "fusion_lon": 0.0, "bike_id": "503b4462e1df12e8f0a9eada22a03dd5", "lon": -77.00239, "rental_uris": {"ios": "https://dc.lft.to/lastmile_qr_scan", "android": "https://dc.lft.to/lastmile_qr_scan"}}, {"name": "9f79fc945f31c72fb5ee5688f959d32d", "fusion_lat": 0.0, "type": "electric_scooter", "lat": 38.901191833333336, "is_reserved": 0, "is_disabled": 0, "fusion_lon": 0.0, "bike_id": "9f79fc945f31c72fb5ee5688f959d32d", "lon": -77.0218655, "rental_uris": {"ios": "https://dc.lft.to/lastmile_qr_scan", "android": "https://dc.lft.to/lastmile_qr_scan"}}, {"name": "f20278a18d6cfad8e1db6cd140be525c", "fusion_lat": 0.0, "type": "electric_scooter", "lat": 38.87499616666667, "is_reserved": 0, "is_disabled": 0, "fusion_lon": 0.0, "bike_id": "f20278a18d6cfad8e1db6cd140be525c", "lon": -76.99792766666667, "rental_uris": {"ios": "https://dc.lft.to/lastmile_qr_scan", "android": "https://dc.lft.to/lastmile_qr_scan"}}, {"name": "47ec51e26b9f021e0f9b13ee4ed7c8bc", "fusion_lat": 0.0, "type": "electric_scooter", "lat": 38.90619433333333, "is_reserved": 0, "is_disabled": 0, "fusion_lon": 0.0, "bike_id": "47ec51e26b9f021e0f9b13ee4ed7c8bc", "lon": -77.00608983333333, "rental_uris": {"ios": "https://dc.lft.to/lastmile_qr_scan", "android": "https://dc.lft.to/lastmile_qr_scan"}}, {"name": "c462524af7885ae5104b5d70c6a8ce84", "fusion_lat": 0.0, "type": "electric_bike", "lat": 38.935782, "is_reserved": 0, "is_disabled": 0, "fusion_lon": 0.0, "bike_id": "c462524af7885ae5104b5d70c6a8ce84", "lon": -77.0212445, "rental_uris": {"ios": "https://dc.lft.to/lastmile_qr_scan", "android": "https://dc.lft.to/lastmile_qr_scan"}}, {"name": "8b847ac569746a5f588fb95e481e5d03", "fusion_lat": 0.0, "type": "electric_scooter", "lat": 38.92291916666667, "is_reserved": 0, "is_disabled": 0, "fusion_lon": 0.0, "bike_id": "8b847ac569746a5f588fb95e481e5d03", "lon": -77.029604, "rental_uris": {"ios": "https://dc.lft.to/lastmile_qr_scan", "android": "https://dc.lft.to/lastmile_qr_scan"}}, {"name": "a9ca37eb7d3ff7d0f14e5954f5f9f740", "fusion_lat": 0.0, "type": "electric_scooter", "lat": 38.912448166666664, "is_reserved": 0, "is_disabled": 0, "fusion_lon": 0.0, "bike_id": "a9ca37eb7d3ff7d0f14e5954f5f9f740", "lon": -77.0317255, "rental_uris": {"ios": "https://dc.lft.to/lastmile_qr_scan", "android": "https://dc.lft.to/lastmile_qr_scan"}}, {"name": "ad7b8130144eed07b1b72acd142577d6", "fusion_lat": 0.0, "type": "electric_scooter", "lat": 38.900330333333336, "is_reserved": 0, "is_disabled": 0, "fusion_lon": 0.0, "bike_id": "ad7b8130144eed07b1b72acd142577d6", "lon": -77.00104783333333, "rental_uris": {"ios": "https://dc.lft.to/lastmile_qr_scan", "android": "https://dc.lft.to/lastmile_qr_scan"}}, {"name": "819371a0be36197b2d21c7a92f179fe9", "fusion_lat": 0.0, "type": "electric_scooter", "lat": 38.9206565, "is_reserved": 0, "is_disabled": 0, "fusion_lon": 0.0, "bike_id": "819371a0be36197b2d21c7a92f179fe9", "lon": -77.023727, "rental_uris": {"ios": "https://dc.lft.to/lastmile_qr_scan", "android": "https://dc.lft.to/lastmile_qr_scan"}}, {"name": "87be033399b0697b746db176115a543e", "fusion_lat": 0.0, "type": "electric_scooter", "lat": 38.914031666666666, "is_reserved": 0, "is_disabled": 0, "fusion_lon": 0.0, "bike_id": "87be033399b0697b746db176115a543e", "lon": -77.02225933333334, "rental_uris": {"ios": "https://dc.lft.to/lastmile_qr_scan", "android": "https://dc.lft.to/lastmile_qr_scan"}}, {"name": "48116c52228397d433efa7d106fc6dc0", "fusion_lat": 0.0, "type": "electric_bike", "lat": 38.8578865, "is_reserved": 0, "is_disabled": 0, "fusion_lon": 0.0, "bike_id": "48116c52228397d433efa7d106fc6dc0", "lon": -77.09954166666667, "rental_uris": {"ios": "https://dc.lft.to/lastmile_qr_scan", "android": "https://dc.lft.to/lastmile_qr_scan"}}, {"name": "8eaca368bd312cccf065ed29487338ab", "fusion_lat": 0.0, "type": "electric_bike", "lat": 38.82788333333333, "is_reserved": 0, "is_disabled": 0, "fusion_lon": 0.0, "bike_id": "8eaca368bd312cccf065ed29487338ab", "lon": -77.00896316666666, "rental_uris": {"ios": "https://dc.lft.to/lastmile_qr_scan", "android": "https://dc.lft.to/lastmile_qr_scan"}}, {"name": "c2d424a8d9955e94ea63c40176ae9962", "fusion_lat": 0.0, "type": "electric_scooter", "lat": 38.909796666666665, "is_reserved": 0, "is_disabled": 0, "fusion_lon": 0.0, "bike_id": "c2d424a8d9955e94ea63c40176ae9962", "lon": -77.04623516666666, "rental_uris": {"ios": "https://dc.lft.to/lastmile_qr_scan", "android": "https://dc.lft.to/lastmile_qr_scan"}}, {"name": "42828360fd4ca10d7c0b181b92302c00", "fusion_lat": 0.0, "type": "electric_bike", "lat": 39.0945955, "is_reserved": 0, "is_disabled": 0, "fusion_lon": 0.0, "bike_id": "42828360fd4ca10d7c0b181b92302c00", "lon": -77.14994383333334, "rental_uris": {"ios": "https://dc.lft.to/lastmile_qr_scan", "android": "https://dc.lft.to/lastmile_qr_scan"}}, {"name": "d4b52905e39ba184e040dc172056cd4a", "fusion_lat": 0.0, "type": "electric_scooter", "lat": 38.9237345, "is_reserved": 0, "is_disabled": 0, "fusion_lon": 0.0, "bike_id": "d4b52905e39ba184e040dc172056cd4a", "lon": -77.02988633333334, "rental_uris": {"ios": "https://dc.lft.to/lastmile_qr_scan", "android": "https://dc.lft.to/lastmile_qr_scan"}}, {"name": "0d9686fc86f8be7a679a4b99fa4e20e3", "fusion_lat": 0.0, "type": "electric_bike", "lat": 38.89613416666667, "is_reserved": 0, "is_disabled": 0, "fusion_lon": 0.0, "bike_id": "0d9686fc86f8be7a679a4b99fa4e20e3", "lon": -76.99283683333333, "rental_uris": {"ios": "https://dc.lft.to/lastmile_qr_scan", "android": "https://dc.lft.to/lastmile_qr_scan"}}, {"name": "cb6799708bcb2c17890198c3831123fe", "fusion_lat": 0.0, "type": "electric_scooter", "lat": 38.91814566666667, "is_reserved": 0, "is_disabled": 0, "fusion_lon": 0.0, "bike_id": "cb6799708bcb2c17890198c3831123fe", "lon": -77.027973, "rental_uris": {"ios": "https://dc.lft.to/lastmile_qr_scan", "android": "https://dc.lft.to/lastmile_qr_scan"}}, {"name": "fc6638ca776757a5401b037239e1a906", "fusion_lat": 0.0, "type": "electric_scooter", "lat": 38.899078, "is_reserved": 0, "is_disabled": 0, "fusion_lon": 0.0, "bike_id": "fc6638ca776757a5401b037239e1a906", "lon": -76.93374683333333, "rental_uris": {"ios": "https://dc.lft.to/lastmile_qr_scan", "android": "https://dc.lft.to/lastmile_qr_scan"}}, {"name": "76a0aaeb25abe750b36402408e209ddb", "fusion_lat": 0.0, "type": "electric_scooter", "lat": 38.901142, "is_reserved": 0, "is_disabled": 0, "fusion_lon": 0.0, "bike_id": "76a0aaeb25abe750b36402408e209ddb", "lon": -77.0271585, "rental_uris": {"ios": "https://dc.lft.to/lastmile_qr_scan", "android": "https://dc.lft.to/lastmile_qr_scan"}}, {"name": "126e94d8b35eec07bec98eba8c87faf7", "fusion_lat": 0.0, "type": "electric_bike", "lat": 38.875297, "is_reserved": 0, "is_disabled": 0, "fusion_lon": 0.0, "bike_id": "126e94d8b35eec07bec98eba8c87faf7", "lon": -77.19908216666667, "rental_uris": {"ios": "https://dc.lft.to/lastmile_qr_scan", "android": "https://dc.lft.to/lastmile_qr_scan"}}, {"name": "dc53540d97948b96294eaf396e101870", "fusion_lat": 0.0, "type": "electric_scooter", "lat": 38.91266183333333, "is_reserved": 0, "is_disabled": 0, "fusion_lon": 0.0, "bike_id": "dc53540d97948b96294eaf396e101870", "lon": -77.03805133333333, "rental_uris": {"ios": "https://dc.lft.to/lastmile_qr_scan", "android": "https://dc.lft.to/lastmile_qr_scan"}}, {"name": "4f844b7e0c194d1c6fe60218770d3d03", "fusion_lat": 0.0, "type": "electric_scooter", "lat": 38.92730666666667, "is_reserved": 0, "is_disabled": 0, "fusion_lon": 0.0, "bike_id": "4f844b7e0c194d1c6fe60218770d3d03", "lon": -77.00568416666667, "rental_uris": {"ios": "https://dc.lft.to/lastmile_qr_scan", "android": "https://dc.lft.to/lastmile_qr_scan"}}, {"name": "d6ac073502b2ade28f277d43b9705980", "fusion_lat": 0.0, "type": "electric_scooter", "lat": 38.8921875, "is_reserved": 0, "is_disabled": 0, "fusion_lon": 0.0, "bike_id": "d6ac073502b2ade28f277d43b9705980", "lon": -77.02229483333333, "rental_uris": {"ios": "https://dc.lft.to/lastmile_qr_scan", "android": "https://dc.lft.to/lastmile_qr_scan"}}, {"name": "d9d0924338a1b2cda5fa05ed92a266a1", "fusion_lat": 0.0, "type": "electric_scooter", "lat": 38.912752166666664, "is_reserved": 0, "is_disabled": 0, "fusion_lon": 0.0, "bike_id": "d9d0924338a1b2cda5fa05ed92a266a1", "lon": -77.04503133333333, "rental_uris": {"ios": "https://dc.lft.to/lastmile_qr_scan", "android": "https://dc.lft.to/lastmile_qr_scan"}}, {"name": "30a7ac64460280903ba4131af17b392f", "fusion_lat": 0.0, "type": "electric_scooter", "lat": 38.90564533333333, "is_reserved": 0, "is_disabled": 0, "fusion_lon": 0.0, "bike_id": "30a7ac64460280903ba4131af17b392f", "lon": -77.02221216666666, "rental_uris": {"ios": "https://dc.lft.to/lastmile_qr_scan", "android": "https://dc.lft.to/lastmile_qr_scan"}}, {"name": "0649f192d262d33e0489058e76f7c9da", "fusion_lat": 0.0, "type": "electric_scooter", "lat": 38.9082705, "is_reserved": 0, "is_disabled": 0, "fusion_lon": 0.0, "bike_id": "0649f192d262d33e0489058e76f7c9da", "lon": -77.03203316666666, "rental_uris": {"ios": "https://dc.lft.to/lastmile_qr_scan", "android": "https://dc.lft.to/lastmile_qr_scan"}}, {"name": "9ce8c7ea8781a83997b0ee6995cd715b", "fusion_lat": 0.0, "type": "electric_scooter", "lat": 38.899565833333334, "is_reserved": 0, "is_disabled": 0, "fusion_lon": 0.0, "bike_id": "9ce8c7ea8781a83997b0ee6995cd715b", "lon": -77.05273083333333, "rental_uris": {"ios": "https://dc.lft.to/lastmile_qr_scan", "android": "https://dc.lft.to/lastmile_qr_scan"}}, {"name": "997a0e4364d6eaa6574810b43273673f", "fusion_lat": 0.0, "type": "electric_scooter", "lat": 38.91453516666667, "is_reserved": 0, "is_disabled": 0, "fusion_lon": 0.0, "bike_id": "997a0e4364d6eaa6574810b43273673f", "lon": -77.021697, "rental_uris": {"ios": "https://dc.lft.to/lastmile_qr_scan", "android": "https://dc.lft.to/lastmile_qr_scan"}}, {"name": "b32cda4ec04fa1af625ac3edb501648e", "fusion_lat": 0.0, "type": "electric_scooter", "lat": 38.870848, "is_reserved": 0, "is_disabled": 0, "fusion_lon": 0.0, "bike_id": "b32cda4ec04fa1af625ac3edb501648e", "lon": -77.011235, "rental_uris": {"ios": "https://dc.lft.to/lastmile_qr_scan", "android": "https://dc.lft.to/lastmile_qr_scan"}}, {"name": "2c20533c178ae542368138f0629a6ff0", "fusion_lat": 0.0, "type": "electric_scooter", "lat": 38.93460483333333, "is_reserved": 0, "is_disabled": 0, "fusion_lon": 0.0, "bike_id": "2c20533c178ae542368138f0629a6ff0", "lon": -77.0863315, "rental_uris": {"ios": "https://dc.lft.to/lastmile_qr_scan", "android": "https://dc.lft.to/lastmile_qr_scan"}}, {"name": "a6d240f4ab7534ee416a40d5de273f8c", "fusion_lat": 0.0, "type": "electric_scooter", "lat": 38.90356766666667, "is_reserved": 0, "is_disabled": 0, "fusion_lon": 0.0, "bike_id": "a6d240f4ab7534ee416a40d5de273f8c", "lon": -77.05244366666666, "rental_uris": {"ios": "https://dc.lft.to/lastmile_qr_scan", "android": "https://dc.lft.to/lastmile_qr_scan"}}, {"name": "c7b33b4809c9f3ff2f5c3c2ba1590e82", "fusion_lat": 0.0, "type": "electric_scooter", "lat": 38.88783683333333, "is_reserved": 0, "is_disabled": 0, "fusion_lon": 0.0, "bike_id": "c7b33b4809c9f3ff2f5c3c2ba1590e82", "lon": -76.95531983333333, "rental_uris": {"ios": "https://dc.lft.to/lastmile_qr_scan", "android": "https://dc.lft.to/lastmile_qr_scan"}}, {"name": "b3fc56a367b874aaf7b1e65dac7350ac", "fusion_lat": 0.0, "type": "electric_scooter", "lat": 38.923191333333335, "is_reserved": 0, "is_disabled": 0, "fusion_lon": 0.0, "bike_id": "b3fc56a367b874aaf7b1e65dac7350ac", "lon": -77.04107016666667, "rental_uris": {"ios": "https://dc.lft.to/lastmile_qr_scan", "android": "https://dc.lft.to/lastmile_qr_scan"}}, {"name": "f58c6c5bc8b4ff12704b147a1e68554d", "fusion_lat": 0.0, "type": "electric_scooter", "lat": 38.896923666666666, "is_reserved": 0, "is_disabled": 0, "fusion_lon": 0.0, "bike_id": "f58c6c5bc8b4ff12704b147a1e68554d", "lon": -77.02179633333333, "rental_uris": {"ios": "https://dc.lft.to/lastmile_qr_scan", "android": "https://dc.lft.to/lastmile_qr_scan"}}, {"name": "af1840c90ba251705d236d57c42e0249", "fusion_lat": 0.0, "type": "electric_bike", "lat": 38.9481015, "is_reserved": 0, "is_disabled": 0, "fusion_lon": 0.0, "bike_id": "af1840c90ba251705d236d57c42e0249", "lon": -77.02145066666667, "rental_uris": {"ios": "https://dc.lft.to/lastmile_qr_scan", "android": "https://dc.lft.to/lastmile_qr_scan"}}, {"name": "13382dd60fe1f067a14b4b0ab8eb00a8", "fusion_lat": 0.0, "type": "electric_scooter", "lat": 38.879843, "is_reserved": 0, "is_disabled": 0, "fusion_lon": 0.0, "bike_id": "13382dd60fe1f067a14b4b0ab8eb00a8", "lon": -76.98379766666666, "rental_uris": {"ios": "https://dc.lft.to/lastmile_qr_scan", "android": "https://dc.lft.to/lastmile_qr_scan"}}, {"name": "8e8697e4584301a7bc5c641812e882eb", "fusion_lat": 0.0, "type": "electric_bike", "lat": 38.87081233333333, "is_reserved": 0, "is_disabled": 0, "fusion_lon": 0.0, "bike_id": "8e8697e4584301a7bc5c641812e882eb", "lon": -77.11039183333334, "rental_uris": {"ios": "https://dc.lft.to/lastmile_qr_scan", "android": "https://dc.lft.to/lastmile_qr_scan"}}, {"name": "1b82d885c1d8349a9f93d4024b22cdf5", "fusion_lat": 0.0, "type": "electric_scooter", "lat": 38.923723333333335, "is_reserved": 0, "is_disabled": 0, "fusion_lon": 0.0, "bike_id": "1b82d885c1d8349a9f93d4024b22cdf5", "lon": -77.019126, "rental_uris": {"ios": "https://dc.lft.to/lastmile_qr_scan", "android": "https://dc.lft.to/lastmile_qr_scan"}}, {"name": "3812622566863a62697656de5813c008", "fusion_lat": 0.0, "type": "electric_scooter", "lat": 38.877571833333334, "is_reserved": 0, "is_disabled": 0, "fusion_lon": 0.0, "bike_id": "3812622566863a62697656de5813c008", "lon": -76.9723915, "rental_uris": {"ios": "https://dc.lft.to/lastmile_qr_scan", "android": "https://dc.lft.to/lastmile_qr_scan"}}, {"name": "31b4b502df53d57c1d53187313817ac5", "fusion_lat": 0.0, "type": "electric_scooter", "lat": 38.8621055, "is_reserved": 0, "is_disabled": 0, "fusion_lon": 0.0, "bike_id": "31b4b502df53d57c1d53187313817ac5", "lon": -76.99470783333334, "rental_uris": {"ios": "https://dc.lft.to/lastmile_qr_scan", "android": "https://dc.lft.to/lastmile_qr_scan"}}, {"name": "94e352831da596e3014d5cd4beaed25f", "fusion_lat": 0.0, "type": "electric_scooter", "lat": 38.929033833333335, "is_reserved": 0, "is_disabled": 0, "fusion_lon": 0.0, "bike_id": "94e352831da596e3014d5cd4beaed25f", "lon": -77.02501766666667, "rental_uris": {"ios": "https://dc.lft.to/lastmile_qr_scan", "android": "https://dc.lft.to/lastmile_qr_scan"}}, {"name": "d6cccaf0c7bf4a4a61c1bae786313e16", "fusion_lat": 0.0, "type": "electric_scooter", "lat": 38.948372166666665, "is_reserved": 0, "is_disabled": 0, "fusion_lon": 0.0, "bike_id": "d6cccaf0c7bf4a4a61c1bae786313e16", "lon": -77.0255415, "rental_uris": {"ios": "https://dc.lft.to/lastmile_qr_scan", "android": "https://dc.lft.to/lastmile_qr_scan"}}, {"name": "cf5c114b5d7e1915e9e0eb8eefbeedaf", "fusion_lat": 0.0, "type": "electric_scooter", "lat": 38.8971855, "is_reserved": 0, "is_disabled": 0, "fusion_lon": 0.0, "bike_id": "cf5c114b5d7e1915e9e0eb8eefbeedaf", "lon": -77.03100716666667, "rental_uris": {"ios": "https://dc.lft.to/lastmile_qr_scan", "android": "https://dc.lft.to/lastmile_qr_scan"}}, {"name": "a1da0195fc39d94dc1abc5e5232261b1", "fusion_lat": 0.0, "type": "electric_scooter", "lat": 38.9037125, "is_reserved": 0, "is_disabled": 0, "fusion_lon": 0.0, "bike_id": "a1da0195fc39d94dc1abc5e5232261b1", "lon": -77.0110665, "rental_uris": {"ios": "https://dc.lft.to/lastmile_qr_scan", "android": "https://dc.lft.to/lastmile_qr_scan"}},