{"data": {"bikes": [{"is_reserved": 0, "bike_id": "4ffc7b06ef489581da7bb63cac340a51", "type": "electric_scooter", "name": "4ffc7b06ef489581da7bb63cac340a51", "is_disabled": 0, "fusion_lon": 0.0, "rental_uris": {"android": "https://dc.lft.to/lastmile_qr_scan", "ios": "https://dc.lft.to/lastmile_qr_scan"}, "lat": 38.95542483333333, "lon": -77.02780983333334, "fusion_lat": 0.0}, {"is_reserved": 0, "bike_id": "ae5748be562dc83b94d5f287676722ee", "type": "electric_scooter", "name": "ae5748be562dc83b94d5f287676722ee", "is_disabled": 0, "fusion_lon": 0.0, "rental_uris": {"android": "https://dc.lft.to/lastmile_qr_scan", "ios": "https://dc.lft.to/lastmile_qr_scan"}, "lat": 38.913301833333335, "lon": -77.01983133333333, "fusion_lat": 0.0}, {"is_reserved": 0, "bike_id": "dc91d80390e2723ee9d87959ff994ccc", "type": "electric_scooter", "name": "dc91d80390e2723ee9d87959ff994ccc", "is_disabled": 0, "fusion_lon": 0.0, "rental_uris": {"android": "https://dc.lft.to/lastmile_qr_scan", "ios": "https://dc.lft.to/lastmile_qr_scan"}, "lat": 38.8983495, "lon": -77.0499005, "fusion_lat": 0.0}, {"is_reserved": 0, "bike_id": "2e5ad7c47204a62946b418fa430ad921", "type": "electric_scooter", "name": "2e5ad7c47204a62946b418fa430ad921", "is_disabled": 0, "fusion_lon": 0.0, "rental_uris": {"android": "https://dc.lft.to/lastmile_qr_scan", "ios": "https://dc.lft.to/lastmile_qr_scan"}, "lat": 38.9050445, "lon": -77.06036716666667, "fusion_lat": 0.0}, {"is_reserved": 0, "bike_id": "1179df3f74314eadf9a4aa8ac004bb9c", "type": "electric_scooter", "name": "1179df3f74314eadf9a4aa8ac004bb9c", "is_disabled": 0, "fusion_lon": 0.0, "rental_uris": {"android": "https://dc.lft.to/lastmile_qr_scan", "ios": "https://dc.lft.to/lastmile_qr_scan"}, "lat": 38.9238105, "lon": -77.020392, "fusion_lat": 0.0}, {"is_reserved": 0, "bike_id": "10a15bfe387e36f937b03f159f6ff37d", "type": "electric_scooter", "name": "10a15bfe387e36f937b03f159f6ff37d", "is_disabled": 0, "fusion_lon": 0.0, "rental_uris": {"android": "https://dc.lft.to/lastmile_qr_scan", "ios": "https://dc.lft.to/lastmile_qr_scan"}, "lat": 38.92146983333333, "lon": -77.03457116666667, "fusion_lat": 0.0}, {"is_reserved": 0, "bike_id": "f52efbf51566f50b6a786af3723cf50f", "type": "electric_scooter", "name": "f52efbf51566f50b6a786af3723cf50f", "is_disabled": 0, "fusion_lon": 0.0, "rental_uris": {"android": "https://dc.lft.to/lastmile_qr_scan", "ios": "https://dc.lft.to/lastmile_qr_scan"}, "lat": 38.895495, "lon": -77.02976783333334, "fusion_lat": 0.0}, {"is_reserved": 0, "bike_id": "5c3af7f343cf2d17296eefa32cc3328f", "type": "electric_scooter", "name": "5c3af7f343cf2d17296eefa32cc3328f", "is_disabled": 0, "fusion_lon": 0.0, "rental_uris": {"android": "https://dc.lft.to/lastmile_qr_scan", "ios": "https://dc.lft.to/lastmile_qr_scan"}, "lat": 38.898698, "lon": -76.93184466666666, "fusion_lat": 0.0}, {"is_reserved": 0, "bike_id": "f24157e8391ed3081cd75210e9ef66e0", "type": "electric_scooter", "name": "f24157e8391ed3081cd75210e9ef66e0", "is_disabled": 0, "fusion_lon": 0.0, "rental_uris": {"android": "https://dc.lft.to/lastmile_qr_scan", "ios": "https://dc.lft.to/lastmile_qr_scan"}, "lat": 38.9234365, "lon": -77.05468733333333, "fusion_lat": 0.0}, {"is_reserved": 0, "bike_id": "001a7d916e7e523b338195e515275fbf", "type": "electric_scooter", "name": "001a7d916e7e523b338195e515275fbf", "is_disabled": 0, "fusion_lon": 0.0, "rental_uris": {"android": "https://dc.lft.to/lastmile_qr_scan", "ios": "https://dc.lft.to/lastmile_qr_scan"}, "lat": 38.9070405, "lon": -76.98568, "fusion_lat": 0.0}, {"is_reserved": 0, "bike_id": "3ca5b1f833a0355a9597e6c9d2497dec", "type": "electric_bike", "name": "3ca5b1f833a0355a9597e6c9d2497dec", "is_disabled": 0, "fusion_lon": 0.0, "rental_uris": {"android": "https://dc.lft.to/lastmile_qr_scan", "ios": "https://dc.lft.to/lastmile_qr_scan"}, "lat": 38.98548316666667, "lon": -77.00403783333333, "fusion_lat": 0.0}, {"is_reserved": 0, "bike_id": "199cfe14e68e706182103f83b2fcfc11", "type": "electric_scooter", "name": "199cfe14e68e706182103f83b2fcfc11", "is_disabled": 0, "fusion_lon": 0.0, "rental_uris": {"android": "https://dc.lft.to/lastmile_qr_scan", "ios": "https://dc.lft.to/lastmile_qr_scan"}, "lat": 38.89575283333333, "lon": -77.02168233333333, "fusion_lat": 0.0}, {"is_reserved": 0, "bike_id": "188375ddaa05921e8dd35f1a84500d0f", "type": "electric_scooter", "name": "188375ddaa05921e8dd35f1a84500d0f", "is_disabled": 0, "fusion_lon": 0.0, "rental_uris": {"android": "https://dc.lft.to/lastmile_qr_scan", "ios": "https://dc.lft.to/lastmile_qr_scan"}, "lat": 38.920982333333335, "lon": -77.02511033333333, "fusion_lat": 0.0}, {"is_reserved": 0, "bike_id": "49e04c590814ffa99241b0e3c6ed78dc", "type": "electric_bike", "name": "49e04c590814ffa99241b0e3c6ed78dc", "is_disabled": 0, "fusion_lon": 0.0, "rental_uris": {"android": "https://dc.lft.to/lastmile_qr_scan", "ios": "https://dc.lft.to/lastmile_qr_scan"}, "lat": 38.9677885, "lon": -76.99654133333334, "fusion_lat": 0.0}, {"is_reserved": 0, "bike_id": "96d541d199ad50dd18a352cf64edb8ac", "type": "electric_scooter", "name": "96d541d199ad50dd18a352cf64edb8ac", "is_disabled": 0, "fusion_lon": 0.0, "rental_uris": {"android": "https://dc.lft.to/lastmile_qr_scan", "ios": "https://dc.lft.to/lastmile_qr_scan"}, "lat": 38.917108999999996, "lon": -77.06834183333333, "fusion_lat": 0.0}, {"is_reserved": 0, "bike_id": "e541025e60986a35a8f07ca878cad820", "type": "electric_scooter", "name": "e541025e60986a35a8f07ca878cad820", "is_disabled": 0, "fusion_lon": 0.0, "rental_uris": {"android": "https://dc.lft.to/lastmile_qr_scan", "ios": "https://dc.lft.to/lastmile_qr_scan"}, "lat": 38.96272883333334, "lon": -77.03025766666667, "fusion_lat": 0.0}, {"is_reserved": 0, "bike_id": "0321d644d82bb8631e51fb247df2f71e", "type": "electric_bike", "name": "0321d644d82bb8631e51fb247df2f71e", "is_disabled": 0, "fusion_lon": 0.0, "rental_uris": {"android": "https://dc.lft.to/lastmile_qr_scan", "ios": "https://dc.lft.to/lastmile_qr_scan"}, "lat": 38.94570216666666, "lon": -76.981162, "fusion_lat": 0.0}, {"is_reserved": 0, "bike_id": "6e4d31400d422d4b1fbca0eed1243fcf", "type": "electric_scooter", "name": "6e4d31400d422d4b1fbca0eed1243fcf", "is_disabled": 0, "fusion_lon": 0.0, "rental_uris": {"android": "https://dc.lft.to/lastmile_qr_scan", "ios": "https://dc.lft.to/lastmile_qr_scan"}, "lat": 38.92039066666667, "lon": -77.03888816666667, "fusion_lat": 0.0}, {"is_reserved": 0, "bike_id": "b4b705d0e8c03ca5a348ad82a210fbb9", "type": "electric_scooter", "name": "b4b705d0e8c03ca5a348ad82a210fbb9", "is_disabled": 0, "fusion_lon": 0.0, "rental_uris": {"android": "https://dc.lft.to/lastmile_qr_scan", "ios": "https://dc.lft.to/lastmile_qr_scan"}, "lat": 38.939606833333336, "lon": -77.07243433333333, "fusion_lat": 0.0}, {"is_reserved": 0, "bike_id": "8b9d8b6b258bc9887192b29b6dcbb0c7", "type": "electric_scooter", "name": "8b9d8b6b258bc9887192b29b6dcbb0c7", "is_disabled": 0, "fusion_lon": 0.0, "rental_uris": {"android": "https://dc.lft.to/lastmile_qr_scan", "ios": "https://dc.lft.to/lastmile_qr_scan"}, "lat": 38.91281733333334, "lon": -77.02303983333333, "fusion_lat": 0.0}, {"is_reserved": 0, "bike_id": "82b2fb688b6f5c2200cc58c089c9a764", "type": "electric_scooter", "name": "82b2fb688b6f5c2200cc58c089c9a764", "is_disabled": 0, "fusion_lon": 0.0, "rental_uris": {"android": "https://dc.lft.to/lastmile_qr_scan", "ios": "https://dc.lft.to/lastmile_qr_scan"}, "lat": 38.919771833333336, "lon": -77.01816766666667, "fusion_lat": 0.0}, {"is_reserved": 0, "bike_id": "4dfffa08cd2633f352641b2de96f0032", "type": "electric_scooter", "name": "4dfffa08cd2633f352641b2de96f0032", "is_disabled": 0, "fusion_lon": 0.0, "rental_uris": {"android": "https://dc.lft.to/lastmile_qr_scan", "ios": "https://dc.lft.to/lastmile_qr_scan"}, "lat": 38.904192333333334, "lon": -77.02723116666667, "fusion_lat": 0.0}, {"is_reserved": 0, "bike_id": "d18cd791e4627a276984dabf8817228e", "type": "electric_scooter", "name": "d18cd791e4627a276984dabf8817228e", "is_disabled": 0, "fusion_lon": 0.0, "rental_uris": {"android": "https://dc.lft.to/lastmile_qr_scan", "ios": "https://dc.lft.to/lastmile_qr_scan"}, "lat": 38.92067733333333, "lon": -77.043783, "fusion_lat": 0.0}, {"is_reserved": 0, "bike_id": "7d2eb92d33a041b0f9c1f7d21b5dd8c3", "type": "electric_scooter", "name": "7d2eb92d33a041b0f9c1f7d21b5dd8c3", "is_disabled": 0, "fusion_lon": 0.0, "rental_uris": {"android": "https://dc.lft.to/lastmile_qr_scan", "ios": "https://dc.lft.to/lastmile_qr_scan"}, "lat": 38.9060775, "lon": -77.06378966666666, "fusion_lat": 0.0}, {"is_reserved": 0, "bike_id": "9ccba51c5fca948107de2869062f4f26", "type": "electric_scooter", "name": "9ccba51c5fca948107de2869062f4f26", "is_disabled": 0, "fusion_lon": 0.0, "rental_uris": {"android": "https://dc.lft.to/lastmile_qr_scan", "ios": "https://dc.lft.to/lastmile_qr_scan"}, "lat": 38.8986405, "lon": -77.0402245, "fusion_lat": 0.0}, {"is_reserved": 0, "bike_id": "4e2788357c444afb741540e5dba8c94b", "type": "electric_scooter", "name": "4e2788357c444afb741540e5dba8c94b", "is_disabled": 0, "fusion_lon": 0.0, "rental_uris": {"android": "https://dc.lft.to/lastmile_qr_scan", "ios": "https://dc.lft.to/lastmile_qr_scan"}, "lat": 38.920344, "lon": -77.04188533333334, "fusion_lat": 0.0}, {"is_reserved": 0, "bike_id": "85bc0737cea267e7ba2d37bb022b6f59", "type": "electric_scooter", "name": "85bc0737cea267e7ba2d37bb022b6f59", "is_disabled": 0, "fusion_lon": 0.0, "rental_uris": {"android": "https://dc.lft.to/lastmile_qr_scan", "ios": "https://dc.lft.to/lastmile_qr_scan"}, "lat": 38.9094385, "lon": -77.03444633333334, "fusion_lat": 0.0}, {"is_reserved": 0, "bike_id": "f84dcb875f36daaa9579340254f064a0", "type": "electric_scooter", "name": "f84dcb875f36daaa9579340254f064a0", "is_disabled": 0, "fusion_lon": 0.0, "rental_uris": {"android": "https://dc.lft.to/lastmile_qr_scan", "ios": "https://dc.lft.to/lastmile_qr_scan"}, "lat": 38.88386116666667, "lon": -77.0175845, "fusion_lat": 0.0}, {"is_reserved": 0, "bike_id": "6c4942c45298bd09bdcc3c2077a0f848", "type": "electric_scooter", "name": "6c4942c45298bd09bdcc3c2077a0f848", "is_disabled": 0, "fusion_lon": 0.0, "rental_uris": {"android": "https://dc.lft.to/lastmile_qr_scan", "ios": "https://dc.lft.to/lastmile_qr_scan"}, "lat": 38.90203116666667, "lon": -77.04804083333333, "fusion_lat": 0.0}, {"is_reserved": 0, "bike_id": "c0b18c755663fcbd24a1275e2b6a8d08", "type": "electric_scooter", "name": "c0b18c755663fcbd24a1275e2b6a8d08", "is_disabled": 0, "fusion_lon": 0.0, "rental_uris": {"android": "https://dc.lft.to/lastmile_qr_scan", "ios": "https://dc.lft.to/lastmile_qr_scan"}, "lat": 38.88966833333333, "lon": -76.98033933333333, "fusion_lat": 0.0}, {"is_reserved": 0, "bike_id": "510823c37f82348c588d0da3fcab6ac4", "type": "electric_scooter", "name": "510823c37f82348c588d0da3fcab6ac4", "is_disabled": 0, "fusion_lon": 0.0, "rental_uris": {"android": "https://dc.lft.to/lastmile_qr_scan", "ios": "https://dc.lft.to/lastmile_qr_scan"}, "lat": 38.91442166666667, "lon": -77.022888, "fusion_lat": 0.0}, {"is_reserved": 0, "bike_id": "34958a11e9460732be936d066872ee99", "type": "electric_scooter", "name": "34958a11e9460732be936d066872ee99", "is_disabled": 0, "fusion_lon": 0.0, "rental_uris": {"android": "https://dc.lft.to/lastmile_qr_scan", "ios": "https://dc.lft.to/lastmile_qr_scan"}, "lat": 38.890343333333334, "lon": -76.944664, "fusion_lat": 0.0}, {"is_reserved": 0, "bike_id": "61148a6f40a520dc0d5c18e994316225", "type": "electric_scooter", "name": "61148a6f40a520dc0d5c18e994316225", "is_disabled": 0, "fusion_lon": 0.0, "rental_uris": {"android": "https://dc.lft.to/lastmile_qr_scan", "ios": "https://dc.lft.to/lastmile_qr_scan"}, "lat": 38.90549716666666, "lon": -77.03452016666667, "fusion_lat": 0.0}, {"is_reserved": 0, "bike_id": "e915591fb9f853e4fc014c09f883c379", "type": "electric_scooter", "name": "e915591fb9f853e4fc014c09f883c379", "is_disabled": 0, "fusion_lon": 0.0, "rental_uris": {"android": "https://dc.lft.to/lastmile_qr_scan", "ios": "https://dc.lft.to/lastmile_qr_scan"}, "lat": 38.90027033333333, "lon": -76.9986645, "fusion_lat": 0.0}, {"is_reserved": 0, "bike_id": "37fbf786b17dad1c901b62a5a5a9a4c6", "type": "electric_scooter", "name": "37fbf786b17dad1c901b62a5a5a9a4c6", "is_disabled": 0, "fusion_lon": 0.0, "rental_uris": {"android": "https://dc.lft.to/lastmile_qr_scan", "ios": "https://dc.lft.to/lastmile_qr_scan"}, "lat": 38.9003135, "lon": -76.99871416666667, "fusion_lat": 0.0}, {"is_reserved": 0, "bike_id": "1f34ede9d6cc4b3baf2f5e9bc77cfab8", "type": "electric_scooter", "name": "1f34ede9d6cc4b3baf2f5e9bc77cfab8", "is_disabled": 0, "fusion_lon": 0.0, "rental_uris": {"android": "https://dc.lft.to/lastmile_qr_scan", "ios": "https://dc.lft.to/lastmile_qr_scan"}, "lat": 38.9110515, "lon": -77.04087266666667, "fusion_lat": 0.0}, {"is_reserved": 0, "bike_id": "c801064a4de15ad2241e7cfcf0718518", "type": "electric_scooter", "name": "c801064a4de15ad2241e7cfcf0718518", "is_disabled": 0, "fusion_lon": 0.0, "rental_uris": {"android": "https://dc.lft.to/lastmile_qr_scan", "ios": "https://dc.lft.to/lastmile_qr_scan"}, "lat": 38.93265933333333, "lon": -77.01923766666667, "fusion_lat": 0.0}, {"is_reserved": 0, "bike_id": "01c1319c04c95a6c282fb9aa69e50968", "type": "electric_scooter", "name": "01c1319c04c95a6c282fb9aa69e50968", "is_disabled": 0, "fusion_lon": 0.0, "rental_uris": {"android": "https://dc.lft.to/lastmile_qr_scan", "ios": "https://dc.lft.to/lastmile_qr_scan"}, "lat": 38.88582816666667, "lon": -77.019919, "fusion_lat": 0.0}, {"is_reserved": 0, "bike_id": "a1774c096f7515c446f753653cdbbc54", "type": "electric_scooter", "name": "a1774c096f7515c446f753653cdbbc54", "is_disabled": 0, "fusion_lon": 0.0, "rental_uris": {"android": "https://dc.lft.to/lastmile_qr_scan", "ios": "https://dc.lft.to/lastmile_qr_scan"}, "lat": 38.9306525, "lon": -77.02336283333334, "fusion_lat": 0.0}, {"is_reserved": 0, "bike_id": "b3a737680b387075eab5b08a647b07e1", "type": "electric_scooter", "name": "b3a737680b387075eab5b08a647b07e1", "is_disabled": 0, "fusion_lon": 0.0, "rental_uris": {"android": "https://dc.lft.to/lastmile_qr_scan", "ios": "https://dc.lft.to/lastmile_qr_scan"}, "lat": 38.900194166666665, "lon": -77.01124683333333, "fusion_lat": 0.0}, {"is_reserved": 0, "bike_id": "2f9fa0c5526903e7b92c2199e836769b", "type": "electric_scooter", "name": "2f9fa0c5526903e7b92c2199e836769b", "is_disabled": 0, "fusion_lon": 0.0, "rental_uris": {"android": "https://dc.lft.to/lastmile_qr_scan", "ios": "https://dc.lft.to/lastmile_qr_scan"}, "lat": 38.913494166666666, "lon": -77.043544, "fusion_lat": 0.0}, {"is_reserved": 0, "bike_id": "5519d13857d74ce27ed954d16f82e167", "type": "electric_scooter", "name": "5519d13857d74ce27ed954d16f82e167", "is_disabled": 0, "fusion_lon": 0.0, "rental_uris": {"android": "https://dc.lft.to/lastmile_qr_scan", "ios": "https://dc.lft.to/lastmile_qr_scan"}, "lat": 38.8917885, "lon": -77.0153145, "fusion_lat": 0.0}, {"is_reserved": 0, "bike_id": "9535c986527335216ffcaae4e02c0f5f", "type": "electric_scooter", "name": "9535c986527335216ffcaae4e02c0f5f", "is_disabled": 0, "fusion_lon": 0.0, "rental_uris": {"android": "https://dc.lft.to/lastmile_qr_scan", "ios": "https://dc.lft.to/lastmile_qr_scan"}, "lat": 38.9320355, "lon": -77.04124683333333, "fusion_lat": 0.0}, {"is_reserved": 0, "bike_id": "1ed0772ad83406bbfc64697d3690fddd", "type": "electric_scooter", "name": "1ed0772ad83406bbfc64697d3690fddd", "is_disabled": 0, "fusion_lon": 0.0, "rental_uris": {"android": "https://dc.lft.to/lastmile_qr_scan", "ios": "https://dc.lft.to/lastmile_qr_scan"}, "lat": 38.90142316666667, "lon": -77.04167933333333, "fusion_lat": 0.0}, {"is_reserved": 0, "bike_id": "cb605c9a582a9cf050cf2ad64b1aa140", "type": "electric_scooter", "name": "cb605c9a582a9cf050cf2ad64b1aa140", "is_disabled": 0, "fusion_lon": 0.0, "rental_uris": {"android": "https://dc.lft.to/lastmile_qr_scan", "ios": "https://dc.lft.to/lastmile_qr_scan"}, "lat": 38.92502016666667, "lon": -77.02354516666666, "fusion_lat": 0.0}, {"is_reserved": 0, "bike_id": "9d28de91de831c6b27fc5e936375ef0c", "type": "electric_bike", "name": "9d28de91de831c6b27fc5e936375ef0c", "is_disabled": 0, "fusion_lon": 0.0, "rental_uris": {"android": "https://dc.lft.to/lastmile_qr_scan", "ios": "https://dc.lft.to/lastmile_qr_scan"}, "lat": 38.894134666666666, "lon": -76.99983183333333, "fusion_lat": 0.0}, {"is_reserved": 0, "bike_id": "bb4b6bd66800b255389b5f2c6c4d336b", "type": "electric_scooter", "name": "bb4b6bd66800b255389b5f2c6c4d336b", "is_disabled": 0, "fusion_lon": 0.0, "rental_uris": {"android": "https://dc.lft.to/lastmile_qr_scan", "ios": "https://dc.lft.to/lastmile_qr_scan"}, "lat": 38.92328666666667, "lon": -77.05687166666667, "fusion_lat": 0.0}, {"is_reserved": 0, "bike_id": "66d2a2174fe532319716e6eb7edd87f9", "type": "electric_scooter", "name": "66d2a2174fe532319716e6eb7edd87f9", "is_disabled": 0, "fusion_lon": 0.0, "rental_uris": {"android": "https://dc.lft.to/lastmile_qr_scan", "ios": "https://dc.lft.to/lastmile_qr_scan"}, "lat": 38.924344166666664, "lon": -77.04239816666667, "fusion_lat": 0.0}, {"is_reserved": 0, "bike_id": "38b035a4f9e5ebfe65956968c896acae", "type": "electric_scooter", "name": "38b035a4f9e5ebfe65956968c896acae", "is_disabled": 0, "fusion_lon": 0.0, "rental_uris": {"android": "https://dc.lft.to/lastmile_qr_scan", "ios": "https://dc.lft.to/lastmile_qr_scan"}, "lat": 38.9059175, "lon": -77.01222683333333, "fusion_lat": 0.0}, {"is_reserved": 0, "bike_id": "60a79272cd7e3e56e71ba0727cf3209e", "type": "electric_scooter", "name": "60a79272cd7e3e56e71ba0727cf3209e", "is_disabled": 0, "fusion_lon": 0.0, "rental_uris": {"android": "https://dc.lft.to/lastmile_qr_scan", "ios": "https://dc.lft.to/lastmile_qr_scan"}, "lat": 38.898445833333334, "lon": -77.01292283333333, "fusion_lat": 0.0}, {"is_reserved": 0, "bike_id": "025c10fcc2bd86074b60a0773385f6f3", "type": "electric_scooter", "name": "025c10fcc2bd86074b60a0773385f6f3", "is_disabled": 0, "fusion_lon": 0.0, "rental_uris": {"android": "https://dc.lft.to/lastmile_qr_scan", "ios": "https://dc.lft.to/lastmile_qr_scan"}, "lat": 38.939615, "lon": -77.07242433333333, "fusion_lat": 0.0}, {"is_reserved": 0, "bike_id": "2455bbd64f62f3030624bd7bfb502b71", "type": "electric_scooter", "name": "2455bbd64f62f3030624bd7bfb502b71", "is_disabled": 0, "fusion_lon": 0.0, "rental_uris": {"android": "https://dc.lft.to/lastmile_qr_scan", "ios": "https://dc.lft.to/lastmile_qr_scan"}, "lat": 38.90798266666667, "lon": -77.03195916666667, "fusion_lat": 0.0}, {"is_reserved": 0, "bike_id": "a5ac760fbfd895f4c4856b13aea2c2e3", "type": "electric_scooter", "name": "a5ac760fbfd895f4c4856b13aea2c2e3", "is_disabled": 0, "fusion_lon": 0.0, "rental_uris": {"android": "https://dc.lft.to/lastmile_qr_scan", "ios": "https://dc.lft.to/lastmile_qr_scan"}, "lat": 38.89774516666667, "lon": -77.026975, "fusion_lat": 0.0}, {"is_reserved": 0, "bike_id": "aa1604f198cd693639f977db6807825f", "type": "electric_scooter", "name": "aa1604f198cd693639f977db6807825f", "is_disabled": 0, "fusion_lon": 0.0, "rental_uris": {"android": "https://dc.lft.to/lastmile_qr_scan", "ios": "https://dc.lft.to/lastmile_qr_scan"}, "lat": 38.917747, "lon": -77.023125, "fusion_lat": 0.0}, {"is_reserved": 0, "bike_id": "785726a2a26a22456a2e43df7f38e3ae", "type": "electric_scooter", "name": "785726a2a26a22456a2e43df7f38e3ae", "is_disabled": 0, "fusion_lon": 0.0, "rental_uris": {"android": "https://dc.lft.to/lastmile_qr_scan", "ios": "https://dc.lft.to/lastmile_qr_scan"}, "lat": 38.933196833333334, "lon": -77.02930933333333, "fusion_lat": 0.0}, {"is_reserved": 0, "bike_id": "bb8f98ca0dd84127b1b1277ac3e51ae5", "type": "electric_scooter", "name": "bb8f98ca0dd84127b1b1277ac3e51ae5", "is_disabled": 0, "fusion_lon": 0.0, "rental_uris": {"android": "https://dc.lft.to/lastmile_qr_scan", "ios": "https://dc.lft.to/lastmile_qr_scan"}, "lat": 38.912683333333334, "lon": -77.02212366666667, "fusion_lat": 0.0}, {"is_reserved": 0, "bike_id": "e554c45b95196bbb7a028897e7dc6ce1", "type": "electric_bike", "name": "e554c45b95196bbb7a028897e7dc6ce1", "is_disabled": 0, "fusion_lon": 0.0, "rental_uris": {"android": "https://dc.lft.to/lastmile_qr_scan", "ios": "https://dc.lft.to/lastmile_qr_scan"}, "lat": 39.01090466666667, "lon": -76.9107025, "fusion_lat": 0.0}, {"is_reserved": 0, "bike_id": "e249394b405ef781643cb905879429eb", "type": "electric_scooter", "name": "e249394b405ef781643cb905879429eb", "is_disabled": 0, "fusion_lon": 0.0, "rental_uris": {"android": "https://dc.lft.to/lastmile_qr_scan", "ios": "https://dc.lft.to/lastmile_qr_scan"}, "lat": 38.8922875, "lon": -77.01368933333333, "fusion_lat": 0.0}, {"is_reserved": 0, "bike_id": "37990ff51e2fecc588898cb30b3b186e", "type": "electric_scooter", "name": "37990ff51e2fecc588898cb30b3b186e", "is_disabled": 0, "fusion_lon": 0.0, "rental_uris": {"android": "https://dc.lft.to/lastmile_qr_scan", "ios": "https://dc.lft.to/lastmile_qr_scan"}, "lat": 38.8762865, "lon": -77.00379566666666, "fusion_lat": 0.0}, {"is_reserved": 0, "bike_id": "edbaa719b4610a822f5cf6720f1dce1a", "type": "electric_bike", "name": "edbaa719b4610a822f5cf6720f1dce1a", "is_disabled": 0, "fusion_lon": 0.0, "rental_uris": {"android": "https://dc.lft.to/lastmile_qr_scan", "ios": "https://dc.lft.to/lastmile_qr_scan"}, "lat": 38.995033166666666, "lon": -77.02879483333334, "fusion_lat": 0.0}, {"is_reserved": 0, "bike_id": "8c5be8f5897fea8f8fc5e93dea36152b", "type": "electric_scooter", "name": "8c5be8f5897fea8f8fc5e93dea36152b", "is_disabled": 0, "fusion_lon": 0.0, "rental_uris": {"android": "https://dc.lft.to/lastmile_qr_scan", "ios": "https://dc.lft.to/lastmile_qr_scan"}, "lat": 38.904026, "lon": -77.06774216666666, "fusion_lat": 0.0}, {"is_reserved": 0, "bike_id": "55a85620ace568ee6aab4c3768d3e91a", "type": "electric_scooter", "name": "55a85620ace568ee6aab4c3768d3e91a", "is_disabled": 0, "fusion_lon": 0.0, "rental_uris": {"android": "https://dc.lft.to/lastmile_qr_scan", "ios": "https://dc.lft.to/lastmile_qr_scan"}, "lat": 38.906132, "lon": -77.00869833333333, "fusion_lat": 0.0}, {"is_reserved": 0, "bike_id": "f7a123476a85b0a549ea2bc9cf449613", "type": "electric_scooter", "name": "f7a123476a85b0a549ea2bc9cf449613", "is_disabled": 0, "fusion_lon": 0.0, "rental_uris": {"android": "https://dc.lft.to/lastmile_qr_scan", "ios": "https://dc.lft.to/lastmile_qr_scan"}, "lat": 38.92483516666667, "lon": -77.02173416666666, "fusion_lat": 0.0}, {"is_reserved": 0, "bike_id": "5d47a12636561c17090a4bb2d7a5cba8", "type": "electric_bike", "name": "5d47a12636561c17090a4bb2d7a5cba8", "is_disabled": 0, "fusion_lon": 0.0, "rental_uris": {"android": "https://dc.lft.to/lastmile_qr_scan", "ios": "https://dc.lft.to/lastmile_qr_scan"}, "lat": 38.957352666666665, "lon": -77.02174016666666, "fusion_lat": 0.0}, {"is_reserved": 0, "bike_id": "bb4aa892f1971e5ba6565068d6bebc4d", "type": "electric_bike", "name": "bb4aa892f1971e5ba6565068d6bebc4d", "is_disabled": 0, "fusion_lon": 0.0, "rental_uris": {"android": "https://dc.lft.to/lastmile_qr_scan", "ios": "https://dc.lft.to/lastmile_qr_scan"}, "lat": 38.958762166666666, "lon": -77.0103255, "fusion_lat": 0.0}, {"is_reserved": 0, "bike_id": "f250bdf5a25229c7c777eafade78d9b4", "type": "electric_scooter", "name": "f250bdf5a25229c7c777eafade78d9b4", "is_disabled": 0, "fusion_lon": 0.0, "rental_uris": {"android": "https://dc.lft.to/lastmile_qr_scan", "ios": "https://dc.lft.to/lastmile_qr_scan"}, "lat": 38.9265325, "lon": -77.03728066666666, "fusion_lat": 0.0}, {"is_reserved": 0, "bike_id": "239bb84034eca6096911cc1cb7c7c776", "type": "electric_scooter", "name": "239bb84034eca6096911cc1cb7c7c776", "is_disabled": 0, "fusion_lon": 0.0, "rental_uris": {"android": "https://dc.lft.to/lastmile_qr_scan", "ios": "https://dc.lft.to/lastmile_qr_scan"}, "lat": 38.919275166666665, "lon": -77.03423383333333, "fusion_lat": 0.0}, {"is_reserved": 0, "bike_id": "dc6adb71c8554ad6c38b79b47a5f7c9c", "type": "electric_scooter", "name": "dc6adb71c8554ad6c38b79b47a5f7c9c", "is_disabled": 0, "fusion_lon": 0.0, "rental_uris": {"android": "https://dc.lft.to/lastmile_qr_scan", "ios": "https://dc.lft.to/lastmile_qr_scan"}, "lat": 38.8897155, "lon": -77.04021933333334, "fusion_lat": 0.0}, {"is_reserved": 0, "bike_id": "9f5c9b9a30560d3f737428c60530ee2a", "type": "electric_scooter", "name": "9f5c9b9a30560d3f737428c60530ee2a", "is_disabled": 0, "fusion_lon": 0.0, "rental_uris": {"android": "https://dc.lft.to/lastmile_qr_scan", "ios": "https://dc.lft.to/lastmile_qr_scan"}, "lat": 38.913966, "lon": -77.01015416666667, "fusion_lat": 0.0}, {"is_reserved": 0, "bike_id": "c7b583a8ee5b9d2496c693852701ca9c", "type": "electric_scooter", "name": "c7b583a8ee5b9d2496c693852701ca9c", "is_disabled": 0, "fusion_lon": 0.0, "rental_uris": {"android": "https://dc.lft.to/lastmile_qr_scan", "ios": "https://dc.lft.to/lastmile_qr_scan"}, "lat": 38.903477333333335, "lon": -76.92942666666667, "fusion_lat": 0.0}, {"is_reserved": 0, "bike_id": "51ce28209e9c7a0e62ef19f5e5f8e0be", "type": "electric_scooter", "name": "51ce28209e9c7a0e62ef19f5e5f8e0be", "is_disabled": 0, "fusion_lon": 0.0, "rental_uris": {"android": "https://dc.lft.to/lastmile_qr_scan", "ios": "https://dc.lft.to/lastmile_qr_scan"}, "lat": 38.90983883333333, "lon": -77.06602016666666, "fusion_lat": 0.0}, {"is_reserved": 0, "bike_id": "957357e6682e59304f913af4077cedfe", "type": "electric_scooter", "name": "957357e6682e59304f913af4077cedfe", "is_disabled": 0, "fusion_lon": 0.0, "rental_uris": {"android": "https://dc.lft.to/lastmile_qr_scan", "ios": "https://dc.lft.to/lastmile_qr_scan"}, "lat": 38.910499, "lon": -77.05289066666667, "fusion_lat": 0.0}, {"is_reserved": 0, "bike_id": "124f7d0b4a9f92f15ea56792d7df067d", "type": "electric_scooter", "name": "124f7d0b4a9f92f15ea56792d7df067d", "is_disabled": 0, "fusion_lon": 0.0, "rental_uris": {"android": "https://dc.lft.to/lastmile_qr_scan", "ios": "https://dc.lft.to/lastmile_qr_scan"}, "lat": 38.90178366666667, "lon": -77.04341333333333, "fusion_lat": 0.0}, {"is_reserved": 0, "bike_id": "ad4ba71d685284c0f24ca396508d43fc", "type": "electric_scooter", "name": "ad4ba71d685284c0f24ca396508d43fc", "is_disabled": 0, "fusion_lon": 0.0, "rental_uris": {"android": "https://dc.lft.to/lastmile_qr_scan", "ios": "https://dc.lft.to/lastmile_qr_scan"}, "lat": 38.911185, "lon": -77.0503685, "fusion_lat": 0.0}, {"is_reserved": 0, "bike_id": "8267d65ef0e713e22c3c41da4d255179", "type": "electric_scooter", "name": "8267d65ef0e713e22c3c41da4d255179", "is_disabled": 0, "fusion_lon": 0.0, "rental_uris": {"android": "https://dc.lft.to/lastmile_qr_scan", "ios": "https://dc.lft.to/lastmile_qr_scan"}, "lat": 38.8778075, "lon": -76.99412916666667, "fusion_lat": 0.0}, {"is_reserved": 0, "bike_id": "4b60f13bc15fa52a2294501ddfc96083", "type": "electric_scooter", "name": "4b60f13bc15fa52a2294501ddfc96083", "is_disabled": 0, "fusion_lon": 0.0, "rental_uris": {"android": "https://dc.lft.to/lastmile_qr_scan", "ios": "https://dc.lft.to/lastmile_qr_scan"}, "lat": 38.93607516666667, "lon": -77.05891216666667, "fusion_lat": 0.0}, {"is_reserved": 0, "bike_id": "19f493ee11c2dd8ae8ed5f1c447a0d4b", "type": "electric_scooter", "name": "19f493ee11c2dd8ae8ed5f1c447a0d4b", "is_disabled": 0, "fusion_lon": 0.0, "rental_uris": {"android": "https://dc.lft.to/lastmile_qr_scan", "ios": "https://dc.lft.to/lastmile_qr_scan"}, "lat": 38.91641383333334, "lon": -77.032124, "fusion_lat": 0.0}, {"is_reserved": 0, "bike_id": "7a68178025b565ede450df2086c6e812", "type": "electric_bike", "name": "7a68178025b565ede450df2086c6e812", "is_disabled": 0, "fusion_lon": 0.0, "rental_uris": {"android": "https://dc.lft.to/lastmile_qr_scan", "ios": "https://dc.lft.to/lastmile_qr_scan"}, "lat": 38.8956495, "lon": -77.12738033333333, "fusion_lat": 0.0}, {"is_reserved": 0, "bike_id": "4a3e5ce80f03f9e648d1d2873e774f24", "type": "electric_scooter", "name": "4a3e5ce80f03f9e648d1d2873e774f24", "is_disabled": 0, "fusion_lon": 0.0, "rental_uris": {"android": "https://dc.lft.to/lastmile_qr_scan", "ios": "https://dc.lft.to/lastmile_qr_scan"}, "lat": 38.89196666666667, "lon": -77.02382116666666, "fusion_lat": 0.0}, {"is_reserved": 0, "bike_id": "b21c0e8e5a7c9fa81dc9cbc8a5c00f07", "type": "electric_scooter", "name": "b21c0e8e5a7c9fa81dc9cbc8a5c00f07", "is_disabled": 0, "fusion_lon": 0.0, "rental_uris": {"android": "https://dc.lft.to/lastmile_qr_scan", "ios": "https://dc.lft.to/lastmile_qr_scan"}, "lat": 38.90142866666667, "lon": -77.0454445, "fusion_lat": 0.0}, {"is_reserved": 0, "bike_id": "f9e7666667cb068f936c64bf3db6d518", "type": "electric_scooter", "name": "f9e7666667cb068f936c64bf3db6d518", "is_disabled": 0, "fusion_lon": 0.0, "rental_uris": {"android": "https://dc.lft.to/lastmile_qr_scan", "ios": "https://dc.lft.to/lastmile_qr_scan"}, "lat": 38.9194945, "lon": -77.03221116666667, "fusion_lat": 0.0}, {"is_reserved": 0, "bike_id": "3e7f15efdfd371ad41d131790b0b39a6", "type": "electric_bike", "name": "3e7f15efdfd371ad41d131790b0b39a6", "is_disabled": 0, "fusion_lon": 0.0, "rental_uris": {"android": "https://dc.lft.to/lastmile_qr_scan", "ios": "https://dc.lft.to/lastmile_qr_scan"}, "lat": 38.9553185, "lon": -76.95672616666667, "fusion_lat": 0.0}, {"is_reserved": 0, "bike_id": "36272edc3030ecc5f7b8841b25360af7", "type": "electric_scooter", "name": "36272edc3030ecc5f7b8841b25360af7", "is_disabled": 0, "fusion_lon": 0.0, "rental_uris": {"android": "https://dc.lft.to/lastmile_qr_scan", "ios": "https://dc.lft.to/lastmile_qr_scan"}, "lat": 38.90208466666667, "lon": -77.04827316666666, "fusion_lat": 0.0}, {"is_reserved": 0, "bike_id": "7fb1fce2a0d045e7e8c3ae13da7300f2", "type": "electric_bike", "name": "7fb1fce2a0d045e7e8c3ae13da7300f2", "is_disabled": 0, "fusion_lon": 0.0, "rental_uris": {"android": "https://dc.lft.to/lastmile_qr_scan", "ios": "https://dc.lft.to/lastmile_qr_scan"}, "lat": 39.0262275, "lon": -77.03879233333333, "fusion_lat": 0.0}, {"is_reserved": 0, "bike_id": "f305bf10252573b445bc0df566405070", "type": "electric_scooter", "name": "f305bf10252573b445bc0df566405070", "is_disabled": 0, "fusion_lon": 0.0, "rental_uris": {"android": "https://dc.lft.to/lastmile_qr_scan", "ios": "https://dc.lft.to/lastmile_qr_scan"}, "lat": 38.906265166666664, "lon": -77.029722, "fusion_lat": 0.0}, {"is_reserved": 0, "bike_id": "19b5265c429b0cafcafdf49f6bbeeadb", "type": "electric_scooter", "name": "19b5265c429b0cafcafdf49f6bbeeadb", "is_disabled": 0, "fusion_lon": 0.0, "rental_uris": {"android": "https://dc.lft.to/lastmile_qr_scan", "ios": "https://dc.lft.to/lastmile_qr_scan"}, "lat": 38.8992175, "lon": -76.94577133333334, "fusion_lat": 0.0}, {"is_reserved": 0, "bike_id": "eb672c758c5a390cbdc1f586432df53a", "type": "electric_scooter", "name": "eb672c758c5a390cbdc1f586432df53a", "is_disabled": 0, "fusion_lon": 0.0, "rental_uris": {"android": "https://dc.lft.to/lastmile_qr_scan", "ios": "https://dc.lft.to/lastmile_qr_scan"}, "lat": 38.91523433333333, "lon": -77.04454183333333, "fusion_lat": 0.0}, {"is_reserved": 0, "bike_id": "d3ed1d804e4700499570b3d0637dbe1a", "type": "electric_bike", "name": "d3ed1d804e4700499570b3d0637dbe1a", "is_disabled": 0, "fusion_lon": 0.0, "rental_uris": {"android": "https://dc.lft.to/lastmile_qr_scan", "ios": "https://dc.lft.to/lastmile_qr_scan"}, "lat": 38.92060466666667, "lon": -76.9707805, "fusion_lat": 0.0}, {"is_reserved": 0, "bike_id": "536879bead05b5c95087a9255c3d5a12", "type": "electric_scooter", "name": "536879bead05b5c95087a9255c3d5a12", "is_disabled": 0, "fusion_lon": 0.0, "rental_uris": {"android": "https://dc.lft.to/lastmile_qr_scan", "ios": "https://dc.lft.to/lastmile_qr_scan"}, "lat": 38.9037815, "lon": -77.00882683333333, "fusion_lat": 0.0}, {"is_reserved": 0, "bike_id": "e27c8ffa464f903dfebecfc4620f8c1d", "type": "electric_scooter", "name": "e27c8ffa464f903dfebecfc4620f8c1d", "is_disabled": 0, "fusion_lon": 0.0, "rental_uris": {"android": "https://dc.lft.to/lastmile_qr_scan", "ios": "https://dc.lft.to/lastmile_qr_scan"}, "lat": 38.924711, "lon": -77.0306545, "fusion_lat": 0.0}, {"is_reserved": 0, "bike_id": "ea696483783de330e93fd59a399a986c", "type": "electric_scooter", "name": "ea696483783de330e93fd59a399a986c", "is_disabled": 0, "fusion_lon": 0.0, "rental_uris": {"android": "https://dc.lft.to/lastmile_qr_scan", "ios": "https://dc.lft.to/lastmile_qr_scan"}, "lat": 38.909775833333335, "lon": -77.0462195, "fusion_lat": 0.0}, {"is_reserved": 0, "bike_id": "a4d30426f154ed0c4a49ecd0b9157615", "type": "electric_scooter", "name": "a4d30426f154ed0c4a49ecd0b9157615", "is_disabled": 0, "fusion_lon": 0.0, "rental_uris": {"android": "https://dc.lft.to/lastmile_qr_scan", "ios": "https://dc.lft.to/lastmile_qr_scan"}, "lat": 38.9529985, "lon": -77.02771533333333, "fusion_lat": 0.0}, {"is_reserved": 0, "bike_id": "7e0327436b8dd54d0865c0f4795166e5", "type": "electric_scooter", "name": "7e0327436b8dd54d0865c0f4795166e5", "is_disabled": 0, "fusion_lon": 0.0, "rental_uris": {"android": "https://dc.lft.to/lastmile_qr_scan", "ios": "https://dc.lft.to/lastmile_qr_scan"}, "lat": 38.92210733333334, "lon": -77.02034433333333, "fusion_lat": 0.0}, {"is_reserved": 0, "bike_id": "d3a445c0d21f95a771190368f54c7b58", "type": "electric_scooter", "name": "d3a445c0d21f95a771190368f54c7b58", "is_disabled": 0, "fusion_lon": 0.0, "rental_uris": {"android": "https://dc.lft.to/lastmile_qr_scan", "ios": "https://dc.lft.to/lastmile_qr_scan"}, "lat": 38.918358, "lon": -77.032136, "fusion_lat": 0.0}, {"is_reserved": 0, "bike_id": "e42c69be31a32668dbf9c001e257fd2d", "type": "electric_scooter", "name": "e42c69be31a32668dbf9c001e257fd2d", "is_disabled": 0, "fusion_lon": 0.0, "rental_uris": {"android": "https://dc.lft.to/lastmile_qr_scan", "ios": "https://dc.lft.to/lastmile_qr_scan"}, "lat": 38.902741166666665, "lon": -77.03426933333333, "fusion_lat": 0.0}, {"is_reserved": 0, "bike_id": "c736687044ecd5bc667a8219b77b0a83", "type": "electric_scooter", "name": "c736687044ecd5bc667a8219b77b0a83", "is_disabled": 0, "fusion_lon": 0.0, "rental_uris": {"android": "https://dc.lft.to/lastmile_qr_scan", "ios": "https://dc.lft.to/lastmile_qr_scan"}, "lat": 38.9241175, "lon": -77.02142283333333, "fusion_lat": 0.0}, {"is_reserved": 0, "bike_id": "82eb1ad0026943031565de19fd514ddd", "type": "electric_scooter", "name": "82eb1ad0026943031565de19fd514ddd", "is_disabled": 0, "fusion_lon": 0.0, "rental_uris": {"android": "https://dc.lft.to/lastmile_qr_scan", "ios": "https://dc.lft.to/lastmile_qr_scan"}, "lat": 38.8972415, "lon": -77.02456933333333, "fusion_lat": 0.0}, {"is_reserved": 0, "bike_id": "f519939f1608bc2beea997c507fdfb42", "type": "electric_scooter", "name": "f519939f1608bc2beea997c507fdfb42", "is_disabled": 0, "fusion_lon": 0.0, "rental_uris": {"android": "https://dc.lft.to/lastmile_qr_scan", "ios": "https://dc.lft.to/lastmile_qr_scan"}, "lat": 38.92974566666667, "lon": -77.0318375, "fusion_lat": 0.0}, {"is_reserved": 0, "bike_id": "f1ea076bdf99c5ba1c766814264c56bc", "type": "electric_scooter", "name": "f1ea076bdf99c5ba1c766814264c56bc", "is_disabled": 0, "fusion_lon": 0.0, "rental_uris": {"android": "https://dc.lft.to/lastmile_qr_scan", "ios": "https://dc.lft.to/lastmile_qr_scan"}, "lat": 38.920162833333336, "lon": -77.0636535, "fusion_lat": 0.0}, {"is_reserved": 0, "bike_id": "e63d937fc70bd7224568d7c54328bd42", "type": "electric_scooter", "name": "e63d937fc70bd7224568d7c54328bd42", "is_disabled": 0, "fusion_lon": 0.0, "rental_uris": {"android": "https://dc.lft.to/lastmile_qr_scan", "ios": "https://dc.lft.to/lastmile_qr_scan"}, "lat": 38.94057216666667, "lon": -77.06126466666667, "fusion_lat": 0.0}, {"is_reserved": 0, "bike_id": "b1c449166ed21aa155629fd8178861f9", "type": "electric_scooter", "name": "b1c449166ed21aa155629fd8178861f9", "is_disabled": 0, "fusion_lon": 0.0, "rental_uris": {"android": "https://dc.lft.to/lastmile_qr_scan", "ios": "https://dc.lft.to/lastmile_qr_scan"}, "lat": 38.899797, "lon": -77.0274945, "fusion_lat": 0.0}, {"is_reserved": 0, "bike_id": "8efaa01362fa2b974cc714ce1c4e2eac", "type": "electric_scooter", "name": "8efaa01362fa2b974cc714ce1c4e2eac", "is_disabled": 0, "fusion_lon": 0.0, "rental_uris": {"android": "https://dc.lft.to/lastmile_qr_scan", "ios": "https://dc.lft.to/lastmile_qr_scan"}, "lat": 38.877265, "lon": -77.00605966666667, "fusion_lat": 0.0}, {"is_reserved": 0, "bike_id": "e0a470a397bc5a7487271d16943e847f", "type": "electric_scooter", "name": "e0a470a397bc5a7487271d16943e847f", "is_disabled": 0, "fusion_lon": 0.0, "rental_uris": {"android": "https://dc.lft.to/lastmile_qr_scan", "ios": "https://dc.lft.to/lastmile_qr_scan"}, "lat": 38.94197166666667, "lon": -77.02348533333333, "fusion_lat": 0.0}, {"is_reserved": 0, "bike_id": "fb7a01e157639bddd7adf08cb020e923", "type": "electric_scooter", "name": "fb7a01e157639bddd7adf08cb020e923", "is_disabled": 0, "fusion_lon": 0.0, "rental_uris": {"android": "https://dc.lft.to/lastmile_qr_scan", "ios": "https://dc.lft.to/lastmile_qr_scan"}, "lat": 38.931036166666665, "lon": -77.034836, "fusion_lat": 0.0}, {"is_reserved": 0, "bike_id": "90c0880660e4cb5e31e8670d575ff050", "type": "electric_scooter", "name": "90c0880660e4cb5e31e8670d575ff050", "is_disabled": 0, "fusion_lon": 0.0, "rental_uris": {"android": "https://dc.lft.to/lastmile_qr_scan", "ios": "https://dc.lft.to/lastmile_qr_scan"}, "lat": 38.91413033333333, "lon": -77.0258915, "fusion_lat": 0.0}, {"is_reserved": 0, "bike_id": "258e730a635943baf13b894f4a438f90", "type": "electric_scooter", "name": "258e730a635943baf13b894f4a438f90", "is_disabled": 0, "fusion_lon": 0.0, "rental_uris": {"android": "https://dc.lft.to/lastmile_qr_scan", "ios": "https://dc.lft.to/lastmile_qr_scan"}, "lat": 38.923249166666665, "lon": -77.019586, "fusion_lat": 0.0}, {"is_reserved": 0, "bike_id": "d55e43b561845ac631a9a0ed615bc5b9", "type": "electric_scooter", "name": "d55e43b561845ac631a9a0ed615bc5b9", "is_disabled": 0, "fusion_lon": 0.0, "rental_uris": {"android": "https://dc.lft.to/lastmile_qr_scan", "ios": "https://dc.lft.to/lastmile_qr_scan"}, "lat": 38.93575766666667, "lon": -77.0335095, "fusion_lat": 0.0}, {"is_reserved": 0, "bike_id": "0894ac5247f8a56e4869388e1c1613b1", "type": "electric_scooter", "name": "0894ac5247f8a56e4869388e1c1613b1", "is_disabled": 0, "fusion_lon": 0.0, "rental_uris": {"android": "https://dc.lft.to/lastmile_qr_scan", "ios": "https://dc.lft.to/lastmile_qr_scan"}, "lat": 38.92710733333333, "lon": -77.0210135, "fusion_lat": 0.0}, {"is_reserved": 0, "bike_id": "f7ff799687abb54a90f814f64e94fe73", "type": "electric_scooter", "name": "f7ff799687abb54a90f814f64e94fe73", "is_disabled": 0, "fusion_lon": 0.0, "rental_uris": {"android": "https://dc.lft.to/lastmile_qr_scan", "ios": "https://dc.lft.to/lastmile_qr_scan"}, "lat": 38.913291, "lon": -77.04549183333333, "fusion_lat": 0.0}, {"is_reserved": 0, "bike_id": "077dc0eed8d48caeaede1002afc4ac23", "type": "electric_scooter", "name": "077dc0eed8d48caeaede1002afc4ac23", "is_disabled": 0, "fusion_lon": 0.0, "rental_uris": {"android": "https://dc.lft.to/lastmile_qr_scan", "ios": "https://dc.lft.to/lastmile_qr_scan"}, "lat": 38.91189583333333, "lon": -77.06082666666667, "fusion_lat": 0.0}, {"is_reserved": 0, "bike_id": "c3f4f83794b83afcbf55548c363e5087", "type": "electric_scooter", "name": "c3f4f83794b83afcbf55548c363e5087", "is_disabled": 0, "fusion_lon": 0.0, "rental_uris": {"android": "https://dc.lft.to/lastmile_qr_scan", "ios": "https://dc.lft.to/lastmile_qr_scan"}, "lat": 38.91573233333333, "lon": -77.0461545, "fusion_lat": 0.0}, {"is_reserved": 0, "bike_id": "501968701d67f02e553e6259dc165ee5", "type": "electric_scooter", "name": "501968701d67f02e553e6259dc165ee5", "is_disabled": 0, "fusion_lon": 0.0, "rental_uris": {"android": "https://dc.lft.to/lastmile_qr_scan", "ios": "https://dc.lft.to/lastmile_qr_scan"}, "lat": 38.9089395, "lon": -77.00287416666667, "fusion_lat": 0.0}, {"is_reserved": 0, "bike_id": "b1ad7e6ded6cea76849e2a210e48dcda", "type": "electric_scooter", "name": "b1ad7e6ded6cea76849e2a210e48dcda", "is_disabled": 0, "fusion_lon": 0.0, "rental_uris": {"android": "https://dc.lft.to/lastmile_qr_scan", "ios": "https://dc.lft.to/lastmile_qr_scan"}, "lat": 38.916631, "lon": -77.03848983333333, "fusion_lat": 0.0}, {"is_reserved": 0, "bike_id": "9b37656458ca2251476f6cf1f2016eb1", "type": "electric_scooter", "name": "9b37656458ca2251476f6cf1f2016eb1", "is_disabled": 0, "fusion_lon": 0.0, "rental_uris": {"android": "https://dc.lft.to/lastmile_qr_scan", "ios": "https://dc.lft.to/lastmile_qr_scan"}, "lat": 38.94173983333334, "lon": -77.03654283333333, "fusion_lat": 0.0}, {"is_reserved": 0, "bike_id": "67bcbd88f899904ec8011303f7d4e6ad", "type": "electric_scooter", "name": "67bcbd88f899904ec8011303f7d4e6ad", "is_disabled": 0, "fusion_lon": 0.0, "rental_uris": {"android": "https://dc.lft.to/lastmile_qr_scan", "ios": "https://dc.lft.to/lastmile_qr_scan"}, "lat": 38.915656, "lon": -77.0680275, "fusion_lat": 0.0}, {"is_reserved": 0, "bike_id": "21c9b58cea6e83f63dd1076dd9b72748", "type": "electric_scooter", "name": "21c9b58cea6e83f63dd1076dd9b72748", "is_disabled": 0, "fusion_lon": 0.0, "rental_uris": {"android": "https://dc.lft.to/lastmile_qr_scan", "ios": "https://dc.lft.to/lastmile_qr_scan"}, "lat": 38.93433483333333, "lon": -77.03458633333334, "fusion_lat": 0.0}, {"is_reserved": 0, "bike_id": "bb7c61342e213227439c8566363a8a4c", "type": "electric_scooter", "name": "bb7c61342e213227439c8566363a8a4c", "is_disabled": 0, "fusion_lon": 0.0, "rental_uris": {"android": "https://dc.lft.to/lastmile_qr_scan", "ios": "https://dc.lft.to/lastmile_qr_scan"}, "lat": 38.88484583333333, "lon": -77.019525, "fusion_lat": 0.0}, {"is_reserved": 0, "bike_id": "0889697935f76423fe64eb7c969e37c1", "type": "electric_scooter", "name": "0889697935f76423fe64eb7c969e37c1", "is_disabled": 0, "fusion_lon": 0.0, "rental_uris": {"android": "https://dc.lft.to/lastmile_qr_scan", "ios": "https://dc.lft.to/lastmile_qr_scan"}, "lat": 38.88346, "lon": -76.9948875, "fusion_lat": 0.0}, {"is_reserved": 0, "bike_id": "f26aa193489700ec996cc5f501367a7a", "type": "electric_scooter", "name": "f26aa193489700ec996cc5f501367a7a", "is_disabled": 0, "fusion_lon": 0.0, "rental_uris": {"android": "https://dc.lft.to/lastmile_qr_scan", "ios": "https://dc.lft.to/lastmile_qr_scan"}, "lat": 38.90358166666667, "lon": -77.031155, "fusion_lat": 0.0}, {"is_reserved": 0, "bike_id": "3b1d50a904c6ec842f181ed0b722c6e6", "type": "electric_scooter", "name": "3b1d50a904c6ec842f181ed0b722c6e6", "is_disabled": 0, "fusion_lon": 0.0, "rental_uris": {"android": "https://dc.lft.to/lastmile_qr_scan", "ios": "https://dc.lft.to/lastmile_qr_scan"}, "lat": 38.916996, "lon": -77.02389216666667, "fusion_lat": 0.0}, {"is_reserved": 0, "bike_id": "006f75f87c620467773d575e9958f108", "type": "electric_scooter", "name": "006f75f87c620467773d575e9958f108", "is_disabled": 0, "fusion_lon": 0.0, "rental_uris": {"android": "https://dc.lft.to/lastmile_qr_scan", "ios": "https://dc.lft.to/lastmile_qr_scan"}, "lat": 38.91573133333333, "lon": -77.0199355, "fusion_lat": 0.0}, {"is_reserved": 0, "bike_id": "de74e3fd28d04e7158f2bbafcced52e0", "type": "electric_scooter", "name": "de74e3fd28d04e7158f2bbafcced52e0", "is_disabled": 0, "fusion_lon": 0.0, "rental_uris": {"android": "https://dc.lft.to/lastmile_qr_scan", "ios": "https://dc.lft.to/lastmile_qr_scan"}, "lat": 38.919245833333335, "lon": -77.03426583333334, "fusion_lat": 0.0}, {"is_reserved": 0, "bike_id": "676b70cff2ccde545632b471f5437734", "type": "electric_scooter", "name": "676b70cff2ccde545632b471f5437734", "is_disabled": 0, "fusion_lon": 0.0, "rental_uris": {"android": "https://dc.lft.to/lastmile_qr_scan", "ios": "https://dc.lft.to/lastmile_qr_scan"}, "lat": 38.896927833333336, "lon": -77.04342666666666, "fusion_lat": 0.0}, {"is_reserved": 0, "bike_id": "3912634b282ff42f35f67d86a7ba4354", "type": "electric_scooter", "name": "3912634b282ff42f35f67d86a7ba4354", "is_disabled": 0, "fusion_lon": 0.0, "rental_uris": {"android": "https://dc.lft.to/lastmile_qr_scan", "ios": "https://dc.lft.to/lastmile_qr_scan"}, "lat": 38.919895333333336, "lon": -77.03348166666666, "fusion_lat": 0.0}, {"is_reserved": 0, "bike_id": "5f6f006210165483fc86c8db8f111c27", "type": "electric_scooter", "name": "5f6f006210165483fc86c8db8f111c27", "is_disabled": 0, "fusion_lon": 0.0, "rental_uris": {"android": "https://dc.lft.to/lastmile_qr_scan", "ios": "https://dc.lft.to/lastmile_qr_scan"}, "lat": 38.87655483333333, "lon": -77.00301, "fusion_lat": 0.0}, {"is_reserved": 0, "bike_id": "eb3dc8cbb877bfacd9aff98cc6e50576", "type": "electric_scooter", "name": "eb3dc8cbb877bfacd9aff98cc6e50576", "is_disabled": 0, "fusion_lon": 0.0, "rental_uris": {"android": "https://dc.lft.to/lastmile_qr_scan", "ios": "https://dc.lft.to/lastmile_qr_scan"}, "lat": 38.91665, "lon": -77.02335783333334, "fusion_lat": 0.0}, {"is_reserved": 0, "bike_id": "5a50c97b0560f1685b437f69fe66b0ce", "type": "electric_scooter", "name": "5a50c97b0560f1685b437f69fe66b0ce", "is_disabled": 0, "fusion_lon": 0.0, "rental_uris": {"android": "https://dc.lft.to/lastmile_qr_scan", "ios": "https://dc.lft.to/lastmile_qr_scan"}, "lat": 38.9192815, "lon": -77.031066, "fusion_lat": 0.0}, {"is_reserved": 0, "bike_id": "108b3699cac2e3ae3f64699b6954d0d6", "type": "electric_scooter", "name": "108b3699cac2e3ae3f64699b6954d0d6", "is_disabled": 0, "fusion_lon": 0.0, "rental_uris": {"android": "https://dc.lft.to/lastmile_qr_scan", "ios": "https://dc.lft.to/lastmile_qr_scan"}, "lat": 38.89870466666667, "lon": -76.94664483333334, "fusion_lat": 0.0}, {"is_reserved": 0, "bike_id": "13e05172ef3d88976fd8f472e38bdd57", "type": "electric_scooter", "name": "13e05172ef3d88976fd8f472e38bdd57", "is_disabled": 0, "fusion_lon": 0.0, "rental_uris": {"android": "https://dc.lft.to/lastmile_qr_scan", "ios": "https://dc.lft.to/lastmile_qr_scan"}, "lat": 38.910232, "lon": -77.03268116666666, "fusion_lat": 0.0}, {"is_reserved": 0, "bike_id": "5a08fc6642706e63c2502c6ef3293417", "type": "electric_bike", "name": "5a08fc6642706e63c2502c6ef3293417", "is_disabled": 0, "fusion_lon": 0.0, "rental_uris": {"android": "https://dc.lft.to/lastmile_qr_scan", "ios": "https://dc.lft.to/lastmile_qr_scan"}, "lat": 38.909038333333335, "lon": -77.09000466666667, "fusion_lat": 0.0}, {"is_reserved": 0, "bike_id": "46130b24367f0380b87afa84ec4bd594", "type": "electric_scooter", "name": "46130b24367f0380b87afa84ec4bd594", "is_disabled": 0, "fusion_lon": 0.0, "rental_uris": {"android": "https://dc.lft.to/lastmile_qr_scan", "ios": "https://dc.lft.to/lastmile_qr_scan"}, "lat": 38.91011616666667, "lon": -76.99390083333333, "fusion_lat": 0.0}, {"is_reserved": 0, "bike_id": "7f9540917e753cb8cc03ed327742cda2", "type": "electric_scooter", "name": "7f9540917e753cb8cc03ed327742cda2", "is_disabled": 0, "fusion_lon": 0.0, "rental_uris": {"android": "https://dc.lft.to/lastmile_qr_scan", "ios": "https://dc.lft.to/lastmile_qr_scan"}, "lat": 38.919644, "lon": -77.03852733333333, "fusion_lat": 0.0}, {"is_reserved": 0, "bike_id": "2db0948ef2454eb9bec9c5e55d2e4c9b", "type": "electric_scooter", "name": "2db0948ef2454eb9bec9c5e55d2e4c9b", "is_disabled": 0, "fusion_lon": 0.0, "rental_uris": {"android": "https://dc.lft.to/lastmile_qr_scan", "ios": "https://dc.lft.to/lastmile_qr_scan"}, "lat": 38.9222875, "lon": -77.04437383333334, "fusion_lat": 0.0}, {"is_reserved": 0, "bike_id": "a02244ca0ec5bcb1afbf6a5a02a3b95a", "type": "electric_scooter", "name": "a02244ca0ec5bcb1afbf6a5a02a3b95a", "is_disabled": 0, "fusion_lon": 0.0, "rental_uris": {"android": "https://dc.lft.to/lastmile_qr_scan", "ios": "https://dc.lft.to/lastmile_qr_scan"}, "lat": 38.9621785, "lon": -77.02790216666666, "fusion_lat": 0.0}, {"is_reserved": 0, "bike_id": "4288fa4744f404db92fcbbab35e94365", "type": "electric_bike", "name": "4288fa4744f404db92fcbbab35e94365", "is_disabled": 0, "fusion_lon": 0.0, "rental_uris": {"android": "https://dc.lft.to/lastmile_qr_scan", "ios": "https://dc.lft.to/lastmile_qr_scan"}, "lat": 38.876644, "lon": -77.00021483333333, "fusion_lat": 0.0}, {"is_reserved": 0, "bike_id": "b6d02110a50f6a93a48afb0dca902aa5", "type": "electric_scooter", "name": "b6d02110a50f6a93a48afb0dca902aa5", "is_disabled": 0, "fusion_lon": 0.0, "rental_uris": {"android": "https://dc.lft.to/lastmile_qr_scan", "ios": "https://dc.lft.to/lastmile_qr_scan"}, "lat": 38.9029835, "lon": -77.03675133333333, "fusion_lat": 0.0}, {"is_reserved": 0, "bike_id": "5ea6eefb28b61edc2ba98ff1a786e6c4", "type": "electric_scooter", "name": "5ea6eefb28b61edc2ba98ff1a786e6c4", "is_disabled": 0, "fusion_lon": 0.0, "rental_uris": {"android": "https://dc.lft.to/lastmile_qr_scan", "ios": "https://dc.lft.to/lastmile_qr_scan"}, "lat": 38.92017466666667, "lon": -77.07140016666666, "fusion_lat": 0.0}, {"is_reserved": 0, "bike_id": "f6c83b39e0a875023247bd6dad35a011", "type": "electric_bike", "name": "f6c83b39e0a875023247bd6dad35a011", "is_disabled": 0, "fusion_lon": 0.0, "rental_uris": {"android": "https://dc.lft.to/lastmile_qr_scan", "ios": "https://dc.lft.to/lastmile_qr_scan"}, "lat": 38.89970066666667, "lon": -77.04972633333334, "fusion_lat": 0.0}, {"is_reserved": 0, "bike_id": "4978bf517de08137829989f576680815", "type": "electric_scooter", "name": "4978bf517de08137829989f576680815", "is_disabled": 0, "fusion_lon": 0.0, "rental_uris": {"android": "https://dc.lft.to/lastmile_qr_scan", "ios": "https://dc.lft.to/lastmile_qr_scan"}, "lat": 38.89567316666667, "lon": -77.04163016666666, "fusion_lat": 0.0}, {"is_reserved": 0, "bike_id": "7659851b2eafb28050ba99be45a75d8f", "type": "electric_scooter", "name": "7659851b2eafb28050ba99be45a75d8f", "is_disabled": 0, "fusion_lon": 0.0, "rental_uris": {"android": "https://dc.lft.to/lastmile_qr_scan", "ios": "https://dc.lft.to/lastmile_qr_scan"}, "lat": 38.8918845, "lon": -77.01540516666667, "fusion_lat": 0.0}, {"is_reserved": 0, "bike_id": "3e3f636d3ea150076466932734f27ed8", "type": "electric_scooter", "name": "3e3f636d3ea150076466932734f27ed8", "is_disabled": 0, "fusion_lon": 0.0, "rental_uris": {"android": "https://dc.lft.to/lastmile_qr_scan", "ios": "https://dc.lft.to/lastmile_qr_scan"}, "lat": 38.94280583333333, "lon": -77.02934666666667, "fusion_lat": 0.0}, {"is_reserved": 0, "bike_id": "81eb35d7bd9cbdca9aae53717961aae6", "type": "electric_scooter", "name": "81eb35d7bd9cbdca9aae53717961aae6", "is_disabled": 0, "fusion_lon": 0.0, "rental_uris": {"android": "https://dc.lft.to/lastmile_qr_scan", "ios": "https://dc.lft.to/lastmile_qr_scan"}, "lat": 38.88487116666667, "lon": -77.0072585, "fusion_lat": 0.0}, {"is_reserved": 0, "bike_id": "ed0b9be8a31b38abf641bdb258d7a919", "type": "electric_scooter", "name": "ed0b9be8a31b38abf641bdb258d7a919", "is_disabled": 0, "fusion_lon": 0.0, "rental_uris": {"android": "https://dc.lft.to/lastmile_qr_scan", "ios": "https://dc.lft.to/lastmile_qr_scan"}, "lat": 38.90141916666666, "lon": -77.044612, "fusion_lat": 0.0}, {"is_reserved": 0, "bike_id": "b8e5805e5026c6e6e7b7db6efa95cacc", "type": "electric_bike", "name": "b8e5805e5026c6e6e7b7db6efa95cacc", "is_disabled": 0, "fusion_lon": 0.0, "rental_uris": {"android": "https://dc.lft.to/lastmile_qr_scan", "ios": "https://dc.lft.to/lastmile_qr_scan"}, "lat": 38.8877125, "lon": -77.07599216666667, "fusion_lat": 0.0}, {"is_reserved": 0, "bike_id": "66b4c9a82aca9d9cabb5d4b0c150f1a5", "type": "electric_scooter", "name": "66b4c9a82aca9d9cabb5d4b0c150f1a5", "is_disabled": 0, "fusion_lon": 0.0, "rental_uris": {"android": "https://dc.lft.to/lastmile_qr_scan", "ios": "https://dc.lft.to/lastmile_qr_scan"}, "lat": 38.93085716666667, "lon": -77.02478366666666, "fusion_lat": 0.0}, {"is_reserved": 0, "bike_id": "36f78d4b386b8ab7e2509d3ccd5504ba", "type": "electric_scooter", "name": "36f78d4b386b8ab7e2509d3ccd5504ba", "is_disabled": 0, "fusion_lon": 0.0, "rental_uris": {"android": "https://dc.lft.to/lastmile_qr_scan", "ios": "https://dc.lft.to/lastmile_qr_scan"}, "lat": 38.92873983333333, "lon": -77.03298283333334, "fusion_lat": 0.0}, {"is_reserved": 0, "bike_id": "cd57ca65b100faa8aa9e138938761603", "type": "electric_scooter", "name": "cd57ca65b100faa8aa9e138938761603", "is_disabled": 0, "fusion_lon": 0.0, "rental_uris": {"android": "https://dc.lft.to/lastmile_qr_scan", "ios": "https://dc.lft.to/lastmile_qr_scan"}, "lat": 38.90575416666667, "lon": -77.0061775, "fusion_lat": 0.0}, {"is_reserved": 0, "bike_id": "60d9c6b6d86cdb77f1ababe085480161", "type": "electric_scooter", "name": "60d9c6b6d86cdb77f1ababe085480161", "is_disabled": 0, "fusion_lon": 0.0, "rental_uris": {"android": "https://dc.lft.to/lastmile_qr_scan", "ios": "https://dc.lft.to/lastmile_qr_scan"}, "lat": 38.9131465, "lon": -77.01444816666667, "fusion_lat": 0.0}, {"is_reserved": 0, "bike_id": "0b58a8dbc3760bb47d8ef06fb894c88e", "type": "electric_scooter", "name": "0b58a8dbc3760bb47d8ef06fb894c88e", "is_disabled": 0, "fusion_lon": 0.0, "rental_uris": {"android": "https://dc.lft.to/lastmile_qr_scan", "ios": "https://dc.lft.to/lastmile_qr_scan"}, "lat": 38.917131833333336, "lon": -77.06829183333333, "fusion_lat": 0.0}, {"is_reserved": 0, "bike_id": "9feac515315571816ae6f7fe8d19b738", "type": "electric_bike", "name": "9feac515315571816ae6f7fe8d19b738", "is_disabled": 0, "fusion_lon": 0.0, "rental_uris": {"android": "https://dc.lft.to/lastmile_qr_scan", "ios": "https://dc.lft.to/lastmile_qr_scan"}, "lat": 39.085069, "lon": -76.9506205, "fusion_lat": 0.0}, {"is_reserved": 0, "bike_id": "534493b3ea31ff2f718be56e8bc01aa8", "type": "electric_scooter", "name": "534493b3ea31ff2f718be56e8bc01aa8", "is_disabled": 0, "fusion_lon": 0.0, "rental_uris": {"android": "https://dc.lft.to/lastmile_qr_scan", "ios": "https://dc.lft.to/lastmile_qr_scan"}, "lat": 38.8948415, "lon": -77.02014066666666, "fusion_lat": 0.0}, {"is_reserved": 0, "bike_id": "e361c5c795f384fe0bb717af20f4fc60", "type": "electric_scooter", "name": "e361c5c795f384fe0bb717af20f4fc60", "is_disabled": 0, "fusion_lon": 0.0, "rental_uris": {"android": "https://dc.lft.to/lastmile_qr_scan", "ios": "https://dc.lft.to/lastmile_qr_scan"}, "lat": 38.9014445, "lon": -77.04463766666667, "fusion_lat": 0.0}, {"is_reserved": 0, "bike_id": "f888036f45326b2888afeccf3f085497", "type": "electric_scooter", "name": "f888036f45326b2888afeccf3f085497", "is_disabled": 0, "fusion_lon": 0.0, "rental_uris": {"android": "https://dc.lft.to/lastmile_qr_scan", "ios": "https://dc.lft.to/lastmile_qr_scan"}, "lat": 38.867505, "lon": -77.001505, "fusion_lat": 0.0}, {"is_reserved": 0, "bike_id": "77aebbf554e5d994a33bdd76102073bc", "type": "electric_scooter", "name": "77aebbf554e5d994a33bdd76102073bc", "is_disabled": 0, "fusion_lon": 0.0, "rental_uris": {"android": "https://dc.lft.to/lastmile_qr_scan", "ios": "https://dc.lft.to/lastmile_qr_scan"}, "lat": 38.898789666666666, "lon": -77.03932366666666, "fusion_lat": 0.0}, {"is_reserved": 0, "bike_id": "8bf99a1339eaafc21cdc760425b2c8c4", "type": "electric_scooter", "name": "8bf99a1339eaafc21cdc760425b2c8c4", "is_disabled": 0, "fusion_lon": 0.0, "rental_uris": {"android": "https://dc.lft.to/lastmile_qr_scan", "ios": "https://dc.lft.to/lastmile_qr_scan"}, "lat": 38.96819416666666, "lon": -77.03293483333333, "fusion_lat": 0.0}, {"is_reserved": 0, "bike_id": "1fb8a17b456f972d091e9057169d71bd", "type": "electric_scooter", "name": "1fb8a17b456f972d091e9057169d71bd", "is_disabled": 0, "fusion_lon": 0.0, "rental_uris": {"android": "https://dc.lft.to/lastmile_qr_scan", "ios": "https://dc.lft.to/lastmile_qr_scan"}, "lat": 38.9214535, "lon": -77.01800333333334, "fusion_lat": 0.0}, {"is_reserved": 0, "bike_id": "5d71babab5c542094f4d747e8c70203f", "type": "electric_bike", "name": "5d71babab5c542094f4d747e8c70203f", "is_disabled": 0, "fusion_lon": 0.0, "rental_uris": {"android": "https://dc.lft.to/lastmile_qr_scan", "ios": "https://dc.lft.to/lastmile_qr_scan"}, "lat": 38.92062, "lon": -77.03065316666667, "fusion_lat": 0.0}, {"is_reserved": 0, "bike_id": "a56063ad080b64c1b9dd9e3e3ba8e70e", "type": "electric_scooter", "name": "a56063ad080b64c1b9dd9e3e3ba8e70e", "is_disabled": 0, "fusion_lon": 0.0, "rental_uris": {"android": "https://dc.lft.to/lastmile_qr_scan", "ios": "https://dc.lft.to/lastmile_qr_scan"}, "lat": 38.9053985, "lon": -77.00720783333334, "fusion_lat": 0.0}, {"is_reserved": 0, "bike_id": "7e981151f026ed45715f157e3450a254", "type": "electric_scooter", "name": "7e981151f026ed45715f157e3450a254", "is_disabled": 0, "fusion_lon": 0.0, "rental_uris": {"android": "https://dc.lft.to/lastmile_qr_scan", "ios": "https://dc.lft.to/lastmile_qr_scan"}, "lat": 38.914016833333335, "lon": -77.01806933333333, "fusion_lat": 0.0}, {"is_reserved": 0, "bike_id": "4ed86b59bb8cb1dc82c6de026c327d20", "type": "electric_bike", "name": "4ed86b59bb8cb1dc82c6de026c327d20", "is_disabled": 0, "fusion_lon": 0.0, "rental_uris": {"android": "https://dc.lft.to/lastmile_qr_scan", "ios": "https://dc.lft.to/lastmile_qr_scan"}, "lat": 38.83587883333333, "lon": -76.99019083333333, "fusion_lat": 0.0}, {"is_reserved": 0, "bike_id": "9a3f53e355c9969f8cf190e28c95ee69", "type": "electric_scooter", "name": "9a3f53e355c9969f8cf190e28c95ee69", "is_disabled": 0, "fusion_lon": 0.0, "rental_uris": {"android": "https://dc.lft.to/lastmile_qr_scan", "ios": "https://dc.lft.to/lastmile_qr_scan"}, "lat": 38.90160816666667, "lon": -77.02321133333334, "fusion_lat": 0.0}, {"is_reserved": 0, "bike_id": "6119bbe56a0d61c42e1492c1b5ae8326", "type": "electric_scooter", "name": "6119bbe56a0d61c42e1492c1b5ae8326", "is_disabled": 0, "fusion_lon": 0.0, "rental_uris": {"android": "https://dc.lft.to/lastmile_qr_scan", "ios": "https://dc.lft.to/lastmile_qr_scan"}, "lat": 38.92692233333333, "lon": -77.025862, "fusion_lat": 0.0}, {"is_reserved": 0, "bike_id": "6e854d96c2c35621fb896611ab7171f1", "type": "electric_scooter", "name": "6e854d96c2c35621fb896611ab7171f1", "is_disabled": 0, "fusion_lon": 0.0, "rental_uris": {"android": "https://dc.lft.to/lastmile_qr_scan", "ios": "https://dc.lft.to/lastmile_qr_scan"}, "lat": 38.9233195, "lon": -77.01962333333333, "fusion_lat": 0.0}, {"is_reserved": 0, "bike_id": "33bb2c19e163dec22c6d0838fca15d63", "type": "electric_scooter", "name": "33bb2c19e163dec22c6d0838fca15d63", "is_disabled": 0, "fusion_lon": 0.0, "rental_uris": {"android": "https://dc.lft.to/lastmile_qr_scan", "ios": "https://dc.lft.to/lastmile_qr_scan"}, "lat": 38.915461666666666, "lon": -77.02203333333334, "fusion_lat": 0.0}, {"is_reserved": 0, "bike_id": "d4aa5607e4ff8c2d18439300231c634d", "type": "electric_bike", "name": "d4aa5607e4ff8c2d18439300231c634d", "is_disabled": 0, "fusion_lon": 0.0, "rental_uris": {"android": "https://dc.lft.to/lastmile_qr_scan", "ios": "https://dc.lft.to/lastmile_qr_scan"}, "lat": 38.950119, "lon": -77.01560116666667, "fusion_lat": 0.0}, {"is_reserved": 0, "bike_id": "25d487ff9559ccaf15cd139d38099dea", "type": "electric_scooter", "name": "25d487ff9559ccaf15cd139d38099dea", "is_disabled": 0, "fusion_lon": 0.0, "rental_uris": {"android": "https://dc.lft.to/lastmile_qr_scan", "ios": "https://dc.lft.to/lastmile_qr_scan"}, "lat": 38.9141705, "lon": -77.02233916666667, "fusion_lat": 0.0}, {"is_reserved": 0, "bike_id": "f7feee838276084e7b3c2207b7206e36", "type": "electric_bike", "name": "f7feee838276084e7b3c2207b7206e36", "is_disabled": 0, "fusion_lon": 0.0, "rental_uris": {"android": "https://dc.lft.to/lastmile_qr_scan", "ios": "https://dc.lft.to/lastmile_qr_scan"}, "lat": 38.93578316666667, "lon": -77.1059415, "fusion_lat": 0.0}, {"is_reserved": 0, "bike_id": "c0bb1f78a10c070aeac6de2552223944", "type": "electric_scooter", "name": "c0bb1f78a10c070aeac6de2552223944", "is_disabled": 0, "fusion_lon": 0.0, "rental_uris": {"android": "https://dc.lft.to/lastmile_qr_scan", "ios": "https://dc.lft.to/lastmile_qr_scan"}, "lat": 38.88736766666667, "lon": -77.01505466666667, "fusion_lat": 0.0}, {"is_reserved": 0, "bike_id": "44dc5d0de4be25acce9fe62000c0e380", "type": "electric_scooter", "name": "44dc5d0de4be25acce9fe62000c0e380", "is_disabled": 0, "fusion_lon": 0.0, "rental_uris": {"android": "https://dc.lft.to/lastmile_qr_scan", "ios": "https://dc.lft.to/lastmile_qr_scan"}, "lat": 38.919158, "lon": -77.0317665, "fusion_lat": 0.0}, {"is_reserved": 0, "bike_id": "ffa99942d8b081220628ee0f5f4b8387", "type": "electric_scooter", "name": "ffa99942d8b081220628ee0f5f4b8387", "is_disabled": 0, "fusion_lon": 0.0, "rental_uris": {"android": "https://dc.lft.to/lastmile_qr_scan", "ios": "https://dc.lft.to/lastmile_qr_scan"}, "lat": 38.88062883333333, "lon": -76.9321635, "fusion_lat": 0.0}, {"is_reserved": 0, "bike_id": "e03fcfe6559fac3c9f6f0f9905e72ff6", "type": "electric_scooter", "name": "e03fcfe6559fac3c9f6f0f9905e72ff6", "is_disabled": 0, "fusion_lon": 0.0, "rental_uris": {"android": "https://dc.lft.to/lastmile_qr_scan", "ios": "https://dc.lft.to/lastmile_qr_scan"}, "lat": 38.91805316666667, "lon": -77.02724583333334, "fusion_lat": 0.0}, {"is_reserved": 0, "bike_id": "21ce15a37e41b292214d956482d7e08b", "type": "electric_scooter", "name": "21ce15a37e41b292214d956482d7e08b", "is_disabled": 0, "fusion_lon": 0.0, "rental_uris": {"android": "https://dc.lft.to/lastmile_qr_scan", "ios": "https://dc.lft.to/lastmile_qr_scan"}, "lat": 38.925505666666666, "lon": -77.05300366666667, "fusion_lat": 0.0}, {"is_reserved": 0, "bike_id": "5b7a1e75738cf1c1ff7ee9cc3d9c48db", "type": "electric_scooter", "name": "5b7a1e75738cf1c1ff7ee9cc3d9c48db", "is_disabled": 0, "fusion_lon": 0.0, "rental_uris": {"android": "https://dc.lft.to/lastmile_qr_scan", "ios": "https://dc.lft.to/lastmile_qr_scan"}, "lat": 38.892036, "lon": -76.9901245, "fusion_lat": 0.0}, {"is_reserved": 0, "bike_id": "9235e9b0e27d2120e567df70a6fe3296", "type": "electric_bike", "name": "9235e9b0e27d2120e567df70a6fe3296", "is_disabled": 0, "fusion_lon": 0.0, "rental_uris": {"android": "https://dc.lft.to/lastmile_qr_scan", "ios": "https://dc.lft.to/lastmile_qr_scan"}, "lat": 38.966752, "lon": -77.02292383333334, "fusion_lat": 0.0}, {"is_reserved": 0, "bike_id": "812fcd489fcf48d1b0166b4fa5b77223", "type": "electric_scooter", "name": "812fcd489fcf48d1b0166b4fa5b77223", "is_disabled": 0, "fusion_lon": 0.0, "rental_uris": {"android": "https://dc.lft.to/lastmile_qr_scan", "ios": "https://dc.lft.to/lastmile_qr_scan"}, "lat": 38.9120105, "lon": -77.0320945, "fusion_lat": 0.0}, {"is_reserved": 0, "bike_id": "d69f5a096b915cecbba87a33ec47685e", "type": "electric_scooter", "name": "d69f5a096b915cecbba87a33ec47685e", "is_disabled": 0, "fusion_lon": 0.0, "rental_uris": {"android": "https://dc.lft.to/lastmile_qr_scan", "ios": "https://dc.lft.to/lastmile_qr_scan"}, "lat": 38.92702833333333, "lon": -77.02080666666667, "fusion_lat": 0.0}, {"is_reserved": 0, "bike_id": "1bcbdd30ebbd5bb77eb77f9d5ceab9ff", "type": "electric_scooter", "name": "1bcbdd30ebbd5bb77eb77f9d5ceab9ff", "is_disabled": 0, "fusion_lon": 0.0, "rental_uris": {"android": "https://dc.lft.to/lastmile_qr_scan", "ios": "https://dc.lft.to/lastmile_qr_scan"}, "lat": 38.92289233333333, "lon": -77.02244333333333, "fusion_lat": 0.0}, {"is_reserved": 0, "bike_id": "1d21ef4c2c9afffe91c8be90efa3a4f1", "type": "electric_scooter", "name": "1d21ef4c2c9afffe91c8be90efa3a4f1", "is_disabled": 0, "fusion_lon": 0.0, "rental_uris": {"android": "https://dc.lft.to/lastmile_qr_scan", "ios": "https://dc.lft.to/lastmile_qr_scan"}, "lat": 38.90891383333334, "lon": -76.98237216666666, "fusion_lat": 0.0}, {"is_reserved": 0, "bike_id": "81791abba4315eb325d344bab83771dc", "type": "electric_scooter", "name": "81791abba4315eb325d344bab83771dc", "is_disabled": 0, "fusion_lon": 0.0, "rental_uris": {"android": "https://dc.lft.to/lastmile_qr_scan", "ios": "https://dc.lft.to/lastmile_qr_scan"}, "lat": 38.9026545, "lon": -77.06011433333333, "fusion_lat": 0.0}, {"is_reserved": 0, "bike_id": "fe7acb17308e5f5404425c51376270ce", "type": "electric_scooter", "name": "fe7acb17308e5f5404425c51376270ce", "is_disabled": 0, "fusion_lon": 0.0, "rental_uris": {"android": "https://dc.lft.to/lastmile_qr_scan", "ios": "https://dc.lft.to/lastmile_qr_scan"}, "lat": 38.926199833333335, "lon": -77.04330966666667, "fusion_lat": 0.0}, {"is_reserved": 0, "bike_id": "e0f8d0607281d6af7d591d1546b58dc9", "type": "electric_scooter", "name": "e0f8d0607281d6af7d591d1546b58dc9", "is_disabled": 0, "fusion_lon": 0.0, "rental_uris": {"android": "https://dc.lft.to/lastmile_qr_scan", "ios": "https://dc.lft.to/lastmile_qr_scan"}, "lat": 38.92151233333333, "lon": -77.033253, "fusion_lat": 0.0}, {"is_reserved": 0, "bike_id": "dc0c02da701643480e8918430d57b23d", "type": "electric_scooter", "name": "dc0c02da701643480e8918430d57b23d", "is_disabled": 0, "fusion_lon": 0.0, "rental_uris": {"android": "https://dc.lft.to/lastmile_qr_scan", "ios": "https://dc.lft.to/lastmile_qr_scan"}, "lat": 38.896263166666664, "lon": -76.9857155, "fusion_lat": 0.0}, {"is_reserved": 0, "bike_id": "ea5d47c3b3a46a4f92709ffeb4b3e605", "type": "electric_scooter", "name": "ea5d47c3b3a46a4f92709ffeb4b3e605", "is_disabled": 0, "fusion_lon": 0.0, "rental_uris": {"android": "https://dc.lft.to/lastmile_qr_scan", "ios": "https://dc.lft.to/lastmile_qr_scan"}, "lat": 38.90383766666667, "lon": -77.03514183333333, "fusion_lat": 0.0}, {"is_reserved": 0, "bike_id": "58fca708ab0293cc2de89f82f8216626", "type": "electric_scooter", "name": "58fca708ab0293cc2de89f82f8216626", "is_disabled": 0, "fusion_lon": 0.0, "rental_uris": {"android": "https://dc.lft.to/lastmile_qr_scan", "ios": "https://dc.lft.to/lastmile_qr_scan"}, "lat": 38.88747716666666, "lon": -77.031507, "fusion_lat": 0.0}, {"is_reserved": 0, "bike_id": "17d4ec7ae5e5b13beb07e6d9730287fe", "type": "electric_scooter", "name": "17d4ec7ae5e5b13beb07e6d9730287fe", "is_disabled": 0, "fusion_lon": 0.0, "rental_uris": {"android": "https://dc.lft.to/lastmile_qr_scan", "ios": "https://dc.lft.to/lastmile_qr_scan"}, "lat": 38.96799216666667, "lon": -77.0241585, "fusion_lat": 0.0}, {"is_reserved": 0, "bike_id": "84d7a1e4f38c141ef0c3d7749dee2182", "type": "electric_scooter", "name": "84d7a1e4f38c141ef0c3d7749dee2182", "is_disabled": 0, "fusion_lon": 0.0, "rental_uris": {"android": "https://dc.lft.to/lastmile_qr_scan", "ios": "https://dc.lft.to/lastmile_qr_scan"}, "lat": 38.900268833333335, "lon": -76.98795783333334, "fusion_lat": 0.0}, {"is_reserved": 0, "bike_id": "1a29ac0e0e33c093aca9177ce523dcaa", "type": "electric_scooter", "name": "1a29ac0e0e33c093aca9177ce523dcaa", "is_disabled": 0, "fusion_lon": 0.0, "rental_uris": {"android": "https://dc.lft.to/lastmile_qr_scan", "ios": "https://dc.lft.to/lastmile_qr_scan"}, "lat": 38.887245, "lon": -76.98356566666666, "fusion_lat": 0.0}, {"is_reserved": 0, "bike_id": "cbe70f756421f0203eae126c2882e5d9", "type": "electric_scooter", "name": "cbe70f756421f0203eae126c2882e5d9", "is_disabled": 0, "fusion_lon": 0.0, "rental_uris": {"android": "https://dc.lft.to/lastmile_qr_scan", "ios": "https://dc.lft.to/lastmile_qr_scan"}, "lat": 38.88450983333333, "lon": -76.92962233333333, "fusion_lat": 0.0}, {"is_reserved": 0, "bike_id": "2e0768b431cd6e05c55eb579d00eb05d", "type": "electric_bike", "name": "2e0768b431cd6e05c55eb579d00eb05d", "is_disabled": 0, "fusion_lon": 0.0, "rental_uris": {"android": "https://dc.lft.to/lastmile_qr_scan", "ios": "https://dc.lft.to/lastmile_qr_scan"}, "lat": 38.9248685, "lon": -77.03199266666667, "fusion_lat": 0.0}, {"is_reserved": 0, "bike_id": "96d6e403597f135b890d560c30a69cc0", "type": "electric_scooter", "name": "96d6e403597f135b890d560c30a69cc0", "is_disabled": 0, "fusion_lon": 0.0, "rental_uris": {"android": "https://dc.lft.to/lastmile_qr_scan", "ios": "https://dc.lft.to/lastmile_qr_scan"}, "lat": 38.94918333333333, "lon": -77.0186015, "fusion_lat": 0.0}, {"is_reserved": 0, "bike_id": "532e3026a7bb35a099b9c72ce466f8c6", "type": "electric_scooter", "name": "532e3026a7bb35a099b9c72ce466f8c6", "is_disabled": 0, "fusion_lon": 0.0, "rental_uris": {"android": "https://dc.lft.to/lastmile_qr_scan", "ios": "https://dc.lft.to/lastmile_qr_scan"}, "lat": 38.8742035, "lon": -77.0006715, "fusion_lat": 0.0}, {"is_reserved": 0, "bike_id": "6adae9503246306295453514227e4036", "type": "electric_scooter", "name": "6adae9503246306295453514227e4036", "is_disabled": 0, "fusion_lon": 0.0, "rental_uris": {"android": "https://dc.lft.to/lastmile_qr_scan", "ios": "https://dc.lft.to/lastmile_qr_scan"}, "lat": 38.9066755, "lon": -77.0352495, "fusion_lat": 0.0}, {"is_reserved": 0, "bike_id": "244518863c6ba5ab5048d62bb0016318", "type": "electric_scooter", "name": "244518863c6ba5ab5048d62bb0016318", "is_disabled": 0, "fusion_lon": 0.0, "rental_uris": {"android": "https://dc.lft.to/lastmile_qr_scan", "ios": "https://dc.lft.to/lastmile_qr_scan"}, "lat": 38.926534333333336, "lon": -77.02296766666667, "fusion_lat": 0.0}, {"is_reserved": 0, "bike_id": "f8cb3f8161c27935f2cabd38f32751d0", "type": "electric_scooter", "name": "f8cb3f8161c27935f2cabd38f32751d0", "is_disabled": 0, "fusion_lon": 0.0, "rental_uris": {"android": "https://dc.lft.to/lastmile_qr_scan", "ios": "https://dc.lft.to/lastmile_qr_scan"}, "lat": 38.91923216666667, "lon": -77.02506766666667, "fusion_lat": 0.0}, {"is_reserved": 0, "bike_id": "d153bb1fb69dfac6c252ef9ab5bffa8d", "type": "electric_bike", "name": "d153bb1fb69dfac6c252ef9ab5bffa8d", "is_disabled": 0, "fusion_lon": 0.0, "rental_uris": {"android": "https://dc.lft.to/lastmile_qr_scan", "ios": "https://dc.lft.to/lastmile_qr_scan"}, "lat": 38.958813, "lon": -77.01026416666667, "fusion_lat": 0.0}, {"is_reserved": 0, "bike_id": "b1f6d4e1e30dc585e2bca5529559b5d9", "type": "electric_scooter", "name": "b1f6d4e1e30dc585e2bca5529559b5d9", "is_disabled": 0, "fusion_lon": 0.0, "rental_uris": {"android": "https://dc.lft.to/lastmile_qr_scan", "ios": "https://dc.lft.to/lastmile_qr_scan"}, "lat": 38.927905833333334, "lon": -77.0314895, "fusion_lat": 0.0}, {"is_reserved": 0, "bike_id": "483a6c5882673257b5109d316f27091a", "type": "electric_scooter", "name": "483a6c5882673257b5109d316f27091a", "is_disabled": 0, "fusion_lon": 0.0, "rental_uris": {"android": "https://dc.lft.to/lastmile_qr_scan", "ios": "https://dc.lft.to/lastmile_qr_scan"}, "lat": 38.9166765, "lon": -77.02203783333333, "fusion_lat": 0.0}, {"is_reserved": 0, "bike_id": "c6b02ca4ca651d615b417fd685bbb354", "type": "electric_bike", "name": "c6b02ca4ca651d615b417fd685bbb354", "is_disabled": 0, "fusion_lon": 0.0, "rental_uris": {"android": "https://dc.lft.to/lastmile_qr_scan", "ios": "https://dc.lft.to/lastmile_qr_scan"}, "lat": 38.983851333333334, "lon": -76.94726183333333, "fusion_lat": 0.0}, {"is_reserved": 0, "bike_id": "70d81458373be52bb2023f4b60d84b44", "type": "electric_scooter", "name": "70d81458373be52bb2023f4b60d84b44", "is_disabled": 0, "fusion_lon": 0.0, "rental_uris": {"android": "https://dc.lft.to/lastmile_qr_scan", "ios": "https://dc.lft.to/lastmile_qr_scan"}, "lat": 38.92461083333333, "lon": -77.05240483333333, "fusion_lat": 0.0}, {"is_reserved": 0, "bike_id": "ffe0d5070afe14f3a80926bcadb05133", "type": "electric_scooter", "name": "ffe0d5070afe14f3a80926bcadb05133", "is_disabled": 0, "fusion_lon": 0.0, "rental_uris": {"android": "https://dc.lft.to/lastmile_qr_scan", "ios": "https://dc.lft.to/lastmile_qr_scan"}, "lat": 38.903675166666666, "lon": -76.9807155, "fusion_lat": 0.0}, {"is_reserved": 0, "bike_id": "e590f21abe62e8bd1cedd5e8213f5f0e", "type": "electric_scooter", "name": "e590f21abe62e8bd1cedd5e8213f5f0e", "is_disabled": 0, "fusion_lon": 0.0, "rental_uris": {"android": "https://dc.lft.to/lastmile_qr_scan", "ios": "https://dc.lft.to/lastmile_qr_scan"}, "lat": 38.87369833333333, "lon": -77.0013695, "fusion_lat": 0.0}, {"is_reserved": 0, "bike_id": "e4f4656c7e66a39ffc46ed418d6ec0cc", "type": "electric_bike", "name": "e4f4656c7e66a39ffc46ed418d6ec0cc", "is_disabled": 0, "fusion_lon": 0.0, "rental_uris": {"android": "https://dc.lft.to/lastmile_qr_scan", "ios": "https://dc.lft.to/lastmile_qr_scan"}, "lat": 38.98962016666667, "lon": -77.0953345, "fusion_lat": 0.0}, {"is_reserved": 0, "bike_id": "6ba6513ac0293d9f71fefca13d1978d5", "type": "electric_scooter", "name": "6ba6513ac0293d9f71fefca13d1978d5", "is_disabled": 0, "fusion_lon": 0.0, "rental_uris": {"android": "https://dc.lft.to/lastmile_qr_scan", "ios": "https://dc.lft.to/lastmile_qr_scan"}, "lat": 38.92639666666667, "lon": -77.0134065, "fusion_lat": 0.0}, {"is_reserved": 0, "bike_id": "c86ff91614826477011c07bfd7b19c5d", "type": "electric_scooter", "name": "c86ff91614826477011c07bfd7b19c5d", "is_disabled": 0, "fusion_lon": 0.0, "rental_uris": {"android": "https://dc.lft.to/lastmile_qr_scan", "ios": "https://dc.lft.to/lastmile_qr_scan"}, "lat": 38.89480833333333, "lon": -77.01080033333334, "fusion_lat": 0.0}, {"is_reserved": 0, "bike_id": "d3bccd2f40a5f10c78fb6c414a2aceac", "type": "electric_bike", "name": "d3bccd2f40a5f10c78fb6c414a2aceac", "is_disabled": 0, "fusion_lon": 0.0, "rental_uris": {"android": "https://dc.lft.to/lastmile_qr_scan", "ios": "https://dc.lft.to/lastmile_qr_scan"}, "lat": 38.917204166666664, "lon": -77.025863, "fusion_lat": 0.0}, {"is_reserved": 0, "bike_id": "da0562167c6f0422aa16469aa13c2d46", "type": "electric_scooter", "name": "da0562167c6f0422aa16469aa13c2d46", "is_disabled": 0, "fusion_lon": 0.0, "rental_uris": {"android": "https://dc.lft.to/lastmile_qr_scan", "ios": "https://dc.lft.to/lastmile_qr_scan"}, "lat": 38.9213545, "lon": -77.03367866666666, "fusion_lat": 0.0}, {"is_reserved": 0, "bike_id": "e055d0305ee684877106a5d603ed576e", "type": "electric_bike", "name": "e055d0305ee684877106a5d603ed576e", "is_disabled": 0, "fusion_lon": 0.0, "rental_uris": {"android": "https://dc.lft.to/lastmile_qr_scan", "ios": "https://dc.lft.to/lastmile_qr_scan"}, "lat": 38.950867333333335, "lon": -77.0122725, "fusion_lat": 0.0}, {"is_reserved": 0, "bike_id": "69928bd2952630c6be08f0dd6154d9e0", "type": "electric_scooter", "name": "69928bd2952630c6be08f0dd6154d9e0", "is_disabled": 0, "fusion_lon": 0.0, "rental_uris": {"android": "https://dc.lft.to/lastmile_qr_scan", "ios": "https://dc.lft.to/lastmile_qr_scan"}, "lat": 38.895474666666665, "lon": -77.01101883333334, "fusion_lat": 0.0}, {"is_reserved": 0, "bike_id": "e052f7aa7295fbecdf87ec02f6f25631", "type": "electric_scooter", "name": "e052f7aa7295fbecdf87ec02f6f25631", "is_disabled": 0, "fusion_lon": 0.0, "rental_uris": {"android": "https://dc.lft.to/lastmile_qr_scan", "ios": "https://dc.lft.to/lastmile_qr_scan"}, "lat": 38.92420533333333, "lon": -77.05182533333333, "fusion_lat": 0.0}, {"is_reserved": 0, "bike_id": "3dc59e5cd346485a017bee0fa50174d8", "type": "electric_scooter", "name": "3dc59e5cd346485a017bee0fa50174d8", "is_disabled": 0, "fusion_lon": 0.0, "rental_uris": {"android": "https://dc.lft.to/lastmile_qr_scan", "ios": "https://dc.lft.to/lastmile_qr_scan"}, "lat": 38.921355166666665, "lon": -77.04517483333333, "fusion_lat": 0.0}, {"is_reserved": 0, "bike_id": "9cd18ebf35169832bdac513d6248365b", "type": "electric_scooter", "name": "9cd18ebf35169832bdac513d6248365b", "is_disabled": 0, "fusion_lon": 0.0, "rental_uris": {"android": "https://dc.lft.to/lastmile_qr_scan", "ios": "https://dc.lft.to/lastmile_qr_scan"}, "lat": 38.90633016666666, "lon": -77.0060555, "fusion_lat": 0.0}, {"is_reserved": 0, "bike_id": "1f9f7e11322b9739faa70f241c886b1d", "type": "electric_bike", "name": "1f9f7e11322b9739faa70f241c886b1d", "is_disabled": 0, "fusion_lon": 0.0, "rental_uris": {"android": "https://dc.lft.to/lastmile_qr_scan", "ios": "https://dc.lft.to/lastmile_qr_scan"}, "lat": 38.81538783333333, "lon": -77.046477, "fusion_lat": 0.0}, {"is_reserved": 0, "bike_id": "7b4611fe72167927567170726453aad0", "type": "electric_scooter", "name": "7b4611fe72167927567170726453aad0", "is_disabled": 0, "fusion_lon": 0.0, "rental_uris": {"android": "https://dc.lft.to/lastmile_qr_scan", "ios": "https://dc.lft.to/lastmile_qr_scan"}, "lat": 38.897981, "lon": -76.97932833333333, "fusion_lat": 0.0}, {"is_reserved": 0, "bike_id": "780d9160e631fa32b782e4beeb8f0526", "type": "electric_scooter", "name": "780d9160e631fa32b782e4beeb8f0526", "is_disabled": 0, "fusion_lon": 0.0, "rental_uris": {"android": "https://dc.lft.to/lastmile_qr_scan", "ios": "https://dc.lft.to/lastmile_qr_scan"}, "lat": 38.939601333333336, "lon": -77.03284166666667, "fusion_lat": 0.0}, {"is_reserved": 0, "bike_id": "815e643d7f4a8febc6e9bcaf3e66dce9", "type": "electric_scooter", "name": "815e643d7f4a8febc6e9bcaf3e66dce9", "is_disabled": 0, "fusion_lon": 0.0, "rental_uris": {"android": "https://dc.lft.to/lastmile_qr_scan", "ios": "https://dc.lft.to/lastmile_qr_scan"}, "lat": 38.89541766666667, "lon": -76.9833885, "fusion_lat": 0.0}, {"is_reserved": 0, "bike_id": "94f24056f2f9484dc042eba08762c803", "type": "electric_bike", "name": "94f24056f2f9484dc042eba08762c803", "is_disabled": 0, "fusion_lon": 0.0, "rental_uris": {"android": "https://dc.lft.to/lastmile_qr_scan", "ios": "https://dc.lft.to/lastmile_qr_scan"}, "lat": 38.936252833333334, "lon": -76.960675, "fusion_lat": 0.0}, {"is_reserved": 0, "bike_id": "a5207c0d7250361bd3668275bbc64162", "type": "electric_scooter", "name": "a5207c0d7250361bd3668275bbc64162", "is_disabled": 0, "fusion_lon": 0.0, "rental_uris": {"android": "https://dc.lft.to/lastmile_qr_scan", "ios": "https://dc.lft.to/lastmile_qr_scan"}, "lat": 38.879973166666666, "lon": -76.98541133333333, "fusion_lat": 0.0}, {"is_reserved": 0, "bike_id": "8f6e66a2f968aac936acbe9e464939ff", "type": "electric_scooter", "name": "8f6e66a2f968aac936acbe9e464939ff", "is_disabled": 0, "fusion_lon": 0.0, "rental_uris": {"android": "https://dc.lft.to/lastmile_qr_scan", "ios": "https://dc.lft.to/lastmile_qr_scan"}, "lat": 38.90956216666667, "lon": -77.00770316666667, "fusion_lat": 0.0}, {"is_reserved": 0, "bike_id": "c4f3dd91c69dceab9290b584dccd34db", "type": "electric_scooter", "name": "c4f3dd91c69dceab9290b584dccd34db", "is_disabled": 0, "fusion_lon": 0.0, "rental_uris": {"android": "https://dc.lft.to/lastmile_qr_scan", "ios": "https://dc.lft.to/lastmile_qr_scan"}, "lat": 38.952037, "lon": -77.02738983333333, "fusion_lat": 0.0}, {"is_reserved": 0, "bike_id": "a0c0e47d87e77e022e52d19ac1159502", "type": "electric_scooter", "name": "a0c0e47d87e77e022e52d19ac1159502", "is_disabled": 0, "fusion_lon": 0.0, "rental_uris": {"android": "https://dc.lft.to/lastmile_qr_scan", "ios": "https://dc.lft.to/lastmile_qr_scan"}, "lat": 38.90195033333333, "lon": -77.05009716666666, "fusion_lat": 0.0}, {"is_reserved": 0, "bike_id": "3542d9dcb358449539470d15d0a62516", "type": "electric_scooter", "name": "3542d9dcb358449539470d15d0a62516", "is_disabled": 0, "fusion_lon": 0.0, "rental_uris": {"android": "https://dc.lft.to/lastmile_qr_scan", "ios": "https://dc.lft.to/lastmile_qr_scan"}, "lat": 38.905690166666666, "lon": -77.00430766666666, "fusion_lat": 0.0}, {"is_reserved": 0, "bike_id": "ac07aad9d68b94c932e3961bbd480606", "type": "electric_scooter", "name": "ac07aad9d68b94c932e3961bbd480606", "is_disabled": 0, "fusion_lon": 0.0, "rental_uris": {"android": "https://dc.lft.to/lastmile_qr_scan", "ios": "https://dc.lft.to/lastmile_qr_scan"}, "lat": 38.91462033333333, "lon": -77.03648233333334, "fusion_lat": 0.0}, {"is_reserved": 0, "bike_id": "3ae0c6775b46e3c5ae1ed365fd036eec", "type": "electric_scooter", "name": "3ae0c6775b46e3c5ae1ed365fd036eec", "is_disabled": 0, "fusion_lon": 0.0, "rental_uris": {"android": "https://dc.lft.to/lastmile_qr_scan", "ios": "https://dc.lft.to/lastmile_qr_scan"}, "lat": 38.9130775, "lon": -77.01925166666666, "fusion_lat": 0.0}, {"is_reserved": 0, "bike_id": "cd4cb4b16d719f1b217445b57629c57e", "type": "electric_scooter", "name": "cd4cb4b16d719f1b217445b57629c57e", "is_disabled": 0, "fusion_lon": 0.0, "rental_uris": {"android": "https://dc.lft.to/lastmile_qr_scan", "ios": "https://dc.lft.to/lastmile_qr_scan"}, "lat": 38.9168455, "lon": -77.02957733333334, "fusion_lat": 0.0}, {"is_reserved": 0, "bike_id": "be1d6c97469a3d645f3f9d81e9b1773c", "type": "electric_scooter", "name": "be1d6c97469a3d645f3f9d81e9b1773c", "is_disabled": 0, "fusion_lon": 0.0, "rental_uris": {"android": "https://dc.lft.to/lastmile_qr_scan", "ios": "https://dc.lft.to/lastmile_qr_scan"}, "lat": 38.890436, "lon": -76.9900975, "fusion_lat": 0.0}, {"is_reserved": 0, "bike_id": "844f2eb20859f9f4c87262be759da7c7", "type": "electric_scooter", "name": "844f2eb20859f9f4c87262be759da7c7", "is_disabled": 0, "fusion_lon": 0.0, "rental_uris": {"android": "https://dc.lft.to/lastmile_qr_scan", "ios": "https://dc.lft.to/lastmile_qr_scan"}, "lat": 38.902359833333335, "lon": -77.0057135, "fusion_lat": 0.0}, {"is_reserved": 0, "bike_id": "336e3394501f68a953b5409529ed1d54", "type": "electric_scooter", "name": "336e3394501f68a953b5409529ed1d54", "is_disabled": 0, "fusion_lon": 0.0, "rental_uris": {"android": "https://dc.lft.to/lastmile_qr_scan", "ios": "https://dc.lft.to/lastmile_qr_scan"}, "lat": 38.92058566666667, "lon": -77.0237265, "fusion_lat": 0.0}, {"is_reserved": 0, "bike_id": "e1f9a9e411fb661765fffebd12c873d8", "type": "electric_scooter", "name": "e1f9a9e411fb661765fffebd12c873d8", "is_disabled": 0, "fusion_lon": 0.0, "rental_uris": {"android": "https://dc.lft.to/lastmile_qr_scan", "ios": "https://dc.lft.to/lastmile_qr_scan"}, "lat": 38.92905016666667, "lon": -77.0581095, "fusion_lat": 0.0}, {"is_reserved": 0, "bike_id": "ee11e7527fa965c78d9a0ef493ce6cfa", "type": "electric_scooter", "name": "ee11e7527fa965c78d9a0ef493ce6cfa", "is_disabled": 0, "fusion_lon": 0.0, "rental_uris": {"android": "https://dc.lft.to/lastmile_qr_scan", "ios": "https://dc.lft.to/lastmile_qr_scan"}, "lat": 38.880315833333334, "lon": -77.02503083333333, "fusion_lat": 0.0}, {"is_reserved": 0, "bike_id": "e0168609ae7fed3dd2bc663c702717ef", "type": "electric_scooter", "name": "e0168609ae7fed3dd2bc663c702717ef", "is_disabled": 0, "fusion_lon": 0.0, "rental_uris": {"android": "https://dc.lft.to/lastmile_qr_scan", "ios": "https://dc.lft.to/lastmile_qr_scan"}, "lat": 38.91564666666667, "lon": -77.03653266666667, "fusion_lat": 0.0}, {"is_reserved": 0, "bike_id": "96dfe45e45b1737e13a6efb51df77794", "type": "electric_scooter", "name": "96dfe45e45b1737e13a6efb51df77794", "is_disabled": 0, "fusion_lon": 0.0, "rental_uris": {"android": "https://dc.lft.to/lastmile_qr_scan", "ios": "https://dc.lft.to/lastmile_qr_scan"}, "lat": 38.908392666666664, "lon": -77.03548083333334, "fusion_lat": 0.0}, {"is_reserved": 0, "bike_id": "49688debca46bdd28106095a7083e989", "type": "electric_scooter", "name": "49688debca46bdd28106095a7083e989", "is_disabled": 0, "fusion_lon": 0.0, "rental_uris": {"android": "https://dc.lft.to/lastmile_qr_scan", "ios": "https://dc.lft.to/lastmile_qr_scan"}, "lat": 38.91760283333333, "lon": -77.027127, "fusion_lat": 0.0}, {"is_reserved": 0, "bike_id": "3ab8a64fe545bb4e406496ea668870b5", "type": "electric_bike", "name": "3ab8a64fe545bb4e406496ea668870b5", "is_disabled": 0, "fusion_lon": 0.0, "rental_uris": {"android": "https://dc.lft.to/lastmile_qr_scan", "ios": "https://dc.lft.to/lastmile_qr_scan"}, "lat": 38.9417, "lon": -76.95351266666667, "fusion_lat": 0.0}, {"is_reserved": 0, "bike_id": "2439691a4b3b05032fc9429e7cbd9dbe", "type": "electric_scooter", "name": "2439691a4b3b05032fc9429e7cbd9dbe", "is_disabled": 0, "fusion_lon": 0.0, "rental_uris": {"android": "https://dc.lft.to/lastmile_qr_scan", "ios": "https://dc.lft.to/lastmile_qr_scan"}, "lat": 38.918764833333334, "lon": -77.00920133333334, "fusion_lat": 0.0}, {"is_reserved": 0, "bike_id": "a57c091e7b227a0a84444fa15dc669a4", "type": "electric_scooter", "name": "a57c091e7b227a0a84444fa15dc669a4", "is_disabled": 0, "fusion_lon": 0.0, "rental_uris": {"android": "https://dc.lft.to/lastmile_qr_scan", "ios": "https://dc.lft.to/lastmile_qr_scan"}, "lat": 38.92624216666667, "lon": -77.02269616666666, "fusion_lat": 0.0}, {"is_reserved": 0, "bike_id": "182718ba8e079f263b3addf8d5e85866", "type": "electric_scooter", "name": "182718ba8e079f263b3addf8d5e85866", "is_disabled": 0, "fusion_lon": 0.0, "rental_uris": {"android": "https://dc.lft.to/lastmile_qr_scan", "ios": "https://dc.lft.to/lastmile_qr_scan"}, "lat": 38.929453, "lon": -77.0328225, "fusion_lat": 0.0}, {"is_reserved": 0, "bike_id": "cce78efa61f260e8034cd02a53e85c95", "type": "electric_bike", "name": "cce78efa61f260e8034cd02a53e85c95", "is_disabled": 0, "fusion_lon": 0.0, "rental_uris": {"android": "https://dc.lft.to/lastmile_qr_scan", "ios": "https://dc.lft.to/lastmile_qr_scan"}, "lat": 38.97440183333333, "lon": -77.09616483333333, "fusion_lat": 0.0}, {"is_reserved": 0, "bike_id": "60d4863af902617097ab163cd7487070", "type": "electric_scooter", "name": "60d4863af902617097ab163cd7487070", "is_disabled": 0, "fusion_lon": 0.0, "rental_uris": {"android": "https://dc.lft.to/lastmile_qr_scan", "ios": "https://dc.lft.to/lastmile_qr_scan"}, "lat": 38.896197, "lon": -76.98556383333333, "fusion_lat": 0.0}, {"is_reserved": 0, "bike_id": "4ceba1734d9f03cb70ae50d04731d683", "type": "electric_bike", "name": "4ceba1734d9f03cb70ae50d04731d683", "is_disabled": 0, "fusion_lon": 0.0, "rental_uris": {"android": "https://dc.lft.to/lastmile_qr_scan", "ios": "https://dc.lft.to/lastmile_qr_scan"}, "lat": 38.8527995, "lon": -77.04973066666666, "fusion_lat": 0.0}, {"is_reserved": 0, "bike_id": "5da3b624de6b63bbdb1b265bb0a21b07", "type": "electric_scooter", "name": "5da3b624de6b63bbdb1b265bb0a21b07", "is_disabled": 0, "fusion_lon": 0.0, "rental_uris": {"android": "https://dc.lft.to/lastmile_qr_scan", "ios": "https://dc.lft.to/lastmile_qr_scan"}, "lat": 38.9140425, "lon": -77.01015633333333, "fusion_lat": 0.0}, {"is_reserved": 0, "bike_id": "59d57eb08a28f3e65a61fe20818cbf4f", "type": "electric_scooter", "name": "59d57eb08a28f3e65a61fe20818cbf4f", "is_disabled": 0, "fusion_lon": 0.0, "rental_uris": {"android": "https://dc.lft.to/lastmile_qr_scan", "ios": "https://dc.lft.to/lastmile_qr_scan"}, "lat": 38.92326383333333, "lon": -77.05676283333334, "fusion_lat": 0.0}, {"is_reserved": 0, "bike_id": "069a1c8160af13934ca3f5c3dbb2feb5", "type": "electric_scooter", "name": "069a1c8160af13934ca3f5c3dbb2feb5", "is_disabled": 0, "fusion_lon": 0.0, "rental_uris": {"android": "https://dc.lft.to/lastmile_qr_scan", "ios": "https://dc.lft.to/lastmile_qr_scan"}, "lat": 38.95423866666667, "lon": -77.02761133333334, "fusion_lat": 0.0}, {"is_reserved": 0, "bike_id": "6c4b706e83e6f35c6c8e3036fccda44b", "type": "electric_scooter", "name": "6c4b706e83e6f35c6c8e3036fccda44b", "is_disabled": 0, "fusion_lon": 0.0, "rental_uris": {"android": "https://dc.lft.to/lastmile_qr_scan", "ios": "https://dc.lft.to/lastmile_qr_scan"}, "lat": 38.92265016666666, "lon": -77.02971383333333, "fusion_lat": 0.0}, {"is_reserved": 0, "bike_id": "ad48717e12129e603f6f1d4844d91027", "type": "electric_scooter", "name": "ad48717e12129e603f6f1d4844d91027", "is_disabled": 0, "fusion_lon": 0.0, "rental_uris": {"android": "https://dc.lft.to/lastmile_qr_scan", "ios": "https://dc.lft.to/lastmile_qr_scan"}, "lat": 38.906466, "lon": -77.05340216666667, "fusion_lat": 0.0}, {"is_reserved": 0, "bike_id": "e8dcdbb863085e13abbffd30b1fffafb", "type": "electric_scooter", "name": "e8dcdbb863085e13abbffd30b1fffafb", "is_disabled": 0, "fusion_lon": 0.0, "rental_uris": {"android": "https://dc.lft.to/lastmile_qr_scan", "ios": "https://dc.lft.to/lastmile_qr_scan"}, "lat": 38.931755833333334, "lon": -77.0370105, "fusion_lat": 0.0}, {"is_reserved": 0, "bike_id": "85c5c70b1c21b12c168b1d6c06ff5a7a", "type": "electric_scooter", "name": "85c5c70b1c21b12c168b1d6c06ff5a7a", "is_disabled": 0, "fusion_lon": 0.0, "rental_uris": {"android": "https://dc.lft.to/lastmile_qr_scan", "ios": "https://dc.lft.to/lastmile_qr_scan"}, "lat": 38.912654833333335, "lon": -77.022117, "fusion_lat": 0.0}, {"is_reserved": 0, "bike_id": "9d00b5a3e906ac4c37805f33caf0303b", "type": "electric_scooter", "name": "9d00b5a3e906ac4c37805f33caf0303b", "is_disabled": 0, "fusion_lon": 0.0, "rental_uris": {"android": "https://dc.lft.to/lastmile_qr_scan", "ios": "https://dc.lft.to/lastmile_qr_scan"}, "lat": 38.90120833333334, "lon": -77.04997316666666, "fusion_lat": 0.0}, {"is_reserved": 0, "bike_id": "89d859b7be99f2319d826ea519bfd051", "type": "electric_scooter", "name": "89d859b7be99f2319d826ea519bfd051", "is_disabled": 0, "fusion_lon": 0.0, "rental_uris": {"android": "https://dc.lft.to/lastmile_qr_scan", "ios": "https://dc.lft.to/lastmile_qr_scan"}, "lat": 38.8842565, "lon": -77.030506, "fusion_lat": 0.0}, {"is_reserved": 0, "bike_id": "eaa871603603a32bcf0cdc9158c6e2ac", "type": "electric_bike", "name": "eaa871603603a32bcf0cdc9158c6e2ac", "is_disabled": 0, "fusion_lon": 0.0, "rental_uris": {"android": "https://dc.lft.to/lastmile_qr_scan", "ios": "https://dc.lft.to/lastmile_qr_scan"}, "lat": 38.867491333333334, "lon": -76.9453535, "fusion_lat": 0.0}, {"is_reserved": 0, "bike_id": "320b90ff8d73aeda43f711638ddb945b", "type": "electric_scooter", "name": "320b90ff8d73aeda43f711638ddb945b", "is_disabled": 0, "fusion_lon": 0.0, "rental_uris": {"android": "https://dc.lft.to/lastmile_qr_scan", "ios": "https://dc.lft.to/lastmile_qr_scan"}, "lat": 38.9308075, "lon": -77.00200933333333, "fusion_lat": 0.0}, {"is_reserved": 0, "bike_id": "8fce565c33f458c3390f9bcffae81934", "type": "electric_scooter", "name": "8fce565c33f458c3390f9bcffae81934", "is_disabled": 0, "fusion_lon": 0.0, "rental_uris": {"android": "https://dc.lft.to/lastmile_qr_scan", "ios": "https://dc.lft.to/lastmile_qr_scan"}, "lat": 38.93084533333333, "lon": -77.03480166666667, "fusion_lat": 0.0}, {"is_reserved": 0, "bike_id": "e7171ec8601a385a484a85c4f23281fe", "type": "electric_scooter", "name": "e7171ec8601a385a484a85c4f23281fe", "is_disabled": 0, "fusion_lon": 0.0, "rental_uris": {"android": "https://dc.lft.to/lastmile_qr_scan", "ios": "https://dc.lft.to/lastmile_qr_scan"}, "lat": 38.903031666666664, "lon": -77.01620833333334, "fusion_lat": 0.0}, {"is_reserved": 0, "bike_id": "afabb0c4a8985a38ee75322d64f45fba", "type": "electric_scooter", "name": "afabb0c4a8985a38ee75322d64f45fba", "is_disabled": 0, "fusion_lon": 0.0, "rental_uris": {"android": "https://dc.lft.to/lastmile_qr_scan", "ios": "https://dc.lft.to/lastmile_qr_scan"}, "lat": 38.89351333333333, "lon": -77.00288083333334, "fusion_lat": 0.0}, {"is_reserved": 0, "bike_id": "108eaead17a7207cb5c9573f21341025", "type": "electric_scooter", "name": "108eaead17a7207cb5c9573f21341025", "is_disabled": 0, "fusion_lon": 0.0, "rental_uris": {"android": "https://dc.lft.to/lastmile_qr_scan", "ios": "https://dc.lft.to/lastmile_qr_scan"}, "lat": 38.923254166666666, "lon": -77.05397983333333, "fusion_lat": 0.0}, {"is_reserved": 0, "bike_id": "2d7f2c90186da69f039b81caff593fb6", "type": "electric_scooter", "name": "2d7f2c90186da69f039b81caff593fb6", "is_disabled": 0, "fusion_lon": 0.0, "rental_uris": {"android": "https://dc.lft.to/lastmile_qr_scan", "ios": "https://dc.lft.to/lastmile_qr_scan"}, "lat": 38.90066066666667, "lon": -77.0130175, "fusion_lat": 0.0}, {"is_reserved": 0, "bike_id": "9f7203dcdf7f4f218e03fda0eec2391c", "type": "electric_scooter", "name": "9f7203dcdf7f4f218e03fda0eec2391c", "is_disabled": 0, "fusion_lon": 0.0, "rental_uris": {"android": "https://dc.lft.to/lastmile_qr_scan", "ios": "https://dc.lft.to/lastmile_qr_scan"}, "lat": 38.92098716666667, "lon": -77.03155466666666, "fusion_lat": 0.0}, {"is_reserved": 0, "bike_id": "518f41565142c87c486330c1f181b172", "type": "electric_scooter", "name": "518f41565142c87c486330c1f181b172", "is_disabled": 0, "fusion_lon": 0.0, "rental_uris": {"android": "https://dc.lft.to/lastmile_qr_scan", "ios": "https://dc.lft.to/lastmile_qr_scan"}, "lat": 38.944145, "lon": -77.06339466666667, "fusion_lat": 0.0}, {"is_reserved": 0, "bike_id": "53bfc739205c891ae673661038d40ed3", "type": "electric_scooter", "name": "53bfc739205c891ae673661038d40ed3", "is_disabled": 0, "fusion_lon": 0.0, "rental_uris": {"android": "https://dc.lft.to/lastmile_qr_scan", "ios": "https://dc.lft.to/lastmile_qr_scan"}, "lat": 38.9349875, "lon": -77.02854683333334, "fusion_lat": 0.0}, {"is_reserved": 0, "bike_id": "0b1a1e4fc6d711940960f327cfd15e36", "type": "electric_scooter", "name": "0b1a1e4fc6d711940960f327cfd15e36", "is_disabled": 0, "fusion_lon": 0.0, "rental_uris": {"android": "https://dc.lft.to/lastmile_qr_scan", "ios": "https://dc.lft.to/lastmile_qr_scan"}, "lat": 38.9024095, "lon": -77.04617033333334, "fusion_lat": 0.0}, {"is_reserved": 0, "bike_id": "c4ca7ba54c221ee65ffaca310bb4587c", "type": "electric_scooter", "name": "c4ca7ba54c221ee65ffaca310bb4587c", "is_disabled": 0, "fusion_lon": 0.0, "rental_uris": {"android": "https://dc.lft.to/lastmile_qr_scan", "ios": "https://dc.lft.to/lastmile_qr_scan"}, "lat": 38.91801733333333, "lon": -77.02719033333334, "fusion_lat": 0.0}, {"is_reserved": 0, "bike_id": "c844767f91fd23a3fd2d4b2539e104be", "type": "electric_scooter", "name": "c844767f91fd23a3fd2d4b2539e104be", "is_disabled": 0, "fusion_lon": 0.0, "rental_uris": {"android": "https://dc.lft.to/lastmile_qr_scan", "ios": "https://dc.lft.to/lastmile_qr_scan"}, "lat": 38.92413166666667, "lon": -77.0200655, "fusion_lat": 0.0}, {"is_reserved": 0, "bike_id": "1cf0015691525b5be57bd36638fda12d", "type": "electric_scooter", "name": "1cf0015691525b5be57bd36638fda12d", "is_disabled": 0, "fusion_lon": 0.0, "rental_uris": {"android": "https://dc.lft.to/lastmile_qr_scan", "ios": "https://dc.lft.to/lastmile_qr_scan"}, "lat": 38.91214883333333, "lon": -77.04401566666667, "fusion_lat": 0.0}, {"is_reserved": 0, "bike_id": "a5801040075c2a140fa185a112f068c3", "type": "electric_bike", "name": "a5801040075c2a140fa185a112f068c3", "is_disabled": 0, "fusion_lon": 0.0, "rental_uris": {"android": "https://dc.lft.to/lastmile_qr_scan", "ios": "https://dc.lft.to/lastmile_qr_scan"}, "lat": 38.89619533333333, "lon": -76.9075115, "fusion_lat": 0.0}, {"is_reserved": 0, "bike_id": "70a7b902e5b043e081e0a080fb490b4a", "type": "electric_scooter", "name": "70a7b902e5b043e081e0a080fb490b4a", "is_disabled": 0, "fusion_lon": 0.0, "rental_uris": {"android": "https://dc.lft.to/lastmile_qr_scan", "ios": "https://dc.lft.to/lastmile_qr_scan"}, "lat": 38.9264575, "lon": -77.03712633333333, "fusion_lat": 0.0}, {"is_reserved": 0, "bike_id": "5c561533c23f565aed5cef8a4b0c05b4", "type": "electric_scooter", "name": "5c561533c23f565aed5cef8a4b0c05b4", "is_disabled": 0, "fusion_lon": 0.0, "rental_uris": {"android": "https://dc.lft.to/lastmile_qr_scan", "ios": "https://dc.lft.to/lastmile_qr_scan"}, "lat": 38.90869516666667, "lon": -77.00923666666667, "fusion_lat": 0.0}, {"is_reserved": 0, "bike_id": "65c987bbe32ca4e4d9790ba24139d827", "type": "electric_scooter", "name": "65c987bbe32ca4e4d9790ba24139d827", "is_disabled": 0, "fusion_lon": 0.0, "rental_uris": {"android": "https://dc.lft.to/lastmile_qr_scan", "ios": "https://dc.lft.to/lastmile_qr_scan"}, "lat": 38.910493, "lon": -77.05325583333334, "fusion_lat": 0.0}, {"is_reserved": 0, "bike_id": "0b95b49371b492fc3f88b94692ca8db9", "type": "electric_scooter", "name": "0b95b49371b492fc3f88b94692ca8db9", "is_disabled": 0, "fusion_lon": 0.0, "rental_uris": {"android": "https://dc.lft.to/lastmile_qr_scan", "ios": "https://dc.lft.to/lastmile_qr_scan"}, "lat": 38.8977175, "lon": -77.02696816666666, "fusion_lat": 0.0}, {"is_reserved": 0, "bike_id": "0f420f893752d06f9edccea4814e7e3f", "type": "electric_scooter", "name": "0f420f893752d06f9edccea4814e7e3f", "is_disabled": 0, "fusion_lon": 0.0, "rental_uris": {"android": "https://dc.lft.to/lastmile_qr_scan", "ios": "https://dc.lft.to/lastmile_qr_scan"}, "lat": 38.87665633333334, "lon": -77.00297366666666, "fusion_lat": 0.0}, {"is_reserved": 0, "bike_id": "b6ec4bbdf944c24205dfecb61a19dab8", "type": "electric_scooter", "name": "b6ec4bbdf944c24205dfecb61a19dab8", "is_disabled": 0, "fusion_lon": 0.0, "rental_uris": {"android": "https://dc.lft.to/lastmile_qr_scan", "ios": "https://dc.lft.to/lastmile_qr_scan"}, "lat": 38.9326635, "lon": -77.01923216666667, "fusion_lat": 0.0}, {"is_reserved": 0, "bike_id": "8a10968625c68cb757d2ca844f932fac", "type": "electric_scooter", "name": "8a10968625c68cb757d2ca844f932fac", "is_disabled": 0, "fusion_lon": 0.0, "rental_uris": {"android": "https://dc.lft.to/lastmile_qr_scan", "ios": "https://dc.lft.to/lastmile_qr_scan"}, "lat": 38.954214666666665, "lon": -77.027623, "fusion_lat": 0.0}, {"is_reserved": 0, "bike_id": "d83b197374e5760506d9126e558d54e3", "type": "electric_scooter", "name": "d83b197374e5760506d9126e558d54e3", "is_disabled": 0, "fusion_lon": 0.0, "rental_uris": {"android": "https://dc.lft.to/lastmile_qr_scan", "ios": "https://dc.lft.to/lastmile_qr_scan"}, "lat": 38.923541166666666, "lon": -77.03410066666666, "fusion_lat": 0.0}, {"is_reserved": 0, "bike_id": "880d059a9de093b0d293022f75366617", "type": "electric_scooter", "name": "880d059a9de093b0d293022f75366617", "is_disabled": 0, "fusion_lon": 0.0, "rental_uris": {"android": "https://dc.lft.to/lastmile_qr_scan", "ios": "https://dc.lft.to/lastmile_qr_scan"}, "lat": 38.89352933333333, "lon": -77.00335233333334, "fusion_lat": 0.0}, {"is_reserved": 0, "bike_id": "45cadfe15ba202c8e055e4d35b3a59fa", "type": "electric_bike", "name": "45cadfe15ba202c8e055e4d35b3a59fa", "is_disabled": 0, "fusion_lon": 0.0, "rental_uris": {"android": "https://dc.lft.to/lastmile_qr_scan", "ios": "https://dc.lft.to/lastmile_qr_scan"}, "lat": 38.906927833333334, "lon": -76.95255466666667, "fusion_lat": 0.0}, {"is_reserved": 0, "bike_id": "73234c175572c9f009edd5f787b12010", "type": "electric_scooter", "name": "73234c175572c9f009edd5f787b12010", "is_disabled": 0, "fusion_lon": 0.0, "rental_uris": {"android": "https://dc.lft.to/lastmile_qr_scan", "ios": "https://dc.lft.to/lastmile_qr_scan"}, "lat": 38.936165333333335, "lon": -77.03284316666667, "fusion_lat": 0.0}, {"is_reserved": 0, "bike_id": "b1183462ee0b4cd097ec03317618c8ed", "type": "electric_scooter", "name": "b1183462ee0b4cd097ec03317618c8ed", "is_disabled": 0, "fusion_lon": 0.0, "rental_uris": {"android": "https://dc.lft.to/lastmile_qr_scan", "ios": "https://dc.lft.to/lastmile_qr_scan"}, "lat": 38.92227416666667, "lon": -77.0336585, "fusion_lat": 0.0}, {"is_reserved": 0, "bike_id": "7cab73526c8f49774a7228760b7d6034", "type": "electric_scooter", "name": "7cab73526c8f49774a7228760b7d6034", "is_disabled": 0, "fusion_lon": 0.0, "rental_uris": {"android": "https://dc.lft.to/lastmile_qr_scan", "ios": "https://dc.lft.to/lastmile_qr_scan"}, "lat": 38.931899666666666, "lon": -77.03750116666667, "fusion_lat": 0.0}, {"is_reserved": 0, "bike_id": "26a1ee4d72689d40a303af67790ba072", "type": "electric_scooter", "name": "26a1ee4d72689d40a303af67790ba072", "is_disabled": 0, "fusion_lon": 0.0, "rental_uris": {"android": "https://dc.lft.to/lastmile_qr_scan", "ios": "https://dc.lft.to/lastmile_qr_scan"}, "lat": 38.909595, "lon": -77.04015216666667, "fusion_lat": 0.0}, {"is_reserved": 0, "bike_id": "4a6dda316b2175369e16288498b1fdee", "type": "electric_scooter", "name": "4a6dda316b2175369e16288498b1fdee", "is_disabled": 0, "fusion_lon": 0.0, "rental_uris": {"android": "https://dc.lft.to/lastmile_qr_scan", "ios": "https://dc.lft.to/lastmile_qr_scan"}, "lat": 38.89720833333333, "lon": -76.98359616666667, "fusion_lat": 0.0}, {"is_reserved": 0, "bike_id": "fb08ab0310753549054f771921dd08c8", "type": "electric_scooter", "name": "fb08ab0310753549054f771921dd08c8", "is_disabled": 0, "fusion_lon": 0.0, "rental_uris": {"android": "https://dc.lft.to/lastmile_qr_scan", "ios": "https://dc.lft.to/lastmile_qr_scan"}, "lat": 38.88122533333333, "lon": -76.99344583333334, "fusion_lat": 0.0}, {"is_reserved": 0, "bike_id": "e727cc39450717219e7b4569d1a87ab1", "type": "electric_scooter", "name": "e727cc39450717219e7b4569d1a87ab1", "is_disabled": 0, "fusion_lon": 0.0, "rental_uris": {"android": "https://dc.lft.to/lastmile_qr_scan", "ios": "https://dc.lft.to/lastmile_qr_scan"}, "lat": 38.898462333333335, "lon": -77.013761, "fusion_lat": 0.0}, {"is_reserved": 0, "bike_id": "d16ea96ac651aa53e83dd577474f68ab", "type": "electric_scooter", "name": "d16ea96ac651aa53e83dd577474f68ab", "is_disabled": 0, "fusion_lon": 0.0, "rental_uris": {"android": "https://dc.lft.to/lastmile_qr_scan", "ios": "https://dc.lft.to/lastmile_qr_scan"}, "lat": 38.8762945, "lon": -77.00957083333333, "fusion_lat": 0.0}, {"is_reserved": 0, "bike_id": "dd066fbacb117a4998f7837821d1c93c", "type": "electric_scooter", "name": "dd066fbacb117a4998f7837821d1c93c", "is_disabled": 0, "fusion_lon": 0.0, "rental_uris": {"android": "https://dc.lft.to/lastmile_qr_scan", "ios": "https://dc.lft.to/lastmile_qr_scan"}, "lat": 38.901440666666666, "lon": -77.05919266666666, "fusion_lat": 0.0},