{"data": {"bikes": [{"rental_uris": {"android": "https://dc.lft.to/lastmile_qr_scan", "ios": "https://dc.lft.to/lastmile_qr_scan"}, "type": "electric_scooter", "lon": -77.0499455, "name": "157b2e89c453840c433941f2202c1c65", "bike_id": "157b2e89c453840c433941f2202c1c65", "fusion_lat": 0.0, "is_reserved": 0, "lat": 38.9052525, "fusion_lon": 0.0, "is_disabled": 0}, {"rental_uris": {"android": "https://dc.lft.to/lastmile_qr_scan", "ios": "https://dc.lft.to/lastmile_qr_scan"}, "type": "electric_scooter", "lon": -77.07189983333333, "name": "72fd22c00340380268948c98c8f51a94", "bike_id": "72fd22c00340380268948c98c8f51a94", "fusion_lat": 0.0, "is_reserved": 0, "lat": 38.92101066666667, "fusion_lon": 0.0, "is_disabled": 0}, {"rental_uris": {"android": "https://dc.lft.to/lastmile_qr_scan", "ios": "https://dc.lft.to/lastmile_qr_scan"}, "type": "electric_scooter", "lon": -76.99823533333333, "name": "6802d80fe900cdcc6c2c677fcc84667d", "bike_id": "6802d80fe900cdcc6c2c677fcc84667d", "fusion_lat": 0.0, "is_reserved": 0, "lat": 38.907222166666664, "fusion_lon": 0.0, "is_disabled": 0}, {"rental_uris": {"android": "https://dc.lft.to/lastmile_qr_scan", "ios": "https://dc.lft.to/lastmile_qr_scan"}, "type": "electric_bike", "lon": -77.05444166666666, "name": "6cd598349e853bf708490168bae57fe3", "bike_id": "6cd598349e853bf708490168bae57fe3", "fusion_lat": 0.0, "is_reserved": 0, "lat": 38.89604666666666, "fusion_lon": 0.0, "is_disabled": 0}, {"rental_uris": {"android": "https://dc.lft.to/lastmile_qr_scan", "ios": "https://dc.lft.to/lastmile_qr_scan"}, "type": "electric_scooter", "lon": -76.9735, "name": "ff09ed92cfceb72c8de0737be8b3d957", "bike_id": "ff09ed92cfceb72c8de0737be8b3d957", "fusion_lat": 0.0, "is_reserved": 0, "lat": 38.904832, "fusion_lon": 0.0, "is_disabled": 0}, {"rental_uris": {"android": "https://dc.lft.to/lastmile_qr_scan", "ios": "https://dc.lft.to/lastmile_qr_scan"}, "type": "electric_scooter", "lon": -77.0363705, "name": "1e3724ad074eacfdd55fb417e9afc38a", "bike_id": "1e3724ad074eacfdd55fb417e9afc38a", "fusion_lat": 0.0, "is_reserved": 0, "lat": 38.913058, "fusion_lon": 0.0, "is_disabled": 0}, {"rental_uris": {"android": "https://dc.lft.to/lastmile_qr_scan", "ios": "https://dc.lft.to/lastmile_qr_scan"}, "type": "electric_scooter", "lon": -76.98689283333333, "name": "db3d18a17cf7900f51a9ed95372d5ac5", "bike_id": "db3d18a17cf7900f51a9ed95372d5ac5", "fusion_lat": 0.0, "is_reserved": 0, "lat": 38.904909833333335, "fusion_lon": 0.0, "is_disabled": 0}, {"rental_uris": {"android": "https://dc.lft.to/lastmile_qr_scan", "ios": "https://dc.lft.to/lastmile_qr_scan"}, "type": "electric_scooter", "lon": -77.0387195, "name": "bd6ee950ce6298f418a1640b46c65944", "bike_id": "bd6ee950ce6298f418a1640b46c65944", "fusion_lat": 0.0, "is_reserved": 0, "lat": 38.910194833333335, "fusion_lon": 0.0, "is_disabled": 0}, {"rental_uris": {"android": "https://dc.lft.to/lastmile_qr_scan", "ios": "https://dc.lft.to/lastmile_qr_scan"}, "type": "electric_bike", "lon": -76.93543216666667, "name": "d5a3c5b242d6c59cf086c85aad540899", "bike_id": "d5a3c5b242d6c59cf086c85aad540899", "fusion_lat": 0.0, "is_reserved": 0, "lat": 38.95558916666667, "fusion_lon": 0.0, "is_disabled": 0}, {"rental_uris": {"android": "https://dc.lft.to/lastmile_qr_scan", "ios": "https://dc.lft.to/lastmile_qr_scan"}, "type": "electric_bike", "lon": -77.11221233333333, "name": "6c319760f55f1838bcea80518b7cef60", "bike_id": "6c319760f55f1838bcea80518b7cef60", "fusion_lat": 0.0, "is_reserved": 0, "lat": 38.82876, "fusion_lon": 0.0, "is_disabled": 0}, {"rental_uris": {"android": "https://dc.lft.to/lastmile_qr_scan", "ios": "https://dc.lft.to/lastmile_qr_scan"}, "type": "electric_scooter", "lon": -77.00223933333334, "name": "90ac944280848fa034d8381a0ddc5825", "bike_id": "90ac944280848fa034d8381a0ddc5825", "fusion_lat": 0.0, "is_reserved": 0, "lat": 38.87748966666667, "fusion_lon": 0.0, "is_disabled": 0}, {"rental_uris": {"android": "https://dc.lft.to/lastmile_qr_scan", "ios": "https://dc.lft.to/lastmile_qr_scan"}, "type": "electric_bike", "lon": -77.0768575, "name": "56b31c1bb48a75916798e48212f73577", "bike_id": "56b31c1bb48a75916798e48212f73577", "fusion_lat": 0.0, "is_reserved": 0, "lat": 38.831919666666664, "fusion_lon": 0.0, "is_disabled": 0}, {"rental_uris": {"android": "https://dc.lft.to/lastmile_qr_scan", "ios": "https://dc.lft.to/lastmile_qr_scan"}, "type": "electric_scooter", "lon": -77.01097633333333, "name": "ee92620c2a6f210f40d5cc306ca9b3f0", "bike_id": "ee92620c2a6f210f40d5cc306ca9b3f0", "fusion_lat": 0.0, "is_reserved": 0, "lat": 38.905570833333336, "fusion_lon": 0.0, "is_disabled": 0}, {"rental_uris": {"android": "https://dc.lft.to/lastmile_qr_scan", "ios": "https://dc.lft.to/lastmile_qr_scan"}, "type": "electric_scooter", "lon": -77.0010675, "name": "712494ff29c1b7cf46d67fe8404cde85", "bike_id": "712494ff29c1b7cf46d67fe8404cde85", "fusion_lat": 0.0, "is_reserved": 0, "lat": 38.90013366666667, "fusion_lon": 0.0, "is_disabled": 0}, {"rental_uris": {"android": "https://dc.lft.to/lastmile_qr_scan", "ios": "https://dc.lft.to/lastmile_qr_scan"}, "type": "electric_scooter", "lon": -77.02816083333333, "name": "8ca489c358e0b40db0b1de7709fba219", "bike_id": "8ca489c358e0b40db0b1de7709fba219", "fusion_lat": 0.0, "is_reserved": 0, "lat": 38.956149, "fusion_lon": 0.0, "is_disabled": 0}, {"rental_uris": {"android": "https://dc.lft.to/lastmile_qr_scan", "ios": "https://dc.lft.to/lastmile_qr_scan"}, "type": "electric_scooter", "lon": -76.9915995, "name": "29a2f34c4657140196e398f9be1eb61c", "bike_id": "29a2f34c4657140196e398f9be1eb61c", "fusion_lat": 0.0, "is_reserved": 0, "lat": 38.8791815, "fusion_lon": 0.0, "is_disabled": 0}, {"rental_uris": {"android": "https://dc.lft.to/lastmile_qr_scan", "ios": "https://dc.lft.to/lastmile_qr_scan"}, "type": "electric_scooter", "lon": -77.0475025, "name": "5bc23665150ffb0fea2ce037d621ef8b", "bike_id": "5bc23665150ffb0fea2ce037d621ef8b", "fusion_lat": 0.0, "is_reserved": 0, "lat": 38.902495, "fusion_lon": 0.0, "is_disabled": 0}, {"rental_uris": {"android": "https://dc.lft.to/lastmile_qr_scan", "ios": "https://dc.lft.to/lastmile_qr_scan"}, "type": "electric_scooter", "lon": -77.06769333333334, "name": "e57caaf14772b5871e371dae70855d51", "bike_id": "e57caaf14772b5871e371dae70855d51", "fusion_lat": 0.0, "is_reserved": 0, "lat": 38.90365283333333, "fusion_lon": 0.0, "is_disabled": 0}, {"rental_uris": {"android": "https://dc.lft.to/lastmile_qr_scan", "ios": "https://dc.lft.to/lastmile_qr_scan"}, "type": "electric_bike", "lon": -76.98739733333333, "name": "d3746f4739cefe0d73d9d9f4d62354e0", "bike_id": "d3746f4739cefe0d73d9d9f4d62354e0", "fusion_lat": 0.0, "is_reserved": 0, "lat": 38.94432416666667, "fusion_lon": 0.0, "is_disabled": 0}, {"rental_uris": {"android": "https://dc.lft.to/lastmile_qr_scan", "ios": "https://dc.lft.to/lastmile_qr_scan"}, "type": "electric_scooter", "lon": -77.04779416666666, "name": "7716dd90b4630c29fc03cc44a3cd5015", "bike_id": "7716dd90b4630c29fc03cc44a3cd5015", "fusion_lat": 0.0, "is_reserved": 0, "lat": 38.90248166666667, "fusion_lon": 0.0, "is_disabled": 0}, {"rental_uris": {"android": "https://dc.lft.to/lastmile_qr_scan", "ios": "https://dc.lft.to/lastmile_qr_scan"}, "type": "electric_scooter", "lon": -77.0286865, "name": "3258089b5436a457f9330cea9cb9eefc", "bike_id": "3258089b5436a457f9330cea9cb9eefc", "fusion_lat": 0.0, "is_reserved": 0, "lat": 38.90055266666667, "fusion_lon": 0.0, "is_disabled": 0}, {"rental_uris": {"android": "https://dc.lft.to/lastmile_qr_scan", "ios": "https://dc.lft.to/lastmile_qr_scan"}, "type": "electric_scooter", "lon": -77.04345716666667, "name": "9385aa1f014b76ea83faef9e358e2ccd", "bike_id": "9385aa1f014b76ea83faef9e358e2ccd", "fusion_lat": 0.0, "is_reserved": 0, "lat": 38.89666283333333, "fusion_lon": 0.0, "is_disabled": 0}, {"rental_uris": {"android": "https://dc.lft.to/lastmile_qr_scan", "ios": "https://dc.lft.to/lastmile_qr_scan"}, "type": "electric_scooter", "lon": -77.02428783333333, "name": "a1e0aa45cae771400c635dd2b5f45f41", "bike_id": "a1e0aa45cae771400c635dd2b5f45f41", "fusion_lat": 0.0, "is_reserved": 0, "lat": 38.892273833333334, "fusion_lon": 0.0, "is_disabled": 0}, {"rental_uris": {"android": "https://dc.lft.to/lastmile_qr_scan", "ios": "https://dc.lft.to/lastmile_qr_scan"}, "type": "electric_scooter", "lon": -77.07865783333334, "name": "6b20b74eec628326c2532e6fb64a3a07", "bike_id": "6b20b74eec628326c2532e6fb64a3a07", "fusion_lat": 0.0, "is_reserved": 0, "lat": 38.924600833333336, "fusion_lon": 0.0, "is_disabled": 0}, {"rental_uris": {"android": "https://dc.lft.to/lastmile_qr_scan", "ios": "https://dc.lft.to/lastmile_qr_scan"}, "type": "electric_scooter", "lon": -77.0412735, "name": "724ca6374489b8637a76cd70a648f8d7", "bike_id": "724ca6374489b8637a76cd70a648f8d7", "fusion_lat": 0.0, "is_reserved": 0, "lat": 38.91634483333333, "fusion_lon": 0.0, "is_disabled": 0}, {"rental_uris": {"android": "https://dc.lft.to/lastmile_qr_scan", "ios": "https://dc.lft.to/lastmile_qr_scan"}, "type": "electric_scooter", "lon": -77.01561316666667, "name": "6e3949a9d8231105c2b991fc3bbeeefc", "bike_id": "6e3949a9d8231105c2b991fc3bbeeefc", "fusion_lat": 0.0, "is_reserved": 0, "lat": 38.914652333333336, "fusion_lon": 0.0, "is_disabled": 0}, {"rental_uris": {"android": "https://dc.lft.to/lastmile_qr_scan", "ios": "https://dc.lft.to/lastmile_qr_scan"}, "type": "electric_scooter", "lon": -77.038808, "name": "3ce7e53aca7e02a5deb431e1c4c861cb", "bike_id": "3ce7e53aca7e02a5deb431e1c4c861cb", "fusion_lat": 0.0, "is_reserved": 0, "lat": 38.9326165, "fusion_lon": 0.0, "is_disabled": 0}, {"rental_uris": {"android": "https://dc.lft.to/lastmile_qr_scan", "ios": "https://dc.lft.to/lastmile_qr_scan"}, "type": "electric_scooter", "lon": -76.98486166666666, "name": "f6e2f8825f46dfa91584f243a44fc327", "bike_id": "f6e2f8825f46dfa91584f243a44fc327", "fusion_lat": 0.0, "is_reserved": 0, "lat": 38.900398333333335, "fusion_lon": 0.0, "is_disabled": 0}, {"rental_uris": {"android": "https://dc.lft.to/lastmile_qr_scan", "ios": "https://dc.lft.to/lastmile_qr_scan"}, "type": "electric_bike", "lon": -77.1226655, "name": "cf8c34fd8a37a68567be927b02d5a76f", "bike_id": "cf8c34fd8a37a68567be927b02d5a76f", "fusion_lat": 0.0, "is_reserved": 0, "lat": 38.891897666666665, "fusion_lon": 0.0, "is_disabled": 0}, {"rental_uris": {"android": "https://dc.lft.to/lastmile_qr_scan", "ios": "https://dc.lft.to/lastmile_qr_scan"}, "type": "electric_scooter", "lon": -77.02152616666666, "name": "11c6e1e6f4ccaedd6a207e50e10cedb1", "bike_id": "11c6e1e6f4ccaedd6a207e50e10cedb1", "fusion_lat": 0.0, "is_reserved": 0, "lat": 38.879254, "fusion_lon": 0.0, "is_disabled": 0}, {"rental_uris": {"android": "https://dc.lft.to/lastmile_qr_scan", "ios": "https://dc.lft.to/lastmile_qr_scan"}, "type": "electric_scooter", "lon": -77.02036433333333, "name": "0f58cd338983600de22a6d2323aa9e82", "bike_id": "0f58cd338983600de22a6d2323aa9e82", "fusion_lat": 0.0, "is_reserved": 0, "lat": 38.8927115, "fusion_lon": 0.0, "is_disabled": 0}, {"rental_uris": {"android": "https://dc.lft.to/lastmile_qr_scan", "ios": "https://dc.lft.to/lastmile_qr_scan"}, "type": "electric_scooter", "lon": -76.98464416666667, "name": "04aa6416f7f77b1e855bce8e3f613b66", "bike_id": "04aa6416f7f77b1e855bce8e3f613b66", "fusion_lat": 0.0, "is_reserved": 0, "lat": 38.89368316666667, "fusion_lon": 0.0, "is_disabled": 0}, {"rental_uris": {"android": "https://dc.lft.to/lastmile_qr_scan", "ios": "https://dc.lft.to/lastmile_qr_scan"}, "type": "electric_scooter", "lon": -77.037428, "name": "5f195aaf2afdb551922d3fbf3ed92e66", "bike_id": "5f195aaf2afdb551922d3fbf3ed92e66", "fusion_lat": 0.0, "is_reserved": 0, "lat": 38.902543, "fusion_lon": 0.0, "is_disabled": 0}, {"rental_uris": {"android": "https://dc.lft.to/lastmile_qr_scan", "ios": "https://dc.lft.to/lastmile_qr_scan"}, "type": "electric_bike", "lon": -76.94795583333334, "name": "8ff8a50a0e946f58d318f1afb3880330", "bike_id": "8ff8a50a0e946f58d318f1afb3880330", "fusion_lat": 0.0, "is_reserved": 0, "lat": 38.8964125, "fusion_lon": 0.0, "is_disabled": 0}, {"rental_uris": {"android": "https://dc.lft.to/lastmile_qr_scan", "ios": "https://dc.lft.to/lastmile_qr_scan"}, "type": "electric_scooter", "lon": -77.050122, "name": "b41a13c82e46ef4b3c41f8e123b5b8d9", "bike_id": "b41a13c82e46ef4b3c41f8e123b5b8d9", "fusion_lat": 0.0, "is_reserved": 0, "lat": 38.9007535, "fusion_lon": 0.0, "is_disabled": 0}, {"rental_uris": {"android": "https://dc.lft.to/lastmile_qr_scan", "ios": "https://dc.lft.to/lastmile_qr_scan"}, "type": "electric_scooter", "lon": -77.03637583333334, "name": "c578d834d9dac6574a69a4be4438aeb8", "bike_id": "c578d834d9dac6574a69a4be4438aeb8", "fusion_lat": 0.0, "is_reserved": 0, "lat": 38.902592166666665, "fusion_lon": 0.0, "is_disabled": 0}, {"rental_uris": {"android": "https://dc.lft.to/lastmile_qr_scan", "ios": "https://dc.lft.to/lastmile_qr_scan"}, "type": "electric_scooter", "lon": -77.01219133333333, "name": "5934010f9d5110b9ecf26792247925e9", "bike_id": "5934010f9d5110b9ecf26792247925e9", "fusion_lat": 0.0, "is_reserved": 0, "lat": 38.918169166666665, "fusion_lon": 0.0, "is_disabled": 0}, {"rental_uris": {"android": "https://dc.lft.to/lastmile_qr_scan", "ios": "https://dc.lft.to/lastmile_qr_scan"}, "type": "electric_scooter", "lon": -77.01901916666667, "name": "e1d3f4f59fd217e8ef59721c46fc93ca", "bike_id": "e1d3f4f59fd217e8ef59721c46fc93ca", "fusion_lat": 0.0, "is_reserved": 0, "lat": 38.93916266666667, "fusion_lon": 0.0, "is_disabled": 0}, {"rental_uris": {"android": "https://dc.lft.to/lastmile_qr_scan", "ios": "https://dc.lft.to/lastmile_qr_scan"}, "type": "electric_scooter", "lon": -76.99079333333333, "name": "2119274fe728c2b28b7251dc841fc15c", "bike_id": "2119274fe728c2b28b7251dc841fc15c", "fusion_lat": 0.0, "is_reserved": 0, "lat": 38.842844, "fusion_lon": 0.0, "is_disabled": 0}, {"rental_uris": {"android": "https://dc.lft.to/lastmile_qr_scan", "ios": "https://dc.lft.to/lastmile_qr_scan"}, "type": "electric_scooter", "lon": -76.9702245, "name": "192d01010add1f47ddfabb70310dacf0", "bike_id": "192d01010add1f47ddfabb70310dacf0", "fusion_lat": 0.0, "is_reserved": 0, "lat": 38.920319166666665, "fusion_lon": 0.0, "is_disabled": 0}, {"rental_uris": {"android": "https://dc.lft.to/lastmile_qr_scan", "ios": "https://dc.lft.to/lastmile_qr_scan"}, "type": "electric_scooter", "lon": -77.02737516666667, "name": "51b92a897ceb817ef8f0b246b5cddfdf", "bike_id": "51b92a897ceb817ef8f0b246b5cddfdf", "fusion_lat": 0.0, "is_reserved": 0, "lat": 38.92874333333334, "fusion_lon": 0.0, "is_disabled": 0}, {"rental_uris": {"android": "https://dc.lft.to/lastmile_qr_scan", "ios": "https://dc.lft.to/lastmile_qr_scan"}, "type": "electric_scooter", "lon": -77.03126033333334, "name": "a162fa7bb9d47282c8e6d9ba7fade4ff", "bike_id": "a162fa7bb9d47282c8e6d9ba7fade4ff", "fusion_lat": 0.0, "is_reserved": 0, "lat": 38.97376216666667, "fusion_lon": 0.0, "is_disabled": 0}, {"rental_uris": {"android": "https://dc.lft.to/lastmile_qr_scan", "ios": "https://dc.lft.to/lastmile_qr_scan"}, "type": "electric_bike", "lon": -77.09158716666667, "name": "ba7616aaeca431e83b55f77375a25adb", "bike_id": "ba7616aaeca431e83b55f77375a25adb", "fusion_lat": 0.0, "is_reserved": 0, "lat": 38.96759133333333, "fusion_lon": 0.0, "is_disabled": 0}, {"rental_uris": {"android": "https://dc.lft.to/lastmile_qr_scan", "ios": "https://dc.lft.to/lastmile_qr_scan"}, "type": "electric_scooter", "lon": -77.0465985, "name": "2bf4ddb3c2b33f139798619bdba0e45b", "bike_id": "2bf4ddb3c2b33f139798619bdba0e45b", "fusion_lat": 0.0, "is_reserved": 0, "lat": 38.89298183333333, "fusion_lon": 0.0, "is_disabled": 0}, {"rental_uris": {"android": "https://dc.lft.to/lastmile_qr_scan", "ios": "https://dc.lft.to/lastmile_qr_scan"}, "type": "electric_scooter", "lon": -77.04049733333333, "name": "b6577e19863722f6e6b8c802d85d2de5", "bike_id": "b6577e19863722f6e6b8c802d85d2de5", "fusion_lat": 0.0, "is_reserved": 0, "lat": 38.9287965, "fusion_lon": 0.0, "is_disabled": 0}, {"rental_uris": {"android": "https://dc.lft.to/lastmile_qr_scan", "ios": "https://dc.lft.to/lastmile_qr_scan"}, "type": "electric_scooter", "lon": -77.032308, "name": "b423bc433b3ec1f597712b8d9d063db6", "bike_id": "b423bc433b3ec1f597712b8d9d063db6", "fusion_lat": 0.0, "is_reserved": 0, "lat": 38.918600166666664, "fusion_lon": 0.0, "is_disabled": 0}, {"rental_uris": {"android": "https://dc.lft.to/lastmile_qr_scan", "ios": "https://dc.lft.to/lastmile_qr_scan"}, "type": "electric_bike", "lon": -77.0504335, "name": "7f0e25dc1ebd1615a8e8990232834441", "bike_id": "7f0e25dc1ebd1615a8e8990232834441", "fusion_lat": 0.0, "is_reserved": 0, "lat": 38.911141666666666, "fusion_lon": 0.0, "is_disabled": 0}, {"rental_uris": {"android": "https://dc.lft.to/lastmile_qr_scan", "ios": "https://dc.lft.to/lastmile_qr_scan"}, "type": "electric_scooter", "lon": -77.0322745, "name": "9f09c494183495da8c85a70a5882919a", "bike_id": "9f09c494183495da8c85a70a5882919a", "fusion_lat": 0.0, "is_reserved": 0, "lat": 38.929979833333334, "fusion_lon": 0.0, "is_disabled": 0}, {"rental_uris": {"android": "https://dc.lft.to/lastmile_qr_scan", "ios": "https://dc.lft.to/lastmile_qr_scan"}, "type": "electric_scooter", "lon": -77.04409783333334, "name": "ff3f48499d3e063b0d50d5fac05c4a3d", "bike_id": "ff3f48499d3e063b0d50d5fac05c4a3d", "fusion_lat": 0.0, "is_reserved": 0, "lat": 38.87432, "fusion_lon": 0.0, "is_disabled": 0}, {"rental_uris": {"android": "https://dc.lft.to/lastmile_qr_scan", "ios": "https://dc.lft.to/lastmile_qr_scan"}, "type": "electric_scooter", "lon": -76.9692295, "name": "ee4ac0576a48d8216cac876b887d42e3", "bike_id": "ee4ac0576a48d8216cac876b887d42e3", "fusion_lat": 0.0, "is_reserved": 0, "lat": 38.855258, "fusion_lon": 0.0, "is_disabled": 0}, {"rental_uris": {"android": "https://dc.lft.to/lastmile_qr_scan", "ios": "https://dc.lft.to/lastmile_qr_scan"}, "type": "electric_scooter", "lon": -77.02187666666667, "name": "abed1efc0e5a9c4c29467ec07993c914", "bike_id": "abed1efc0e5a9c4c29467ec07993c914", "fusion_lat": 0.0, "is_reserved": 0, "lat": 38.91418816666667, "fusion_lon": 0.0, "is_disabled": 0}, {"rental_uris": {"android": "https://dc.lft.to/lastmile_qr_scan", "ios": "https://dc.lft.to/lastmile_qr_scan"}, "type": "electric_scooter", "lon": -77.03698633333333, "name": "1f45260f030008ae930c5f745460ab1a", "bike_id": "1f45260f030008ae930c5f745460ab1a", "fusion_lat": 0.0, "is_reserved": 0, "lat": 38.92719533333333, "fusion_lon": 0.0, "is_disabled": 0}, {"rental_uris": {"android": "https://dc.lft.to/lastmile_qr_scan", "ios": "https://dc.lft.to/lastmile_qr_scan"}, "type": "electric_scooter", "lon": -77.03482533333333, "name": "19c0386635612a0a12aebd5c84cc9c4d", "bike_id": "19c0386635612a0a12aebd5c84cc9c4d", "fusion_lat": 0.0, "is_reserved": 0, "lat": 38.92480166666667, "fusion_lon": 0.0, "is_disabled": 0}, {"rental_uris": {"android": "https://dc.lft.to/lastmile_qr_scan", "ios": "https://dc.lft.to/lastmile_qr_scan"}, "type": "electric_scooter", "lon": -77.0140125, "name": "f574afd59a22f55a95a3ad1a33629cf4", "bike_id": "f574afd59a22f55a95a3ad1a33629cf4", "fusion_lat": 0.0, "is_reserved": 0, "lat": 38.8802905, "fusion_lon": 0.0, "is_disabled": 0}, {"rental_uris": {"android": "https://dc.lft.to/lastmile_qr_scan", "ios": "https://dc.lft.to/lastmile_qr_scan"}, "type": "electric_scooter", "lon": -76.98244566666666, "name": "fdc7912dd5c2ab7ab4b5763acf32515e", "bike_id": "fdc7912dd5c2ab7ab4b5763acf32515e", "fusion_lat": 0.0, "is_reserved": 0, "lat": 38.90309666666667, "fusion_lon": 0.0, "is_disabled": 0}, {"rental_uris": {"android": "https://dc.lft.to/lastmile_qr_scan", "ios": "https://dc.lft.to/lastmile_qr_scan"}, "type": "electric_scooter", "lon": -77.03447233333333, "name": "316604e80971e1eb5c15ee8d085a1f62", "bike_id": "316604e80971e1eb5c15ee8d085a1f62", "fusion_lat": 0.0, "is_reserved": 0, "lat": 38.928643666666666, "fusion_lon": 0.0, "is_disabled": 0}, {"rental_uris": {"android": "https://dc.lft.to/lastmile_qr_scan", "ios": "https://dc.lft.to/lastmile_qr_scan"}, "type": "electric_scooter", "lon": -77.01681216666667, "name": "0986a33d56874c362a3d496b1e9c19d7", "bike_id": "0986a33d56874c362a3d496b1e9c19d7", "fusion_lat": 0.0, "is_reserved": 0, "lat": 38.88343366666667, "fusion_lon": 0.0, "is_disabled": 0}, {"rental_uris": {"android": "https://dc.lft.to/lastmile_qr_scan", "ios": "https://dc.lft.to/lastmile_qr_scan"}, "type": "electric_bike", "lon": -77.0696405, "name": "c6fa3ec57da07a14a5cd7e10c060ad70", "bike_id": "c6fa3ec57da07a14a5cd7e10c060ad70", "fusion_lat": 0.0, "is_reserved": 0, "lat": 38.990451, "fusion_lon": 0.0, "is_disabled": 0}, {"rental_uris": {"android": "https://dc.lft.to/lastmile_qr_scan", "ios": "https://dc.lft.to/lastmile_qr_scan"}, "type": "electric_scooter", "lon": -77.01741516666667, "name": "ed99419a14b93d6e534343ca6c09c3b5", "bike_id": "ed99419a14b93d6e534343ca6c09c3b5", "fusion_lat": 0.0, "is_reserved": 0, "lat": 38.90250016666667, "fusion_lon": 0.0, "is_disabled": 0}, {"rental_uris": {"android": "https://dc.lft.to/lastmile_qr_scan", "ios": "https://dc.lft.to/lastmile_qr_scan"}, "type": "electric_scooter", "lon": -77.0420245, "name": "739c83cd700e3ba31636231026bb5141", "bike_id": "739c83cd700e3ba31636231026bb5141", "fusion_lat": 0.0, "is_reserved": 0, "lat": 38.89224383333333, "fusion_lon": 0.0, "is_disabled": 0}, {"rental_uris": {"android": "https://dc.lft.to/lastmile_qr_scan", "ios": "https://dc.lft.to/lastmile_qr_scan"}, "type": "electric_scooter", "lon": -77.028093, "name": "31326fe132a2fb7aaf6b19104748c885", "bike_id": "31326fe132a2fb7aaf6b19104748c885", "fusion_lat": 0.0, "is_reserved": 0, "lat": 38.931542, "fusion_lon": 0.0, "is_disabled": 0}, {"rental_uris": {"android": "https://dc.lft.to/lastmile_qr_scan", "ios": "https://dc.lft.to/lastmile_qr_scan"}, "type": "electric_scooter", "lon": -76.93789833333334, "name": "03a4145ef4b7f12972a1d992e37681da", "bike_id": "03a4145ef4b7f12972a1d992e37681da", "fusion_lat": 0.0, "is_reserved": 0, "lat": 38.89970983333333, "fusion_lon": 0.0, "is_disabled": 0}, {"rental_uris": {"android": "https://dc.lft.to/lastmile_qr_scan", "ios": "https://dc.lft.to/lastmile_qr_scan"}, "type": "electric_scooter", "lon": -77.03832016666667, "name": "ed5ef3c5e3f16866f5119b2812549800", "bike_id": "ed5ef3c5e3f16866f5119b2812549800", "fusion_lat": 0.0, "is_reserved": 0, "lat": 38.90346533333334, "fusion_lon": 0.0, "is_disabled": 0}, {"rental_uris": {"android": "https://dc.lft.to/lastmile_qr_scan", "ios": "https://dc.lft.to/lastmile_qr_scan"}, "type": "electric_scooter", "lon": -76.99032383333333, "name": "02a42f912eef75b8fb6b095bc1489779", "bike_id": "02a42f912eef75b8fb6b095bc1489779", "fusion_lat": 0.0, "is_reserved": 0, "lat": 38.86406233333334, "fusion_lon": 0.0, "is_disabled": 0}, {"rental_uris": {"android": "https://dc.lft.to/lastmile_qr_scan", "ios": "https://dc.lft.to/lastmile_qr_scan"}, "type": "electric_scooter", "lon": -77.0709115, "name": "306abc117e8569fd7a17d56d39a45cc6", "bike_id": "306abc117e8569fd7a17d56d39a45cc6", "fusion_lat": 0.0, "is_reserved": 0, "lat": 38.93904283333333, "fusion_lon": 0.0, "is_disabled": 0}, {"rental_uris": {"android": "https://dc.lft.to/lastmile_qr_scan", "ios": "https://dc.lft.to/lastmile_qr_scan"}, "type": "electric_scooter", "lon": -77.00818383333333, "name": "d7eb9eab6bfa53fbce0f8089928b6673", "bike_id": "d7eb9eab6bfa53fbce0f8089928b6673", "fusion_lat": 0.0, "is_reserved": 0, "lat": 38.876536333333334, "fusion_lon": 0.0, "is_disabled": 0}, {"rental_uris": {"android": "https://dc.lft.to/lastmile_qr_scan", "ios": "https://dc.lft.to/lastmile_qr_scan"}, "type": "electric_scooter", "lon": -77.00538316666666, "name": "04c9f7bba28e1153ddd00382441945f2", "bike_id": "04c9f7bba28e1153ddd00382441945f2", "fusion_lat": 0.0, "is_reserved": 0, "lat": 38.880419833333335, "fusion_lon": 0.0, "is_disabled": 0}, {"rental_uris": {"android": "https://dc.lft.to/lastmile_qr_scan", "ios": "https://dc.lft.to/lastmile_qr_scan"}, "type": "electric_scooter", "lon": -76.975215, "name": "c28ad3192bc749c17537bd3c61e9712f", "bike_id": "c28ad3192bc749c17537bd3c61e9712f", "fusion_lat": 0.0, "is_reserved": 0, "lat": 38.8937, "fusion_lon": 0.0, "is_disabled": 0}, {"rental_uris": {"android": "https://dc.lft.to/lastmile_qr_scan", "ios": "https://dc.lft.to/lastmile_qr_scan"}, "type": "electric_scooter", "lon": -77.04510183333333, "name": "b648d7b5191b6676805ff79ee4354275", "bike_id": "b648d7b5191b6676805ff79ee4354275", "fusion_lat": 0.0, "is_reserved": 0, "lat": 38.8922135, "fusion_lon": 0.0, "is_disabled": 0}, {"rental_uris": {"android": "https://dc.lft.to/lastmile_qr_scan", "ios": "https://dc.lft.to/lastmile_qr_scan"}, "type": "electric_scooter", "lon": -77.00883866666666, "name": "c58f6a8e4917dcd94ec48ec520129639", "bike_id": "c58f6a8e4917dcd94ec48ec520129639", "fusion_lat": 0.0, "is_reserved": 0, "lat": 38.87631066666667, "fusion_lon": 0.0, "is_disabled": 0}, {"rental_uris": {"android": "https://dc.lft.to/lastmile_qr_scan", "ios": "https://dc.lft.to/lastmile_qr_scan"}, "type": "electric_scooter", "lon": -77.031081, "name": "23f1cdf6c9b244941d81c056b89cc24a", "bike_id": "23f1cdf6c9b244941d81c056b89cc24a", "fusion_lat": 0.0, "is_reserved": 0, "lat": 38.892209333333334, "fusion_lon": 0.0, "is_disabled": 0}, {"rental_uris": {"android": "https://dc.lft.to/lastmile_qr_scan", "ios": "https://dc.lft.to/lastmile_qr_scan"}, "type": "electric_bike", "lon": -76.957615, "name": "f57bb07eed60defe8c27c8f7561d62a9", "bike_id": "f57bb07eed60defe8c27c8f7561d62a9", "fusion_lat": 0.0, "is_reserved": 0, "lat": 38.894167333333336, "fusion_lon": 0.0, "is_disabled": 0}, {"rental_uris": {"android": "https://dc.lft.to/lastmile_qr_scan", "ios": "https://dc.lft.to/lastmile_qr_scan"}, "type": "electric_scooter", "lon": -77.01206583333334, "name": "35d758e471963874296a9ae2bef0b568", "bike_id": "35d758e471963874296a9ae2bef0b568", "fusion_lat": 0.0, "is_reserved": 0, "lat": 38.8714745, "fusion_lon": 0.0, "is_disabled": 0}, {"rental_uris": {"android": "https://dc.lft.to/lastmile_qr_scan", "ios": "https://dc.lft.to/lastmile_qr_scan"}, "type": "electric_scooter", "lon": -77.03482033333333, "name": "6d26c058eac1036c4491a123a7921d83", "bike_id": "6d26c058eac1036c4491a123a7921d83", "fusion_lat": 0.0, "is_reserved": 0, "lat": 38.90258733333334, "fusion_lon": 0.0, "is_disabled": 0}, {"rental_uris": {"android": "https://dc.lft.to/lastmile_qr_scan", "ios": "https://dc.lft.to/lastmile_qr_scan"}, "type": "electric_scooter", "lon": -77.04691233333334, "name": "20eb8ab6fea4cf6a8321ed3b6bfa2636", "bike_id": "20eb8ab6fea4cf6a8321ed3b6bfa2636", "fusion_lat": 0.0, "is_reserved": 0, "lat": 38.915724166666664, "fusion_lon": 0.0, "is_disabled": 0}, {"rental_uris": {"android": "https://dc.lft.to/lastmile_qr_scan", "ios": "https://dc.lft.to/lastmile_qr_scan"}, "type": "electric_scooter", "lon": -77.02600166666667, "name": "20512da0743aab61c0ce9ce06b2b4ee2", "bike_id": "20512da0743aab61c0ce9ce06b2b4ee2", "fusion_lat": 0.0, "is_reserved": 0, "lat": 38.89714566666667, "fusion_lon": 0.0, "is_disabled": 0}, {"rental_uris": {"android": "https://dc.lft.to/lastmile_qr_scan", "ios": "https://dc.lft.to/lastmile_qr_scan"}, "type": "electric_scooter", "lon": -77.03065316666667, "name": "864e60bf644a41c7bc660fb84039c6c4", "bike_id": "864e60bf644a41c7bc660fb84039c6c4", "fusion_lat": 0.0, "is_reserved": 0, "lat": 38.880457, "fusion_lon": 0.0, "is_disabled": 0}, {"rental_uris": {"android": "https://dc.lft.to/lastmile_qr_scan", "ios": "https://dc.lft.to/lastmile_qr_scan"}, "type": "electric_scooter", "lon": -77.03936983333334, "name": "7a3fe27adcf7416fdf9e1762c114ead3", "bike_id": "7a3fe27adcf7416fdf9e1762c114ead3", "fusion_lat": 0.0, "is_reserved": 0, "lat": 38.9245945, "fusion_lon": 0.0, "is_disabled": 0}, {"rental_uris": {"android": "https://dc.lft.to/lastmile_qr_scan", "ios": "https://dc.lft.to/lastmile_qr_scan"}, "type": "electric_scooter", "lon": -76.92960116666667, "name": "6ca6c550edc93b2bc81dd6284be8d686", "bike_id": "6ca6c550edc93b2bc81dd6284be8d686", "fusion_lat": 0.0, "is_reserved": 0, "lat": 38.898795666666665, "fusion_lon": 0.0, "is_disabled": 0}, {"rental_uris": {"android": "https://dc.lft.to/lastmile_qr_scan", "ios": "https://dc.lft.to/lastmile_qr_scan"}, "type": "electric_scooter", "lon": -77.02775483333333, "name": "2d9c028d1cfb88c8612687faa061a936", "bike_id": "2d9c028d1cfb88c8612687faa061a936", "fusion_lat": 0.0, "is_reserved": 0, "lat": 38.881576333333335, "fusion_lon": 0.0, "is_disabled": 0}, {"rental_uris": {"android": "https://dc.lft.to/lastmile_qr_scan", "ios": "https://dc.lft.to/lastmile_qr_scan"}, "type": "electric_scooter", "lon": -76.9915675, "name": "1caca253e5597843b6e94f534265e9d2", "bike_id": "1caca253e5597843b6e94f534265e9d2", "fusion_lat": 0.0, "is_reserved": 0, "lat": 38.879108, "fusion_lon": 0.0, "is_disabled": 0}, {"rental_uris": {"android": "https://dc.lft.to/lastmile_qr_scan", "ios": "https://dc.lft.to/lastmile_qr_scan"}, "type": "electric_bike", "lon": -77.131719, "name": "274ef4543ce59546b863899da91f1690", "bike_id": "274ef4543ce59546b863899da91f1690", "fusion_lat": 0.0, "is_reserved": 0, "lat": 38.86909266666667, "fusion_lon": 0.0, "is_disabled": 0}, {"rental_uris": {"android": "https://dc.lft.to/lastmile_qr_scan", "ios": "https://dc.lft.to/lastmile_qr_scan"}, "type": "electric_scooter", "lon": -77.01210816666666, "name": "5bd8274d98c202f7a94ff62b23cfc99d", "bike_id": "5bd8274d98c202f7a94ff62b23cfc99d", "fusion_lat": 0.0, "is_reserved": 0, "lat": 38.893306333333335, "fusion_lon": 0.0, "is_disabled": 0}, {"rental_uris": {"android": "https://dc.lft.to/lastmile_qr_scan", "ios": "https://dc.lft.to/lastmile_qr_scan"}, "type": "electric_bike", "lon": -76.99768233333333, "name": "5685d84048c7cf8a6cc90ded51781009", "bike_id": "5685d84048c7cf8a6cc90ded51781009", "fusion_lat": 0.0, "is_reserved": 0, "lat": 39.005953833333336, "fusion_lon": 0.0, "is_disabled": 0}, {"rental_uris": {"android": "https://dc.lft.to/lastmile_qr_scan", "ios": "https://dc.lft.to/lastmile_qr_scan"}, "type": "electric_scooter", "lon": -77.0341715, "name": "f1b84a640a9f207005631627b678a04a", "bike_id": "f1b84a640a9f207005631627b678a04a", "fusion_lat": 0.0, "is_reserved": 0, "lat": 38.92944766666667, "fusion_lon": 0.0, "is_disabled": 0}, {"rental_uris": {"android": "https://dc.lft.to/lastmile_qr_scan", "ios": "https://dc.lft.to/lastmile_qr_scan"}, "type": "electric_scooter", "lon": -77.02608366666666, "name": "e63763085c27219e54bf3dfc1c265450", "bike_id": "e63763085c27219e54bf3dfc1c265450", "fusion_lat": 0.0, "is_reserved": 0, "lat": 38.917033833333335, "fusion_lon": 0.0, "is_disabled": 0}, {"rental_uris": {"android": "https://dc.lft.to/lastmile_qr_scan", "ios": "https://dc.lft.to/lastmile_qr_scan"}, "type": "electric_scooter", "lon": -77.03868083333333, "name": "cfe66eb5b0944a77d6f589bca8ba42ee", "bike_id": "cfe66eb5b0944a77d6f589bca8ba42ee", "fusion_lat": 0.0, "is_reserved": 0, "lat": 38.91109433333333, "fusion_lon": 0.0, "is_disabled": 0}, {"rental_uris": {"android": "https://dc.lft.to/lastmile_qr_scan", "ios": "https://dc.lft.to/lastmile_qr_scan"}, "type": "electric_scooter", "lon": -76.99902516666667, "name": "4c95f1a0169ec718e6553eb2ed50f4b8", "bike_id": "4c95f1a0169ec718e6553eb2ed50f4b8", "fusion_lat": 0.0, "is_reserved": 0, "lat": 38.90035866666667, "fusion_lon": 0.0, "is_disabled": 0}, {"rental_uris": {"android": "https://dc.lft.to/lastmile_qr_scan", "ios": "https://dc.lft.to/lastmile_qr_scan"}, "type": "electric_bike", "lon": -77.09577816666666, "name": "024cdf8c9898a36a3a5b006f54bca13a", "bike_id": "024cdf8c9898a36a3a5b006f54bca13a", "fusion_lat": 0.0, "is_reserved": 0, "lat": 38.985538166666664, "fusion_lon": 0.0, "is_disabled": 0}, {"rental_uris": {"android": "https://dc.lft.to/lastmile_qr_scan", "ios": "https://dc.lft.to/lastmile_qr_scan"}, "type": "electric_scooter", "lon": -77.03760716666666, "name": "a7cce56678d4465c14293584109bb5a5", "bike_id": "a7cce56678d4465c14293584109bb5a5", "fusion_lat": 0.0, "is_reserved": 0, "lat": 38.924864666666664, "fusion_lon": 0.0, "is_disabled": 0}, {"rental_uris": {"android": "https://dc.lft.to/lastmile_qr_scan", "ios": "https://dc.lft.to/lastmile_qr_scan"}, "type": "electric_scooter", "lon": -77.02815266666667, "name": "a9b0841208585e60696f9b8a1dea9147", "bike_id": "a9b0841208585e60696f9b8a1dea9147", "fusion_lat": 0.0, "is_reserved": 0, "lat": 38.906259666666664, "fusion_lon": 0.0, "is_disabled": 0}, {"rental_uris": {"android": "https://dc.lft.to/lastmile_qr_scan", "ios": "https://dc.lft.to/lastmile_qr_scan"}, "type": "electric_scooter", "lon": -77.02695783333333, "name": "4f9a469aa3c69fbd1bf56ec9ca9d5a47", "bike_id": "4f9a469aa3c69fbd1bf56ec9ca9d5a47", "fusion_lat": 0.0, "is_reserved": 0, "lat": 38.91268433333333, "fusion_lon": 0.0, "is_disabled": 0}, {"rental_uris": {"android": "https://dc.lft.to/lastmile_qr_scan", "ios": "https://dc.lft.to/lastmile_qr_scan"}, "type": "electric_scooter", "lon": -77.05306733333333, "name": "ac6a1f38d8474af769237306498d6c4f", "bike_id": "ac6a1f38d8474af769237306498d6c4f", "fusion_lat": 0.0, "is_reserved": 0, "lat": 38.9169355, "fusion_lon": 0.0, "is_disabled": 0}, {"rental_uris": {"android": "https://dc.lft.to/lastmile_qr_scan", "ios": "https://dc.lft.to/lastmile_qr_scan"}, "type": "electric_scooter", "lon": -77.02395466666667, "name": "6ab2f5d696c7920997132e74299da5ef", "bike_id": "6ab2f5d696c7920997132e74299da5ef", "fusion_lat": 0.0, "is_reserved": 0, "lat": 38.89891016666667, "fusion_lon": 0.0, "is_disabled": 0}, {"rental_uris": {"android": "https://dc.lft.to/lastmile_qr_scan", "ios": "https://dc.lft.to/lastmile_qr_scan"}, "type": "electric_scooter", "lon": -77.03169983333333, "name": "ddc9bffee238beb21a4e69c6d0053147", "bike_id": "ddc9bffee238beb21a4e69c6d0053147", "fusion_lat": 0.0, "is_reserved": 0, "lat": 38.9181315, "fusion_lon": 0.0, "is_disabled": 0}, {"rental_uris": {"android": "https://dc.lft.to/lastmile_qr_scan", "ios": "https://dc.lft.to/lastmile_qr_scan"}, "type": "electric_scooter", "lon": -77.03149733333333, "name": "6294bd195390fd80a8418107ad9b0b9c", "bike_id": "6294bd195390fd80a8418107ad9b0b9c", "fusion_lat": 0.0, "is_reserved": 0, "lat": 38.912690833333336, "fusion_lon": 0.0, "is_disabled": 0}, {"rental_uris": {"android": "https://dc.lft.to/lastmile_qr_scan", "ios": "https://dc.lft.to/lastmile_qr_scan"}, "type": "electric_bike", "lon": -77.01626066666667, "name": "ca03a2e35ac6d65b798371dfc91719a7", "bike_id": "ca03a2e35ac6d65b798371dfc91719a7", "fusion_lat": 0.0, "is_reserved": 0, "lat": 38.990873666666666, "fusion_lon": 0.0, "is_disabled": 0}, {"rental_uris": {"android": "https://dc.lft.to/lastmile_qr_scan", "ios": "https://dc.lft.to/lastmile_qr_scan"}, "type": "electric_scooter", "lon": -77.048373, "name": "cdffd90ea5b9fb980359b210470f85e9", "bike_id": "cdffd90ea5b9fb980359b210470f85e9", "fusion_lat": 0.0, "is_reserved": 0, "lat": 38.911430333333335, "fusion_lon": 0.0, "is_disabled": 0}, {"rental_uris": {"android": "https://dc.lft.to/lastmile_qr_scan", "ios": "https://dc.lft.to/lastmile_qr_scan"}, "type": "electric_scooter", "lon": -77.0381565, "name": "76095758522e84cd81da54328abb56ef", "bike_id": "76095758522e84cd81da54328abb56ef", "fusion_lat": 0.0, "is_reserved": 0, "lat": 38.920717333333336, "fusion_lon": 0.0, "is_disabled": 0}, {"rental_uris": {"android": "https://dc.lft.to/lastmile_qr_scan", "ios": "https://dc.lft.to/lastmile_qr_scan"}, "type": "electric_scooter", "lon": -77.002201, "name": "8142a71ceda24256b0a7ee6f6c02eab9", "bike_id": "8142a71ceda24256b0a7ee6f6c02eab9", "fusion_lat": 0.0, "is_reserved": 0, "lat": 38.902924666666664, "fusion_lon": 0.0, "is_disabled": 0}, {"rental_uris": {"android": "https://dc.lft.to/lastmile_qr_scan", "ios": "https://dc.lft.to/lastmile_qr_scan"}, "type": "electric_scooter", "lon": -77.03197166666666, "name": "3ae3416501650cde21a6b955dc2179fd", "bike_id": "3ae3416501650cde21a6b955dc2179fd", "fusion_lat": 0.0, "is_reserved": 0, "lat": 38.8976855, "fusion_lon": 0.0, "is_disabled": 0}, {"rental_uris": {"android": "https://dc.lft.to/lastmile_qr_scan", "ios": "https://dc.lft.to/lastmile_qr_scan"}, "type": "electric_bike", "lon": -76.96691166666666, "name": "1678e005ba44e63ea62469db6653fb2d", "bike_id": "1678e005ba44e63ea62469db6653fb2d", "fusion_lat": 0.0, "is_reserved": 0, "lat": 38.94565166666667, "fusion_lon": 0.0, "is_disabled": 0}, {"rental_uris": {"android": "https://dc.lft.to/lastmile_qr_scan", "ios": "https://dc.lft.to/lastmile_qr_scan"}, "type": "electric_scooter", "lon": -77.03225133333333, "name": "9df14911e43c11aa844e651fe434a663", "bike_id": "9df14911e43c11aa844e651fe434a663", "fusion_lat": 0.0, "is_reserved": 0, "lat": 38.929927, "fusion_lon": 0.0, "is_disabled": 0}, {"rental_uris": {"android": "https://dc.lft.to/lastmile_qr_scan", "ios": "https://dc.lft.to/lastmile_qr_scan"}, "type": "electric_scooter", "lon": -76.98572083333333, "name": "2ac6c095477a5dd4d57a5f81b7da4bf5", "bike_id": "2ac6c095477a5dd4d57a5f81b7da4bf5", "fusion_lat": 0.0, "is_reserved": 0, "lat": 38.90923766666667, "fusion_lon": 0.0, "is_disabled": 0}, {"rental_uris": {"android": "https://dc.lft.to/lastmile_qr_scan", "ios": "https://dc.lft.to/lastmile_qr_scan"}, "type": "electric_scooter", "lon": -76.91927133333333, "name": "81487ce39365cfda3236ba4a864b40fe", "bike_id": "81487ce39365cfda3236ba4a864b40fe", "fusion_lat": 0.0, "is_reserved": 0, "lat": 38.890745, "fusion_lon": 0.0, "is_disabled": 0}, {"rental_uris": {"android": "https://dc.lft.to/lastmile_qr_scan", "ios": "https://dc.lft.to/lastmile_qr_scan"}, "type": "electric_scooter", "lon": -76.97672466666667, "name": "121e91f4d3b0a517e5fe6b6ebb4f0e58", "bike_id": "121e91f4d3b0a517e5fe6b6ebb4f0e58", "fusion_lat": 0.0, "is_reserved": 0, "lat": 38.89859083333333, "fusion_lon": 0.0, "is_disabled": 0}, {"rental_uris": {"android": "https://dc.lft.to/lastmile_qr_scan", "ios": "https://dc.lft.to/lastmile_qr_scan"}, "type": "electric_scooter", "lon": -77.01235766666667, "name": "c27419666d6a46b0e3fb2942323281ce", "bike_id": "c27419666d6a46b0e3fb2942323281ce", "fusion_lat": 0.0, "is_reserved": 0, "lat": 38.893385333333335, "fusion_lon": 0.0, "is_disabled": 0}, {"rental_uris": {"android": "https://dc.lft.to/lastmile_qr_scan", "ios": "https://dc.lft.to/lastmile_qr_scan"}, "type": "electric_scooter", "lon": -77.008698, "name": "29fef70f9678660d19d826aef37054df", "bike_id": "29fef70f9678660d19d826aef37054df", "fusion_lat": 0.0, "is_reserved": 0, "lat": 38.87350333333333, "fusion_lon": 0.0, "is_disabled": 0}, {"rental_uris": {"android": "https://dc.lft.to/lastmile_qr_scan", "ios": "https://dc.lft.to/lastmile_qr_scan"}, "type": "electric_scooter", "lon": -77.0021855, "name": "efab91cc180688ecc84a7188e7c4f093", "bike_id": "efab91cc180688ecc84a7188e7c4f093", "fusion_lat": 0.0, "is_reserved": 0, "lat": 38.8949715, "fusion_lon": 0.0, "is_disabled": 0}, {"rental_uris": {"android": "https://dc.lft.to/lastmile_qr_scan", "ios": "https://dc.lft.to/lastmile_qr_scan"}, "type": "electric_scooter", "lon": -77.03479066666667, "name": "9e744b4570a411b86188f665c733303e", "bike_id": "9e744b4570a411b86188f665c733303e", "fusion_lat": 0.0, "is_reserved": 0, "lat": 38.904379666666664, "fusion_lon": 0.0, "is_disabled": 0}, {"rental_uris": {"android": "https://dc.lft.to/lastmile_qr_scan", "ios": "https://dc.lft.to/lastmile_qr_scan"}, "type": "electric_scooter", "lon": -77.04515566666667, "name": "a431365c4eb82714c2262c86a4097ce0", "bike_id": "a431365c4eb82714c2262c86a4097ce0", "fusion_lat": 0.0, "is_reserved": 0, "lat": 38.89221416666667, "fusion_lon": 0.0, "is_disabled": 0}, {"rental_uris": {"android": "https://dc.lft.to/lastmile_qr_scan", "ios": "https://dc.lft.to/lastmile_qr_scan"}, "type": "electric_bike", "lon": -76.990625, "name": "5b92d13b4075c6ab7351ad6c5b5329f5", "bike_id": "5b92d13b4075c6ab7351ad6c5b5329f5", "fusion_lat": 0.0, "is_reserved": 0, "lat": 38.9368625, "fusion_lon": 0.0, "is_disabled": 0}, {"rental_uris": {"android": "https://dc.lft.to/lastmile_qr_scan", "ios": "https://dc.lft.to/lastmile_qr_scan"}, "type": "electric_scooter", "lon": -76.98678566666666, "name": "ae3f4bf0413d4b6ae0168770c1e6a78b", "bike_id": "ae3f4bf0413d4b6ae0168770c1e6a78b", "fusion_lat": 0.0, "is_reserved": 0, "lat": 38.90021316666667, "fusion_lon": 0.0, "is_disabled": 0}, {"rental_uris": {"android": "https://dc.lft.to/lastmile_qr_scan", "ios": "https://dc.lft.to/lastmile_qr_scan"}, "type": "electric_scooter", "lon": -77.04227183333333, "name": "57bf61b94d423f030cdec539a66cd4d9", "bike_id": "57bf61b94d423f030cdec539a66cd4d9", "fusion_lat": 0.0, "is_reserved": 0, "lat": 38.92173233333333, "fusion_lon": 0.0, "is_disabled": 0}, {"rental_uris": {"android": "https://dc.lft.to/lastmile_qr_scan", "ios": "https://dc.lft.to/lastmile_qr_scan"}, "type": "electric_scooter", "lon": -77.04169166666667, "name": "eb2e7eae2477e7767e102df86d7b05ba", "bike_id": "eb2e7eae2477e7767e102df86d7b05ba", "fusion_lat": 0.0, "is_reserved": 0, "lat": 38.91977716666667, "fusion_lon": 0.0, "is_disabled": 0}, {"rental_uris": {"android": "https://dc.lft.to/lastmile_qr_scan", "ios": "https://dc.lft.to/lastmile_qr_scan"}, "type": "electric_scooter", "lon": -77.042517, "name": "f05f356094e7517f698acefc6121531a", "bike_id": "f05f356094e7517f698acefc6121531a", "fusion_lat": 0.0, "is_reserved": 0, "lat": 38.917869, "fusion_lon": 0.0, "is_disabled": 0}, {"rental_uris": {"android": "https://dc.lft.to/lastmile_qr_scan", "ios": "https://dc.lft.to/lastmile_qr_scan"}, "type": "electric_scooter", "lon": -77.03161283333333, "name": "b5b03f2736cefcf3416f35c8bcf0357a", "bike_id": "b5b03f2736cefcf3416f35c8bcf0357a", "fusion_lat": 0.0, "is_reserved": 0, "lat": 38.918159, "fusion_lon": 0.0, "is_disabled": 0}, {"rental_uris": {"android": "https://dc.lft.to/lastmile_qr_scan", "ios": "https://dc.lft.to/lastmile_qr_scan"}, "type": "electric_scooter", "lon": -76.9951335, "name": "62c21ef381369c347a1e82e637f52a24", "bike_id": "62c21ef381369c347a1e82e637f52a24", "fusion_lat": 0.0, "is_reserved": 0, "lat": 38.89548516666667, "fusion_lon": 0.0, "is_disabled": 0}, {"rental_uris": {"android": "https://dc.lft.to/lastmile_qr_scan", "ios": "https://dc.lft.to/lastmile_qr_scan"}, "type": "electric_scooter", "lon": -77.02219466666666, "name": "e7506f6e4d130ad69129a31b8394996c", "bike_id": "e7506f6e4d130ad69129a31b8394996c", "fusion_lat": 0.0, "is_reserved": 0, "lat": 38.9053695, "fusion_lon": 0.0, "is_disabled": 0}, {"rental_uris": {"android": "https://dc.lft.to/lastmile_qr_scan", "ios": "https://dc.lft.to/lastmile_qr_scan"}, "type": "electric_scooter", "lon": -76.97418883333333, "name": "1ad1f57a1e522d783d285322f00da1a0", "bike_id": "1ad1f57a1e522d783d285322f00da1a0", "fusion_lat": 0.0, "is_reserved": 0, "lat": 38.86563016666667, "fusion_lon": 0.0, "is_disabled": 0}, {"rental_uris": {"android": "https://dc.lft.to/lastmile_qr_scan", "ios": "https://dc.lft.to/lastmile_qr_scan"}, "type": "electric_scooter", "lon": -77.002821, "name": "4fdfe478095537a40e893d8dd29c0143", "bike_id": "4fdfe478095537a40e893d8dd29c0143", "fusion_lat": 0.0, "is_reserved": 0, "lat": 38.9391895, "fusion_lon": 0.0, "is_disabled": 0}, {"rental_uris": {"android": "https://dc.lft.to/lastmile_qr_scan", "ios": "https://dc.lft.to/lastmile_qr_scan"}, "type": "electric_scooter", "lon": -76.991227, "name": "cb227c351d0d9fee00a891618df29165", "bike_id": "cb227c351d0d9fee00a891618df29165", "fusion_lat": 0.0, "is_reserved": 0, "lat": 38.9338015, "fusion_lon": 0.0, "is_disabled": 0}, {"rental_uris": {"android": "https://dc.lft.to/lastmile_qr_scan", "ios": "https://dc.lft.to/lastmile_qr_scan"}, "type": "electric_scooter", "lon": -76.99153983333333, "name": "451f12329825f6bf5503ac2add4a3443", "bike_id": "451f12329825f6bf5503ac2add4a3443", "fusion_lat": 0.0, "is_reserved": 0, "lat": 38.87317216666667, "fusion_lon": 0.0, "is_disabled": 0}, {"rental_uris": {"android": "https://dc.lft.to/lastmile_qr_scan", "ios": "https://dc.lft.to/lastmile_qr_scan"}, "type": "electric_scooter", "lon": -77.047085, "name": "013b2f2714e8f3f0f8ca05c2c215f1bb", "bike_id": "013b2f2714e8f3f0f8ca05c2c215f1bb", "fusion_lat": 0.0, "is_reserved": 0, "lat": 38.912631833333336, "fusion_lon": 0.0, "is_disabled": 0}, {"rental_uris": {"android": "https://dc.lft.to/lastmile_qr_scan", "ios": "https://dc.lft.to/lastmile_qr_scan"}, "type": "electric_scooter", "lon": -76.9823125, "name": "c62f4e02e3eaa0355344f513aa72c8d0", "bike_id": "c62f4e02e3eaa0355344f513aa72c8d0", "fusion_lat": 0.0, "is_reserved": 0, "lat": 38.9255525, "fusion_lon": 0.0, "is_disabled": 0}, {"rental_uris": {"android": "https://dc.lft.to/lastmile_qr_scan", "ios": "https://dc.lft.to/lastmile_qr_scan"}, "type": "electric_scooter", "lon": -76.9374805, "name": "19c36f16d18cc7f335013c5773f0b5fb", "bike_id": "19c36f16d18cc7f335013c5773f0b5fb", "fusion_lat": 0.0, "is_reserved": 0, "lat": 38.890094166666664, "fusion_lon": 0.0, "is_disabled": 0}, {"rental_uris": {"android": "https://dc.lft.to/lastmile_qr_scan", "ios": "https://dc.lft.to/lastmile_qr_scan"}, "type": "electric_scooter", "lon": -76.98833533333334, "name": "a2d5e636537d0b27fdf42f46eee8bc14", "bike_id": "a2d5e636537d0b27fdf42f46eee8bc14", "fusion_lat": 0.0, "is_reserved": 0, "lat": 38.901929, "fusion_lon": 0.0, "is_disabled": 0}, {"rental_uris": {"android": "https://dc.lft.to/lastmile_qr_scan", "ios": "https://dc.lft.to/lastmile_qr_scan"}, "type": "electric_bike", "lon": -76.93196966666666, "name": "b0be724f27cbad67affaa19a13a46a34", "bike_id": "b0be724f27cbad67affaa19a13a46a34", "fusion_lat": 0.0, "is_reserved": 0, "lat": 38.89852366666667, "fusion_lon": 0.0, "is_disabled": 0}, {"rental_uris": {"android": "https://dc.lft.to/lastmile_qr_scan", "ios": "https://dc.lft.to/lastmile_qr_scan"}, "type": "electric_scooter", "lon": -76.94889083333334, "name": "cea5d3e8b15ebe4fa0be16c246b277ff", "bike_id": "cea5d3e8b15ebe4fa0be16c246b277ff", "fusion_lat": 0.0, "is_reserved": 0, "lat": 38.8951085, "fusion_lon": 0.0, "is_disabled": 0}, {"rental_uris": {"android": "https://dc.lft.to/lastmile_qr_scan", "ios": "https://dc.lft.to/lastmile_qr_scan"}, "type": "electric_scooter", "lon": -77.04101383333334, "name": "721fbb30cd50b0dd869d7addad42ff38", "bike_id": "721fbb30cd50b0dd869d7addad42ff38", "fusion_lat": 0.0, "is_reserved": 0, "lat": 38.9177965, "fusion_lon": 0.0, "is_disabled": 0}, {"rental_uris": {"android": "https://dc.lft.to/lastmile_qr_scan", "ios": "https://dc.lft.to/lastmile_qr_scan"}, "type": "electric_scooter", "lon": -77.03213633333333, "name": "65ecb8e554f3169ab400c666923c2356", "bike_id": "65ecb8e554f3169ab400c666923c2356", "fusion_lat": 0.0, "is_reserved": 0, "lat": 38.9147975, "fusion_lon": 0.0, "is_disabled": 0}, {"rental_uris": {"android": "https://dc.lft.to/lastmile_qr_scan", "ios": "https://dc.lft.to/lastmile_qr_scan"}, "type": "electric_scooter", "lon": -77.02714666666667, "name": "85aa193eb23c4fc6f333ef9bbb36ba03", "bike_id": "85aa193eb23c4fc6f333ef9bbb36ba03", "fusion_lat": 0.0, "is_reserved": 0, "lat": 38.903596666666665, "fusion_lon": 0.0, "is_disabled": 0}, {"rental_uris": {"android": "https://dc.lft.to/lastmile_qr_scan", "ios": "https://dc.lft.to/lastmile_qr_scan"}, "type": "electric_scooter", "lon": -76.994704, "name": "b9387a8c01447fc1682432a75b9130b2", "bike_id": "b9387a8c01447fc1682432a75b9130b2", "fusion_lat": 0.0, "is_reserved": 0, "lat": 38.896209666666664, "fusion_lon": 0.0, "is_disabled": 0}, {"rental_uris": {"android": "https://dc.lft.to/lastmile_qr_scan", "ios": "https://dc.lft.to/lastmile_qr_scan"}, "type": "electric_scooter", "lon": -76.996962, "name": "3c58b7830fe9ff740c2a661b1c84d567", "bike_id": "3c58b7830fe9ff740c2a661b1c84d567", "fusion_lat": 0.0, "is_reserved": 0, "lat": 38.9219315, "fusion_lon": 0.0, "is_disabled": 0}, {"rental_uris": {"android": "https://dc.lft.to/lastmile_qr_scan", "ios": "https://dc.lft.to/lastmile_qr_scan"}, "type": "electric_scooter", "lon": -76.93835433333334, "name": "90c69f7f48249ab100a7837646323adf", "bike_id": "90c69f7f48249ab100a7837646323adf", "fusion_lat": 0.0, "is_reserved": 0, "lat": 38.897588, "fusion_lon": 0.0, "is_disabled": 0}, {"rental_uris": {"android": "https://dc.lft.to/lastmile_qr_scan", "ios": "https://dc.lft.to/lastmile_qr_scan"}, "type": "electric_scooter", "lon": -77.02980066666667, "name": "25121a4adc0acf2820d4c4084ad7007c", "bike_id": "25121a4adc0acf2820d4c4084ad7007c", "fusion_lat": 0.0, "is_reserved": 0, "lat": 38.9344845, "fusion_lon": 0.0, "is_disabled": 0}, {"rental_uris": {"android": "https://dc.lft.to/lastmile_qr_scan", "ios": "https://dc.lft.to/lastmile_qr_scan"}, "type": "electric_scooter", "lon": -77.082029, "name": "7336a900e69e0fa7cbf19fcd4b31ff3f", "bike_id": "7336a900e69e0fa7cbf19fcd4b31ff3f", "fusion_lat": 0.0, "is_reserved": 0, "lat": 38.93560516666667, "fusion_lon": 0.0, "is_disabled": 0}, {"rental_uris": {"android": "https://dc.lft.to/lastmile_qr_scan", "ios": "https://dc.lft.to/lastmile_qr_scan"}, "type": "electric_scooter", "lon": -77.01841533333334, "name": "2fa48632e7567586470525c21a0e316c", "bike_id": "2fa48632e7567586470525c21a0e316c", "fusion_lat": 0.0, "is_reserved": 0, "lat": 38.91405016666667, "fusion_lon": 0.0, "is_disabled": 0}, {"rental_uris": {"android": "https://dc.lft.to/lastmile_qr_scan", "ios": "https://dc.lft.to/lastmile_qr_scan"}, "type": "electric_scooter", "lon": -76.94846, "name": "592b8da691882bee7cd5a5ada5db2044", "bike_id": "592b8da691882bee7cd5a5ada5db2044", "fusion_lat": 0.0, "is_reserved": 0, "lat": 38.894844, "fusion_lon": 0.0, "is_disabled": 0}, {"rental_uris": {"android": "https://dc.lft.to/lastmile_qr_scan", "ios": "https://dc.lft.to/lastmile_qr_scan"}, "type": "electric_scooter", "lon": -76.99219533333333, "name": "1c93fc0ebe682f2c40a098df36c1de71", "bike_id": "1c93fc0ebe682f2c40a098df36c1de71", "fusion_lat": 0.0, "is_reserved": 0, "lat": 38.9047565, "fusion_lon": 0.0, "is_disabled": 0}, {"rental_uris": {"android": "https://dc.lft.to/lastmile_qr_scan", "ios": "https://dc.lft.to/lastmile_qr_scan"}, "type": "electric_scooter", "lon": -77.01235516666667, "name": "c70b84699f19e3258998fbc99f2ec618", "bike_id": "c70b84699f19e3258998fbc99f2ec618", "fusion_lat": 0.0, "is_reserved": 0, "lat": 38.91553066666667, "fusion_lon": 0.0, "is_disabled": 0}, {"rental_uris": {"android": "https://dc.lft.to/lastmile_qr_scan", "ios": "https://dc.lft.to/lastmile_qr_scan"}, "type": "electric_scooter", "lon": -77.0615205, "name": "e08d6f5291507411babf0bec64a27614", "bike_id": "e08d6f5291507411babf0bec64a27614", "fusion_lat": 0.0, "is_reserved": 0, "lat": 38.910641, "fusion_lon": 0.0, "is_disabled": 0}, {"rental_uris": {"android": "https://dc.lft.to/lastmile_qr_scan", "ios": "https://dc.lft.to/lastmile_qr_scan"}, "type": "electric_scooter", "lon": -76.99029966666667, "name": "f3ab5b4994e19b1bbdba2ffba34dd22e", "bike_id": "f3ab5b4994e19b1bbdba2ffba34dd22e", "fusion_lat": 0.0, "is_reserved": 0, "lat": 38.86405283333333, "fusion_lon": 0.0, "is_disabled": 0}, {"rental_uris": {"android": "https://dc.lft.to/lastmile_qr_scan", "ios": "https://dc.lft.to/lastmile_qr_scan"}, "type": "electric_scooter", "lon": -76.99730466666666, "name": "82252b82721305ffbe1e29fb3845fa32", "bike_id": "82252b82721305ffbe1e29fb3845fa32", "fusion_lat": 0.0, "is_reserved": 0, "lat": 38.89893383333333, "fusion_lon": 0.0, "is_disabled": 0}, {"rental_uris": {"android": "https://dc.lft.to/lastmile_qr_scan", "ios": "https://dc.lft.to/lastmile_qr_scan"}, "type": "electric_scooter", "lon": -77.06771733333333, "name": "cc1838ee640e4c1ef468171aa690002a", "bike_id": "cc1838ee640e4c1ef468171aa690002a", "fusion_lat": 0.0, "is_reserved": 0, "lat": 38.90370166666666, "fusion_lon": 0.0, "is_disabled": 0}, {"rental_uris": {"android": "https://dc.lft.to/lastmile_qr_scan", "ios": "https://dc.lft.to/lastmile_qr_scan"}, "type": "electric_scooter", "lon": -77.03054716666666, "name": "bae58ab7480c0c1d4ca95dbf405736a7", "bike_id": "bae58ab7480c0c1d4ca95dbf405736a7", "fusion_lat": 0.0, "is_reserved": 0, "lat": 38.884103333333336, "fusion_lon": 0.0, "is_disabled": 0}, {"rental_uris": {"android": "https://dc.lft.to/lastmile_qr_scan", "ios": "https://dc.lft.to/lastmile_qr_scan"}, "type": "electric_scooter", "lon": -76.99765016666667, "name": "0f1fd6d7870c86d849edac2f778728dd", "bike_id": "0f1fd6d7870c86d849edac2f778728dd", "fusion_lat": 0.0, "is_reserved": 0, "lat": 38.92179466666666, "fusion_lon": 0.0, "is_disabled": 0}, {"rental_uris": {"android": "https://dc.lft.to/lastmile_qr_scan", "ios": "https://dc.lft.to/lastmile_qr_scan"}, "type": "electric_scooter", "lon": -76.99392216666666, "name": "075e39d77e6d4052df26c88d713a5e7a", "bike_id": "075e39d77e6d4052df26c88d713a5e7a", "fusion_lat": 0.0, "is_reserved": 0, "lat": 38.8870825, "fusion_lon": 0.0, "is_disabled": 0}, {"rental_uris": {"android": "https://dc.lft.to/lastmile_qr_scan", "ios": "https://dc.lft.to/lastmile_qr_scan"}, "type": "electric_scooter", "lon": -77.03400633333334, "name": "b4358cded90324fc5e775dc0f73cc620", "bike_id": "b4358cded90324fc5e775dc0f73cc620", "fusion_lat": 0.0, "is_reserved": 0, "lat": 38.924413333333334, "fusion_lon": 0.0, "is_disabled": 0}, {"rental_uris": {"android": "https://dc.lft.to/lastmile_qr_scan", "ios": "https://dc.lft.to/lastmile_qr_scan"}, "type": "electric_scooter", "lon": -77.061082, "name": "1e5d885b9e8decc00e651ff14cff90c2", "bike_id": "1e5d885b9e8decc00e651ff14cff90c2", "fusion_lat": 0.0, "is_reserved": 0, "lat": 38.94365166666667, "fusion_lon": 0.0, "is_disabled": 0}, {"rental_uris": {"android": "https://dc.lft.to/lastmile_qr_scan", "ios": "https://dc.lft.to/lastmile_qr_scan"}, "type": "electric_scooter", "lon": -77.02480183333333, "name": "87203f782a8c8afbf350deb10cee805e", "bike_id": "87203f782a8c8afbf350deb10cee805e", "fusion_lat": 0.0, "is_reserved": 0, "lat": 38.904088, "fusion_lon": 0.0, "is_disabled": 0}, {"rental_uris": {"android": "https://dc.lft.to/lastmile_qr_scan", "ios": "https://dc.lft.to/lastmile_qr_scan"}, "type": "electric_scooter", "lon": -77.0443205, "name": "7bda2e23611154d872c275136e183a66", "bike_id": "7bda2e23611154d872c275136e183a66", "fusion_lat": 0.0, "is_reserved": 0, "lat": 38.912600166666664, "fusion_lon": 0.0, "is_disabled": 0}, {"rental_uris": {"android": "https://dc.lft.to/lastmile_qr_scan", "ios": "https://dc.lft.to/lastmile_qr_scan"}, "type": "electric_scooter", "lon": -77.0060735, "name": "2fa0d6b165fd4a375153205f6c0b11ff", "bike_id": "2fa0d6b165fd4a375153205f6c0b11ff", "fusion_lat": 0.0, "is_reserved": 0, "lat": 38.90820216666667, "fusion_lon": 0.0, "is_disabled": 0}, {"rental_uris": {"android": "https://dc.lft.to/lastmile_qr_scan", "ios": "https://dc.lft.to/lastmile_qr_scan"}, "type": "electric_scooter", "lon": -77.02004283333333, "name": "4be582a0eed8f5c7d204e7d0b0b4dc92", "bike_id": "4be582a0eed8f5c7d204e7d0b0b4dc92", "fusion_lat": 0.0, "is_reserved": 0, "lat": 38.9245595, "fusion_lon": 0.0, "is_disabled": 0}, {"rental_uris": {"android": "https://dc.lft.to/lastmile_qr_scan", "ios": "https://dc.lft.to/lastmile_qr_scan"}, "type": "electric_scooter", "lon": -77.04866666666666, "name": "7ef8efcfeb8d86127da24e46762cce9e", "bike_id": "7ef8efcfeb8d86127da24e46762cce9e", "fusion_lat": 0.0, "is_reserved": 0, "lat": 38.90095083333333, "fusion_lon": 0.0, "is_disabled": 0}, {"rental_uris": {"android": "https://dc.lft.to/lastmile_qr_scan", "ios": "https://dc.lft.to/lastmile_qr_scan"}, "type": "electric_bike", "lon": -76.98167583333333, "name": "c7cdd375d3cbe11be851919dd8e26bbd", "bike_id": "c7cdd375d3cbe11be851919dd8e26bbd", "fusion_lat": 0.0, "is_reserved": 0, "lat": 38.959647333333336, "fusion_lon": 0.0, "is_disabled": 0}, {"rental_uris": {"android": "https://dc.lft.to/lastmile_qr_scan", "ios": "https://dc.lft.to/lastmile_qr_scan"}, "type": "electric_scooter", "lon": -77.0093555, "name": "2ed49deeb32775f599176aa7bc4f368c", "bike_id": "2ed49deeb32775f599176aa7bc4f368c", "fusion_lat": 0.0, "is_reserved": 0, "lat": 38.8762835, "fusion_lon": 0.0, "is_disabled": 0}, {"rental_uris": {"android": "https://dc.lft.to/lastmile_qr_scan", "ios": "https://dc.lft.to/lastmile_qr_scan"}, "type": "electric_scooter", "lon": -77.03193333333333, "name": "1d8473d4375c7ef127c54d2888a07c6b", "bike_id": "1d8473d4375c7ef127c54d2888a07c6b", "fusion_lat": 0.0, "is_reserved": 0, "lat": 38.9305755, "fusion_lon": 0.0, "is_disabled": 0}, {"rental_uris": {"android": "https://dc.lft.to/lastmile_qr_scan", "ios": "https://dc.lft.to/lastmile_qr_scan"}, "type": "electric_scooter", "lon": -77.02835416666667, "name": "df957d0ab87ad6a8a39c2f6eaa3a24ae", "bike_id": "df957d0ab87ad6a8a39c2f6eaa3a24ae", "fusion_lat": 0.0, "is_reserved": 0, "lat": 38.89799933333333, "fusion_lon": 0.0, "is_disabled": 0}, {"rental_uris": {"android": "https://dc.lft.to/lastmile_qr_scan", "ios": "https://dc.lft.to/lastmile_qr_scan"}, "type": "electric_scooter", "lon": -76.98459516666667, "name": "40a20510545c2b2a4a3bdf1b71954ee4", "bike_id": "40a20510545c2b2a4a3bdf1b71954ee4", "fusion_lat": 0.0, "is_reserved": 0, "lat": 38.880142166666666, "fusion_lon": 0.0, "is_disabled": 0}, {"rental_uris": {"android": "https://dc.lft.to/lastmile_qr_scan", "ios": "https://dc.lft.to/lastmile_qr_scan"}, "type": "electric_scooter", "lon": -77.02928666666666, "name": "1a532f42a970e8e896eb5cb297ad4b74", "bike_id": "1a532f42a970e8e896eb5cb297ad4b74", "fusion_lat": 0.0, "is_reserved": 0, "lat": 38.882195, "fusion_lon": 0.0, "is_disabled": 0}, {"rental_uris": {"android": "https://dc.lft.to/lastmile_qr_scan", "ios": "https://dc.lft.to/lastmile_qr_scan"}, "type": "electric_scooter", "lon": -77.03857933333333, "name": "ce74fa197e85ab05867a810b9e2b93a8", "bike_id": "ce74fa197e85ab05867a810b9e2b93a8", "fusion_lat": 0.0, "is_reserved": 0, "lat": 38.909433, "fusion_lon": 0.0, "is_disabled": 0}, {"rental_uris": {"android": "https://dc.lft.to/lastmile_qr_scan", "ios": "https://dc.lft.to/lastmile_qr_scan"}, "type": "electric_scooter", "lon": -77.0020335, "name": "5b058a000b8dfd0dcc0edb2263372f03", "bike_id": "5b058a000b8dfd0dcc0edb2263372f03", "fusion_lat": 0.0, "is_reserved": 0, "lat": 38.9037645, "fusion_lon": 0.0, "is_disabled": 0}, {"rental_uris": {"android": "https://dc.lft.to/lastmile_qr_scan", "ios": "https://dc.lft.to/lastmile_qr_scan"}, "type": "electric_scooter", "lon": -77.0186955, "name": "481e1c318dd6fb3d02b57752b6fa8eea", "bike_id": "481e1c318dd6fb3d02b57752b6fa8eea", "fusion_lat": 0.0, "is_reserved": 0, "lat": 38.94896883333333, "fusion_lon": 0.0, "is_disabled": 0}, {"rental_uris": {"android": "https://dc.lft.to/lastmile_qr_scan", "ios": "https://dc.lft.to/lastmile_qr_scan"}, "type": "electric_scooter", "lon": -77.024046, "name": "2676a31c1c5f5118af1b2c5427283db4", "bike_id": "2676a31c1c5f5118af1b2c5427283db4", "fusion_lat": 0.0, "is_reserved": 0, "lat": 38.9572975, "fusion_lon": 0.0, "is_disabled": 0}, {"rental_uris": {"android": "https://dc.lft.to/lastmile_qr_scan", "ios": "https://dc.lft.to/lastmile_qr_scan"}, "type": "electric_scooter", "lon": -76.983206, "name": "8617e58a4d660cba3415f4b8371befd2", "bike_id": "8617e58a4d660cba3415f4b8371befd2", "fusion_lat": 0.0, "is_reserved": 0, "lat": 38.907420333333334, "fusion_lon": 0.0, "is_disabled": 0}, {"rental_uris": {"android": "https://dc.lft.to/lastmile_qr_scan", "ios": "https://dc.lft.to/lastmile_qr_scan"}, "type": "electric_scooter", "lon": -77.0418995, "name": "062cdf46bf1e126123e297e7fefbbf1c", "bike_id": "062cdf46bf1e126123e297e7fefbbf1c", "fusion_lat": 0.0, "is_reserved": 0, "lat": 38.914157, "fusion_lon": 0.0, "is_disabled": 0}, {"rental_uris": {"android": "https://dc.lft.to/lastmile_qr_scan", "ios": "https://dc.lft.to/lastmile_qr_scan"}, "type": "electric_scooter", "lon": -77.03300516666667, "name": "e6f5d7ad9c574d03ff18750c06b7df62", "bike_id": "e6f5d7ad9c574d03ff18750c06b7df62", "fusion_lat": 0.0, "is_reserved": 0, "lat": 38.89856833333333, "fusion_lon": 0.0, "is_disabled": 0}, {"rental_uris": {"android": "https://dc.lft.to/lastmile_qr_scan", "ios": "https://dc.lft.to/lastmile_qr_scan"}, "type": "electric_scooter", "lon": -77.02000033333333, "name": "dcb299d814598a3288ead5d5057a9f29", "bike_id": "dcb299d814598a3288ead5d5057a9f29", "fusion_lat": 0.0, "is_reserved": 0, "lat": 38.90066933333333, "fusion_lon": 0.0, "is_disabled": 0}, {"rental_uris": {"android": "https://dc.lft.to/lastmile_qr_scan", "ios": "https://dc.lft.to/lastmile_qr_scan"}, "type": "electric_scooter", "lon": -77.02213383333333, "name": "b40e2fedd6f65f3508260cb50ac262c5", "bike_id": "b40e2fedd6f65f3508260cb50ac262c5", "fusion_lat": 0.0, "is_reserved": 0, "lat": 38.88715083333334, "fusion_lon": 0.0, "is_disabled": 0}, {"rental_uris": {"android": "https://dc.lft.to/lastmile_qr_scan", "ios": "https://dc.lft.to/lastmile_qr_scan"}, "type": "electric_scooter", "lon": -77.01208116666666, "name": "c9341eb3a7379534ced47abc50f0aa6f", "bike_id": "c9341eb3a7379534ced47abc50f0aa6f", "fusion_lat": 0.0, "is_reserved": 0, "lat": 38.91303216666667, "fusion_lon": 0.0, "is_disabled": 0}, {"rental_uris": {"android": "https://dc.lft.to/lastmile_qr_scan", "ios": "https://dc.lft.to/lastmile_qr_scan"}, "type": "electric_scooter", "lon": -77.0466175, "name": "27a0ce4bcdd7b5241ae201f792ec0d00", "bike_id": "27a0ce4bcdd7b5241ae201f792ec0d00", "fusion_lat": 0.0, "is_reserved": 0, "lat": 38.89243716666667, "fusion_lon": 0.0, "is_disabled": 0}, {"rental_uris": {"android": "https://dc.lft.to/lastmile_qr_scan", "ios": "https://dc.lft.to/lastmile_qr_scan"}, "type": "electric_scooter", "lon": -77.03527083333333, "name": "3349dcf4e1bbb607b6fa4beb056b60e7", "bike_id": "3349dcf4e1bbb607b6fa4beb056b60e7", "fusion_lat": 0.0, "is_reserved": 0, "lat": 38.92234583333333, "fusion_lon": 0.0, "is_disabled": 0}, {"rental_uris": {"android": "https://dc.lft.to/lastmile_qr_scan", "ios": "https://dc.lft.to/lastmile_qr_scan"}, "type": "electric_scooter", "lon": -77.04193483333333, "name": "a2fb7c41e8b74e7771c6e878f972eea3", "bike_id": "a2fb7c41e8b74e7771c6e878f972eea3", "fusion_lat": 0.0, "is_reserved": 0, "lat": 38.8997785, "fusion_lon": 0.0, "is_disabled": 0}, {"rental_uris": {"android": "https://dc.lft.to/lastmile_qr_scan", "ios": "https://dc.lft.to/lastmile_qr_scan"}, "type": "electric_scooter", "lon": -77.01178983333334, "name": "4c9de32d1f4210ba9dad36306926d5e7", "bike_id": "4c9de32d1f4210ba9dad36306926d5e7", "fusion_lat": 0.0, "is_reserved": 0, "lat": 38.900239666666664, "fusion_lon": 0.0, "is_disabled": 0}, {"rental_uris": {"android": "https://dc.lft.to/lastmile_qr_scan", "ios": "https://dc.lft.to/lastmile_qr_scan"}, "type": "electric_scooter", "lon": -77.03049716666666, "name": "ff58b1b448329df4420c26fb5da476c4", "bike_id": "ff58b1b448329df4420c26fb5da476c4", "fusion_lat": 0.0, "is_reserved": 0, "lat": 38.919256833333336, "fusion_lon": 0.0, "is_disabled": 0}, {"rental_uris": {"android": "https://dc.lft.to/lastmile_qr_scan", "ios": "https://dc.lft.to/lastmile_qr_scan"}, "type": "electric_scooter", "lon": -77.0706595, "name": "d5d7fb1f1abd9502adb9f1d4658a88d6", "bike_id": "d5d7fb1f1abd9502adb9f1d4658a88d6", "fusion_lat": 0.0, "is_reserved": 0, "lat": 38.9193695, "fusion_lon": 0.0, "is_disabled": 0}, {"rental_uris": {"android": "https://dc.lft.to/lastmile_qr_scan", "ios": "https://dc.lft.to/lastmile_qr_scan"}, "type": "electric_scooter", "lon": -77.039538, "name": "4c223365003d22fa14c0f617653623fc", "bike_id": "4c223365003d22fa14c0f617653623fc", "fusion_lat": 0.0, "is_reserved": 0, "lat": 38.90831033333333, "fusion_lon": 0.0, "is_disabled": 0}, {"rental_uris": {"android": "https://dc.lft.to/lastmile_qr_scan", "ios": "https://dc.lft.to/lastmile_qr_scan"}, "type": "electric_bike", "lon": -76.96844766666666, "name": "67e9b31abc322745e325fffe8a12a6d5", "bike_id": "67e9b31abc322745e325fffe8a12a6d5", "fusion_lat": 0.0, "is_reserved": 0, "lat": 38.924439666666665, "fusion_lon": 0.0, "is_disabled": 0}, {"rental_uris": {"android": "https://dc.lft.to/lastmile_qr_scan", "ios": "https://dc.lft.to/lastmile_qr_scan"}, "type": "electric_scooter", "lon": -77.03801233333333, "name": "ec308bfd8c20d51a50d4e2fdb3e876c7", "bike_id": "ec308bfd8c20d51a50d4e2fdb3e876c7", "fusion_lat": 0.0, "is_reserved": 0, "lat": 38.93015466666667, "fusion_lon": 0.0, "is_disabled": 0}, {"rental_uris": {"android": "https://dc.lft.to/lastmile_qr_scan", "ios": "https://dc.lft.to/lastmile_qr_scan"}, "type": "electric_scooter", "lon": -76.98331400000001, "name": "278cc2bbe0d4dd69ccb9062262024d39", "bike_id": "278cc2bbe0d4dd69ccb9062262024d39", "fusion_lat": 0.0, "is_reserved": 0, "lat": 38.861682, "fusion_lon": 0.0, "is_disabled": 0}, {"rental_uris": {"android": "https://dc.lft.to/lastmile_qr_scan", "ios": "https://dc.lft.to/lastmile_qr_scan"}, "type": "electric_scooter", "lon": -77.04726366666667, "name": "ccb7c314031d6cacaaa64c87e555a19a", "bike_id": "ccb7c314031d6cacaaa64c87e555a19a", "fusion_lat": 0.0, "is_reserved": 0, "lat": 38.89967716666666, "fusion_lon": 0.0, "is_disabled": 0}, {"rental_uris": {"android": "https://dc.lft.to/lastmile_qr_scan", "ios": "https://dc.lft.to/lastmile_qr_scan"}, "type": "electric_scooter", "lon": -76.96508833333333, "name": "b97ffd4488d3788e377bfbb6012c9eff", "bike_id": "b97ffd4488d3788e377bfbb6012c9eff", "fusion_lat": 0.0, "is_reserved": 0, "lat": 38.8764675, "fusion_lon": 0.0, "is_disabled": 0}, {"rental_uris": {"android": "https://dc.lft.to/lastmile_qr_scan", "ios": "https://dc.lft.to/lastmile_qr_scan"}, "type": "electric_bike", "lon": -77.15272483333334, "name": "11278c34170ee496a4eac19f633699e1", "bike_id": "11278c34170ee496a4eac19f633699e1", "fusion_lat": 0.0, "is_reserved": 0, "lat": 39.1056745, "fusion_lon": 0.0, "is_disabled": 0}, {"rental_uris": {"android": "https://dc.lft.to/lastmile_qr_scan", "ios": "https://dc.lft.to/lastmile_qr_scan"}, "type": "electric_scooter", "lon": -77.03084383333334, "name": "83e7719b3228780c30903e61f3e48359", "bike_id": "83e7719b3228780c30903e61f3e48359", "fusion_lat": 0.0, "is_reserved": 0, "lat": 38.899752166666666, "fusion_lon": 0.0, "is_disabled": 0}, {"rental_uris": {"android": "https://dc.lft.to/lastmile_qr_scan", "ios": "https://dc.lft.to/lastmile_qr_scan"}, "type": "electric_scooter", "lon": -77.0332665, "name": "2728cc5606b46c515b632aca5d65bc1c", "bike_id": "2728cc5606b46c515b632aca5d65bc1c", "fusion_lat": 0.0, "is_reserved": 0, "lat": 38.960142166666664, "fusion_lon": 0.0, "is_disabled": 0}, {"rental_uris": {"android": "https://dc.lft.to/lastmile_qr_scan", "ios": "https://dc.lft.to/lastmile_qr_scan"}, "type": "electric_scooter", "lon": -77.02588083333333, "name": "9506887618ed7d99855c6aebb17f5623", "bike_id": "9506887618ed7d99855c6aebb17f5623", "fusion_lat": 0.0, "is_reserved": 0, "lat": 38.913396, "fusion_lon": 0.0, "is_disabled": 0}, {"rental_uris": {"android": "https://dc.lft.to/lastmile_qr_scan", "ios": "https://dc.lft.to/lastmile_qr_scan"}, "type": "electric_bike", "lon": -77.024503, "name": "c0b896f4800d07e7f074a404306f9771", "bike_id": "c0b896f4800d07e7f074a404306f9771", "fusion_lat": 0.0, "is_reserved": 0, "lat": 38.943527333333336, "fusion_lon": 0.0, "is_disabled": 0}, {"rental_uris": {"android": "https://dc.lft.to/lastmile_qr_scan", "ios": "https://dc.lft.to/lastmile_qr_scan"}, "type": "electric_scooter", "lon": -77.02592266666667, "name": "69d71f80081044ac30f817c441b07f9c", "bike_id": "69d71f80081044ac30f817c441b07f9c", "fusion_lat": 0.0, "is_reserved": 0, "lat": 38.90842583333333, "fusion_lon": 0.0, "is_disabled": 0}, {"rental_uris": {"android": "https://dc.lft.to/lastmile_qr_scan", "ios": "https://dc.lft.to/lastmile_qr_scan"}, "type": "electric_scooter", "lon": -77.067675, "name": "f1e18bc956cf276785ea548629449f22", "bike_id": "f1e18bc956cf276785ea548629449f22", "fusion_lat": 0.0, "is_reserved": 0, "lat": 38.9497505, "fusion_lon": 0.0, "is_disabled": 0}, {"rental_uris": {"android": "https://dc.lft.to/lastmile_qr_scan", "ios": "https://dc.lft.to/lastmile_qr_scan"}, "type": "electric_scooter", "lon": -77.02048883333333, "name": "f589252105bc65fe31549422a6b23780", "bike_id": "f589252105bc65fe31549422a6b23780", "fusion_lat": 0.0, "is_reserved": 0, "lat": 38.9586905, "fusion_lon": 0.0, "is_disabled": 0}, {"rental_uris": {"android": "https://dc.lft.to/lastmile_qr_scan", "ios": "https://dc.lft.to/lastmile_qr_scan"}, "type": "electric_scooter", "lon": -77.04543833333334, "name": "2c7b7e61b26f9c0b01163d899c28ca47", "bike_id": "2c7b7e61b26f9c0b01163d899c28ca47", "fusion_lat": 0.0, "is_reserved": 0, "lat": 38.9204965, "fusion_lon": 0.0, "is_disabled": 0}, {"rental_uris": {"android": "https://dc.lft.to/lastmile_qr_scan", "ios": "https://dc.lft.to/lastmile_qr_scan"}, "type": "electric_bike", "lon": -76.97220433333334, "name": "f3663fe8f8947d9e42875b1c67ed726d", "bike_id": "f3663fe8f8947d9e42875b1c67ed726d", "fusion_lat": 0.0, "is_reserved": 0, "lat": 38.8448345, "fusion_lon": 0.0, "is_disabled": 0}, {"rental_uris": {"android": "https://dc.lft.to/lastmile_qr_scan", "ios": "https://dc.lft.to/lastmile_qr_scan"}, "type": "electric_scooter", "lon": -77.01831366666667, "name": "81ed1016b57524943fd301bd818336f6", "bike_id": "81ed1016b57524943fd301bd818336f6", "fusion_lat": 0.0, "is_reserved": 0, "lat": 38.919676, "fusion_lon": 0.0, "is_disabled": 0}, {"rental_uris": {"android": "https://dc.lft.to/lastmile_qr_scan", "ios": "https://dc.lft.to/lastmile_qr_scan"}, "type": "electric_scooter", "lon": -77.02161433333333, "name": "0fbd78954e53e293307a72edefa010c5", "bike_id": "0fbd78954e53e293307a72edefa010c5", "fusion_lat": 0.0, "is_reserved": 0, "lat": 38.92600916666667, "fusion_lon": 0.0, "is_disabled": 0}, {"rental_uris": {"android": "https://dc.lft.to/lastmile_qr_scan", "ios": "https://dc.lft.to/lastmile_qr_scan"}, "type": "electric_scooter", "lon": -77.032044, "name": "df550450268223933f0225e4b1ea5501", "bike_id": "df550450268223933f0225e4b1ea5501", "fusion_lat": 0.0, "is_reserved": 0, "lat": 38.939676166666665, "fusion_lon": 0.0, "is_disabled": 0}, {"rental_uris": {"android": "https://dc.lft.to/lastmile_qr_scan", "ios": "https://dc.lft.to/lastmile_qr_scan"}, "type": "electric_scooter", "lon": -77.03037216666667, "name": "e8da90320f8959837e9275dfd188db92", "bike_id": "e8da90320f8959837e9275dfd188db92", "fusion_lat": 0.0, "is_reserved": 0, "lat": 38.93982333333334, "fusion_lon": 0.0, "is_disabled": 0}, {"rental_uris": {"android": "https://dc.lft.to/lastmile_qr_scan", "ios": "https://dc.lft.to/lastmile_qr_scan"}, "type": "electric_bike", "lon": -77.08945383333334, "name": "311a19a31311265e69ffc9304fc696a6", "bike_id": "311a19a31311265e69ffc9304fc696a6", "fusion_lat": 0.0, "is_reserved": 0, "lat": 38.84107233333334, "fusion_lon": 0.0, "is_disabled": 0}, {"rental_uris": {"android": "https://dc.lft.to/lastmile_qr_scan", "ios": "https://dc.lft.to/lastmile_qr_scan"}, "type": "electric_scooter", "lon": -77.03423533333333, "name": "49b4846d58c7beb7cbc8edbf3f885f8d", "bike_id": "49b4846d58c7beb7cbc8edbf3f885f8d", "fusion_lat": 0.0, "is_reserved": 0, "lat": 38.90961033333333, "fusion_lon": 0.0, "is_disabled": 0}, {"rental_uris": {"android": "https://dc.lft.to/lastmile_qr_scan", "ios": "https://dc.lft.to/lastmile_qr_scan"}, "type": "electric_bike", "lon": -76.98846433333334, "name": "a9ab8ffcbbcc60dcecf788675be942fe", "bike_id": "a9ab8ffcbbcc60dcecf788675be942fe", "fusion_lat": 0.0, "is_reserved": 0, "lat": 38.842730333333336, "fusion_lon": 0.0, "is_disabled": 0}, {"rental_uris": {"android": "https://dc.lft.to/lastmile_qr_scan", "ios": "https://dc.lft.to/lastmile_qr_scan"}, "type": "electric_scooter", "lon": -76.94947283333333, "name": "42351b57ae317520bcd9dba8c2d0417f", "bike_id": "42351b57ae317520bcd9dba8c2d0417f", "fusion_lat": 0.0, "is_reserved": 0, "lat": 38.88321333333333, "fusion_lon": 0.0, "is_disabled": 0}, {"rental_uris": {"android": "https://dc.lft.to/lastmile_qr_scan", "ios": "https://dc.lft.to/lastmile_qr_scan"}, "type": "electric_scooter", "lon": -77.03001233333333, "name": "a0286dd568b44f9b5cd994ad5a03382c", "bike_id": "a0286dd568b44f9b5cd994ad5a03382c", "fusion_lat": 0.0, "is_reserved": 0, "lat": 38.9247875, "fusion_lon": 0.0, "is_disabled": 0}, {"rental_uris": {"android": "https://dc.lft.to/lastmile_qr_scan", "ios": "https://dc.lft.to/lastmile_qr_scan"}, "type": "electric_scooter", "lon": -77.03288033333334, "name": "eb4083b97c2deac07b18ae907d32395b", "bike_id": "eb4083b97c2deac07b18ae907d32395b", "fusion_lat": 0.0, "is_reserved": 0, "lat": 38.956582166666664, "fusion_lon": 0.0, "is_disabled": 0}, {"rental_uris": {"android": "https://dc.lft.to/lastmile_qr_scan", "ios": "https://dc.lft.to/lastmile_qr_scan"}, "type": "electric_bike", "lon": -77.02685083333333, "name": "e1213048a7193d4be2d5ad293ac2cd02", "bike_id": "e1213048a7193d4be2d5ad293ac2cd02", "fusion_lat": 0.0, "is_reserved": 0, "lat": 38.973757166666665, "fusion_lon": 0.0, "is_disabled": 0}, {"rental_uris": {"android": "https://dc.lft.to/lastmile_qr_scan", "ios": "https://dc.lft.to/lastmile_qr_scan"}, "type": "electric_scooter", "lon": -76.9476755, "name": "ac8c6b8a06b218ddeaf1bc39ae6f45d0", "bike_id": "ac8c6b8a06b218ddeaf1bc39ae6f45d0", "fusion_lat": 0.0, "is_reserved": 0, "lat": 38.896286833333335, "fusion_lon": 0.0, "is_disabled": 0}, {"rental_uris": {"android": "https://dc.lft.to/lastmile_qr_scan", "ios": "https://dc.lft.to/lastmile_qr_scan"}, "type": "electric_scooter", "lon": -77.02381533333333, "name": "cfa3991f069d702a4f7ddf2b0130ba26", "bike_id": "cfa3991f069d702a4f7ddf2b0130ba26", "fusion_lat": 0.0, "is_reserved": 0, "lat": 38.907411333333336, "fusion_lon": 0.0, "is_disabled": 0}, {"rental_uris": {"android": "https://dc.lft.to/lastmile_qr_scan", "ios": "https://dc.lft.to/lastmile_qr_scan"}, "type": "electric_scooter", "lon": -77.028626, "name": "8c0b030c51c4cab1f8c7d51c0a9ee1c4", "bike_id": "8c0b030c51c4cab1f8c7d51c0a9ee1c4", "fusion_lat": 0.0, "is_reserved": 0, "lat": 38.92241, "fusion_lon": 0.0, "is_disabled": 0}, {"rental_uris": {"android": "https://dc.lft.to/lastmile_qr_scan", "ios": "https://dc.lft.to/lastmile_qr_scan"}, "type": "electric_scooter", "lon": -76.9343575, "name": "cf55c7a72c3a98a4e60c79a13eef3040", "bike_id": "cf55c7a72c3a98a4e60c79a13eef3040", "fusion_lat": 0.0, "is_reserved": 0, "lat": 38.899632, "fusion_lon": 0.0, "is_disabled": 0}, {"rental_uris": {"android": "https://dc.lft.to/lastmile_qr_scan", "ios": "https://dc.lft.to/lastmile_qr_scan"}, "type": "electric_scooter", "lon": -77.01134583333334, "name": "05d078567fb9d4ff27ae1e07518d41c6", "bike_id": "05d078567fb9d4ff27ae1e07518d41c6", "fusion_lat": 0.0, "is_reserved": 0, "lat": 38.907289666666664, "fusion_lon": 0.0, "is_disabled": 0}, {"rental_uris": {"android": "https://dc.lft.to/lastmile_qr_scan", "ios": "https://dc.lft.to/lastmile_qr_scan"}, "type": "electric_scooter", "lon": -77.01775833333333, "name": "b1e237827b5d671831c7b591ef57a79f", "bike_id": "b1e237827b5d671831c7b591ef57a79f", "fusion_lat": 0.0, "is_reserved": 0, "lat": 38.8729455, "fusion_lon": 0.0, "is_disabled": 0}, {"rental_uris": {"android": "https://dc.lft.to/lastmile_qr_scan", "ios": "https://dc.lft.to/lastmile_qr_scan"}, "type": "electric_scooter", "lon": -77.05302266666666, "name": "840517835d8e9e9b4948bc1c866d25f7", "bike_id": "840517835d8e9e9b4948bc1c866d25f7", "fusion_lat": 0.0, "is_reserved": 0, "lat": 38.9278875, "fusion_lon": 0.0, "is_disabled": 0}, {"rental_uris": {"android": "https://dc.lft.to/lastmile_qr_scan", "ios": "https://dc.lft.to/lastmile_qr_scan"}, "type": "electric_scooter", "lon": -76.9900175, "name": "c223a4c583039bf791a5db940a884e94", "bike_id": "c223a4c583039bf791a5db940a884e94", "fusion_lat": 0.0, "is_reserved": 0, "lat": 38.865054, "fusion_lon": 0.0, "is_disabled": 0}, {"rental_uris": {"android": "https://dc.lft.to/lastmile_qr_scan", "ios": "https://dc.lft.to/lastmile_qr_scan"}, "type": "electric_scooter", "lon": -77.05143533333333, "name": "8617f5c7f5723cc4ffabca9161f49cb2", "bike_id": "8617f5c7f5723cc4ffabca9161f49cb2", "fusion_lat": 0.0, "is_reserved": 0, "lat": 38.9080385, "fusion_lon": 0.0, "is_disabled": 0}, {"rental_uris": {"android": "https://dc.lft.to/lastmile_qr_scan", "ios": "https://dc.lft.to/lastmile_qr_scan"}, "type": "electric_scooter", "lon": -77.02231883333333, "name": "3c894ff773974852313d39e7906ff94a", "bike_id": "3c894ff773974852313d39e7906ff94a", "fusion_lat": 0.0, "is_reserved": 0, "lat": 38.887693666666664, "fusion_lon": 0.0, "is_disabled": 0}, {"rental_uris": {"android": "https://dc.lft.to/lastmile_qr_scan", "ios": "https://dc.lft.to/lastmile_qr_scan"}, "type": "electric_scooter", "lon": -77.038986, "name": "49e656fbc215c534ad5a88035de376ea", "bike_id": "49e656fbc215c534ad5a88035de376ea", "fusion_lat": 0.0, "is_reserved": 0, "lat": 38.92237083333333, "fusion_lon": 0.0, "is_disabled": 0}, {"rental_uris": {"android": "https://dc.lft.to/lastmile_qr_scan", "ios": "https://dc.lft.to/lastmile_qr_scan"}, "type": "electric_scooter", "lon": -77.02283483333333, "name": "b385ac997c5b6e93d94c64c846c4d89e", "bike_id": "b385ac997c5b6e93d94c64c846c4d89e", "fusion_lat": 0.0, "is_reserved": 0, "lat": 38.9096335, "fusion_lon": 0.0, "is_disabled": 0}, {"rental_uris": {"android": "https://dc.lft.to/lastmile_qr_scan", "ios": "https://dc.lft.to/lastmile_qr_scan"}, "type": "electric_scooter", "lon": -76.9586615, "name": "ca80155e7eae6e7f74b87504029a18f4", "bike_id": "ca80155e7eae6e7f74b87504029a18f4", "fusion_lat": 0.0, "is_reserved": 0, "lat": 38.929966666666665, "fusion_lon": 0.0, "is_disabled": 0}, {"rental_uris": {"android": "https://dc.lft.to/lastmile_qr_scan", "ios": "https://dc.lft.to/lastmile_qr_scan"}, "type": "electric_bike", "lon": -77.05109216666666, "name": "951c83f5695e7cd2e4faa15cdfaf8b2b", "bike_id": "951c83f5695e7cd2e4faa15cdfaf8b2b", "fusion_lat": 0.0, "is_reserved": 0, "lat": 38.94555583333333, "fusion_lon": 0.0, "is_disabled": 0}, {"rental_uris": {"android": "https://dc.lft.to/lastmile_qr_scan", "ios": "https://dc.lft.to/lastmile_qr_scan"}, "type": "electric_scooter", "lon": -77.03873333333334, "name": "602ac82861dd530a7fcc92cb6a9749d8", "bike_id": "602ac82861dd530a7fcc92cb6a9749d8", "fusion_lat": 0.0, "is_reserved": 0, "lat": 38.934308, "fusion_lon": 0.0, "is_disabled": 0}, {"rental_uris": {"android": "https://dc.lft.to/lastmile_qr_scan", "ios": "https://dc.lft.to/lastmile_qr_scan"}, "type": "electric_bike", "lon": -77.0562355, "name": "26db57493ed0bce0692413a1ca742ce6", "bike_id": "26db57493ed0bce0692413a1ca742ce6", "fusion_lat": 0.0, "is_reserved": 0, "lat": 38.857284166666666, "fusion_lon": 0.0, "is_disabled": 0}, {"rental_uris": {"android": "https://dc.lft.to/lastmile_qr_scan", "ios": "https://dc.lft.to/lastmile_qr_scan"}, "type": "electric_scooter", "lon": -77.0240805, "name": "b7ffafd8ad25efa07d6a5ecfb20abbce", "bike_id": "b7ffafd8ad25efa07d6a5ecfb20abbce", "fusion_lat": 0.0, "is_reserved": 0, "lat": 38.935377333333335, "fusion_lon": 0.0, "is_disabled": 0}, {"rental_uris": {"android": "https://dc.lft.to/lastmile_qr_scan", "ios": "https://dc.lft.to/lastmile_qr_scan"}, "type": "electric_scooter", "lon": -77.0501395, "name": "637e191bc14a664b84f85006ffece88b", "bike_id": "637e191bc14a664b84f85006ffece88b", "fusion_lat": 0.0, "is_reserved": 0, "lat": 38.9076705, "fusion_lon": 0.0, "is_disabled": 0}, {"rental_uris": {"android": "https://dc.lft.to/lastmile_qr_scan", "ios": "https://dc.lft.to/lastmile_qr_scan"}, "type": "electric_scooter", "lon": -77.06363233333333, "name": "99c72450e048e966b5010ebcf9881e65", "bike_id": "99c72450e048e966b5010ebcf9881e65", "fusion_lat": 0.0, "is_reserved": 0, "lat": 38.9441385, "fusion_lon": 0.0, "is_disabled": 0}, {"rental_uris": {"android": "https://dc.lft.to/lastmile_qr_scan", "ios": "https://dc.lft.to/lastmile_qr_scan"}, "type": "electric_scooter", "lon": -77.03439533333334, "name": "8e8ea53e0538680f60f1a8b157f331bc", "bike_id": "8e8ea53e0538680f60f1a8b157f331bc", "fusion_lat": 0.0, "is_reserved": 0, "lat": 38.917989166666665, "fusion_lon": 0.0, "is_disabled": 0}, {"rental_uris": {"android": "https://dc.lft.to/lastmile_qr_scan", "ios": "https://dc.lft.to/lastmile_qr_scan"}, "type": "electric_bike", "lon": -77.10728533333334, "name": "2f46685639948362792a0fb6cb127588", "bike_id": "2f46685639948362792a0fb6cb127588", "fusion_lat": 0.0, "is_reserved": 0, "lat": 38.855444166666665, "fusion_lon": 0.0, "is_disabled": 0}, {"rental_uris": {"android": "https://dc.lft.to/lastmile_qr_scan", "ios": "https://dc.lft.to/lastmile_qr_scan"}, "type": "electric_scooter", "lon": -76.99366516666667, "name": "356d2d227172a9e00021d1a53178e7af", "bike_id": "356d2d227172a9e00021d1a53178e7af", "fusion_lat": 0.0, "is_reserved": 0, "lat": 38.9284125, "fusion_lon": 0.0, "is_disabled": 0}, {"rental_uris": {"android": "https://dc.lft.to/lastmile_qr_scan", "ios": "https://dc.lft.to/lastmile_qr_scan"}, "type": "electric_scooter", "lon": -77.02289816666666, "name": "586238053714da2a93ec5ecd45715203", "bike_id": "586238053714da2a93ec5ecd45715203", "fusion_lat": 0.0, "is_reserved": 0, "lat": 38.9096315, "fusion_lon": 0.0, "is_disabled": 0}, {"rental_uris": {"android": "https://dc.lft.to/lastmile_qr_scan", "ios": "https://dc.lft.to/lastmile_qr_scan"}, "type": "electric_scooter", "lon": -76.99394733333334, "name": "2019b15e9cdeb495cdc61b741e963147", "bike_id": "2019b15e9cdeb495cdc61b741e963147", "fusion_lat": 0.0, "is_reserved": 0, "lat": 38.9228555, "fusion_lon": 0.0, "is_disabled": 0}, {"rental_uris": {"android": "https://dc.lft.to/lastmile_qr_scan", "ios": "https://dc.lft.to/lastmile_qr_scan"}, "type": "electric_bike", "lon": -77.0228725, "name": "db7b7125a80552e644f40a89f9650bae", "bike_id": "db7b7125a80552e644f40a89f9650bae", "fusion_lat": 0.0, "is_reserved": 0, "lat": 38.90168633333333, "fusion_lon": 0.0, "is_disabled": 0}, {"rental_uris": {"android": "https://dc.lft.to/lastmile_qr_scan", "ios": "https://dc.lft.to/lastmile_qr_scan"}, "type": "electric_scooter", "lon": -76.99005366666667, "name": "da3ce3da60a74349d2211a78eedb650a", "bike_id": "da3ce3da60a74349d2211a78eedb650a", "fusion_lat": 0.0, "is_reserved": 0, "lat": 38.86507366666667, "fusion_lon": 0.0, "is_disabled": 0}, {"rental_uris": {"android": "https://dc.lft.to/lastmile_qr_scan", "ios": "https://dc.lft.to/lastmile_qr_scan"}, "type": "electric_scooter", "lon": -77.02834316666667, "name": "a019809fd0e6543401d2868de6df02fc", "bike_id": "a019809fd0e6543401d2868de6df02fc", "fusion_lat": 0.0, "is_reserved": 0, "lat": 38.92482966666667, "fusion_lon": 0.0, "is_disabled": 0}, {"rental_uris": {"android": "https://dc.lft.to/lastmile_qr_scan", "ios": "https://dc.lft.to/lastmile_qr_scan"}, "type": "electric_scooter", "lon": -76.99080583333334, "name": "1a992bfc4f5a4351b2f05808e858841d", "bike_id": "1a992bfc4f5a4351b2f05808e858841d", "fusion_lat": 0.0, "is_reserved": 0, "lat": 38.860536, "fusion_lon": 0.0, "is_disabled": 0}, {"rental_uris": {"android": "https://dc.lft.to/lastmile_qr_scan", "ios": "https://dc.lft.to/lastmile_qr_scan"}, "type": "electric_scooter", "lon": -77.02405266666666, "name": "cf200d11e8e5d7f074bbcd301f0c7016", "bike_id": "cf200d11e8e5d7f074bbcd301f0c7016", "fusion_lat": 0.0, "is_reserved": 0, "lat": 38.90864116666667, "fusion_lon": 0.0, "is_disabled": 0}, {"rental_uris": {"android": "https://dc.lft.to/lastmile_qr_scan", "ios": "https://dc.lft.to/lastmile_qr_scan"}, "type": "electric_bike", "lon": -76.958141, "name": "274fdd8b31e188999496f9377d9a856c", "bike_id": "274fdd8b31e188999496f9377d9a856c", "fusion_lat": 0.0, "is_reserved": 0, "lat": 38.98050333333333, "fusion_lon": 0.0, "is_disabled": 0}, {"rental_uris": {"android": "https://dc.lft.to/lastmile_qr_scan", "ios": "https://dc.lft.to/lastmile_qr_scan"}, "type": "electric_scooter", "lon": -76.99947616666667, "name": "bfd44ae89f83d7b6cae20da7f7bb2d2c", "bike_id": "bfd44ae89f83d7b6cae20da7f7bb2d2c", "fusion_lat": 0.0, "is_reserved": 0, "lat": 38.843194833333335, "fusion_lon": 0.0, "is_disabled": 0}, {"rental_uris": {"android": "https://dc.lft.to/lastmile_qr_scan", "ios": "https://dc.lft.to/lastmile_qr_scan"}, "type": "electric_scooter", "lon": -77.020059, "name": "efa6932071be7f9fba915f36810f09fc", "bike_id": "efa6932071be7f9fba915f36810f09fc", "fusion_lat": 0.0, "is_reserved": 0, "lat": 38.966349666666666, "fusion_lon": 0.0, "is_disabled": 0}, {"rental_uris": {"android": "https://dc.lft.to/lastmile_qr_scan", "ios": "https://dc.lft.to/lastmile_qr_scan"}, "type": "electric_scooter", "lon": -77.046666, "name": "44477e45ca3e6e28d87c4b3112493f59", "bike_id": "44477e45ca3e6e28d87c4b3112493f59", "fusion_lat": 0.0, "is_reserved": 0, "lat": 38.900099166666664, "fusion_lon": 0.0, "is_disabled": 0}, {"rental_uris": {"android": "https://dc.lft.to/lastmile_qr_scan", "ios": "https://dc.lft.to/lastmile_qr_scan"}, "type": "electric_scooter", "lon": -77.02698166666667, "name": "afcdb8e8c6f15fe315f43527c309e44c", "bike_id": "afcdb8e8c6f15fe315f43527c309e44c", "fusion_lat": 0.0, "is_reserved": 0, "lat": 38.916587666666665, "fusion_lon": 0.0, "is_disabled": 0}, {"rental_uris": {"android": "https://dc.lft.to/lastmile_qr_scan", "ios": "https://dc.lft.to/lastmile_qr_scan"}, "type": "electric_scooter", "lon": -76.996308, "name": "5a88d9c1d4ea48f33a8f36af977262b4", "bike_id": "5a88d9c1d4ea48f33a8f36af977262b4", "fusion_lat": 0.0, "is_reserved": 0, "lat": 38.846198333333334, "fusion_lon": 0.0, "is_disabled": 0}, {"rental_uris": {"android": "https://dc.lft.to/lastmile_qr_scan", "ios": "https://dc.lft.to/lastmile_qr_scan"}, "type": "electric_scooter", "lon": -77.0314845, "name": "f84987f636815b4cc211bc3152445071", "bike_id": "f84987f636815b4cc211bc3152445071", "fusion_lat": 0.0, "is_reserved": 0, "lat": 38.931893, "fusion_lon": 0.0, "is_disabled": 0}, {"rental_uris": {"android": "https://dc.lft.to/lastmile_qr_scan", "ios": "https://dc.lft.to/lastmile_qr_scan"}, "type": "electric_scooter", "lon": -77.02305983333333, "name": "c3abd655713d4d9c6175020cc051709b", "bike_id": "c3abd655713d4d9c6175020cc051709b", "fusion_lat": 0.0, "is_reserved": 0, "lat": 38.91766116666667, "fusion_lon": 0.0, "is_disabled": 0}, {"rental_uris": {"android": "https://dc.lft.to/lastmile_qr_scan", "ios": "https://dc.lft.to/lastmile_qr_scan"}, "type": "electric_scooter", "lon": -77.0467065, "name": "ac235bdd7aaca8ae88ab936676f56961", "bike_id": "ac235bdd7aaca8ae88ab936676f56961", "fusion_lat": 0.0, "is_reserved": 0, "lat": 38.89232966666667, "fusion_lon": 0.0, "is_disabled": 0}, {"rental_uris": {"android": "https://dc.lft.to/lastmile_qr_scan", "ios": "https://dc.lft.to/lastmile_qr_scan"}, "type": "electric_scooter", "lon": -77.01224783333333, "name": "afd2f349eabf96ee6b6bd8edb4bb1458", "bike_id": "afd2f349eabf96ee6b6bd8edb4bb1458", "fusion_lat": 0.0, "is_reserved": 0, "lat": 38.895274666666666, "fusion_lon": 0.0, "is_disabled": 0}, {"rental_uris": {"android": "https://dc.lft.to/lastmile_qr_scan", "ios": "https://dc.lft.to/lastmile_qr_scan"}, "type": "electric_scooter", "lon": -76.9346735, "name": "68c443057c6d1f8a1ae1eaceeee7b7b5", "bike_id": "68c443057c6d1f8a1ae1eaceeee7b7b5", "fusion_lat": 0.0, "is_reserved": 0, "lat": 38.901867333333335, "fusion_lon": 0.0, "is_disabled": 0}, {"rental_uris": {"android": "https://dc.lft.to/lastmile_qr_scan", "ios": "https://dc.lft.to/lastmile_qr_scan"}, "type": "electric_scooter", "lon": -77.03355433333333, "name": "db1fc46ee997bb57ff231e29fe762c1d", "bike_id": "db1fc46ee997bb57ff231e29fe762c1d", "fusion_lat": 0.0, "is_reserved": 0, "lat": 38.917076, "fusion_lon": 0.0, "is_disabled": 0}, {"rental_uris": {"android": "https://dc.lft.to/lastmile_qr_scan", "ios": "https://dc.lft.to/lastmile_qr_scan"}, "type": "electric_bike", "lon": -76.98752733333333, "name": "b14567f58808417d4a1f80e497cbaac1", "bike_id": "b14567f58808417d4a1f80e497cbaac1", "fusion_lat": 0.0, "is_reserved": 0, "lat": 38.9882605, "fusion_lon": 0.0, "is_disabled": 0}, {"rental_uris": {"android": "https://dc.lft.to/lastmile_qr_scan", "ios": "https://dc.lft.to/lastmile_qr_scan"}, "type": "electric_scooter", "lon": -77.019444, "name": "db2655a74f4e333ad8e049bc9e92af1a", "bike_id": "db2655a74f4e333ad8e049bc9e92af1a", "fusion_lat": 0.0, "is_reserved": 0, "lat": 38.924133, "fusion_lon": 0.0, "is_disabled": 0}, {"rental_uris": {"android": "https://dc.lft.to/lastmile_qr_scan", "ios": "https://dc.lft.to/lastmile_qr_scan"}, "type": "electric_scooter", "lon": -77.02041733333333, "name": "67a60179c068b9533f9a005d0720177e", "bike_id": "67a60179c068b9533f9a005d0720177e", "fusion_lat": 0.0, "is_reserved": 0, "lat": 38.8987895, "fusion_lon": 0.0, "is_disabled": 0}, {"rental_uris": {"android": "https://dc.lft.to/lastmile_qr_scan", "ios": "https://dc.lft.to/lastmile_qr_scan"}, "type": "electric_scooter", "lon": -77.03154416666666, "name": "cb9345dfb4564512d1dbc61285a9ab87", "bike_id": "cb9345dfb4564512d1dbc61285a9ab87", "fusion_lat": 0.0, "is_reserved": 0, "lat": 38.9280885, "fusion_lon": 0.0, "is_disabled": 0}, {"rental_uris": {"android": "https://dc.lft.to/lastmile_qr_scan", "ios": "https://dc.lft.to/lastmile_qr_scan"}, "type": "electric_bike", "lon": -76.93884666666666, "name": "27096b4512b2754dd3b5ae68a0a2cc5f", "bike_id": "27096b4512b2754dd3b5ae68a0a2cc5f", "fusion_lat": 0.0, "is_reserved": 0, "lat": 38.95641416666667, "fusion_lon": 0.0, "is_disabled": 0}, {"rental_uris": {"android": "https://dc.lft.to/lastmile_qr_scan", "ios": "https://dc.lft.to/lastmile_qr_scan"}, "type": "electric_scooter", "lon": -77.01014366666666, "name": "37904664285c70360c638e3de1b24aa7", "bike_id": "37904664285c70360c638e3de1b24aa7", "fusion_lat": 0.0, "is_reserved": 0, "lat": 38.8672795, "fusion_lon": 0.0, "is_disabled": 0}, {"rental_uris": {"android": "https://dc.lft.to/lastmile_qr_scan", "ios": "https://dc.lft.to/lastmile_qr_scan"}, "type": "electric_scooter", "lon": -77.0228865, "name": "74761644f2241c4e38f84281c300a90f", "bike_id": "74761644f2241c4e38f84281c300a90f", "fusion_lat": 0.0, "is_reserved": 0, "lat": 38.9096825, "fusion_lon": 0.0, "is_disabled": 0}, {"rental_uris": {"android": "https://dc.lft.to/lastmile_qr_scan", "ios": "https://dc.lft.to/lastmile_qr_scan"}, "type": "electric_bike", "lon": -76.94963983333334, "name": "3871e3ff7f927eae80ceb45cfe7de638", "bike_id": "3871e3ff7f927eae80ceb45cfe7de638", "fusion_lat": 0.0, "is_reserved": 0, "lat": 38.93501283333333, "fusion_lon": 0.0, "is_disabled": 0}, {"rental_uris": {"android": "https://dc.lft.to/lastmile_qr_scan", "ios": "https://dc.lft.to/lastmile_qr_scan"}, "type": "electric_scooter", "lon": -77.022497, "name": "2b6ea614f26fb4a0021b2826ae0a74c8", "bike_id": "2b6ea614f26fb4a0021b2826ae0a74c8", "fusion_lat": 0.0, "is_reserved": 0, "lat": 38.89977716666667, "fusion_lon": 0.0, "is_disabled": 0}, {"rental_uris": {"android": "https://dc.lft.to/lastmile_qr_scan", "ios": "https://dc.lft.to/lastmile_qr_scan"}, "type": "electric_scooter", "lon": -77.00659416666667, "name": "9641096af822c3a112e91cccdb9f7db4", "bike_id": "9641096af822c3a112e91cccdb9f7db4", "fusion_lat": 0.0, "is_reserved": 0, "lat": 38.883344666666666, "fusion_lon": 0.0, "is_disabled": 0}, {"rental_uris": {"android": "https://dc.lft.to/lastmile_qr_scan", "ios": "https://dc.lft.to/lastmile_qr_scan"}, "type": "electric_scooter", "lon": -77.011024, "name": "f1ec838af68a12796cfb4820f5a94799", "bike_id": "f1ec838af68a12796cfb4820f5a94799", "fusion_lat": 0.0, "is_reserved": 0, "lat": 38.90351366666667, "fusion_lon": 0.0, "is_disabled": 0}, {"rental_uris": {"android": "https://dc.lft.to/lastmile_qr_scan", "ios": "https://dc.lft.to/lastmile_qr_scan"}, "type": "electric_bike", "lon": -77.13234033333333, "name": "863638b6479f430c6c7599fcdd44efd1", "bike_id": "863638b6479f430c6c7599fcdd44efd1", "fusion_lat": 0.0, "is_reserved": 0, "lat": 38.86973016666666, "fusion_lon": 0.0, "is_disabled": 0}, {"rental_uris": {"android": "https://dc.lft.to/lastmile_qr_scan", "ios": "https://dc.lft.to/lastmile_qr_scan"}, "type": "electric_scooter", "lon": -77.03449866666666, "name": "6839a9e449c8614450547b95f4052a30", "bike_id": "6839a9e449c8614450547b95f4052a30", "fusion_lat": 0.0, "is_reserved": 0, "lat": 38.928745166666666, "fusion_lon": 0.0, "is_disabled": 0}, {"rental_uris": {"android": "https://dc.lft.to/lastmile_qr_scan", "ios": "https://dc.lft.to/lastmile_qr_scan"}, "type": "electric_scooter", "lon": -77.0075225, "name": "a470a3188a720d7b91466e8665148ef9", "bike_id": "a470a3188a720d7b91466e8665148ef9", "fusion_lat": 0.0, "is_reserved": 0, "lat": 38.87652533333333, "fusion_lon": 0.0, "is_disabled": 0}, {"rental_uris": {"android": "https://dc.lft.to/lastmile_qr_scan", "ios": "https://dc.lft.to/lastmile_qr_scan"}, "type": "electric_scooter", "lon": -77.00372383333334, "name": "ba0e6f47a7208ffeb024600824ae532f", "bike_id": "ba0e6f47a7208ffeb024600824ae532f", "fusion_lat": 0.0, "is_reserved": 0, "lat": 38.877613833333335, "fusion_lon": 0.0, "is_disabled": 0}, {"rental_uris": {"android": "https://dc.lft.to/lastmile_qr_scan", "ios": "https://dc.lft.to/lastmile_qr_scan"}, "type": "electric_scooter", "lon": -77.068241, "name": "536f176c3a1355329ebe0afe45808be7", "bike_id": "536f176c3a1355329ebe0afe45808be7", "fusion_lat": 0.0, "is_reserved": 0, "lat": 38.916438, "fusion_lon": 0.0, "is_disabled": 0}, {"rental_uris": {"android": "https://dc.lft.to/lastmile_qr_scan", "ios": "https://dc.lft.to/lastmile_qr_scan"}, "type": "electric_scooter", "lon": -77.05810283333334, "name": "9318ecd67dc87c755572fdbbe6348ce6", "bike_id": "9318ecd67dc87c755572fdbbe6348ce6", "fusion_lat": 0.0, "is_reserved": 0, "lat": 38.90381216666667, "fusion_lon": 0.0, "is_disabled": 0}, {"rental_uris": {"android": "https://dc.lft.to/lastmile_qr_scan", "ios": "https://dc.lft.to/lastmile_qr_scan"}, "type": "electric_scooter", "lon": -77.00569733333333, "name": "cc0055685aa83bb9f13ff696770fa80c", "bike_id": "cc0055685aa83bb9f13ff696770fa80c", "fusion_lat": 0.0, "is_reserved": 0, "lat": 38.8850165, "fusion_lon": 0.0, "is_disabled": 0}, {"rental_uris": {"android": "https://dc.lft.to/lastmile_qr_scan", "ios": "https://dc.lft.to/lastmile_qr_scan"}, "type": "electric_scooter", "lon": -77.010367, "name": "01e5bb6f0ed6f723d0698164ccef4e91", "bike_id": "01e5bb6f0ed6f723d0698164ccef4e91", "fusion_lat": 0.0, "is_reserved": 0, "lat": 38.90036766666667, "fusion_lon": 0.0, "is_disabled": 0}, {"rental_uris": {"android": "https://dc.lft.to/lastmile_qr_scan", "ios": "https://dc.lft.to/lastmile_qr_scan"}, "type": "electric_scooter", "lon": -77.04009416666666, "name": "1a85dd420c6a3fa10e575e5792799b72", "bike_id": "1a85dd420c6a3fa10e575e5792799b72", "fusion_lat": 0.0, "is_reserved": 0, "lat": 38.902641833333334, "fusion_lon": 0.0, "is_disabled": 0}, {"rental_uris": {"android": "https://dc.lft.to/lastmile_qr_scan", "ios": "https://dc.lft.to/lastmile_qr_scan"}, "type": "electric_scooter", "lon": -77.02618416666667, "name": "93eff11026099bd8bb9a18494193fe21", "bike_id": "93eff11026099bd8bb9a18494193fe21", "fusion_lat": 0.0, "is_reserved": 0, "lat": 38.90028383333333, "fusion_lon": 0.0, "is_disabled": 0}, {"rental_uris": {"android": "https://dc.lft.to/lastmile_qr_scan", "ios": "https://dc.lft.to/lastmile_qr_scan"}, "type": "electric_scooter", "lon": -77.0380725, "name": "f7146093e0c79544f21e53c286c2de40", "bike_id": "f7146093e0c79544f21e53c286c2de40", "fusion_lat": 0.0, "is_reserved": 0, "lat": 38.92178666666667, "fusion_lon": 0.0, "is_disabled": 0}, {"rental_uris": {"android": "https://dc.lft.to/lastmile_qr_scan", "ios": "https://dc.lft.to/lastmile_qr_scan"}, "type": "electric_scooter", "lon": -77.02168883333333, "name": "2f7d0ce4598d3b4d79c6f8451a641ad5", "bike_id": "2f7d0ce4598d3b4d79c6f8451a641ad5", "fusion_lat": 0.0, "is_reserved": 0, "lat": 38.942932, "fusion_lon": 0.0, "is_disabled": 0}, {"rental_uris": {"android": "https://dc.lft.to/lastmile_qr_scan", "ios": "https://dc.lft.to/lastmile_qr_scan"}, "type": "electric_scooter", "lon": -77.021837, "name": "0459885ea7acf5b7d1a87a622ef83832", "bike_id": "0459885ea7acf5b7d1a87a622ef83832", "fusion_lat": 0.0, "is_reserved": 0, "lat": 38.898812166666666, "fusion_lon": 0.0, "is_disabled": 0}, {"rental_uris": {"android": "https://dc.lft.to/lastmile_qr_scan", "ios": "https://dc.lft.to/lastmile_qr_scan"}, "type": "electric_bike", "lon": -77.0441665, "name": "a824815dd43fac9f59f6f41ea6e27aeb", "bike_id": "a824815dd43fac9f59f6f41ea6e27aeb", "fusion_lat": 0.0, "is_reserved": 0, "lat": 38.93381766666667, "fusion_lon": 0.0, "is_disabled": 0}, {"rental_uris": {"android": "https://dc.lft.to/lastmile_qr_scan", "ios": "https://dc.lft.to/lastmile_qr_scan"}, "type": "electric_scooter", "lon": -77.02471116666666, "name": "8c77ed756baa7c97b7447ddd32ed6194", "bike_id": "8c77ed756baa7c97b7447ddd32ed6194", "fusion_lat": 0.0, "is_reserved": 0, "lat": 38.91784, "fusion_lon": 0.0, "is_disabled": 0}, {"rental_uris": {"android": "https://dc.lft.to/lastmile_qr_scan", "ios": "https://dc.lft.to/lastmile_qr_scan"}, "type": "electric_scooter", "lon": -76.99230533333333, "name": "bbc4f7521f42c10e70555d7af8cadbb3", "bike_id": "bbc4f7521f42c10e70555d7af8cadbb3", "fusion_lat": 0.0, "is_reserved": 0, "lat": 38.898872833333336, "fusion_lon": 0.0, "is_disabled": 0}, {"rental_uris": {"android": "https://dc.lft.to/lastmile_qr_scan", "ios": "https://dc.lft.to/lastmile_qr_scan"}, "type": "electric_scooter", "lon": -77.0731185, "name": "b7311e0dc5d03765dbff0cc7c649146d", "bike_id": "b7311e0dc5d03765dbff0cc7c649146d", "fusion_lat": 0.0, "is_reserved": 0, "lat": 38.91200416666667, "fusion_lon": 0.0, "is_disabled": 0}, {"rental_uris": {"android": "https://dc.lft.to/lastmile_qr_scan", "ios": "https://dc.lft.to/lastmile_qr_scan"}, "type": "electric_bike", "lon": -77.09030566666667, "name": "e38a7ff8bed8a4d29ae4d57abb8ea2ab", "bike_id": "e38a7ff8bed8a4d29ae4d57abb8ea2ab", "fusion_lat": 0.0, "is_reserved": 0, "lat": 38.84122033333333, "fusion_lon": 0.0, "is_disabled": 0}, {"rental_uris": {"android": "https://dc.lft.to/lastmile_qr_scan", "ios": "https://dc.lft.to/lastmile_qr_scan"}, "type": "electric_scooter", "lon": -76.95431616666667, "name": "6f6401f5b207868527a605ee4e89eb1c", "bike_id": "6f6401f5b207868527a605ee4e89eb1c", "fusion_lat": 0.0, "is_reserved": 0, "lat": 38.88409166666667, "fusion_lon": 0.0, "is_disabled": 0}, {"rental_uris": {"android": "https://dc.lft.to/lastmile_qr_scan", "ios": "https://dc.lft.to/lastmile_qr_scan"}, "type": "electric_scooter", "lon": -77.04880916666667, "name": "8485b8fefa69dd465d35754d4998cb6e", "bike_id": "8485b8fefa69dd465d35754d4998cb6e", "fusion_lat": 0.0, "is_reserved": 0, "lat": 38.905858, "fusion_lon": 0.0, "is_disabled": 0}, {"rental_uris": {"android": "https://dc.lft.to/lastmile_qr_scan", "ios": "https://dc.lft.to/lastmile_qr_scan"}, "type": "electric_bike", "lon": -77.19915483333334, "name": "2a389ce3a690db45f79e41f908cd6df8", "bike_id": "2a389ce3a690db45f79e41f908cd6df8", "fusion_lat": 0.0, "is_reserved": 0, "lat": 38.875318, "fusion_lon": 0.0, "is_disabled": 0}, {"rental_uris": {"android": "https://dc.lft.to/lastmile_qr_scan", "ios": "https://dc.lft.to/lastmile_qr_scan"}, "type": "electric_scooter", "lon": -77.02712833333334, "name": "cdd1b747ffdfce112d153d291496369f", "bike_id": "cdd1b747ffdfce112d153d291496369f", "fusion_lat": 0.0, "is_reserved": 0, "lat": 38.88154633333333, "fusion_lon": 0.0, "is_disabled": 0}, {"rental_uris": {"android": "https://dc.lft.to/lastmile_qr_scan", "ios": "https://dc.lft.to/lastmile_qr_scan"}, "type": "electric_scooter", "lon": -77.00603283333334, "name": "da3612190887df3af60cca209cc87545", "bike_id": "da3612190887df3af60cca209cc87545", "fusion_lat": 0.0, "is_reserved": 0, "lat": 38.88076133333333, "fusion_lon": 0.0, "is_disabled": 0}, {"rental_uris": {"android": "https://dc.lft.to/lastmile_qr_scan", "ios": "https://dc.lft.to/lastmile_qr_scan"}, "type": "electric_scooter", "lon": -77.04092183333333, "name": "5173806b0731a2ed70ca73ffad89d42a", "bike_id": "5173806b0731a2ed70ca73ffad89d42a", "fusion_lat": 0.0, "is_reserved": 0, "lat": 38.911251, "fusion_lon": 0.0, "is_disabled": 0}, {"rental_uris": {"android": "https://dc.lft.to/lastmile_qr_scan", "ios": "https://dc.lft.to/lastmile_qr_scan"}, "type": "electric_scooter", "lon": -77.03892183333333, "name": "13aa8204bfe6cd4d5d94d068b3ad7dd2", "bike_id": "13aa8204bfe6cd4d5d94d068b3ad7dd2", "fusion_lat": 0.0, "is_reserved": 0, "lat": 38.93416666666667, "fusion_lon": 0.0, "is_disabled": 0}, {"rental_uris": {"android": "https://dc.lft.to/lastmile_qr_scan", "ios": "https://dc.lft.to/lastmile_qr_scan"}, "type": "electric_bike", "lon": -77.14991683333334, "name": "c996aad5e379fcd2c9357aa243538162", "bike_id": "c996aad5e379fcd2c9357aa243538162", "fusion_lat": 0.0, "is_reserved": 0, "lat": 39.09462583333333, "fusion_lon": 0.0, "is_disabled": 0}, {"rental_uris": {"android": "https://dc.lft.to/lastmile_qr_scan", "ios": "https://dc.lft.to/lastmile_qr_scan"},