{"data": {"bikes": [{"bike_id": "c2ce02a3fc6c19584a6fc7c6660d726f", "lat": 38.90548016666666, "is_disabled": 0, "lon": -76.994614, "fusion_lon": 0.0, "is_reserved": 0, "fusion_lat": 0.0, "rental_uris": {"android": "https://dc.lft.to/lastmile_qr_scan", "ios": "https://dc.lft.to/lastmile_qr_scan"}, "type": "electric_scooter", "name": "c2ce02a3fc6c19584a6fc7c6660d726f"}, {"bike_id": "80a97811dae50992eaa1313e902591c4", "lat": 38.91434666666667, "is_disabled": 0, "lon": -77.04174166666667, "fusion_lon": 0.0, "is_reserved": 0, "fusion_lat": 0.0, "rental_uris": {"android": "https://dc.lft.to/lastmile_qr_scan", "ios": "https://dc.lft.to/lastmile_qr_scan"}, "type": "electric_scooter", "name": "80a97811dae50992eaa1313e902591c4"}, {"bike_id": "522c3152da3bedd6d0d52a32f33abb2f", "lat": 38.905179833333335, "is_disabled": 0, "lon": -77.03419916666667, "fusion_lon": 0.0, "is_reserved": 0, "fusion_lat": 0.0, "rental_uris": {"android": "https://dc.lft.to/lastmile_qr_scan", "ios": "https://dc.lft.to/lastmile_qr_scan"}, "type": "electric_scooter", "name": "522c3152da3bedd6d0d52a32f33abb2f"}, {"bike_id": "ee20b6595a62a252d669ffa1b7932227", "lat": 38.92086333333334, "is_disabled": 0, "lon": -77.075502, "fusion_lon": 0.0, "is_reserved": 0, "fusion_lat": 0.0, "rental_uris": {"android": "https://dc.lft.to/lastmile_qr_scan", "ios": "https://dc.lft.to/lastmile_qr_scan"}, "type": "electric_scooter", "name": "ee20b6595a62a252d669ffa1b7932227"}, {"bike_id": "042f7ac238aa838669df181a0dfdd348", "lat": 38.901340833333336, "is_disabled": 0, "lon": -77.04180283333334, "fusion_lon": 0.0, "is_reserved": 0, "fusion_lat": 0.0, "rental_uris": {"android": "https://dc.lft.to/lastmile_qr_scan", "ios": "https://dc.lft.to/lastmile_qr_scan"}, "type": "electric_scooter", "name": "042f7ac238aa838669df181a0dfdd348"}, {"bike_id": "1a81d41cc6987421d84f22af4dc0fc86", "lat": 38.919528, "is_disabled": 0, "lon": -77.024893, "fusion_lon": 0.0, "is_reserved": 0, "fusion_lat": 0.0, "rental_uris": {"android": "https://dc.lft.to/lastmile_qr_scan", "ios": "https://dc.lft.to/lastmile_qr_scan"}, "type": "electric_scooter", "name": "1a81d41cc6987421d84f22af4dc0fc86"}, {"bike_id": "ac190e4026373c12591559646d3eaf4f", "lat": 38.902466, "is_disabled": 0, "lon": -77.038758, "fusion_lon": 0.0, "is_reserved": 0, "fusion_lat": 0.0, "rental_uris": {"android": "https://dc.lft.to/lastmile_qr_scan", "ios": "https://dc.lft.to/lastmile_qr_scan"}, "type": "electric_scooter", "name": "ac190e4026373c12591559646d3eaf4f"}, {"bike_id": "a6383f0176336e4f9e9c0b126ded37e2", "lat": 38.90226766666667, "is_disabled": 0, "lon": -76.941977, "fusion_lon": 0.0, "is_reserved": 0, "fusion_lat": 0.0, "rental_uris": {"android": "https://dc.lft.to/lastmile_qr_scan", "ios": "https://dc.lft.to/lastmile_qr_scan"}, "type": "electric_scooter", "name": "a6383f0176336e4f9e9c0b126ded37e2"}, {"bike_id": "c4e9f63a10e8ab9c74fd7678d8fe5c75", "lat": 38.88684833333333, "is_disabled": 0, "lon": -76.97628266666666, "fusion_lon": 0.0, "is_reserved": 0, "fusion_lat": 0.0, "rental_uris": {"android": "https://dc.lft.to/lastmile_qr_scan", "ios": "https://dc.lft.to/lastmile_qr_scan"}, "type": "electric_scooter", "name": "c4e9f63a10e8ab9c74fd7678d8fe5c75"}, {"bike_id": "6ac27ecb9a4c3fb9992b907334078f3b", "lat": 38.902051166666666, "is_disabled": 0, "lon": -77.02536633333334, "fusion_lon": 0.0, "is_reserved": 0, "fusion_lat": 0.0, "rental_uris": {"android": "https://dc.lft.to/lastmile_qr_scan", "ios": "https://dc.lft.to/lastmile_qr_scan"}, "type": "electric_scooter", "name": "6ac27ecb9a4c3fb9992b907334078f3b"}, {"bike_id": "ea69e8d50e871c71926983a6614efa9f", "lat": 38.887053333333334, "is_disabled": 0, "lon": -77.02819183333334, "fusion_lon": 0.0, "is_reserved": 0, "fusion_lat": 0.0, "rental_uris": {"android": "https://dc.lft.to/lastmile_qr_scan", "ios": "https://dc.lft.to/lastmile_qr_scan"}, "type": "electric_scooter", "name": "ea69e8d50e871c71926983a6614efa9f"}, {"bike_id": "b12634d9c6fc8e09c47571fdd47e2f93", "lat": 38.916172333333336, "is_disabled": 0, "lon": -77.045908, "fusion_lon": 0.0, "is_reserved": 0, "fusion_lat": 0.0, "rental_uris": {"android": "https://dc.lft.to/lastmile_qr_scan", "ios": "https://dc.lft.to/lastmile_qr_scan"}, "type": "electric_scooter", "name": "b12634d9c6fc8e09c47571fdd47e2f93"}, {"bike_id": "9f0457f64e7df9abfaaa45f6c4485ac4", "lat": 38.9261285, "is_disabled": 0, "lon": -77.02157066666666, "fusion_lon": 0.0, "is_reserved": 0, "fusion_lat": 0.0, "rental_uris": {"android": "https://dc.lft.to/lastmile_qr_scan", "ios": "https://dc.lft.to/lastmile_qr_scan"}, "type": "electric_scooter", "name": "9f0457f64e7df9abfaaa45f6c4485ac4"}, {"bike_id": "c0aa05ddb09ff2be10884c55d2974d31", "lat": 38.854537666666666, "is_disabled": 0, "lon": -76.97220616666667, "fusion_lon": 0.0, "is_reserved": 0, "fusion_lat": 0.0, "rental_uris": {"android": "https://dc.lft.to/lastmile_qr_scan", "ios": "https://dc.lft.to/lastmile_qr_scan"}, "type": "electric_scooter", "name": "c0aa05ddb09ff2be10884c55d2974d31"}, {"bike_id": "1e97c1e6c0bcdec2fb1ae5437d59900e", "lat": 38.93309083333333, "is_disabled": 0, "lon": -77.0358825, "fusion_lon": 0.0, "is_reserved": 0, "fusion_lat": 0.0, "rental_uris": {"android": "https://dc.lft.to/lastmile_qr_scan", "ios": "https://dc.lft.to/lastmile_qr_scan"}, "type": "electric_scooter", "name": "1e97c1e6c0bcdec2fb1ae5437d59900e"}, {"bike_id": "4577e30331f7b81bcf970a1b39a860e9", "lat": 38.927896, "is_disabled": 0, "lon": -77.03147233333334, "fusion_lon": 0.0, "is_reserved": 0, "fusion_lat": 0.0, "rental_uris": {"android": "https://dc.lft.to/lastmile_qr_scan", "ios": "https://dc.lft.to/lastmile_qr_scan"}, "type": "electric_scooter", "name": "4577e30331f7b81bcf970a1b39a860e9"}, {"bike_id": "e166466b4b6e2ccaa0e5f401cd598cca", "lat": 38.90041133333333, "is_disabled": 0, "lon": -77.01684766666666, "fusion_lon": 0.0, "is_reserved": 0, "fusion_lat": 0.0, "rental_uris": {"android": "https://dc.lft.to/lastmile_qr_scan", "ios": "https://dc.lft.to/lastmile_qr_scan"}, "type": "electric_scooter", "name": "e166466b4b6e2ccaa0e5f401cd598cca"}, {"bike_id": "747daa018859f9684dfafd1ddc3ccc2f", "lat": 38.892231333333335, "is_disabled": 0, "lon": -77.04364016666666, "fusion_lon": 0.0, "is_reserved": 0, "fusion_lat": 0.0, "rental_uris": {"android": "https://dc.lft.to/lastmile_qr_scan", "ios": "https://dc.lft.to/lastmile_qr_scan"}, "type": "electric_scooter", "name": "747daa018859f9684dfafd1ddc3ccc2f"}, {"bike_id": "616a1e3e8262c2d6f5577da796e2b094", "lat": 38.9583295, "is_disabled": 0, "lon": -77.08467883333333, "fusion_lon": 0.0, "is_reserved": 0, "fusion_lat": 0.0, "rental_uris": {"android": "https://dc.lft.to/lastmile_qr_scan", "ios": "https://dc.lft.to/lastmile_qr_scan"}, "type": "electric_scooter", "name": "616a1e3e8262c2d6f5577da796e2b094"}, {"bike_id": "3cad6b454c267dd48758be6d02428ea4", "lat": 38.81908416666667, "is_disabled": 0, "lon": -77.126502, "fusion_lon": 0.0, "is_reserved": 0, "fusion_lat": 0.0, "rental_uris": {"android": "https://dc.lft.to/lastmile_qr_scan", "ios": "https://dc.lft.to/lastmile_qr_scan"}, "type": "electric_bike", "name": "3cad6b454c267dd48758be6d02428ea4"}, {"bike_id": "b6746b7ecf79db588c83ab12c8757e5c", "lat": 38.9082255, "is_disabled": 0, "lon": -77.0391275, "fusion_lon": 0.0, "is_reserved": 0, "fusion_lat": 0.0, "rental_uris": {"android": "https://dc.lft.to/lastmile_qr_scan", "ios": "https://dc.lft.to/lastmile_qr_scan"}, "type": "electric_scooter", "name": "b6746b7ecf79db588c83ab12c8757e5c"}, {"bike_id": "6563a6662786ff4ce26f1c4767a252ed", "lat": 38.91904566666667, "is_disabled": 0, "lon": -77.0213515, "fusion_lon": 0.0, "is_reserved": 0, "fusion_lat": 0.0, "rental_uris": {"android": "https://dc.lft.to/lastmile_qr_scan", "ios": "https://dc.lft.to/lastmile_qr_scan"}, "type": "electric_scooter", "name": "6563a6662786ff4ce26f1c4767a252ed"}, {"bike_id": "267d57939b414fb9c434a6e363920d77", "lat": 38.93423516666667, "is_disabled": 0, "lon": -77.044247, "fusion_lon": 0.0, "is_reserved": 0, "fusion_lat": 0.0, "rental_uris": {"android": "https://dc.lft.to/lastmile_qr_scan", "ios": "https://dc.lft.to/lastmile_qr_scan"}, "type": "electric_scooter", "name": "267d57939b414fb9c434a6e363920d77"}, {"bike_id": "3c8c5ab08f2630ab402e66ffc63a785a", "lat": 38.921646833333334, "is_disabled": 0, "lon": -77.02200983333333, "fusion_lon": 0.0, "is_reserved": 0, "fusion_lat": 0.0, "rental_uris": {"android": "https://dc.lft.to/lastmile_qr_scan", "ios": "https://dc.lft.to/lastmile_qr_scan"}, "type": "electric_scooter", "name": "3c8c5ab08f2630ab402e66ffc63a785a"}, {"bike_id": "801fe8ad57c7d1fe3ebda97a7a31f1c5", "lat": 38.887059666666666, "is_disabled": 0, "lon": -77.0282685, "fusion_lon": 0.0, "is_reserved": 0, "fusion_lat": 0.0, "rental_uris": {"android": "https://dc.lft.to/lastmile_qr_scan", "ios": "https://dc.lft.to/lastmile_qr_scan"}, "type": "electric_scooter", "name": "801fe8ad57c7d1fe3ebda97a7a31f1c5"}, {"bike_id": "4c9d4a6881ccfaa78d004c63c8fdde9f", "lat": 38.93467183333333, "is_disabled": 0, "lon": -77.032486, "fusion_lon": 0.0, "is_reserved": 0, "fusion_lat": 0.0, "rental_uris": {"android": "https://dc.lft.to/lastmile_qr_scan", "ios": "https://dc.lft.to/lastmile_qr_scan"}, "type": "electric_scooter", "name": "4c9d4a6881ccfaa78d004c63c8fdde9f"}, {"bike_id": "67187a079014e84f1de19a74d3146236", "lat": 38.91979366666666, "is_disabled": 0, "lon": -77.029571, "fusion_lon": 0.0, "is_reserved": 0, "fusion_lat": 0.0, "rental_uris": {"android": "https://dc.lft.to/lastmile_qr_scan", "ios": "https://dc.lft.to/lastmile_qr_scan"}, "type": "electric_scooter", "name": "67187a079014e84f1de19a74d3146236"}, {"bike_id": "fe3a72f760a969997ac073af2bda6468", "lat": 38.85780166666667, "is_disabled": 0, "lon": -76.97321083333334, "fusion_lon": 0.0, "is_reserved": 0, "fusion_lat": 0.0, "rental_uris": {"android": "https://dc.lft.to/lastmile_qr_scan", "ios": "https://dc.lft.to/lastmile_qr_scan"}, "type": "electric_bike", "name": "fe3a72f760a969997ac073af2bda6468"}, {"bike_id": "f05c5734b9c9db4f9b804e09e9a94a90", "lat": 38.90897566666666, "is_disabled": 0, "lon": -77.04898916666667, "fusion_lon": 0.0, "is_reserved": 0, "fusion_lat": 0.0, "rental_uris": {"android": "https://dc.lft.to/lastmile_qr_scan", "ios": "https://dc.lft.to/lastmile_qr_scan"}, "type": "electric_scooter", "name": "f05c5734b9c9db4f9b804e09e9a94a90"}, {"bike_id": "364d9e1ea613eae766f3a5747255c41e", "lat": 38.9274425, "is_disabled": 0, "lon": -77.025298, "fusion_lon": 0.0, "is_reserved": 0, "fusion_lat": 0.0, "rental_uris": {"android": "https://dc.lft.to/lastmile_qr_scan", "ios": "https://dc.lft.to/lastmile_qr_scan"}, "type": "electric_scooter", "name": "364d9e1ea613eae766f3a5747255c41e"}, {"bike_id": "60e8350b3df085632badeac78a7ce485", "lat": 38.901056833333335, "is_disabled": 0, "lon": -77.025455, "fusion_lon": 0.0, "is_reserved": 0, "fusion_lat": 0.0, "rental_uris": {"android": "https://dc.lft.to/lastmile_qr_scan", "ios": "https://dc.lft.to/lastmile_qr_scan"}, "type": "electric_scooter", "name": "60e8350b3df085632badeac78a7ce485"}, {"bike_id": "fc33f82013a4d50ffea9045c9bfafcc4", "lat": 38.92031816666667, "is_disabled": 0, "lon": -77.01216616666666, "fusion_lon": 0.0, "is_reserved": 0, "fusion_lat": 0.0, "rental_uris": {"android": "https://dc.lft.to/lastmile_qr_scan", "ios": "https://dc.lft.to/lastmile_qr_scan"}, "type": "electric_scooter", "name": "fc33f82013a4d50ffea9045c9bfafcc4"}, {"bike_id": "6977551019e17f7e369f506a18999fdd", "lat": 38.8922135, "is_disabled": 0, "lon": -77.04859283333333, "fusion_lon": 0.0, "is_reserved": 0, "fusion_lat": 0.0, "rental_uris": {"android": "https://dc.lft.to/lastmile_qr_scan", "ios": "https://dc.lft.to/lastmile_qr_scan"}, "type": "electric_scooter", "name": "6977551019e17f7e369f506a18999fdd"}, {"bike_id": "b9d3da7ff5f002397577968d9e8a256d", "lat": 38.9368185, "is_disabled": 0, "lon": -77.03621816666667, "fusion_lon": 0.0, "is_reserved": 0, "fusion_lat": 0.0, "rental_uris": {"android": "https://dc.lft.to/lastmile_qr_scan", "ios": "https://dc.lft.to/lastmile_qr_scan"}, "type": "electric_scooter", "name": "b9d3da7ff5f002397577968d9e8a256d"}, {"bike_id": "4ef849e47e92c238391a6b55921eaae4", "lat": 38.9038215, "is_disabled": 0, "lon": -77.04764483333334, "fusion_lon": 0.0, "is_reserved": 0, "fusion_lat": 0.0, "rental_uris": {"android": "https://dc.lft.to/lastmile_qr_scan", "ios": "https://dc.lft.to/lastmile_qr_scan"}, "type": "electric_scooter", "name": "4ef849e47e92c238391a6b55921eaae4"}, {"bike_id": "98e38f18729498621fb892002d5f8c13", "lat": 38.9189045, "is_disabled": 0, "lon": -77.02098283333333, "fusion_lon": 0.0, "is_reserved": 0, "fusion_lat": 0.0, "rental_uris": {"android": "https://dc.lft.to/lastmile_qr_scan", "ios": "https://dc.lft.to/lastmile_qr_scan"}, "type": "electric_scooter", "name": "98e38f18729498621fb892002d5f8c13"}, {"bike_id": "58fc0ed74a4e9d8b5fb0438291869459", "lat": 38.911899, "is_disabled": 0, "lon": -76.98726616666667, "fusion_lon": 0.0, "is_reserved": 0, "fusion_lat": 0.0, "rental_uris": {"android": "https://dc.lft.to/lastmile_qr_scan", "ios": "https://dc.lft.to/lastmile_qr_scan"}, "type": "electric_scooter", "name": "58fc0ed74a4e9d8b5fb0438291869459"}, {"bike_id": "e141301cbfb1444834a631008a3beb10", "lat": 38.934276, "is_disabled": 0, "lon": -77.0399765, "fusion_lon": 0.0, "is_reserved": 0, "fusion_lat": 0.0, "rental_uris": {"android": "https://dc.lft.to/lastmile_qr_scan", "ios": "https://dc.lft.to/lastmile_qr_scan"}, "type": "electric_scooter", "name": "e141301cbfb1444834a631008a3beb10"}, {"bike_id": "03e447224e5286fa090698d95bd81c65", "lat": 38.912682, "is_disabled": 0, "lon": -77.04509266666666, "fusion_lon": 0.0, "is_reserved": 0, "fusion_lat": 0.0, "rental_uris": {"android": "https://dc.lft.to/lastmile_qr_scan", "ios": "https://dc.lft.to/lastmile_qr_scan"}, "type": "electric_scooter", "name": "03e447224e5286fa090698d95bd81c65"}, {"bike_id": "49303310a853afa8f1f9de68e565d462", "lat": 38.8649815, "is_disabled": 0, "lon": -76.98986683333334, "fusion_lon": 0.0, "is_reserved": 0, "fusion_lat": 0.0, "rental_uris": {"android": "https://dc.lft.to/lastmile_qr_scan", "ios": "https://dc.lft.to/lastmile_qr_scan"}, "type": "electric_scooter", "name": "49303310a853afa8f1f9de68e565d462"}, {"bike_id": "bbfba8296da38e2e7b479a8086632888", "lat": 38.94178083333333, "is_disabled": 0, "lon": -77.023792, "fusion_lon": 0.0, "is_reserved": 0, "fusion_lat": 0.0, "rental_uris": {"android": "https://dc.lft.to/lastmile_qr_scan", "ios": "https://dc.lft.to/lastmile_qr_scan"}, "type": "electric_scooter", "name": "bbfba8296da38e2e7b479a8086632888"}, {"bike_id": "683912299fdcaf1db46bf677c76e8142", "lat": 39.002900833333335, "is_disabled": 0, "lon": -76.90301133333334, "fusion_lon": 0.0, "is_reserved": 0, "fusion_lat": 0.0, "rental_uris": {"android": "https://dc.lft.to/lastmile_qr_scan", "ios": "https://dc.lft.to/lastmile_qr_scan"}, "type": "electric_bike", "name": "683912299fdcaf1db46bf677c76e8142"}, {"bike_id": "cf0e777390821265af0c7c6f16a6e51d", "lat": 38.91745866666667, "is_disabled": 0, "lon": -77.03653366666667, "fusion_lon": 0.0, "is_reserved": 0, "fusion_lat": 0.0, "rental_uris": {"android": "https://dc.lft.to/lastmile_qr_scan", "ios": "https://dc.lft.to/lastmile_qr_scan"}, "type": "electric_scooter", "name": "cf0e777390821265af0c7c6f16a6e51d"}, {"bike_id": "bb9463782ec7df2e31429e66a2612668", "lat": 38.93830783333333, "is_disabled": 0, "lon": -77.0617345, "fusion_lon": 0.0, "is_reserved": 0, "fusion_lat": 0.0, "rental_uris": {"android": "https://dc.lft.to/lastmile_qr_scan", "ios": "https://dc.lft.to/lastmile_qr_scan"}, "type": "electric_scooter", "name": "bb9463782ec7df2e31429e66a2612668"}, {"bike_id": "35fb33b2c523167ab9e156d2ddd593a8", "lat": 38.896691833333335, "is_disabled": 0, "lon": -76.93306616666666, "fusion_lon": 0.0, "is_reserved": 0, "fusion_lat": 0.0, "rental_uris": {"android": "https://dc.lft.to/lastmile_qr_scan", "ios": "https://dc.lft.to/lastmile_qr_scan"}, "type": "electric_scooter", "name": "35fb33b2c523167ab9e156d2ddd593a8"}, {"bike_id": "72b1a0cd361e155bdf72da88fca368e2", "lat": 38.88607283333333, "is_disabled": 0, "lon": -77.01795066666666, "fusion_lon": 0.0, "is_reserved": 0, "fusion_lat": 0.0, "rental_uris": {"android": "https://dc.lft.to/lastmile_qr_scan", "ios": "https://dc.lft.to/lastmile_qr_scan"}, "type": "electric_scooter", "name": "72b1a0cd361e155bdf72da88fca368e2"}, {"bike_id": "331417339ac5eea509c06ab999ab4c06", "lat": 38.86655183333333, "is_disabled": 0, "lon": -76.98886366666666, "fusion_lon": 0.0, "is_reserved": 0, "fusion_lat": 0.0, "rental_uris": {"android": "https://dc.lft.to/lastmile_qr_scan", "ios": "https://dc.lft.to/lastmile_qr_scan"}, "type": "electric_scooter", "name": "331417339ac5eea509c06ab999ab4c06"}, {"bike_id": "46af6c8ec169839efd2943a4e3c9d0d4", "lat": 38.7998455, "is_disabled": 0, "lon": -77.12975816666666, "fusion_lon": 0.0, "is_reserved": 0, "fusion_lat": 0.0, "rental_uris": {"android": "https://dc.lft.to/lastmile_qr_scan", "ios": "https://dc.lft.to/lastmile_qr_scan"}, "type": "electric_bike", "name": "46af6c8ec169839efd2943a4e3c9d0d4"}, {"bike_id": "ee1dc5f5e99a08b1e11ad9d0006af305", "lat": 38.89419616666667, "is_disabled": 0, "lon": -76.99960366666667, "fusion_lon": 0.0, "is_reserved": 0, "fusion_lat": 0.0, "rental_uris": {"android": "https://dc.lft.to/lastmile_qr_scan", "ios": "https://dc.lft.to/lastmile_qr_scan"}, "type": "electric_scooter", "name": "ee1dc5f5e99a08b1e11ad9d0006af305"}, {"bike_id": "9b7a56fd7fcd951ff577d57155e5749b", "lat": 38.94410083333333, "is_disabled": 0, "lon": -77.0551285, "fusion_lon": 0.0, "is_reserved": 0, "fusion_lat": 0.0, "rental_uris": {"android": "https://dc.lft.to/lastmile_qr_scan", "ios": "https://dc.lft.to/lastmile_qr_scan"}, "type": "electric_bike", "name": "9b7a56fd7fcd951ff577d57155e5749b"}, {"bike_id": "9f831f6f5b650427da00a832987ac2a2", "lat": 38.94511816666667, "is_disabled": 0, "lon": -77.0336405, "fusion_lon": 0.0, "is_reserved": 0, "fusion_lat": 0.0, "rental_uris": {"android": "https://dc.lft.to/lastmile_qr_scan", "ios": "https://dc.lft.to/lastmile_qr_scan"}, "type": "electric_scooter", "name": "9f831f6f5b650427da00a832987ac2a2"}, {"bike_id": "de103c161bb8330bbb6928202e852340", "lat": 38.93420716666667, "is_disabled": 0, "lon": -77.03992383333333, "fusion_lon": 0.0, "is_reserved": 0, "fusion_lat": 0.0, "rental_uris": {"android": "https://dc.lft.to/lastmile_qr_scan", "ios": "https://dc.lft.to/lastmile_qr_scan"}, "type": "electric_scooter", "name": "de103c161bb8330bbb6928202e852340"}, {"bike_id": "13b776c1c3d9ed0bb74b24ae3d6aa871", "lat": 38.89222816666667, "is_disabled": 0, "lon": -77.032198, "fusion_lon": 0.0, "is_reserved": 0, "fusion_lat": 0.0, "rental_uris": {"android": "https://dc.lft.to/lastmile_qr_scan", "ios": "https://dc.lft.to/lastmile_qr_scan"}, "type": "electric_scooter", "name": "13b776c1c3d9ed0bb74b24ae3d6aa871"}, {"bike_id": "ba04ed35b8edc46c9cedc55053e43ea7", "lat": 38.927324666666664, "is_disabled": 0, "lon": -77.0524745, "fusion_lon": 0.0, "is_reserved": 0, "fusion_lat": 0.0, "rental_uris": {"android": "https://dc.lft.to/lastmile_qr_scan", "ios": "https://dc.lft.to/lastmile_qr_scan"}, "type": "electric_scooter", "name": "ba04ed35b8edc46c9cedc55053e43ea7"}, {"bike_id": "779bdc0f702825da7ac59cc7fd733384", "lat": 38.91555, "is_disabled": 0, "lon": -77.03709866666667, "fusion_lon": 0.0, "is_reserved": 0, "fusion_lat": 0.0, "rental_uris": {"android": "https://dc.lft.to/lastmile_qr_scan", "ios": "https://dc.lft.to/lastmile_qr_scan"}, "type": "electric_scooter", "name": "779bdc0f702825da7ac59cc7fd733384"}, {"bike_id": "2961a87160b26f409974d87e4172c1bf", "lat": 38.79984066666667, "is_disabled": 0, "lon": -77.1297265, "fusion_lon": 0.0, "is_reserved": 0, "fusion_lat": 0.0, "rental_uris": {"android": "https://dc.lft.to/lastmile_qr_scan", "ios": "https://dc.lft.to/lastmile_qr_scan"}, "type": "electric_bike", "name": "2961a87160b26f409974d87e4172c1bf"}, {"bike_id": "df5bba8aa2d1d129bc0ea731b66ebbb4", "lat": 38.90588916666667, "is_disabled": 0, "lon": -77.04721683333334, "fusion_lon": 0.0, "is_reserved": 0, "fusion_lat": 0.0, "rental_uris": {"android": "https://dc.lft.to/lastmile_qr_scan", "ios": "https://dc.lft.to/lastmile_qr_scan"}, "type": "electric_scooter", "name": "df5bba8aa2d1d129bc0ea731b66ebbb4"}, {"bike_id": "26e3aeb3745454e42eb604530e56615d", "lat": 38.894774166666664, "is_disabled": 0, "lon": -77.02676, "fusion_lon": 0.0, "is_reserved": 0, "fusion_lat": 0.0, "rental_uris": {"android": "https://dc.lft.to/lastmile_qr_scan", "ios": "https://dc.lft.to/lastmile_qr_scan"}, "type": "electric_bike", "name": "26e3aeb3745454e42eb604530e56615d"}, {"bike_id": "1e551d48dbd0d2cf21f49dcf2f71387c", "lat": 38.87675566666667, "is_disabled": 0, "lon": -77.01787983333334, "fusion_lon": 0.0, "is_reserved": 0, "fusion_lat": 0.0, "rental_uris": {"android": "https://dc.lft.to/lastmile_qr_scan", "ios": "https://dc.lft.to/lastmile_qr_scan"}, "type": "electric_scooter", "name": "1e551d48dbd0d2cf21f49dcf2f71387c"}, {"bike_id": "6983497ea4d1817691b7f7f6de7a3b63", "lat": 38.924392166666664, "is_disabled": 0, "lon": -77.020175, "fusion_lon": 0.0, "is_reserved": 0, "fusion_lat": 0.0, "rental_uris": {"android": "https://dc.lft.to/lastmile_qr_scan", "ios": "https://dc.lft.to/lastmile_qr_scan"}, "type": "electric_scooter", "name": "6983497ea4d1817691b7f7f6de7a3b63"}, {"bike_id": "2acd52fb1e9d743521c3f9d7fdce822e", "lat": 38.937325666666666, "is_disabled": 0, "lon": -77.03260566666667, "fusion_lon": 0.0, "is_reserved": 0, "fusion_lat": 0.0, "rental_uris": {"android": "https://dc.lft.to/lastmile_qr_scan", "ios": "https://dc.lft.to/lastmile_qr_scan"}, "type": "electric_scooter", "name": "2acd52fb1e9d743521c3f9d7fdce822e"}, {"bike_id": "d1801e5f9a22b47134a718595462e7ce", "lat": 38.8427695, "is_disabled": 0, "lon": -76.98839466666666, "fusion_lon": 0.0, "is_reserved": 0, "fusion_lat": 0.0, "rental_uris": {"android": "https://dc.lft.to/lastmile_qr_scan", "ios": "https://dc.lft.to/lastmile_qr_scan"}, "type": "electric_bike", "name": "d1801e5f9a22b47134a718595462e7ce"}, {"bike_id": "c8ec01710fca6d78f590a6ff38742e9d", "lat": 38.91744466666667, "is_disabled": 0, "lon": -77.02809316666666, "fusion_lon": 0.0, "is_reserved": 0, "fusion_lat": 0.0, "rental_uris": {"android": "https://dc.lft.to/lastmile_qr_scan", "ios": "https://dc.lft.to/lastmile_qr_scan"}, "type": "electric_scooter", "name": "c8ec01710fca6d78f590a6ff38742e9d"}, {"bike_id": "ce418e9330ced500f9674ff2a473de50", "lat": 38.90470083333334, "is_disabled": 0, "lon": -77.00592783333333, "fusion_lon": 0.0, "is_reserved": 0, "fusion_lat": 0.0, "rental_uris": {"android": "https://dc.lft.to/lastmile_qr_scan", "ios": "https://dc.lft.to/lastmile_qr_scan"}, "type": "electric_scooter", "name": "ce418e9330ced500f9674ff2a473de50"}, {"bike_id": "c55e6216b84e7d263f9ce2a744c236d6", "lat": 38.93281966666667, "is_disabled": 0, "lon": -77.0408835, "fusion_lon": 0.0, "is_reserved": 0, "fusion_lat": 0.0, "rental_uris": {"android": "https://dc.lft.to/lastmile_qr_scan", "ios": "https://dc.lft.to/lastmile_qr_scan"}, "type": "electric_scooter", "name": "c55e6216b84e7d263f9ce2a744c236d6"}, {"bike_id": "2a38d33f22e814c4d058eeb1451566f6", "lat": 38.876467166666664, "is_disabled": 0, "lon": -76.96507733333334, "fusion_lon": 0.0, "is_reserved": 0, "fusion_lat": 0.0, "rental_uris": {"android": "https://dc.lft.to/lastmile_qr_scan", "ios": "https://dc.lft.to/lastmile_qr_scan"}, "type": "electric_scooter", "name": "2a38d33f22e814c4d058eeb1451566f6"}, {"bike_id": "3e0750614afa9b94c66ed81427fbfc8c", "lat": 38.93821583333333, "is_disabled": 0, "lon": -76.98926466666667, "fusion_lon": 0.0, "is_reserved": 0, "fusion_lat": 0.0, "rental_uris": {"android": "https://dc.lft.to/lastmile_qr_scan", "ios": "https://dc.lft.to/lastmile_qr_scan"}, "type": "electric_scooter", "name": "3e0750614afa9b94c66ed81427fbfc8c"}, {"bike_id": "079901fe5ca230274d78d1542e569d14", "lat": 38.896862666666664, "is_disabled": 0, "lon": -77.0196345, "fusion_lon": 0.0, "is_reserved": 0, "fusion_lat": 0.0, "rental_uris": {"android": "https://dc.lft.to/lastmile_qr_scan", "ios": "https://dc.lft.to/lastmile_qr_scan"}, "type": "electric_scooter", "name": "079901fe5ca230274d78d1542e569d14"}, {"bike_id": "1002ddbf631a81cc464ccba7349f18c4", "lat": 38.899130166666666, "is_disabled": 0, "lon": -76.93371516666667, "fusion_lon": 0.0, "is_reserved": 0, "fusion_lat": 0.0, "rental_uris": {"android": "https://dc.lft.to/lastmile_qr_scan", "ios": "https://dc.lft.to/lastmile_qr_scan"}, "type": "electric_scooter", "name": "1002ddbf631a81cc464ccba7349f18c4"}, {"bike_id": "2c3f028f76c52bbd326a2a64c8a4c15d", "lat": 38.91024183333333, "is_disabled": 0, "lon": -77.03193116666667, "fusion_lon": 0.0, "is_reserved": 0, "fusion_lat": 0.0, "rental_uris": {"android": "https://dc.lft.to/lastmile_qr_scan", "ios": "https://dc.lft.to/lastmile_qr_scan"}, "type": "electric_scooter", "name": "2c3f028f76c52bbd326a2a64c8a4c15d"}, {"bike_id": "4deea000417f33b1d3bfbae5879121ed", "lat": 38.889934, "is_disabled": 0, "lon": -77.00047633333334, "fusion_lon": 0.0, "is_reserved": 0, "fusion_lat": 0.0, "rental_uris": {"android": "https://dc.lft.to/lastmile_qr_scan", "ios": "https://dc.lft.to/lastmile_qr_scan"}, "type": "electric_scooter", "name": "4deea000417f33b1d3bfbae5879121ed"}, {"bike_id": "09e0340c730d532f562c395101f84e81", "lat": 38.90707366666667, "is_disabled": 0, "lon": -76.985632, "fusion_lon": 0.0, "is_reserved": 0, "fusion_lat": 0.0, "rental_uris": {"android": "https://dc.lft.to/lastmile_qr_scan", "ios": "https://dc.lft.to/lastmile_qr_scan"}, "type": "electric_scooter", "name": "09e0340c730d532f562c395101f84e81"}, {"bike_id": "94c252d6145f39fc17365df41cbc58b4", "lat": 38.9064725, "is_disabled": 0, "lon": -77.04246716666667, "fusion_lon": 0.0, "is_reserved": 0, "fusion_lat": 0.0, "rental_uris": {"android": "https://dc.lft.to/lastmile_qr_scan", "ios": "https://dc.lft.to/lastmile_qr_scan"}, "type": "electric_scooter", "name": "94c252d6145f39fc17365df41cbc58b4"}, {"bike_id": "4398a8b5d2c5e1d69e92116a9f3a973e", "lat": 38.8922055, "is_disabled": 0, "lon": -77.0485935, "fusion_lon": 0.0, "is_reserved": 0, "fusion_lat": 0.0, "rental_uris": {"android": "https://dc.lft.to/lastmile_qr_scan", "ios": "https://dc.lft.to/lastmile_qr_scan"}, "type": "electric_scooter", "name": "4398a8b5d2c5e1d69e92116a9f3a973e"}, {"bike_id": "922ae5e0640c95272fcb846a7eba11cd", "lat": 38.956608333333335, "is_disabled": 0, "lon": -77.01319366666667, "fusion_lon": 0.0, "is_reserved": 0, "fusion_lat": 0.0, "rental_uris": {"android": "https://dc.lft.to/lastmile_qr_scan", "ios": "https://dc.lft.to/lastmile_qr_scan"}, "type": "electric_bike", "name": "922ae5e0640c95272fcb846a7eba11cd"}, {"bike_id": "bad77408ca0fd7322491973898c9e4b3", "lat": 38.920298, "is_disabled": 0, "lon": -77.03155733333334, "fusion_lon": 0.0, "is_reserved": 0, "fusion_lat": 0.0, "rental_uris": {"android": "https://dc.lft.to/lastmile_qr_scan", "ios": "https://dc.lft.to/lastmile_qr_scan"}, "type": "electric_scooter", "name": "bad77408ca0fd7322491973898c9e4b3"}, {"bike_id": "9a02fd451db2b93b9ba4d695942a15c2", "lat": 38.90582533333333, "is_disabled": 0, "lon": -77.06515866666666, "fusion_lon": 0.0, "is_reserved": 0, "fusion_lat": 0.0, "rental_uris": {"android": "https://dc.lft.to/lastmile_qr_scan", "ios": "https://dc.lft.to/lastmile_qr_scan"}, "type": "electric_scooter", "name": "9a02fd451db2b93b9ba4d695942a15c2"}, {"bike_id": "013e1dbc1233bbc665b3feca9692e100", "lat": 38.90842833333333, "is_disabled": 0, "lon": -77.03638466666666, "fusion_lon": 0.0, "is_reserved": 0, "fusion_lat": 0.0, "rental_uris": {"android": "https://dc.lft.to/lastmile_qr_scan", "ios": "https://dc.lft.to/lastmile_qr_scan"}, "type": "electric_scooter", "name": "013e1dbc1233bbc665b3feca9692e100"}, {"bike_id": "bd63a30a74c82699ca2767b9e452c091", "lat": 38.8929125, "is_disabled": 0, "lon": -76.95105483333333, "fusion_lon": 0.0, "is_reserved": 0, "fusion_lat": 0.0, "rental_uris": {"android": "https://dc.lft.to/lastmile_qr_scan", "ios": "https://dc.lft.to/lastmile_qr_scan"}, "type": "electric_scooter", "name": "bd63a30a74c82699ca2767b9e452c091"}, {"bike_id": "8313e302c40550c23ee9da58ddb31f96", "lat": 38.90960316666666, "is_disabled": 0, "lon": -77.03826783333334, "fusion_lon": 0.0, "is_reserved": 0, "fusion_lat": 0.0, "rental_uris": {"android": "https://dc.lft.to/lastmile_qr_scan", "ios": "https://dc.lft.to/lastmile_qr_scan"}, "type": "electric_scooter", "name": "8313e302c40550c23ee9da58ddb31f96"}, {"bike_id": "5feeb2a5d429cabaa6a86a86f934d1cc", "lat": 38.9282475, "is_disabled": 0, "lon": -77.02261166666666, "fusion_lon": 0.0, "is_reserved": 0, "fusion_lat": 0.0, "rental_uris": {"android": "https://dc.lft.to/lastmile_qr_scan", "ios": "https://dc.lft.to/lastmile_qr_scan"}, "type": "electric_scooter", "name": "5feeb2a5d429cabaa6a86a86f934d1cc"}, {"bike_id": "dd6e5eb5dac170103987dfccf2c7afbc", "lat": 38.92446966666667, "is_disabled": 0, "lon": -77.0518885, "fusion_lon": 0.0, "is_reserved": 0, "fusion_lat": 0.0, "rental_uris": {"android": "https://dc.lft.to/lastmile_qr_scan", "ios": "https://dc.lft.to/lastmile_qr_scan"}, "type": "electric_scooter", "name": "dd6e5eb5dac170103987dfccf2c7afbc"}, {"bike_id": "51da4f91daa1d76353fc058f92d5e21c", "lat": 38.9195265, "is_disabled": 0, "lon": -77.02484816666667, "fusion_lon": 0.0, "is_reserved": 0, "fusion_lat": 0.0, "rental_uris": {"android": "https://dc.lft.to/lastmile_qr_scan", "ios": "https://dc.lft.to/lastmile_qr_scan"}, "type": "electric_scooter", "name": "51da4f91daa1d76353fc058f92d5e21c"}, {"bike_id": "5990979e9113488da32cf6bfb743e745", "lat": 38.932816333333335, "is_disabled": 0, "lon": -77.03691, "fusion_lon": 0.0, "is_reserved": 0, "fusion_lat": 0.0, "rental_uris": {"android": "https://dc.lft.to/lastmile_qr_scan", "ios": "https://dc.lft.to/lastmile_qr_scan"}, "type": "electric_scooter", "name": "5990979e9113488da32cf6bfb743e745"}, {"bike_id": "391429cf8d81c7dc99dab24b1a826808", "lat": 38.92265666666667, "is_disabled": 0, "lon": -77.019198, "fusion_lon": 0.0, "is_reserved": 0, "fusion_lat": 0.0, "rental_uris": {"android": "https://dc.lft.to/lastmile_qr_scan", "ios": "https://dc.lft.to/lastmile_qr_scan"}, "type": "electric_scooter", "name": "391429cf8d81c7dc99dab24b1a826808"}, {"bike_id": "e13f52aa060e9de0dd34cef3c98f2047", "lat": 38.8848215, "is_disabled": 0, "lon": -77.02072366666667, "fusion_lon": 0.0, "is_reserved": 0, "fusion_lat": 0.0, "rental_uris": {"android": "https://dc.lft.to/lastmile_qr_scan", "ios": "https://dc.lft.to/lastmile_qr_scan"}, "type": "electric_scooter", "name": "e13f52aa060e9de0dd34cef3c98f2047"}, {"bike_id": "131701f869e4da7de6ab895b2a587a65", "lat": 38.924522, "is_disabled": 0, "lon": -77.03290866666667, "fusion_lon": 0.0, "is_reserved": 0, "fusion_lat": 0.0, "rental_uris": {"android": "https://dc.lft.to/lastmile_qr_scan", "ios": "https://dc.lft.to/lastmile_qr_scan"}, "type": "electric_scooter", "name": "131701f869e4da7de6ab895b2a587a65"}, {"bike_id": "56255207ba3309b34eecd662fc000362", "lat": 38.888100333333334, "is_disabled": 0, "lon": -77.03825016666667, "fusion_lon": 0.0, "is_reserved": 0, "fusion_lat": 0.0, "rental_uris": {"android": "https://dc.lft.to/lastmile_qr_scan", "ios": "https://dc.lft.to/lastmile_qr_scan"}, "type": "electric_bike", "name": "56255207ba3309b34eecd662fc000362"}, {"bike_id": "6831ce22c4ae40bc961b078fb3d98f14", "lat": 38.892508, "is_disabled": 0, "lon": -77.045034, "fusion_lon": 0.0, "is_reserved": 0, "fusion_lat": 0.0, "rental_uris": {"android": "https://dc.lft.to/lastmile_qr_scan", "ios": "https://dc.lft.to/lastmile_qr_scan"}, "type": "electric_scooter", "name": "6831ce22c4ae40bc961b078fb3d98f14"}, {"bike_id": "35babaaaf0136f78188fad99b35714bd", "lat": 38.937112166666665, "is_disabled": 0, "lon": -77.0592745, "fusion_lon": 0.0, "is_reserved": 0, "fusion_lat": 0.0, "rental_uris": {"android": "https://dc.lft.to/lastmile_qr_scan", "ios": "https://dc.lft.to/lastmile_qr_scan"}, "type": "electric_scooter", "name": "35babaaaf0136f78188fad99b35714bd"}, {"bike_id": "1e510f58fae1159a3be6966eca60524b", "lat": 38.8898985, "is_disabled": 0, "lon": -77.00326616666666, "fusion_lon": 0.0, "is_reserved": 0, "fusion_lat": 0.0, "rental_uris": {"android": "https://dc.lft.to/lastmile_qr_scan", "ios": "https://dc.lft.to/lastmile_qr_scan"}, "type": "electric_scooter", "name": "1e510f58fae1159a3be6966eca60524b"}, {"bike_id": "7fd5f4fa62f6e93ef5e452399a01a8a3", "lat": 38.90241566666667, "is_disabled": 0, "lon": -77.033387, "fusion_lon": 0.0, "is_reserved": 0, "fusion_lat": 0.0, "rental_uris": {"android": "https://dc.lft.to/lastmile_qr_scan", "ios": "https://dc.lft.to/lastmile_qr_scan"}, "type": "electric_scooter", "name": "7fd5f4fa62f6e93ef5e452399a01a8a3"}, {"bike_id": "e44dabd911e226b76be5eed0bffd0929", "lat": 38.91045883333334, "is_disabled": 0, "lon": -77.0219235, "fusion_lon": 0.0, "is_reserved": 0, "fusion_lat": 0.0, "rental_uris": {"android": "https://dc.lft.to/lastmile_qr_scan", "ios": "https://dc.lft.to/lastmile_qr_scan"}, "type": "electric_scooter", "name": "e44dabd911e226b76be5eed0bffd0929"}, {"bike_id": "977fa825ef00507c87169921e39499aa", "lat": 38.9369805, "is_disabled": 0, "lon": -77.05596533333333, "fusion_lon": 0.0, "is_reserved": 0, "fusion_lat": 0.0, "rental_uris": {"android": "https://dc.lft.to/lastmile_qr_scan", "ios": "https://dc.lft.to/lastmile_qr_scan"}, "type": "electric_scooter", "name": "977fa825ef00507c87169921e39499aa"}, {"bike_id": "80ce22db00b4ab13e9ba958beaad33bb", "lat": 38.91132283333334, "is_disabled": 0, "lon": -77.046638, "fusion_lon": 0.0, "is_reserved": 0, "fusion_lat": 0.0, "rental_uris": {"android": "https://dc.lft.to/lastmile_qr_scan", "ios": "https://dc.lft.to/lastmile_qr_scan"}, "type": "electric_scooter", "name": "80ce22db00b4ab13e9ba958beaad33bb"}, {"bike_id": "b5f2fd0b3bcfa827f3e1a6b42428e4b3", "lat": 38.89218116666667, "is_disabled": 0, "lon": -77.027753, "fusion_lon": 0.0, "is_reserved": 0, "fusion_lat": 0.0, "rental_uris": {"android": "https://dc.lft.to/lastmile_qr_scan", "ios": "https://dc.lft.to/lastmile_qr_scan"}, "type": "electric_scooter", "name": "b5f2fd0b3bcfa827f3e1a6b42428e4b3"}, {"bike_id": "020dc567941994182f2d9516ec867646", "lat": 38.9173575, "is_disabled": 0, "lon": -77.00689283333334, "fusion_lon": 0.0, "is_reserved": 0, "fusion_lat": 0.0, "rental_uris": {"android": "https://dc.lft.to/lastmile_qr_scan", "ios": "https://dc.lft.to/lastmile_qr_scan"}, "type": "electric_scooter", "name": "020dc567941994182f2d9516ec867646"}, {"bike_id": "e569d795d15b97f73a7c27f2739c1a56", "lat": 38.957573333333336, "is_disabled": 0, "lon": -77.01476266666667, "fusion_lon": 0.0, "is_reserved": 0, "fusion_lat": 0.0, "rental_uris": {"android": "https://dc.lft.to/lastmile_qr_scan", "ios": "https://dc.lft.to/lastmile_qr_scan"}, "type": "electric_scooter", "name": "e569d795d15b97f73a7c27f2739c1a56"}, {"bike_id": "a16f3ecc4bcef7e38e610fd329200c1e", "lat": 38.90582466666667, "is_disabled": 0, "lon": -77.03350766666667, "fusion_lon": 0.0, "is_reserved": 0, "fusion_lat": 0.0, "rental_uris": {"android": "https://dc.lft.to/lastmile_qr_scan", "ios": "https://dc.lft.to/lastmile_qr_scan"}, "type": "electric_scooter", "name": "a16f3ecc4bcef7e38e610fd329200c1e"}, {"bike_id": "e59b989a41389fc2ecdb27b4a7cb971c", "lat": 38.88772733333333, "is_disabled": 0, "lon": -77.03322916666667, "fusion_lon": 0.0, "is_reserved": 0, "fusion_lat": 0.0, "rental_uris": {"android": "https://dc.lft.to/lastmile_qr_scan", "ios": "https://dc.lft.to/lastmile_qr_scan"}, "type": "electric_scooter", "name": "e59b989a41389fc2ecdb27b4a7cb971c"}, {"bike_id": "1d58e0c114d8b68a0d020eae889a4c7f", "lat": 38.90997183333333, "is_disabled": 0, "lon": -77.04001583333333, "fusion_lon": 0.0, "is_reserved": 0, "fusion_lat": 0.0, "rental_uris": {"android": "https://dc.lft.to/lastmile_qr_scan", "ios": "https://dc.lft.to/lastmile_qr_scan"}, "type": "electric_scooter", "name": "1d58e0c114d8b68a0d020eae889a4c7f"}, {"bike_id": "25cc0d57339dbb4fe17ba0d746e37df9", "lat": 38.93323916666667, "is_disabled": 0, "lon": -77.03262533333333, "fusion_lon": 0.0, "is_reserved": 0, "fusion_lat": 0.0, "rental_uris": {"android": "https://dc.lft.to/lastmile_qr_scan", "ios": "https://dc.lft.to/lastmile_qr_scan"}, "type": "electric_scooter", "name": "25cc0d57339dbb4fe17ba0d746e37df9"}, {"bike_id": "ce2e572e8b8e4ea14db22bb00dc08703", "lat": 38.919223333333335, "is_disabled": 0, "lon": -77.0240275, "fusion_lon": 0.0, "is_reserved": 0, "fusion_lat": 0.0, "rental_uris": {"android": "https://dc.lft.to/lastmile_qr_scan", "ios": "https://dc.lft.to/lastmile_qr_scan"}, "type": "electric_scooter", "name": "ce2e572e8b8e4ea14db22bb00dc08703"}, {"bike_id": "f93fe0eb4f58fb712932a6e51fb28569", "lat": 38.90795133333334, "is_disabled": 0, "lon": -77.00044383333334, "fusion_lon": 0.0, "is_reserved": 0, "fusion_lat": 0.0, "rental_uris": {"android": "https://dc.lft.to/lastmile_qr_scan", "ios": "https://dc.lft.to/lastmile_qr_scan"}, "type": "electric_scooter", "name": "f93fe0eb4f58fb712932a6e51fb28569"}, {"bike_id": "30d88c32f98d3aa7242d8464a4c72d4b", "lat": 38.924794, "is_disabled": 0, "lon": -77.0255175, "fusion_lon": 0.0, "is_reserved": 0, "fusion_lat": 0.0, "rental_uris": {"android": "https://dc.lft.to/lastmile_qr_scan", "ios": "https://dc.lft.to/lastmile_qr_scan"}, "type": "electric_scooter", "name": "30d88c32f98d3aa7242d8464a4c72d4b"}, {"bike_id": "68783dd1a27e83487ec5187644eb5c16", "lat": 38.902612166666664, "is_disabled": 0, "lon": -77.0342255, "fusion_lon": 0.0, "is_reserved": 0, "fusion_lat": 0.0, "rental_uris": {"android": "https://dc.lft.to/lastmile_qr_scan", "ios": "https://dc.lft.to/lastmile_qr_scan"}, "type": "electric_scooter", "name": "68783dd1a27e83487ec5187644eb5c16"}, {"bike_id": "09c5c89728c143c6ebc359b4cb216986", "lat": 38.88027683333333, "is_disabled": 0, "lon": -77.10941383333333, "fusion_lon": 0.0, "is_reserved": 0, "fusion_lat": 0.0, "rental_uris": {"android": "https://dc.lft.to/lastmile_qr_scan", "ios": "https://dc.lft.to/lastmile_qr_scan"}, "type": "electric_bike", "name": "09c5c89728c143c6ebc359b4cb216986"}, {"bike_id": "656a6c227b7159b7953c499e88224c11", "lat": 38.90896866666667, "is_disabled": 0, "lon": -77.025989, "fusion_lon": 0.0, "is_reserved": 0, "fusion_lat": 0.0, "rental_uris": {"android": "https://dc.lft.to/lastmile_qr_scan", "ios": "https://dc.lft.to/lastmile_qr_scan"}, "type": "electric_scooter", "name": "656a6c227b7159b7953c499e88224c11"}, {"bike_id": "d0c51424d3892cf243dfb735b5f0eee0", "lat": 38.893946, "is_disabled": 0, "lon": -77.02115566666667, "fusion_lon": 0.0, "is_reserved": 0, "fusion_lat": 0.0, "rental_uris": {"android": "https://dc.lft.to/lastmile_qr_scan", "ios": "https://dc.lft.to/lastmile_qr_scan"}, "type": "electric_scooter", "name": "d0c51424d3892cf243dfb735b5f0eee0"}, {"bike_id": "572b51ee084337e830cf4f2dc5157b83", "lat": 38.9243455, "is_disabled": 0, "lon": -77.04247833333334, "fusion_lon": 0.0, "is_reserved": 0, "fusion_lat": 0.0, "rental_uris": {"android": "https://dc.lft.to/lastmile_qr_scan", "ios": "https://dc.lft.to/lastmile_qr_scan"}, "type": "electric_scooter", "name": "572b51ee084337e830cf4f2dc5157b83"}, {"bike_id": "0d4890a0f36ed8133c5b4b12760dabf4", "lat": 38.922344333333335, "is_disabled": 0, "lon": -77.0444895, "fusion_lon": 0.0, "is_reserved": 0, "fusion_lat": 0.0, "rental_uris": {"android": "https://dc.lft.to/lastmile_qr_scan", "ios": "https://dc.lft.to/lastmile_qr_scan"}, "type": "electric_scooter", "name": "0d4890a0f36ed8133c5b4b12760dabf4"}, {"bike_id": "ff93db61d33c8c73d47ec7cb19c02415", "lat": 38.89275083333333, "is_disabled": 0, "lon": -77.046429, "fusion_lon": 0.0, "is_reserved": 0, "fusion_lat": 0.0, "rental_uris": {"android": "https://dc.lft.to/lastmile_qr_scan", "ios": "https://dc.lft.to/lastmile_qr_scan"}, "type": "electric_scooter", "name": "ff93db61d33c8c73d47ec7cb19c02415"}, {"bike_id": "778ff2d27d33cf6f543eb954df76332e", "lat": 38.91169883333333, "is_disabled": 0, "lon": -77.016131, "fusion_lon": 0.0, "is_reserved": 0, "fusion_lat": 0.0, "rental_uris": {"android": "https://dc.lft.to/lastmile_qr_scan", "ios": "https://dc.lft.to/lastmile_qr_scan"}, "type": "electric_scooter", "name": "778ff2d27d33cf6f543eb954df76332e"}, {"bike_id": "e7b1b8d5f6f32db5865e5cfb94ab9e0e", "lat": 38.89533616666667, "is_disabled": 0, "lon": -77.04644733333333, "fusion_lon": 0.0, "is_reserved": 0, "fusion_lat": 0.0, "rental_uris": {"android": "https://dc.lft.to/lastmile_qr_scan", "ios": "https://dc.lft.to/lastmile_qr_scan"}, "type": "electric_scooter", "name": "e7b1b8d5f6f32db5865e5cfb94ab9e0e"}, {"bike_id": "cd0c0e4688b60cb3e147b6f4637eb4a6", "lat": 38.944042333333336, "is_disabled": 0, "lon": -77.05508483333334, "fusion_lon": 0.0, "is_reserved": 0, "fusion_lat": 0.0, "rental_uris": {"android": "https://dc.lft.to/lastmile_qr_scan", "ios": "https://dc.lft.to/lastmile_qr_scan"}, "type": "electric_bike", "name": "cd0c0e4688b60cb3e147b6f4637eb4a6"}, {"bike_id": "afa82d13140a7da9fcb3e92e02a22033", "lat": 38.94066383333333, "is_disabled": 0, "lon": -77.0038955, "fusion_lon": 0.0, "is_reserved": 0, "fusion_lat": 0.0, "rental_uris": {"android": "https://dc.lft.to/lastmile_qr_scan", "ios": "https://dc.lft.to/lastmile_qr_scan"}, "type": "electric_scooter", "name": "afa82d13140a7da9fcb3e92e02a22033"}, {"bike_id": "ef59c393924ef95a1b2340219588e210", "lat": 38.90769366666667, "is_disabled": 0, "lon": -77.0376615, "fusion_lon": 0.0, "is_reserved": 0, "fusion_lat": 0.0, "rental_uris": {"android": "https://dc.lft.to/lastmile_qr_scan", "ios": "https://dc.lft.to/lastmile_qr_scan"}, "type": "electric_scooter", "name": "ef59c393924ef95a1b2340219588e210"}, {"bike_id": "fb3ae7a387fbb1d8a2e7f13ada5cecd1", "lat": 38.89220916666667, "is_disabled": 0, "lon": -77.03989333333334, "fusion_lon": 0.0, "is_reserved": 0, "fusion_lat": 0.0, "rental_uris": {"android": "https://dc.lft.to/lastmile_qr_scan", "ios": "https://dc.lft.to/lastmile_qr_scan"}, "type": "electric_scooter", "name": "fb3ae7a387fbb1d8a2e7f13ada5cecd1"}, {"bike_id": "a4b866d433b73a2bc385841f49ac62a0", "lat": 38.90549816666667, "is_disabled": 0, "lon": -77.0464845, "fusion_lon": 0.0, "is_reserved": 0, "fusion_lat": 0.0, "rental_uris": {"android": "https://dc.lft.to/lastmile_qr_scan", "ios": "https://dc.lft.to/lastmile_qr_scan"}, "type": "electric_scooter", "name": "a4b866d433b73a2bc385841f49ac62a0"}, {"bike_id": "564526710529c67da12890b66cbd532f", "lat": 38.919467833333336, "is_disabled": 0, "lon": -77.02591816666667, "fusion_lon": 0.0, "is_reserved": 0, "fusion_lat": 0.0, "rental_uris": {"android": "https://dc.lft.to/lastmile_qr_scan", "ios": "https://dc.lft.to/lastmile_qr_scan"}, "type": "electric_scooter", "name": "564526710529c67da12890b66cbd532f"}, {"bike_id": "69584ad4693d55d96818e2d451a31ed0", "lat": 38.901284, "is_disabled": 0, "lon": -77.00891816666666, "fusion_lon": 0.0, "is_reserved": 0, "fusion_lat": 0.0, "rental_uris": {"android": "https://dc.lft.to/lastmile_qr_scan", "ios": "https://dc.lft.to/lastmile_qr_scan"}, "type": "electric_scooter", "name": "69584ad4693d55d96818e2d451a31ed0"}, {"bike_id": "247aa7749dcb3a99346ab5bb0a6e8e3e", "lat": 38.907611833333334, "is_disabled": 0, "lon": -77.03843883333333, "fusion_lon": 0.0, "is_reserved": 0, "fusion_lat": 0.0, "rental_uris": {"android": "https://dc.lft.to/lastmile_qr_scan", "ios": "https://dc.lft.to/lastmile_qr_scan"}, "type": "electric_scooter", "name": "247aa7749dcb3a99346ab5bb0a6e8e3e"}, {"bike_id": "83b8a67b5c1d34ab62ff16abc94fe072", "lat": 38.90594566666667, "is_disabled": 0, "lon": -77.04334333333334, "fusion_lon": 0.0, "is_reserved": 0, "fusion_lat": 0.0, "rental_uris": {"android": "https://dc.lft.to/lastmile_qr_scan", "ios": "https://dc.lft.to/lastmile_qr_scan"}, "type": "electric_scooter", "name": "83b8a67b5c1d34ab62ff16abc94fe072"}, {"bike_id": "0c3f440d31c30fd205bad7d451789771", "lat": 38.908786666666664, "is_disabled": 0, "lon": -77.06775816666666, "fusion_lon": 0.0, "is_reserved": 0, "fusion_lat": 0.0, "rental_uris": {"android": "https://dc.lft.to/lastmile_qr_scan", "ios": "https://dc.lft.to/lastmile_qr_scan"}, "type": "electric_scooter", "name": "0c3f440d31c30fd205bad7d451789771"}, {"bike_id": "02bd5fe7d39b9e02869e1fe9e51c6536", "lat": 38.92025183333333, "is_disabled": 0, "lon": -77.01426366666666, "fusion_lon": 0.0, "is_reserved": 0, "fusion_lat": 0.0, "rental_uris": {"android": "https://dc.lft.to/lastmile_qr_scan", "ios": "https://dc.lft.to/lastmile_qr_scan"}, "type": "electric_scooter", "name": "02bd5fe7d39b9e02869e1fe9e51c6536"}, {"bike_id": "817937ae000816fb1bab2f29fd70c7b5", "lat": 38.89221333333333, "is_disabled": 0, "lon": -77.02407416666667, "fusion_lon": 0.0, "is_reserved": 0, "fusion_lat": 0.0, "rental_uris": {"android": "https://dc.lft.to/lastmile_qr_scan", "ios": "https://dc.lft.to/lastmile_qr_scan"}, "type": "electric_scooter", "name": "817937ae000816fb1bab2f29fd70c7b5"}, {"bike_id": "b96eb7035e7bbd4937d27f9a116914cd", "lat": 38.902454, "is_disabled": 0, "lon": -77.0267875, "fusion_lon": 0.0, "is_reserved": 0, "fusion_lat": 0.0, "rental_uris": {"android": "https://dc.lft.to/lastmile_qr_scan", "ios": "https://dc.lft.to/lastmile_qr_scan"}, "type": "electric_scooter", "name": "b96eb7035e7bbd4937d27f9a116914cd"}, {"bike_id": "0852799bed6b147a25ed051d1e451ec0", "lat": 38.90973483333333, "is_disabled": 0, "lon": -77.0454975, "fusion_lon": 0.0, "is_reserved": 0, "fusion_lat": 0.0, "rental_uris": {"android": "https://dc.lft.to/lastmile_qr_scan", "ios": "https://dc.lft.to/lastmile_qr_scan"}, "type": "electric_scooter", "name": "0852799bed6b147a25ed051d1e451ec0"}, {"bike_id": "a4ee21833247f10787e244fa9e34e312", "lat": 38.888487166666664, "is_disabled": 0, "lon": -76.95742933333334, "fusion_lon": 0.0, "is_reserved": 0, "fusion_lat": 0.0, "rental_uris": {"android": "https://dc.lft.to/lastmile_qr_scan", "ios": "https://dc.lft.to/lastmile_qr_scan"}, "type": "electric_bike", "name": "a4ee21833247f10787e244fa9e34e312"}, {"bike_id": "d85edcacc82dc0c88708e9b80f85571c", "lat": 38.89010866666667, "is_disabled": 0, "lon": -76.9374465, "fusion_lon": 0.0, "is_reserved": 0, "fusion_lat": 0.0, "rental_uris": {"android": "https://dc.lft.to/lastmile_qr_scan", "ios": "https://dc.lft.to/lastmile_qr_scan"}, "type": "electric_scooter", "name": "d85edcacc82dc0c88708e9b80f85571c"}, {"bike_id": "7b0bc31a6a37537163819fd480a8b6ad", "lat": 38.887639, "is_disabled": 0, "lon": -77.033534, "fusion_lon": 0.0, "is_reserved": 0, "fusion_lat": 0.0, "rental_uris": {"android": "https://dc.lft.to/lastmile_qr_scan", "ios": "https://dc.lft.to/lastmile_qr_scan"}, "type": "electric_scooter", "name": "7b0bc31a6a37537163819fd480a8b6ad"}, {"bike_id": "07fb88d03091a29900e1fb85a002971f", "lat": 38.881810333333334, "is_disabled": 0, "lon": -77.0219755, "fusion_lon": 0.0, "is_reserved": 0, "fusion_lat": 0.0, "rental_uris": {"android": "https://dc.lft.to/lastmile_qr_scan", "ios": "https://dc.lft.to/lastmile_qr_scan"}, "type": "electric_scooter", "name": "07fb88d03091a29900e1fb85a002971f"}, {"bike_id": "04f87c9e32676f90b297bcc43536687d", "lat": 38.8625795, "is_disabled": 0, "lon": -76.98342016666666, "fusion_lon": 0.0, "is_reserved": 0, "fusion_lat": 0.0, "rental_uris": {"android": "https://dc.lft.to/lastmile_qr_scan", "ios": "https://dc.lft.to/lastmile_qr_scan"}, "type": "electric_bike", "name": "04f87c9e32676f90b297bcc43536687d"}, {"bike_id": "7589d509169663c5aec0a051fd909ba8", "lat": 38.916134, "is_disabled": 0, "lon": -77.0488015, "fusion_lon": 0.0, "is_reserved": 0, "fusion_lat": 0.0, "rental_uris": {"android": "https://dc.lft.to/lastmile_qr_scan", "ios": "https://dc.lft.to/lastmile_qr_scan"}, "type": "electric_scooter", "name": "7589d509169663c5aec0a051fd909ba8"}, {"bike_id": "b51a8d08bf1be5b5b44ca164094fa986", "lat": 38.933021, "is_disabled": 0, "lon": -77.03266933333333, "fusion_lon": 0.0, "is_reserved": 0, "fusion_lat": 0.0, "rental_uris": {"android": "https://dc.lft.to/lastmile_qr_scan", "ios": "https://dc.lft.to/lastmile_qr_scan"}, "type": "electric_scooter", "name": "b51a8d08bf1be5b5b44ca164094fa986"}, {"bike_id": "ead875bc08a1c4f163172b7d783e1266", "lat": 38.91767733333333, "is_disabled": 0, "lon": -77.03461, "fusion_lon": 0.0, "is_reserved": 0, "fusion_lat": 0.0, "rental_uris": {"android": "https://dc.lft.to/lastmile_qr_scan", "ios": "https://dc.lft.to/lastmile_qr_scan"}, "type": "electric_scooter", "name": "ead875bc08a1c4f163172b7d783e1266"}, {"bike_id": "ec5e6a7a86c11ec3d82202a8949ab8a5", "lat": 38.926949, "is_disabled": 0, "lon": -77.020869, "fusion_lon": 0.0, "is_reserved": 0, "fusion_lat": 0.0, "rental_uris": {"android": "https://dc.lft.to/lastmile_qr_scan", "ios": "https://dc.lft.to/lastmile_qr_scan"}, "type": "electric_scooter", "name": "ec5e6a7a86c11ec3d82202a8949ab8a5"}, {"bike_id": "62bf59cd41b59e884b06dcd5faa53a93", "lat": 38.928791, "is_disabled": 0, "lon": -77.03220933333333, "fusion_lon": 0.0, "is_reserved": 0, "fusion_lat": 0.0, "rental_uris": {"android": "https://dc.lft.to/lastmile_qr_scan", "ios": "https://dc.lft.to/lastmile_qr_scan"}, "type": "electric_scooter", "name": "62bf59cd41b59e884b06dcd5faa53a93"}, {"bike_id": "8569ec51544887df64abaa9a285db744", "lat": 38.89009033333333, "is_disabled": 0, "lon": -77.03316666666667, "fusion_lon": 0.0, "is_reserved": 0, "fusion_lat": 0.0, "rental_uris": {"android": "https://dc.lft.to/lastmile_qr_scan", "ios": "https://dc.lft.to/lastmile_qr_scan"}, "type": "electric_scooter", "name": "8569ec51544887df64abaa9a285db744"}, {"bike_id": "1992be583c0ba87730042f611146577d", "lat": 38.836153833333334, "is_disabled": 0, "lon": -76.99674216666666, "fusion_lon": 0.0, "is_reserved": 0, "fusion_lat": 0.0, "rental_uris": {"android": "https://dc.lft.to/lastmile_qr_scan", "ios": "https://dc.lft.to/lastmile_qr_scan"}, "type": "electric_bike", "name": "1992be583c0ba87730042f611146577d"}, {"bike_id": "69ef6560fff42cb27f617cb42c903669", "lat": 38.9063805, "is_disabled": 0, "lon": -77.04649516666667, "fusion_lon": 0.0, "is_reserved": 0, "fusion_lat": 0.0, "rental_uris": {"android": "https://dc.lft.to/lastmile_qr_scan", "ios": "https://dc.lft.to/lastmile_qr_scan"}, "type": "electric_scooter", "name": "69ef6560fff42cb27f617cb42c903669"}, {"bike_id": "389b78ebbecd6ae15d126e710288d2f1", "lat": 38.892360333333336, "is_disabled": 0, "lon": -77.04161283333333, "fusion_lon": 0.0, "is_reserved": 0, "fusion_lat": 0.0, "rental_uris": {"android": "https://dc.lft.to/lastmile_qr_scan", "ios": "https://dc.lft.to/lastmile_qr_scan"}, "type": "electric_scooter", "name": "389b78ebbecd6ae15d126e710288d2f1"}, {"bike_id": "0da7a33b3f4852e616c42bc4ba59297d", "lat": 38.92484416666667, "is_disabled": 0, "lon": -77.02136466666667, "fusion_lon": 0.0, "is_reserved": 0, "fusion_lat": 0.0, "rental_uris": {"android": "https://dc.lft.to/lastmile_qr_scan", "ios": "https://dc.lft.to/lastmile_qr_scan"}, "type": "electric_scooter", "name": "0da7a33b3f4852e616c42bc4ba59297d"}, {"bike_id": "969ed4e9bfa326f9432ecc30da96412f", "lat": 38.927517333333334, "is_disabled": 0, "lon": -77.03245566666666, "fusion_lon": 0.0, "is_reserved": 0, "fusion_lat": 0.0, "rental_uris": {"android": "https://dc.lft.to/lastmile_qr_scan", "ios": "https://dc.lft.to/lastmile_qr_scan"}, "type": "electric_scooter", "name": "969ed4e9bfa326f9432ecc30da96412f"}, {"bike_id": "942dde06750957020a5a513cf1df646f", "lat": 38.90248183333333, "is_disabled": 0, "lon": -77.04597333333334, "fusion_lon": 0.0, "is_reserved": 0, "fusion_lat": 0.0, "rental_uris": {"android": "https://dc.lft.to/lastmile_qr_scan", "ios": "https://dc.lft.to/lastmile_qr_scan"}, "type": "electric_scooter", "name": "942dde06750957020a5a513cf1df646f"}, {"bike_id": "723fe39ec8cc5b205f2772e5e240a0eb", "lat": 38.90082266666667, "is_disabled": 0, "lon": -77.04768366666667, "fusion_lon": 0.0, "is_reserved": 0, "fusion_lat": 0.0, "rental_uris": {"android": "https://dc.lft.to/lastmile_qr_scan", "ios": "https://dc.lft.to/lastmile_qr_scan"}, "type": "electric_scooter", "name": "723fe39ec8cc5b205f2772e5e240a0eb"}, {"bike_id": "3659bcddae36596368ea8aacf711032f", "lat": 38.893619666666666, "is_disabled": 0, "lon": -77.02199816666666, "fusion_lon": 0.0, "is_reserved": 0, "fusion_lat": 0.0, "rental_uris": {"android": "https://dc.lft.to/lastmile_qr_scan", "ios": "https://dc.lft.to/lastmile_qr_scan"}, "type": "electric_scooter", "name": "3659bcddae36596368ea8aacf711032f"}, {"bike_id": "f1e431c7abc61ed48c852604ca7ad3e4", "lat": 38.90009883333333, "is_disabled": 0, "lon": -77.01262716666666, "fusion_lon": 0.0, "is_reserved": 0, "fusion_lat": 0.0, "rental_uris": {"android": "https://dc.lft.to/lastmile_qr_scan", "ios": "https://dc.lft.to/lastmile_qr_scan"}, "type": "electric_scooter", "name": "f1e431c7abc61ed48c852604ca7ad3e4"}, {"bike_id": "a5a251c9a75d47c28b9e64f6594e7799", "lat": 38.90560383333333, "is_disabled": 0, "lon": -77.0456255, "fusion_lon": 0.0, "is_reserved": 0, "fusion_lat": 0.0, "rental_uris": {"android": "https://dc.lft.to/lastmile_qr_scan", "ios": "https://dc.lft.to/lastmile_qr_scan"}, "type": "electric_scooter", "name": "a5a251c9a75d47c28b9e64f6594e7799"}, {"bike_id": "44593cb37289c21335b2794b2a4dcf59", "lat": 38.87467916666667, "is_disabled": 0, "lon": -77.0054955, "fusion_lon": 0.0, "is_reserved": 0, "fusion_lat": 0.0, "rental_uris": {"android": "https://dc.lft.to/lastmile_qr_scan", "ios": "https://dc.lft.to/lastmile_qr_scan"}, "type": "electric_scooter", "name": "44593cb37289c21335b2794b2a4dcf59"}, {"bike_id": "86d1033103e083f31208f02113602473", "lat": 38.91286516666667, "is_disabled": 0, "lon": -77.04511466666666, "fusion_lon": 0.0, "is_reserved": 0, "fusion_lat": 0.0, "rental_uris": {"android": "https://dc.lft.to/lastmile_qr_scan", "ios": "https://dc.lft.to/lastmile_qr_scan"}, "type": "electric_scooter", "name": "86d1033103e083f31208f02113602473"}, {"bike_id": "94cb40dfe81ef3c991a60797743d281b", "lat": 38.923216333333336, "is_disabled": 0, "lon": -77.0194915, "fusion_lon": 0.0, "is_reserved": 0, "fusion_lat": 0.0, "rental_uris": {"android": "https://dc.lft.to/lastmile_qr_scan", "ios": "https://dc.lft.to/lastmile_qr_scan"}, "type": "electric_scooter", "name": "94cb40dfe81ef3c991a60797743d281b"}, {"bike_id": "a67d433364e15734a23602b7f63da0a8", "lat": 38.852668333333334, "is_disabled": 0, "lon": -76.969964, "fusion_lon": 0.0, "is_reserved": 0, "fusion_lat": 0.0, "rental_uris": {"android": "https://dc.lft.to/lastmile_qr_scan", "ios": "https://dc.lft.to/lastmile_qr_scan"}, "type": "electric_scooter", "name": "a67d433364e15734a23602b7f63da0a8"}, {"bike_id": "a935c699d0952d0ba842ae871d55370d", "lat": 38.900969333333336, "is_disabled": 0, "lon": -77.02482933333333, "fusion_lon": 0.0, "is_reserved": 0, "fusion_lat": 0.0, "rental_uris": {"android": "https://dc.lft.to/lastmile_qr_scan", "ios": "https://dc.lft.to/lastmile_qr_scan"}, "type": "electric_scooter", "name": "a935c699d0952d0ba842ae871d55370d"}, {"bike_id": "f4b5ecae3dd5c71033cb4505edaa21fc", "lat": 38.89219083333333, "is_disabled": 0, "lon": -77.03984566666666, "fusion_lon": 0.0, "is_reserved": 0, "fusion_lat": 0.0, "rental_uris": {"android": "https://dc.lft.to/lastmile_qr_scan", "ios": "https://dc.lft.to/lastmile_qr_scan"}, "type": "electric_scooter", "name": "f4b5ecae3dd5c71033cb4505edaa21fc"}, {"bike_id": "2e7791c30b3d35fa44a908283676306a", "lat": 38.905494833333336, "is_disabled": 0, "lon": -77.05804566666667, "fusion_lon": 0.0, "is_reserved": 0, "fusion_lat": 0.0, "rental_uris": {"android": "https://dc.lft.to/lastmile_qr_scan", "ios": "https://dc.lft.to/lastmile_qr_scan"}, "type": "electric_scooter", "name": "2e7791c30b3d35fa44a908283676306a"}, {"bike_id": "f7213027deb4ddec13d3c38593f0eb5e", "lat": 39.038591833333335, "is_disabled": 0, "lon": -77.05034183333333, "fusion_lon": 0.0, "is_reserved": 0, "fusion_lat": 0.0, "rental_uris": {"android": "https://dc.lft.to/lastmile_qr_scan", "ios": "https://dc.lft.to/lastmile_qr_scan"}, "type": "electric_bike", "name": "f7213027deb4ddec13d3c38593f0eb5e"}, {"bike_id": "21e7c840d97875f5044476bb20345093", "lat": 38.841937333333334, "is_disabled": 0, "lon": -77.1134905, "fusion_lon": 0.0, "is_reserved": 0, "fusion_lat": 0.0, "rental_uris": {"android": "https://dc.lft.to/lastmile_qr_scan", "ios": "https://dc.lft.to/lastmile_qr_scan"}, "type": "electric_bike", "name": "21e7c840d97875f5044476bb20345093"}, {"bike_id": "090e6a493345a82b3d87372ef3d8f7f5", "lat": 38.8934205, "is_disabled": 0, "lon": -76.99144966666667, "fusion_lon": 0.0, "is_reserved": 0, "fusion_lat": 0.0, "rental_uris": {"android": "https://dc.lft.to/lastmile_qr_scan", "ios": "https://dc.lft.to/lastmile_qr_scan"}, "type": "electric_scooter", "name": "090e6a493345a82b3d87372ef3d8f7f5"}, {"bike_id": "a21997bb839df73e9a9401dee67000b1", "lat": 38.910389333333335, "is_disabled": 0, "lon": -77.0340435, "fusion_lon": 0.0, "is_reserved": 0, "fusion_lat": 0.0, "rental_uris": {"android": "https://dc.lft.to/lastmile_qr_scan", "ios": "https://dc.lft.to/lastmile_qr_scan"}, "type": "electric_scooter", "name": "a21997bb839df73e9a9401dee67000b1"}, {"bike_id": "f85aaa996f68ba6de599acd9a1b57d49", "lat": 38.91911783333333, "is_disabled": 0, "lon": -77.03624366666666, "fusion_lon": 0.0, "is_reserved": 0, "fusion_lat": 0.0, "rental_uris": {"android": "https://dc.lft.to/lastmile_qr_scan", "ios": "https://dc.lft.to/lastmile_qr_scan"}, "type": "electric_scooter", "name": "f85aaa996f68ba6de599acd9a1b57d49"}, {"bike_id": "9e28ff4f67f14790fbe97f1ecb297c2c", "lat": 38.90037316666667, "is_disabled": 0, "lon": -77.017666, "fusion_lon": 0.0, "is_reserved": 0, "fusion_lat": 0.0, "rental_uris": {"android": "https://dc.lft.to/lastmile_qr_scan", "ios": "https://dc.lft.to/lastmile_qr_scan"}, "type": "electric_scooter", "name": "9e28ff4f67f14790fbe97f1ecb297c2c"}, {"bike_id": "84debab53760c78f13ec70435b52c422", "lat": 38.92051466666667, "is_disabled": 0, "lon": -77.041875, "fusion_lon": 0.0, "is_reserved": 0, "fusion_lat": 0.0, "rental_uris": {"android": "https://dc.lft.to/lastmile_qr_scan", "ios": "https://dc.lft.to/lastmile_qr_scan"}, "type": "electric_scooter", "name": "84debab53760c78f13ec70435b52c422"}, {"bike_id": "24c933c101c60107dddfb6128a2505b8", "lat": 38.920200666666666, "is_disabled": 0, "lon": -77.04080633333334, "fusion_lon": 0.0, "is_reserved": 0, "fusion_lat": 0.0, "rental_uris": {"android": "https://dc.lft.to/lastmile_qr_scan", "ios": "https://dc.lft.to/lastmile_qr_scan"}, "type": "electric_scooter", "name": "24c933c101c60107dddfb6128a2505b8"}, {"bike_id": "3984f0e463249808556dda42aa90176a", "lat": 38.87919933333333, "is_disabled": 0, "lon": -76.99544266666666, "fusion_lon": 0.0, "is_reserved": 0, "fusion_lat": 0.0, "rental_uris": {"android": "https://dc.lft.to/lastmile_qr_scan", "ios": "https://dc.lft.to/lastmile_qr_scan"}, "type": "electric_scooter", "name": "3984f0e463249808556dda42aa90176a"}, {"bike_id": "47a6804c3c77917729c4d724e99f7042", "lat": 38.89220566666667, "is_disabled": 0, "lon": -77.02220533333333, "fusion_lon": 0.0, "is_reserved": 0, "fusion_lat": 0.0, "rental_uris": {"android": "https://dc.lft.to/lastmile_qr_scan", "ios": "https://dc.lft.to/lastmile_qr_scan"}, "type": "electric_scooter", "name": "47a6804c3c77917729c4d724e99f7042"}, {"bike_id": "23d233a82dfb93d1c1568046cf93bfbc", "lat": 38.89216666666667, "is_disabled": 0, "lon": -77.02624466666667, "fusion_lon": 0.0, "is_reserved": 0, "fusion_lat": 0.0, "rental_uris": {"android": "https://dc.lft.to/lastmile_qr_scan", "ios": "https://dc.lft.to/lastmile_qr_scan"}, "type": "electric_scooter", "name": "23d233a82dfb93d1c1568046cf93bfbc"}, {"bike_id": "1268a501ce91337f2bf090608c23ac42", "lat": 38.871367666666664, "is_disabled": 0, "lon": -77.00664083333334, "fusion_lon": 0.0, "is_reserved": 0, "fusion_lat": 0.0, "rental_uris": {"android": "https://dc.lft.to/lastmile_qr_scan", "ios": "https://dc.lft.to/lastmile_qr_scan"}, "type": "electric_scooter", "name": "1268a501ce91337f2bf090608c23ac42"}, {"bike_id": "1826dc4b388dcc5f7ddf24fe77338f65", "lat": 38.8919635, "is_disabled": 0, "lon": -77.023799, "fusion_lon": 0.0, "is_reserved": 0, "fusion_lat": 0.0, "rental_uris": {"android": "https://dc.lft.to/lastmile_qr_scan", "ios": "https://dc.lft.to/lastmile_qr_scan"}, "type": "electric_scooter", "name": "1826dc4b388dcc5f7ddf24fe77338f65"}, {"bike_id": "a31462403b21792074d511eeacdaef6b", "lat": 38.91698133333333, "is_disabled": 0, "lon": -77.0316075, "fusion_lon": 0.0, "is_reserved": 0, "fusion_lat": 0.0, "rental_uris": {"android": "https://dc.lft.to/lastmile_qr_scan", "ios": "https://dc.lft.to/lastmile_qr_scan"}, "type": "electric_scooter", "name": "a31462403b21792074d511eeacdaef6b"}, {"bike_id": "37af3e23f1c5c236bb4cdcb95a9949f7", "lat": 38.957206666666664, "is_disabled": 0, "lon": -77.03256, "fusion_lon": 0.0, "is_reserved": 0, "fusion_lat": 0.0, "rental_uris": {"android": "https://dc.lft.to/lastmile_qr_scan", "ios": "https://dc.lft.to/lastmile_qr_scan"}, "type": "electric_scooter", "name": "37af3e23f1c5c236bb4cdcb95a9949f7"}, {"bike_id": "0130367eb201e14c8ed3a1fa3a1f1830", "lat": 38.92068066666667, "is_disabled": 0, "lon": -77.03216316666666, "fusion_lon": 0.0, "is_reserved": 0, "fusion_lat": 0.0, "rental_uris": {"android": "https://dc.lft.to/lastmile_qr_scan", "ios": "https://dc.lft.to/lastmile_qr_scan"}, "type": "electric_scooter", "name": "0130367eb201e14c8ed3a1fa3a1f1830"}, {"bike_id": "d155d237b85d4ddda1bd4daed9e7581d", "lat": 38.902419333333334, "is_disabled": 0, "lon": -77.00197333333334, "fusion_lon": 0.0, "is_reserved": 0, "fusion_lat": 0.0, "rental_uris": {"android": "https://dc.lft.to/lastmile_qr_scan", "ios": "https://dc.lft.to/lastmile_qr_scan"}, "type": "electric_scooter", "name": "d155d237b85d4ddda1bd4daed9e7581d"}, {"bike_id": "b718e0a6ace4ccb9335407e11c66d4a6", "lat": 38.871711166666664, "is_disabled": 0, "lon": -77.00625883333333, "fusion_lon": 0.0, "is_reserved": 0, "fusion_lat": 0.0, "rental_uris": {"android": "https://dc.lft.to/lastmile_qr_scan", "ios": "https://dc.lft.to/lastmile_qr_scan"}, "type": "electric_scooter", "name": "b718e0a6ace4ccb9335407e11c66d4a6"}, {"bike_id": "bccd9037b98c812d9afeabf37ab79efc", "lat": 38.910869, "is_disabled": 0, "lon": -76.9993905, "fusion_lon": 0.0, "is_reserved": 0, "fusion_lat": 0.0, "rental_uris": {"android": "https://dc.lft.to/lastmile_qr_scan", "ios": "https://dc.lft.to/lastmile_qr_scan"}, "type": "electric_scooter", "name": "bccd9037b98c812d9afeabf37ab79efc"}, {"bike_id": "6035e2de23655b6cd62205ace1b8585b", "lat": 38.89215516666667, "is_disabled": 0, "lon": -77.02619716666666, "fusion_lon": 0.0, "is_reserved": 0, "fusion_lat": 0.0, "rental_uris": {"android": "https://dc.lft.to/lastmile_qr_scan", "ios": "https://dc.lft.to/lastmile_qr_scan"}, "type": "electric_scooter", "name": "6035e2de23655b6cd62205ace1b8585b"}, {"bike_id": "b8c51a8428d0a902fc38315efe55a5ce", "lat": 38.95652833333333, "is_disabled": 0, "lon": -77.0196425, "fusion_lon": 0.0, "is_reserved": 0, "fusion_lat": 0.0, "rental_uris": {"android": "https://dc.lft.to/lastmile_qr_scan", "ios": "https://dc.lft.to/lastmile_qr_scan"}, "type": "electric_scooter", "name": "b8c51a8428d0a902fc38315efe55a5ce"}, {"bike_id": "f0b0cb96a0fb1f99f7c819770c0370d1", "lat": 38.88076, "is_disabled": 0, "lon": -76.98524766666667, "fusion_lon": 0.0, "is_reserved": 0, "fusion_lat": 0.0, "rental_uris": {"android": "https://dc.lft.to/lastmile_qr_scan", "ios": "https://dc.lft.to/lastmile_qr_scan"}, "type": "electric_scooter", "name": "f0b0cb96a0fb1f99f7c819770c0370d1"}, {"bike_id": "27bf1f0f5250a4ccf58893361ba0e397", "lat": 38.892153, "is_disabled": 0, "lon": -77.0278595, "fusion_lon": 0.0, "is_reserved": 0, "fusion_lat": 0.0, "rental_uris": {"android": "https://dc.lft.to/lastmile_qr_scan", "ios": "https://dc.lft.to/lastmile_qr_scan"}, "type": "electric_scooter", "name": "27bf1f0f5250a4ccf58893361ba0e397"}, {"bike_id": "81fe6fc84d097249a7597d271f524aff", "lat": 38.91899516666667, "is_disabled": 0, "lon": -77.01948066666667, "fusion_lon": 0.0, "is_reserved": 0, "fusion_lat": 0.0, "rental_uris": {"android": "https://dc.lft.to/lastmile_qr_scan", "ios": "https://dc.lft.to/lastmile_qr_scan"}, "type": "electric_scooter", "name": "81fe6fc84d097249a7597d271f524aff"}, {"bike_id": "6d7b30586bb74c692780370f7e8d0fef", "lat": 38.944995166666665, "is_disabled": 0, "lon": -77.03826766666667, "fusion_lon": 0.0, "is_reserved": 0, "fusion_lat": 0.0, "rental_uris": {"android": "https://dc.lft.to/lastmile_qr_scan", "ios": "https://dc.lft.to/lastmile_qr_scan"}, "type": "electric_scooter", "name": "6d7b30586bb74c692780370f7e8d0fef"}, {"bike_id": "8b68d7b8442563bfc07418820ecf140b", "lat": 38.976678, "is_disabled": 0, "lon": -77.0193815, "fusion_lon": 0.0, "is_reserved": 0, "fusion_lat": 0.0, "rental_uris": {"android": "https://dc.lft.to/lastmile_qr_scan", "ios": "https://dc.lft.to/lastmile_qr_scan"}, "type": "electric_bike", "name": "8b68d7b8442563bfc07418820ecf140b"}, {"bike_id": "4f2ecb6b62274ccd4b6dd8584b2a27ee", "lat": 38.905653666666666, "is_disabled": 0, "lon": -77.034631, "fusion_lon": 0.0, "is_reserved": 0, "fusion_lat": 0.0, "rental_uris": {"android": "https://dc.lft.to/lastmile_qr_scan", "ios": "https://dc.lft.to/lastmile_qr_scan"}, "type": "electric_scooter", "name": "4f2ecb6b62274ccd4b6dd8584b2a27ee"}, {"bike_id": "ab3ffd7aa65b4bf051bf5f92b9267215", "lat": 38.904101, "is_disabled": 0, "lon": -76.99953633333334, "fusion_lon": 0.0, "is_reserved": 0, "fusion_lat": 0.0, "rental_uris": {"android": "https://dc.lft.to/lastmile_qr_scan", "ios": "https://dc.lft.to/lastmile_qr_scan"}, "type": "electric_scooter", "name": "ab3ffd7aa65b4bf051bf5f92b9267215"}, {"bike_id": "80a531f92878c8967df8ed028901bc79", "lat": 38.910614333333335, "is_disabled": 0, "lon": -76.99712, "fusion_lon": 0.0, "is_reserved": 0, "fusion_lat": 0.0, "rental_uris": {"android": "https://dc.lft.to/lastmile_qr_scan", "ios": "https://dc.lft.to/lastmile_qr_scan"}, "type": "electric_scooter", "name": "80a531f92878c8967df8ed028901bc79"}, {"bike_id": "ffb4f932e7b9b48a8a0e671219676278", "lat": 38.89627483333334, "is_disabled": 0, "lon": -77.03211733333333, "fusion_lon": 0.0, "is_reserved": 0, "fusion_lat": 0.0, "rental_uris": {"android": "https://dc.lft.to/lastmile_qr_scan", "ios": "https://dc.lft.to/lastmile_qr_scan"}, "type": "electric_scooter", "name": "ffb4f932e7b9b48a8a0e671219676278"}, {"bike_id": "10eeab266c6daab6dfef42fbe701841a", "lat": 38.88760533333333, "is_disabled": 0, "lon": -76.9007985, "fusion_lon": 0.0, "is_reserved": 0, "fusion_lat": 0.0, "rental_uris": {"android": "https://dc.lft.to/lastmile_qr_scan", "ios": "https://dc.lft.to/lastmile_qr_scan"}, "type": "electric_bike", "name": "10eeab266c6daab6dfef42fbe701841a"}, {"bike_id": "bce65ada6c1a24756a43df336570aeec", "lat": 38.887232833333336, "is_disabled": 0, "lon": -77.02829716666666, "fusion_lon": 0.0, "is_reserved": 0, "fusion_lat": 0.0, "rental_uris": {"android": "https://dc.lft.to/lastmile_qr_scan", "ios": "https://dc.lft.to/lastmile_qr_scan"}, "type": "electric_scooter", "name": "bce65ada6c1a24756a43df336570aeec"}, {"bike_id": "f22150eb550347fcb3644329f0cac6a2", "lat": 38.97348916666667, "is_disabled": 0, "lon": -77.0278195, "fusion_lon": 0.0, "is_reserved": 0, "fusion_lat": 0.0, "rental_uris": {"android": "https://dc.lft.to/lastmile_qr_scan", "ios": "https://dc.lft.to/lastmile_qr_scan"}, "type": "electric_scooter", "name": "f22150eb550347fcb3644329f0cac6a2"}, {"bike_id": "5f6f39add3e23c390c885542f3721ba7", "lat": 38.911132, "is_disabled": 0, "lon": -77.00748466666667, "fusion_lon": 0.0, "is_reserved": 0, "fusion_lat": 0.0, "rental_uris": {"android": "https://dc.lft.to/lastmile_qr_scan", "ios": "https://dc.lft.to/lastmile_qr_scan"}, "type": "electric_scooter", "name": "5f6f39add3e23c390c885542f3721ba7"}, {"bike_id": "36f959147493c1444d9899d6365e7ff6", "lat": 38.90284166666667, "is_disabled": 0, "lon": -77.02702683333334, "fusion_lon": 0.0, "is_reserved": 0, "fusion_lat": 0.0, "rental_uris": {"android": "https://dc.lft.to/lastmile_qr_scan", "ios": "https://dc.lft.to/lastmile_qr_scan"}, "type": "electric_scooter", "name": "36f959147493c1444d9899d6365e7ff6"}, {"bike_id": "94209d375539aa364ab1ad627ff56577", "lat": 38.88719233333333, "is_disabled": 0, "lon": -77.00190666666667, "fusion_lon": 0.0, "is_reserved": 0, "fusion_lat": 0.0, "rental_uris": {"android": "https://dc.lft.to/lastmile_qr_scan", "ios": "https://dc.lft.to/lastmile_qr_scan"}, "type": "electric_scooter", "name": "94209d375539aa364ab1ad627ff56577"}, {"bike_id": "afac9e53ffafc05349b2a3f82c0b366e", "lat": 38.91546966666667, "is_disabled": 0, "lon": -77.03853266666667, "fusion_lon": 0.0, "is_reserved": 0, "fusion_lat": 0.0, "rental_uris": {"android": "https://dc.lft.to/lastmile_qr_scan", "ios": "https://dc.lft.to/lastmile_qr_scan"}, "type": "electric_scooter", "name": "afac9e53ffafc05349b2a3f82c0b366e"}, {"bike_id": "30da35f927e462245a730b0c7a468b81", "lat": 38.90724866666667, "is_disabled": 0, "lon": -77.00060883333333, "fusion_lon": 0.0, "is_reserved": 0, "fusion_lat": 0.0, "rental_uris": {"android": "https://dc.lft.to/lastmile_qr_scan", "ios": "https://dc.lft.to/lastmile_qr_scan"}, "type": "electric_scooter", "name": "30da35f927e462245a730b0c7a468b81"}, {"bike_id": "33f70371d94f68bd6dafdd6da3fa30f0", "lat": 38.933527, "is_disabled": 0, "lon": -77.03649466666667, "fusion_lon": 0.0, "is_reserved": 0, "fusion_lat": 0.0, "rental_uris": {"android": "https://dc.lft.to/lastmile_qr_scan", "ios": "https://dc.lft.to/lastmile_qr_scan"}, "type": "electric_scooter", "name": "33f70371d94f68bd6dafdd6da3fa30f0"}, {"bike_id": "8025d4aedc81d284aef42713be5ee4d8", "lat": 38.92706066666667, "is_disabled": 0, "lon": -77.0376165, "fusion_lon": 0.0, "is_reserved": 0, "fusion_lat": 0.0, "rental_uris": {"android": "https://dc.lft.to/lastmile_qr_scan", "ios": "https://dc.lft.to/lastmile_qr_scan"}, "type": "electric_scooter", "name": "8025d4aedc81d284aef42713be5ee4d8"}, {"bike_id": "f91cd1cb418ac4521a86475ef3d90c89", "lat": 38.93323933333333, "is_disabled": 0, "lon": -77.03263933333334, "fusion_lon": 0.0, "is_reserved": 0, "fusion_lat": 0.0, "rental_uris": {"android": "https://dc.lft.to/lastmile_qr_scan", "ios": "https://dc.lft.to/lastmile_qr_scan"}, "type": "electric_scooter", "name": "f91cd1cb418ac4521a86475ef3d90c89"}, {"bike_id": "edceec6d323b5d29452cda902097c03e", "lat": 38.922235666666666, "is_disabled": 0, "lon": -77.04693233333333, "fusion_lon": 0.0, "is_reserved": 0, "fusion_lat": 0.0, "rental_uris": {"android": "https://dc.lft.to/lastmile_qr_scan", "ios": "https://dc.lft.to/lastmile_qr_scan"}, "type": "electric_scooter", "name": "edceec6d323b5d29452cda902097c03e"}, {"bike_id": "cb1fc150ff61b46c3b05fea38c09bb00", "lat": 38.904119333333334, "is_disabled": 0, "lon": -76.97327716666666, "fusion_lon": 0.0, "is_reserved": 0, "fusion_lat": 0.0, "rental_uris": {"android": "https://dc.lft.to/lastmile_qr_scan", "ios": "https://dc.lft.to/lastmile_qr_scan"}, "type": "electric_scooter", "name": "cb1fc150ff61b46c3b05fea38c09bb00"}, {"bike_id": "1c22af75ec31c44ec422f8f0b99a6a1c", "lat": 38.91263216666667, "is_disabled": 0, "lon": -77.0224005, "fusion_lon": 0.0, "is_reserved": 0, "fusion_lat": 0.0, "rental_uris": {"android": "https://dc.lft.to/lastmile_qr_scan", "ios": "https://dc.lft.to/lastmile_qr_scan"}, "type": "electric_scooter", "name": "1c22af75ec31c44ec422f8f0b99a6a1c"}, {"bike_id": "f5d03c23c9f30a079a09006a8ba1d494", "lat": 38.91731333333333, "is_disabled": 0, "lon": -77.06948116666666, "fusion_lon": 0.0, "is_reserved": 0, "fusion_lat": 0.0, "rental_uris": {"android": "https://dc.lft.to/lastmile_qr_scan", "ios": "https://dc.lft.to/lastmile_qr_scan"}, "type": "electric_scooter", "name": "f5d03c23c9f30a079a09006a8ba1d494"}, {"bike_id": "fafc2a360cc27b6474e2daf7c3492000", "lat": 38.900430166666666, "is_disabled": 0, "lon": -76.99835766666666, "fusion_lon": 0.0, "is_reserved": 0, "fusion_lat": 0.0, "rental_uris": {"android": "https://dc.lft.to/lastmile_qr_scan", "ios": "https://dc.lft.to/lastmile_qr_scan"}, "type": "electric_scooter", "name": "fafc2a360cc27b6474e2daf7c3492000"}, {"bike_id": "db7297e1c087cb421bf6818632b2a112", "lat": 38.88393883333333, "is_disabled": 0, "lon": -77.02934716666667, "fusion_lon": 0.0, "is_reserved": 0, "fusion_lat": 0.0, "rental_uris": {"android": "https://dc.lft.to/lastmile_qr_scan", "ios": "https://dc.lft.to/lastmile_qr_scan"}, "type": "electric_scooter", "name": "db7297e1c087cb421bf6818632b2a112"}, {"bike_id": "b0a7f4a103b211c8bc432e5784f40dac", "lat": 38.922589333333335, "is_disabled": 0, "lon": -77.01828783333333, "fusion_lon": 0.0, "is_reserved": 0, "fusion_lat": 0.0, "rental_uris": {"android": "https://dc.lft.to/lastmile_qr_scan", "ios": "https://dc.lft.to/lastmile_qr_scan"}, "type": "electric_scooter", "name": "b0a7f4a103b211c8bc432e5784f40dac"}, {"bike_id": "7abf9be46f1089ee91c88ff1083530da", "lat": 38.885396666666665, "is_disabled": 0, "lon": -77.01100566666666, "fusion_lon": 0.0, "is_reserved": 0, "fusion_lat": 0.0, "rental_uris": {"android": "https://dc.lft.to/lastmile_qr_scan", "ios": "https://dc.lft.to/lastmile_qr_scan"}, "type": "electric_scooter", "name": "7abf9be46f1089ee91c88ff1083530da"}, {"bike_id": "6957afbe3c65c8798809be3ceacab06a", "lat": 38.90242466666667, "is_disabled": 0, "lon": -77.04748633333334, "fusion_lon": 0.0, "is_reserved": 0, "fusion_lat": 0.0, "rental_uris": {"android": "https://dc.lft.to/lastmile_qr_scan", "ios": "https://dc.lft.to/lastmile_qr_scan"}, "type": "electric_bike", "name": "6957afbe3c65c8798809be3ceacab06a"}, {"bike_id": "989560954551be5de7bf4b9d65651743", "lat": 38.88730833333334, "is_disabled": 0, "lon": -77.03178116666666, "fusion_lon": 0.0, "is_reserved": 0, "fusion_lat": 0.0, "rental_uris": {"android": "https://dc.lft.to/lastmile_qr_scan", "ios": "https://dc.lft.to/lastmile_qr_scan"}, "type": "electric_scooter", "name": "989560954551be5de7bf4b9d65651743"}, {"bike_id": "6a6bd0035f12bdbd8eb1e08d77698de9", "lat": 38.90567083333333, "is_disabled": 0, "lon": -77.00669716666667, "fusion_lon": 0.0, "is_reserved": 0, "fusion_lat": 0.0, "rental_uris": {"android": "https://dc.lft.to/lastmile_qr_scan", "ios": "https://dc.lft.to/lastmile_qr_scan"}, "type": "electric_scooter", "name": "6a6bd0035f12bdbd8eb1e08d77698de9"}, {"bike_id": "7261fc80fb1cebdbbae900a03bc2ecc2", "lat": 38.8983785, "is_disabled": 0, "lon": -77.023738, "fusion_lon": 0.0, "is_reserved": 0, "fusion_lat": 0.0, "rental_uris": {"android": "https://dc.lft.to/lastmile_qr_scan", "ios": "https://dc.lft.to/lastmile_qr_scan"}, "type": "electric_scooter", "name": "7261fc80fb1cebdbbae900a03bc2ecc2"}, {"bike_id": "aeb458d83d10700f116072e8fb239ea2", "lat": 38.892221666666664, "is_disabled": 0, "lon": -77.04508633333333, "fusion_lon": 0.0, "is_reserved": 0, "fusion_lat": 0.0, "rental_uris": {"android": "https://dc.lft.to/lastmile_qr_scan", "ios": "https://dc.lft.to/lastmile_qr_scan"}, "type": "electric_scooter", "name": "aeb458d83d10700f116072e8fb239ea2"}, {"bike_id": "6c10475fb48576a7bf2fa7ed88c1e486", "lat": 38.931447, "is_disabled": 0, "lon": -77.07715933333333, "fusion_lon": 0.0, "is_reserved": 0, "fusion_lat": 0.0, "rental_uris": {"android": "https://dc.lft.to/lastmile_qr_scan", "ios": "https://dc.lft.to/lastmile_qr_scan"}, "type": "electric_scooter", "name": "6c10475fb48576a7bf2fa7ed88c1e486"}, {"bike_id": "3f0fe1b70de0738bf3450a897e8fe909", "lat": 38.93059016666667, "is_disabled": 0, "lon": -77.03213733333334, "fusion_lon": 0.0, "is_reserved": 0, "fusion_lat": 0.0, "rental_uris": {"android": "https://dc.lft.to/lastmile_qr_scan", "ios": "https://dc.lft.to/lastmile_qr_scan"}, "type": "electric_scooter", "name": "3f0fe1b70de0738bf3450a897e8fe909"}, {"bike_id": "001caaa93210412cbd106f3f8a35f968", "lat": 38.857683, "is_disabled": 0, "lon": -76.98761133333333, "fusion_lon": 0.0, "is_reserved": 0, "fusion_lat": 0.0, "rental_uris": {"android": "https://dc.lft.to/lastmile_qr_scan", "ios": "https://dc.lft.to/lastmile_qr_scan"}, "type": "electric_bike", "name": "001caaa93210412cbd106f3f8a35f968"}, {"bike_id": "e17d3bddf7e5671019a5aed6c93a7792", "lat": 38.8995505, "is_disabled": 0, "lon": -77.01611783333334, "fusion_lon": 0.0, "is_reserved": 0, "fusion_lat": 0.0, "rental_uris": {"android": "https://dc.lft.to/lastmile_qr_scan", "ios": "https://dc.lft.to/lastmile_qr_scan"}, "type": "electric_scooter", "name": "e17d3bddf7e5671019a5aed6c93a7792"}, {"bike_id": "ecef291c87a383dbd084ff41218511d4", "lat": 38.887364, "is_disabled": 0, "lon": -77.022025, "fusion_lon": 0.0, "is_reserved": 0, "fusion_lat": 0.0, "rental_uris": {"android": "https://dc.lft.to/lastmile_qr_scan", "ios": "https://dc.lft.to/lastmile_qr_scan"}, "type": "electric_scooter", "name": "ecef291c87a383dbd084ff41218511d4"}, {"bike_id": "698bef5853fa8228eb1e7c7fb8c9e47b", "lat": 38.892183833333334, "is_disabled": 0, "lon": -77.02777, "fusion_lon": 0.0, "is_reserved": 0, "fusion_lat": 0.0, "rental_uris": {"android": "https://dc.lft.to/lastmile_qr_scan", "ios": "https://dc.lft.to/lastmile_qr_scan"}, "type": "electric_scooter", "name": "698bef5853fa8228eb1e7c7fb8c9e47b"}, {"bike_id": "ca02b80a66c9ade7cb3f51cef2d58a72", "lat": 38.92286133333333, "is_disabled": 0, "lon": -77.03187366666667, "fusion_lon": 0.0, "is_reserved": 0, "fusion_lat": 0.0, "rental_uris": {"android": "https://dc.lft.to/lastmile_qr_scan", "ios": "https://dc.lft.to/lastmile_qr_scan"}, "type": "electric_scooter", "name": "ca02b80a66c9ade7cb3f51cef2d58a72"}, {"bike_id": "54444e5822c837bd2f6516cba7ec9ca3", "lat": 38.877089166666664, "is_disabled": 0, "lon": -77.00722116666667, "fusion_lon": 0.0, "is_reserved": 0, "fusion_lat": 0.0, "rental_uris": {"android": "https://dc.lft.to/lastmile_qr_scan", "ios": "https://dc.lft.to/lastmile_qr_scan"}, "type": "electric_scooter", "name": "54444e5822c837bd2f6516cba7ec9ca3"}, {"bike_id": "ac5fc2df79671ef4d87d0e1d0ffa9de3", "lat": 38.924826, "is_disabled": 0, "lon": -77.03929816666667, "fusion_lon": 0.0, "is_reserved": 0, "fusion_lat": 0.0, "rental_uris": {"android": "https://dc.lft.to/lastmile_qr_scan", "ios": "https://dc.lft.to/lastmile_qr_scan"}, "type": "electric_scooter", "name": "ac5fc2df79671ef4d87d0e1d0ffa9de3"}, {"bike_id": "4a8bb0038cb255c85e6f5544f768c542", "lat": 38.90594633333333, "is_disabled": 0, "lon": -77.03309066666667, "fusion_lon": 0.0, "is_reserved": 0, "fusion_lat": 0.0, "rental_uris": {"android": "https://dc.lft.to/lastmile_qr_scan", "ios": "https://dc.lft.to/lastmile_qr_scan"}, "type": "electric_scooter", "name": "4a8bb0038cb255c85e6f5544f768c542"}, {"bike_id": "08cfebd39f6fa1b459f9ddd4c902cef2", "lat": 38.90252233333333, "is_disabled": 0, "lon": -77.03738716666666, "fusion_lon": 0.0, "is_reserved": 0, "fusion_lat": 0.0, "rental_uris": {"android": "https://dc.lft.to/lastmile_qr_scan", "ios": "https://dc.lft.to/lastmile_qr_scan"}, "type": "electric_scooter", "name": "08cfebd39f6fa1b459f9ddd4c902cef2"}, {"bike_id": "48f9d7fd39558df8123e71edab7dbd81", "lat": 38.846757833333335, "is_disabled": 0, "lon": -76.98273166666667, "fusion_lon": 0.0, "is_reserved": 0, "fusion_lat": 0.0, "rental_uris": {"android": "https://dc.lft.to/lastmile_qr_scan", "ios": "https://dc.lft.to/lastmile_qr_scan"}, "type": "electric_bike", "name": "48f9d7fd39558df8123e71edab7dbd81"}, {"bike_id": "58a8431d2d3334418743ba306223a85b", "lat": 38.91260283333333, "is_disabled": 0, "lon": -77.04152966666666, "fusion_lon": 0.0, "is_reserved": 0, "fusion_lat": 0.0, "rental_uris": {"android": "https://dc.lft.to/lastmile_qr_scan", "ios": "https://dc.lft.to/lastmile_qr_scan"}, "type": "electric_scooter", "name": "58a8431d2d3334418743ba306223a85b"}, {"bike_id": "eb5a6c5b2b51ddc6939591583b3131c4", "lat": 38.904415166666666, "is_disabled": 0, "lon": -77.05791166666667, "fusion_lon": 0.0, "is_reserved": 0, "fusion_lat": 0.0, "rental_uris": {"android": "https://dc.lft.to/lastmile_qr_scan", "ios": "https://dc.lft.to/lastmile_qr_scan"}, "type": "electric_scooter", "name": "eb5a6c5b2b51ddc6939591583b3131c4"}, {"bike_id": "adeb337be40808fafbadc617502189e1", "lat": 38.93571333333333, "is_disabled": 0, "lon": -77.106101, "fusion_lon": 0.0, "is_reserved": 0, "fusion_lat": 0.0, "rental_uris": {"android": "https://dc.lft.to/lastmile_qr_scan", "ios": "https://dc.lft.to/lastmile_qr_scan"}, "type": "electric_bike", "name": "adeb337be40808fafbadc617502189e1"}, {"bike_id": "e71d5e483344806bee7fb0a7ea47794a", "lat": 38.90841566666667, "is_disabled": 0, "lon": -77.03374216666667, "fusion_lon": 0.0, "is_reserved": 0, "fusion_lat": 0.0, "rental_uris": {"android": "https://dc.lft.to/lastmile_qr_scan", "ios": "https://dc.lft.to/lastmile_qr_scan"}, "type": "electric_scooter", "name": "e71d5e483344806bee7fb0a7ea47794a"}, {"bike_id": "eaa3e303193cf14eb93e644677ca406d", "lat": 38.97212583333334, "is_disabled": 0, "lon": -77.03331866666667, "fusion_lon": 0.0, "is_reserved": 0, "fusion_lat": 0.0, "rental_uris": {"android": "https://dc.lft.to/lastmile_qr_scan", "ios": "https://dc.lft.to/lastmile_qr_scan"}, "type": "electric_scooter", "name": "eaa3e303193cf14eb93e644677ca406d"}, {"bike_id": "efc3e93518405b00534216adae27d97f", "lat": 38.918139833333335, "is_disabled": 0, "lon": -77.0325485, "fusion_lon": 0.0, "is_reserved": 0, "fusion_lat": 0.0, "rental_uris": {"android": "https://dc.lft.to/lastmile_qr_scan", "ios": "https://dc.lft.to/lastmile_qr_scan"}, "type": "electric_scooter", "name": "efc3e93518405b00534216adae27d97f"}, {"bike_id": "a4422e5b0d5631cba9088a4761479dd8", "lat": 38.919485, "is_disabled": 0, "lon": -77.0178, "fusion_lon": 0.0, "is_reserved": 0, "fusion_lat": 0.0, "rental_uris": {"android": "https://dc.lft.to/lastmile_qr_scan", "ios": "https://dc.lft.to/lastmile_qr_scan"}, "type": "electric_scooter", "name": "a4422e5b0d5631cba9088a4761479dd8"}, {"bike_id": "24c1fe0e27b1539b66c1feab624ace9f", "lat": 38.89345333333333, "is_disabled": 0, "lon": -76.95225866666667, "fusion_lon": 0.0, "is_reserved": 0, "fusion_lat": 0.0, "rental_uris": {"android": "https://dc.lft.to/lastmile_qr_scan", "ios": "https://dc.lft.to/lastmile_qr_scan"}, "type": "electric_scooter", "name": "24c1fe0e27b1539b66c1feab624ace9f"}, {"bike_id": "a93aa17b2891a37aef2ffd91701097dc", "lat": 38.87755416666667, "is_disabled": 0, "lon": -76.99410966666667, "fusion_lon": 0.0, "is_reserved": 0, "fusion_lat": 0.0, "rental_uris": {"android": "https://dc.lft.to/lastmile_qr_scan", "ios": "https://dc.lft.to/lastmile_qr_scan"}, "type": "electric_scooter", "name": "a93aa17b2891a37aef2ffd91701097dc"}, {"bike_id": "e2e658a84e1ea79c79d7afdafb3d4da2", "lat": 38.897271333333336, "is_disabled": 0, "lon": -77.01914016666667, "fusion_lon": 0.0, "is_reserved": 0, "fusion_lat": 0.0, "rental_uris": {"android": "https://dc.lft.to/lastmile_qr_scan", "ios": "https://dc.lft.to/lastmile_qr_scan"}, "type": "electric_scooter", "name": "e2e658a84e1ea79c79d7afdafb3d4da2"}, {"bike_id": "df0c3426c52e5f05c9340a788ee1b4b9", "lat": 38.907303, "is_disabled": 0, "lon": -77.043391, "fusion_lon": 0.0, "is_reserved": 0, "fusion_lat": 0.0, "rental_uris": {"android": "https://dc.lft.to/lastmile_qr_scan", "ios": "https://dc.lft.to/lastmile_qr_scan"}, "type": "electric_scooter", "name": "df0c3426c52e5f05c9340a788ee1b4b9"}, {"bike_id": "5accfc7892ddab5b813391c012f4ef7e", "lat": 38.935265, "is_disabled": 0, "lon": -77.0284705, "fusion_lon": 0.0, "is_reserved": 0, "fusion_lat": 0.0, "rental_uris": {"android": "https://dc.lft.to/lastmile_qr_scan", "ios": "https://dc.lft.to/lastmile_qr_scan"}, "type": "electric_scooter", "name": "5accfc7892ddab5b813391c012f4ef7e"}, {"bike_id": "4c78b68116fa35d70241a0ec5354d7b2", "lat": 38.92151366666667, "is_disabled": 0, "lon": -77.02088366666666, "fusion_lon": 0.0, "is_reserved": 0, "fusion_lat": 0.0, "rental_uris": {"android": "https://dc.lft.to/lastmile_qr_scan", "ios": "https://dc.lft.to/lastmile_qr_scan"}, "type": "electric_scooter", "name": "4c78b68116fa35d70241a0ec5354d7b2"}, {"bike_id": "6ab9dc500cce894c0d72ed3d473f92ff", "lat": 38.87663883333333, "is_disabled": 0, "lon": -77.00465216666667, "fusion_lon": 0.0, "is_reserved": 0, "fusion_lat": 0.0, "rental_uris": {"android": "https://dc.lft.to/lastmile_qr_scan", "ios": "https://dc.lft.to/lastmile_qr_scan"}, "type": "electric_scooter", "name": "6ab9dc500cce894c0d72ed3d473f92ff"}, {"bike_id": "65840e827e350ecaf50b366b4d7b5866", "lat": 38.92580683333333, "is_disabled": 0, "lon": -77.02603483333333, "fusion_lon": 0.0, "is_reserved": 0, "fusion_lat": 0.0, "rental_uris": {"android": "https://dc.lft.to/lastmile_qr_scan", "ios": "https://dc.lft.to/lastmile_qr_scan"}, "type": "electric_scooter", "name": "65840e827e350ecaf50b366b4d7b5866"}, {"bike_id": "7cc9fc3e56ac4245d3a901760ae71d18", "lat": 38.90729816666666, "is_disabled": 0, "lon": -77.0026, "fusion_lon": 0.0, "is_reserved": 0, "fusion_lat": 0.0, "rental_uris": {"android": "https://dc.lft.to/lastmile_qr_scan", "ios": "https://dc.lft.to/lastmile_qr_scan"}, "type": "electric_scooter", "name": "7cc9fc3e56ac4245d3a901760ae71d18"}, {"bike_id": "f568012ea296f8b7e705160e6730a322", "lat": 38.8936515, "is_disabled": 0, "lon": -76.997484, "fusion_lon": 0.0, "is_reserved": 0, "fusion_lat": 0.0, "rental_uris": {"android": "https://dc.lft.to/lastmile_qr_scan", "ios": "https://dc.lft.to/lastmile_qr_scan"}, "type": "electric_scooter", "name": "f568012ea296f8b7e705160e6730a322"}, {"bike_id": "582c4cc1a8481759cb230861cf63a82e", "lat": 38.907869166666664, "is_disabled": 0, "lon": -77.07251583333333, "fusion_lon": 0.0, "is_reserved": 0, "fusion_lat": 0.0, "rental_uris": {"android": "https://dc.lft.to/lastmile_qr_scan", "ios": "https://dc.lft.to/lastmile_qr_scan"}, "type": "electric_scooter", "name": "582c4cc1a8481759cb230861cf63a82e"}, {"bike_id": "9d5007c43c07ac9b905164fb79a4b3c8", "lat": 38.86216666666667, "is_disabled": 0, "lon": -76.99480216666667, "fusion_lon": 0.0, "is_reserved": 0, "fusion_lat": 0.0, "rental_uris": {"android": "https://dc.lft.to/lastmile_qr_scan", "ios": "https://dc.lft.to/lastmile_qr_scan"}, "type": "electric_scooter", "name": "9d5007c43c07ac9b905164fb79a4b3c8"}, {"bike_id": "770a9e9639531adbe5858425b26e2d6c", "lat": 38.921007333333336, "is_disabled": 0, "lon": -77.025154, "fusion_lon": 0.0, "is_reserved": 0, "fusion_lat": 0.0, "rental_uris": {"android": "https://dc.lft.to/lastmile_qr_scan", "ios": "https://dc.lft.to/lastmile_qr_scan"}, "type": "electric_scooter", "name": "770a9e9639531adbe5858425b26e2d6c"}, {"bike_id": "3dc0cff72a7d5a53667e19ec4fa31d15", "lat": 38.912417, "is_disabled": 0, "lon": -77.06281233333333, "fusion_lon": 0.0, "is_reserved": 0, "fusion_lat": 0.0, "rental_uris": {"android": "https://dc.lft.to/lastmile_qr_scan", "ios": "https://dc.lft.to/lastmile_qr_scan"}, "type": "electric_scooter", "name": "3dc0cff72a7d5a53667e19ec4fa31d15"}, {"bike_id": "2f6189d864b23585581a574d1e571653", "lat": 38.9267115, "is_disabled": 0, "lon": -77.021102, "fusion_lon": 0.0, "is_reserved": 0, "fusion_lat": 0.0, "rental_uris": {"android": "https://dc.lft.to/lastmile_qr_scan", "ios": "https://dc.lft.to/lastmile_qr_scan"}, "type": "electric_scooter", "name": "2f6189d864b23585581a574d1e571653"}, {"bike_id": "3e39ef78fbe4fa75e3ca4035036bd1b9", "lat": 38.9191495, "is_disabled": 0, "lon": -77.0190195, "fusion_lon": 0.0, "is_reserved": 0, "fusion_lat": 0.0, "rental_uris": {"android": "https://dc.lft.to/lastmile_qr_scan", "ios": "https://dc.lft.to/lastmile_qr_scan"}, "type": "electric_scooter", "name": "3e39ef78fbe4fa75e3ca4035036bd1b9"}, {"bike_id": "3a43174559e5ddafd877d3bd8022bb5d", "lat": 38.91114816666666, "is_disabled": 0, "lon": -77.03828116666666, "fusion_lon": 0.0, "is_reserved": 0, "fusion_lat": 0.0, "rental_uris": {"android": "https://dc.lft.to/lastmile_qr_scan", "ios": "https://dc.lft.to/lastmile_qr_scan"}, "type": "electric_scooter", "name": "3a43174559e5ddafd877d3bd8022bb5d"}, {"bike_id": "d4fecd47fa7bae55f67706c86d241e9c", "lat": 38.88956966666667, "is_disabled": 0, "lon": -76.9808085, "fusion_lon": 0.0, "is_reserved": 0, "fusion_lat": 0.0, "rental_uris": {"android": "https://dc.lft.to/lastmile_qr_scan", "ios": "https://dc.lft.to/lastmile_qr_scan"}, "type": "electric_scooter", "name": "d4fecd47fa7bae55f67706c86d241e9c"}, {"bike_id": "9d1777efb8172ef36d6b31eef59de76a", "lat": 38.902358, "is_disabled": 0, "lon": -77.00195566666666, "fusion_lon": 0.0, "is_reserved": 0, "fusion_lat": 0.0, "rental_uris": {"android": "https://dc.lft.to/lastmile_qr_scan", "ios": "https://dc.lft.to/lastmile_qr_scan"}, "type": "electric_scooter", "name": "9d1777efb8172ef36d6b31eef59de76a"}, {"bike_id": "2f332442c0c3576934cdd24b930719d0", "lat": 38.930534333333334, "is_disabled": 0, "lon": -77.0402375, "fusion_lon": 0.0, "is_reserved": 0, "fusion_lat": 0.0, "rental_uris": {"android": "https://dc.lft.to/lastmile_qr_scan", "ios": "https://dc.lft.to/lastmile_qr_scan"}, "type": "electric_scooter", "name": "2f332442c0c3576934cdd24b930719d0"}, {"bike_id": "968318351dd749f94f2e1825724970a6", "lat": 38.887296166666665, "is_disabled": 0, "lon": -77.01525683333334, "fusion_lon": 0.0, "is_reserved": 0, "fusion_lat": 0.0, "rental_uris": {"android": "https://dc.lft.to/lastmile_qr_scan", "ios": "https://dc.lft.to/lastmile_qr_scan"}, "type": "electric_scooter", "name": "968318351dd749f94f2e1825724970a6"}, {"bike_id": "eaaa8f9f4dff6333a21d3d8687d0736e", "lat": 38.898623666666666, "is_disabled": 0, "lon": -77.02850016666666, "fusion_lon": 0.0, "is_reserved": 0, "fusion_lat": 0.0, "rental_uris": {"android": "https://dc.lft.to/lastmile_qr_scan", "ios": "https://dc.lft.to/lastmile_qr_scan"}, "type": "electric_scooter", "name": "eaaa8f9f4dff6333a21d3d8687d0736e"}, {"bike_id": "b1e17883d7faac4b4049c098346bb782", "lat": 38.887508833333335, "is_disabled": 0, "lon": -76.99236016666667, "fusion_lon": 0.0, "is_reserved": 0, "fusion_lat": 0.0, "rental_uris": {"android": "https://dc.lft.to/lastmile_qr_scan", "ios": "https://dc.lft.to/lastmile_qr_scan"}, "type": "electric_scooter", "name": "b1e17883d7faac4b4049c098346bb782"}, {"bike_id": "c80d3c054ccbc96168c8530740b32d0e", "lat": 38.9141295, "is_disabled": 0, "lon": -77.03547, "fusion_lon": 0.0, "is_reserved": 0, "fusion_lat": 0.0, "rental_uris": {"android": "https://dc.lft.to/lastmile_qr_scan", "ios": "https://dc.lft.to/lastmile_qr_scan"}, "type": "electric_scooter", "name": "c80d3c054ccbc96168c8530740b32d0e"}, {"bike_id": "aece2d11243c40c5e98442943de3ca56", "lat": 38.892534833333336, "is_disabled": 0, "lon": -77.0220265, "fusion_lon": 0.0, "is_reserved": 0, "fusion_lat": 0.0, "rental_uris": {"android": "https://dc.lft.to/lastmile_qr_scan", "ios": "https://dc.lft.to/lastmile_qr_scan"}, "type": "electric_scooter", "name": "aece2d11243c40c5e98442943de3ca56"}, {"bike_id": "ddf5f717462f6a7d2aa6b5b107f89893", "lat": 38.887291166666664, "is_disabled": 0, "lon": -77.0317095, "fusion_lon": 0.0, "is_reserved": 0, "fusion_lat": 0.0, "rental_uris": {"android": "https://dc.lft.to/lastmile_qr_scan", "ios": "https://dc.lft.to/lastmile_qr_scan"}, "type": "electric_scooter", "name": "ddf5f717462f6a7d2aa6b5b107f89893"}, {"bike_id": "dacbc95b56092fee638b4b2e35acf22e", "lat": 38.90543483333333, "is_disabled": 0, "lon": -77.00701133333334, "fusion_lon": 0.0, "is_reserved": 0, "fusion_lat": 0.0, "rental_uris": {"android": "https://dc.lft.to/lastmile_qr_scan", "ios": "https://dc.lft.to/lastmile_qr_scan"}, "type": "electric_scooter", "name": "dacbc95b56092fee638b4b2e35acf22e"}, {"bike_id": "254e0213520e136af9fd8ba793da7f6e", "lat": 38.8849435, "is_disabled": 0, "lon": -77.00714633333334, "fusion_lon": 0.0, "is_reserved": 0, "fusion_lat": 0.0, "rental_uris": {"android": "https://dc.lft.to/lastmile_qr_scan", "ios": "https://dc.lft.to/lastmile_qr_scan"}, "type": "electric_scooter", "name": "254e0213520e136af9fd8ba793da7f6e"}, {"bike_id": "6eae415925bc5eacf78d8d68d2409c54", "lat": 38.902521666666665, "is_disabled": 0, "lon": -77.04578283333333, "fusion_lon": 0.0, "is_reserved": 0, "fusion_lat": 0.0, "rental_uris": {"android": "https://dc.lft.to/lastmile_qr_scan", "ios": "https://dc.lft.to/lastmile_qr_scan"}, "type": "electric_scooter", "name": "6eae415925bc5eacf78d8d68d2409c54"}, {"bike_id": "1e1639c41d6082770f29278e6e112091", "lat": 38.917095833333335, "is_disabled": 0, "lon": -77.0347215, "fusion_lon": 0.0, "is_reserved": 0, "fusion_lat": 0.0, "rental_uris": {"android": "https://dc.lft.to/lastmile_qr_scan", "ios": "https://dc.lft.to/lastmile_qr_scan"}, "type": "electric_scooter", "name": "1e1639c41d6082770f29278e6e112091"}, {"bike_id": "f9defdb0b918f791f2d543ee5611506d", "lat": 38.92628083333334, "is_disabled": 0, "lon": -76.99618383333333, "fusion_lon": 0.0, "is_reserved": 0, "fusion_lat": 0.0, "rental_uris": {"android": "https://dc.lft.to/lastmile_qr_scan", "ios": "https://dc.lft.to/lastmile_qr_scan"}, "type": "electric_scooter", "name": "f9defdb0b918f791f2d543ee5611506d"}, {"bike_id": "ebfead4b5f8b5eaff9fb41d8b90e787d", "lat": 38.897537166666666, "is_disabled": 0, "lon": -76.9864395, "fusion_lon": 0.0, "is_reserved": 0, "fusion_lat": 0.0, "rental_uris": {"android": "https://dc.lft.to/lastmile_qr_scan", "ios": "https://dc.lft.to/lastmile_qr_scan"}, "type": "electric_scooter", "name": "ebfead4b5f8b5eaff9fb41d8b90e787d"}, {"bike_id": "fe6a353e583773061e03f94bf3c77341", "lat": 38.89555033333333, "is_disabled": 0, "lon": -77.02166683333333, "fusion_lon": 0.0, "is_reserved": 0, "fusion_lat": 0.0, "rental_uris": {"android": "https://dc.lft.to/lastmile_qr_scan", "ios": "https://dc.lft.to/lastmile_qr_scan"}, "type": "electric_scooter", "name": "fe6a353e583773061e03f94bf3c77341"}, {"bike_id": "bdd8d8afc297c1cf2e5901b64a5a24b6", "lat": 38.8965235, "is_disabled": 0, "lon": -77.04003433333334, "fusion_lon": 0.0, "is_reserved": 0, "fusion_lat": 0.0, "rental_uris": {"android": "https://dc.lft.to/lastmile_qr_scan", "ios": "https://dc.lft.to/lastmile_qr_scan"}, "type": "electric_scooter", "name": "bdd8d8afc297c1cf2e5901b64a5a24b6"}, {"bike_id": "c6cb4bf921ce117c8e6958e99e14e36e", "lat": 38.94834516666667, "is_disabled": 0, "lon": -77.02560433333333, "fusion_lon": 0.0, "is_reserved": 0, "fusion_lat": 0.0, "rental_uris": {"android": "https://dc.lft.to/lastmile_qr_scan", "ios": "https://dc.lft.to/lastmile_qr_scan"}, "type": "electric_scooter", "name": "c6cb4bf921ce117c8e6958e99e14e36e"}, {"bike_id": "0f052e0e833cf1c1a2ed90af2d5ecc4a", "lat": 38.896379, "is_disabled": 0, "lon": -77.03211866666666, "fusion_lon": 0.0, "is_reserved": 0, "fusion_lat": 0.0, "rental_uris": {"android": "https://dc.lft.to/lastmile_qr_scan", "ios": "https://dc.lft.to/lastmile_qr_scan"}, "type": "electric_scooter", "name": "0f052e0e833cf1c1a2ed90af2d5ecc4a"}, {"bike_id": "6d1aea3a8ab2c217bc941a3bc469f205", "lat": 38.9074, "is_disabled": 0, "lon": -77.04384233333333, "fusion_lon": 0.0, "is_reserved": 0, "fusion_lat": 0.0, "rental_uris": {"android": "https://dc.lft.to/lastmile_qr_scan", "ios": "https://dc.lft.to/lastmile_qr_scan"}, "type": "electric_scooter", "name": "6d1aea3a8ab2c217bc941a3bc469f205"}, {"bike_id": "4b2d005a4d397a210d0de5c105ef413e", "lat": 38.894355833333336, "is_disabled": 0, "lon": -76.980784, "fusion_lon": 0.0, "is_reserved": 0, "fusion_lat": 0.0, "rental_uris": {"android": "https://dc.lft.to/lastmile_qr_scan", "ios": "https://dc.lft.to/lastmile_qr_scan"}, "type": "electric_scooter", "name": "4b2d005a4d397a210d0de5c105ef413e"}, {"bike_id": "8739767662246bae768b172e92e90e1c", "lat": 38.92878366666667, "is_disabled": 0, "lon": -77.02657133333334, "fusion_lon": 0.0, "is_reserved": 0, "fusion_lat": 0.0, "rental_uris": {"android": "https://dc.lft.to/lastmile_qr_scan", "ios": "https://dc.lft.to/lastmile_qr_scan"}, "type": "electric_scooter", "name": "8739767662246bae768b172e92e90e1c"}, {"bike_id": "90945f16f6311e6deb93d85eb79ea3f7", "lat": 38.866566666666664, "is_disabled": 0, "lon": -76.98882833333333, "fusion_lon": 0.0, "is_reserved": 0, "fusion_lat": 0.0, "rental_uris": {"android": "https://dc.lft.to/lastmile_qr_scan", "ios": "https://dc.lft.to/lastmile_qr_scan"}, "type": "electric_scooter", "name": "90945f16f6311e6deb93d85eb79ea3f7"}, {"bike_id": "e6c5fcbaf5aaa6fff8e5b08945408b29", "lat": 38.91797016666666, "is_disabled": 0, "lon": -77.02702683333334, "fusion_lon": 0.0, "is_reserved": 0, "fusion_lat": 0.0, "rental_uris": {"android": "https://dc.lft.to/lastmile_qr_scan", "ios": "https://dc.lft.to/lastmile_qr_scan"}, "type": "electric_scooter", "name": "e6c5fcbaf5aaa6fff8e5b08945408b29"}, {"bike_id": "a92d2354a3bd3fa129dff6ee149687b2", "lat": 38.909615, "is_disabled": 0, "lon": -77.046288, "fusion_lon": 0.0, "is_reserved": 0, "fusion_lat": 0.0, "rental_uris": {"android": "https://dc.lft.to/lastmile_qr_scan", "ios": "https://dc.lft.to/lastmile_qr_scan"}, "type": "electric_scooter", "name": "a92d2354a3bd3fa129dff6ee149687b2"}, {"bike_id": "26ca6bd759d4c478b15efda10b7fe97c", "lat": 38.91626466666666, "is_disabled": 0, "lon": -77.03636283333333, "fusion_lon": 0.0, "is_reserved": 0, "fusion_lat": 0.0, "rental_uris": {"android": "https://dc.lft.to/lastmile_qr_scan", "ios": "https://dc.lft.to/lastmile_qr_scan"}, "type": "electric_scooter", "name": "26ca6bd759d4c478b15efda10b7fe97c"}, {"bike_id": "721b13ade5e050a604ec375f61a4c4e0", "lat": 38.903720166666666, "is_disabled": 0, "lon": -77.034374, "fusion_lon": 0.0, "is_reserved": 0, "fusion_lat": 0.0, "rental_uris": {"android": "https://dc.lft.to/lastmile_qr_scan", "ios": "https://dc.lft.to/lastmile_qr_scan"}, "type": "electric_scooter", "name": "721b13ade5e050a604ec375f61a4c4e0"}, {"bike_id": "6d7de2d92bdcbc68b8e25758e415de1a", "lat": 38.923957333333334, "is_disabled": 0, "lon": -77.02426866666667, "fusion_lon": 0.0, "is_reserved": 0, "fusion_lat": 0.0, "rental_uris": {"android": "https://dc.lft.to/lastmile_qr_scan", "ios": "https://dc.lft.to/lastmile_qr_scan"}, "type": "electric_scooter", "name": "6d7de2d92bdcbc68b8e25758e415de1a"}, {"bike_id": "7549686ed2f7fb12a8a2b5cee1700e27", "lat": 38.922503666666664, "is_disabled": 0, "lon": -77.02116516666666, "fusion_lon": 0.0, "is_reserved": 0, "fusion_lat": 0.0, "rental_uris": {"android": "https://dc.lft.to/lastmile_qr_scan", "ios": "https://dc.lft.to/lastmile_qr_scan"}, "type": "electric_scooter", "name": "7549686ed2f7fb12a8a2b5cee1700e27"}, {"bike_id": "4f08ad874a9ef189affc339aebf0041e", "lat": 38.881230333333335, "is_disabled": 0, "lon": -76.993483, "fusion_lon": 0.0, "is_reserved": 0, "fusion_lat": 0.0, "rental_uris": {"android": "https://dc.lft.to/lastmile_qr_scan", "ios": "https://dc.lft.to/lastmile_qr_scan"}, "type": "electric_bike", "name": "4f08ad874a9ef189affc339aebf0041e"}, {"bike_id": "e45b47016efaafdc3ab1ad7edd9571cd", "lat": 38.92132133333333, "is_disabled": 0, "lon": -77.0629535, "fusion_lon": 0.0, "is_reserved": 0, "fusion_lat": 0.0, "rental_uris": {"android": "https://dc.lft.to/lastmile_qr_scan", "ios": "https://dc.lft.to/lastmile_qr_scan"}, "type": "electric_scooter", "name": "e45b47016efaafdc3ab1ad7edd9571cd"}, {"bike_id": "26f0d2e6dc8b5a0db455e4177ecd0035", "lat": 38.880221, "is_disabled": 0, "lon": -76.91714683333333, "fusion_lon": 0.0, "is_reserved": 0, "fusion_lat": 0.0, "rental_uris": {"android": "https://dc.lft.to/lastmile_qr_scan", "ios": "https://dc.lft.to/lastmile_qr_scan"}, "type": "electric_bike", "name": "26f0d2e6dc8b5a0db455e4177ecd0035"}, {"bike_id": "feafc640ed61151e46e6460cb6901ed8", "lat": 38.91786033333333, "is_disabled": 0, "lon": -77.0343545, "fusion_lon": 0.0, "is_reserved": 0, "fusion_lat": 0.0, "rental_uris": {"android": "https://dc.lft.to/lastmile_qr_scan", "ios": "https://dc.lft.to/lastmile_qr_scan"}, "type": "electric_scooter", "name": "feafc640ed61151e46e6460cb6901ed8"}, {"bike_id": "224839f08504a33cce7231d2a5b96019", "lat": 38.885086333333334, "is_disabled": 0, "lon": -76.952894, "fusion_lon": 0.0, "is_reserved": 0, "fusion_lat": 0.0, "rental_uris": {"android": "https://dc.lft.to/lastmile_qr_scan", "ios": "https://dc.lft.to/lastmile_qr_scan"}, "type": "electric_scooter", "name": "224839f08504a33cce7231d2a5b96019"}, {"bike_id": "7b4decca2ebc34c7b11273d3473be79d", "lat": 38.950738666666666, "is_disabled": 0, "lon": -77.06657683333333, "fusion_lon": 0.0, "is_reserved": 0, "fusion_lat": 0.0, "rental_uris": {"android": "https://dc.lft.to/lastmile_qr_scan", "ios": "https://dc.lft.to/lastmile_qr_scan"}, "type": "electric_bike", "name": "7b4decca2ebc34c7b11273d3473be79d"}, {"bike_id": "4f2b2b159f66495ee830ff47c4a772c0", "lat": 38.9126, "is_disabled": 0, "lon": -77.042049, "fusion_lon": 0.0, "is_reserved": 0, "fusion_lat": 0.0, "rental_uris": {"android": "https://dc.lft.to/lastmile_qr_scan", "ios": "https://dc.lft.to/lastmile_qr_scan"}, "type": "electric_scooter", "name": "4f2b2b159f66495ee830ff47c4a772c0"},