{"data": {"bikes": [{"bike_id": "90d27d5d2ecf172ad82ea78c1eec06e6", "is_reserved": 0, "fusion_lon": 0.0, "lat": 38.89972316666667, "is_disabled": 0, "name": "90d27d5d2ecf172ad82ea78c1eec06e6", "fusion_lat": 0.0, "rental_uris": {"ios": "https://dc.lft.to/lastmile_qr_scan", "android": "https://dc.lft.to/lastmile_qr_scan"}, "lon": -77.01629366666667, "type": "electric_scooter"}, {"bike_id": "7dbe85d4f3328f846e084a394bb119b3", "is_reserved": 0, "fusion_lon": 0.0, "lat": 38.93398916666666, "is_disabled": 0, "name": "7dbe85d4f3328f846e084a394bb119b3", "fusion_lat": 0.0, "rental_uris": {"ios": "https://dc.lft.to/lastmile_qr_scan", "android": "https://dc.lft.to/lastmile_qr_scan"}, "lon": -77.02067033333333, "type": "electric_scooter"}, {"bike_id": "b599c10df8b0824734e501e97fccb427", "is_reserved": 0, "fusion_lon": 0.0, "lat": 38.9527855, "is_disabled": 0, "name": "b599c10df8b0824734e501e97fccb427", "fusion_lat": 0.0, "rental_uris": {"ios": "https://dc.lft.to/lastmile_qr_scan", "android": "https://dc.lft.to/lastmile_qr_scan"}, "lon": -77.007916, "type": "electric_scooter"}, {"bike_id": "295075f0c86fc41e7e5cf1897fe8032f", "is_reserved": 0, "fusion_lon": 0.0, "lat": 38.900108, "is_disabled": 0, "name": "295075f0c86fc41e7e5cf1897fe8032f", "fusion_lat": 0.0, "rental_uris": {"ios": "https://dc.lft.to/lastmile_qr_scan", "android": "https://dc.lft.to/lastmile_qr_scan"}, "lon": -76.99792583333333, "type": "electric_scooter"}, {"bike_id": "01fbd2252934346bac2c1cbb39f0005c", "is_reserved": 0, "fusion_lon": 0.0, "lat": 38.924351333333334, "is_disabled": 0, "name": "01fbd2252934346bac2c1cbb39f0005c", "fusion_lat": 0.0, "rental_uris": {"ios": "https://dc.lft.to/lastmile_qr_scan", "android": "https://dc.lft.to/lastmile_qr_scan"}, "lon": -77.039989, "type": "electric_scooter"}, {"bike_id": "d0c4d810c843becb3a36d4fb24c2b753", "is_reserved": 0, "fusion_lon": 0.0, "lat": 38.85325266666667, "is_disabled": 0, "name": "d0c4d810c843becb3a36d4fb24c2b753", "fusion_lat": 0.0, "rental_uris": {"ios": "https://dc.lft.to/lastmile_qr_scan", "android": "https://dc.lft.to/lastmile_qr_scan"}, "lon": -76.9800155, "type": "electric_scooter"}, {"bike_id": "d58fbb6b25c5aae67be29e29c53d1e8e", "is_reserved": 0, "fusion_lon": 0.0, "lat": 38.940487, "is_disabled": 0, "name": "d58fbb6b25c5aae67be29e29c53d1e8e", "fusion_lat": 0.0, "rental_uris": {"ios": "https://dc.lft.to/lastmile_qr_scan", "android": "https://dc.lft.to/lastmile_qr_scan"}, "lon": -77.029756, "type": "electric_scooter"}, {"bike_id": "369bc5695fb51d0667b9005000d72116", "is_reserved": 0, "fusion_lon": 0.0, "lat": 38.92266933333333, "is_disabled": 0, "name": "369bc5695fb51d0667b9005000d72116", "fusion_lat": 0.0, "rental_uris": {"ios": "https://dc.lft.to/lastmile_qr_scan", "android": "https://dc.lft.to/lastmile_qr_scan"}, "lon": -77.0413965, "type": "electric_scooter"}, {"bike_id": "d18f326d8b5f5001cad9a6c5f324532a", "is_reserved": 0, "fusion_lon": 0.0, "lat": 38.920948, "is_disabled": 0, "name": "d18f326d8b5f5001cad9a6c5f324532a", "fusion_lat": 0.0, "rental_uris": {"ios": "https://dc.lft.to/lastmile_qr_scan", "android": "https://dc.lft.to/lastmile_qr_scan"}, "lon": -76.998953, "type": "electric_scooter"}, {"bike_id": "61e1856071ae9b645e1c2a65f54cd4a4", "is_reserved": 0, "fusion_lon": 0.0, "lat": 38.91878366666667, "is_disabled": 0, "name": "61e1856071ae9b645e1c2a65f54cd4a4", "fusion_lat": 0.0, "rental_uris": {"ios": "https://dc.lft.to/lastmile_qr_scan", "android": "https://dc.lft.to/lastmile_qr_scan"}, "lon": -77.03501666666666, "type": "electric_scooter"}, {"bike_id": "64772f8a23880016f9b53f591da8dad0", "is_reserved": 0, "fusion_lon": 0.0, "lat": 38.9906795, "is_disabled": 0, "name": "64772f8a23880016f9b53f591da8dad0", "fusion_lat": 0.0, "rental_uris": {"ios": "https://dc.lft.to/lastmile_qr_scan", "android": "https://dc.lft.to/lastmile_qr_scan"}, "lon": -77.10027316666667, "type": "electric_bike"}, {"bike_id": "76e6145157c441717f44afdde9787e30", "is_reserved": 0, "fusion_lon": 0.0, "lat": 38.87235533333333, "is_disabled": 0, "name": "76e6145157c441717f44afdde9787e30", "fusion_lat": 0.0, "rental_uris": {"ios": "https://dc.lft.to/lastmile_qr_scan", "android": "https://dc.lft.to/lastmile_qr_scan"}, "lon": -77.01159966666667, "type": "electric_bike"}, {"bike_id": "7f70164c02348be6f94e1e54ff4d0991", "is_reserved": 0, "fusion_lon": 0.0, "lat": 38.9080175, "is_disabled": 0, "name": "7f70164c02348be6f94e1e54ff4d0991", "fusion_lat": 0.0, "rental_uris": {"ios": "https://dc.lft.to/lastmile_qr_scan", "android": "https://dc.lft.to/lastmile_qr_scan"}, "lon": -77.03469383333334, "type": "electric_scooter"}, {"bike_id": "d570bca0eadd9f97314da0cf0a5a1ebb", "is_reserved": 0, "fusion_lon": 0.0, "lat": 38.92049083333333, "is_disabled": 0, "name": "d570bca0eadd9f97314da0cf0a5a1ebb", "fusion_lat": 0.0, "rental_uris": {"ios": "https://dc.lft.to/lastmile_qr_scan", "android": "https://dc.lft.to/lastmile_qr_scan"}, "lon": -76.99819533333333, "type": "electric_scooter"}, {"bike_id": "1a5210889492b7aff9a31c690baa83d2", "is_reserved": 0, "fusion_lon": 0.0, "lat": 38.92425316666667, "is_disabled": 0, "name": "1a5210889492b7aff9a31c690baa83d2", "fusion_lat": 0.0, "rental_uris": {"ios": "https://dc.lft.to/lastmile_qr_scan", "android": "https://dc.lft.to/lastmile_qr_scan"}, "lon": -77.035422, "type": "electric_scooter"}, {"bike_id": "948f164e751f47d06f8a48055ddbbbaf", "is_reserved": 0, "fusion_lon": 0.0, "lat": 38.918093666666664, "is_disabled": 0, "name": "948f164e751f47d06f8a48055ddbbbaf", "fusion_lat": 0.0, "rental_uris": {"ios": "https://dc.lft.to/lastmile_qr_scan", "android": "https://dc.lft.to/lastmile_qr_scan"}, "lon": -77.03435083333333, "type": "electric_scooter"}, {"bike_id": "484afd25b9ab01b2233038f83fd1b523", "is_reserved": 0, "fusion_lon": 0.0, "lat": 38.900134666666666, "is_disabled": 0, "name": "484afd25b9ab01b2233038f83fd1b523", "fusion_lat": 0.0, "rental_uris": {"ios": "https://dc.lft.to/lastmile_qr_scan", "android": "https://dc.lft.to/lastmile_qr_scan"}, "lon": -77.00191383333333, "type": "electric_scooter"}, {"bike_id": "ce223e6c9d4907bbc73b18ddf7cfeb09", "is_reserved": 0, "fusion_lon": 0.0, "lat": 38.93954, "is_disabled": 0, "name": "ce223e6c9d4907bbc73b18ddf7cfeb09", "fusion_lat": 0.0, "rental_uris": {"ios": "https://dc.lft.to/lastmile_qr_scan", "android": "https://dc.lft.to/lastmile_qr_scan"}, "lon": -77.032597, "type": "electric_scooter"}, {"bike_id": "194e49ce32a3bb8ec8bc700c9989f404", "is_reserved": 0, "fusion_lon": 0.0, "lat": 38.89231616666667, "is_disabled": 0, "name": "194e49ce32a3bb8ec8bc700c9989f404", "fusion_lat": 0.0, "rental_uris": {"ios": "https://dc.lft.to/lastmile_qr_scan", "android": "https://dc.lft.to/lastmile_qr_scan"}, "lon": -77.02174783333334, "type": "electric_scooter"}, {"bike_id": "5d962187a4879e4acaa42b9099dac4b4", "is_reserved": 0, "fusion_lon": 0.0, "lat": 38.916734, "is_disabled": 0, "name": "5d962187a4879e4acaa42b9099dac4b4", "fusion_lat": 0.0, "rental_uris": {"ios": "https://dc.lft.to/lastmile_qr_scan", "android": "https://dc.lft.to/lastmile_qr_scan"}, "lon": -77.02309366666667, "type": "electric_scooter"}, {"bike_id": "474d1b0d293b593e4f4a8c66e4c3a284", "is_reserved": 0, "fusion_lon": 0.0, "lat": 38.939829833333334, "is_disabled": 0, "name": "474d1b0d293b593e4f4a8c66e4c3a284", "fusion_lat": 0.0, "rental_uris": {"ios": "https://dc.lft.to/lastmile_qr_scan", "android": "https://dc.lft.to/lastmile_qr_scan"}, "lon": -77.028874, "type": "electric_scooter"}, {"bike_id": "339c67352dad549d94e83c415d0301ca", "is_reserved": 0, "fusion_lon": 0.0, "lat": 38.9188645, "is_disabled": 0, "name": "339c67352dad549d94e83c415d0301ca", "fusion_lat": 0.0, "rental_uris": {"ios": "https://dc.lft.to/lastmile_qr_scan", "android": "https://dc.lft.to/lastmile_qr_scan"}, "lon": -77.044623, "type": "electric_scooter"}, {"bike_id": "8075ed30958006fdbf608d99da8b3760", "is_reserved": 0, "fusion_lon": 0.0, "lat": 38.920527166666666, "is_disabled": 0, "name": "8075ed30958006fdbf608d99da8b3760", "fusion_lat": 0.0, "rental_uris": {"ios": "https://dc.lft.to/lastmile_qr_scan", "android": "https://dc.lft.to/lastmile_qr_scan"}, "lon": -77.0339455, "type": "electric_scooter"}, {"bike_id": "0aedcbf48097ebd75990c65826b9b969", "is_reserved": 0, "fusion_lon": 0.0, "lat": 38.99940216666667, "is_disabled": 0, "name": "0aedcbf48097ebd75990c65826b9b969", "fusion_lat": 0.0, "rental_uris": {"ios": "https://dc.lft.to/lastmile_qr_scan", "android": "https://dc.lft.to/lastmile_qr_scan"}, "lon": -77.01763516666666, "type": "electric_bike"}, {"bike_id": "65b295adf311467ef6b42f38b93a5e60", "is_reserved": 0, "fusion_lon": 0.0, "lat": 38.952672666666665, "is_disabled": 0, "name": "65b295adf311467ef6b42f38b93a5e60", "fusion_lat": 0.0, "rental_uris": {"ios": "https://dc.lft.to/lastmile_qr_scan", "android": "https://dc.lft.to/lastmile_qr_scan"}, "lon": -77.02567233333333, "type": "electric_scooter"}, {"bike_id": "25c70fb4219d040989dde08171c5ebeb", "is_reserved": 0, "fusion_lon": 0.0, "lat": 38.8670385, "is_disabled": 0, "name": "25c70fb4219d040989dde08171c5ebeb", "fusion_lat": 0.0, "rental_uris": {"ios": "https://dc.lft.to/lastmile_qr_scan", "android": "https://dc.lft.to/lastmile_qr_scan"}, "lon": -76.98713583333333, "type": "electric_scooter"}, {"bike_id": "9e746bf2e9d118464d9db8c7e4b7dd4c", "is_reserved": 0, "fusion_lon": 0.0, "lat": 38.899662166666666, "is_disabled": 0, "name": "9e746bf2e9d118464d9db8c7e4b7dd4c", "fusion_lat": 0.0, "rental_uris": {"ios": "https://dc.lft.to/lastmile_qr_scan", "android": "https://dc.lft.to/lastmile_qr_scan"}, "lon": -77.03176483333333, "type": "electric_scooter"}, {"bike_id": "cebf61cfe04c7c930cd816685ab53922", "is_reserved": 0, "fusion_lon": 0.0, "lat": 38.89232, "is_disabled": 0, "name": "cebf61cfe04c7c930cd816685ab53922", "fusion_lat": 0.0, "rental_uris": {"ios": "https://dc.lft.to/lastmile_qr_scan", "android": "https://dc.lft.to/lastmile_qr_scan"}, "lon": -77.03227466666667, "type": "electric_scooter"}, {"bike_id": "66fc710672437f4024a68862facbf2ae", "is_reserved": 0, "fusion_lon": 0.0, "lat": 38.9661925, "is_disabled": 0, "name": "66fc710672437f4024a68862facbf2ae", "fusion_lat": 0.0, "rental_uris": {"ios": "https://dc.lft.to/lastmile_qr_scan", "android": "https://dc.lft.to/lastmile_qr_scan"}, "lon": -76.97668633333333, "type": "electric_bike"}, {"bike_id": "105f3c6e816d3ccdc62b09a137659562", "is_reserved": 0, "fusion_lon": 0.0, "lat": 38.909727333333336, "is_disabled": 0, "name": "105f3c6e816d3ccdc62b09a137659562", "fusion_lat": 0.0, "rental_uris": {"ios": "https://dc.lft.to/lastmile_qr_scan", "android": "https://dc.lft.to/lastmile_qr_scan"}, "lon": -77.03863216666667, "type": "electric_scooter"}, {"bike_id": "b5d3074e9df76decbf59a3050ebd6660", "is_reserved": 0, "fusion_lon": 0.0, "lat": 38.9077365, "is_disabled": 0, "name": "b5d3074e9df76decbf59a3050ebd6660", "fusion_lat": 0.0, "rental_uris": {"ios": "https://dc.lft.to/lastmile_qr_scan", "android": "https://dc.lft.to/lastmile_qr_scan"}, "lon": -77.06912866666667, "type": "electric_scooter"}, {"bike_id": "0ba5c7ab429b4c5e5c127db4091c90bd", "is_reserved": 0, "fusion_lon": 0.0, "lat": 38.933663333333335, "is_disabled": 0, "name": "0ba5c7ab429b4c5e5c127db4091c90bd", "fusion_lat": 0.0, "rental_uris": {"ios": "https://dc.lft.to/lastmile_qr_scan", "android": "https://dc.lft.to/lastmile_qr_scan"}, "lon": -77.02640283333334, "type": "electric_scooter"}, {"bike_id": "ceff1ca60aa22b1ecaf571cd309f7449", "is_reserved": 0, "fusion_lon": 0.0, "lat": 38.90006416666667, "is_disabled": 0, "name": "ceff1ca60aa22b1ecaf571cd309f7449", "fusion_lat": 0.0, "rental_uris": {"ios": "https://dc.lft.to/lastmile_qr_scan", "android": "https://dc.lft.to/lastmile_qr_scan"}, "lon": -76.99496483333333, "type": "electric_scooter"}, {"bike_id": "d521b2f96884a745ddebe80fcef15a47", "is_reserved": 0, "fusion_lon": 0.0, "lat": 38.8953315, "is_disabled": 0, "name": "d521b2f96884a745ddebe80fcef15a47", "fusion_lat": 0.0, "rental_uris": {"ios": "https://dc.lft.to/lastmile_qr_scan", "android": "https://dc.lft.to/lastmile_qr_scan"}, "lon": -77.03349083333333, "type": "electric_scooter"}, {"bike_id": "977e27bd5ce02d080a7a60fd05ae33e6", "is_reserved": 0, "fusion_lon": 0.0, "lat": 38.83238816666667, "is_disabled": 0, "name": "977e27bd5ce02d080a7a60fd05ae33e6", "fusion_lat": 0.0, "rental_uris": {"ios": "https://dc.lft.to/lastmile_qr_scan", "android": "https://dc.lft.to/lastmile_qr_scan"}, "lon": -76.94624066666667, "type": "electric_bike"}, {"bike_id": "ed759bd458981dc455fae2ea426f2656", "is_reserved": 0, "fusion_lon": 0.0, "lat": 38.92452516666667, "is_disabled": 0, "name": "ed759bd458981dc455fae2ea426f2656", "fusion_lat": 0.0, "rental_uris": {"ios": "https://dc.lft.to/lastmile_qr_scan", "android": "https://dc.lft.to/lastmile_qr_scan"}, "lon": -77.020297, "type": "electric_scooter"}, {"bike_id": "f6d204561419a044c60a6436ec08a024", "is_reserved": 0, "fusion_lon": 0.0, "lat": 38.9140565, "is_disabled": 0, "name": "f6d204561419a044c60a6436ec08a024", "fusion_lat": 0.0, "rental_uris": {"ios": "https://dc.lft.to/lastmile_qr_scan", "android": "https://dc.lft.to/lastmile_qr_scan"}, "lon": -77.04569, "type": "electric_scooter"}, {"bike_id": "2512c8b6250292eeba07cc8b68cddc2c", "is_reserved": 0, "fusion_lon": 0.0, "lat": 38.94097, "is_disabled": 0, "name": "2512c8b6250292eeba07cc8b68cddc2c", "fusion_lat": 0.0, "rental_uris": {"ios": "https://dc.lft.to/lastmile_qr_scan", "android": "https://dc.lft.to/lastmile_qr_scan"}, "lon": -77.03280416666666, "type": "electric_scooter"}, {"bike_id": "a170b368b3efd6122a3f042d0daee1de", "is_reserved": 0, "fusion_lon": 0.0, "lat": 38.924462, "is_disabled": 0, "name": "a170b368b3efd6122a3f042d0daee1de", "fusion_lat": 0.0, "rental_uris": {"ios": "https://dc.lft.to/lastmile_qr_scan", "android": "https://dc.lft.to/lastmile_qr_scan"}, "lon": -77.03369133333334, "type": "electric_scooter"}, {"bike_id": "4aa9ba4e01954cdee5435be2b299a39f", "is_reserved": 0, "fusion_lon": 0.0, "lat": 38.910502666666666, "is_disabled": 0, "name": "4aa9ba4e01954cdee5435be2b299a39f", "fusion_lat": 0.0, "rental_uris": {"ios": "https://dc.lft.to/lastmile_qr_scan", "android": "https://dc.lft.to/lastmile_qr_scan"}, "lon": -77.01511466666666, "type": "electric_scooter"}, {"bike_id": "9f694926c5a5b16f3ada5643f2d2260a", "is_reserved": 0, "fusion_lon": 0.0, "lat": 38.9723845, "is_disabled": 0, "name": "9f694926c5a5b16f3ada5643f2d2260a", "fusion_lat": 0.0, "rental_uris": {"ios": "https://dc.lft.to/lastmile_qr_scan", "android": "https://dc.lft.to/lastmile_qr_scan"}, "lon": -77.02712466666667, "type": "electric_scooter"}, {"bike_id": "5e86996cb8632f126b2f77e4ed0da04a", "is_reserved": 0, "fusion_lon": 0.0, "lat": 38.90828966666667, "is_disabled": 0, "name": "5e86996cb8632f126b2f77e4ed0da04a", "fusion_lat": 0.0, "rental_uris": {"ios": "https://dc.lft.to/lastmile_qr_scan", "android": "https://dc.lft.to/lastmile_qr_scan"}, "lon": -77.0446705, "type": "electric_scooter"}, {"bike_id": "04211df47923a7223cda8477f0bed801", "is_reserved": 0, "fusion_lon": 0.0, "lat": 38.932023666666666, "is_disabled": 0, "name": "04211df47923a7223cda8477f0bed801", "fusion_lat": 0.0, "rental_uris": {"ios": "https://dc.lft.to/lastmile_qr_scan", "android": "https://dc.lft.to/lastmile_qr_scan"}, "lon": -77.0385275, "type": "electric_scooter"}, {"bike_id": "0d5e96aa60a1c47f0d112b4bf3079392", "is_reserved": 0, "fusion_lon": 0.0, "lat": 38.86413233333333, "is_disabled": 0, "name": "0d5e96aa60a1c47f0d112b4bf3079392", "fusion_lat": 0.0, "rental_uris": {"ios": "https://dc.lft.to/lastmile_qr_scan", "android": "https://dc.lft.to/lastmile_qr_scan"}, "lon": -76.9745495, "type": "electric_scooter"}, {"bike_id": "1b37187d534d9c752a60eabbd1c5a164", "is_reserved": 0, "fusion_lon": 0.0, "lat": 38.9079875, "is_disabled": 0, "name": "1b37187d534d9c752a60eabbd1c5a164", "fusion_lat": 0.0, "rental_uris": {"ios": "https://dc.lft.to/lastmile_qr_scan", "android": "https://dc.lft.to/lastmile_qr_scan"}, "lon": -77.04869433333333, "type": "electric_scooter"}, {"bike_id": "3602c924bcf570eb624963098ab8785a", "is_reserved": 0, "fusion_lon": 0.0, "lat": 38.86419033333333, "is_disabled": 0, "name": "3602c924bcf570eb624963098ab8785a", "fusion_lat": 0.0, "rental_uris": {"ios": "https://dc.lft.to/lastmile_qr_scan", "android": "https://dc.lft.to/lastmile_qr_scan"}, "lon": -76.98037333333333, "type": "electric_scooter"}, {"bike_id": "69235ad87d04a9da29ccf541a93662ba", "is_reserved": 0, "fusion_lon": 0.0, "lat": 38.885952833333334, "is_disabled": 0, "name": "69235ad87d04a9da29ccf541a93662ba", "fusion_lat": 0.0, "rental_uris": {"ios": "https://dc.lft.to/lastmile_qr_scan", "android": "https://dc.lft.to/lastmile_qr_scan"}, "lon": -76.9526985, "type": "electric_scooter"}, {"bike_id": "04f7f43f453a42ce273a86284de2bbcb", "is_reserved": 0, "fusion_lon": 0.0, "lat": 38.945122833333336, "is_disabled": 0, "name": "04f7f43f453a42ce273a86284de2bbcb", "fusion_lat": 0.0, "rental_uris": {"ios": "https://dc.lft.to/lastmile_qr_scan", "android": "https://dc.lft.to/lastmile_qr_scan"}, "lon": -77.00671283333334, "type": "electric_bike"}, {"bike_id": "e17105ed0b299d8d9e5ec09e48a7ad06", "is_reserved": 0, "fusion_lon": 0.0, "lat": 38.91958266666666, "is_disabled": 0, "name": "e17105ed0b299d8d9e5ec09e48a7ad06", "fusion_lat": 0.0, "rental_uris": {"ios": "https://dc.lft.to/lastmile_qr_scan", "android": "https://dc.lft.to/lastmile_qr_scan"}, "lon": -77.032001, "type": "electric_scooter"}, {"bike_id": "f5ec06d72726dbb2100dc67dc26ab5dd", "is_reserved": 0, "fusion_lon": 0.0, "lat": 38.8992505, "is_disabled": 0, "name": "f5ec06d72726dbb2100dc67dc26ab5dd", "fusion_lat": 0.0, "rental_uris": {"ios": "https://dc.lft.to/lastmile_qr_scan", "android": "https://dc.lft.to/lastmile_qr_scan"}, "lon": -77.03924333333333, "type": "electric_scooter"}, {"bike_id": "75662ce7cc417c802c25e7c4de9b1471", "is_reserved": 0, "fusion_lon": 0.0, "lat": 38.897723, "is_disabled": 0, "name": "75662ce7cc417c802c25e7c4de9b1471", "fusion_lat": 0.0, "rental_uris": {"ios": "https://dc.lft.to/lastmile_qr_scan", "android": "https://dc.lft.to/lastmile_qr_scan"}, "lon": -77.0432935, "type": "electric_scooter"}, {"bike_id": "36b406976ad3e1737c25010bf55f1377", "is_reserved": 0, "fusion_lon": 0.0, "lat": 38.93352683333333, "is_disabled": 0, "name": "36b406976ad3e1737c25010bf55f1377", "fusion_lat": 0.0, "rental_uris": {"ios": "https://dc.lft.to/lastmile_qr_scan", "android": "https://dc.lft.to/lastmile_qr_scan"}, "lon": -77.06937816666667, "type": "electric_scooter"}, {"bike_id": "3d624058d7cbd509ebe0724e66e7dcf4", "is_reserved": 0, "fusion_lon": 0.0, "lat": 38.91125366666667, "is_disabled": 0, "name": "3d624058d7cbd509ebe0724e66e7dcf4", "fusion_lat": 0.0, "rental_uris": {"ios": "https://dc.lft.to/lastmile_qr_scan", "android": "https://dc.lft.to/lastmile_qr_scan"}, "lon": -77.02185, "type": "electric_scooter"}, {"bike_id": "60313639d9a37bb8aa5e74ac85ba416d", "is_reserved": 0, "fusion_lon": 0.0, "lat": 38.909778, "is_disabled": 0, "name": "60313639d9a37bb8aa5e74ac85ba416d", "fusion_lat": 0.0, "rental_uris": {"ios": "https://dc.lft.to/lastmile_qr_scan", "android": "https://dc.lft.to/lastmile_qr_scan"}, "lon": -77.04871966666667, "type": "electric_scooter"}, {"bike_id": "fdfc9f0ac0dcfa252fa466742cfb078a", "is_reserved": 0, "fusion_lon": 0.0, "lat": 38.885250666666664, "is_disabled": 0, "name": "fdfc9f0ac0dcfa252fa466742cfb078a", "fusion_lat": 0.0, "rental_uris": {"ios": "https://dc.lft.to/lastmile_qr_scan", "android": "https://dc.lft.to/lastmile_qr_scan"}, "lon": -77.005849, "type": "electric_scooter"}, {"bike_id": "1508bd0edd0a189d6b2e50f71cb44368", "is_reserved": 0, "fusion_lon": 0.0, "lat": 38.9028925, "is_disabled": 0, "name": "1508bd0edd0a189d6b2e50f71cb44368", "fusion_lat": 0.0, "rental_uris": {"ios": "https://dc.lft.to/lastmile_qr_scan", "android": "https://dc.lft.to/lastmile_qr_scan"}, "lon": -77.03842416666667, "type": "electric_scooter"}, {"bike_id": "7c0c41cbd29713753cc2cddd25453fa9", "is_reserved": 0, "fusion_lon": 0.0, "lat": 38.866655, "is_disabled": 0, "name": "7c0c41cbd29713753cc2cddd25453fa9", "fusion_lat": 0.0, "rental_uris": {"ios": "https://dc.lft.to/lastmile_qr_scan", "android": "https://dc.lft.to/lastmile_qr_scan"}, "lon": -76.9890775, "type": "electric_scooter"}, {"bike_id": "af5a221c17ee8b63df66d051bbe5645f", "is_reserved": 0, "fusion_lon": 0.0, "lat": 38.92226566666667, "is_disabled": 0, "name": "af5a221c17ee8b63df66d051bbe5645f", "fusion_lat": 0.0, "rental_uris": {"ios": "https://dc.lft.to/lastmile_qr_scan", "android": "https://dc.lft.to/lastmile_qr_scan"}, "lon": -77.03887083333333, "type": "electric_scooter"}, {"bike_id": "aec7eabefa18aea6029ab4fef828c061", "is_reserved": 0, "fusion_lon": 0.0, "lat": 38.9067185, "is_disabled": 0, "name": "aec7eabefa18aea6029ab4fef828c061", "fusion_lat": 0.0, "rental_uris": {"ios": "https://dc.lft.to/lastmile_qr_scan", "android": "https://dc.lft.to/lastmile_qr_scan"}, "lon": -77.0271345, "type": "electric_scooter"}, {"bike_id": "a2d3f51ecdf9ee093b51158de903bc4d", "is_reserved": 0, "fusion_lon": 0.0, "lat": 38.92344683333334, "is_disabled": 0, "name": "a2d3f51ecdf9ee093b51158de903bc4d", "fusion_lat": 0.0, "rental_uris": {"ios": "https://dc.lft.to/lastmile_qr_scan", "android": "https://dc.lft.to/lastmile_qr_scan"}, "lon": -77.03499466666666, "type": "electric_scooter"}, {"bike_id": "5223aed199466186341d684832712dd3", "is_reserved": 0, "fusion_lon": 0.0, "lat": 38.8662865, "is_disabled": 0, "name": "5223aed199466186341d684832712dd3", "fusion_lat": 0.0, "rental_uris": {"ios": "https://dc.lft.to/lastmile_qr_scan", "android": "https://dc.lft.to/lastmile_qr_scan"}, "lon": -76.9869845, "type": "electric_scooter"}, {"bike_id": "cf8cf9175113ccee4c339313fa154c65", "is_reserved": 0, "fusion_lon": 0.0, "lat": 38.94421033333333, "is_disabled": 0, "name": "cf8cf9175113ccee4c339313fa154c65", "fusion_lat": 0.0, "rental_uris": {"ios": "https://dc.lft.to/lastmile_qr_scan", "android": "https://dc.lft.to/lastmile_qr_scan"}, "lon": -77.017736, "type": "electric_scooter"}, {"bike_id": "f9e3c262775106667d6bfd2193bf8187", "is_reserved": 0, "fusion_lon": 0.0, "lat": 38.8580075, "is_disabled": 0, "name": "f9e3c262775106667d6bfd2193bf8187", "fusion_lat": 0.0, "rental_uris": {"ios": "https://dc.lft.to/lastmile_qr_scan", "android": "https://dc.lft.to/lastmile_qr_scan"}, "lon": -76.987536, "type": "electric_bike"}, {"bike_id": "796692531f864f6a8e63225273d64cdd", "is_reserved": 0, "fusion_lon": 0.0, "lat": 38.905047333333336, "is_disabled": 0, "name": "796692531f864f6a8e63225273d64cdd", "fusion_lat": 0.0, "rental_uris": {"ios": "https://dc.lft.to/lastmile_qr_scan", "android": "https://dc.lft.to/lastmile_qr_scan"}, "lon": -77.029484, "type": "electric_scooter"}, {"bike_id": "3751df5012eedf2bf987c726958ee1e6", "is_reserved": 0, "fusion_lon": 0.0, "lat": 38.920004666666664, "is_disabled": 0, "name": "3751df5012eedf2bf987c726958ee1e6", "fusion_lat": 0.0, "rental_uris": {"ios": "https://dc.lft.to/lastmile_qr_scan", "android": "https://dc.lft.to/lastmile_qr_scan"}, "lon": -77.03229766666666, "type": "electric_scooter"}, {"bike_id": "e2eaa8e64b9b447ce18295814c34ab98", "is_reserved": 0, "fusion_lon": 0.0, "lat": 38.84296033333333, "is_disabled": 0, "name": "e2eaa8e64b9b447ce18295814c34ab98", "fusion_lat": 0.0, "rental_uris": {"ios": "https://dc.lft.to/lastmile_qr_scan", "android": "https://dc.lft.to/lastmile_qr_scan"}, "lon": -76.9994545, "type": "electric_scooter"}, {"bike_id": "523726417c7035de30b0987694f7c673", "is_reserved": 0, "fusion_lon": 0.0, "lat": 38.935473, "is_disabled": 0, "name": "523726417c7035de30b0987694f7c673", "fusion_lat": 0.0, "rental_uris": {"ios": "https://dc.lft.to/lastmile_qr_scan", "android": "https://dc.lft.to/lastmile_qr_scan"}, "lon": -77.032801, "type": "electric_scooter"}, {"bike_id": "c6f6b4e950880d74b39a58dae523db0b", "is_reserved": 0, "fusion_lon": 0.0, "lat": 38.920319, "is_disabled": 0, "name": "c6f6b4e950880d74b39a58dae523db0b", "fusion_lat": 0.0, "rental_uris": {"ios": "https://dc.lft.to/lastmile_qr_scan", "android": "https://dc.lft.to/lastmile_qr_scan"}, "lon": -77.0111545, "type": "electric_scooter"}, {"bike_id": "0671c12bcf85196a0f8c34f3466d4990", "is_reserved": 0, "fusion_lon": 0.0, "lat": 38.91053483333334, "is_disabled": 0, "name": "0671c12bcf85196a0f8c34f3466d4990", "fusion_lat": 0.0, "rental_uris": {"ios": "https://dc.lft.to/lastmile_qr_scan", "android": "https://dc.lft.to/lastmile_qr_scan"}, "lon": -77.01685266666667, "type": "electric_scooter"}, {"bike_id": "1cf8a5c695d0da4d0147bc26a724e5d3", "is_reserved": 0, "fusion_lon": 0.0, "lat": 38.941754833333334, "is_disabled": 0, "name": "1cf8a5c695d0da4d0147bc26a724e5d3", "fusion_lat": 0.0, "rental_uris": {"ios": "https://dc.lft.to/lastmile_qr_scan", "android": "https://dc.lft.to/lastmile_qr_scan"}, "lon": -77.02499883333333, "type": "electric_scooter"}, {"bike_id": "0ad8e56fed7f1c9291a7eb15d32a4f1d", "is_reserved": 0, "fusion_lon": 0.0, "lat": 38.925414, "is_disabled": 0, "name": "0ad8e56fed7f1c9291a7eb15d32a4f1d", "fusion_lat": 0.0, "rental_uris": {"ios": "https://dc.lft.to/lastmile_qr_scan", "android": "https://dc.lft.to/lastmile_qr_scan"}, "lon": -77.03462833333333, "type": "electric_scooter"}, {"bike_id": "e6434a6ea0bef1adb30d45f322d7a2ea", "is_reserved": 0, "fusion_lon": 0.0, "lat": 38.90545683333333, "is_disabled": 0, "name": "e6434a6ea0bef1adb30d45f322d7a2ea", "fusion_lat": 0.0, "rental_uris": {"ios": "https://dc.lft.to/lastmile_qr_scan", "android": "https://dc.lft.to/lastmile_qr_scan"}, "lon": -77.04859033333334, "type": "electric_scooter"}, {"bike_id": "e2c7363f39e5fb94d9b539ca322e72cd", "is_reserved": 0, "fusion_lon": 0.0, "lat": 38.896307166666666, "is_disabled": 0, "name": "e2c7363f39e5fb94d9b539ca322e72cd", "fusion_lat": 0.0, "rental_uris": {"ios": "https://dc.lft.to/lastmile_qr_scan", "android": "https://dc.lft.to/lastmile_qr_scan"}, "lon": -77.03228866666667, "type": "electric_scooter"}, {"bike_id": "612581c08a2d82146e00b212f956e263", "is_reserved": 0, "fusion_lon": 0.0, "lat": 38.90461966666667, "is_disabled": 0, "name": "612581c08a2d82146e00b212f956e263", "fusion_lat": 0.0, "rental_uris": {"ios": "https://dc.lft.to/lastmile_qr_scan", "android": "https://dc.lft.to/lastmile_qr_scan"}, "lon": -76.99499983333334, "type": "electric_scooter"}, {"bike_id": "8ab6c5abf5c6f92b6783e2ac3c94f765", "is_reserved": 0, "fusion_lon": 0.0, "lat": 38.896136, "is_disabled": 0, "name": "8ab6c5abf5c6f92b6783e2ac3c94f765", "fusion_lat": 0.0, "rental_uris": {"ios": "https://dc.lft.to/lastmile_qr_scan", "android": "https://dc.lft.to/lastmile_qr_scan"}, "lon": -77.04507633333333, "type": "electric_scooter"}, {"bike_id": "f7fec1f30c6763e990fdad6d70ecaf37", "is_reserved": 0, "fusion_lon": 0.0, "lat": 38.86963866666667, "is_disabled": 0, "name": "f7fec1f30c6763e990fdad6d70ecaf37", "fusion_lat": 0.0, "rental_uris": {"ios": "https://dc.lft.to/lastmile_qr_scan", "android": "https://dc.lft.to/lastmile_qr_scan"}, "lon": -77.01373383333333, "type": "electric_scooter"}, {"bike_id": "794b6b99efc5879101ff8d9052ecff04", "is_reserved": 0, "fusion_lon": 0.0, "lat": 38.892997, "is_disabled": 0, "name": "794b6b99efc5879101ff8d9052ecff04", "fusion_lat": 0.0, "rental_uris": {"ios": "https://dc.lft.to/lastmile_qr_scan", "android": "https://dc.lft.to/lastmile_qr_scan"}, "lon": -77.01239833333334, "type": "electric_scooter"}, {"bike_id": "b211a7e1512317331414bbae145c05fd", "is_reserved": 0, "fusion_lon": 0.0, "lat": 38.968256, "is_disabled": 0, "name": "b211a7e1512317331414bbae145c05fd", "fusion_lat": 0.0, "rental_uris": {"ios": "https://dc.lft.to/lastmile_qr_scan", "android": "https://dc.lft.to/lastmile_qr_scan"}, "lon": -77.01791066666667, "type": "electric_scooter"}, {"bike_id": "47e556f72145018d96c46fc32cdeebce", "is_reserved": 0, "fusion_lon": 0.0, "lat": 38.909474833333334, "is_disabled": 0, "name": "47e556f72145018d96c46fc32cdeebce", "fusion_lat": 0.0, "rental_uris": {"ios": "https://dc.lft.to/lastmile_qr_scan", "android": "https://dc.lft.to/lastmile_qr_scan"}, "lon": -77.038444, "type": "electric_scooter"}, {"bike_id": "c542c60fd22a1045f4c51ba8e88c7adf", "is_reserved": 0, "fusion_lon": 0.0, "lat": 38.887712, "is_disabled": 0, "name": "c542c60fd22a1045f4c51ba8e88c7adf", "fusion_lat": 0.0, "rental_uris": {"ios": "https://dc.lft.to/lastmile_qr_scan", "android": "https://dc.lft.to/lastmile_qr_scan"}, "lon": -76.93262933333334, "type": "electric_scooter"}, {"bike_id": "d7b044b1c6185bb2e12e1c2917a553b2", "is_reserved": 0, "fusion_lon": 0.0, "lat": 38.8991555, "is_disabled": 0, "name": "d7b044b1c6185bb2e12e1c2917a553b2", "fusion_lat": 0.0, "rental_uris": {"ios": "https://dc.lft.to/lastmile_qr_scan", "android": "https://dc.lft.to/lastmile_qr_scan"}, "lon": -77.0397105, "type": "electric_scooter"}, {"bike_id": "8d6824ae862f6e1a2ce625e931c19cd2", "is_reserved": 0, "fusion_lon": 0.0, "lat": 38.89965766666667, "is_disabled": 0, "name": "8d6824ae862f6e1a2ce625e931c19cd2", "fusion_lat": 0.0, "rental_uris": {"ios": "https://dc.lft.to/lastmile_qr_scan", "android": "https://dc.lft.to/lastmile_qr_scan"}, "lon": -76.92624666666667, "type": "electric_scooter"}, {"bike_id": "78d496c18bc09e34626ba7063a866453", "is_reserved": 0, "fusion_lon": 0.0, "lat": 38.896787333333336, "is_disabled": 0, "name": "78d496c18bc09e34626ba7063a866453", "fusion_lat": 0.0, "rental_uris": {"ios": "https://dc.lft.to/lastmile_qr_scan", "android": "https://dc.lft.to/lastmile_qr_scan"}, "lon": -77.02627716666667, "type": "electric_scooter"}, {"bike_id": "44d84d6209935a9197dc2aabc9db212a", "is_reserved": 0, "fusion_lon": 0.0, "lat": 38.903338833333336, "is_disabled": 0, "name": "44d84d6209935a9197dc2aabc9db212a", "fusion_lat": 0.0, "rental_uris": {"ios": "https://dc.lft.to/lastmile_qr_scan", "android": "https://dc.lft.to/lastmile_qr_scan"}, "lon": -77.0660595, "type": "electric_scooter"}, {"bike_id": "6bb77b54eef5cd3e4d4915453e33d8ed", "is_reserved": 0, "fusion_lon": 0.0, "lat": 38.902876, "is_disabled": 0, "name": "6bb77b54eef5cd3e4d4915453e33d8ed", "fusion_lat": 0.0, "rental_uris": {"ios": "https://dc.lft.to/lastmile_qr_scan", "android": "https://dc.lft.to/lastmile_qr_scan"}, "lon": -77.03846983333334, "type": "electric_scooter"}, {"bike_id": "b7d6e47c4b142829eb75ccab360e2a0e", "is_reserved": 0, "fusion_lon": 0.0, "lat": 38.89835166666667, "is_disabled": 0, "name": "b7d6e47c4b142829eb75ccab360e2a0e", "fusion_lat": 0.0, "rental_uris": {"ios": "https://dc.lft.to/lastmile_qr_scan", "android": "https://dc.lft.to/lastmile_qr_scan"}, "lon": -76.99507116666666, "type": "electric_scooter"}, {"bike_id": "677613a9fd03a3d45bd9a05b5abfd3af", "is_reserved": 0, "fusion_lon": 0.0, "lat": 38.92764783333333, "is_disabled": 0, "name": "677613a9fd03a3d45bd9a05b5abfd3af", "fusion_lat": 0.0, "rental_uris": {"ios": "https://dc.lft.to/lastmile_qr_scan", "android": "https://dc.lft.to/lastmile_qr_scan"}, "lon": -77.03241666666666, "type": "electric_scooter"}, {"bike_id": "a9ce38a1389497da94d489ff5932ffbb", "is_reserved": 0, "fusion_lon": 0.0, "lat": 38.890972, "is_disabled": 0, "name": "a9ce38a1389497da94d489ff5932ffbb", "fusion_lat": 0.0, "rental_uris": {"ios": "https://dc.lft.to/lastmile_qr_scan", "android": "https://dc.lft.to/lastmile_qr_scan"}, "lon": -76.9439245, "type": "electric_scooter"}, {"bike_id": "12f7b7073f048df5ca0458a79153a3bb", "is_reserved": 0, "fusion_lon": 0.0, "lat": 38.9097485, "is_disabled": 0, "name": "12f7b7073f048df5ca0458a79153a3bb", "fusion_lat": 0.0, "rental_uris": {"ios": "https://dc.lft.to/lastmile_qr_scan", "android": "https://dc.lft.to/lastmile_qr_scan"}, "lon": -77.05266833333333, "type": "electric_scooter"}, {"bike_id": "e489ba6d1d923f10179f83ecd4cabe39", "is_reserved": 0, "fusion_lon": 0.0, "lat": 38.92370866666667, "is_disabled": 0, "name": "e489ba6d1d923f10179f83ecd4cabe39", "fusion_lat": 0.0, "rental_uris": {"ios": "https://dc.lft.to/lastmile_qr_scan", "android": "https://dc.lft.to/lastmile_qr_scan"}, "lon": -77.01906583333333, "type": "electric_scooter"}, {"bike_id": "f9c23cfb55decbf9b660b0f4f78bf4f3", "is_reserved": 0, "fusion_lon": 0.0, "lat": 38.91810366666667, "is_disabled": 0, "name": "f9c23cfb55decbf9b660b0f4f78bf4f3", "fusion_lat": 0.0, "rental_uris": {"ios": "https://dc.lft.to/lastmile_qr_scan", "android": "https://dc.lft.to/lastmile_qr_scan"}, "lon": -77.03562016666666, "type": "electric_scooter"}, {"bike_id": "d9acc23abb5cb6f1f4e80b3fe9913c86", "is_reserved": 0, "fusion_lon": 0.0, "lat": 38.90087366666667, "is_disabled": 0, "name": "d9acc23abb5cb6f1f4e80b3fe9913c86", "fusion_lat": 0.0, "rental_uris": {"ios": "https://dc.lft.to/lastmile_qr_scan", "android": "https://dc.lft.to/lastmile_qr_scan"}, "lon": -76.93862216666666, "type": "electric_scooter"}, {"bike_id": "18248521cf0589d2a468d69e9bc1cdc9", "is_reserved": 0, "fusion_lon": 0.0, "lat": 38.92967483333334, "is_disabled": 0, "name": "18248521cf0589d2a468d69e9bc1cdc9", "fusion_lat": 0.0, "rental_uris": {"ios": "https://dc.lft.to/lastmile_qr_scan", "android": "https://dc.lft.to/lastmile_qr_scan"}, "lon": -77.005379, "type": "electric_scooter"}, {"bike_id": "988a64cf54f526b091907df7d38bcc9c", "is_reserved": 0, "fusion_lon": 0.0, "lat": 38.92779566666667, "is_disabled": 0, "name": "988a64cf54f526b091907df7d38bcc9c", "fusion_lat": 0.0, "rental_uris": {"ios": "https://dc.lft.to/lastmile_qr_scan", "android": "https://dc.lft.to/lastmile_qr_scan"}, "lon": -77.027787, "type": "electric_scooter"}, {"bike_id": "14cef3a92fea24601033079b86f5d236", "is_reserved": 0, "fusion_lon": 0.0, "lat": 38.924827666666665, "is_disabled": 0, "name": "14cef3a92fea24601033079b86f5d236", "fusion_lat": 0.0, "rental_uris": {"ios": "https://dc.lft.to/lastmile_qr_scan", "android": "https://dc.lft.to/lastmile_qr_scan"}, "lon": -77.052089, "type": "electric_scooter"}, {"bike_id": "e4a82e713beae91cdafd68fda2fabf2a", "is_reserved": 0, "fusion_lon": 0.0, "lat": 38.931638666666665, "is_disabled": 0, "name": "e4a82e713beae91cdafd68fda2fabf2a", "fusion_lat": 0.0, "rental_uris": {"ios": "https://dc.lft.to/lastmile_qr_scan", "android": "https://dc.lft.to/lastmile_qr_scan"}, "lon": -77.05640566666666, "type": "electric_scooter"}, {"bike_id": "6aaf5700bbab95ff4103935447e970d9", "is_reserved": 0, "fusion_lon": 0.0, "lat": 38.899912, "is_disabled": 0, "name": "6aaf5700bbab95ff4103935447e970d9", "fusion_lat": 0.0, "rental_uris": {"ios": "https://dc.lft.to/lastmile_qr_scan", "android": "https://dc.lft.to/lastmile_qr_scan"}, "lon": -77.015483, "type": "electric_scooter"}, {"bike_id": "01c858ace94608ab5ef5ea1d95beb274", "is_reserved": 0, "fusion_lon": 0.0, "lat": 38.91721866666666, "is_disabled": 0, "name": "01c858ace94608ab5ef5ea1d95beb274", "fusion_lat": 0.0, "rental_uris": {"ios": "https://dc.lft.to/lastmile_qr_scan", "android": "https://dc.lft.to/lastmile_qr_scan"}, "lon": -77.03838933333333, "type": "electric_scooter"}, {"bike_id": "8692a8b9cb4ecb3bd7b86acdbc07e8f3", "is_reserved": 0, "fusion_lon": 0.0, "lat": 38.91407483333333, "is_disabled": 0, "name": "8692a8b9cb4ecb3bd7b86acdbc07e8f3", "fusion_lat": 0.0, "rental_uris": {"ios": "https://dc.lft.to/lastmile_qr_scan", "android": "https://dc.lft.to/lastmile_qr_scan"}, "lon": -77.00159316666667, "type": "electric_scooter"}, {"bike_id": "1ee9da0529049ab86589563b7bf79f03", "is_reserved": 0, "fusion_lon": 0.0, "lat": 38.926248666666666, "is_disabled": 0, "name": "1ee9da0529049ab86589563b7bf79f03", "fusion_lat": 0.0, "rental_uris": {"ios": "https://dc.lft.to/lastmile_qr_scan", "android": "https://dc.lft.to/lastmile_qr_scan"}, "lon": -77.03317166666666, "type": "electric_bike"}, {"bike_id": "ed135e3cd452b50aad857de629a2c857", "is_reserved": 0, "fusion_lon": 0.0, "lat": 38.91271733333333, "is_disabled": 0, "name": "ed135e3cd452b50aad857de629a2c857", "fusion_lat": 0.0, "rental_uris": {"ios": "https://dc.lft.to/lastmile_qr_scan", "android": "https://dc.lft.to/lastmile_qr_scan"}, "lon": -77.02209283333333, "type": "electric_scooter"}, {"bike_id": "811e44289d2454dc583c1bbd3c3bfcda", "is_reserved": 0, "fusion_lon": 0.0, "lat": 38.909748, "is_disabled": 0, "name": "811e44289d2454dc583c1bbd3c3bfcda", "fusion_lat": 0.0, "rental_uris": {"ios": "https://dc.lft.to/lastmile_qr_scan", "android": "https://dc.lft.to/lastmile_qr_scan"}, "lon": -77.02714533333334, "type": "electric_scooter"}, {"bike_id": "e3104367c8dcb394e79d1af8b06f4dcd", "is_reserved": 0, "fusion_lon": 0.0, "lat": 38.91586183333333, "is_disabled": 0, "name": "e3104367c8dcb394e79d1af8b06f4dcd", "fusion_lat": 0.0, "rental_uris": {"ios": "https://dc.lft.to/lastmile_qr_scan", "android": "https://dc.lft.to/lastmile_qr_scan"}, "lon": -77.01237933333333, "type": "electric_scooter"}, {"bike_id": "68b41d1634658b801fcedaded3f4a2c2", "is_reserved": 0, "fusion_lon": 0.0, "lat": 38.90267016666667, "is_disabled": 0, "name": "68b41d1634658b801fcedaded3f4a2c2", "fusion_lat": 0.0, "rental_uris": {"ios": "https://dc.lft.to/lastmile_qr_scan", "android": "https://dc.lft.to/lastmile_qr_scan"}, "lon": -77.01773283333333, "type": "electric_scooter"}, {"bike_id": "64670e9a6f8ca6589ecfd267c6c1089b", "is_reserved": 0, "fusion_lon": 0.0, "lat": 38.943972, "is_disabled": 0, "name": "64670e9a6f8ca6589ecfd267c6c1089b", "fusion_lat": 0.0, "rental_uris": {"ios": "https://dc.lft.to/lastmile_qr_scan", "android": "https://dc.lft.to/lastmile_qr_scan"}, "lon": -77.03895216666666, "type": "electric_scooter"}, {"bike_id": "1808f2b09ff372375b077e259140b0ea", "is_reserved": 0, "fusion_lon": 0.0, "lat": 38.920748333333336, "is_disabled": 0, "name": "1808f2b09ff372375b077e259140b0ea", "fusion_lat": 0.0, "rental_uris": {"ios": "https://dc.lft.to/lastmile_qr_scan", "android": "https://dc.lft.to/lastmile_qr_scan"}, "lon": -77.024284, "type": "electric_scooter"}, {"bike_id": "ae2bdb383ed15e4c336521d306604c17", "is_reserved": 0, "fusion_lon": 0.0, "lat": 38.90591516666667, "is_disabled": 0, "name": "ae2bdb383ed15e4c336521d306604c17", "fusion_lat": 0.0, "rental_uris": {"ios": "https://dc.lft.to/lastmile_qr_scan", "android": "https://dc.lft.to/lastmile_qr_scan"}, "lon": -77.04663133333334, "type": "electric_scooter"}, {"bike_id": "b27088bdc18325a6570142506522fcda", "is_reserved": 0, "fusion_lon": 0.0, "lat": 38.89878, "is_disabled": 0, "name": "b27088bdc18325a6570142506522fcda", "fusion_lat": 0.0, "rental_uris": {"ios": "https://dc.lft.to/lastmile_qr_scan", "android": "https://dc.lft.to/lastmile_qr_scan"}, "lon": -76.93157883333333, "type": "electric_scooter"}, {"bike_id": "f1317d6121b0655f51307d39e7e2bc86", "is_reserved": 0, "fusion_lon": 0.0, "lat": 38.90116033333334, "is_disabled": 0, "name": "f1317d6121b0655f51307d39e7e2bc86", "fusion_lat": 0.0, "rental_uris": {"ios": "https://dc.lft.to/lastmile_qr_scan", "android": "https://dc.lft.to/lastmile_qr_scan"}, "lon": -77.04377366666667, "type": "electric_scooter"}, {"bike_id": "936c6f2c1ba7227baf9c577722078a89", "is_reserved": 0, "fusion_lon": 0.0, "lat": 38.92488, "is_disabled": 0, "name": "936c6f2c1ba7227baf9c577722078a89", "fusion_lat": 0.0, "rental_uris": {"ios": "https://dc.lft.to/lastmile_qr_scan", "android": "https://dc.lft.to/lastmile_qr_scan"}, "lon": -77.027132, "type": "electric_scooter"}, {"bike_id": "7a65cb43f985c8fd438a1a4076ead859", "is_reserved": 0, "fusion_lon": 0.0, "lat": 38.91246616666667, "is_disabled": 0, "name": "7a65cb43f985c8fd438a1a4076ead859", "fusion_lat": 0.0, "rental_uris": {"ios": "https://dc.lft.to/lastmile_qr_scan", "android": "https://dc.lft.to/lastmile_qr_scan"}, "lon": -77.01622, "type": "electric_scooter"}, {"bike_id": "2c9f291e942fe816d2fe44c03c63e637", "is_reserved": 0, "fusion_lon": 0.0, "lat": 38.91781733333333, "is_disabled": 0, "name": "2c9f291e942fe816d2fe44c03c63e637", "fusion_lat": 0.0, "rental_uris": {"ios": "https://dc.lft.to/lastmile_qr_scan", "android": "https://dc.lft.to/lastmile_qr_scan"}, "lon": -77.02308966666666, "type": "electric_scooter"}, {"bike_id": "5b25a3c7c81b5d7bd574c3fc9953d29b", "is_reserved": 0, "fusion_lon": 0.0, "lat": 38.92160283333333, "is_disabled": 0, "name": "5b25a3c7c81b5d7bd574c3fc9953d29b", "fusion_lat": 0.0, "rental_uris": {"ios": "https://dc.lft.to/lastmile_qr_scan", "android": "https://dc.lft.to/lastmile_qr_scan"}, "lon": -77.032901, "type": "electric_scooter"}, {"bike_id": "a961e164d363359ced3b1cceb7073a64", "is_reserved": 0, "fusion_lon": 0.0, "lat": 38.91326883333333, "is_disabled": 0, "name": "a961e164d363359ced3b1cceb7073a64", "fusion_lat": 0.0, "rental_uris": {"ios": "https://dc.lft.to/lastmile_qr_scan", "android": "https://dc.lft.to/lastmile_qr_scan"}, "lon": -77.015162, "type": "electric_scooter"}, {"bike_id": "9eba659ddf0ec2e822fb0568f199cd0b", "is_reserved": 0, "fusion_lon": 0.0, "lat": 38.90865766666667, "is_disabled": 0, "name": "9eba659ddf0ec2e822fb0568f199cd0b", "fusion_lat": 0.0, "rental_uris": {"ios": "https://dc.lft.to/lastmile_qr_scan", "android": "https://dc.lft.to/lastmile_qr_scan"}, "lon": -77.04279766666667, "type": "electric_scooter"}, {"bike_id": "cb40c34965e0e253a13cd34e3e996036", "is_reserved": 0, "fusion_lon": 0.0, "lat": 38.9029955, "is_disabled": 0, "name": "cb40c34965e0e253a13cd34e3e996036", "fusion_lat": 0.0, "rental_uris": {"ios": "https://dc.lft.to/lastmile_qr_scan", "android": "https://dc.lft.to/lastmile_qr_scan"}, "lon": -76.94441, "type": "electric_bike"}, {"bike_id": "c999dc2e7a9388f25f82d06b07f626c0", "is_reserved": 0, "fusion_lon": 0.0, "lat": 38.93903683333333, "is_disabled": 0, "name": "c999dc2e7a9388f25f82d06b07f626c0", "fusion_lat": 0.0, "rental_uris": {"ios": "https://dc.lft.to/lastmile_qr_scan", "android": "https://dc.lft.to/lastmile_qr_scan"}, "lon": -77.02986466666667, "type": "electric_scooter"}, {"bike_id": "da412396068e01e5ce1ba750570356cd", "is_reserved": 0, "fusion_lon": 0.0, "lat": 38.838036, "is_disabled": 0, "name": "da412396068e01e5ce1ba750570356cd", "fusion_lat": 0.0, "rental_uris": {"ios": "https://dc.lft.to/lastmile_qr_scan", "android": "https://dc.lft.to/lastmile_qr_scan"}, "lon": -76.99838316666667, "type": "electric_bike"}, {"bike_id": "206c8ef00edac3fec29c32fe12eac5dc", "is_reserved": 0, "fusion_lon": 0.0, "lat": 38.922445, "is_disabled": 0, "name": "206c8ef00edac3fec29c32fe12eac5dc", "fusion_lat": 0.0, "rental_uris": {"ios": "https://dc.lft.to/lastmile_qr_scan", "android": "https://dc.lft.to/lastmile_qr_scan"}, "lon": -77.03077033333334, "type": "electric_scooter"}, {"bike_id": "1ddc29e3584f3f83795ad2b5ebd54e37", "is_reserved": 0, "fusion_lon": 0.0, "lat": 39.01596083333333, "is_disabled": 0, "name": "1ddc29e3584f3f83795ad2b5ebd54e37", "fusion_lat": 0.0, "rental_uris": {"ios": "https://dc.lft.to/lastmile_qr_scan", "android": "https://dc.lft.to/lastmile_qr_scan"}, "lon": -77.04425383333333, "type": "electric_bike"}, {"bike_id": "faa19c2684f023a71ead42c9f3b57e5c", "is_reserved": 0, "fusion_lon": 0.0, "lat": 38.922500666666664, "is_disabled": 0, "name": "faa19c2684f023a71ead42c9f3b57e5c", "fusion_lat": 0.0, "rental_uris": {"ios": "https://dc.lft.to/lastmile_qr_scan", "android": "https://dc.lft.to/lastmile_qr_scan"}, "lon": -77.04218933333334, "type": "electric_scooter"}, {"bike_id": "bd18432a0010f76cdc7a9c39848c7190", "is_reserved": 0, "fusion_lon": 0.0, "lat": 38.90537533333333, "is_disabled": 0, "name": "bd18432a0010f76cdc7a9c39848c7190", "fusion_lat": 0.0, "rental_uris": {"ios": "https://dc.lft.to/lastmile_qr_scan", "android": "https://dc.lft.to/lastmile_qr_scan"}, "lon": -77.00211583333333, "type": "electric_bike"}, {"bike_id": "3a7b8a6b536b1c42cf89c00bce54b5f8", "is_reserved": 0, "fusion_lon": 0.0, "lat": 38.90083033333333, "is_disabled": 0, "name": "3a7b8a6b536b1c42cf89c00bce54b5f8", "fusion_lat": 0.0, "rental_uris": {"ios": "https://dc.lft.to/lastmile_qr_scan", "android": "https://dc.lft.to/lastmile_qr_scan"}, "lon": -77.047739, "type": "electric_scooter"}, {"bike_id": "00dc7f4121d88cf5e4f1f8b7e84f65f8", "is_reserved": 0, "fusion_lon": 0.0, "lat": 38.926751833333334, "is_disabled": 0, "name": "00dc7f4121d88cf5e4f1f8b7e84f65f8", "fusion_lat": 0.0, "rental_uris": {"ios": "https://dc.lft.to/lastmile_qr_scan", "android": "https://dc.lft.to/lastmile_qr_scan"}, "lon": -77.0363755, "type": "electric_scooter"}, {"bike_id": "f70e960d3de53364cc1b5ed8bd2ada1e", "is_reserved": 0, "fusion_lon": 0.0, "lat": 38.8864285, "is_disabled": 0, "name": "f70e960d3de53364cc1b5ed8bd2ada1e", "fusion_lat": 0.0, "rental_uris": {"ios": "https://dc.lft.to/lastmile_qr_scan", "android": "https://dc.lft.to/lastmile_qr_scan"}, "lon": -77.02137033333334, "type": "electric_scooter"}, {"bike_id": "3505a5b369589e04e00b1322e735116b", "is_reserved": 0, "fusion_lon": 0.0, "lat": 38.906910333333336, "is_disabled": 0, "name": "3505a5b369589e04e00b1322e735116b", "fusion_lat": 0.0, "rental_uris": {"ios": "https://dc.lft.to/lastmile_qr_scan", "android": "https://dc.lft.to/lastmile_qr_scan"}, "lon": -77.00034266666667, "type": "electric_scooter"}, {"bike_id": "dc70a70956f15ef878e388668dc74c49", "is_reserved": 0, "fusion_lon": 0.0, "lat": 38.92458333333333, "is_disabled": 0, "name": "dc70a70956f15ef878e388668dc74c49", "fusion_lat": 0.0, "rental_uris": {"ios": "https://dc.lft.to/lastmile_qr_scan", "android": "https://dc.lft.to/lastmile_qr_scan"}, "lon": -76.99913283333333, "type": "electric_scooter"}, {"bike_id": "a9d21f0cb13c65213a6ea1a30d04d107", "is_reserved": 0, "fusion_lon": 0.0, "lat": 38.903476833333336, "is_disabled": 0, "name": "a9d21f0cb13c65213a6ea1a30d04d107", "fusion_lat": 0.0, "rental_uris": {"ios": "https://dc.lft.to/lastmile_qr_scan", "android": "https://dc.lft.to/lastmile_qr_scan"}, "lon": -77.0384355, "type": "electric_scooter"}, {"bike_id": "2c5a9dc616c056fc94bf5981dd5f7b53", "is_reserved": 0, "fusion_lon": 0.0, "lat": 38.813340333333336, "is_disabled": 0, "name": "2c5a9dc616c056fc94bf5981dd5f7b53", "fusion_lat": 0.0, "rental_uris": {"ios": "https://dc.lft.to/lastmile_qr_scan", "android": "https://dc.lft.to/lastmile_qr_scan"}, "lon": -77.05121033333333, "type": "electric_bike"}, {"bike_id": "ea6b379e33419a5d21fb3a43258742e2", "is_reserved": 0, "fusion_lon": 0.0, "lat": 38.90732533333333, "is_disabled": 0, "name": "ea6b379e33419a5d21fb3a43258742e2", "fusion_lat": 0.0, "rental_uris": {"ios": "https://dc.lft.to/lastmile_qr_scan", "android": "https://dc.lft.to/lastmile_qr_scan"}, "lon": -77.04347666666666, "type": "electric_scooter"}, {"bike_id": "e0c54e5d7ceb65ce4a7ac4bd7f9bf43e", "is_reserved": 0, "fusion_lon": 0.0, "lat": 38.91786916666667, "is_disabled": 0, "name": "e0c54e5d7ceb65ce4a7ac4bd7f9bf43e", "fusion_lat": 0.0, "rental_uris": {"ios": "https://dc.lft.to/lastmile_qr_scan", "android": "https://dc.lft.to/lastmile_qr_scan"}, "lon": -77.02695933333334, "type": "electric_scooter"}, {"bike_id": "0b670d840b1f86dd2d3e8bd24ab305e5", "is_reserved": 0, "fusion_lon": 0.0, "lat": 38.912141166666665, "is_disabled": 0, "name": "0b670d840b1f86dd2d3e8bd24ab305e5", "fusion_lat": 0.0, "rental_uris": {"ios": "https://dc.lft.to/lastmile_qr_scan", "android": "https://dc.lft.to/lastmile_qr_scan"}, "lon": -77.02800916666666, "type": "electric_scooter"}, {"bike_id": "6b84281935bec08d60f621b9a54732c5", "is_reserved": 0, "fusion_lon": 0.0, "lat": 38.8666585, "is_disabled": 0, "name": "6b84281935bec08d60f621b9a54732c5", "fusion_lat": 0.0, "rental_uris": {"ios": "https://dc.lft.to/lastmile_qr_scan", "android": "https://dc.lft.to/lastmile_qr_scan"}, "lon": -76.98900433333333, "type": "electric_scooter"}, {"bike_id": "e2cb0afd346417da9474e9df62dc8f5b", "is_reserved": 0, "fusion_lon": 0.0, "lat": 38.8992475, "is_disabled": 0, "name": "e2cb0afd346417da9474e9df62dc8f5b", "fusion_lat": 0.0, "rental_uris": {"ios": "https://dc.lft.to/lastmile_qr_scan", "android": "https://dc.lft.to/lastmile_qr_scan"}, "lon": -77.03932933333333, "type": "electric_scooter"}, {"bike_id": "ecf63f257bd920ac643340ff69d02826", "is_reserved": 0, "fusion_lon": 0.0, "lat": 38.9187605, "is_disabled": 0, "name": "ecf63f257bd920ac643340ff69d02826", "fusion_lat": 0.0, "rental_uris": {"ios": "https://dc.lft.to/lastmile_qr_scan", "android": "https://dc.lft.to/lastmile_qr_scan"}, "lon": -77.0446815, "type": "electric_scooter"}, {"bike_id": "9516880425f8d577c8921fbb5a07dfdf", "is_reserved": 0, "fusion_lon": 0.0, "lat": 38.931167333333335, "is_disabled": 0, "name": "9516880425f8d577c8921fbb5a07dfdf", "fusion_lat": 0.0, "rental_uris": {"ios": "https://dc.lft.to/lastmile_qr_scan", "android": "https://dc.lft.to/lastmile_qr_scan"}, "lon": -77.02143566666666, "type": "electric_scooter"}, {"bike_id": "8fffdda98de2fc8c2adaaa5ada5502fb", "is_reserved": 0, "fusion_lon": 0.0, "lat": 38.9231955, "is_disabled": 0, "name": "8fffdda98de2fc8c2adaaa5ada5502fb", "fusion_lat": 0.0, "rental_uris": {"ios": "https://dc.lft.to/lastmile_qr_scan", "android": "https://dc.lft.to/lastmile_qr_scan"}, "lon": -77.036589, "type": "electric_scooter"}, {"bike_id": "768a410fab36ac6dacc3c45393c3e524", "is_reserved": 0, "fusion_lon": 0.0, "lat": 38.965007166666666, "is_disabled": 0, "name": "768a410fab36ac6dacc3c45393c3e524", "fusion_lat": 0.0, "rental_uris": {"ios": "https://dc.lft.to/lastmile_qr_scan", "android": "https://dc.lft.to/lastmile_qr_scan"}, "lon": -77.06489916666666, "type": "electric_bike"}, {"bike_id": "8640ebb985ec880db34a2e4a202e7379", "is_reserved": 0, "fusion_lon": 0.0, "lat": 38.89062966666667, "is_disabled": 0, "name": "8640ebb985ec880db34a2e4a202e7379", "fusion_lat": 0.0, "rental_uris": {"ios": "https://dc.lft.to/lastmile_qr_scan", "android": "https://dc.lft.to/lastmile_qr_scan"}, "lon": -77.02303283333333, "type": "electric_scooter"}, {"bike_id": "cec4765af0ce75f713b59e9738a3d9a3", "is_reserved": 0, "fusion_lon": 0.0, "lat": 38.884926666666665, "is_disabled": 0, "name": "cec4765af0ce75f713b59e9738a3d9a3", "fusion_lat": 0.0, "rental_uris": {"ios": "https://dc.lft.to/lastmile_qr_scan", "android": "https://dc.lft.to/lastmile_qr_scan"}, "lon": -77.03472916666666, "type": "electric_scooter"}, {"bike_id": "fdafae774d33300e0f616a327b6a9293", "is_reserved": 0, "fusion_lon": 0.0, "lat": 38.9004025, "is_disabled": 0, "name": "fdafae774d33300e0f616a327b6a9293", "fusion_lat": 0.0, "rental_uris": {"ios": "https://dc.lft.to/lastmile_qr_scan", "android": "https://dc.lft.to/lastmile_qr_scan"}, "lon": -77.005392, "type": "electric_scooter"}, {"bike_id": "9865abe86abf022fade5e5aba6162952", "is_reserved": 0, "fusion_lon": 0.0, "lat": 38.884359333333336, "is_disabled": 0, "name": "9865abe86abf022fade5e5aba6162952", "fusion_lat": 0.0, "rental_uris": {"ios": "https://dc.lft.to/lastmile_qr_scan", "android": "https://dc.lft.to/lastmile_qr_scan"}, "lon": -76.9575755, "type": "electric_scooter"}, {"bike_id": "e9b4445a57c11dfaf15af0ffc1331fab", "is_reserved": 0, "fusion_lon": 0.0, "lat": 38.90980733333333, "is_disabled": 0, "name": "e9b4445a57c11dfaf15af0ffc1331fab", "fusion_lat": 0.0, "rental_uris": {"ios": "https://dc.lft.to/lastmile_qr_scan", "android": "https://dc.lft.to/lastmile_qr_scan"}, "lon": -77.04870533333333, "type": "electric_scooter"}, {"bike_id": "d725cf0332e424bfd5a4dc05bb1a84ef", "is_reserved": 0, "fusion_lon": 0.0, "lat": 38.9315015, "is_disabled": 0, "name": "d725cf0332e424bfd5a4dc05bb1a84ef", "fusion_lat": 0.0, "rental_uris": {"ios": "https://dc.lft.to/lastmile_qr_scan", "android": "https://dc.lft.to/lastmile_qr_scan"}, "lon": -77.05708983333334, "type": "electric_scooter"}, {"bike_id": "dca6e83f1a21d1c722cad9a3ad4d03d6", "is_reserved": 0, "fusion_lon": 0.0, "lat": 38.910355333333335, "is_disabled": 0, "name": "dca6e83f1a21d1c722cad9a3ad4d03d6", "fusion_lat": 0.0, "rental_uris": {"ios": "https://dc.lft.to/lastmile_qr_scan", "android": "https://dc.lft.to/lastmile_qr_scan"}, "lon": -77.04387066666666, "type": "electric_scooter"}, {"bike_id": "cc23c12d8c6e7eade8df96fc913df38a", "is_reserved": 0, "fusion_lon": 0.0, "lat": 38.91774316666667, "is_disabled": 0, "name": "cc23c12d8c6e7eade8df96fc913df38a", "fusion_lat": 0.0, "rental_uris": {"ios": "https://dc.lft.to/lastmile_qr_scan", "android": "https://dc.lft.to/lastmile_qr_scan"}, "lon": -77.01492116666667, "type": "electric_scooter"}, {"bike_id": "ee4d2b94b6c66ace19fe3836a86ef068", "is_reserved": 0, "fusion_lon": 0.0, "lat": 38.905609, "is_disabled": 0, "name": "ee4d2b94b6c66ace19fe3836a86ef068", "fusion_lat": 0.0, "rental_uris": {"ios": "https://dc.lft.to/lastmile_qr_scan", "android": "https://dc.lft.to/lastmile_qr_scan"}, "lon": -77.00553116666667, "type": "electric_scooter"}, {"bike_id": "4091f4080785c890309f32dd839d1340", "is_reserved": 0, "fusion_lon": 0.0, "lat": 38.883334833333336, "is_disabled": 0, "name": "4091f4080785c890309f32dd839d1340", "fusion_lat": 0.0, "rental_uris": {"ios": "https://dc.lft.to/lastmile_qr_scan", "android": "https://dc.lft.to/lastmile_qr_scan"}, "lon": -77.01755383333334, "type": "electric_scooter"}, {"bike_id": "da2bc87129ab49f4c4e947a8e68117ab", "is_reserved": 0, "fusion_lon": 0.0, "lat": 38.89778916666667, "is_disabled": 0, "name": "da2bc87129ab49f4c4e947a8e68117ab", "fusion_lat": 0.0, "rental_uris": {"ios": "https://dc.lft.to/lastmile_qr_scan", "android": "https://dc.lft.to/lastmile_qr_scan"}, "lon": -77.026906, "type": "electric_scooter"}, {"bike_id": "529db730f7d22fe435a36d462bbb158f", "is_reserved": 0, "fusion_lon": 0.0, "lat": 38.91708366666667, "is_disabled": 0, "name": "529db730f7d22fe435a36d462bbb158f", "fusion_lat": 0.0, "rental_uris": {"ios": "https://dc.lft.to/lastmile_qr_scan", "android": "https://dc.lft.to/lastmile_qr_scan"}, "lon": -77.023107, "type": "electric_scooter"}, {"bike_id": "5fce67222ec6498aadb488e0b166fcda", "is_reserved": 0, "fusion_lon": 0.0, "lat": 38.918465833333336, "is_disabled": 0, "name": "5fce67222ec6498aadb488e0b166fcda", "fusion_lat": 0.0, "rental_uris": {"ios": "https://dc.lft.to/lastmile_qr_scan", "android": "https://dc.lft.to/lastmile_qr_scan"}, "lon": -77.039038, "type": "electric_scooter"}, {"bike_id": "a5c5ddfb90dc86037503e523e419af0f", "is_reserved": 0, "fusion_lon": 0.0, "lat": 38.88503816666667, "is_disabled": 0, "name": "a5c5ddfb90dc86037503e523e419af0f", "fusion_lat": 0.0, "rental_uris": {"ios": "https://dc.lft.to/lastmile_qr_scan", "android": "https://dc.lft.to/lastmile_qr_scan"}, "lon": -77.00568, "type": "electric_scooter"}, {"bike_id": "cb812efc54b6e0c7973063cd037254a2", "is_reserved": 0, "fusion_lon": 0.0, "lat": 38.93447716666667, "is_disabled": 0, "name": "cb812efc54b6e0c7973063cd037254a2", "fusion_lat": 0.0, "rental_uris": {"ios": "https://dc.lft.to/lastmile_qr_scan", "android": "https://dc.lft.to/lastmile_qr_scan"}, "lon": -77.02847883333334, "type": "electric_scooter"}, {"bike_id": "d0614600cc871f37db26ebc0bb11349d", "is_reserved": 0, "fusion_lon": 0.0, "lat": 38.897732166666664, "is_disabled": 0, "name": "d0614600cc871f37db26ebc0bb11349d", "fusion_lat": 0.0, "rental_uris": {"ios": "https://dc.lft.to/lastmile_qr_scan", "android": "https://dc.lft.to/lastmile_qr_scan"}, "lon": -76.90438, "type": "electric_bike"}, {"bike_id": "388949c292af5a11703528b73fcbad60", "is_reserved": 0, "fusion_lon": 0.0, "lat": 38.867236166666665, "is_disabled": 0, "name": "388949c292af5a11703528b73fcbad60", "fusion_lat": 0.0, "rental_uris": {"ios": "https://dc.lft.to/lastmile_qr_scan", "android": "https://dc.lft.to/lastmile_qr_scan"}, "lon": -76.98785483333333, "type": "electric_scooter"}, {"bike_id": "e60f9aa70f1e67296c6b3b652a76cf4f", "is_reserved": 0, "fusion_lon": 0.0, "lat": 38.92842666666667, "is_disabled": 0, "name": "e60f9aa70f1e67296c6b3b652a76cf4f", "fusion_lat": 0.0, "rental_uris": {"ios": "https://dc.lft.to/lastmile_qr_scan", "android": "https://dc.lft.to/lastmile_qr_scan"}, "lon": -77.05507616666667, "type": "electric_scooter"}, {"bike_id": "d5882762f96624b195d1784aa4595686", "is_reserved": 0, "fusion_lon": 0.0, "lat": 38.956236833333335, "is_disabled": 0, "name": "d5882762f96624b195d1784aa4595686", "fusion_lat": 0.0, "rental_uris": {"ios": "https://dc.lft.to/lastmile_qr_scan", "android": "https://dc.lft.to/lastmile_qr_scan"}, "lon": -76.93887166666667, "type": "electric_bike"}, {"bike_id": "e87c2003f99bd0b9e511758751784244", "is_reserved": 0, "fusion_lon": 0.0, "lat": 38.866306333333334, "is_disabled": 0, "name": "e87c2003f99bd0b9e511758751784244", "fusion_lat": 0.0, "rental_uris": {"ios": "https://dc.lft.to/lastmile_qr_scan", "android": "https://dc.lft.to/lastmile_qr_scan"}, "lon": -76.9871645, "type": "electric_scooter"}, {"bike_id": "cfb4535c5cba30ea9ac04bdefc17645c", "is_reserved": 0, "fusion_lon": 0.0, "lat": 38.880369, "is_disabled": 0, "name": "cfb4535c5cba30ea9ac04bdefc17645c", "fusion_lat": 0.0, "rental_uris": {"ios": "https://dc.lft.to/lastmile_qr_scan", "android": "https://dc.lft.to/lastmile_qr_scan"}, "lon": -77.02517216666666, "type": "electric_scooter"}, {"bike_id": "a002230c12d8a634a6b3c4e2b2181cad", "is_reserved": 0, "fusion_lon": 0.0, "lat": 38.906672, "is_disabled": 0, "name": "a002230c12d8a634a6b3c4e2b2181cad", "fusion_lat": 0.0, "rental_uris": {"ios": "https://dc.lft.to/lastmile_qr_scan", "android": "https://dc.lft.to/lastmile_qr_scan"}, "lon": -77.026906, "type": "electric_scooter"}, {"bike_id": "6dec6aa82ea7703b5a79ac7b10fbc1f2", "is_reserved": 0, "fusion_lon": 0.0, "lat": 38.900283333333334, "is_disabled": 0, "name": "6dec6aa82ea7703b5a79ac7b10fbc1f2", "fusion_lat": 0.0, "rental_uris": {"ios": "https://dc.lft.to/lastmile_qr_scan", "android": "https://dc.lft.to/lastmile_qr_scan"}, "lon": -76.99537016666666, "type": "electric_scooter"}, {"bike_id": "1c6d71e46ddbb5933975dda7471721ed", "is_reserved": 0, "fusion_lon": 0.0, "lat": 38.898002166666664, "is_disabled": 0, "name": "1c6d71e46ddbb5933975dda7471721ed", "fusion_lat": 0.0, "rental_uris": {"ios": "https://dc.lft.to/lastmile_qr_scan", "android": "https://dc.lft.to/lastmile_qr_scan"}, "lon": -76.99164433333334, "type": "electric_scooter"}, {"bike_id": "259a752b7e63185bce00b324b95a133b", "is_reserved": 0, "fusion_lon": 0.0, "lat": 38.916070833333336, "is_disabled": 0, "name": "259a752b7e63185bce00b324b95a133b", "fusion_lat": 0.0, "rental_uris": {"ios": "https://dc.lft.to/lastmile_qr_scan", "android": "https://dc.lft.to/lastmile_qr_scan"}, "lon": -77.04344383333333, "type": "electric_scooter"}, {"bike_id": "5ffb50519b3b43ec64614dd5bf3a2e0b", "is_reserved": 0, "fusion_lon": 0.0, "lat": 38.9285715, "is_disabled": 0, "name": "5ffb50519b3b43ec64614dd5bf3a2e0b", "fusion_lat": 0.0, "rental_uris": {"ios": "https://dc.lft.to/lastmile_qr_scan", "android": "https://dc.lft.to/lastmile_qr_scan"}, "lon": -77.03599633333333, "type": "electric_scooter"}, {"bike_id": "1970b1dfb5b51ce83563150784d6af15", "is_reserved": 0, "fusion_lon": 0.0, "lat": 38.89845566666666, "is_disabled": 0, "name": "1970b1dfb5b51ce83563150784d6af15", "fusion_lat": 0.0, "rental_uris": {"ios": "https://dc.lft.to/lastmile_qr_scan", "android": "https://dc.lft.to/lastmile_qr_scan"}, "lon": -77.03213683333334, "type": "electric_scooter"}, {"bike_id": "74ca9d6584a56ef812f963d08aba37fe", "is_reserved": 0, "fusion_lon": 0.0, "lat": 38.882946, "is_disabled": 0, "name": "74ca9d6584a56ef812f963d08aba37fe", "fusion_lat": 0.0, "rental_uris": {"ios": "https://dc.lft.to/lastmile_qr_scan", "android": "https://dc.lft.to/lastmile_qr_scan"}, "lon": -76.9861605, "type": "electric_scooter"}, {"bike_id": "8e59d91ea0e98977ba02ebd792d258c7", "is_reserved": 0, "fusion_lon": 0.0, "lat": 38.91981466666667, "is_disabled": 0, "name": "8e59d91ea0e98977ba02ebd792d258c7", "fusion_lat": 0.0, "rental_uris": {"ios": "https://dc.lft.to/lastmile_qr_scan", "android": "https://dc.lft.to/lastmile_qr_scan"}, "lon": -77.0444195, "type": "electric_scooter"}, {"bike_id": "2266551448e2ffaa2a8a4b415fe8f74e", "is_reserved": 0, "fusion_lon": 0.0, "lat": 38.903912166666665, "is_disabled": 0, "name": "2266551448e2ffaa2a8a4b415fe8f74e", "fusion_lat": 0.0, "rental_uris": {"ios": "https://dc.lft.to/lastmile_qr_scan", "android": "https://dc.lft.to/lastmile_qr_scan"}, "lon": -77.04434783333333, "type": "electric_scooter"}, {"bike_id": "51009bd8c5d9dc8ee403b3fb12e64090", "is_reserved": 0, "fusion_lon": 0.0, "lat": 38.902798, "is_disabled": 0, "name": "51009bd8c5d9dc8ee403b3fb12e64090", "fusion_lat": 0.0, "rental_uris": {"ios": "https://dc.lft.to/lastmile_qr_scan", "android": "https://dc.lft.to/lastmile_qr_scan"}, "lon": -77.03937716666667, "type": "electric_scooter"}, {"bike_id": "8b2b33705456f240cff16e86259105bf", "is_reserved": 0, "fusion_lon": 0.0, "lat": 38.941828666666666, "is_disabled": 0, "name": "8b2b33705456f240cff16e86259105bf", "fusion_lat": 0.0, "rental_uris": {"ios": "https://dc.lft.to/lastmile_qr_scan", "android": "https://dc.lft.to/lastmile_qr_scan"}, "lon": -77.03653733333333, "type": "electric_scooter"}, {"bike_id": "9b1647ebdcba1466a2e9c15dcdd3d268", "is_reserved": 0, "fusion_lon": 0.0, "lat": 38.9024305, "is_disabled": 0, "name": "9b1647ebdcba1466a2e9c15dcdd3d268", "fusion_lat": 0.0, "rental_uris": {"ios": "https://dc.lft.to/lastmile_qr_scan", "android": "https://dc.lft.to/lastmile_qr_scan"}, "lon": -77.002002, "type": "electric_scooter"}, {"bike_id": "d0219c03d4f65c2d86e87159c2a14787", "is_reserved": 0, "fusion_lon": 0.0, "lat": 38.93697066666667, "is_disabled": 0, "name": "d0219c03d4f65c2d86e87159c2a14787", "fusion_lat": 0.0, "rental_uris": {"ios": "https://dc.lft.to/lastmile_qr_scan", "android": "https://dc.lft.to/lastmile_qr_scan"}, "lon": -77.02978983333334, "type": "electric_bike"}, {"bike_id": "0f924dcfedfbe11fe3f58f383646a883", "is_reserved": 0, "fusion_lon": 0.0, "lat": 38.9133455, "is_disabled": 0, "name": "0f924dcfedfbe11fe3f58f383646a883", "fusion_lat": 0.0, "rental_uris": {"ios": "https://dc.lft.to/lastmile_qr_scan", "android": "https://dc.lft.to/lastmile_qr_scan"}, "lon": -77.04816816666667, "type": "electric_scooter"}, {"bike_id": "5c42267d8cc94593dcfb63aeef94f732", "is_reserved": 0, "fusion_lon": 0.0, "lat": 38.90009666666667, "is_disabled": 0, "name": "5c42267d8cc94593dcfb63aeef94f732", "fusion_lat": 0.0, "rental_uris": {"ios": "https://dc.lft.to/lastmile_qr_scan", "android": "https://dc.lft.to/lastmile_qr_scan"}, "lon": -77.03295283333334, "type": "electric_scooter"}, {"bike_id": "374c7d0ed69c47528518bc46dfde7f77", "is_reserved": 0, "fusion_lon": 0.0, "lat": 38.84578833333333, "is_disabled": 0, "name": "374c7d0ed69c47528518bc46dfde7f77", "fusion_lat": 0.0, "rental_uris": {"ios": "https://dc.lft.to/lastmile_qr_scan", "android": "https://dc.lft.to/lastmile_qr_scan"}, "lon": -77.0962755, "type": "electric_bike"}, {"bike_id": "2c5fc48d0a215250bf655f2eb0b495d9", "is_reserved": 0, "fusion_lon": 0.0, "lat": 38.921668333333336, "is_disabled": 0, "name": "2c5fc48d0a215250bf655f2eb0b495d9", "fusion_lat": 0.0, "rental_uris": {"ios": "https://dc.lft.to/lastmile_qr_scan", "android": "https://dc.lft.to/lastmile_qr_scan"}, "lon": -77.04684116666667, "type": "electric_scooter"}, {"bike_id": "647be5e8a3ae9a8220ef2e03d69c5688", "is_reserved": 0, "fusion_lon": 0.0, "lat": 38.923419333333335, "is_disabled": 0, "name": "647be5e8a3ae9a8220ef2e03d69c5688", "fusion_lat": 0.0, "rental_uris": {"ios": "https://dc.lft.to/lastmile_qr_scan", "android": "https://dc.lft.to/lastmile_qr_scan"}, "lon": -77.03519133333333, "type": "electric_scooter"}, {"bike_id": "a2e266e93f3b0439748e222d95ee6338", "is_reserved": 0, "fusion_lon": 0.0, "lat": 38.92746133333333, "is_disabled": 0, "name": "a2e266e93f3b0439748e222d95ee6338", "fusion_lat": 0.0, "rental_uris": {"ios": "https://dc.lft.to/lastmile_qr_scan", "android": "https://dc.lft.to/lastmile_qr_scan"}, "lon": -77.03633816666667, "type": "electric_bike"}, {"bike_id": "8918d8dce7656712d36f2d4b8f7b86c6", "is_reserved": 0, "fusion_lon": 0.0, "lat": 38.90876433333333, "is_disabled": 0, "name": "8918d8dce7656712d36f2d4b8f7b86c6", "fusion_lat": 0.0, "rental_uris": {"ios": "https://dc.lft.to/lastmile_qr_scan", "android": "https://dc.lft.to/lastmile_qr_scan"}, "lon": -77.0329075, "type": "electric_scooter"}, {"bike_id": "ba9f40e4fc86b76b012d648643c39bf6", "is_reserved": 0, "fusion_lon": 0.0, "lat": 38.89225916666667, "is_disabled": 0, "name": "ba9f40e4fc86b76b012d648643c39bf6", "fusion_lat": 0.0, "rental_uris": {"ios": "https://dc.lft.to/lastmile_qr_scan", "android": "https://dc.lft.to/lastmile_qr_scan"}, "lon": -77.03340733333333, "type": "electric_scooter"}, {"bike_id": "328329c38e4a4401f5a3ee1c8b6daf4c", "is_reserved": 0, "fusion_lon": 0.0, "lat": 38.8637155, "is_disabled": 0, "name": "328329c38e4a4401f5a3ee1c8b6daf4c", "fusion_lat": 0.0, "rental_uris": {"ios": "https://dc.lft.to/lastmile_qr_scan", "android": "https://dc.lft.to/lastmile_qr_scan"}, "lon": -77.01359516666666, "type": "electric_scooter"}, {"bike_id": "950588c51c936046f4cef770f881a456", "is_reserved": 0, "fusion_lon": 0.0, "lat": 38.9296335, "is_disabled": 0, "name": "950588c51c936046f4cef770f881a456", "fusion_lat": 0.0, "rental_uris": {"ios": "https://dc.lft.to/lastmile_qr_scan", "android": "https://dc.lft.to/lastmile_qr_scan"}, "lon": -77.011468, "type": "electric_scooter"}, {"bike_id": "062588fb024c850d4cade6f1cfc60b05", "is_reserved": 0, "fusion_lon": 0.0, "lat": 38.905343333333334, "is_disabled": 0, "name": "062588fb024c850d4cade6f1cfc60b05", "fusion_lat": 0.0, "rental_uris": {"ios": "https://dc.lft.to/lastmile_qr_scan", "android": "https://dc.lft.to/lastmile_qr_scan"}, "lon": -77.05768666666667, "type": "electric_scooter"}, {"bike_id": "25ff77313329191a9582bfc7b594ec02", "is_reserved": 0, "fusion_lon": 0.0, "lat": 38.917982333333335, "is_disabled": 0, "name": "25ff77313329191a9582bfc7b594ec02", "fusion_lat": 0.0, "rental_uris": {"ios": "https://dc.lft.to/lastmile_qr_scan", "android": "https://dc.lft.to/lastmile_qr_scan"}, "lon": -77.034328, "type": "electric_scooter"}, {"bike_id": "917e12653889c7b3e766395c9c569f1d", "is_reserved": 0, "fusion_lon": 0.0, "lat": 38.892397333333335, "is_disabled": 0, "name": "917e12653889c7b3e766395c9c569f1d", "fusion_lat": 0.0, "rental_uris": {"ios": "https://dc.lft.to/lastmile_qr_scan", "android": "https://dc.lft.to/lastmile_qr_scan"}, "lon": -77.032075, "type": "electric_scooter"}, {"bike_id": "d3d73171a18386b14581d482118b657e", "is_reserved": 0, "fusion_lon": 0.0, "lat": 38.9172195, "is_disabled": 0, "name": "d3d73171a18386b14581d482118b657e", "fusion_lat": 0.0, "rental_uris": {"ios": "https://dc.lft.to/lastmile_qr_scan", "android": "https://dc.lft.to/lastmile_qr_scan"}, "lon": -77.03840333333333, "type": "electric_scooter"}, {"bike_id": "c82d8a60317ace490268eac2e13c4b84", "is_reserved": 0, "fusion_lon": 0.0, "lat": 38.9209305, "is_disabled": 0, "name": "c82d8a60317ace490268eac2e13c4b84", "fusion_lat": 0.0, "rental_uris": {"ios": "https://dc.lft.to/lastmile_qr_scan", "android": "https://dc.lft.to/lastmile_qr_scan"}, "lon": -77.024188, "type": "electric_scooter"}, {"bike_id": "d667c49c57b89a903ccd0fd38dfe2dbe", "is_reserved": 0, "fusion_lon": 0.0, "lat": 38.82444816666667, "is_disabled": 0, "name": "d667c49c57b89a903ccd0fd38dfe2dbe", "fusion_lat": 0.0, "rental_uris": {"ios": "https://dc.lft.to/lastmile_qr_scan", "android": "https://dc.lft.to/lastmile_qr_scan"}, "lon": -77.07038933333334, "type": "electric_bike"}, {"bike_id": "cabc78556df0fea977685a28dc5884f2", "is_reserved": 0, "fusion_lon": 0.0, "lat": 38.90280033333333, "is_disabled": 0, "name": "cabc78556df0fea977685a28dc5884f2", "fusion_lat": 0.0, "rental_uris": {"ios": "https://dc.lft.to/lastmile_qr_scan", "android": "https://dc.lft.to/lastmile_qr_scan"}, "lon": -77.03653816666667, "type": "electric_scooter"}, {"bike_id": "1b5a73fc33472569ee93cdd0ed81969e", "is_reserved": 0, "fusion_lon": 0.0, "lat": 38.93342466666667, "is_disabled": 0, "name": "1b5a73fc33472569ee93cdd0ed81969e", "fusion_lat": 0.0, "rental_uris": {"ios": "https://dc.lft.to/lastmile_qr_scan", "android": "https://dc.lft.to/lastmile_qr_scan"}, "lon": -77.04203133333333, "type": "electric_bike"}, {"bike_id": "b87c2da0d8cc60c35df0f4bca9cc37b3", "is_reserved": 0, "fusion_lon": 0.0, "lat": 38.91859083333333, "is_disabled": 0, "name": "b87c2da0d8cc60c35df0f4bca9cc37b3", "fusion_lat": 0.0, "rental_uris": {"ios": "https://dc.lft.to/lastmile_qr_scan", "android": "https://dc.lft.to/lastmile_qr_scan"}, "lon": -76.96090933333333, "type": "electric_bike"}, {"bike_id": "ce6ed3aa78889d59d2edb865bf670739", "is_reserved": 0, "fusion_lon": 0.0, "lat": 38.925501, "is_disabled": 0, "name": "ce6ed3aa78889d59d2edb865bf670739", "fusion_lat": 0.0, "rental_uris": {"ios": "https://dc.lft.to/lastmile_qr_scan", "android": "https://dc.lft.to/lastmile_qr_scan"}, "lon": -77.03775883333333, "type": "electric_scooter"}, {"bike_id": "39f73e26368b7122a125b591dc638e94", "is_reserved": 0, "fusion_lon": 0.0, "lat": 38.95553833333334, "is_disabled": 0, "name": "39f73e26368b7122a125b591dc638e94", "fusion_lat": 0.0, "rental_uris": {"ios": "https://dc.lft.to/lastmile_qr_scan", "android": "https://dc.lft.to/lastmile_qr_scan"}, "lon": -76.94008516666666, "type": "electric_bike"}, {"bike_id": "12b58cf759ee09d3bc0cf8261a559f9d", "is_reserved": 0, "fusion_lon": 0.0, "lat": 38.922369833333335, "is_disabled": 0, "name": "12b58cf759ee09d3bc0cf8261a559f9d", "fusion_lat": 0.0, "rental_uris": {"ios": "https://dc.lft.to/lastmile_qr_scan", "android": "https://dc.lft.to/lastmile_qr_scan"}, "lon": -77.04151083333333, "type": "electric_scooter"}, {"bike_id": "e4b64aa17c089a928b609ea14680f81a", "is_reserved": 0, "fusion_lon": 0.0, "lat": 38.9057505, "is_disabled": 0, "name": "e4b64aa17c089a928b609ea14680f81a", "fusion_lat": 0.0, "rental_uris": {"ios": "https://dc.lft.to/lastmile_qr_scan", "android": "https://dc.lft.to/lastmile_qr_scan"}, "lon": -77.034619, "type": "electric_scooter"}, {"bike_id": "c8f07b5d33ffa334b87b6ca400de005c", "is_reserved": 0, "fusion_lon": 0.0, "lat": 38.88006633333333, "is_disabled": 0, "name": "c8f07b5d33ffa334b87b6ca400de005c", "fusion_lat": 0.0, "rental_uris": {"ios": "https://dc.lft.to/lastmile_qr_scan", "android": "https://dc.lft.to/lastmile_qr_scan"}, "lon": -76.91595983333333, "type": "electric_bike"}, {"bike_id": "c2882aada3f6adfa114e324d4b86b873", "is_reserved": 0, "fusion_lon": 0.0, "lat": 38.90368083333333, "is_disabled": 0, "name": "c2882aada3f6adfa114e324d4b86b873", "fusion_lat": 0.0, "rental_uris": {"ios": "https://dc.lft.to/lastmile_qr_scan", "android": "https://dc.lft.to/lastmile_qr_scan"}, "lon": -77.03874366666666, "type": "electric_scooter"}, {"bike_id": "35255f19f1e43471e64dd533b5136f1f", "is_reserved": 0, "fusion_lon": 0.0, "lat": 38.93515166666667, "is_disabled": 0, "name": "35255f19f1e43471e64dd533b5136f1f", "fusion_lat": 0.0, "rental_uris": {"ios": "https://dc.lft.to/lastmile_qr_scan", "android": "https://dc.lft.to/lastmile_qr_scan"}, "lon": -77.0334265, "type": "electric_scooter"}, {"bike_id": "44650297f16b5073f1e48dd9bbb35c07", "is_reserved": 0, "fusion_lon": 0.0, "lat": 38.92340566666667, "is_disabled": 0, "name": "44650297f16b5073f1e48dd9bbb35c07", "fusion_lat": 0.0, "rental_uris": {"ios": "https://dc.lft.to/lastmile_qr_scan", "android": "https://dc.lft.to/lastmile_qr_scan"}, "lon": -77.0351605, "type": "electric_scooter"}, {"bike_id": "7763b6208151fe45a1d1931d4507dbc7", "is_reserved": 0, "fusion_lon": 0.0, "lat": 38.9090015, "is_disabled": 0, "name": "7763b6208151fe45a1d1931d4507dbc7", "fusion_lat": 0.0, "rental_uris": {"ios": "https://dc.lft.to/lastmile_qr_scan", "android": "https://dc.lft.to/lastmile_qr_scan"}, "lon": -77.08621516666666, "type": "electric_scooter"}, {"bike_id": "dc4814bd611c50afb63f2ca9cec5e669", "is_reserved": 0, "fusion_lon": 0.0, "lat": 38.8838665, "is_disabled": 0, "name": "dc4814bd611c50afb63f2ca9cec5e669", "fusion_lat": 0.0, "rental_uris": {"ios": "https://dc.lft.to/lastmile_qr_scan", "android": "https://dc.lft.to/lastmile_qr_scan"}, "lon": -76.949227, "type": "electric_scooter"}, {"bike_id": "6bcfb772457a96802fbd6000fde92fde", "is_reserved": 0, "fusion_lon": 0.0, "lat": 38.94602366666667, "is_disabled": 0, "name": "6bcfb772457a96802fbd6000fde92fde", "fusion_lat": 0.0, "rental_uris": {"ios": "https://dc.lft.to/lastmile_qr_scan", "android": "https://dc.lft.to/lastmile_qr_scan"}, "lon": -77.0298025, "type": "electric_scooter"}, {"bike_id": "eb871b5b91708d99b8250e556d8f6b60", "is_reserved": 0, "fusion_lon": 0.0, "lat": 38.89224933333333, "is_disabled": 0, "name": "eb871b5b91708d99b8250e556d8f6b60", "fusion_lat": 0.0, "rental_uris": {"ios": "https://dc.lft.to/lastmile_qr_scan", "android": "https://dc.lft.to/lastmile_qr_scan"}, "lon": -77.03982233333333, "type": "electric_scooter"}, {"bike_id": "df43c4df82943ff136ca30bbd7bc71ed", "is_reserved": 0, "fusion_lon": 0.0, "lat": 38.81054533333333, "is_disabled": 0, "name": "df43c4df82943ff136ca30bbd7bc71ed", "fusion_lat": 0.0, "rental_uris": {"ios": "https://dc.lft.to/lastmile_qr_scan", "android": "https://dc.lft.to/lastmile_qr_scan"}, "lon": -77.08510016666666, "type": "electric_bike"}, {"bike_id": "9711c3fc29f56377b4b20d62712cea39", "is_reserved": 0, "fusion_lon": 0.0, "lat": 38.89222616666667, "is_disabled": 0, "name": "9711c3fc29f56377b4b20d62712cea39", "fusion_lat": 0.0, "rental_uris": {"ios": "https://dc.lft.to/lastmile_qr_scan", "android": "https://dc.lft.to/lastmile_qr_scan"}, "lon": -77.048609, "type": "electric_scooter"}, {"bike_id": "d3a0e157ff0349909ad93790af2187c8", "is_reserved": 0, "fusion_lon": 0.0, "lat": 38.88605116666667, "is_disabled": 0, "name": "d3a0e157ff0349909ad93790af2187c8", "fusion_lat": 0.0, "rental_uris": {"ios": "https://dc.lft.to/lastmile_qr_scan", "android": "https://dc.lft.to/lastmile_qr_scan"}, "lon": -77.0056715, "type": "electric_scooter"}, {"bike_id": "9b5b920f00a4919f28f2c8950687e221", "is_reserved": 0, "fusion_lon": 0.0, "lat": 38.854351666666666, "is_disabled": 0, "name": "9b5b920f00a4919f28f2c8950687e221", "fusion_lat": 0.0, "rental_uris": {"ios": "https://dc.lft.to/lastmile_qr_scan", "android": "https://dc.lft.to/lastmile_qr_scan"}, "lon": -76.9097135, "type": "electric_bike"}, {"bike_id": "041fcfd4a5749aa142a6299fdf40768a", "is_reserved": 0, "fusion_lon": 0.0, "lat": 38.91449183333334, "is_disabled": 0, "name": "041fcfd4a5749aa142a6299fdf40768a", "fusion_lat": 0.0, "rental_uris": {"ios": "https://dc.lft.to/lastmile_qr_scan", "android": "https://dc.lft.to/lastmile_qr_scan"}, "lon": -77.0345735, "type": "electric_scooter"}, {"bike_id": "4724922d9238317efb7232170e4af0ca", "is_reserved": 0, "fusion_lon": 0.0, "lat": 38.89802433333333, "is_disabled": 0, "name": "4724922d9238317efb7232170e4af0ca", "fusion_lat": 0.0, "rental_uris": {"ios": "https://dc.lft.to/lastmile_qr_scan", "android": "https://dc.lft.to/lastmile_qr_scan"}, "lon": -76.99164783333333, "type": "electric_scooter"}, {"bike_id": "476cdfa77fc0155280e5897c976eff8d", "is_reserved": 0, "fusion_lon": 0.0, "lat": 38.844297833333336, "is_disabled": 0, "name": "476cdfa77fc0155280e5897c976eff8d", "fusion_lat": 0.0, "rental_uris": {"ios": "https://dc.lft.to/lastmile_qr_scan", "android": "https://dc.lft.to/lastmile_qr_scan"}, "lon": -76.99779533333333, "type": "electric_scooter"}, {"bike_id": "557b33d481825a5f7891d8842f7e6f59", "is_reserved": 0, "fusion_lon": 0.0, "lat": 38.911927166666665, "is_disabled": 0, "name": "557b33d481825a5f7891d8842f7e6f59", "fusion_lat": 0.0, "rental_uris": {"ios": "https://dc.lft.to/lastmile_qr_scan", "android": "https://dc.lft.to/lastmile_qr_scan"}, "lon": -77.0609785, "type": "electric_scooter"}, {"bike_id": "2bc5ed3ef47e5ea012cf22c31d2ef94a", "is_reserved": 0, "fusion_lon": 0.0, "lat": 38.9349955, "is_disabled": 0, "name": "2bc5ed3ef47e5ea012cf22c31d2ef94a", "fusion_lat": 0.0, "rental_uris": {"ios": "https://dc.lft.to/lastmile_qr_scan", "android": "https://dc.lft.to/lastmile_qr_scan"}, "lon": -77.028457, "type": "electric_scooter"}, {"bike_id": "ec4f33ca307dd751126bfb00b1de2e32", "is_reserved": 0, "fusion_lon": 0.0, "lat": 38.911896, "is_disabled": 0, "name": "ec4f33ca307dd751126bfb00b1de2e32", "fusion_lat": 0.0, "rental_uris": {"ios": "https://dc.lft.to/lastmile_qr_scan", "android": "https://dc.lft.to/lastmile_qr_scan"}, "lon": -77.04553766666666, "type": "electric_scooter"}, {"bike_id": "675498a91935b3464c4fec779a75fe19", "is_reserved": 0, "fusion_lon": 0.0, "lat": 38.90031183333333, "is_disabled": 0, "name": "675498a91935b3464c4fec779a75fe19", "fusion_lat": 0.0, "rental_uris": {"ios": "https://dc.lft.to/lastmile_qr_scan", "android": "https://dc.lft.to/lastmile_qr_scan"}, "lon": -76.99533033333333, "type": "electric_scooter"}, {"bike_id": "5bb8e95727b147182f24ee65c22e2dd3", "is_reserved": 0, "fusion_lon": 0.0, "lat": 38.903123, "is_disabled": 0, "name": "5bb8e95727b147182f24ee65c22e2dd3", "fusion_lat": 0.0, "rental_uris": {"ios": "https://dc.lft.to/lastmile_qr_scan", "android": "https://dc.lft.to/lastmile_qr_scan"}, "lon": -77.03326516666667, "type": "electric_scooter"}, {"bike_id": "dae22c921d386c1266bc1c249ece5adc", "is_reserved": 0, "fusion_lon": 0.0, "lat": 38.90570116666667, "is_disabled": 0, "name": "dae22c921d386c1266bc1c249ece5adc", "fusion_lat": 0.0, "rental_uris": {"ios": "https://dc.lft.to/lastmile_qr_scan", "android": "https://dc.lft.to/lastmile_qr_scan"}, "lon": -77.03076983333334, "type": "electric_scooter"}, {"bike_id": "8a807b620bae7778ff9fe78f2e4ef959", "is_reserved": 0, "fusion_lon": 0.0, "lat": 38.925578, "is_disabled": 0, "name": "8a807b620bae7778ff9fe78f2e4ef959", "fusion_lat": 0.0, "rental_uris": {"ios": "https://dc.lft.to/lastmile_qr_scan", "android": "https://dc.lft.to/lastmile_qr_scan"}, "lon": -77.07332383333333, "type": "electric_bike"}, {"bike_id": "1480b88117e968e35f891258cf73de9b", "is_reserved": 0, "fusion_lon": 0.0, "lat": 38.92091966666667, "is_disabled": 0, "name": "1480b88117e968e35f891258cf73de9b", "fusion_lat": 0.0, "rental_uris": {"ios": "https://dc.lft.to/lastmile_qr_scan", "android": "https://dc.lft.to/lastmile_qr_scan"}, "lon": -77.023928, "type": "electric_scooter"}, {"bike_id": "35859923b62ed9dde356f86ff38b2e53", "is_reserved": 0, "fusion_lon": 0.0, "lat": 38.85880366666667, "is_disabled": 0, "name": "35859923b62ed9dde356f86ff38b2e53", "fusion_lat": 0.0, "rental_uris": {"ios": "https://dc.lft.to/lastmile_qr_scan", "android": "https://dc.lft.to/lastmile_qr_scan"}, "lon": -77.09556583333334, "type": "electric_bike"}, {"bike_id": "7f7c0c135fc97f630e1e007d2cd8fc67", "is_reserved": 0, "fusion_lon": 0.0, "lat": 38.911197, "is_disabled": 0, "name": "7f7c0c135fc97f630e1e007d2cd8fc67", "fusion_lat": 0.0, "rental_uris": {"ios": "https://dc.lft.to/lastmile_qr_scan", "android": "https://dc.lft.to/lastmile_qr_scan"}, "lon": -77.03837866666667, "type": "electric_scooter"}, {"bike_id": "14f9d2774d529d4cdf48303d11e2f62c", "is_reserved": 0, "fusion_lon": 0.0, "lat": 38.898559166666665, "is_disabled": 0, "name": "14f9d2774d529d4cdf48303d11e2f62c", "fusion_lat": 0.0, "rental_uris": {"ios": "https://dc.lft.to/lastmile_qr_scan", "android": "https://dc.lft.to/lastmile_qr_scan"}, "lon": -76.99032816666667, "type": "electric_scooter"}, {"bike_id": "f70d49b4fe39117b307b117b6b3f0547", "is_reserved": 0, "fusion_lon": 0.0, "lat": 38.90114633333334, "is_disabled": 0, "name": "f70d49b4fe39117b307b117b6b3f0547", "fusion_lat": 0.0, "rental_uris": {"ios": "https://dc.lft.to/lastmile_qr_scan", "android": "https://dc.lft.to/lastmile_qr_scan"}, "lon": -77.03183633333333, "type": "electric_scooter"}, {"bike_id": "1de4a9bf787ce91b2632d78aee6d01ce", "is_reserved": 0, "fusion_lon": 0.0, "lat": 38.871357, "is_disabled": 0, "name": "1de4a9bf787ce91b2632d78aee6d01ce", "fusion_lat": 0.0, "rental_uris": {"ios": "https://dc.lft.to/lastmile_qr_scan", "android": "https://dc.lft.to/lastmile_qr_scan"}, "lon": -76.97748016666667, "type": "electric_scooter"}, {"bike_id": "903bf74c54551892247c12c2eab92e84", "is_reserved": 0, "fusion_lon": 0.0, "lat": 38.901923, "is_disabled": 0, "name": "903bf74c54551892247c12c2eab92e84", "fusion_lat": 0.0, "rental_uris": {"ios": "https://dc.lft.to/lastmile_qr_scan", "android": "https://dc.lft.to/lastmile_qr_scan"}, "lon": -77.02181783333333, "type": "electric_scooter"}, {"bike_id": "c04ce86dd3cf0a26d5b25b63b5b65428", "is_reserved": 0, "fusion_lon": 0.0, "lat": 38.852907, "is_disabled": 0, "name": "c04ce86dd3cf0a26d5b25b63b5b65428", "fusion_lat": 0.0, "rental_uris": {"ios": "https://dc.lft.to/lastmile_qr_scan", "android": "https://dc.lft.to/lastmile_qr_scan"}, "lon": -77.05275816666666, "type": "electric_bike"}, {"bike_id": "1733414fc57b2916264aa74832222f76", "is_reserved": 0, "fusion_lon": 0.0, "lat": 38.863823333333336, "is_disabled": 0, "name": "1733414fc57b2916264aa74832222f76", "fusion_lat": 0.0, "rental_uris": {"ios": "https://dc.lft.to/lastmile_qr_scan", "android": "https://dc.lft.to/lastmile_qr_scan"}, "lon": -76.99059233333334, "type": "electric_scooter"}, {"bike_id": "a5a275ba14cf0d7f1a0bb7c753c35ce7", "is_reserved": 0, "fusion_lon": 0.0, "lat": 38.911288666666664, "is_disabled": 0, "name": "a5a275ba14cf0d7f1a0bb7c753c35ce7", "fusion_lat": 0.0, "rental_uris": {"ios": "https://dc.lft.to/lastmile_qr_scan", "android": "https://dc.lft.to/lastmile_qr_scan"}, "lon": -77.0218125, "type": "electric_scooter"}, {"bike_id": "e6dc87691b2aa1af047c1f5502e66ffc", "is_reserved": 0, "fusion_lon": 0.0, "lat": 38.88722816666667, "is_disabled": 0, "name": "e6dc87691b2aa1af047c1f5502e66ffc", "fusion_lat": 0.0, "rental_uris": {"ios": "https://dc.lft.to/lastmile_qr_scan", "android": "https://dc.lft.to/lastmile_qr_scan"}, "lon": -77.02584966666667, "type": "electric_scooter"}, {"bike_id": "4cedabe2392b5a580157c58607619354", "is_reserved": 0, "fusion_lon": 0.0, "lat": 38.91998866666667, "is_disabled": 0, "name": "4cedabe2392b5a580157c58607619354", "fusion_lat": 0.0, "rental_uris": {"ios": "https://dc.lft.to/lastmile_qr_scan", "android": "https://dc.lft.to/lastmile_qr_scan"}, "lon": -77.0388615, "type": "electric_scooter"}, {"bike_id": "5c6d71b26177ae8a81a62d5a1eba6297", "is_reserved": 0, "fusion_lon": 0.0, "lat": 38.9247815, "is_disabled": 0, "name": "5c6d71b26177ae8a81a62d5a1eba6297", "fusion_lat": 0.0, "rental_uris": {"ios": "https://dc.lft.to/lastmile_qr_scan", "android": "https://dc.lft.to/lastmile_qr_scan"}, "lon": -77.05206066666666, "type": "electric_scooter"}, {"bike_id": "e5c14b3f7fceb7171f08d99bc03b6468", "is_reserved": 0, "fusion_lon": 0.0, "lat": 38.925123166666665, "is_disabled": 0, "name": "e5c14b3f7fceb7171f08d99bc03b6468", "fusion_lat": 0.0, "rental_uris": {"ios": "https://dc.lft.to/lastmile_qr_scan", "android": "https://dc.lft.to/lastmile_qr_scan"}, "lon": -77.019342, "type": "electric_scooter"}, {"bike_id": "7b2597d074b0b92c523b22dc2fabb052", "is_reserved": 0, "fusion_lon": 0.0, "lat": 38.865235, "is_disabled": 0, "name": "7b2597d074b0b92c523b22dc2fabb052", "fusion_lat": 0.0, "rental_uris": {"ios": "https://dc.lft.to/lastmile_qr_scan", "android": "https://dc.lft.to/lastmile_qr_scan"}, "lon": -76.990297, "type": "electric_scooter"}, {"bike_id": "4a020bd3151b54090a3a2867d5885ede", "is_reserved": 0, "fusion_lon": 0.0, "lat": 38.93115066666667, "is_disabled": 0, "name": "4a020bd3151b54090a3a2867d5885ede", "fusion_lat": 0.0, "rental_uris": {"ios": "https://dc.lft.to/lastmile_qr_scan", "android": "https://dc.lft.to/lastmile_qr_scan"}, "lon": -77.02409383333334, "type": "electric_scooter"}, {"bike_id": "9bcf41978b9e1ac45b02b10da85c4b51", "is_reserved": 0, "fusion_lon": 0.0, "lat": 38.950874, "is_disabled": 0, "name": "9bcf41978b9e1ac45b02b10da85c4b51", "fusion_lat": 0.0, "rental_uris": {"ios": "https://dc.lft.to/lastmile_qr_scan", "android": "https://dc.lft.to/lastmile_qr_scan"}, "lon": -77.028296, "type": "electric_scooter"}, {"bike_id": "9257b586fc9751928f6d34ed735d27cd", "is_reserved": 0, "fusion_lon": 0.0, "lat": 38.91569483333333, "is_disabled": 0, "name": "9257b586fc9751928f6d34ed735d27cd", "fusion_lat": 0.0, "rental_uris": {"ios": "https://dc.lft.to/lastmile_qr_scan", "android": "https://dc.lft.to/lastmile_qr_scan"}, "lon": -77.0391815, "type": "electric_scooter"}, {"bike_id": "1e659c0b7a0cebeea44b7bafaadaae90", "is_reserved": 0, "fusion_lon": 0.0, "lat": 38.89661016666667, "is_disabled": 0, "name": "1e659c0b7a0cebeea44b7bafaadaae90", "fusion_lat": 0.0, "rental_uris": {"ios": "https://dc.lft.to/lastmile_qr_scan", "android": "https://dc.lft.to/lastmile_qr_scan"}, "lon": -77.04346716666667, "type": "electric_scooter"}, {"bike_id": "532648b38a4a2bcfc28febdb3942e829", "is_reserved": 0, "fusion_lon": 0.0, "lat": 38.9306615, "is_disabled": 0, "name": "532648b38a4a2bcfc28febdb3942e829", "fusion_lat": 0.0, "rental_uris": {"ios": "https://dc.lft.to/lastmile_qr_scan", "android": "https://dc.lft.to/lastmile_qr_scan"}, "lon": -77.029764, "type": "electric_scooter"}, {"bike_id": "319b7ac979c21f6343563efd0c40566e", "is_reserved": 0, "fusion_lon": 0.0, "lat": 38.92199083333333, "is_disabled": 0, "name": "319b7ac979c21f6343563efd0c40566e", "fusion_lat": 0.0, "rental_uris": {"ios": "https://dc.lft.to/lastmile_qr_scan", "android": "https://dc.lft.to/lastmile_qr_scan"}, "lon": -77.0425125, "type": "electric_scooter"}, {"bike_id": "3cb839502ae8b0ebf6aa0e7ae6be89ef", "is_reserved": 0, "fusion_lon": 0.0, "lat": 38.89233733333333, "is_disabled": 0, "name": "3cb839502ae8b0ebf6aa0e7ae6be89ef", "fusion_lat": 0.0, "rental_uris": {"ios": "https://dc.lft.to/lastmile_qr_scan", "android": "https://dc.lft.to/lastmile_qr_scan"}, "lon": -77.02172716666666, "type": "electric_scooter"}, {"bike_id": "0f0b8bbdcc6d453f801faadb3226ee53", "is_reserved": 0, "fusion_lon": 0.0, "lat": 38.90916583333333, "is_disabled": 0, "name": "0f0b8bbdcc6d453f801faadb3226ee53", "fusion_lat": 0.0, "rental_uris": {"ios": "https://dc.lft.to/lastmile_qr_scan", "android": "https://dc.lft.to/lastmile_qr_scan"}, "lon": -77.03138316666667, "type": "electric_scooter"}, {"bike_id": "20b0a8409c3b9de1589fdfe0ac1c4d1e", "is_reserved": 0, "fusion_lon": 0.0, "lat": 38.90955116666667, "is_disabled": 0, "name": "20b0a8409c3b9de1589fdfe0ac1c4d1e", "fusion_lat": 0.0, "rental_uris": {"ios": "https://dc.lft.to/lastmile_qr_scan", "android": "https://dc.lft.to/lastmile_qr_scan"}, "lon": -77.02008766666667, "type": "electric_scooter"}, {"bike_id": "410f89017df2347a0b392543da55d38d", "is_reserved": 0, "fusion_lon": 0.0, "lat": 38.9218485, "is_disabled": 0, "name": "410f89017df2347a0b392543da55d38d", "fusion_lat": 0.0, "rental_uris": {"ios": "https://dc.lft.to/lastmile_qr_scan", "android": "https://dc.lft.to/lastmile_qr_scan"}, "lon": -77.04290016666667, "type": "electric_scooter"}, {"bike_id": "965f998bff33454aee2f87641b5d9810", "is_reserved": 0, "fusion_lon": 0.0, "lat": 38.9257585, "is_disabled": 0, "name": "965f998bff33454aee2f87641b5d9810", "fusion_lat": 0.0, "rental_uris": {"ios": "https://dc.lft.to/lastmile_qr_scan", "android": "https://dc.lft.to/lastmile_qr_scan"}, "lon": -77.07311116666666, "type": "electric_scooter"}, {"bike_id": "c8b8680f9e1a7a8e51238971c46d8d8b", "is_reserved": 0, "fusion_lon": 0.0, "lat": 38.934878, "is_disabled": 0, "name": "c8b8680f9e1a7a8e51238971c46d8d8b", "fusion_lat": 0.0, "rental_uris": {"ios": "https://dc.lft.to/lastmile_qr_scan", "android": "https://dc.lft.to/lastmile_qr_scan"}, "lon": -77.0351335, "type": "electric_scooter"}, {"bike_id": "86980d76c75908e62435b3bebc15f601", "is_reserved": 0, "fusion_lon": 0.0, "lat": 38.910463, "is_disabled": 0, "name": "86980d76c75908e62435b3bebc15f601", "fusion_lat": 0.0, "rental_uris": {"ios": "https://dc.lft.to/lastmile_qr_scan", "android": "https://dc.lft.to/lastmile_qr_scan"}, "lon": -77.0281545, "type": "electric_scooter"}, {"bike_id": "64bffa826e2a74401326f03d9278b339", "is_reserved": 0, "fusion_lon": 0.0, "lat": 38.925002, "is_disabled": 0, "name": "64bffa826e2a74401326f03d9278b339", "fusion_lat": 0.0, "rental_uris": {"ios": "https://dc.lft.to/lastmile_qr_scan", "android": "https://dc.lft.to/lastmile_qr_scan"}, "lon": -77.0216795, "type": "electric_scooter"}, {"bike_id": "098b33b063a6baa23eb4a21fec4ece59", "is_reserved": 0, "fusion_lon": 0.0, "lat": 38.892257, "is_disabled": 0, "name": "098b33b063a6baa23eb4a21fec4ece59", "fusion_lat": 0.0, "rental_uris": {"ios": "https://dc.lft.to/lastmile_qr_scan", "android": "https://dc.lft.to/lastmile_qr_scan"}, "lon": -77.03978766666667, "type": "electric_scooter"}, {"bike_id": "278e531e99669801a4332883187cd2d9", "is_reserved": 0, "fusion_lon": 0.0, "lat": 38.91587616666666, "is_disabled": 0, "name": "278e531e99669801a4332883187cd2d9", "fusion_lat": 0.0, "rental_uris": {"ios": "https://dc.lft.to/lastmile_qr_scan", "android": "https://dc.lft.to/lastmile_qr_scan"}, "lon": -76.98381266666667, "type": "electric_scooter"}, {"bike_id": "89cec5bc9654d302dfc78a1494e82f48", "is_reserved": 0, "fusion_lon": 0.0, "lat": 38.9148195, "is_disabled": 0, "name": "89cec5bc9654d302dfc78a1494e82f48", "fusion_lat": 0.0, "rental_uris": {"ios": "https://dc.lft.to/lastmile_qr_scan", "android": "https://dc.lft.to/lastmile_qr_scan"}, "lon": -77.00830866666666, "type": "electric_scooter"}, {"bike_id": "23f0a1997f9ba84114312f6c5ff67e14", "is_reserved": 0, "fusion_lon": 0.0, "lat": 39.058152666666665, "is_disabled": 0, "name": "23f0a1997f9ba84114312f6c5ff67e14", "fusion_lat": 0.0, "rental_uris": {"ios": "https://dc.lft.to/lastmile_qr_scan", "android": "https://dc.lft.to/lastmile_qr_scan"}, "lon": -77.12625033333333, "type": "electric_bike"}, {"bike_id": "0d1b766bac8586a3c2abe0a1a2fb55ee", "is_reserved": 0, "fusion_lon": 0.0, "lat": 38.9024365, "is_disabled": 0, "name": "0d1b766bac8586a3c2abe0a1a2fb55ee", "fusion_lat": 0.0, "rental_uris": {"ios": "https://dc.lft.to/lastmile_qr_scan", "android": "https://dc.lft.to/lastmile_qr_scan"}, "lon": -77.00199066666667, "type": "electric_scooter"}, {"bike_id": "c38383ff1c3de8ca929407e69a788936", "is_reserved": 0, "fusion_lon": 0.0, "lat": 38.84611783333333, "is_disabled": 0, "name": "c38383ff1c3de8ca929407e69a788936", "fusion_lat": 0.0, "rental_uris": {"ios": "https://dc.lft.to/lastmile_qr_scan", "android": "https://dc.lft.to/lastmile_qr_scan"}, "lon": -76.978345, "type": "electric_bike"}, {"bike_id": "ca842596e845ca7386ce265a1573573b", "is_reserved": 0, "fusion_lon": 0.0, "lat": 38.89623616666667, "is_disabled": 0, "name": "ca842596e845ca7386ce265a1573573b", "fusion_lat": 0.0, "rental_uris": {"ios": "https://dc.lft.to/lastmile_qr_scan", "android": "https://dc.lft.to/lastmile_qr_scan"}, "lon": -77.01130333333333, "type": "electric_scooter"}, {"bike_id": "c5ba52f151a36650c25383bebd1a8217", "is_reserved": 0, "fusion_lon": 0.0, "lat": 38.89832066666666, "is_disabled": 0, "name": "c5ba52f151a36650c25383bebd1a8217", "fusion_lat": 0.0, "rental_uris": {"ios": "https://dc.lft.to/lastmile_qr_scan", "android": "https://dc.lft.to/lastmile_qr_scan"}, "lon": -77.028801, "type": "electric_scooter"}, {"bike_id": "2fb37828cddbe2d7d2002a9cd62e07b7", "is_reserved": 0, "fusion_lon": 0.0, "lat": 38.90023683333333, "is_disabled": 0, "name": "2fb37828cddbe2d7d2002a9cd62e07b7", "fusion_lat": 0.0, "rental_uris": {"ios": "https://dc.lft.to/lastmile_qr_scan", "android": "https://dc.lft.to/lastmile_qr_scan"}, "lon": -77.01195883333334, "type": "electric_scooter"}, {"bike_id": "3931bd753e2c5b7c49f80f39d7c27edb", "is_reserved": 0, "fusion_lon": 0.0, "lat": 38.91049816666667, "is_disabled": 0, "name": "3931bd753e2c5b7c49f80f39d7c27edb", "fusion_lat": 0.0, "rental_uris": {"ios": "https://dc.lft.to/lastmile_qr_scan", "android": "https://dc.lft.to/lastmile_qr_scan"}, "lon": -77.01507716666667, "type": "electric_scooter"}, {"bike_id": "24f6067a48719cda7a04f153faf6d54c", "is_reserved": 0, "fusion_lon": 0.0, "lat": 38.89557816666667, "is_disabled": 0, "name": "24f6067a48719cda7a04f153faf6d54c", "fusion_lat": 0.0, "rental_uris": {"ios": "https://dc.lft.to/lastmile_qr_scan", "android": "https://dc.lft.to/lastmile_qr_scan"}, "lon": -76.93040866666666, "type": "electric_scooter"}, {"bike_id": "bfe58d815363c7a9b552405b37e8525e", "is_reserved": 0, "fusion_lon": 0.0, "lat": 38.95358083333333, "is_disabled": 0, "name": "bfe58d815363c7a9b552405b37e8525e", "fusion_lat": 0.0, "rental_uris": {"ios": "https://dc.lft.to/lastmile_qr_scan", "android": "https://dc.lft.to/lastmile_qr_scan"}, "lon": -76.98092616666666, "type": "electric_bike"}, {"bike_id": "b359bf99d008682ccab087d3113e277e", "is_reserved": 0, "fusion_lon": 0.0, "lat": 38.93506083333333, "is_disabled": 0, "name": "b359bf99d008682ccab087d3113e277e", "fusion_lat": 0.0, "rental_uris": {"ios": "https://dc.lft.to/lastmile_qr_scan", "android": "https://dc.lft.to/lastmile_qr_scan"}, "lon": -77.01992816666667, "type": "electric_scooter"}, {"bike_id": "ce485504e09c4e512cd28a32935d499c", "is_reserved": 0, "fusion_lon": 0.0, "lat": 38.89883233333333, "is_disabled": 0, "name": "ce485504e09c4e512cd28a32935d499c", "fusion_lat": 0.0, "rental_uris": {"ios": "https://dc.lft.to/lastmile_qr_scan", "android": "https://dc.lft.to/lastmile_qr_scan"}, "lon": -77.03320866666667, "type": "electric_scooter"}, {"bike_id": "74db82ee90ce2f8835ecf866c763f4c0", "is_reserved": 0, "fusion_lon": 0.0, "lat": 38.94041033333333, "is_disabled": 0, "name": "74db82ee90ce2f8835ecf866c763f4c0", "fusion_lat": 0.0, "rental_uris": {"ios": "https://dc.lft.to/lastmile_qr_scan", "android": "https://dc.lft.to/lastmile_qr_scan"}, "lon": -77.0290355, "type": "electric_scooter"}, {"bike_id": "3331a2853db4ac5f71cf61855aa56dc2", "is_reserved": 0, "fusion_lon": 0.0, "lat": 38.943671, "is_disabled": 0, "name": "3331a2853db4ac5f71cf61855aa56dc2", "fusion_lat": 0.0, "rental_uris": {"ios": "https://dc.lft.to/lastmile_qr_scan", "android": "https://dc.lft.to/lastmile_qr_scan"}, "lon": -77.02177616666667, "type": "electric_scooter"}, {"bike_id": "161b8a7d82c059c89e872c009dd6adab", "is_reserved": 0, "fusion_lon": 0.0, "lat": 38.89558183333333, "is_disabled": 0, "name": "161b8a7d82c059c89e872c009dd6adab", "fusion_lat": 0.0, "rental_uris": {"ios": "https://dc.lft.to/lastmile_qr_scan", "android": "https://dc.lft.to/lastmile_qr_scan"}, "lon": -77.00918666666666, "type": "electric_scooter"}, {"bike_id": "e4eb7364d7f7341dfad426742b13ff50", "is_reserved": 0, "fusion_lon": 0.0, "lat": 38.873413166666666, "is_disabled": 0, "name": "e4eb7364d7f7341dfad426742b13ff50", "fusion_lat": 0.0, "rental_uris": {"ios": "https://dc.lft.to/lastmile_qr_scan", "android": "https://dc.lft.to/lastmile_qr_scan"}, "lon": -77.10617866666666, "type": "electric_bike"}, {"bike_id": "08724999a90aa7713fb845b07f204513", "is_reserved": 0, "fusion_lon": 0.0, "lat": 38.88768966666667, "is_disabled": 0, "name": "08724999a90aa7713fb845b07f204513", "fusion_lat": 0.0, "rental_uris": {"ios": "https://dc.lft.to/lastmile_qr_scan", "android": "https://dc.lft.to/lastmile_qr_scan"}, "lon": -76.9805245, "type": "electric_scooter"}, {"bike_id": "ef12abdae567186baf50a46284e9365a", "is_reserved": 0, "fusion_lon": 0.0, "lat": 38.90791133333333, "is_disabled": 0, "name": "ef12abdae567186baf50a46284e9365a", "fusion_lat": 0.0, "rental_uris": {"ios": "https://dc.lft.to/lastmile_qr_scan", "android": "https://dc.lft.to/lastmile_qr_scan"}, "lon": -77.042757, "type": "electric_scooter"}, {"bike_id": "34f22f33a5e42d1706da7252a4ceaacc", "is_reserved": 0, "fusion_lon": 0.0, "lat": 38.90369616666667, "is_disabled": 0, "name": "34f22f33a5e42d1706da7252a4ceaacc", "fusion_lat": 0.0, "rental_uris": {"ios": "https://dc.lft.to/lastmile_qr_scan", "android": "https://dc.lft.to/lastmile_qr_scan"}, "lon": -77.0190375, "type": "electric_scooter"}, {"bike_id": "fd10b594aca54a8cfa37ce6e8572d38d", "is_reserved": 0, "fusion_lon": 0.0, "lat": 38.90769366666667, "is_disabled": 0, "name": "fd10b594aca54a8cfa37ce6e8572d38d", "fusion_lat": 0.0, "rental_uris": {"ios": "https://dc.lft.to/lastmile_qr_scan", "android": "https://dc.lft.to/lastmile_qr_scan"}, "lon": -77.00105716666667, "type": "electric_scooter"}, {"bike_id": "086eddd5c2c142f3e836947e1687a8c7", "is_reserved": 0, "fusion_lon": 0.0, "lat": 38.94052033333333, "is_disabled": 0, "name": "086eddd5c2c142f3e836947e1687a8c7", "fusion_lat": 0.0, "rental_uris": {"ios": "https://dc.lft.to/lastmile_qr_scan", "android": "https://dc.lft.to/lastmile_qr_scan"}, "lon": -77.09267266666667, "type": "electric_scooter"}, {"bike_id": "25c7fdab4493e13fea3881594eb28405", "is_reserved": 0, "fusion_lon": 0.0, "lat": 38.86704316666667, "is_disabled": 0, "name": "25c7fdab4493e13fea3881594eb28405", "fusion_lat": 0.0, "rental_uris": {"ios": "https://dc.lft.to/lastmile_qr_scan", "android": "https://dc.lft.to/lastmile_qr_scan"}, "lon": -76.98722583333333, "type": "electric_scooter"}, {"bike_id": "c01b5cc2fbe231e8be76b852a8b66348", "is_reserved": 0, "fusion_lon": 0.0, "lat": 38.90332216666667, "is_disabled": 0, "name": "c01b5cc2fbe231e8be76b852a8b66348", "fusion_lat": 0.0, "rental_uris": {"ios": "https://dc.lft.to/lastmile_qr_scan", "android": "https://dc.lft.to/lastmile_qr_scan"}, "lon": -77.03837, "type": "electric_scooter"}, {"bike_id": "e833a5dde42e90e6c0cce75de5cba8db", "is_reserved": 0, "fusion_lon": 0.0, "lat": 38.9274255, "is_disabled": 0, "name": "e833a5dde42e90e6c0cce75de5cba8db", "fusion_lat": 0.0, "rental_uris": {"ios": "https://dc.lft.to/lastmile_qr_scan", "android": "https://dc.lft.to/lastmile_qr_scan"}, "lon": -77.01200966666667, "type": "electric_scooter"}, {"bike_id": "9fd591423354c5df9cd0809efb33279d", "is_reserved": 0, "fusion_lon": 0.0, "lat": 38.97426566666667, "is_disabled": 0, "name": "9fd591423354c5df9cd0809efb33279d", "fusion_lat": 0.0, "rental_uris": {"ios": "https://dc.lft.to/lastmile_qr_scan", "android": "https://dc.lft.to/lastmile_qr_scan"}, "lon": -77.01522416666667, "type": "electric_scooter"}, {"bike_id": "7d27fd1dac8a12ce6a28ea3d017eef5d", "is_reserved": 0, "fusion_lon": 0.0, "lat": 38.91416133333333, "is_disabled": 0, "name": "7d27fd1dac8a12ce6a28ea3d017eef5d", "fusion_lat": 0.0, "rental_uris": {"ios": "https://dc.lft.to/lastmile_qr_scan", "android": "https://dc.lft.to/lastmile_qr_scan"}, "lon": -77.04140983333333, "type": "electric_scooter"}, {"bike_id": "c82d48f104a81b449bfb5df98f381e09", "is_reserved": 0, "fusion_lon": 0.0, "lat": 38.90867816666667, "is_disabled": 0, "name": "c82d48f104a81b449bfb5df98f381e09", "fusion_lat": 0.0, "rental_uris": {"ios": "https://dc.lft.to/lastmile_qr_scan", "android": "https://dc.lft.to/lastmile_qr_scan"}, "lon": -76.9995515, "type": "electric_scooter"}, {"bike_id": "085c711a9dcc200fb6f294c295158af3", "is_reserved": 0, "fusion_lon": 0.0, "lat": 38.91336916666667, "is_disabled": 0, "name": "085c711a9dcc200fb6f294c295158af3", "fusion_lat": 0.0, "rental_uris": {"ios": "https://dc.lft.to/lastmile_qr_scan", "android": "https://dc.lft.to/lastmile_qr_scan"}, "lon": -77.03122583333334, "type": "electric_scooter"}, {"bike_id": "f1e1c3a119b1efc9356ff1db2ea754dd", "is_reserved": 0, "fusion_lon": 0.0, "lat": 38.906418, "is_disabled": 0, "name": "f1e1c3a119b1efc9356ff1db2ea754dd", "fusion_lat": 0.0, "rental_uris": {"ios": "https://dc.lft.to/lastmile_qr_scan", "android": "https://dc.lft.to/lastmile_qr_scan"}, "lon": -77.05156133333334, "type": "electric_scooter"}, {"bike_id": "dad99f82bae7d8b3fcbbb4debba85656", "is_reserved": 0, "fusion_lon": 0.0, "lat": 38.8968625, "is_disabled": 0, "name": "dad99f82bae7d8b3fcbbb4debba85656", "fusion_lat": 0.0, "rental_uris": {"ios": "https://dc.lft.to/lastmile_qr_scan", "android": "https://dc.lft.to/lastmile_qr_scan"}, "lon": -76.99620433333334, "type": "electric_scooter"}, {"bike_id": "8250393b0734d55c3e83092a6c520dba", "is_reserved": 0, "fusion_lon": 0.0, "lat": 38.900512, "is_disabled": 0, "name": "8250393b0734d55c3e83092a6c520dba", "fusion_lat": 0.0, "rental_uris": {"ios": "https://dc.lft.to/lastmile_qr_scan", "android": "https://dc.lft.to/lastmile_qr_scan"}, "lon": -77.0020705, "type": "electric_scooter"}, {"bike_id": "acc803d4757df782a75df84c703bc4de", "is_reserved": 0, "fusion_lon": 0.0, "lat": 38.90459633333333, "is_disabled": 0, "name": "acc803d4757df782a75df84c703bc4de", "fusion_lat": 0.0, "rental_uris": {"ios": "https://dc.lft.to/lastmile_qr_scan", "android": "https://dc.lft.to/lastmile_qr_scan"}, "lon": -77.017027, "type": "electric_scooter"}, {"bike_id": "741ceb1ee74521a2c60b7225be82ff13", "is_reserved": 0, "fusion_lon": 0.0, "lat": 38.8429375, "is_disabled": 0, "name": "741ceb1ee74521a2c60b7225be82ff13", "fusion_lat": 0.0, "rental_uris": {"ios": "https://dc.lft.to/lastmile_qr_scan", "android": "https://dc.lft.to/lastmile_qr_scan"}, "lon": -76.9994885, "type": "electric_scooter"}, {"bike_id": "ee6215e7ab366ec7d0f0f2c627934019", "is_reserved": 0, "fusion_lon": 0.0, "lat": 38.91748, "is_disabled": 0, "name": "ee6215e7ab366ec7d0f0f2c627934019", "fusion_lat": 0.0, "rental_uris": {"ios": "https://dc.lft.to/lastmile_qr_scan", "android": "https://dc.lft.to/lastmile_qr_scan"}, "lon": -77.00750316666667, "type": "electric_scooter"},