{"data": {"bikes": [{"is_reserved": 0, "type": "electric_bike", "bike_id": "61185257273ad66f15dd1561a8ecb7e2", "lat": 38.8579255, "lon": -77.09963, "rental_uris": {"android": "https://dc.lft.to/lastmile_qr_scan", "ios": "https://dc.lft.to/lastmile_qr_scan"}, "is_disabled": 0, "fusion_lat": 0.0, "name": "61185257273ad66f15dd1561a8ecb7e2", "fusion_lon": 0.0}, {"is_reserved": 0, "type": "electric_scooter", "bike_id": "0201248a61e43fd0ab493230c845e5b9", "lat": 38.905472, "lon": -77.00446483333333, "rental_uris": {"android": "https://dc.lft.to/lastmile_qr_scan", "ios": "https://dc.lft.to/lastmile_qr_scan"}, "is_disabled": 0, "fusion_lat": 0.0, "name": "0201248a61e43fd0ab493230c845e5b9", "fusion_lon": 0.0}, {"is_reserved": 0, "type": "electric_scooter", "bike_id": "404e0871f19cd52aa11993e73295b560", "lat": 38.921193, "lon": -77.01898233333333, "rental_uris": {"android": "https://dc.lft.to/lastmile_qr_scan", "ios": "https://dc.lft.to/lastmile_qr_scan"}, "is_disabled": 0, "fusion_lat": 0.0, "name": "404e0871f19cd52aa11993e73295b560", "fusion_lon": 0.0}, {"is_reserved": 0, "type": "electric_scooter", "bike_id": "527bd4b4a787369347d75db8fc508367", "lat": 38.90717216666667, "lon": -77.00803766666667, "rental_uris": {"android": "https://dc.lft.to/lastmile_qr_scan", "ios": "https://dc.lft.to/lastmile_qr_scan"}, "is_disabled": 0, "fusion_lat": 0.0, "name": "527bd4b4a787369347d75db8fc508367", "fusion_lon": 0.0}, {"is_reserved": 0, "type": "electric_scooter", "bike_id": "7841051f8f3b163b29e4e601a2ec126a", "lat": 38.893152666666666, "lon": -77.03193333333333, "rental_uris": {"android": "https://dc.lft.to/lastmile_qr_scan", "ios": "https://dc.lft.to/lastmile_qr_scan"}, "is_disabled": 0, "fusion_lat": 0.0, "name": "7841051f8f3b163b29e4e601a2ec126a", "fusion_lon": 0.0}, {"is_reserved": 0, "type": "electric_scooter", "bike_id": "6c344dffaf08e740e0010332ade74253", "lat": 38.899489, "lon": -76.94635383333333, "rental_uris": {"android": "https://dc.lft.to/lastmile_qr_scan", "ios": "https://dc.lft.to/lastmile_qr_scan"}, "is_disabled": 0, "fusion_lat": 0.0, "name": "6c344dffaf08e740e0010332ade74253", "fusion_lon": 0.0}, {"is_reserved": 0, "type": "electric_scooter", "bike_id": "cfefe4692d97cbc0d9428074af8d8332", "lat": 38.9168675, "lon": -77.02954766666667, "rental_uris": {"android": "https://dc.lft.to/lastmile_qr_scan", "ios": "https://dc.lft.to/lastmile_qr_scan"}, "is_disabled": 0, "fusion_lat": 0.0, "name": "cfefe4692d97cbc0d9428074af8d8332", "fusion_lon": 0.0}, {"is_reserved": 0, "type": "electric_scooter", "bike_id": "87eb3ed244f0bcc872758f537b683b7c", "lat": 38.925709833333336, "lon": -77.02979716666667, "rental_uris": {"android": "https://dc.lft.to/lastmile_qr_scan", "ios": "https://dc.lft.to/lastmile_qr_scan"}, "is_disabled": 0, "fusion_lat": 0.0, "name": "87eb3ed244f0bcc872758f537b683b7c", "fusion_lon": 0.0}, {"is_reserved": 0, "type": "electric_bike", "bike_id": "ac09fb91d41779401c043ea516f21b72", "lat": 38.9587315, "lon": -76.97049, "rental_uris": {"android": "https://dc.lft.to/lastmile_qr_scan", "ios": "https://dc.lft.to/lastmile_qr_scan"}, "is_disabled": 0, "fusion_lat": 0.0, "name": "ac09fb91d41779401c043ea516f21b72", "fusion_lon": 0.0}, {"is_reserved": 0, "type": "electric_scooter", "bike_id": "6c2c1ce9573d98c188a508e321e32fc9", "lat": 38.8961655, "lon": -76.99743533333333, "rental_uris": {"android": "https://dc.lft.to/lastmile_qr_scan", "ios": "https://dc.lft.to/lastmile_qr_scan"}, "is_disabled": 0, "fusion_lat": 0.0, "name": "6c2c1ce9573d98c188a508e321e32fc9", "fusion_lon": 0.0}, {"is_reserved": 0, "type": "electric_scooter", "bike_id": "8faa08b3e37de2a92f592d0cf4a2864c", "lat": 38.90346516666666, "lon": -77.00739466666667, "rental_uris": {"android": "https://dc.lft.to/lastmile_qr_scan", "ios": "https://dc.lft.to/lastmile_qr_scan"}, "is_disabled": 0, "fusion_lat": 0.0, "name": "8faa08b3e37de2a92f592d0cf4a2864c", "fusion_lon": 0.0}, {"is_reserved": 0, "type": "electric_scooter", "bike_id": "bad9033994e16e2addcb13a945bbf85b", "lat": 38.875745333333334, "lon": -77.00576833333334, "rental_uris": {"android": "https://dc.lft.to/lastmile_qr_scan", "ios": "https://dc.lft.to/lastmile_qr_scan"}, "is_disabled": 0, "fusion_lat": 0.0, "name": "bad9033994e16e2addcb13a945bbf85b", "fusion_lon": 0.0}, {"is_reserved": 0, "type": "electric_scooter", "bike_id": "7f9546b9cdafb23591839737e4bd0186", "lat": 38.919807666666664, "lon": -77.0417285, "rental_uris": {"android": "https://dc.lft.to/lastmile_qr_scan", "ios": "https://dc.lft.to/lastmile_qr_scan"}, "is_disabled": 0, "fusion_lat": 0.0, "name": "7f9546b9cdafb23591839737e4bd0186", "fusion_lon": 0.0}, {"is_reserved": 0, "type": "electric_bike", "bike_id": "a375dfee160fca972e3339fa5dcdc2b3", "lat": 38.945631666666664, "lon": -76.95839366666667, "rental_uris": {"android": "https://dc.lft.to/lastmile_qr_scan", "ios": "https://dc.lft.to/lastmile_qr_scan"}, "is_disabled": 0, "fusion_lat": 0.0, "name": "a375dfee160fca972e3339fa5dcdc2b3", "fusion_lon": 0.0}, {"is_reserved": 0, "type": "electric_scooter", "bike_id": "23d8179a09bda36ec9701665d9f92f37", "lat": 38.9322145, "lon": -76.99745166666666, "rental_uris": {"android": "https://dc.lft.to/lastmile_qr_scan", "ios": "https://dc.lft.to/lastmile_qr_scan"}, "is_disabled": 0, "fusion_lat": 0.0, "name": "23d8179a09bda36ec9701665d9f92f37", "fusion_lon": 0.0}, {"is_reserved": 0, "type": "electric_scooter", "bike_id": "b92346f348b318c139a5f37fe4165c1a", "lat": 38.905535, "lon": -77.00923716666667, "rental_uris": {"android": "https://dc.lft.to/lastmile_qr_scan", "ios": "https://dc.lft.to/lastmile_qr_scan"}, "is_disabled": 0, "fusion_lat": 0.0, "name": "b92346f348b318c139a5f37fe4165c1a", "fusion_lon": 0.0}, {"is_reserved": 0, "type": "electric_scooter", "bike_id": "9d928b15a97c7abf154a567d3529681f", "lat": 38.892366333333335, "lon": -77.01349833333333, "rental_uris": {"android": "https://dc.lft.to/lastmile_qr_scan", "ios": "https://dc.lft.to/lastmile_qr_scan"}, "is_disabled": 0, "fusion_lat": 0.0, "name": "9d928b15a97c7abf154a567d3529681f", "fusion_lon": 0.0}, {"is_reserved": 0, "type": "electric_scooter", "bike_id": "5cc0ac83c57a7b5b97e2edcbb6d28a76", "lat": 38.91598066666667, "lon": -77.0240005, "rental_uris": {"android": "https://dc.lft.to/lastmile_qr_scan", "ios": "https://dc.lft.to/lastmile_qr_scan"}, "is_disabled": 0, "fusion_lat": 0.0, "name": "5cc0ac83c57a7b5b97e2edcbb6d28a76", "fusion_lon": 0.0}, {"is_reserved": 0, "type": "electric_scooter", "bike_id": "676363abe87394b1d88fe22a8fe967f3", "lat": 38.917994666666665, "lon": -77.03206216666666, "rental_uris": {"android": "https://dc.lft.to/lastmile_qr_scan", "ios": "https://dc.lft.to/lastmile_qr_scan"}, "is_disabled": 0, "fusion_lat": 0.0, "name": "676363abe87394b1d88fe22a8fe967f3", "fusion_lon": 0.0}, {"is_reserved": 0, "type": "electric_scooter", "bike_id": "ac27475df81a2bff64336cf72f9b4a84", "lat": 38.892229666666665, "lon": -77.031098, "rental_uris": {"android": "https://dc.lft.to/lastmile_qr_scan", "ios": "https://dc.lft.to/lastmile_qr_scan"}, "is_disabled": 0, "fusion_lat": 0.0, "name": "ac27475df81a2bff64336cf72f9b4a84", "fusion_lon": 0.0}, {"is_reserved": 0, "type": "electric_scooter", "bike_id": "e0b7a0274497b00503322f7f0bf0d748", "lat": 38.8872705, "lon": -76.98375433333334, "rental_uris": {"android": "https://dc.lft.to/lastmile_qr_scan", "ios": "https://dc.lft.to/lastmile_qr_scan"}, "is_disabled": 0, "fusion_lat": 0.0, "name": "e0b7a0274497b00503322f7f0bf0d748", "fusion_lon": 0.0}, {"is_reserved": 0, "type": "electric_scooter", "bike_id": "fa067ea8ef7974935e1f0aeaa733113c", "lat": 38.92170383333333, "lon": -77.02960516666667, "rental_uris": {"android": "https://dc.lft.to/lastmile_qr_scan", "ios": "https://dc.lft.to/lastmile_qr_scan"}, "is_disabled": 0, "fusion_lat": 0.0, "name": "fa067ea8ef7974935e1f0aeaa733113c", "fusion_lon": 0.0}, {"is_reserved": 0, "type": "electric_bike", "bike_id": "f9fedf7758afd003c95b3a20368daf29", "lat": 38.83609383333334, "lon": -77.00379433333333, "rental_uris": {"android": "https://dc.lft.to/lastmile_qr_scan", "ios": "https://dc.lft.to/lastmile_qr_scan"}, "is_disabled": 0, "fusion_lat": 0.0, "name": "f9fedf7758afd003c95b3a20368daf29", "fusion_lon": 0.0}, {"is_reserved": 0, "type": "electric_bike", "bike_id": "32262d14a0caa093171df0b74004877a", "lat": 38.9290805, "lon": -77.09741283333334, "rental_uris": {"android": "https://dc.lft.to/lastmile_qr_scan", "ios": "https://dc.lft.to/lastmile_qr_scan"}, "is_disabled": 0, "fusion_lat": 0.0, "name": "32262d14a0caa093171df0b74004877a", "fusion_lon": 0.0}, {"is_reserved": 0, "type": "electric_scooter", "bike_id": "23c083f25074d40beaf635c233c7aacd", "lat": 38.90392516666667, "lon": -77.06289116666666, "rental_uris": {"android": "https://dc.lft.to/lastmile_qr_scan", "ios": "https://dc.lft.to/lastmile_qr_scan"}, "is_disabled": 0, "fusion_lat": 0.0, "name": "23c083f25074d40beaf635c233c7aacd", "fusion_lon": 0.0}, {"is_reserved": 0, "type": "electric_scooter", "bike_id": "24b672151c5a7dffa520bd4c47cb275b", "lat": 38.90565766666667, "lon": -77.0307375, "rental_uris": {"android": "https://dc.lft.to/lastmile_qr_scan", "ios": "https://dc.lft.to/lastmile_qr_scan"}, "is_disabled": 0, "fusion_lat": 0.0, "name": "24b672151c5a7dffa520bd4c47cb275b", "fusion_lon": 0.0}, {"is_reserved": 0, "type": "electric_scooter", "bike_id": "e2c97573abc26be2c35d37524c3b4338", "lat": 38.92452683333333, "lon": -77.02155, "rental_uris": {"android": "https://dc.lft.to/lastmile_qr_scan", "ios": "https://dc.lft.to/lastmile_qr_scan"}, "is_disabled": 0, "fusion_lat": 0.0, "name": "e2c97573abc26be2c35d37524c3b4338", "fusion_lon": 0.0}, {"is_reserved": 0, "type": "electric_scooter", "bike_id": "98d7176ee519d4924415b2fdb95f2de1", "lat": 38.91553416666667, "lon": -77.02047666666667, "rental_uris": {"android": "https://dc.lft.to/lastmile_qr_scan", "ios": "https://dc.lft.to/lastmile_qr_scan"}, "is_disabled": 0, "fusion_lat": 0.0, "name": "98d7176ee519d4924415b2fdb95f2de1", "fusion_lon": 0.0}, {"is_reserved": 0, "type": "electric_scooter", "bike_id": "74fb6af1e36b161f9a2800071d159278", "lat": 38.86109316666667, "lon": -76.98382883333333, "rental_uris": {"android": "https://dc.lft.to/lastmile_qr_scan", "ios": "https://dc.lft.to/lastmile_qr_scan"}, "is_disabled": 0, "fusion_lat": 0.0, "name": "74fb6af1e36b161f9a2800071d159278", "fusion_lon": 0.0}, {"is_reserved": 0, "type": "electric_scooter", "bike_id": "04aa4c8c54c90404787fd78a5d00c3bc", "lat": 38.87545583333333, "lon": -77.00539633333334, "rental_uris": {"android": "https://dc.lft.to/lastmile_qr_scan", "ios": "https://dc.lft.to/lastmile_qr_scan"}, "is_disabled": 0, "fusion_lat": 0.0, "name": "04aa4c8c54c90404787fd78a5d00c3bc", "fusion_lon": 0.0}, {"is_reserved": 0, "type": "electric_scooter", "bike_id": "783c8fd194473b53cd3793ec28fc38fd", "lat": 38.899863333333336, "lon": -77.02325383333333, "rental_uris": {"android": "https://dc.lft.to/lastmile_qr_scan", "ios": "https://dc.lft.to/lastmile_qr_scan"}, "is_disabled": 0, "fusion_lat": 0.0, "name": "783c8fd194473b53cd3793ec28fc38fd", "fusion_lon": 0.0}, {"is_reserved": 0, "type": "electric_scooter", "bike_id": "183ea18f8c79a2bacdf615df01111ae3", "lat": 38.922856333333335, "lon": -77.02964683333333, "rental_uris": {"android": "https://dc.lft.to/lastmile_qr_scan", "ios": "https://dc.lft.to/lastmile_qr_scan"}, "is_disabled": 0, "fusion_lat": 0.0, "name": "183ea18f8c79a2bacdf615df01111ae3", "fusion_lon": 0.0}, {"is_reserved": 0, "type": "electric_bike", "bike_id": "bec14fc00dc285fe11204b51f621cc75", "lat": 39.0843185, "lon": -76.95150333333333, "rental_uris": {"android": "https://dc.lft.to/lastmile_qr_scan", "ios": "https://dc.lft.to/lastmile_qr_scan"}, "is_disabled": 0, "fusion_lat": 0.0, "name": "bec14fc00dc285fe11204b51f621cc75", "fusion_lon": 0.0}, {"is_reserved": 0, "type": "electric_bike", "bike_id": "bcd5037afba8a3daeb657337b421d506", "lat": 38.94542633333333, "lon": -77.34457316666666, "rental_uris": {"android": "https://dc.lft.to/lastmile_qr_scan", "ios": "https://dc.lft.to/lastmile_qr_scan"}, "is_disabled": 0, "fusion_lat": 0.0, "name": "bcd5037afba8a3daeb657337b421d506", "fusion_lon": 0.0}, {"is_reserved": 0, "type": "electric_scooter", "bike_id": "c812e6744633e43e75087150d1d24ecc", "lat": 38.92421566666667, "lon": -77.02243416666667, "rental_uris": {"android": "https://dc.lft.to/lastmile_qr_scan", "ios": "https://dc.lft.to/lastmile_qr_scan"}, "is_disabled": 0, "fusion_lat": 0.0, "name": "c812e6744633e43e75087150d1d24ecc", "fusion_lon": 0.0}, {"is_reserved": 0, "type": "electric_scooter", "bike_id": "0f603242bc223190797244e3b1e9a9a2", "lat": 38.88660183333333, "lon": -76.9366925, "rental_uris": {"android": "https://dc.lft.to/lastmile_qr_scan", "ios": "https://dc.lft.to/lastmile_qr_scan"}, "is_disabled": 0, "fusion_lat": 0.0, "name": "0f603242bc223190797244e3b1e9a9a2", "fusion_lon": 0.0}, {"is_reserved": 0, "type": "electric_scooter", "bike_id": "4646a6cb91c22eeaeb49f3debfc58994", "lat": 38.91745933333333, "lon": -77.04159833333334, "rental_uris": {"android": "https://dc.lft.to/lastmile_qr_scan", "ios": "https://dc.lft.to/lastmile_qr_scan"}, "is_disabled": 0, "fusion_lat": 0.0, "name": "4646a6cb91c22eeaeb49f3debfc58994", "fusion_lon": 0.0}, {"is_reserved": 0, "type": "electric_scooter", "bike_id": "fc1f3b881ca0e55dd1ec993704520dde", "lat": 38.90528333333334, "lon": -77.04029266666667, "rental_uris": {"android": "https://dc.lft.to/lastmile_qr_scan", "ios": "https://dc.lft.to/lastmile_qr_scan"}, "is_disabled": 0, "fusion_lat": 0.0, "name": "fc1f3b881ca0e55dd1ec993704520dde", "fusion_lon": 0.0}, {"is_reserved": 0, "type": "electric_scooter", "bike_id": "aa7618d1c95f6d687e0d3fa7957d243e", "lat": 38.899930833333336, "lon": -76.99008933333333, "rental_uris": {"android": "https://dc.lft.to/lastmile_qr_scan", "ios": "https://dc.lft.to/lastmile_qr_scan"}, "is_disabled": 0, "fusion_lat": 0.0, "name": "aa7618d1c95f6d687e0d3fa7957d243e", "fusion_lon": 0.0}, {"is_reserved": 0, "type": "electric_scooter", "bike_id": "a4e9ef14a6ac06c08d751c6e991bc469", "lat": 38.92915983333333, "lon": -76.99814483333333, "rental_uris": {"android": "https://dc.lft.to/lastmile_qr_scan", "ios": "https://dc.lft.to/lastmile_qr_scan"}, "is_disabled": 0, "fusion_lat": 0.0, "name": "a4e9ef14a6ac06c08d751c6e991bc469", "fusion_lon": 0.0}, {"is_reserved": 0, "type": "electric_scooter", "bike_id": "ad4390b485fb628bd18d2810fb94f4c4", "lat": 38.91197283333333, "lon": -77.01197916666666, "rental_uris": {"android": "https://dc.lft.to/lastmile_qr_scan", "ios": "https://dc.lft.to/lastmile_qr_scan"}, "is_disabled": 0, "fusion_lat": 0.0, "name": "ad4390b485fb628bd18d2810fb94f4c4", "fusion_lon": 0.0}, {"is_reserved": 0, "type": "electric_scooter", "bike_id": "f9f0c6cb43d8a58cfabadb3705e05bf9", "lat": 38.914009166666666, "lon": -77.03181483333333, "rental_uris": {"android": "https://dc.lft.to/lastmile_qr_scan", "ios": "https://dc.lft.to/lastmile_qr_scan"}, "is_disabled": 0, "fusion_lat": 0.0, "name": "f9f0c6cb43d8a58cfabadb3705e05bf9", "fusion_lon": 0.0}, {"is_reserved": 0, "type": "electric_scooter", "bike_id": "22585bdf6e12145d3c2d1da9e0b9773e", "lat": 38.916608, "lon": -77.02693683333334, "rental_uris": {"android": "https://dc.lft.to/lastmile_qr_scan", "ios": "https://dc.lft.to/lastmile_qr_scan"}, "is_disabled": 0, "fusion_lat": 0.0, "name": "22585bdf6e12145d3c2d1da9e0b9773e", "fusion_lon": 0.0}, {"is_reserved": 0, "type": "electric_scooter", "bike_id": "d79905bd2ab64708304327c9adf436f1", "lat": 38.90588366666667, "lon": -77.0161175, "rental_uris": {"android": "https://dc.lft.to/lastmile_qr_scan", "ios": "https://dc.lft.to/lastmile_qr_scan"}, "is_disabled": 0, "fusion_lat": 0.0, "name": "d79905bd2ab64708304327c9adf436f1", "fusion_lon": 0.0}, {"is_reserved": 0, "type": "electric_scooter", "bike_id": "0fe41ae04d32ed39e786d2db36e7ac73", "lat": 38.91950383333333, "lon": -77.02510283333334, "rental_uris": {"android": "https://dc.lft.to/lastmile_qr_scan", "ios": "https://dc.lft.to/lastmile_qr_scan"}, "is_disabled": 0, "fusion_lat": 0.0, "name": "0fe41ae04d32ed39e786d2db36e7ac73", "fusion_lon": 0.0}, {"is_reserved": 0, "type": "electric_scooter", "bike_id": "0b516cf7cb77913d69edcc1317399405", "lat": 38.892231333333335, "lon": -77.04353866666666, "rental_uris": {"android": "https://dc.lft.to/lastmile_qr_scan", "ios": "https://dc.lft.to/lastmile_qr_scan"}, "is_disabled": 0, "fusion_lat": 0.0, "name": "0b516cf7cb77913d69edcc1317399405", "fusion_lon": 0.0}, {"is_reserved": 0, "type": "electric_scooter", "bike_id": "57ea6b41e263b4a8106cd8a82b232702", "lat": 38.90400533333333, "lon": -77.06785533333333, "rental_uris": {"android": "https://dc.lft.to/lastmile_qr_scan", "ios": "https://dc.lft.to/lastmile_qr_scan"}, "is_disabled": 0, "fusion_lat": 0.0, "name": "57ea6b41e263b4a8106cd8a82b232702", "fusion_lon": 0.0}, {"is_reserved": 0, "type": "electric_scooter", "bike_id": "a931cace461d87321d1c240643b7fe5a", "lat": 38.9006225, "lon": -76.92737333333334, "rental_uris": {"android": "https://dc.lft.to/lastmile_qr_scan", "ios": "https://dc.lft.to/lastmile_qr_scan"}, "is_disabled": 0, "fusion_lat": 0.0, "name": "a931cace461d87321d1c240643b7fe5a", "fusion_lon": 0.0}, {"is_reserved": 0, "type": "electric_scooter", "bike_id": "e6d35f491c81d5b481365a0ae0b93ca4", "lat": 38.924664166666666, "lon": -77.02711233333333, "rental_uris": {"android": "https://dc.lft.to/lastmile_qr_scan", "ios": "https://dc.lft.to/lastmile_qr_scan"}, "is_disabled": 0, "fusion_lat": 0.0, "name": "e6d35f491c81d5b481365a0ae0b93ca4", "fusion_lon": 0.0}, {"is_reserved": 0, "type": "electric_scooter", "bike_id": "a2ef98e7fa5ef619f70ebcc99eb53fd1", "lat": 38.8956295, "lon": -77.03171316666666, "rental_uris": {"android": "https://dc.lft.to/lastmile_qr_scan", "ios": "https://dc.lft.to/lastmile_qr_scan"}, "is_disabled": 0, "fusion_lat": 0.0, "name": "a2ef98e7fa5ef619f70ebcc99eb53fd1", "fusion_lon": 0.0}, {"is_reserved": 0, "type": "electric_scooter", "bike_id": "b237ed5f475552e73b8c9bca61bc2b09", "lat": 38.929668, "lon": -77.02341683333333, "rental_uris": {"android": "https://dc.lft.to/lastmile_qr_scan", "ios": "https://dc.lft.to/lastmile_qr_scan"}, "is_disabled": 0, "fusion_lat": 0.0, "name": "b237ed5f475552e73b8c9bca61bc2b09", "fusion_lon": 0.0}, {"is_reserved": 0, "type": "electric_scooter", "bike_id": "7b808af9e88b05e9cb1583929d79c62e", "lat": 38.919821166666665, "lon": -77.040643, "rental_uris": {"android": "https://dc.lft.to/lastmile_qr_scan", "ios": "https://dc.lft.to/lastmile_qr_scan"}, "is_disabled": 0, "fusion_lat": 0.0, "name": "7b808af9e88b05e9cb1583929d79c62e", "fusion_lon": 0.0}, {"is_reserved": 0, "type": "electric_scooter", "bike_id": "b7d4bba4a258dbef4778fc62017102a4", "lat": 38.94734583333333, "lon": -77.024658, "rental_uris": {"android": "https://dc.lft.to/lastmile_qr_scan", "ios": "https://dc.lft.to/lastmile_qr_scan"}, "is_disabled": 0, "fusion_lat": 0.0, "name": "b7d4bba4a258dbef4778fc62017102a4", "fusion_lon": 0.0}, {"is_reserved": 0, "type": "electric_scooter", "bike_id": "2f8092e642f88e8b6087d08d5b0c0ca8", "lat": 38.8867915, "lon": -77.00353, "rental_uris": {"android": "https://dc.lft.to/lastmile_qr_scan", "ios": "https://dc.lft.to/lastmile_qr_scan"}, "is_disabled": 0, "fusion_lat": 0.0, "name": "2f8092e642f88e8b6087d08d5b0c0ca8", "fusion_lon": 0.0}, {"is_reserved": 0, "type": "electric_scooter", "bike_id": "27aac397c4757ce6be8cf7a03f04cf9d", "lat": 38.901994333333334, "lon": -76.98215166666667, "rental_uris": {"android": "https://dc.lft.to/lastmile_qr_scan", "ios": "https://dc.lft.to/lastmile_qr_scan"}, "is_disabled": 0, "fusion_lat": 0.0, "name": "27aac397c4757ce6be8cf7a03f04cf9d", "fusion_lon": 0.0}, {"is_reserved": 0, "type": "electric_scooter", "bike_id": "8fe5b0fbdab0011e3738fca02e08eb58", "lat": 38.886656333333335, "lon": -77.001909, "rental_uris": {"android": "https://dc.lft.to/lastmile_qr_scan", "ios": "https://dc.lft.to/lastmile_qr_scan"}, "is_disabled": 0, "fusion_lat": 0.0, "name": "8fe5b0fbdab0011e3738fca02e08eb58", "fusion_lon": 0.0}, {"is_reserved": 0, "type": "electric_scooter", "bike_id": "723f16c3cba69ae45824e17b8e667c48", "lat": 38.86719566666667, "lon": -76.98071283333333, "rental_uris": {"android": "https://dc.lft.to/lastmile_qr_scan", "ios": "https://dc.lft.to/lastmile_qr_scan"}, "is_disabled": 0, "fusion_lat": 0.0, "name": "723f16c3cba69ae45824e17b8e667c48", "fusion_lon": 0.0}, {"is_reserved": 0, "type": "electric_scooter", "bike_id": "13d3cb1038fa922571e1fd9d1c315473", "lat": 38.88527233333333, "lon": -76.9805275, "rental_uris": {"android": "https://dc.lft.to/lastmile_qr_scan", "ios": "https://dc.lft.to/lastmile_qr_scan"}, "is_disabled": 0, "fusion_lat": 0.0, "name": "13d3cb1038fa922571e1fd9d1c315473", "fusion_lon": 0.0}, {"is_reserved": 0, "type": "electric_scooter", "bike_id": "fe97fc0aebdc88899a53a884325e7a50", "lat": 38.924792333333336, "lon": -77.030462, "rental_uris": {"android": "https://dc.lft.to/lastmile_qr_scan", "ios": "https://dc.lft.to/lastmile_qr_scan"}, "is_disabled": 0, "fusion_lat": 0.0, "name": "fe97fc0aebdc88899a53a884325e7a50", "fusion_lon": 0.0}, {"is_reserved": 0, "type": "electric_scooter", "bike_id": "a6a55f48966705c610b993fa35f84018", "lat": 38.899931, "lon": -77.02085483333333, "rental_uris": {"android": "https://dc.lft.to/lastmile_qr_scan", "ios": "https://dc.lft.to/lastmile_qr_scan"}, "is_disabled": 0, "fusion_lat": 0.0, "name": "a6a55f48966705c610b993fa35f84018", "fusion_lon": 0.0}, {"is_reserved": 0, "type": "electric_scooter", "bike_id": "c05859c3ab57b9c3d3b8775b616cbf50", "lat": 38.86594483333333, "lon": -76.97447783333334, "rental_uris": {"android": "https://dc.lft.to/lastmile_qr_scan", "ios": "https://dc.lft.to/lastmile_qr_scan"}, "is_disabled": 0, "fusion_lat": 0.0, "name": "c05859c3ab57b9c3d3b8775b616cbf50", "fusion_lon": 0.0}, {"is_reserved": 0, "type": "electric_scooter", "bike_id": "f723e1236cf6e8daf83129a9804be2fe", "lat": 38.936587833333334, "lon": -77.02138333333333, "rental_uris": {"android": "https://dc.lft.to/lastmile_qr_scan", "ios": "https://dc.lft.to/lastmile_qr_scan"}, "is_disabled": 0, "fusion_lat": 0.0, "name": "f723e1236cf6e8daf83129a9804be2fe", "fusion_lon": 0.0}, {"is_reserved": 0, "type": "electric_bike", "bike_id": "4d62ed7118e92474e25e8f883f174cd1", "lat": 38.87656833333333, "lon": -77.0064435, "rental_uris": {"android": "https://dc.lft.to/lastmile_qr_scan", "ios": "https://dc.lft.to/lastmile_qr_scan"}, "is_disabled": 0, "fusion_lat": 0.0, "name": "4d62ed7118e92474e25e8f883f174cd1", "fusion_lon": 0.0}, {"is_reserved": 0, "type": "electric_scooter", "bike_id": "9e4575812229c829b0c21f6cf426f8a6", "lat": 38.915560166666666, "lon": -77.03259733333333, "rental_uris": {"android": "https://dc.lft.to/lastmile_qr_scan", "ios": "https://dc.lft.to/lastmile_qr_scan"}, "is_disabled": 0, "fusion_lat": 0.0, "name": "9e4575812229c829b0c21f6cf426f8a6", "fusion_lon": 0.0}, {"is_reserved": 0, "type": "electric_scooter", "bike_id": "7f29201c6ce6ca6da538e798db29ccc1", "lat": 38.89226133333333, "lon": -77.049959, "rental_uris": {"android": "https://dc.lft.to/lastmile_qr_scan", "ios": "https://dc.lft.to/lastmile_qr_scan"}, "is_disabled": 0, "fusion_lat": 0.0, "name": "7f29201c6ce6ca6da538e798db29ccc1", "fusion_lon": 0.0}, {"is_reserved": 0, "type": "electric_scooter", "bike_id": "2227c720946fa1a44cfbf9c3e59b6854", "lat": 38.916648, "lon": -77.02466833333334, "rental_uris": {"android": "https://dc.lft.to/lastmile_qr_scan", "ios": "https://dc.lft.to/lastmile_qr_scan"}, "is_disabled": 0, "fusion_lat": 0.0, "name": "2227c720946fa1a44cfbf9c3e59b6854", "fusion_lon": 0.0}, {"is_reserved": 0, "type": "electric_scooter", "bike_id": "0b37eaabf47ab3d152c9cf310cc4564b", "lat": 38.902000666666666, "lon": -77.02103916666667, "rental_uris": {"android": "https://dc.lft.to/lastmile_qr_scan", "ios": "https://dc.lft.to/lastmile_qr_scan"}, "is_disabled": 0, "fusion_lat": 0.0, "name": "0b37eaabf47ab3d152c9cf310cc4564b", "fusion_lon": 0.0}, {"is_reserved": 0, "type": "electric_scooter", "bike_id": "9b1db13445c5d6847ebdcc6589041867", "lat": 38.905369, "lon": -77.005334, "rental_uris": {"android": "https://dc.lft.to/lastmile_qr_scan", "ios": "https://dc.lft.to/lastmile_qr_scan"}, "is_disabled": 0, "fusion_lat": 0.0, "name": "9b1db13445c5d6847ebdcc6589041867", "fusion_lon": 0.0}, {"is_reserved": 0, "type": "electric_scooter", "bike_id": "6fe60b360ba260062379cfdfac12b33e", "lat": 38.91966933333333, "lon": -77.04358933333333, "rental_uris": {"android": "https://dc.lft.to/lastmile_qr_scan", "ios": "https://dc.lft.to/lastmile_qr_scan"}, "is_disabled": 0, "fusion_lat": 0.0, "name": "6fe60b360ba260062379cfdfac12b33e", "fusion_lon": 0.0}, {"is_reserved": 0, "type": "electric_scooter", "bike_id": "2d9d4b02da628c5c1e2a4ed7e34a9db5", "lat": 38.876569333333336, "lon": -77.02075233333333, "rental_uris": {"android": "https://dc.lft.to/lastmile_qr_scan", "ios": "https://dc.lft.to/lastmile_qr_scan"}, "is_disabled": 0, "fusion_lat": 0.0, "name": "2d9d4b02da628c5c1e2a4ed7e34a9db5", "fusion_lon": 0.0}, {"is_reserved": 0, "type": "electric_scooter", "bike_id": "c2d7e5d695354aa027cc2ca00e48bb30", "lat": 38.92614316666667, "lon": -77.0242325, "rental_uris": {"android": "https://dc.lft.to/lastmile_qr_scan", "ios": "https://dc.lft.to/lastmile_qr_scan"}, "is_disabled": 0, "fusion_lat": 0.0, "name": "c2d7e5d695354aa027cc2ca00e48bb30", "fusion_lon": 0.0}, {"is_reserved": 0, "type": "electric_scooter", "bike_id": "c1431dc41c15e07a4ce8310547d3e09a", "lat": 38.91267366666667, "lon": -77.03179466666667, "rental_uris": {"android": "https://dc.lft.to/lastmile_qr_scan", "ios": "https://dc.lft.to/lastmile_qr_scan"}, "is_disabled": 0, "fusion_lat": 0.0, "name": "c1431dc41c15e07a4ce8310547d3e09a", "fusion_lon": 0.0}, {"is_reserved": 0, "type": "electric_scooter", "bike_id": "75aa3f620d51f339da443b8e48988521", "lat": 38.876631, "lon": -77.00576666666667, "rental_uris": {"android": "https://dc.lft.to/lastmile_qr_scan", "ios": "https://dc.lft.to/lastmile_qr_scan"}, "is_disabled": 0, "fusion_lat": 0.0, "name": "75aa3f620d51f339da443b8e48988521", "fusion_lon": 0.0}, {"is_reserved": 0, "type": "electric_scooter", "bike_id": "499538b099f42046e9b0851f1b0e60c8", "lat": 38.89815566666667, "lon": -77.02943033333334, "rental_uris": {"android": "https://dc.lft.to/lastmile_qr_scan", "ios": "https://dc.lft.to/lastmile_qr_scan"}, "is_disabled": 0, "fusion_lat": 0.0, "name": "499538b099f42046e9b0851f1b0e60c8", "fusion_lon": 0.0}, {"is_reserved": 0, "type": "electric_scooter", "bike_id": "623436c81d80c223e40d8812bbef9062", "lat": 38.914143333333335, "lon": -77.01881933333334, "rental_uris": {"android": "https://dc.lft.to/lastmile_qr_scan", "ios": "https://dc.lft.to/lastmile_qr_scan"}, "is_disabled": 0, "fusion_lat": 0.0, "name": "623436c81d80c223e40d8812bbef9062", "fusion_lon": 0.0}, {"is_reserved": 0, "type": "electric_scooter", "bike_id": "9b6ac34f06d0b45e1da8b93f74b349cc", "lat": 38.87703416666667, "lon": -77.01839066666666, "rental_uris": {"android": "https://dc.lft.to/lastmile_qr_scan", "ios": "https://dc.lft.to/lastmile_qr_scan"}, "is_disabled": 0, "fusion_lat": 0.0, "name": "9b6ac34f06d0b45e1da8b93f74b349cc", "fusion_lon": 0.0}, {"is_reserved": 0, "type": "electric_scooter", "bike_id": "70622a29d079b9df6107cd431b49d7f0", "lat": 38.95183683333333, "lon": -77.029302, "rental_uris": {"android": "https://dc.lft.to/lastmile_qr_scan", "ios": "https://dc.lft.to/lastmile_qr_scan"}, "is_disabled": 0, "fusion_lat": 0.0, "name": "70622a29d079b9df6107cd431b49d7f0", "fusion_lon": 0.0}, {"is_reserved": 0, "type": "electric_scooter", "bike_id": "514e3aca6ad4fe102cac61a061bf6c26", "lat": 38.86089483333333, "lon": -76.981015, "rental_uris": {"android": "https://dc.lft.to/lastmile_qr_scan", "ios": "https://dc.lft.to/lastmile_qr_scan"}, "is_disabled": 0, "fusion_lat": 0.0, "name": "514e3aca6ad4fe102cac61a061bf6c26", "fusion_lon": 0.0}, {"is_reserved": 0, "type": "electric_scooter", "bike_id": "da616ffea3380bb6bcbf8ea500e3435a", "lat": 38.89553166666666, "lon": -77.03947083333334, "rental_uris": {"android": "https://dc.lft.to/lastmile_qr_scan", "ios": "https://dc.lft.to/lastmile_qr_scan"}, "is_disabled": 0, "fusion_lat": 0.0, "name": "da616ffea3380bb6bcbf8ea500e3435a", "fusion_lon": 0.0}, {"is_reserved": 0, "type": "electric_scooter", "bike_id": "e44702ded8d0df0434de55b4a859b42b", "lat": 38.93018466666667, "lon": -77.02334366666666, "rental_uris": {"android": "https://dc.lft.to/lastmile_qr_scan", "ios": "https://dc.lft.to/lastmile_qr_scan"}, "is_disabled": 0, "fusion_lat": 0.0, "name": "e44702ded8d0df0434de55b4a859b42b", "fusion_lon": 0.0}, {"is_reserved": 0, "type": "electric_bike", "bike_id": "ceb8739d673a0aa471c40484118413ed", "lat": 38.9359715, "lon": -77.021169, "rental_uris": {"android": "https://dc.lft.to/lastmile_qr_scan", "ios": "https://dc.lft.to/lastmile_qr_scan"}, "is_disabled": 0, "fusion_lat": 0.0, "name": "ceb8739d673a0aa471c40484118413ed", "fusion_lon": 0.0}, {"is_reserved": 0, "type": "electric_scooter", "bike_id": "cec4966acd32ef61bb8d3517fed11a35", "lat": 38.91615016666667, "lon": -77.02306916666667, "rental_uris": {"android": "https://dc.lft.to/lastmile_qr_scan", "ios": "https://dc.lft.to/lastmile_qr_scan"}, "is_disabled": 0, "fusion_lat": 0.0, "name": "cec4966acd32ef61bb8d3517fed11a35", "fusion_lon": 0.0}, {"is_reserved": 0, "type": "electric_scooter", "bike_id": "13fe0fa9c6d955b527e4a6f76807b9a0", "lat": 38.925638666666664, "lon": -77.022854, "rental_uris": {"android": "https://dc.lft.to/lastmile_qr_scan", "ios": "https://dc.lft.to/lastmile_qr_scan"}, "is_disabled": 0, "fusion_lat": 0.0, "name": "13fe0fa9c6d955b527e4a6f76807b9a0", "fusion_lon": 0.0}, {"is_reserved": 0, "type": "electric_scooter", "bike_id": "db4cec04d91fa2f3d506ea9561f68776", "lat": 38.91923466666667, "lon": -77.02484066666666, "rental_uris": {"android": "https://dc.lft.to/lastmile_qr_scan", "ios": "https://dc.lft.to/lastmile_qr_scan"}, "is_disabled": 0, "fusion_lat": 0.0, "name": "db4cec04d91fa2f3d506ea9561f68776", "fusion_lon": 0.0}, {"is_reserved": 0, "type": "electric_scooter", "bike_id": "795f5a6df62e51a18a8f0e79b342b1eb", "lat": 38.93349033333333, "lon": -77.02415716666667, "rental_uris": {"android": "https://dc.lft.to/lastmile_qr_scan", "ios": "https://dc.lft.to/lastmile_qr_scan"}, "is_disabled": 0, "fusion_lat": 0.0, "name": "795f5a6df62e51a18a8f0e79b342b1eb", "fusion_lon": 0.0}, {"is_reserved": 0, "type": "electric_bike", "bike_id": "972cdf493579e7684a8eb40ebd4a93af", "lat": 38.883918, "lon": -76.95444683333334, "rental_uris": {"android": "https://dc.lft.to/lastmile_qr_scan", "ios": "https://dc.lft.to/lastmile_qr_scan"}, "is_disabled": 0, "fusion_lat": 0.0, "name": "972cdf493579e7684a8eb40ebd4a93af", "fusion_lon": 0.0}, {"is_reserved": 0, "type": "electric_bike", "bike_id": "bf7a4b9ae7c61a81394150f10f945935", "lat": 38.944949333333334, "lon": -77.0067965, "rental_uris": {"android": "https://dc.lft.to/lastmile_qr_scan", "ios": "https://dc.lft.to/lastmile_qr_scan"}, "is_disabled": 0, "fusion_lat": 0.0, "name": "bf7a4b9ae7c61a81394150f10f945935", "fusion_lon": 0.0}, {"is_reserved": 0, "type": "electric_scooter", "bike_id": "94774e4a56b2854d941f61f7850ac951", "lat": 38.904877, "lon": -77.041907, "rental_uris": {"android": "https://dc.lft.to/lastmile_qr_scan", "ios": "https://dc.lft.to/lastmile_qr_scan"}, "is_disabled": 0, "fusion_lat": 0.0, "name": "94774e4a56b2854d941f61f7850ac951", "fusion_lon": 0.0}, {"is_reserved": 0, "type": "electric_bike", "bike_id": "7c6bfa71d2d97fa6ed0f796f155c3a87", "lat": 38.832318666666666, "lon": -76.94617283333334, "rental_uris": {"android": "https://dc.lft.to/lastmile_qr_scan", "ios": "https://dc.lft.to/lastmile_qr_scan"}, "is_disabled": 0, "fusion_lat": 0.0, "name": "7c6bfa71d2d97fa6ed0f796f155c3a87", "fusion_lon": 0.0}, {"is_reserved": 0, "type": "electric_bike", "bike_id": "46abaa19df58a9b1042c7c4ea00fea60", "lat": 38.88239633333333, "lon": -77.10933783333333, "rental_uris": {"android": "https://dc.lft.to/lastmile_qr_scan", "ios": "https://dc.lft.to/lastmile_qr_scan"}, "is_disabled": 0, "fusion_lat": 0.0, "name": "46abaa19df58a9b1042c7c4ea00fea60", "fusion_lon": 0.0}, {"is_reserved": 0, "type": "electric_bike", "bike_id": "303cd7c8928da3664f022e586b4bd03c", "lat": 38.9985995, "lon": -77.02913366666667, "rental_uris": {"android": "https://dc.lft.to/lastmile_qr_scan", "ios": "https://dc.lft.to/lastmile_qr_scan"}, "is_disabled": 0, "fusion_lat": 0.0, "name": "303cd7c8928da3664f022e586b4bd03c", "fusion_lon": 0.0}, {"is_reserved": 0, "type": "electric_scooter", "bike_id": "d78680306408ade87451c7bd3f7310ce", "lat": 38.9051705, "lon": -77.02598716666667, "rental_uris": {"android": "https://dc.lft.to/lastmile_qr_scan", "ios": "https://dc.lft.to/lastmile_qr_scan"}, "is_disabled": 0, "fusion_lat": 0.0, "name": "d78680306408ade87451c7bd3f7310ce", "fusion_lon": 0.0}, {"is_reserved": 0, "type": "electric_scooter", "bike_id": "a9551e0f565086d591dbb458e4d0e837", "lat": 38.9233315, "lon": -77.026946, "rental_uris": {"android": "https://dc.lft.to/lastmile_qr_scan", "ios": "https://dc.lft.to/lastmile_qr_scan"}, "is_disabled": 0, "fusion_lat": 0.0, "name": "a9551e0f565086d591dbb458e4d0e837", "fusion_lon": 0.0}, {"is_reserved": 0, "type": "electric_scooter", "bike_id": "2b64b0898a0571f4c9860d39950aa804", "lat": 38.922469666666665, "lon": -77.03068233333333, "rental_uris": {"android": "https://dc.lft.to/lastmile_qr_scan", "ios": "https://dc.lft.to/lastmile_qr_scan"}, "is_disabled": 0, "fusion_lat": 0.0, "name": "2b64b0898a0571f4c9860d39950aa804", "fusion_lon": 0.0}, {"is_reserved": 0, "type": "electric_bike", "bike_id": "884a35cf12a416db7f8c659c430fffff", "lat": 38.82340716666667, "lon": -77.0582685, "rental_uris": {"android": "https://dc.lft.to/lastmile_qr_scan", "ios": "https://dc.lft.to/lastmile_qr_scan"}, "is_disabled": 0, "fusion_lat": 0.0, "name": "884a35cf12a416db7f8c659c430fffff", "fusion_lon": 0.0}, {"is_reserved": 0, "type": "electric_scooter", "bike_id": "96597fcf81241f5b3d540cf2965b5bb0", "lat": 38.944917, "lon": -77.00742166666667, "rental_uris": {"android": "https://dc.lft.to/lastmile_qr_scan", "ios": "https://dc.lft.to/lastmile_qr_scan"}, "is_disabled": 0, "fusion_lat": 0.0, "name": "96597fcf81241f5b3d540cf2965b5bb0", "fusion_lon": 0.0}, {"is_reserved": 0, "type": "electric_scooter", "bike_id": "3a36d31fa17fbbe48aebd44f1297bcb2", "lat": 38.88763683333333, "lon": -77.00039116666666, "rental_uris": {"android": "https://dc.lft.to/lastmile_qr_scan", "ios": "https://dc.lft.to/lastmile_qr_scan"}, "is_disabled": 0, "fusion_lat": 0.0, "name": "3a36d31fa17fbbe48aebd44f1297bcb2", "fusion_lon": 0.0}, {"is_reserved": 0, "type": "electric_scooter", "bike_id": "b358a6601cb9ef6bf3a1857ff9fcdfa0", "lat": 38.940911, "lon": -77.02971283333333, "rental_uris": {"android": "https://dc.lft.to/lastmile_qr_scan", "ios": "https://dc.lft.to/lastmile_qr_scan"}, "is_disabled": 0, "fusion_lat": 0.0, "name": "b358a6601cb9ef6bf3a1857ff9fcdfa0", "fusion_lon": 0.0}, {"is_reserved": 0, "type": "electric_scooter", "bike_id": "dfb0ee3434c848b60e09c7cd97d89a5c", "lat": 38.91773933333333, "lon": -77.02307866666666, "rental_uris": {"android": "https://dc.lft.to/lastmile_qr_scan", "ios": "https://dc.lft.to/lastmile_qr_scan"}, "is_disabled": 0, "fusion_lat": 0.0, "name": "dfb0ee3434c848b60e09c7cd97d89a5c", "fusion_lon": 0.0}, {"is_reserved": 0, "type": "electric_scooter", "bike_id": "676ebb67a4a5d17019cc18af621dbfd9", "lat": 38.905704666666665, "lon": -77.01845283333333, "rental_uris": {"android": "https://dc.lft.to/lastmile_qr_scan", "ios": "https://dc.lft.to/lastmile_qr_scan"}, "is_disabled": 0, "fusion_lat": 0.0, "name": "676ebb67a4a5d17019cc18af621dbfd9", "fusion_lon": 0.0}, {"is_reserved": 0, "type": "electric_scooter", "bike_id": "2f628fa0094e0c8829d5f44c2642045a", "lat": 38.925386, "lon": -77.05564633333333, "rental_uris": {"android": "https://dc.lft.to/lastmile_qr_scan", "ios": "https://dc.lft.to/lastmile_qr_scan"}, "is_disabled": 0, "fusion_lat": 0.0, "name": "2f628fa0094e0c8829d5f44c2642045a", "fusion_lon": 0.0}, {"is_reserved": 0, "type": "electric_scooter", "bike_id": "077b9fe94a2fdf76e73313d68b4d6220", "lat": 38.917330666666665, "lon": -77.041721, "rental_uris": {"android": "https://dc.lft.to/lastmile_qr_scan", "ios": "https://dc.lft.to/lastmile_qr_scan"}, "is_disabled": 0, "fusion_lat": 0.0, "name": "077b9fe94a2fdf76e73313d68b4d6220", "fusion_lon": 0.0}, {"is_reserved": 0, "type": "electric_scooter", "bike_id": "d5ee3f6c2554beeb941452cb3c3f11ab", "lat": 38.901683166666665, "lon": -77.04669666666666, "rental_uris": {"android": "https://dc.lft.to/lastmile_qr_scan", "ios": "https://dc.lft.to/lastmile_qr_scan"}, "is_disabled": 0, "fusion_lat": 0.0, "name": "d5ee3f6c2554beeb941452cb3c3f11ab", "fusion_lon": 0.0}, {"is_reserved": 0, "type": "electric_scooter", "bike_id": "f12e1e0f7d2091778dbb5f12b271d7f0", "lat": 38.892566, "lon": -76.94137183333333, "rental_uris": {"android": "https://dc.lft.to/lastmile_qr_scan", "ios": "https://dc.lft.to/lastmile_qr_scan"}, "is_disabled": 0, "fusion_lat": 0.0, "name": "f12e1e0f7d2091778dbb5f12b271d7f0", "fusion_lon": 0.0}, {"is_reserved": 0, "type": "electric_scooter", "bike_id": "c53eaa6570016c40e423157c229c7a3c", "lat": 38.93247133333333, "lon": -77.0387135, "rental_uris": {"android": "https://dc.lft.to/lastmile_qr_scan", "ios": "https://dc.lft.to/lastmile_qr_scan"}, "is_disabled": 0, "fusion_lat": 0.0, "name": "c53eaa6570016c40e423157c229c7a3c", "fusion_lon": 0.0}, {"is_reserved": 0, "type": "electric_scooter", "bike_id": "da03c0176c2a4026dc69c589c2b62c04", "lat": 38.91693316666667, "lon": -77.0243575, "rental_uris": {"android": "https://dc.lft.to/lastmile_qr_scan", "ios": "https://dc.lft.to/lastmile_qr_scan"}, "is_disabled": 0, "fusion_lat": 0.0, "name": "da03c0176c2a4026dc69c589c2b62c04", "fusion_lon": 0.0}, {"is_reserved": 0, "type": "electric_scooter", "bike_id": "05c3bd294fdb219a8ba7de75ed267df9", "lat": 38.914077, "lon": -77.04677883333333, "rental_uris": {"android": "https://dc.lft.to/lastmile_qr_scan", "ios": "https://dc.lft.to/lastmile_qr_scan"}, "is_disabled": 0, "fusion_lat": 0.0, "name": "05c3bd294fdb219a8ba7de75ed267df9", "fusion_lon": 0.0}, {"is_reserved": 0, "type": "electric_scooter", "bike_id": "2e83a55e55f55d4bdcf33eff6186fa36", "lat": 38.90459166666667, "lon": -77.01688033333333, "rental_uris": {"android": "https://dc.lft.to/lastmile_qr_scan", "ios": "https://dc.lft.to/lastmile_qr_scan"}, "is_disabled": 0, "fusion_lat": 0.0, "name": "2e83a55e55f55d4bdcf33eff6186fa36", "fusion_lon": 0.0}, {"is_reserved": 0, "type": "electric_scooter", "bike_id": "1c2285a956abbd024b661dd4a533935a", "lat": 38.91529383333334, "lon": -77.0199905, "rental_uris": {"android": "https://dc.lft.to/lastmile_qr_scan", "ios": "https://dc.lft.to/lastmile_qr_scan"}, "is_disabled": 0, "fusion_lat": 0.0, "name": "1c2285a956abbd024b661dd4a533935a", "fusion_lon": 0.0}, {"is_reserved": 0, "type": "electric_scooter", "bike_id": "c68a6cdfd8ab1599d8ac348c6f82be6d", "lat": 38.89985766666667, "lon": -77.02295816666667, "rental_uris": {"android": "https://dc.lft.to/lastmile_qr_scan", "ios": "https://dc.lft.to/lastmile_qr_scan"}, "is_disabled": 0, "fusion_lat": 0.0, "name": "c68a6cdfd8ab1599d8ac348c6f82be6d", "fusion_lon": 0.0}, {"is_reserved": 0, "type": "electric_scooter", "bike_id": "0067dcdfa27608061bf719d97ff68258", "lat": 38.934681, "lon": -77.04156983333333, "rental_uris": {"android": "https://dc.lft.to/lastmile_qr_scan", "ios": "https://dc.lft.to/lastmile_qr_scan"}, "is_disabled": 0, "fusion_lat": 0.0, "name": "0067dcdfa27608061bf719d97ff68258", "fusion_lon": 0.0}, {"is_reserved": 0, "type": "electric_scooter", "bike_id": "a500a892c26c3ddc1fa836ba7bf45141", "lat": 38.958279833333336, "lon": -77.07644433333333, "rental_uris": {"android": "https://dc.lft.to/lastmile_qr_scan", "ios": "https://dc.lft.to/lastmile_qr_scan"}, "is_disabled": 0, "fusion_lat": 0.0, "name": "a500a892c26c3ddc1fa836ba7bf45141", "fusion_lon": 0.0}, {"is_reserved": 0, "type": "electric_bike", "bike_id": "7dbe5977da04b5ea77c0bbf915bc7193", "lat": 38.989082833333335, "lon": -77.02545266666667, "rental_uris": {"android": "https://dc.lft.to/lastmile_qr_scan", "ios": "https://dc.lft.to/lastmile_qr_scan"}, "is_disabled": 0, "fusion_lat": 0.0, "name": "7dbe5977da04b5ea77c0bbf915bc7193", "fusion_lon": 0.0}, {"is_reserved": 0, "type": "electric_scooter", "bike_id": "0a0ebffafb4facb72502a4d6ecb04741", "lat": 38.892267, "lon": -77.04996016666666, "rental_uris": {"android": "https://dc.lft.to/lastmile_qr_scan", "ios": "https://dc.lft.to/lastmile_qr_scan"}, "is_disabled": 0, "fusion_lat": 0.0, "name": "0a0ebffafb4facb72502a4d6ecb04741", "fusion_lon": 0.0}, {"is_reserved": 0, "type": "electric_scooter", "bike_id": "8472a9838830936471bd614684d0fd3e", "lat": 38.91471133333334, "lon": -77.0027005, "rental_uris": {"android": "https://dc.lft.to/lastmile_qr_scan", "ios": "https://dc.lft.to/lastmile_qr_scan"}, "is_disabled": 0, "fusion_lat": 0.0, "name": "8472a9838830936471bd614684d0fd3e", "fusion_lon": 0.0}, {"is_reserved": 0, "type": "electric_scooter", "bike_id": "b5c3e285c831f3e707b84612eaa804d4", "lat": 38.9274835, "lon": -77.02105633333333, "rental_uris": {"android": "https://dc.lft.to/lastmile_qr_scan", "ios": "https://dc.lft.to/lastmile_qr_scan"}, "is_disabled": 0, "fusion_lat": 0.0, "name": "b5c3e285c831f3e707b84612eaa804d4", "fusion_lon": 0.0}, {"is_reserved": 0, "type": "electric_bike", "bike_id": "725eb5307d668ec6e2a7c1671cf08f55", "lat": 38.8984495, "lon": -77.11863233333334, "rental_uris": {"android": "https://dc.lft.to/lastmile_qr_scan", "ios": "https://dc.lft.to/lastmile_qr_scan"}, "is_disabled": 0, "fusion_lat": 0.0, "name": "725eb5307d668ec6e2a7c1671cf08f55", "fusion_lon": 0.0}, {"is_reserved": 0, "type": "electric_scooter", "bike_id": "aa2446ed6ffc04a6fcdcbf7d414cedbb", "lat": 38.90416066666667, "lon": -76.9906535, "rental_uris": {"android": "https://dc.lft.to/lastmile_qr_scan", "ios": "https://dc.lft.to/lastmile_qr_scan"}, "is_disabled": 0, "fusion_lat": 0.0, "name": "aa2446ed6ffc04a6fcdcbf7d414cedbb", "fusion_lon": 0.0}, {"is_reserved": 0, "type": "electric_scooter", "bike_id": "20c43f8bbe93abdda595bf8a63d04a6e", "lat": 38.9004275, "lon": -77.02393683333334, "rental_uris": {"android": "https://dc.lft.to/lastmile_qr_scan", "ios": "https://dc.lft.to/lastmile_qr_scan"}, "is_disabled": 0, "fusion_lat": 0.0, "name": "20c43f8bbe93abdda595bf8a63d04a6e", "fusion_lon": 0.0}, {"is_reserved": 0, "type": "electric_scooter", "bike_id": "8908718c06238599fe2798ff010f436e", "lat": 38.90639183333333, "lon": -77.07562066666667, "rental_uris": {"android": "https://dc.lft.to/lastmile_qr_scan", "ios": "https://dc.lft.to/lastmile_qr_scan"}, "is_disabled": 0, "fusion_lat": 0.0, "name": "8908718c06238599fe2798ff010f436e", "fusion_lon": 0.0}, {"is_reserved": 0, "type": "electric_bike", "bike_id": "106ac98a2e8368d61cb1312bf0a4ce96", "lat": 38.927861166666666, "lon": -76.9991315, "rental_uris": {"android": "https://dc.lft.to/lastmile_qr_scan", "ios": "https://dc.lft.to/lastmile_qr_scan"}, "is_disabled": 0, "fusion_lat": 0.0, "name": "106ac98a2e8368d61cb1312bf0a4ce96", "fusion_lon": 0.0}, {"is_reserved": 0, "type": "electric_scooter", "bike_id": "df8efb3d9d398d002d301552fdec4f7b", "lat": 38.8601855, "lon": -76.97000516666667, "rental_uris": {"android": "https://dc.lft.to/lastmile_qr_scan", "ios": "https://dc.lft.to/lastmile_qr_scan"}, "is_disabled": 0, "fusion_lat": 0.0, "name": "df8efb3d9d398d002d301552fdec4f7b", "fusion_lon": 0.0}, {"is_reserved": 0, "type": "electric_scooter", "bike_id": "29148a7b7249f229b87674ea2c4d39e2", "lat": 38.9245035, "lon": -77.03301566666667, "rental_uris": {"android": "https://dc.lft.to/lastmile_qr_scan", "ios": "https://dc.lft.to/lastmile_qr_scan"}, "is_disabled": 0, "fusion_lat": 0.0, "name": "29148a7b7249f229b87674ea2c4d39e2", "fusion_lon": 0.0}, {"is_reserved": 0, "type": "electric_scooter", "bike_id": "d33252548eaa71f48f3e475f83de602c", "lat": 38.91101366666667, "lon": -77.02720083333334, "rental_uris": {"android": "https://dc.lft.to/lastmile_qr_scan", "ios": "https://dc.lft.to/lastmile_qr_scan"}, "is_disabled": 0, "fusion_lat": 0.0, "name": "d33252548eaa71f48f3e475f83de602c", "fusion_lon": 0.0}, {"is_reserved": 0, "type": "electric_scooter", "bike_id": "6979c69e15919e9e7d29d93126548a32", "lat": 38.90734283333333, "lon": -77.03299166666666, "rental_uris": {"android": "https://dc.lft.to/lastmile_qr_scan", "ios": "https://dc.lft.to/lastmile_qr_scan"}, "is_disabled": 0, "fusion_lat": 0.0, "name": "6979c69e15919e9e7d29d93126548a32", "fusion_lon": 0.0}, {"is_reserved": 0, "type": "electric_scooter", "bike_id": "b4c202c2302acb54b1c2de738406e522", "lat": 38.90848366666667, "lon": -77.023578, "rental_uris": {"android": "https://dc.lft.to/lastmile_qr_scan", "ios": "https://dc.lft.to/lastmile_qr_scan"}, "is_disabled": 0, "fusion_lat": 0.0, "name": "b4c202c2302acb54b1c2de738406e522", "fusion_lon": 0.0}, {"is_reserved": 0, "type": "electric_scooter", "bike_id": "23a4f5385213ae2b91e285e19b2f036e", "lat": 38.9015385, "lon": -76.97414066666667, "rental_uris": {"android": "https://dc.lft.to/lastmile_qr_scan", "ios": "https://dc.lft.to/lastmile_qr_scan"}, "is_disabled": 0, "fusion_lat": 0.0, "name": "23a4f5385213ae2b91e285e19b2f036e", "fusion_lon": 0.0}, {"is_reserved": 0, "type": "electric_scooter", "bike_id": "cde720d3a2e82032b4f44d99410a51a9", "lat": 38.901941, "lon": -77.023659, "rental_uris": {"android": "https://dc.lft.to/lastmile_qr_scan", "ios": "https://dc.lft.to/lastmile_qr_scan"}, "is_disabled": 0, "fusion_lat": 0.0, "name": "cde720d3a2e82032b4f44d99410a51a9", "fusion_lon": 0.0}, {"is_reserved": 0, "type": "electric_scooter", "bike_id": "4066f876999b04dfae31a11f459ec3fd", "lat": 38.91810866666667, "lon": -77.03291966666667, "rental_uris": {"android": "https://dc.lft.to/lastmile_qr_scan", "ios": "https://dc.lft.to/lastmile_qr_scan"}, "is_disabled": 0, "fusion_lat": 0.0, "name": "4066f876999b04dfae31a11f459ec3fd", "fusion_lon": 0.0}, {"is_reserved": 0, "type": "electric_scooter", "bike_id": "74e759e28d7376db27129080f12c07ed", "lat": 38.9225665, "lon": -77.04255616666667, "rental_uris": {"android": "https://dc.lft.to/lastmile_qr_scan", "ios": "https://dc.lft.to/lastmile_qr_scan"}, "is_disabled": 0, "fusion_lat": 0.0, "name": "74e759e28d7376db27129080f12c07ed", "fusion_lon": 0.0}, {"is_reserved": 0, "type": "electric_scooter", "bike_id": "8811b5b6d928a6362a403c391a7136c6", "lat": 38.935405, "lon": -77.023492, "rental_uris": {"android": "https://dc.lft.to/lastmile_qr_scan", "ios": "https://dc.lft.to/lastmile_qr_scan"}, "is_disabled": 0, "fusion_lat": 0.0, "name": "8811b5b6d928a6362a403c391a7136c6", "fusion_lon": 0.0}, {"is_reserved": 0, "type": "electric_scooter", "bike_id": "40f4af3d6ca9cc2a80556739c54dc13c", "lat": 38.956509833333335, "lon": -77.01313666666667, "rental_uris": {"android": "https://dc.lft.to/lastmile_qr_scan", "ios": "https://dc.lft.to/lastmile_qr_scan"}, "is_disabled": 0, "fusion_lat": 0.0, "name": "40f4af3d6ca9cc2a80556739c54dc13c", "fusion_lon": 0.0}, {"is_reserved": 0, "type": "electric_scooter", "bike_id": "20092fb72a4edcce8eab193d75e5c3f1", "lat": 38.9168755, "lon": -77.02895716666667, "rental_uris": {"android": "https://dc.lft.to/lastmile_qr_scan", "ios": "https://dc.lft.to/lastmile_qr_scan"}, "is_disabled": 0, "fusion_lat": 0.0, "name": "20092fb72a4edcce8eab193d75e5c3f1", "fusion_lon": 0.0}, {"is_reserved": 0, "type": "electric_scooter", "bike_id": "9a1d8da7e0f89649a5cf4abd776686bf", "lat": 38.92233683333333, "lon": -77.04126533333333, "rental_uris": {"android": "https://dc.lft.to/lastmile_qr_scan", "ios": "https://dc.lft.to/lastmile_qr_scan"}, "is_disabled": 0, "fusion_lat": 0.0, "name": "9a1d8da7e0f89649a5cf4abd776686bf", "fusion_lon": 0.0}, {"is_reserved": 0, "type": "electric_scooter", "bike_id": "444f09b1df1bf96e6a8fcbab07845829", "lat": 38.879112166666665, "lon": -77.0073725, "rental_uris": {"android": "https://dc.lft.to/lastmile_qr_scan", "ios": "https://dc.lft.to/lastmile_qr_scan"}, "is_disabled": 0, "fusion_lat": 0.0, "name": "444f09b1df1bf96e6a8fcbab07845829", "fusion_lon": 0.0}, {"is_reserved": 0, "type": "electric_scooter", "bike_id": "234b7d1c275db99d0dbe78c767fe4de5", "lat": 38.901656333333335, "lon": -76.93020333333334, "rental_uris": {"android": "https://dc.lft.to/lastmile_qr_scan", "ios": "https://dc.lft.to/lastmile_qr_scan"}, "is_disabled": 0, "fusion_lat": 0.0, "name": "234b7d1c275db99d0dbe78c767fe4de5", "fusion_lon": 0.0}, {"is_reserved": 0, "type": "electric_bike", "bike_id": "8b09eb473cb23b24ac966c2223cc832e", "lat": 38.888414833333336, "lon": -76.957403, "rental_uris": {"android": "https://dc.lft.to/lastmile_qr_scan", "ios": "https://dc.lft.to/lastmile_qr_scan"}, "is_disabled": 0, "fusion_lat": 0.0, "name": "8b09eb473cb23b24ac966c2223cc832e", "fusion_lon": 0.0}, {"is_reserved": 0, "type": "electric_scooter", "bike_id": "0d68e8a9d36ab1d94c5ceacdd544b988", "lat": 38.9170835, "lon": -77.0323195, "rental_uris": {"android": "https://dc.lft.to/lastmile_qr_scan", "ios": "https://dc.lft.to/lastmile_qr_scan"}, "is_disabled": 0, "fusion_lat": 0.0, "name": "0d68e8a9d36ab1d94c5ceacdd544b988", "fusion_lon": 0.0}, {"is_reserved": 0, "type": "electric_scooter", "bike_id": "57f8306ae1563e9a95996a876a686d00", "lat": 38.9129935, "lon": -77.0269015, "rental_uris": {"android": "https://dc.lft.to/lastmile_qr_scan", "ios": "https://dc.lft.to/lastmile_qr_scan"}, "is_disabled": 0, "fusion_lat": 0.0, "name": "57f8306ae1563e9a95996a876a686d00", "fusion_lon": 0.0}, {"is_reserved": 0, "type": "electric_scooter", "bike_id": "8b0b3667ac7af91329e9f2292ba2a9ca", "lat": 38.918857833333334, "lon": -77.027107, "rental_uris": {"android": "https://dc.lft.to/lastmile_qr_scan", "ios": "https://dc.lft.to/lastmile_qr_scan"}, "is_disabled": 0, "fusion_lat": 0.0, "name": "8b0b3667ac7af91329e9f2292ba2a9ca", "fusion_lon": 0.0}, {"is_reserved": 0, "type": "electric_scooter", "bike_id": "62a5dccde5d25a4e28ae7821ea82a339", "lat": 38.928938, "lon": -77.02551783333334, "rental_uris": {"android": "https://dc.lft.to/lastmile_qr_scan", "ios": "https://dc.lft.to/lastmile_qr_scan"}, "is_disabled": 0, "fusion_lat": 0.0, "name": "62a5dccde5d25a4e28ae7821ea82a339", "fusion_lon": 0.0}, {"is_reserved": 0, "type": "electric_scooter", "bike_id": "f9974ceea90a6d157cdf1d439e81f0f8", "lat": 38.93588716666667, "lon": -77.05875716666667, "rental_uris": {"android": "https://dc.lft.to/lastmile_qr_scan", "ios": "https://dc.lft.to/lastmile_qr_scan"}, "is_disabled": 0, "fusion_lat": 0.0, "name": "f9974ceea90a6d157cdf1d439e81f0f8", "fusion_lon": 0.0}, {"is_reserved": 0, "type": "electric_scooter", "bike_id": "c0c12d23f47409f833385fdc1e3ea02b", "lat": 38.907598, "lon": -76.9989415, "rental_uris": {"android": "https://dc.lft.to/lastmile_qr_scan", "ios": "https://dc.lft.to/lastmile_qr_scan"}, "is_disabled": 0, "fusion_lat": 0.0, "name": "c0c12d23f47409f833385fdc1e3ea02b", "fusion_lon": 0.0}, {"is_reserved": 0, "type": "electric_bike", "bike_id": "dc4699938f5158c485e038e9628ea681", "lat": 38.807360333333335, "lon": -76.99257883333334, "rental_uris": {"android": "https://dc.lft.to/lastmile_qr_scan", "ios": "https://dc.lft.to/lastmile_qr_scan"}, "is_disabled": 0, "fusion_lat": 0.0, "name": "dc4699938f5158c485e038e9628ea681", "fusion_lon": 0.0}, {"is_reserved": 0, "type": "electric_scooter", "bike_id": "dc1e774bb81a64f0d962cf996a9e1096", "lat": 38.91608883333333, "lon": -77.0230895, "rental_uris": {"android": "https://dc.lft.to/lastmile_qr_scan", "ios": "https://dc.lft.to/lastmile_qr_scan"}, "is_disabled": 0, "fusion_lat": 0.0, "name": "dc1e774bb81a64f0d962cf996a9e1096", "fusion_lon": 0.0}, {"is_reserved": 0, "type": "electric_scooter", "bike_id": "4d2b4aa913a54e000b9daec60c86b0bf", "lat": 38.846286666666664, "lon": -76.98120366666667, "rental_uris": {"android": "https://dc.lft.to/lastmile_qr_scan", "ios": "https://dc.lft.to/lastmile_qr_scan"}, "is_disabled": 0, "fusion_lat": 0.0, "name": "4d2b4aa913a54e000b9daec60c86b0bf", "fusion_lon": 0.0}, {"is_reserved": 0, "type": "electric_scooter", "bike_id": "08036204a4d0f57f3634d03365700d52", "lat": 38.91932666666666, "lon": -77.028783, "rental_uris": {"android": "https://dc.lft.to/lastmile_qr_scan", "ios": "https://dc.lft.to/lastmile_qr_scan"}, "is_disabled": 0, "fusion_lat": 0.0, "name": "08036204a4d0f57f3634d03365700d52", "fusion_lon": 0.0}, {"is_reserved": 0, "type": "electric_scooter", "bike_id": "103cd14dc62c7d9ebf12b68849efbcf0", "lat": 38.91546983333333, "lon": -77.01211983333333, "rental_uris": {"android": "https://dc.lft.to/lastmile_qr_scan", "ios": "https://dc.lft.to/lastmile_qr_scan"}, "is_disabled": 0, "fusion_lat": 0.0, "name": "103cd14dc62c7d9ebf12b68849efbcf0", "fusion_lon": 0.0}, {"is_reserved": 0, "type": "electric_scooter", "bike_id": "6852ef0a7f54e9380da1544554fcba4c", "lat": 38.8973185, "lon": -77.00372266666666, "rental_uris": {"android": "https://dc.lft.to/lastmile_qr_scan", "ios": "https://dc.lft.to/lastmile_qr_scan"}, "is_disabled": 0, "fusion_lat": 0.0, "name": "6852ef0a7f54e9380da1544554fcba4c", "fusion_lon": 0.0}, {"is_reserved": 0, "type": "electric_scooter", "bike_id": "0e2efb061c2ed0dfe3c8e3f7d7609169", "lat": 38.91399533333333, "lon": -77.031833, "rental_uris": {"android": "https://dc.lft.to/lastmile_qr_scan", "ios": "https://dc.lft.to/lastmile_qr_scan"}, "is_disabled": 0, "fusion_lat": 0.0, "name": "0e2efb061c2ed0dfe3c8e3f7d7609169", "fusion_lon": 0.0}, {"is_reserved": 0, "type": "electric_scooter", "bike_id": "32cc8dd6d5e46c2a5994336c90427205", "lat": 38.92375333333333, "lon": -77.04313083333334, "rental_uris": {"android": "https://dc.lft.to/lastmile_qr_scan", "ios": "https://dc.lft.to/lastmile_qr_scan"}, "is_disabled": 0, "fusion_lat": 0.0, "name": "32cc8dd6d5e46c2a5994336c90427205", "fusion_lon": 0.0}, {"is_reserved": 0, "type": "electric_scooter", "bike_id": "1c7abfa4af111b589037e2dee7531b51", "lat": 38.91953516666667, "lon": -77.041705, "rental_uris": {"android": "https://dc.lft.to/lastmile_qr_scan", "ios": "https://dc.lft.to/lastmile_qr_scan"}, "is_disabled": 0, "fusion_lat": 0.0, "name": "1c7abfa4af111b589037e2dee7531b51", "fusion_lon": 0.0}, {"is_reserved": 0, "type": "electric_bike", "bike_id": "1e6ec27d8e2d6b8245a63a59a918b07c", "lat": 38.97419983333333, "lon": -77.01257883333334, "rental_uris": {"android": "https://dc.lft.to/lastmile_qr_scan", "ios": "https://dc.lft.to/lastmile_qr_scan"}, "is_disabled": 0, "fusion_lat": 0.0, "name": "1e6ec27d8e2d6b8245a63a59a918b07c", "fusion_lon": 0.0}, {"is_reserved": 0, "type": "electric_scooter", "bike_id": "c976c3f36a90a5c92aad7b049562c857", "lat": 38.90582533333333, "lon": -77.045213, "rental_uris": {"android": "https://dc.lft.to/lastmile_qr_scan", "ios": "https://dc.lft.to/lastmile_qr_scan"}, "is_disabled": 0, "fusion_lat": 0.0, "name": "c976c3f36a90a5c92aad7b049562c857", "fusion_lon": 0.0}, {"is_reserved": 0, "type": "electric_scooter", "bike_id": "8168ad55e84dfd95ecad13b0804bc7fa", "lat": 38.92675966666667, "lon": -77.01513466666667, "rental_uris": {"android": "https://dc.lft.to/lastmile_qr_scan", "ios": "https://dc.lft.to/lastmile_qr_scan"}, "is_disabled": 0, "fusion_lat": 0.0, "name": "8168ad55e84dfd95ecad13b0804bc7fa", "fusion_lon": 0.0}, {"is_reserved": 0, "type": "electric_scooter", "bike_id": "c79630f75754493e9f222c2aa48dbeff", "lat": 38.91344633333333, "lon": -77.06416666666667, "rental_uris": {"android": "https://dc.lft.to/lastmile_qr_scan", "ios": "https://dc.lft.to/lastmile_qr_scan"}, "is_disabled": 0, "fusion_lat": 0.0, "name": "c79630f75754493e9f222c2aa48dbeff", "fusion_lon": 0.0}, {"is_reserved": 0, "type": "electric_scooter", "bike_id": "8965a0b34a1af877a8947ef6ef47216d", "lat": 38.9156345, "lon": -77.02132066666667, "rental_uris": {"android": "https://dc.lft.to/lastmile_qr_scan", "ios": "https://dc.lft.to/lastmile_qr_scan"}, "is_disabled": 0, "fusion_lat": 0.0, "name": "8965a0b34a1af877a8947ef6ef47216d", "fusion_lon": 0.0}, {"is_reserved": 0, "type": "electric_scooter", "bike_id": "7710f2fc03e279751ad24700c6b6b994", "lat": 38.92505583333333, "lon": -77.0227315, "rental_uris": {"android": "https://dc.lft.to/lastmile_qr_scan", "ios": "https://dc.lft.to/lastmile_qr_scan"}, "is_disabled": 0, "fusion_lat": 0.0, "name": "7710f2fc03e279751ad24700c6b6b994", "fusion_lon": 0.0}, {"is_reserved": 0, "type": "electric_bike", "bike_id": "489fbdfbd75dbc1519cb7610f387651c", "lat": 38.87210283333334, "lon": -77.11739016666667, "rental_uris": {"android": "https://dc.lft.to/lastmile_qr_scan", "ios": "https://dc.lft.to/lastmile_qr_scan"}, "is_disabled": 0, "fusion_lat": 0.0, "name": "489fbdfbd75dbc1519cb7610f387651c", "fusion_lon": 0.0}, {"is_reserved": 0, "type": "electric_scooter", "bike_id": "073931a0f9085fbbb068079ec944ca95", "lat": 38.902572, "lon": -77.046719, "rental_uris": {"android": "https://dc.lft.to/lastmile_qr_scan", "ios": "https://dc.lft.to/lastmile_qr_scan"}, "is_disabled": 0, "fusion_lat": 0.0, "name": "073931a0f9085fbbb068079ec944ca95", "fusion_lon": 0.0}, {"is_reserved": 0, "type": "electric_scooter", "bike_id": "5fad7051250e2078b67ee527aea9b92d", "lat": 38.9196215, "lon": -77.01445933333333, "rental_uris": {"android": "https://dc.lft.to/lastmile_qr_scan", "ios": "https://dc.lft.to/lastmile_qr_scan"}, "is_disabled": 0, "fusion_lat": 0.0, "name": "5fad7051250e2078b67ee527aea9b92d", "fusion_lon": 0.0}, {"is_reserved": 0, "type": "electric_bike", "bike_id": "25af93b96a28eb4e52bb59f215e67f5b", "lat": 38.806725, "lon": -77.08758083333333, "rental_uris": {"android": "https://dc.lft.to/lastmile_qr_scan", "ios": "https://dc.lft.to/lastmile_qr_scan"}, "is_disabled": 0, "fusion_lat": 0.0, "name": "25af93b96a28eb4e52bb59f215e67f5b", "fusion_lon": 0.0}, {"is_reserved": 0, "type": "electric_bike", "bike_id": "931cd97aef6b2548852992fef1399a8f", "lat": 38.943245, "lon": -76.990142, "rental_uris": {"android": "https://dc.lft.to/lastmile_qr_scan", "ios": "https://dc.lft.to/lastmile_qr_scan"}, "is_disabled": 0, "fusion_lat": 0.0, "name": "931cd97aef6b2548852992fef1399a8f", "fusion_lon": 0.0}, {"is_reserved": 0, "type": "electric_scooter", "bike_id": "17fd7afb990af88707e30b3222ff1dfd", "lat": 38.906887833333336, "lon": -76.98500283333334, "rental_uris": {"android": "https://dc.lft.to/lastmile_qr_scan", "ios": "https://dc.lft.to/lastmile_qr_scan"}, "is_disabled": 0, "fusion_lat": 0.0, "name": "17fd7afb990af88707e30b3222ff1dfd", "fusion_lon": 0.0}, {"is_reserved": 0, "type": "electric_scooter", "bike_id": "13b61c069e1fc7d9ea287c3924f3647f", "lat": 38.90917816666666, "lon": -77.03198616666667, "rental_uris": {"android": "https://dc.lft.to/lastmile_qr_scan", "ios": "https://dc.lft.to/lastmile_qr_scan"}, "is_disabled": 0, "fusion_lat": 0.0, "name": "13b61c069e1fc7d9ea287c3924f3647f", "fusion_lon": 0.0}, {"is_reserved": 0, "type": "electric_scooter", "bike_id": "5c20df78fb204fc85c5c8d2252660884", "lat": 38.89856483333333, "lon": -76.97757333333334, "rental_uris": {"android": "https://dc.lft.to/lastmile_qr_scan", "ios": "https://dc.lft.to/lastmile_qr_scan"}, "is_disabled": 0, "fusion_lat": 0.0, "name": "5c20df78fb204fc85c5c8d2252660884", "fusion_lon": 0.0}, {"is_reserved": 0, "type": "electric_scooter", "bike_id": "caf1dec1a00f54075af7fb0b2dc512ce", "lat": 38.900407, "lon": -77.04316666666666, "rental_uris": {"android": "https://dc.lft.to/lastmile_qr_scan", "ios": "https://dc.lft.to/lastmile_qr_scan"}, "is_disabled": 0, "fusion_lat": 0.0, "name": "caf1dec1a00f54075af7fb0b2dc512ce", "fusion_lon": 0.0}, {"is_reserved": 0, "type": "electric_scooter", "bike_id": "b496788bec8ac048f7204b02759e555b", "lat": 38.914173166666664, "lon": -77.03139216666666, "rental_uris": {"android": "https://dc.lft.to/lastmile_qr_scan", "ios": "https://dc.lft.to/lastmile_qr_scan"}, "is_disabled": 0, "fusion_lat": 0.0, "name": "b496788bec8ac048f7204b02759e555b", "fusion_lon": 0.0}, {"is_reserved": 0, "type": "electric_scooter", "bike_id": "de349192e3c940afcd6ed1a1f57e4310", "lat": 38.916728666666664, "lon": -77.02973033333333, "rental_uris": {"android": "https://dc.lft.to/lastmile_qr_scan", "ios": "https://dc.lft.to/lastmile_qr_scan"}, "is_disabled": 0, "fusion_lat": 0.0, "name": "de349192e3c940afcd6ed1a1f57e4310", "fusion_lon": 0.0}, {"is_reserved": 0, "type": "electric_scooter", "bike_id": "3539f0473c376bc3754450c647d47adb", "lat": 38.938932333333334, "lon": -77.01764216666666, "rental_uris": {"android": "https://dc.lft.to/lastmile_qr_scan", "ios": "https://dc.lft.to/lastmile_qr_scan"}, "is_disabled": 0, "fusion_lat": 0.0, "name": "3539f0473c376bc3754450c647d47adb", "fusion_lon": 0.0}, {"is_reserved": 0, "type": "electric_bike", "bike_id": "2bae0e43d36bc82049d7d252ce69e173", "lat": 38.855978, "lon": -76.97454933333333, "rental_uris": {"android": "https://dc.lft.to/lastmile_qr_scan", "ios": "https://dc.lft.to/lastmile_qr_scan"}, "is_disabled": 0, "fusion_lat": 0.0, "name": "2bae0e43d36bc82049d7d252ce69e173", "fusion_lon": 0.0}, {"is_reserved": 0, "type": "electric_bike", "bike_id": "1428cc2e789a248108bf3fc71041099b", "lat": 38.863315666666665, "lon": -76.98720900000001, "rental_uris": {"android": "https://dc.lft.to/lastmile_qr_scan", "ios": "https://dc.lft.to/lastmile_qr_scan"}, "is_disabled": 0, "fusion_lat": 0.0, "name": "1428cc2e789a248108bf3fc71041099b", "fusion_lon": 0.0}, {"is_reserved": 0, "type": "electric_scooter", "bike_id": "c6a9fb2859b96be35f4cb63e0bd65921", "lat": 38.915602666666665, "lon": -77.02043683333333, "rental_uris": {"android": "https://dc.lft.to/lastmile_qr_scan", "ios": "https://dc.lft.to/lastmile_qr_scan"}, "is_disabled": 0, "fusion_lat": 0.0, "name": "c6a9fb2859b96be35f4cb63e0bd65921", "fusion_lon": 0.0}, {"is_reserved": 0, "type": "electric_scooter", "bike_id": "030c5a6d07517656d64c51534cf301b7", "lat": 38.957644, "lon": -77.01488216666667, "rental_uris": {"android": "https://dc.lft.to/lastmile_qr_scan", "ios": "https://dc.lft.to/lastmile_qr_scan"}, "is_disabled": 0, "fusion_lat": 0.0, "name": "030c5a6d07517656d64c51534cf301b7", "fusion_lon": 0.0}, {"is_reserved": 0, "type": "electric_scooter", "bike_id": "08fc98e25dbd6b11792d390c63be4bb6", "lat": 38.900338, "lon": -77.01207833333333, "rental_uris": {"android": "https://dc.lft.to/lastmile_qr_scan", "ios": "https://dc.lft.to/lastmile_qr_scan"}, "is_disabled": 0, "fusion_lat": 0.0, "name": "08fc98e25dbd6b11792d390c63be4bb6", "fusion_lon": 0.0}, {"is_reserved": 0, "type": "electric_scooter", "bike_id": "287bb97b07e74deb5c71d69cc9eb22a4", "lat": 38.914601833333336, "lon": -77.02283166666666, "rental_uris": {"android": "https://dc.lft.to/lastmile_qr_scan", "ios": "https://dc.lft.to/lastmile_qr_scan"}, "is_disabled": 0, "fusion_lat": 0.0, "name": "287bb97b07e74deb5c71d69cc9eb22a4", "fusion_lon": 0.0}, {"is_reserved": 0, "type": "electric_scooter", "bike_id": "e0786ea7aed6748411c9e7ed596d6dc6", "lat": 38.915590333333334, "lon": -77.04462516666666, "rental_uris": {"android": "https://dc.lft.to/lastmile_qr_scan", "ios": "https://dc.lft.to/lastmile_qr_scan"}, "is_disabled": 0, "fusion_lat": 0.0, "name": "e0786ea7aed6748411c9e7ed596d6dc6", "fusion_lon": 0.0}, {"is_reserved": 0, "type": "electric_scooter", "bike_id": "c4bf325f1ce277e156331d7750b09f02", "lat": 38.9059655, "lon": -77.03682966666666, "rental_uris": {"android": "https://dc.lft.to/lastmile_qr_scan", "ios": "https://dc.lft.to/lastmile_qr_scan"}, "is_disabled": 0, "fusion_lat": 0.0, "name": "c4bf325f1ce277e156331d7750b09f02", "fusion_lon": 0.0}, {"is_reserved": 0, "type": "electric_scooter", "bike_id": "733fdbbfc364b8e041af6b1b5d920654", "lat": 38.913501833333335, "lon": -77.03203016666667, "rental_uris": {"android": "https://dc.lft.to/lastmile_qr_scan", "ios": "https://dc.lft.to/lastmile_qr_scan"}, "is_disabled": 0, "fusion_lat": 0.0, "name": "733fdbbfc364b8e041af6b1b5d920654", "fusion_lon": 0.0}, {"is_reserved": 0, "type": "electric_scooter", "bike_id": "b6d5acf4bc8afa7198994051b88825e2", "lat": 38.90005033333333, "lon": -77.03101533333333, "rental_uris": {"android": "https://dc.lft.to/lastmile_qr_scan", "ios": "https://dc.lft.to/lastmile_qr_scan"}, "is_disabled": 0, "fusion_lat": 0.0, "name": "b6d5acf4bc8afa7198994051b88825e2", "fusion_lon": 0.0}, {"is_reserved": 0, "type": "electric_bike", "bike_id": "09082f09c0eae1194a3af5fb4f0204c9", "lat": 38.9621365, "lon": -77.07383516666667, "rental_uris": {"android": "https://dc.lft.to/lastmile_qr_scan", "ios": "https://dc.lft.to/lastmile_qr_scan"}, "is_disabled": 0, "fusion_lat": 0.0, "name": "09082f09c0eae1194a3af5fb4f0204c9", "fusion_lon": 0.0}, {"is_reserved": 0, "type": "electric_scooter", "bike_id": "bf3edc3dda0c482c83c4e243b71bee4d", "lat": 38.954664333333334, "lon": -77.07766683333334, "rental_uris": {"android": "https://dc.lft.to/lastmile_qr_scan", "ios": "https://dc.lft.to/lastmile_qr_scan"}, "is_disabled": 0, "fusion_lat": 0.0, "name": "bf3edc3dda0c482c83c4e243b71bee4d", "fusion_lon": 0.0}, {"is_reserved": 0, "type": "electric_scooter", "bike_id": "7ca1929852360fe3aada6c0af5379566", "lat": 38.8748345, "lon": -76.99978183333333, "rental_uris": {"android": "https://dc.lft.to/lastmile_qr_scan", "ios": "https://dc.lft.to/lastmile_qr_scan"}, "is_disabled": 0, "fusion_lat": 0.0, "name": "7ca1929852360fe3aada6c0af5379566", "fusion_lon": 0.0}, {"is_reserved": 0, "type": "electric_scooter", "bike_id": "6e0785457b652e97003b159c908c3780", "lat": 38.914658833333334, "lon": -77.02606983333334, "rental_uris": {"android": "https://dc.lft.to/lastmile_qr_scan", "ios": "https://dc.lft.to/lastmile_qr_scan"}, "is_disabled": 0, "fusion_lat": 0.0, "name": "6e0785457b652e97003b159c908c3780", "fusion_lon": 0.0}, {"is_reserved": 0, "type": "electric_scooter", "bike_id": "2faa8381abdd089ec8fefd745b2529aa", "lat": 38.9021975, "lon": -77.05324116666667, "rental_uris": {"android": "https://dc.lft.to/lastmile_qr_scan", "ios": "https://dc.lft.to/lastmile_qr_scan"}, "is_disabled": 0, "fusion_lat": 0.0, "name": "2faa8381abdd089ec8fefd745b2529aa", "fusion_lon": 0.0}, {"is_reserved": 0, "type": "electric_scooter", "bike_id": "94d63fe610af9e39c1fbc88e601076dd", "lat": 38.90792166666667, "lon": -77.00962533333333, "rental_uris": {"android": "https://dc.lft.to/lastmile_qr_scan", "ios": "https://dc.lft.to/lastmile_qr_scan"}, "is_disabled": 0, "fusion_lat": 0.0, "name": "94d63fe610af9e39c1fbc88e601076dd", "fusion_lon": 0.0}, {"is_reserved": 0, "type": "electric_scooter", "bike_id": "dc53d3fd54a95c3bb471722466e5ea8a", "lat": 38.9006505, "lon": -77.04882766666667, "rental_uris": {"android": "https://dc.lft.to/lastmile_qr_scan", "ios": "https://dc.lft.to/lastmile_qr_scan"}, "is_disabled": 0, "fusion_lat": 0.0, "name": "dc53d3fd54a95c3bb471722466e5ea8a", "fusion_lon": 0.0}, {"is_reserved": 0, "type": "electric_scooter", "bike_id": "c88a0b2f950f80f94b8355db4dee1e23", "lat": 38.917159166666664, "lon": -77.0297425, "rental_uris": {"android": "https://dc.lft.to/lastmile_qr_scan", "ios": "https://dc.lft.to/lastmile_qr_scan"}, "is_disabled": 0, "fusion_lat": 0.0, "name": "c88a0b2f950f80f94b8355db4dee1e23", "fusion_lon": 0.0}, {"is_reserved": 0, "type": "electric_bike", "bike_id": "644fe6b66492731ae6083f5b508aeb76", "lat": 38.988277833333335, "lon": -77.0265275, "rental_uris": {"android": "https://dc.lft.to/lastmile_qr_scan", "ios": "https://dc.lft.to/lastmile_qr_scan"}, "is_disabled": 0, "fusion_lat": 0.0, "name": "644fe6b66492731ae6083f5b508aeb76", "fusion_lon": 0.0}, {"is_reserved": 0, "type": "electric_scooter", "bike_id": "965889018c7511eeb2c9046bfa5a7207", "lat": 38.94978366666667, "lon": -77.0244735, "rental_uris": {"android": "https://dc.lft.to/lastmile_qr_scan", "ios": "https://dc.lft.to/lastmile_qr_scan"}, "is_disabled": 0, "fusion_lat": 0.0, "name": "965889018c7511eeb2c9046bfa5a7207", "fusion_lon": 0.0}, {"is_reserved": 0, "type": "electric_scooter", "bike_id": "b11256c662dc16f8c9ee2271b5d443b4", "lat": 38.92343066666667, "lon": -77.01894, "rental_uris": {"android": "https://dc.lft.to/lastmile_qr_scan", "ios": "https://dc.lft.to/lastmile_qr_scan"}, "is_disabled": 0, "fusion_lat": 0.0, "name": "b11256c662dc16f8c9ee2271b5d443b4", "fusion_lon": 0.0}, {"is_reserved": 0, "type": "electric_scooter", "bike_id": "b49168872aec87bb5096589d5b04114f", "lat": 38.91097966666667, "lon": -77.03458766666667, "rental_uris": {"android": "https://dc.lft.to/lastmile_qr_scan", "ios": "https://dc.lft.to/lastmile_qr_scan"}, "is_disabled": 0, "fusion_lat": 0.0, "name": "b49168872aec87bb5096589d5b04114f", "fusion_lon": 0.0}, {"is_reserved": 0, "type": "electric_scooter", "bike_id": "9d22a4b4ac0de785e3ee1f8ad61ed4c6", "lat": 38.914329333333335, "lon": -76.985909, "rental_uris": {"android": "https://dc.lft.to/lastmile_qr_scan", "ios": "https://dc.lft.to/lastmile_qr_scan"}, "is_disabled": 0, "fusion_lat": 0.0, "name": "9d22a4b4ac0de785e3ee1f8ad61ed4c6", "fusion_lon": 0.0}, {"is_reserved": 0, "type": "electric_scooter", "bike_id": "c5d3f4d2c8c5ebd86725c58e6e04de1e", "lat": 38.9168305, "lon": -77.02949483333333, "rental_uris": {"android": "https://dc.lft.to/lastmile_qr_scan", "ios": "https://dc.lft.to/lastmile_qr_scan"}, "is_disabled": 0, "fusion_lat": 0.0, "name": "c5d3f4d2c8c5ebd86725c58e6e04de1e", "fusion_lon": 0.0}, {"is_reserved": 0, "type": "electric_scooter", "bike_id": "233b1dafce1f39900053137c56f8e2c3", "lat": 38.891959666666665, "lon": -77.04825883333334, "rental_uris": {"android": "https://dc.lft.to/lastmile_qr_scan", "ios": "https://dc.lft.to/lastmile_qr_scan"}, "is_disabled": 0, "fusion_lat": 0.0, "name": "233b1dafce1f39900053137c56f8e2c3", "fusion_lon": 0.0}, {"is_reserved": 0, "type": "electric_bike", "bike_id": "e4ce9c1f4fe86eccc703040cef08ffaa", "lat": 38.999376166666664, "lon": -77.05136933333333, "rental_uris": {"android": "https://dc.lft.to/lastmile_qr_scan", "ios": "https://dc.lft.to/lastmile_qr_scan"}, "is_disabled": 0, "fusion_lat": 0.0, "name": "e4ce9c1f4fe86eccc703040cef08ffaa", "fusion_lon": 0.0}, {"is_reserved": 0, "type": "electric_scooter", "bike_id": "ae663a97bee60f2bcce498a73d474697", "lat": 38.922212333333334, "lon": -77.04334416666667, "rental_uris": {"android": "https://dc.lft.to/lastmile_qr_scan", "ios": "https://dc.lft.to/lastmile_qr_scan"}, "is_disabled": 0, "fusion_lat": 0.0, "name": "ae663a97bee60f2bcce498a73d474697", "fusion_lon": 0.0}, {"is_reserved": 0, "type": "electric_scooter", "bike_id": "ccc553c9c61204837438df0918cbe80b", "lat": 38.9180495, "lon": -77.0319465, "rental_uris": {"android": "https://dc.lft.to/lastmile_qr_scan", "ios": "https://dc.lft.to/lastmile_qr_scan"}, "is_disabled": 0, "fusion_lat": 0.0, "name": "ccc553c9c61204837438df0918cbe80b", "fusion_lon": 0.0}, {"is_reserved": 0, "type": "electric_scooter", "bike_id": "7aba5eabc9275756318d109d2df0ac7c", "lat": 38.898245333333335, "lon": -76.94647066666667, "rental_uris": {"android": "https://dc.lft.to/lastmile_qr_scan", "ios": "https://dc.lft.to/lastmile_qr_scan"}, "is_disabled": 0, "fusion_lat": 0.0, "name": "7aba5eabc9275756318d109d2df0ac7c", "fusion_lon": 0.0}, {"is_reserved": 0, "type": "electric_scooter", "bike_id": "52bef3f4a151e723943ce36d005a4526", "lat": 38.96398516666667, "lon": -77.02766616666666, "rental_uris": {"android": "https://dc.lft.to/lastmile_qr_scan", "ios": "https://dc.lft.to/lastmile_qr_scan"}, "is_disabled": 0, "fusion_lat": 0.0, "name": "52bef3f4a151e723943ce36d005a4526", "fusion_lon": 0.0}, {"is_reserved": 0, "type": "electric_bike", "bike_id": "67b628d325ddb677470fbd7760823532", "lat": 38.9650255, "lon": -77.1032895, "rental_uris": {"android": "https://dc.lft.to/lastmile_qr_scan", "ios": "https://dc.lft.to/lastmile_qr_scan"}, "is_disabled": 0, "fusion_lat": 0.0, "name": "67b628d325ddb677470fbd7760823532", "fusion_lon": 0.0}, {"is_reserved": 0, "type": "electric_scooter", "bike_id": "da5848041ba2150a8de5e4c73b125201", "lat": 38.924267666666665, "lon": -77.019443, "rental_uris": {"android": "https://dc.lft.to/lastmile_qr_scan", "ios": "https://dc.lft.to/lastmile_qr_scan"}, "is_disabled": 0, "fusion_lat": 0.0, "name": "da5848041ba2150a8de5e4c73b125201", "fusion_lon": 0.0}, {"is_reserved": 0, "type": "electric_scooter", "bike_id": "fd2aebddff7659983027662486292ca5", "lat": 38.90524533333333, "lon": -77.0513535, "rental_uris": {"android": "https://dc.lft.to/lastmile_qr_scan", "ios": "https://dc.lft.to/lastmile_qr_scan"}, "is_disabled": 0, "fusion_lat": 0.0, "name": "fd2aebddff7659983027662486292ca5", "fusion_lon": 0.0}, {"is_reserved": 0, "type": "electric_scooter", "bike_id": "0bf236375ec57ff35393e2f4fd99ec50", "lat": 38.90071733333333, "lon": -77.05025583333334, "rental_uris": {"android": "https://dc.lft.to/lastmile_qr_scan", "ios": "https://dc.lft.to/lastmile_qr_scan"}, "is_disabled": 0, "fusion_lat": 0.0, "name": "0bf236375ec57ff35393e2f4fd99ec50", "fusion_lon": 0.0}, {"is_reserved": 0, "type": "electric_scooter", "bike_id": "390216873aacc2ca10ab8705eceffdbc", "lat": 38.89965733333333, "lon": -76.93852733333334, "rental_uris": {"android": "https://dc.lft.to/lastmile_qr_scan", "ios": "https://dc.lft.to/lastmile_qr_scan"}, "is_disabled": 0, "fusion_lat": 0.0, "name": "390216873aacc2ca10ab8705eceffdbc", "fusion_lon": 0.0}, {"is_reserved": 0, "type": "electric_scooter", "bike_id": "c9f88b8a95090320f8e09354f228240a", "lat": 38.8922145, "lon": -77.02796183333334, "rental_uris": {"android": "https://dc.lft.to/lastmile_qr_scan", "ios": "https://dc.lft.to/lastmile_qr_scan"}, "is_disabled": 0, "fusion_lat": 0.0, "name": "c9f88b8a95090320f8e09354f228240a", "fusion_lon": 0.0}, {"is_reserved": 0, "type": "electric_scooter", "bike_id": "e187212cdb38085e470afc9c6187d2cc", "lat": 38.92365, "lon": -77.04128233333333, "rental_uris": {"android": "https://dc.lft.to/lastmile_qr_scan", "ios": "https://dc.lft.to/lastmile_qr_scan"}, "is_disabled": 0, "fusion_lat": 0.0, "name": "e187212cdb38085e470afc9c6187d2cc", "fusion_lon": 0.0}, {"is_reserved": 0, "type": "electric_scooter", "bike_id": "88edd1a703a9d375d100bdbc54ed9d9a", "lat": 38.92488083333333, "lon": -77.02136, "rental_uris": {"android": "https://dc.lft.to/lastmile_qr_scan", "ios": "https://dc.lft.to/lastmile_qr_scan"}, "is_disabled": 0, "fusion_lat": 0.0, "name": "88edd1a703a9d375d100bdbc54ed9d9a", "fusion_lon": 0.0}, {"is_reserved": 0, "type": "electric_scooter", "bike_id": "c2cf68c77dc9e102891384201f8a8c37", "lat": 38.89802233333333, "lon": -77.03339916666667, "rental_uris": {"android": "https://dc.lft.to/lastmile_qr_scan", "ios": "https://dc.lft.to/lastmile_qr_scan"}, "is_disabled": 0, "fusion_lat": 0.0, "name": "c2cf68c77dc9e102891384201f8a8c37", "fusion_lon": 0.0}, {"is_reserved": 0, "type": "electric_scooter", "bike_id": "de230452ab351579539e084889b30210", "lat": 38.8873555, "lon": -77.02205216666667, "rental_uris": {"android": "https://dc.lft.to/lastmile_qr_scan", "ios": "https://dc.lft.to/lastmile_qr_scan"}, "is_disabled": 0, "fusion_lat": 0.0, "name": "de230452ab351579539e084889b30210", "fusion_lon": 0.0}, {"is_reserved": 0, "type": "electric_scooter", "bike_id": "aa33608b2366cb5bd291b757e48aae72", "lat": 38.9134095, "lon": -77.03199066666667, "rental_uris": {"android": "https://dc.lft.to/lastmile_qr_scan", "ios": "https://dc.lft.to/lastmile_qr_scan"}, "is_disabled": 0, "fusion_lat": 0.0, "name": "aa33608b2366cb5bd291b757e48aae72", "fusion_lon": 0.0}, {"is_reserved": 0, "type": "electric_scooter", "bike_id": "58fd8bb7ecd0b8310239fd67f7cb0147", "lat": 38.922602, "lon": -77.04693333333333, "rental_uris": {"android": "https://dc.lft.to/lastmile_qr_scan", "ios": "https://dc.lft.to/lastmile_qr_scan"}, "is_disabled": 0, "fusion_lat": 0.0, "name": "58fd8bb7ecd0b8310239fd67f7cb0147", "fusion_lon": 0.0}, {"is_reserved": 0, "type": "electric_scooter", "bike_id": "bc56e11d4c59d98897c2ecd934fa67b8", "lat": 38.909564, "lon": -77.032685, "rental_uris": {"android": "https://dc.lft.to/lastmile_qr_scan", "ios": "https://dc.lft.to/lastmile_qr_scan"}, "is_disabled": 0, "fusion_lat": 0.0, "name": "bc56e11d4c59d98897c2ecd934fa67b8", "fusion_lon": 0.0}, {"is_reserved": 0, "type": "electric_scooter", "bike_id": "14035e57ebadd617e6700a16a9e81c9e", "lat": 38.9171545, "lon": -77.02975166666667, "rental_uris": {"android": "https://dc.lft.to/lastmile_qr_scan", "ios": "https://dc.lft.to/lastmile_qr_scan"}, "is_disabled": 0, "fusion_lat": 0.0, "name": "14035e57ebadd617e6700a16a9e81c9e", "fusion_lon": 0.0}, {"is_reserved": 0, "type": "electric_scooter", "bike_id": "07a3902d51b47d806cff1e0865343b7d", "lat": 38.9241105, "lon": -77.036406, "rental_uris": {"android": "https://dc.lft.to/lastmile_qr_scan", "ios": "https://dc.lft.to/lastmile_qr_scan"}, "is_disabled": 0, "fusion_lat": 0.0, "name": "07a3902d51b47d806cff1e0865343b7d", "fusion_lon": 0.0}, {"is_reserved": 0, "type": "electric_scooter", "bike_id": "d6645d3146c69eaef1fb42142be1994b", "lat": 38.900185, "lon": -77.04656866666667, "rental_uris": {"android": "https://dc.lft.to/lastmile_qr_scan", "ios": "https://dc.lft.to/lastmile_qr_scan"}, "is_disabled": 0, "fusion_lat": 0.0, "name": "d6645d3146c69eaef1fb42142be1994b", "fusion_lon": 0.0}, {"is_reserved": 0, "type": "electric_scooter", "bike_id": "767d1231851b2760234844d6c9a09efe", "lat": 38.88378616666667, "lon": -76.99359733333333, "rental_uris": {"android": "https://dc.lft.to/lastmile_qr_scan", "ios": "https://dc.lft.to/lastmile_qr_scan"}, "is_disabled": 0, "fusion_lat": 0.0, "name": "767d1231851b2760234844d6c9a09efe", "fusion_lon": 0.0}, {"is_reserved": 0, "type": "electric_scooter", "bike_id": "84cb7aebec0869999fa7e1c9db971e4f", "lat": 38.9060605, "lon": -76.95008516666667, "rental_uris": {"android": "https://dc.lft.to/lastmile_qr_scan", "ios": "https://dc.lft.to/lastmile_qr_scan"}, "is_disabled": 0, "fusion_lat": 0.0, "name": "84cb7aebec0869999fa7e1c9db971e4f", "fusion_lon": 0.0}, {"is_reserved": 0, "type": "electric_scooter", "bike_id": "c1fd330b01c4d58a4af78004e43f626c", "lat": 38.903931166666666, "lon": -77.06292283333333, "rental_uris": {"android": "https://dc.lft.to/lastmile_qr_scan", "ios": "https://dc.lft.to/lastmile_qr_scan"}, "is_disabled": 0, "fusion_lat": 0.0, "name": "c1fd330b01c4d58a4af78004e43f626c", "fusion_lon": 0.0}, {"is_reserved": 0, "type": "electric_scooter", "bike_id": "cda8a9faac2d7ff3f4ecbb9d89db20ca", "lat": 38.892214833333334, "lon": -77.024199, "rental_uris": {"android": "https://dc.lft.to/lastmile_qr_scan", "ios": "https://dc.lft.to/lastmile_qr_scan"}, "is_disabled": 0, "fusion_lat": 0.0, "name": "cda8a9faac2d7ff3f4ecbb9d89db20ca", "fusion_lon": 0.0}, {"is_reserved": 0, "type": "electric_scooter", "bike_id": "ddfc5173a185bf7db342435db10033c1", "lat": 38.94693, "lon": -77.02245016666667, "rental_uris": {"android": "https://dc.lft.to/lastmile_qr_scan", "ios": "https://dc.lft.to/lastmile_qr_scan"}, "is_disabled": 0, "fusion_lat": 0.0, "name": "ddfc5173a185bf7db342435db10033c1", "fusion_lon": 0.0}, {"is_reserved": 0, "type": "electric_scooter", "bike_id": "96931452ebc5a28b454c9ca80ee2c324", "lat": 38.90628316666667, "lon": -77.009016, "rental_uris": {"android": "https://dc.lft.to/lastmile_qr_scan", "ios": "https://dc.lft.to/lastmile_qr_scan"}, "is_disabled": 0, "fusion_lat": 0.0, "name": "96931452ebc5a28b454c9ca80ee2c324", "fusion_lon": 0.0}, {"is_reserved": 0, "type": "electric_scooter", "bike_id": "571e5453c82f8695a524860e1cd0f3bd", "lat": 38.93182016666667, "lon": -77.02854666666667, "rental_uris": {"android": "https://dc.lft.to/lastmile_qr_scan", "ios": "https://dc.lft.to/lastmile_qr_scan"}, "is_disabled": 0, "fusion_lat": 0.0, "name": "571e5453c82f8695a524860e1cd0f3bd", "fusion_lon": 0.0}, {"is_reserved": 0, "type": "electric_scooter", "bike_id": "e748983ac591d1f8c657dbcb89d0216f", "lat": 38.9009075, "lon": -77.038176, "rental_uris": {"android": "https://dc.lft.to/lastmile_qr_scan", "ios": "https://dc.lft.to/lastmile_qr_scan"}, "is_disabled": 0, "fusion_lat": 0.0, "name": "e748983ac591d1f8c657dbcb89d0216f", "fusion_lon": 0.0}, {"is_reserved": 0, "type": "electric_scooter", "bike_id": "4fdef8d6fcd6ab57f7f4db55bbadd6f3", "lat": 38.89753533333333, "lon": -77.02099166666666, "rental_uris": {"android": "https://dc.lft.to/lastmile_qr_scan", "ios": "https://dc.lft.to/lastmile_qr_scan"}, "is_disabled": 0, "fusion_lat": 0.0, "name": "4fdef8d6fcd6ab57f7f4db55bbadd6f3", "fusion_lon": 0.0}, {"is_reserved": 0, "type": "electric_scooter", "bike_id": "d351400c6a4a272a500be02f7cfd0c0d", "lat": 38.9223765, "lon": -77.03349783333333, "rental_uris": {"android": "https://dc.lft.to/lastmile_qr_scan", "ios": "https://dc.lft.to/lastmile_qr_scan"}, "is_disabled": 0, "fusion_lat": 0.0, "name": "d351400c6a4a272a500be02f7cfd0c0d", "fusion_lon": 0.0}, {"is_reserved": 0, "type": "electric_scooter", "bike_id": "2b51116b644505031650e0996ebf9c64", "lat": 38.885106666666665, "lon": -77.01114933333334, "rental_uris": {"android": "https://dc.lft.to/lastmile_qr_scan", "ios": "https://dc.lft.to/lastmile_qr_scan"}, "is_disabled": 0, "fusion_lat": 0.0, "name": "2b51116b644505031650e0996ebf9c64", "fusion_lon": 0.0}, {"is_reserved": 0, "type": "electric_scooter", "bike_id": "f00dee78fb92d3d2916b0e28b44c1662", "lat": 38.90520933333333, "lon": -77.06529133333333, "rental_uris": {"android": "https://dc.lft.to/lastmile_qr_scan", "ios": "https://dc.lft.to/lastmile_qr_scan"}, "is_disabled": 0, "fusion_lat": 0.0, "name": "f00dee78fb92d3d2916b0e28b44c1662", "fusion_lon": 0.0}, {"is_reserved": 0, "type": "electric_bike", "bike_id": "743e3783e27dcaa442e3dd5be7c06098", "lat": 38.83138016666667, "lon": -77.11347833333333, "rental_uris": {"android": "https://dc.lft.to/lastmile_qr_scan", "ios": "https://dc.lft.to/lastmile_qr_scan"}, "is_disabled": 0, "fusion_lat": 0.0, "name": "743e3783e27dcaa442e3dd5be7c06098", "fusion_lon": 0.0}, {"is_reserved": 0, "type": "electric_scooter", "bike_id": "3a93d319c9d2ba1b833d5adeca0ead12", "lat": 38.9043395, "lon": -77.02580183333333, "rental_uris": {"android": "https://dc.lft.to/lastmile_qr_scan", "ios": "https://dc.lft.to/lastmile_qr_scan"}, "is_disabled": 0, "fusion_lat": 0.0, "name": "3a93d319c9d2ba1b833d5adeca0ead12", "fusion_lon": 0.0}, {"is_reserved": 0, "type": "electric_scooter", "bike_id": "71975df15fca3f5be548ee32278942a4", "lat": 38.93632866666667, "lon": -77.03655566666667, "rental_uris": {"android": "https://dc.lft.to/lastmile_qr_scan", "ios": "https://dc.lft.to/lastmile_qr_scan"}, "is_disabled": 0, "fusion_lat": 0.0, "name": "71975df15fca3f5be548ee32278942a4", "fusion_lon": 0.0}, {"is_reserved": 0, "type": "electric_scooter", "bike_id": "3f391cc2ed2d7da148194fbd9f20910a", "lat": 38.89231183333333, "lon": -77.05000333333334, "rental_uris": {"android": "https://dc.lft.to/lastmile_qr_scan", "ios": "https://dc.lft.to/lastmile_qr_scan"}, "is_disabled": 0, "fusion_lat": 0.0, "name": "3f391cc2ed2d7da148194fbd9f20910a", "fusion_lon": 0.0}, {"is_reserved": 0, "type": "electric_scooter", "bike_id": "adf41a900c1ab50fd1caf67802f386f4", "lat": 38.892399, "lon": -77.04895716666667, "rental_uris": {"android": "https://dc.lft.to/lastmile_qr_scan", "ios": "https://dc.lft.to/lastmile_qr_scan"}, "is_disabled": 0, "fusion_lat": 0.0, "name": "adf41a900c1ab50fd1caf67802f386f4", "fusion_lon": 0.0}, {"is_reserved": 0, "type": "electric_scooter", "bike_id": "e0d7f44ae03877d17e7fe97c56ac164f", "lat": 38.87339466666667, "lon": -76.99167433333334, "rental_uris": {"android": "https://dc.lft.to/lastmile_qr_scan", "ios": "https://dc.lft.to/lastmile_qr_scan"}, "is_disabled": 0, "fusion_lat": 0.0, "name": "e0d7f44ae03877d17e7fe97c56ac164f", "fusion_lon": 0.0}, {"is_reserved": 0, "type": "electric_scooter", "bike_id": "81dccf47342486677942c0d62103ec20", "lat": 38.8943775, "lon": -77.020961, "rental_uris": {"android": "https://dc.lft.to/lastmile_qr_scan", "ios": "https://dc.lft.to/lastmile_qr_scan"}, "is_disabled": 0, "fusion_lat": 0.0, "name": "81dccf47342486677942c0d62103ec20", "fusion_lon": 0.0}, {"is_reserved": 0, "type": "electric_scooter", "bike_id": "7d3f4ea95de859d8bfff0d7725656aac", "lat": 38.87888133333333, "lon": -77.02279066666667, "rental_uris": {"android": "https://dc.lft.to/lastmile_qr_scan", "ios": "https://dc.lft.to/lastmile_qr_scan"}, "is_disabled": 0, "fusion_lat": 0.0, "name": "7d3f4ea95de859d8bfff0d7725656aac", "fusion_lon": 0.0}, {"is_reserved": 0, "type": "electric_scooter", "bike_id": "d0fbd129a26e0465d9c7f27f4c1c8745", "lat": 38.900868333333335, "lon": -77.01321783333333, "rental_uris": {"android": "https://dc.lft.to/lastmile_qr_scan", "ios": "https://dc.lft.to/lastmile_qr_scan"}, "is_disabled": 0, "fusion_lat": 0.0, "name": "d0fbd129a26e0465d9c7f27f4c1c8745", "fusion_lon": 0.0}, {"is_reserved": 0, "type": "electric_scooter", "bike_id": "7dbec85aa863b5d75e0efcb17cdf1f38", "lat": 38.885212333333335, "lon": -76.97709016666667, "rental_uris": {"android": "https://dc.lft.to/lastmile_qr_scan", "ios": "https://dc.lft.to/lastmile_qr_scan"}, "is_disabled": 0, "fusion_lat": 0.0, "name": "7dbec85aa863b5d75e0efcb17cdf1f38", "fusion_lon": 0.0}, {"is_reserved": 0, "type": "electric_scooter", "bike_id": "cacd337e249d279846391996a0cfbf2c", "lat": 38.908966666666664, "lon": -77.02389083333334, "rental_uris": {"android": "https://dc.lft.to/lastmile_qr_scan", "ios": "https://dc.lft.to/lastmile_qr_scan"}, "is_disabled": 0, "fusion_lat": 0.0, "name": "cacd337e249d279846391996a0cfbf2c", "fusion_lon": 0.0}, {"is_reserved": 0, "type": "electric_scooter", "bike_id": "2a1fba5207c77df267c3e6fb8636bb02", "lat": 38.9349765, "lon": -77.02723366666666, "rental_uris": {"android": "https://dc.lft.to/lastmile_qr_scan", "ios": "https://dc.lft.to/lastmile_qr_scan"}, "is_disabled": 0, "fusion_lat": 0.0, "name": "2a1fba5207c77df267c3e6fb8636bb02", "fusion_lon": 0.0}, {"is_reserved": 0, "type": "electric_scooter", "bike_id": "b397f4583c73861adb98bc2f1ed4c0b9", "lat": 38.92388283333333, "lon": -77.02753683333333, "rental_uris": {"android": "https://dc.lft.to/lastmile_qr_scan", "ios": "https://dc.lft.to/lastmile_qr_scan"}, "is_disabled": 0, "fusion_lat": 0.0, "name": "b397f4583c73861adb98bc2f1ed4c0b9", "fusion_lon": 0.0}, {"is_reserved": 0, "type": "electric_scooter", "bike_id": "da0c7491018347649602ab02e46acf10", "lat": 38.921201333333336, "lon": -77.0435385, "rental_uris": {"android": "https://dc.lft.to/lastmile_qr_scan", "ios": "https://dc.lft.to/lastmile_qr_scan"}, "is_disabled": 0, "fusion_lat": 0.0, "name": "da0c7491018347649602ab02e46acf10", "fusion_lon": 0.0}, {"is_reserved": 0, "type": "electric_scooter", "bike_id": "ce6f3d23acfa613e4e35b7e86f775acc", "lat": 38.83799666666667, "lon": -76.998544, "rental_uris": {"android": "https://dc.lft.to/lastmile_qr_scan", "ios": "https://dc.lft.to/lastmile_qr_scan"}, "is_disabled": 0, "fusion_lat": 0.0, "name": "ce6f3d23acfa613e4e35b7e86f775acc", "fusion_lon": 0.0}, {"is_reserved": 0, "type": "electric_scooter", "bike_id": "a62d4a9f011c329d25c162d66a7bf84e", "lat": 38.9383975, "lon": -77.02474733333334, "rental_uris": {"android": "https://dc.lft.to/lastmile_qr_scan", "ios": "https://dc.lft.to/lastmile_qr_scan"}, "is_disabled": 0, "fusion_lat": 0.0, "name": "a62d4a9f011c329d25c162d66a7bf84e", "fusion_lon": 0.0}, {"is_reserved": 0, "type": "electric_bike", "bike_id": "c7cbc848b64311d2119cb151ca1b9827", "lat": 38.900018, "lon": -76.980336, "rental_uris": {"android": "https://dc.lft.to/lastmile_qr_scan", "ios": "https://dc.lft.to/lastmile_qr_scan"}, "is_disabled": 0, "fusion_lat": 0.0, "name": "c7cbc848b64311d2119cb151ca1b9827", "fusion_lon": 0.0}, {"is_reserved": 0, "type": "electric_scooter", "bike_id": "2316bc1284400a3a43139bd5800a85b0", "lat": 38.9603085, "lon": -77.02432033333334, "rental_uris": {"android": "https://dc.lft.to/lastmile_qr_scan", "ios": "https://dc.lft.to/lastmile_qr_scan"}, "is_disabled": 0, "fusion_lat": 0.0, "name": "2316bc1284400a3a43139bd5800a85b0", "fusion_lon": 0.0}, {"is_reserved": 0, "type": "electric_scooter", "bike_id": "4b92edb1fc224172e20eacb713013378", "lat": 38.88161133333333, "lon": -77.00065933333333, "rental_uris": {"android": "https://dc.lft.to/lastmile_qr_scan", "ios": "https://dc.lft.to/lastmile_qr_scan"}, "is_disabled": 0, "fusion_lat": 0.0, "name": "4b92edb1fc224172e20eacb713013378", "fusion_lon": 0.0}, {"is_reserved": 0, "type": "electric_scooter", "bike_id": "7040e6f36933288cd6e1ccf93ca30b82", "lat": 38.899575166666665, "lon": -77.04496416666667, "rental_uris": {"android": "https://dc.lft.to/lastmile_qr_scan", "ios": "https://dc.lft.to/lastmile_qr_scan"}, "is_disabled": 0, "fusion_lat": 0.0, "name": "7040e6f36933288cd6e1ccf93ca30b82", "fusion_lon": 0.0}, {"is_reserved": 0, "type": "electric_scooter", "bike_id": "914f2f5314be785d45969f536f059b1d", "lat": 38.91753833333333, "lon": -77.01460783333333, "rental_uris": {"android": "https://dc.lft.to/lastmile_qr_scan", "ios": "https://dc.lft.to/lastmile_qr_scan"}, "is_disabled": 0, "fusion_lat": 0.0, "name": "914f2f5314be785d45969f536f059b1d", "fusion_lon": 0.0}, {"is_reserved": 0, "type": "electric_scooter", "bike_id": "9ad7c3da6694565f2dde2c4e0c972a8e", "lat": 38.9223195, "lon": -77.0413435, "rental_uris": {"android": "https://dc.lft.to/lastmile_qr_scan", "ios": "https://dc.lft.to/lastmile_qr_scan"}, "is_disabled": 0, "fusion_lat": 0.0, "name": "9ad7c3da6694565f2dde2c4e0c972a8e", "fusion_lon": 0.0}, {"is_reserved": 0, "type": "electric_scooter", "bike_id": "f5497626cf3990b375ee45f9535d9d7b", "lat": 38.936331833333334, "lon": -77.07303883333333, "rental_uris": {"android": "https://dc.lft.to/lastmile_qr_scan", "ios": "https://dc.lft.to/lastmile_qr_scan"}, "is_disabled": 0, "fusion_lat": 0.0, "name": "f5497626cf3990b375ee45f9535d9d7b", "fusion_lon": 0.0}, {"is_reserved": 0, "type": "electric_scooter", "bike_id": "abe0dd3e7f1c22becba86c08d298721a", "lat": 38.89825883333334, "lon": -76.9464985, "rental_uris": {"android": "https://dc.lft.to/lastmile_qr_scan", "ios": "https://dc.lft.to/lastmile_qr_scan"}, "is_disabled": 0, "fusion_lat": 0.0, "name": "abe0dd3e7f1c22becba86c08d298721a", "fusion_lon": 0.0}, {"is_reserved": 0, "type": "electric_scooter", "bike_id": "36be2c8812ad07aa95e673a44ac7f9a5", "lat": 38.91770666666667, "lon": -77.02307433333333, "rental_uris": {"android": "https://dc.lft.to/lastmile_qr_scan", "ios": "https://dc.lft.to/lastmile_qr_scan"}, "is_disabled": 0, "fusion_lat": 0.0, "name": "36be2c8812ad07aa95e673a44ac7f9a5", "fusion_lon": 0.0}, {"is_reserved": 0, "type": "electric_scooter", "bike_id": "052ed9162fed301bae3704307ae858b2", "lat": 38.91699766666667, "lon": -77.02667516666666, "rental_uris": {"android": "https://dc.lft.to/lastmile_qr_scan", "ios": "https://dc.lft.to/lastmile_qr_scan"}, "is_disabled": 0, "fusion_lat": 0.0, "name": "052ed9162fed301bae3704307ae858b2", "fusion_lon": 0.0}, {"is_reserved": 0, "type": "electric_bike", "bike_id": "b3366ec0708f840324bf27f9de66cae0", "lat": 38.869987333333334, "lon": -77.22976333333334, "rental_uris": {"android": "https://dc.lft.to/lastmile_qr_scan", "ios": "https://dc.lft.to/lastmile_qr_scan"}, "is_disabled": 0, "fusion_lat": 0.0, "name": "b3366ec0708f840324bf27f9de66cae0", "fusion_lon": 0.0}, {"is_reserved": 0, "type": "electric_scooter", "bike_id": "11d05429348cb3d6548ceff13fd1cdfd", "lat": 38.89356266666667, "lon": -77.003329, "rental_uris": {"android": "https://dc.lft.to/lastmile_qr_scan", "ios": "https://dc.lft.to/lastmile_qr_scan"}, "is_disabled": 0, "fusion_lat": 0.0, "name": "11d05429348cb3d6548ceff13fd1cdfd", "fusion_lon": 0.0}, {"is_reserved": 0, "type": "electric_scooter", "bike_id": "4290548b38f30f08319dfd70069f8ef6", "lat": 38.910229333333334, "lon": -77.04298833333333, "rental_uris": {"android": "https://dc.lft.to/lastmile_qr_scan", "ios": "https://dc.lft.to/lastmile_qr_scan"}, "is_disabled": 0, "fusion_lat": 0.0, "name": "4290548b38f30f08319dfd70069f8ef6", "fusion_lon": 0.0}, {"is_reserved": 0, "type": "electric_scooter", "bike_id": "00244a3194c9fc1e27e0504d8217a556", "lat": 38.931712166666664, "lon": -77.02814166666667, "rental_uris": {"android": "https://dc.lft.to/lastmile_qr_scan", "ios": "https://dc.lft.to/lastmile_qr_scan"}, "is_disabled": 0, "fusion_lat": 0.0, "name": "00244a3194c9fc1e27e0504d8217a556", "fusion_lon": 0.0}, {"is_reserved": 0, "type": "electric_scooter", "bike_id": "806a8e053ef00191caa121a18f73f2f1", "lat": 38.88628416666667, "lon": -77.02221433333334, "rental_uris": {"android": "https://dc.lft.to/lastmile_qr_scan", "ios": "https://dc.lft.to/lastmile_qr_scan"}, "is_disabled": 0, "fusion_lat": 0.0, "name": "806a8e053ef00191caa121a18f73f2f1", "fusion_lon": 0.0}, {"is_reserved": 0, "type": "electric_scooter", "bike_id": "bb3c5760665749a207a47cf98d2c6a8c", "lat": 38.8852855, "lon": -76.98114833333334, "rental_uris": {"android": "https://dc.lft.to/lastmile_qr_scan", "ios": "https://dc.lft.to/lastmile_qr_scan"}, "is_disabled": 0, "fusion_lat": 0.0, "name": "bb3c5760665749a207a47cf98d2c6a8c", "fusion_lon": 0.0}, {"is_reserved": 0, "type": "electric_scooter", "bike_id": "35186a7db9ca0475f294705ed87677e3", "lat": 38.918202666666666, "lon": -77.0345815, "rental_uris": {"android": "https://dc.lft.to/lastmile_qr_scan", "ios": "https://dc.lft.to/lastmile_qr_scan"}, "is_disabled": 0, "fusion_lat": 0.0, "name": "35186a7db9ca0475f294705ed87677e3", "fusion_lon": 0.0}, {"is_reserved": 0, "type": "electric_bike", "bike_id": "901be73b3ed091d3afd2b6efd3ee9b1c", "lat": 38.85433883333334, "lon": -77.08318033333333, "rental_uris": {"android": "https://dc.lft.to/lastmile_qr_scan", "ios": "https://dc.lft.to/lastmile_qr_scan"}, "is_disabled": 0, "fusion_lat": 0.0, "name": "901be73b3ed091d3afd2b6efd3ee9b1c", "fusion_lon": 0.0}, {"is_reserved": 0, "type": "electric_scooter", "bike_id": "d17aa3feca05b83e61580ab1195a435f", "lat": 38.92521583333333, "lon": -77.05059333333334, "rental_uris": {"android": "https://dc.lft.to/lastmile_qr_scan", "ios": "https://dc.lft.to/lastmile_qr_scan"}, "is_disabled": 0, "fusion_lat": 0.0, "name": "d17aa3feca05b83e61580ab1195a435f", "fusion_lon": 0.0}, {"is_reserved": 0, "type": "electric_scooter", "bike_id": "c9095596b164a38e16d5bc68bb7615ff", "lat": 38.866327166666665, "lon": -76.98287233333333, "rental_uris": {"android": "https://dc.lft.to/lastmile_qr_scan", "ios": "https://dc.lft.to/lastmile_qr_scan"}, "is_disabled": 0, "fusion_lat": 0.0, "name": "c9095596b164a38e16d5bc68bb7615ff", "fusion_lon": 0.0}, {"is_reserved": 0, "type": "electric_scooter", "bike_id": "93916784e93142f38558f33e0da6b9b7", "lat": 38.89916616666667, "lon": -77.03376566666667, "rental_uris": {"android": "https://dc.lft.to/lastmile_qr_scan", "ios": "https://dc.lft.to/lastmile_qr_scan"}, "is_disabled": 0, "fusion_lat": 0.0, "name": "93916784e93142f38558f33e0da6b9b7", "fusion_lon": 0.0}, {"is_reserved": 0, "type": "electric_scooter", "bike_id": "d14e6bb44b8867d5c84e2556e9ac6839", "lat": 38.926130666666666, "lon": -77.02699133333333, "rental_uris": {"android": "https://dc.lft.to/lastmile_qr_scan", "ios": "https://dc.lft.to/lastmile_qr_scan"}, "is_disabled": 0, "fusion_lat": 0.0, "name": "d14e6bb44b8867d5c84e2556e9ac6839", "fusion_lon": 0.0}, {"is_reserved": 0, "type": "electric_scooter", "bike_id": "d2d7ce8a620083c453626620ef9f56f8", "lat": 38.9151535, "lon": -77.0217885, "rental_uris": {"android": "https://dc.lft.to/lastmile_qr_scan", "ios": "https://dc.lft.to/lastmile_qr_scan"}, "is_disabled": 0, "fusion_lat": 0.0, "name": "d2d7ce8a620083c453626620ef9f56f8", "fusion_lon": 0.0}, {"is_reserved": 0, "type": "electric_scooter", "bike_id": "25260e37462a2f67eef86eff4805c53e", "lat": 38.947179, "lon": -77.041526, "rental_uris": {"android": "https://dc.lft.to/lastmile_qr_scan", "ios": "https://dc.lft.to/lastmile_qr_scan"}, "is_disabled": 0, "fusion_lat": 0.0, "name": "25260e37462a2f67eef86eff4805c53e", "fusion_lon": 0.0}, {"is_reserved": 0, "type": "electric_scooter", "bike_id": "0446b88196066af3b5e66814bcea602a", "lat": 38.917425333333334, "lon": -77.03180383333333, "rental_uris": {"android": "https://dc.lft.to/lastmile_qr_scan", "ios": "https://dc.lft.to/lastmile_qr_scan"}, "is_disabled": 0, "fusion_lat": 0.0, "name": "0446b88196066af3b5e66814bcea602a", "fusion_lon": 0.0}, {"is_reserved": 0, "type": "electric_scooter", "bike_id": "9579faaa73f0e6db3b8e2016fcab8ad7", "lat": 38.892125666666665, "lon": -77.02409016666667, "rental_uris": {"android": "https://dc.lft.to/lastmile_qr_scan", "ios": "https://dc.lft.to/lastmile_qr_scan"}, "is_disabled": 0, "fusion_lat": 0.0, "name": "9579faaa73f0e6db3b8e2016fcab8ad7", "fusion_lon": 0.0}, {"is_reserved": 0, "type": "electric_scooter", "bike_id": "e92fe5554df6212fe415b91b95a558cd", "lat": 38.8777775, "lon": -76.99508966666667, "rental_uris": {"android": "https://dc.lft.to/lastmile_qr_scan", "ios": "https://dc.lft.to/lastmile_qr_scan"}, "is_disabled": 0, "fusion_lat": 0.0, "name": "e92fe5554df6212fe415b91b95a558cd", "fusion_lon": 0.0}, {"is_reserved": 0, "type": "electric_scooter", "bike_id": "ebe585905352efd12f84204654731f33", "lat": 38.91638066666667, "lon": -77.02228766666667, "rental_uris": {"android": "https://dc.lft.to/lastmile_qr_scan", "ios": "https://dc.lft.to/lastmile_qr_scan"}, "is_disabled": 0, "fusion_lat": 0.0, "name": "ebe585905352efd12f84204654731f33", "fusion_lon": 0.0}, {"is_reserved": 0, "type": "electric_scooter", "bike_id": "7b802f4debb7a301a3cf3dee8eb377c1", "lat": 38.957477, "lon": -77.02101666666667, "rental_uris": {"android": "https://dc.lft.to/lastmile_qr_scan", "ios": "https://dc.lft.to/lastmile_qr_scan"}, "is_disabled": 0, "fusion_lat": 0.0, "name": "7b802f4debb7a301a3cf3dee8eb377c1", "fusion_lon": 0.0}, {"is_reserved": 0, "type": "electric_scooter", "bike_id": "2ff41b155299626a3ed421a1f60e4925", "lat": 38.970038, "lon": -77.00907116666667, "rental_uris": {"android": "https://dc.lft.to/lastmile_qr_scan", "ios": "https://dc.lft.to/lastmile_qr_scan"}, "is_disabled": 0, "fusion_lat": 0.0, "name": "2ff41b155299626a3ed421a1f60e4925", "fusion_lon": 0.0}, {"is_reserved": 0, "type": "electric_scooter", "bike_id": "e0f0f8a5de661f460b4848c686d042f6", "lat": 38.895955, "lon": -76.92983433333333, "rental_uris": {"android": "https://dc.lft.to/lastmile_qr_scan", "ios": "https://dc.lft.to/lastmile_qr_scan"}, "is_disabled": 0, "fusion_lat": 0.0, "name": "e0f0f8a5de661f460b4848c686d042f6", "fusion_lon": 0.0}, {"is_reserved": 0, "type": "electric_scooter", "bike_id": "22e594f6f456e61fecd128524cd31e81", "lat": 38.90238183333334, "lon": -77.0325205, "rental_uris": {"android": "https://dc.lft.to/lastmile_qr_scan", "ios": "https://dc.lft.to/lastmile_qr_scan"}, "is_disabled": 0, "fusion_lat": 0.0, "name": "22e594f6f456e61fecd128524cd31e81", "fusion_lon": 0.0}, {"is_reserved": 0, "type": "electric_scooter", "bike_id": "54f21e542ce6a68545c97cb35baa9aca", "lat": 38.89821633333333, "lon": -77.02190783333333, "rental_uris": {"android": "https://dc.lft.to/lastmile_qr_scan", "ios": "https://dc.lft.to/lastmile_qr_scan"}, "is_disabled": 0, "fusion_lat": 0.0, "name": "54f21e542ce6a68545c97cb35baa9aca", "fusion_lon": 0.0}, {"is_reserved": 0, "type": "electric_scooter", "bike_id": "77f5fe697af44b460130b6c562ef735f", "lat": 38.90546766666667, "lon": -77.03252566666667, "rental_uris": {"android": "https://dc.lft.to/lastmile_qr_scan", "ios": "https://dc.lft.to/lastmile_qr_scan"}, "is_disabled": 0, "fusion_lat": 0.0, "name": "77f5fe697af44b460130b6c562ef735f", "fusion_lon": 0.0}, {"is_reserved": 0, "type": "electric_bike", "bike_id": "c62a274c61343d58c3fb6c4669677668", "lat": 38.8915605, "lon": -76.99840616666667, "rental_uris": {"android": "https://dc.lft.to/lastmile_qr_scan", "ios": "https://dc.lft.to/lastmile_qr_scan"}, "is_disabled": 0, "fusion_lat": 0.0, "name": "c62a274c61343d58c3fb6c4669677668", "fusion_lon": 0.0}, {"is_reserved": 0, "type": "electric_scooter", "bike_id": "9677110d3e29efd72276e4014a162202", "lat": 38.87642366666667, "lon": -77.0082475, "rental_uris": {"android": "https://dc.lft.to/lastmile_qr_scan", "ios": "https://dc.lft.to/lastmile_qr_scan"}, "is_disabled": 0, "fusion_lat": 0.0, "name": "9677110d3e29efd72276e4014a162202", "fusion_lon": 0.0}, {"is_reserved": 0, "type": "electric_scooter", "bike_id": "4aa4d71c7f14e7fe69fc36be972e42cf", "lat": 38.927255333333335, "lon": -77.03554616666666, "rental_uris": {"android": "https://dc.lft.to/lastmile_qr_scan", "ios": "https://dc.lft.to/lastmile_qr_scan"}, "is_disabled": 0, "fusion_lat": 0.0, "name": "4aa4d71c7f14e7fe69fc36be972e42cf", "fusion_lon": 0.0}, {"is_reserved": 0, "type": "electric_scooter", "bike_id": "52ff07762b4595d1d1389f9a531ab53c", "lat": 38.899624333333335, "lon": -77.01601216666667, "rental_uris": {"android": "https://dc.lft.to/lastmile_qr_scan", "ios": "https://dc.lft.to/lastmile_qr_scan"}, "is_disabled": 0, "fusion_lat": 0.0, "name": "52ff07762b4595d1d1389f9a531ab53c", "fusion_lon": 0.0},