{"data": {"bikes": [{"rental_uris": {"ios": "https://dc.lft.to/lastmile_qr_scan", "android": "https://dc.lft.to/lastmile_qr_scan"}, "lon": -77.05313333333334, "type": "electric_scooter", "fusion_lat": 0.0, "lat": 38.90509266666667, "name": "2856696f9113a47e819eed8bf67f9e46", "fusion_lon": 0.0, "bike_id": "2856696f9113a47e819eed8bf67f9e46", "is_disabled": 0, "is_reserved": 0}, {"rental_uris": {"ios": "https://dc.lft.to/lastmile_qr_scan", "android": "https://dc.lft.to/lastmile_qr_scan"}, "lon": -77.01227666666666, "type": "electric_scooter", "fusion_lat": 0.0, "lat": 38.914047, "name": "dec0010f02955db803fe25827d037465", "fusion_lon": 0.0, "bike_id": "dec0010f02955db803fe25827d037465", "is_disabled": 0, "is_reserved": 0}, {"rental_uris": {"ios": "https://dc.lft.to/lastmile_qr_scan", "android": "https://dc.lft.to/lastmile_qr_scan"}, "lon": -77.03070983333333, "type": "electric_scooter", "fusion_lat": 0.0, "lat": 38.899713166666665, "name": "d56077c14cb62a3b577748b40f1a181c", "fusion_lon": 0.0, "bike_id": "d56077c14cb62a3b577748b40f1a181c", "is_disabled": 0, "is_reserved": 0}, {"rental_uris": {"ios": "https://dc.lft.to/lastmile_qr_scan", "android": "https://dc.lft.to/lastmile_qr_scan"}, "lon": -77.044723, "type": "electric_scooter", "fusion_lat": 0.0, "lat": 38.90899666666667, "name": "241995f6b433610fbd69d80362d1a17a", "fusion_lon": 0.0, "bike_id": "241995f6b433610fbd69d80362d1a17a", "is_disabled": 0, "is_reserved": 0}, {"rental_uris": {"ios": "https://dc.lft.to/lastmile_qr_scan", "android": "https://dc.lft.to/lastmile_qr_scan"}, "lon": -77.03378016666667, "type": "electric_scooter", "fusion_lat": 0.0, "lat": 38.90962116666667, "name": "aaf71bc9e099f55704032330f42b7305", "fusion_lon": 0.0, "bike_id": "aaf71bc9e099f55704032330f42b7305", "is_disabled": 0, "is_reserved": 0}, {"rental_uris": {"ios": "https://dc.lft.to/lastmile_qr_scan", "android": "https://dc.lft.to/lastmile_qr_scan"}, "lon": -77.032195, "type": "electric_scooter", "fusion_lat": 0.0, "lat": 38.89222933333333, "name": "4a42184820e82055a7aeccf614e11680", "fusion_lon": 0.0, "bike_id": "4a42184820e82055a7aeccf614e11680", "is_disabled": 0, "is_reserved": 0}, {"rental_uris": {"ios": "https://dc.lft.to/lastmile_qr_scan", "android": "https://dc.lft.to/lastmile_qr_scan"}, "lon": -76.99775666666666, "type": "electric_scooter", "fusion_lat": 0.0, "lat": 38.922740833333336, "name": "b90f9afdce8a2a6e847343ed772b9464", "fusion_lon": 0.0, "bike_id": "b90f9afdce8a2a6e847343ed772b9464", "is_disabled": 0, "is_reserved": 0}, {"rental_uris": {"ios": "https://dc.lft.to/lastmile_qr_scan", "android": "https://dc.lft.to/lastmile_qr_scan"}, "lon": -77.02207566666667, "type": "electric_scooter", "fusion_lat": 0.0, "lat": 38.887714833333334, "name": "fe853a943c5d281d22225701616473a9", "fusion_lon": 0.0, "bike_id": "fe853a943c5d281d22225701616473a9", "is_disabled": 0, "is_reserved": 0}, {"rental_uris": {"ios": "https://dc.lft.to/lastmile_qr_scan", "android": "https://dc.lft.to/lastmile_qr_scan"}, "lon": -76.96789016666666, "type": "electric_scooter", "fusion_lat": 0.0, "lat": 38.8614435, "name": "53a2ce085cde8cb01849e6c83380d982", "fusion_lon": 0.0, "bike_id": "53a2ce085cde8cb01849e6c83380d982", "is_disabled": 0, "is_reserved": 0}, {"rental_uris": {"ios": "https://dc.lft.to/lastmile_qr_scan", "android": "https://dc.lft.to/lastmile_qr_scan"}, "lon": -77.03472116666667, "type": "electric_scooter", "fusion_lat": 0.0, "lat": 38.92059, "name": "e23b4771a7a99c48642618540c261e08", "fusion_lon": 0.0, "bike_id": "e23b4771a7a99c48642618540c261e08", "is_disabled": 0, "is_reserved": 0}, {"rental_uris": {"ios": "https://dc.lft.to/lastmile_qr_scan", "android": "https://dc.lft.to/lastmile_qr_scan"}, "lon": -76.98352333333334, "type": "electric_scooter", "fusion_lat": 0.0, "lat": 38.864837, "name": "c48d87f17e54ee111724eda57ba0991c", "fusion_lon": 0.0, "bike_id": "c48d87f17e54ee111724eda57ba0991c", "is_disabled": 0, "is_reserved": 0}, {"rental_uris": {"ios": "https://dc.lft.to/lastmile_qr_scan", "android": "https://dc.lft.to/lastmile_qr_scan"}, "lon": -77.11430116666666, "type": "electric_bike", "fusion_lat": 0.0, "lat": 38.852483666666664, "name": "087632411297cf13acc3a354d1825ba7", "fusion_lon": 0.0, "bike_id": "087632411297cf13acc3a354d1825ba7", "is_disabled": 0, "is_reserved": 0}, {"rental_uris": {"ios": "https://dc.lft.to/lastmile_qr_scan", "android": "https://dc.lft.to/lastmile_qr_scan"}, "lon": -77.0288375, "type": "electric_scooter", "fusion_lat": 0.0, "lat": 38.9072515, "name": "667dfb0ab524e6bdbe74b488ec8cca43", "fusion_lon": 0.0, "bike_id": "667dfb0ab524e6bdbe74b488ec8cca43", "is_disabled": 0, "is_reserved": 0}, {"rental_uris": {"ios": "https://dc.lft.to/lastmile_qr_scan", "android": "https://dc.lft.to/lastmile_qr_scan"}, "lon": -76.97084133333334, "type": "electric_scooter", "fusion_lat": 0.0, "lat": 38.8787875, "name": "e032d2f004e4a52ebe2f78305723a249", "fusion_lon": 0.0, "bike_id": "e032d2f004e4a52ebe2f78305723a249", "is_disabled": 0, "is_reserved": 0}, {"rental_uris": {"ios": "https://dc.lft.to/lastmile_qr_scan", "android": "https://dc.lft.to/lastmile_qr_scan"}, "lon": -76.99834383333334, "type": "electric_bike", "fusion_lat": 0.0, "lat": 38.8392015, "name": "1bc8b4996821c9000c3331b2baeb31ef", "fusion_lon": 0.0, "bike_id": "1bc8b4996821c9000c3331b2baeb31ef", "is_disabled": 0, "is_reserved": 0}, {"rental_uris": {"ios": "https://dc.lft.to/lastmile_qr_scan", "android": "https://dc.lft.to/lastmile_qr_scan"}, "lon": -77.000617, "type": "electric_scooter", "fusion_lat": 0.0, "lat": 38.9000455, "name": "567443bc9b9caafa152e270a4c4c09f6", "fusion_lon": 0.0, "bike_id": "567443bc9b9caafa152e270a4c4c09f6", "is_disabled": 0, "is_reserved": 0}, {"rental_uris": {"ios": "https://dc.lft.to/lastmile_qr_scan", "android": "https://dc.lft.to/lastmile_qr_scan"}, "lon": -77.02999066666666, "type": "electric_scooter", "fusion_lat": 0.0, "lat": 38.93456883333333, "name": "e0a904b85851244c8c88fe8047cd84fc", "fusion_lon": 0.0, "bike_id": "e0a904b85851244c8c88fe8047cd84fc", "is_disabled": 0, "is_reserved": 0}, {"rental_uris": {"ios": "https://dc.lft.to/lastmile_qr_scan", "android": "https://dc.lft.to/lastmile_qr_scan"}, "lon": -77.01333683333333, "type": "electric_scooter", "fusion_lat": 0.0, "lat": 38.917000333333334, "name": "1d974d7269d9937fa421fc6e77a16935", "fusion_lon": 0.0, "bike_id": "1d974d7269d9937fa421fc6e77a16935", "is_disabled": 0, "is_reserved": 0}, {"rental_uris": {"ios": "https://dc.lft.to/lastmile_qr_scan", "android": "https://dc.lft.to/lastmile_qr_scan"}, "lon": -76.935706, "type": "electric_bike", "fusion_lat": 0.0, "lat": 38.88527083333334, "name": "389ba7857e27720bba9e2a2ab00acaa3", "fusion_lon": 0.0, "bike_id": "389ba7857e27720bba9e2a2ab00acaa3", "is_disabled": 0, "is_reserved": 0}, {"rental_uris": {"ios": "https://dc.lft.to/lastmile_qr_scan", "android": "https://dc.lft.to/lastmile_qr_scan"}, "lon": -76.98615083333334, "type": "electric_scooter", "fusion_lat": 0.0, "lat": 38.85462583333333, "name": "7940af418d470d0536e06f0046ebbd41", "fusion_lon": 0.0, "bike_id": "7940af418d470d0536e06f0046ebbd41", "is_disabled": 0, "is_reserved": 0}, {"rental_uris": {"ios": "https://dc.lft.to/lastmile_qr_scan", "android": "https://dc.lft.to/lastmile_qr_scan"}, "lon": -77.005063, "type": "electric_scooter", "fusion_lat": 0.0, "lat": 38.875369, "name": "c0a7dcac4dba778b2d342c5fbf9b3f02", "fusion_lon": 0.0, "bike_id": "c0a7dcac4dba778b2d342c5fbf9b3f02", "is_disabled": 0, "is_reserved": 0}, {"rental_uris": {"ios": "https://dc.lft.to/lastmile_qr_scan", "android": "https://dc.lft.to/lastmile_qr_scan"}, "lon": -77.0212795, "type": "electric_scooter", "fusion_lat": 0.0, "lat": 38.9160795, "name": "f1c5c3f1c4eb62317105d0c5ab5e216b", "fusion_lon": 0.0, "bike_id": "f1c5c3f1c4eb62317105d0c5ab5e216b", "is_disabled": 0, "is_reserved": 0}, {"rental_uris": {"ios": "https://dc.lft.to/lastmile_qr_scan", "android": "https://dc.lft.to/lastmile_qr_scan"}, "lon": -77.010767, "type": "electric_bike", "fusion_lat": 0.0, "lat": 38.96260083333333, "name": "0434825d0acdc41a2b5f33de490cb425", "fusion_lon": 0.0, "bike_id": "0434825d0acdc41a2b5f33de490cb425", "is_disabled": 0, "is_reserved": 0}, {"rental_uris": {"ios": "https://dc.lft.to/lastmile_qr_scan", "android": "https://dc.lft.to/lastmile_qr_scan"}, "lon": -77.02650916666667, "type": "electric_scooter", "fusion_lat": 0.0, "lat": 38.9386055, "name": "4ff1c247e2190444989817834ac10c19", "fusion_lon": 0.0, "bike_id": "4ff1c247e2190444989817834ac10c19", "is_disabled": 0, "is_reserved": 0}, {"rental_uris": {"ios": "https://dc.lft.to/lastmile_qr_scan", "android": "https://dc.lft.to/lastmile_qr_scan"}, "lon": -77.02175166666666, "type": "electric_scooter", "fusion_lat": 0.0, "lat": 38.91405566666667, "name": "2eaa2102ae657016c973a998567c190b", "fusion_lon": 0.0, "bike_id": "2eaa2102ae657016c973a998567c190b", "is_disabled": 0, "is_reserved": 0}, {"rental_uris": {"ios": "https://dc.lft.to/lastmile_qr_scan", "android": "https://dc.lft.to/lastmile_qr_scan"}, "lon": -77.04491066666667, "type": "electric_bike", "fusion_lat": 0.0, "lat": 38.919502666666666, "name": "11f6726584278de798444adcd9ac39ae", "fusion_lon": 0.0, "bike_id": "11f6726584278de798444adcd9ac39ae", "is_disabled": 0, "is_reserved": 0}, {"rental_uris": {"ios": "https://dc.lft.to/lastmile_qr_scan", "android": "https://dc.lft.to/lastmile_qr_scan"}, "lon": -77.02594233333333, "type": "electric_scooter", "fusion_lat": 0.0, "lat": 38.900188666666665, "name": "018a7f96e89e019ed117fd4abef7d072", "fusion_lon": 0.0, "bike_id": "018a7f96e89e019ed117fd4abef7d072", "is_disabled": 0, "is_reserved": 0}, {"rental_uris": {"ios": "https://dc.lft.to/lastmile_qr_scan", "android": "https://dc.lft.to/lastmile_qr_scan"}, "lon": -77.04105666666666, "type": "electric_scooter", "fusion_lat": 0.0, "lat": 38.923668, "name": "af9060413ab3af4336c1bc1331066386", "fusion_lon": 0.0, "bike_id": "af9060413ab3af4336c1bc1331066386", "is_disabled": 0, "is_reserved": 0}, {"rental_uris": {"ios": "https://dc.lft.to/lastmile_qr_scan", "android": "https://dc.lft.to/lastmile_qr_scan"}, "lon": -77.0257025, "type": "electric_scooter", "fusion_lat": 0.0, "lat": 38.887453, "name": "1f1bd1bab88c107a00a9c0c8ef65b941", "fusion_lon": 0.0, "bike_id": "1f1bd1bab88c107a00a9c0c8ef65b941", "is_disabled": 0, "is_reserved": 0}, {"rental_uris": {"ios": "https://dc.lft.to/lastmile_qr_scan", "android": "https://dc.lft.to/lastmile_qr_scan"}, "lon": -76.98023666666667, "type": "electric_scooter", "fusion_lat": 0.0, "lat": 38.90376666666667, "name": "f5dbac666acd28655c03fa5ef4131442", "fusion_lon": 0.0, "bike_id": "f5dbac666acd28655c03fa5ef4131442", "is_disabled": 0, "is_reserved": 0}, {"rental_uris": {"ios": "https://dc.lft.to/lastmile_qr_scan", "android": "https://dc.lft.to/lastmile_qr_scan"}, "lon": -76.95186516666666, "type": "electric_scooter", "fusion_lat": 0.0, "lat": 38.891358833333335, "name": "ee2c130ce2dd0cd95a0369b9ecf7a688", "fusion_lon": 0.0, "bike_id": "ee2c130ce2dd0cd95a0369b9ecf7a688", "is_disabled": 0, "is_reserved": 0}, {"rental_uris": {"ios": "https://dc.lft.to/lastmile_qr_scan", "android": "https://dc.lft.to/lastmile_qr_scan"}, "lon": -77.00885633333333, "type": "electric_scooter", "fusion_lat": 0.0, "lat": 38.90510416666667, "name": "a2c110b198bab6b47a732eb2f3c45f2d", "fusion_lon": 0.0, "bike_id": "a2c110b198bab6b47a732eb2f3c45f2d", "is_disabled": 0, "is_reserved": 0}, {"rental_uris": {"ios": "https://dc.lft.to/lastmile_qr_scan", "android": "https://dc.lft.to/lastmile_qr_scan"}, "lon": -77.04999666666667, "type": "electric_scooter", "fusion_lat": 0.0, "lat": 38.8922965, "name": "a6bba4a0c1f4bdeb0d84f32c20d4099d", "fusion_lon": 0.0, "bike_id": "a6bba4a0c1f4bdeb0d84f32c20d4099d", "is_disabled": 0, "is_reserved": 0}, {"rental_uris": {"ios": "https://dc.lft.to/lastmile_qr_scan", "android": "https://dc.lft.to/lastmile_qr_scan"}, "lon": -77.00919933333333, "type": "electric_scooter", "fusion_lat": 0.0, "lat": 38.909289, "name": "fb26d9e3fed3dd49735b01d50a95b470", "fusion_lon": 0.0, "bike_id": "fb26d9e3fed3dd49735b01d50a95b470", "is_disabled": 0, "is_reserved": 0}, {"rental_uris": {"ios": "https://dc.lft.to/lastmile_qr_scan", "android": "https://dc.lft.to/lastmile_qr_scan"}, "lon": -77.10328816666667, "type": "electric_bike", "fusion_lat": 0.0, "lat": 38.965103666666664, "name": "97549d408b981d9546f73c22bc054035", "fusion_lon": 0.0, "bike_id": "97549d408b981d9546f73c22bc054035", "is_disabled": 0, "is_reserved": 0}, {"rental_uris": {"ios": "https://dc.lft.to/lastmile_qr_scan", "android": "https://dc.lft.to/lastmile_qr_scan"}, "lon": -77.03200016666666, "type": "electric_scooter", "fusion_lat": 0.0, "lat": 38.9095475, "name": "3d149b030a3580d0695ae95755994f87", "fusion_lon": 0.0, "bike_id": "3d149b030a3580d0695ae95755994f87", "is_disabled": 0, "is_reserved": 0}, {"rental_uris": {"ios": "https://dc.lft.to/lastmile_qr_scan", "android": "https://dc.lft.to/lastmile_qr_scan"}, "lon": -76.94899916666667, "type": "electric_scooter", "fusion_lat": 0.0, "lat": 38.895497, "name": "a9e9e57792bf411ad4484f84630a9246", "fusion_lon": 0.0, "bike_id": "a9e9e57792bf411ad4484f84630a9246", "is_disabled": 0, "is_reserved": 0}, {"rental_uris": {"ios": "https://dc.lft.to/lastmile_qr_scan", "android": "https://dc.lft.to/lastmile_qr_scan"}, "lon": -77.016426, "type": "electric_scooter", "fusion_lat": 0.0, "lat": 38.92938483333333, "name": "00ffade8720da11b49dbb7bab6a1962f", "fusion_lon": 0.0, "bike_id": "00ffade8720da11b49dbb7bab6a1962f", "is_disabled": 0, "is_reserved": 0}, {"rental_uris": {"ios": "https://dc.lft.to/lastmile_qr_scan", "android": "https://dc.lft.to/lastmile_qr_scan"}, "lon": -77.03489883333333, "type": "electric_scooter", "fusion_lat": 0.0, "lat": 38.923533, "name": "1a9222dac9a2f76acd615673ceb2a86e", "fusion_lon": 0.0, "bike_id": "1a9222dac9a2f76acd615673ceb2a86e", "is_disabled": 0, "is_reserved": 0}, {"rental_uris": {"ios": "https://dc.lft.to/lastmile_qr_scan", "android": "https://dc.lft.to/lastmile_qr_scan"}, "lon": -77.00075216666667, "type": "electric_scooter", "fusion_lat": 0.0, "lat": 38.87499733333333, "name": "170faba18c24262cff47d65547fdf5f0", "fusion_lon": 0.0, "bike_id": "170faba18c24262cff47d65547fdf5f0", "is_disabled": 0, "is_reserved": 0}, {"rental_uris": {"ios": "https://dc.lft.to/lastmile_qr_scan", "android": "https://dc.lft.to/lastmile_qr_scan"}, "lon": -77.02248816666666, "type": "electric_scooter", "fusion_lat": 0.0, "lat": 38.92499, "name": "1150f12d330487f3304c5ebf8369035e", "fusion_lon": 0.0, "bike_id": "1150f12d330487f3304c5ebf8369035e", "is_disabled": 0, "is_reserved": 0}, {"rental_uris": {"ios": "https://dc.lft.to/lastmile_qr_scan", "android": "https://dc.lft.to/lastmile_qr_scan"}, "lon": -77.00589483333333, "type": "electric_bike", "fusion_lat": 0.0, "lat": 38.87543133333333, "name": "8c01ef85c1798a978d6b4bffb7917f33", "fusion_lon": 0.0, "bike_id": "8c01ef85c1798a978d6b4bffb7917f33", "is_disabled": 0, "is_reserved": 0}, {"rental_uris": {"ios": "https://dc.lft.to/lastmile_qr_scan", "android": "https://dc.lft.to/lastmile_qr_scan"}, "lon": -77.03296833333333, "type": "electric_scooter", "fusion_lat": 0.0, "lat": 38.95682566666667, "name": "b2855ab40083928d4b8917bb7da79974", "fusion_lon": 0.0, "bike_id": "b2855ab40083928d4b8917bb7da79974", "is_disabled": 0, "is_reserved": 0}, {"rental_uris": {"ios": "https://dc.lft.to/lastmile_qr_scan", "android": "https://dc.lft.to/lastmile_qr_scan"}, "lon": -77.03155033333333, "type": "electric_scooter", "fusion_lat": 0.0, "lat": 38.91190233333333, "name": "8dd8ce248b4d135475bd84b246ead241", "fusion_lon": 0.0, "bike_id": "8dd8ce248b4d135475bd84b246ead241", "is_disabled": 0, "is_reserved": 0}, {"rental_uris": {"ios": "https://dc.lft.to/lastmile_qr_scan", "android": "https://dc.lft.to/lastmile_qr_scan"}, "lon": -76.99382383333334, "type": "electric_scooter", "fusion_lat": 0.0, "lat": 38.90065416666667, "name": "fd4be854c091170bfcd2c22311c6c9f3", "fusion_lon": 0.0, "bike_id": "fd4be854c091170bfcd2c22311c6c9f3", "is_disabled": 0, "is_reserved": 0}, {"rental_uris": {"ios": "https://dc.lft.to/lastmile_qr_scan", "android": "https://dc.lft.to/lastmile_qr_scan"}, "lon": -77.03281166666666, "type": "electric_scooter", "fusion_lat": 0.0, "lat": 38.936931, "name": "0df4c3bc539dc852e635e7baf4d60024", "fusion_lon": 0.0, "bike_id": "0df4c3bc539dc852e635e7baf4d60024", "is_disabled": 0, "is_reserved": 0}, {"rental_uris": {"ios": "https://dc.lft.to/lastmile_qr_scan", "android": "https://dc.lft.to/lastmile_qr_scan"}, "lon": -77.046043, "type": "electric_scooter", "fusion_lat": 0.0, "lat": 38.9138365, "name": "60a5f2ae7acf90e8bad63e282cf55b21", "fusion_lon": 0.0, "bike_id": "60a5f2ae7acf90e8bad63e282cf55b21", "is_disabled": 0, "is_reserved": 0}, {"rental_uris": {"ios": "https://dc.lft.to/lastmile_qr_scan", "android": "https://dc.lft.to/lastmile_qr_scan"}, "lon": -77.04071316666666, "type": "electric_bike", "fusion_lat": 0.0, "lat": 38.81239733333334, "name": "33c912b91f2d87dc3b60e82283cd0155", "fusion_lon": 0.0, "bike_id": "33c912b91f2d87dc3b60e82283cd0155", "is_disabled": 0, "is_reserved": 0}, {"rental_uris": {"ios": "https://dc.lft.to/lastmile_qr_scan", "android": "https://dc.lft.to/lastmile_qr_scan"}, "lon": -77.0284575, "type": "electric_scooter", "fusion_lat": 0.0, "lat": 38.93248466666667, "name": "38dab335e69fb6304f9d5e0c8f2b82a1", "fusion_lon": 0.0, "bike_id": "38dab335e69fb6304f9d5e0c8f2b82a1", "is_disabled": 0, "is_reserved": 0}, {"rental_uris": {"ios": "https://dc.lft.to/lastmile_qr_scan", "android": "https://dc.lft.to/lastmile_qr_scan"}, "lon": -77.02985916666667, "type": "electric_scooter", "fusion_lat": 0.0, "lat": 38.956300166666665, "name": "30ea547fa94a7c13cde28bf60c5fcf33", "fusion_lon": 0.0, "bike_id": "30ea547fa94a7c13cde28bf60c5fcf33", "is_disabled": 0, "is_reserved": 0}, {"rental_uris": {"ios": "https://dc.lft.to/lastmile_qr_scan", "android": "https://dc.lft.to/lastmile_qr_scan"}, "lon": -76.93893583333333, "type": "electric_bike", "fusion_lat": 0.0, "lat": 38.88325283333333, "name": "d6eb6dbe57ae377b7817fd5909c48029", "fusion_lon": 0.0, "bike_id": "d6eb6dbe57ae377b7817fd5909c48029", "is_disabled": 0, "is_reserved": 0}, {"rental_uris": {"ios": "https://dc.lft.to/lastmile_qr_scan", "android": "https://dc.lft.to/lastmile_qr_scan"}, "lon": -77.02713333333334, "type": "electric_scooter", "fusion_lat": 0.0, "lat": 38.909553333333335, "name": "830b7a31c1e3230bf743c9a60b5f5d2f", "fusion_lon": 0.0, "bike_id": "830b7a31c1e3230bf743c9a60b5f5d2f", "is_disabled": 0, "is_reserved": 0}, {"rental_uris": {"ios": "https://dc.lft.to/lastmile_qr_scan", "android": "https://dc.lft.to/lastmile_qr_scan"}, "lon": -77.04079233333333, "type": "electric_scooter", "fusion_lat": 0.0, "lat": 38.911236333333335, "name": "72cc6424a6f936862af5d837144abdce", "fusion_lon": 0.0, "bike_id": "72cc6424a6f936862af5d837144abdce", "is_disabled": 0, "is_reserved": 0}, {"rental_uris": {"ios": "https://dc.lft.to/lastmile_qr_scan", "android": "https://dc.lft.to/lastmile_qr_scan"}, "lon": -77.03654583333334, "type": "electric_scooter", "fusion_lat": 0.0, "lat": 38.95493666666667, "name": "a245563607c526ad12045e82a90f2c3e", "fusion_lon": 0.0, "bike_id": "a245563607c526ad12045e82a90f2c3e", "is_disabled": 0, "is_reserved": 0}, {"rental_uris": {"ios": "https://dc.lft.to/lastmile_qr_scan", "android": "https://dc.lft.to/lastmile_qr_scan"}, "lon": -77.027252, "type": "electric_scooter", "fusion_lat": 0.0, "lat": 38.938003333333334, "name": "5a58f881ee67ba6d948b3e4a5478a46f", "fusion_lon": 0.0, "bike_id": "5a58f881ee67ba6d948b3e4a5478a46f", "is_disabled": 0, "is_reserved": 0}, {"rental_uris": {"ios": "https://dc.lft.to/lastmile_qr_scan", "android": "https://dc.lft.to/lastmile_qr_scan"}, "lon": -77.02809533333334, "type": "electric_scooter", "fusion_lat": 0.0, "lat": 38.923753166666664, "name": "0848d13a5e70671fe3397f5094faad69", "fusion_lon": 0.0, "bike_id": "0848d13a5e70671fe3397f5094faad69", "is_disabled": 0, "is_reserved": 0}, {"rental_uris": {"ios": "https://dc.lft.to/lastmile_qr_scan", "android": "https://dc.lft.to/lastmile_qr_scan"}, "lon": -77.031974, "type": "electric_scooter", "fusion_lat": 0.0, "lat": 38.8997805, "name": "db16ff26be02d072ef341d5f51f72a22", "fusion_lon": 0.0, "bike_id": "db16ff26be02d072ef341d5f51f72a22", "is_disabled": 0, "is_reserved": 0}, {"rental_uris": {"ios": "https://dc.lft.to/lastmile_qr_scan", "android": "https://dc.lft.to/lastmile_qr_scan"}, "lon": -77.01993366666666, "type": "electric_scooter", "fusion_lat": 0.0, "lat": 38.9023835, "name": "a815be72d4eb9b06ed29e501bba32672", "fusion_lon": 0.0, "bike_id": "a815be72d4eb9b06ed29e501bba32672", "is_disabled": 0, "is_reserved": 0}, {"rental_uris": {"ios": "https://dc.lft.to/lastmile_qr_scan", "android": "https://dc.lft.to/lastmile_qr_scan"}, "lon": -77.08931633333333, "type": "electric_bike", "fusion_lat": 0.0, "lat": 38.8411125, "name": "11c050d9e7844483b28314329cbc4915", "fusion_lon": 0.0, "bike_id": "11c050d9e7844483b28314329cbc4915", "is_disabled": 0, "is_reserved": 0}, {"rental_uris": {"ios": "https://dc.lft.to/lastmile_qr_scan", "android": "https://dc.lft.to/lastmile_qr_scan"}, "lon": -76.9977985, "type": "electric_scooter", "fusion_lat": 0.0, "lat": 38.84425133333333, "name": "df1ca6cea940f77c5e69715f82ef41df", "fusion_lon": 0.0, "bike_id": "df1ca6cea940f77c5e69715f82ef41df", "is_disabled": 0, "is_reserved": 0}, {"rental_uris": {"ios": "https://dc.lft.to/lastmile_qr_scan", "android": "https://dc.lft.to/lastmile_qr_scan"}, "lon": -77.03252716666667, "type": "electric_scooter", "fusion_lat": 0.0, "lat": 38.93526983333334, "name": "7f9f2286ee348f4436ebb4c4f463e857", "fusion_lon": 0.0, "bike_id": "7f9f2286ee348f4436ebb4c4f463e857", "is_disabled": 0, "is_reserved": 0}, {"rental_uris": {"ios": "https://dc.lft.to/lastmile_qr_scan", "android": "https://dc.lft.to/lastmile_qr_scan"}, "lon": -76.98090583333334, "type": "electric_bike", "fusion_lat": 0.0, "lat": 38.963591, "name": "dd53a95c7fcca30fb2227cfb604f6c57", "fusion_lon": 0.0, "bike_id": "dd53a95c7fcca30fb2227cfb604f6c57", "is_disabled": 0, "is_reserved": 0}, {"rental_uris": {"ios": "https://dc.lft.to/lastmile_qr_scan", "android": "https://dc.lft.to/lastmile_qr_scan"}, "lon": -77.03280616666666, "type": "electric_scooter", "fusion_lat": 0.0, "lat": 38.90563683333333, "name": "52fd28b8d48a51a76dce6499c86c6b89", "fusion_lon": 0.0, "bike_id": "52fd28b8d48a51a76dce6499c86c6b89", "is_disabled": 0, "is_reserved": 0}, {"rental_uris": {"ios": "https://dc.lft.to/lastmile_qr_scan", "android": "https://dc.lft.to/lastmile_qr_scan"}, "lon": -77.02768766666667, "type": "electric_scooter", "fusion_lat": 0.0, "lat": 38.88163483333334, "name": "a7925729d12ca43bde08e9157c7d58ec", "fusion_lon": 0.0, "bike_id": "a7925729d12ca43bde08e9157c7d58ec", "is_disabled": 0, "is_reserved": 0}, {"rental_uris": {"ios": "https://dc.lft.to/lastmile_qr_scan", "android": "https://dc.lft.to/lastmile_qr_scan"}, "lon": -77.04446283333333, "type": "electric_scooter", "fusion_lat": 0.0, "lat": 38.918853, "name": "93a78041f680961788f14eb5eb39d600", "fusion_lon": 0.0, "bike_id": "93a78041f680961788f14eb5eb39d600", "is_disabled": 0, "is_reserved": 0}, {"rental_uris": {"ios": "https://dc.lft.to/lastmile_qr_scan", "android": "https://dc.lft.to/lastmile_qr_scan"}, "lon": -77.07169866666666, "type": "electric_scooter", "fusion_lat": 0.0, "lat": 38.91453383333333, "name": "68f6f21d679d7219f738d13097627b95", "fusion_lon": 0.0, "bike_id": "68f6f21d679d7219f738d13097627b95", "is_disabled": 0, "is_reserved": 0}, {"rental_uris": {"ios": "https://dc.lft.to/lastmile_qr_scan", "android": "https://dc.lft.to/lastmile_qr_scan"}, "lon": -77.04188366666666, "type": "electric_scooter", "fusion_lat": 0.0, "lat": 38.92019916666667, "name": "eee410ee9e2ee1567b03a67b84d203ee", "fusion_lon": 0.0, "bike_id": "eee410ee9e2ee1567b03a67b84d203ee", "is_disabled": 0, "is_reserved": 0}, {"rental_uris": {"ios": "https://dc.lft.to/lastmile_qr_scan", "android": "https://dc.lft.to/lastmile_qr_scan"}, "lon": -77.02205666666667, "type": "electric_scooter", "fusion_lat": 0.0, "lat": 38.9055035, "name": "e11f94fa20d80819b7dac4f7e644ee13", "fusion_lon": 0.0, "bike_id": "e11f94fa20d80819b7dac4f7e644ee13", "is_disabled": 0, "is_reserved": 0}, {"rental_uris": {"ios": "https://dc.lft.to/lastmile_qr_scan", "android": "https://dc.lft.to/lastmile_qr_scan"}, "lon": -76.99631183333334, "type": "electric_scooter", "fusion_lat": 0.0, "lat": 38.84619683333333, "name": "70b792a069b3f0b013df0d19f7b1e79a", "fusion_lon": 0.0, "bike_id": "70b792a069b3f0b013df0d19f7b1e79a", "is_disabled": 0, "is_reserved": 0}, {"rental_uris": {"ios": "https://dc.lft.to/lastmile_qr_scan", "android": "https://dc.lft.to/lastmile_qr_scan"}, "lon": -77.04334716666666, "type": "electric_scooter", "fusion_lat": 0.0, "lat": 38.905523333333335, "name": "db7a57eda3a402a8f4b94b410563829f", "fusion_lon": 0.0, "bike_id": "db7a57eda3a402a8f4b94b410563829f", "is_disabled": 0, "is_reserved": 0}, {"rental_uris": {"ios": "https://dc.lft.to/lastmile_qr_scan", "android": "https://dc.lft.to/lastmile_qr_scan"}, "lon": -77.01121466666666, "type": "electric_scooter", "fusion_lat": 0.0, "lat": 38.913339666666666, "name": "059234eaee48074e8afe87445ad4151b", "fusion_lon": 0.0, "bike_id": "059234eaee48074e8afe87445ad4151b", "is_disabled": 0, "is_reserved": 0}, {"rental_uris": {"ios": "https://dc.lft.to/lastmile_qr_scan", "android": "https://dc.lft.to/lastmile_qr_scan"}, "lon": -77.0509225, "type": "electric_bike", "fusion_lat": 0.0, "lat": 38.81331633333333, "name": "c136dbfdb69fa333a575765f8c47ab0d", "fusion_lon": 0.0, "bike_id": "c136dbfdb69fa333a575765f8c47ab0d", "is_disabled": 0, "is_reserved": 0}, {"rental_uris": {"ios": "https://dc.lft.to/lastmile_qr_scan", "android": "https://dc.lft.to/lastmile_qr_scan"}, "lon": -77.1142195, "type": "electric_bike", "fusion_lat": 0.0, "lat": 38.84299733333334, "name": "5670786f641ba449b8a62c1e0208d446", "fusion_lon": 0.0, "bike_id": "5670786f641ba449b8a62c1e0208d446", "is_disabled": 0, "is_reserved": 0}, {"rental_uris": {"ios": "https://dc.lft.to/lastmile_qr_scan", "android": "https://dc.lft.to/lastmile_qr_scan"}, "lon": -76.99943133333333, "type": "electric_scooter", "fusion_lat": 0.0, "lat": 38.908681666666666, "name": "cd11dcd720778efbd2986536c1d19637", "fusion_lon": 0.0, "bike_id": "cd11dcd720778efbd2986536c1d19637", "is_disabled": 0, "is_reserved": 0}, {"rental_uris": {"ios": "https://dc.lft.to/lastmile_qr_scan", "android": "https://dc.lft.to/lastmile_qr_scan"}, "lon": -77.03703716666666, "type": "electric_scooter", "fusion_lat": 0.0, "lat": 38.916602166666664, "name": "840925eab6f98a508430379b04f11cc5", "fusion_lon": 0.0, "bike_id": "840925eab6f98a508430379b04f11cc5", "is_disabled": 0, "is_reserved": 0}, {"rental_uris": {"ios": "https://dc.lft.to/lastmile_qr_scan", "android": "https://dc.lft.to/lastmile_qr_scan"}, "lon": -77.028975, "type": "electric_scooter", "fusion_lat": 0.0, "lat": 38.8842585, "name": "9f7f52d90f8a4947a0ba7f3b90468fd0", "fusion_lon": 0.0, "bike_id": "9f7f52d90f8a4947a0ba7f3b90468fd0", "is_disabled": 0, "is_reserved": 0}, {"rental_uris": {"ios": "https://dc.lft.to/lastmile_qr_scan", "android": "https://dc.lft.to/lastmile_qr_scan"}, "lon": -77.015355, "type": "electric_scooter", "fusion_lat": 0.0, "lat": 38.88736733333333, "name": "8d8b7af28e130a3f29d5b819e11ff7db", "fusion_lon": 0.0, "bike_id": "8d8b7af28e130a3f29d5b819e11ff7db", "is_disabled": 0, "is_reserved": 0}, {"rental_uris": {"ios": "https://dc.lft.to/lastmile_qr_scan", "android": "https://dc.lft.to/lastmile_qr_scan"}, "lon": -77.025231, "type": "electric_scooter", "fusion_lat": 0.0, "lat": 38.9213775, "name": "0c0950faca71fcff80bcfc061479f557", "fusion_lon": 0.0, "bike_id": "0c0950faca71fcff80bcfc061479f557", "is_disabled": 0, "is_reserved": 0}, {"rental_uris": {"ios": "https://dc.lft.to/lastmile_qr_scan", "android": "https://dc.lft.to/lastmile_qr_scan"}, "lon": -77.0219045, "type": "electric_scooter", "fusion_lat": 0.0, "lat": 38.911293666666666, "name": "c25c342912c06709088112f1a0a96945", "fusion_lon": 0.0, "bike_id": "c25c342912c06709088112f1a0a96945", "is_disabled": 0, "is_reserved": 0}, {"rental_uris": {"ios": "https://dc.lft.to/lastmile_qr_scan", "android": "https://dc.lft.to/lastmile_qr_scan"}, "lon": -77.07907233333333, "type": "electric_bike", "fusion_lat": 0.0, "lat": 38.839316333333336, "name": "024a64091a1396b174239e647cf2bd73", "fusion_lon": 0.0, "bike_id": "024a64091a1396b174239e647cf2bd73", "is_disabled": 0, "is_reserved": 0}, {"rental_uris": {"ios": "https://dc.lft.to/lastmile_qr_scan", "android": "https://dc.lft.to/lastmile_qr_scan"}, "lon": -77.02978566666667, "type": "electric_scooter", "fusion_lat": 0.0, "lat": 38.895684, "name": "a48fc7610a16dee3af958c26caae7a02", "fusion_lon": 0.0, "bike_id": "a48fc7610a16dee3af958c26caae7a02", "is_disabled": 0, "is_reserved": 0}, {"rental_uris": {"ios": "https://dc.lft.to/lastmile_qr_scan", "android": "https://dc.lft.to/lastmile_qr_scan"}, "lon": -77.00100616666667, "type": "electric_scooter", "fusion_lat": 0.0, "lat": 38.873725, "name": "48eb48594d0426ed87e6fa99579f892c", "fusion_lon": 0.0, "bike_id": "48eb48594d0426ed87e6fa99579f892c", "is_disabled": 0, "is_reserved": 0}, {"rental_uris": {"ios": "https://dc.lft.to/lastmile_qr_scan", "android": "https://dc.lft.to/lastmile_qr_scan"}, "lon": -77.029753, "type": "electric_scooter", "fusion_lat": 0.0, "lat": 38.9078175, "name": "6efbbf7704b85e3f40bada1e91415ef3", "fusion_lon": 0.0, "bike_id": "6efbbf7704b85e3f40bada1e91415ef3", "is_disabled": 0, "is_reserved": 0}, {"rental_uris": {"ios": "https://dc.lft.to/lastmile_qr_scan", "android": "https://dc.lft.to/lastmile_qr_scan"}, "lon": -77.031695, "type": "electric_scooter", "fusion_lat": 0.0, "lat": 38.896102166666665, "name": "98f773888985da6bc26c6bfe6196239f", "fusion_lon": 0.0, "bike_id": "98f773888985da6bc26c6bfe6196239f", "is_disabled": 0, "is_reserved": 0}, {"rental_uris": {"ios": "https://dc.lft.to/lastmile_qr_scan", "android": "https://dc.lft.to/lastmile_qr_scan"}, "lon": -77.0328345, "type": "electric_bike", "fusion_lat": 0.0, "lat": 38.93766816666667, "name": "4087eb9b45b291d81c7366bce5a3683a", "fusion_lon": 0.0, "bike_id": "4087eb9b45b291d81c7366bce5a3683a", "is_disabled": 0, "is_reserved": 0}, {"rental_uris": {"ios": "https://dc.lft.to/lastmile_qr_scan", "android": "https://dc.lft.to/lastmile_qr_scan"}, "lon": -77.127424, "type": "electric_bike", "fusion_lat": 0.0, "lat": 38.888271333333336, "name": "0768df4e505ccf4c104fb34ed3143b48", "fusion_lon": 0.0, "bike_id": "0768df4e505ccf4c104fb34ed3143b48", "is_disabled": 0, "is_reserved": 0}, {"rental_uris": {"ios": "https://dc.lft.to/lastmile_qr_scan", "android": "https://dc.lft.to/lastmile_qr_scan"}, "lon": -76.987775, "type": "electric_scooter", "fusion_lat": 0.0, "lat": 38.911735666666665, "name": "a2427a197a71560a5239105d88248be1", "fusion_lon": 0.0, "bike_id": "a2427a197a71560a5239105d88248be1", "is_disabled": 0, "is_reserved": 0}, {"rental_uris": {"ios": "https://dc.lft.to/lastmile_qr_scan", "android": "https://dc.lft.to/lastmile_qr_scan"}, "lon": -76.9315495, "type": "electric_scooter", "fusion_lat": 0.0, "lat": 38.898811333333335, "name": "e1be928c1f5e914cacac72b2b4b9786e", "fusion_lon": 0.0, "bike_id": "e1be928c1f5e914cacac72b2b4b9786e", "is_disabled": 0, "is_reserved": 0}, {"rental_uris": {"ios": "https://dc.lft.to/lastmile_qr_scan", "android": "https://dc.lft.to/lastmile_qr_scan"}, "lon": -77.033703, "type": "electric_scooter", "fusion_lat": 0.0, "lat": 38.91045666666667, "name": "dc315f07f2247bc146b547135047c189", "fusion_lon": 0.0, "bike_id": "dc315f07f2247bc146b547135047c189", "is_disabled": 0, "is_reserved": 0}, {"rental_uris": {"ios": "https://dc.lft.to/lastmile_qr_scan", "android": "https://dc.lft.to/lastmile_qr_scan"}, "lon": -77.03413216666667, "type": "electric_scooter", "fusion_lat": 0.0, "lat": 38.909758333333336, "name": "b29be34cb538750fc830784431118349", "fusion_lon": 0.0, "bike_id": "b29be34cb538750fc830784431118349", "is_disabled": 0, "is_reserved": 0}, {"rental_uris": {"ios": "https://dc.lft.to/lastmile_qr_scan", "android": "https://dc.lft.to/lastmile_qr_scan"}, "lon": -76.935227, "type": "electric_scooter", "fusion_lat": 0.0, "lat": 38.908733, "name": "f340029acda5d5cca288514005540cf9", "fusion_lon": 0.0, "bike_id": "f340029acda5d5cca288514005540cf9", "is_disabled": 0, "is_reserved": 0}, {"rental_uris": {"ios": "https://dc.lft.to/lastmile_qr_scan", "android": "https://dc.lft.to/lastmile_qr_scan"}, "lon": -76.93808616666666, "type": "electric_scooter", "fusion_lat": 0.0, "lat": 38.91303966666667, "name": "9b9859e44c9db7fbad93eb6dbd7ec77d", "fusion_lon": 0.0, "bike_id": "9b9859e44c9db7fbad93eb6dbd7ec77d", "is_disabled": 0, "is_reserved": 0}, {"rental_uris": {"ios": "https://dc.lft.to/lastmile_qr_scan", "android": "https://dc.lft.to/lastmile_qr_scan"}, "lon": -77.0467545, "type": "electric_scooter", "fusion_lat": 0.0, "lat": 38.90243066666667, "name": "94d49f5d8c3fb50fe1b780a05099ec6c", "fusion_lon": 0.0, "bike_id": "94d49f5d8c3fb50fe1b780a05099ec6c", "is_disabled": 0, "is_reserved": 0}, {"rental_uris": {"ios": "https://dc.lft.to/lastmile_qr_scan", "android": "https://dc.lft.to/lastmile_qr_scan"}, "lon": -77.05004966666667, "type": "electric_scooter", "fusion_lat": 0.0, "lat": 38.901814, "name": "72a118d4d8ab43d3b4d0a37bdc409201", "fusion_lon": 0.0, "bike_id": "72a118d4d8ab43d3b4d0a37bdc409201", "is_disabled": 0, "is_reserved": 0}, {"rental_uris": {"ios": "https://dc.lft.to/lastmile_qr_scan", "android": "https://dc.lft.to/lastmile_qr_scan"}, "lon": -77.0239375, "type": "electric_scooter", "fusion_lat": 0.0, "lat": 38.8873695, "name": "95b2660163e571a3a770f5567b05443f", "fusion_lon": 0.0, "bike_id": "95b2660163e571a3a770f5567b05443f", "is_disabled": 0, "is_reserved": 0}, {"rental_uris": {"ios": "https://dc.lft.to/lastmile_qr_scan", "android": "https://dc.lft.to/lastmile_qr_scan"}, "lon": -77.0259225, "type": "electric_scooter", "fusion_lat": 0.0, "lat": 38.919371166666664, "name": "57c0c340bdc045b1240e8d1950e6274b", "fusion_lon": 0.0, "bike_id": "57c0c340bdc045b1240e8d1950e6274b", "is_disabled": 0, "is_reserved": 0}, {"rental_uris": {"ios": "https://dc.lft.to/lastmile_qr_scan", "android": "https://dc.lft.to/lastmile_qr_scan"}, "lon": -76.9916065, "type": "electric_scooter", "fusion_lat": 0.0, "lat": 38.89344883333333, "name": "06f924949277fac008ea704ed06a9823", "fusion_lon": 0.0, "bike_id": "06f924949277fac008ea704ed06a9823", "is_disabled": 0, "is_reserved": 0}, {"rental_uris": {"ios": "https://dc.lft.to/lastmile_qr_scan", "android": "https://dc.lft.to/lastmile_qr_scan"}, "lon": -77.061607, "type": "electric_scooter", "fusion_lat": 0.0, "lat": 38.94226333333334, "name": "fb6ab24419235c4dadd090940ef90bdb", "fusion_lon": 0.0, "bike_id": "fb6ab24419235c4dadd090940ef90bdb", "is_disabled": 0, "is_reserved": 0}, {"rental_uris": {"ios": "https://dc.lft.to/lastmile_qr_scan", "android": "https://dc.lft.to/lastmile_qr_scan"}, "lon": -77.03694733333333, "type": "electric_bike", "fusion_lat": 0.0, "lat": 38.93571883333333, "name": "e269899552f4ef7c73f23926c8e5e6fb", "fusion_lon": 0.0, "bike_id": "e269899552f4ef7c73f23926c8e5e6fb", "is_disabled": 0, "is_reserved": 0}, {"rental_uris": {"ios": "https://dc.lft.to/lastmile_qr_scan", "android": "https://dc.lft.to/lastmile_qr_scan"}, "lon": -77.04509216666666, "type": "electric_scooter", "fusion_lat": 0.0, "lat": 38.88605583333333, "name": "4d91a27b12182c954e677da752b9977a", "fusion_lon": 0.0, "bike_id": "4d91a27b12182c954e677da752b9977a", "is_disabled": 0, "is_reserved": 0}, {"rental_uris": {"ios": "https://dc.lft.to/lastmile_qr_scan", "android": "https://dc.lft.to/lastmile_qr_scan"}, "lon": -77.01696933333334, "type": "electric_scooter", "fusion_lat": 0.0, "lat": 38.8792355, "name": "e1e0c80e5dc7b624bfef25780302fb49", "fusion_lon": 0.0, "bike_id": "e1e0c80e5dc7b624bfef25780302fb49", "is_disabled": 0, "is_reserved": 0}, {"rental_uris": {"ios": "https://dc.lft.to/lastmile_qr_scan", "android": "https://dc.lft.to/lastmile_qr_scan"}, "lon": -77.02548983333334, "type": "electric_scooter", "fusion_lat": 0.0, "lat": 38.892286, "name": "bd9d0c449a82b6f03ddf0de46238c3c2", "fusion_lon": 0.0, "bike_id": "bd9d0c449a82b6f03ddf0de46238c3c2", "is_disabled": 0, "is_reserved": 0}, {"rental_uris": {"ios": "https://dc.lft.to/lastmile_qr_scan", "android": "https://dc.lft.to/lastmile_qr_scan"}, "lon": -77.04559016666667, "type": "electric_scooter", "fusion_lat": 0.0, "lat": 38.914626166666665, "name": "aaa2e9826809ca63f7de45065f995060", "fusion_lon": 0.0, "bike_id": "aaa2e9826809ca63f7de45065f995060", "is_disabled": 0, "is_reserved": 0}, {"rental_uris": {"ios": "https://dc.lft.to/lastmile_qr_scan", "android": "https://dc.lft.to/lastmile_qr_scan"}, "lon": -77.06474916666667, "type": "electric_scooter", "fusion_lat": 0.0, "lat": 38.91035133333333, "name": "89e96813aa94c0a1031ec77a951fa90c", "fusion_lon": 0.0, "bike_id": "89e96813aa94c0a1031ec77a951fa90c", "is_disabled": 0, "is_reserved": 0}, {"rental_uris": {"ios": "https://dc.lft.to/lastmile_qr_scan", "android": "https://dc.lft.to/lastmile_qr_scan"}, "lon": -77.00052483333333, "type": "electric_scooter", "fusion_lat": 0.0, "lat": 38.888987, "name": "cb513847ac1338a82e82cdfa1b24766c", "fusion_lon": 0.0, "bike_id": "cb513847ac1338a82e82cdfa1b24766c", "is_disabled": 0, "is_reserved": 0}, {"rental_uris": {"ios": "https://dc.lft.to/lastmile_qr_scan", "android": "https://dc.lft.to/lastmile_qr_scan"}, "lon": -77.01119466666667, "type": "electric_scooter", "fusion_lat": 0.0, "lat": 38.903613166666666, "name": "cad4e4980c2c71dcf0e59297026f50d3", "fusion_lon": 0.0, "bike_id": "cad4e4980c2c71dcf0e59297026f50d3", "is_disabled": 0, "is_reserved": 0}, {"rental_uris": {"ios": "https://dc.lft.to/lastmile_qr_scan", "android": "https://dc.lft.to/lastmile_qr_scan"}, "lon": -77.075473, "type": "electric_bike", "fusion_lat": 0.0, "lat": 38.910508, "name": "6d8c1d7b1029d1b291cede72d8acabd8", "fusion_lon": 0.0, "bike_id": "6d8c1d7b1029d1b291cede72d8acabd8", "is_disabled": 0, "is_reserved": 0}, {"rental_uris": {"ios": "https://dc.lft.to/lastmile_qr_scan", "android": "https://dc.lft.to/lastmile_qr_scan"}, "lon": -76.948429, "type": "electric_scooter", "fusion_lat": 0.0, "lat": 38.8948605, "name": "7a6a1a8ef9751e75b60789ce83144e56", "fusion_lon": 0.0, "bike_id": "7a6a1a8ef9751e75b60789ce83144e56", "is_disabled": 0, "is_reserved": 0}, {"rental_uris": {"ios": "https://dc.lft.to/lastmile_qr_scan", "android": "https://dc.lft.to/lastmile_qr_scan"}, "lon": -77.08949066666666, "type": "electric_bike", "fusion_lat": 0.0, "lat": 38.84111383333333, "name": "de83814258b3a06129270d76f6e0eaf7", "fusion_lon": 0.0, "bike_id": "de83814258b3a06129270d76f6e0eaf7", "is_disabled": 0, "is_reserved": 0}, {"rental_uris": {"ios": "https://dc.lft.to/lastmile_qr_scan", "android": "https://dc.lft.to/lastmile_qr_scan"}, "lon": -77.01290466666667, "type": "electric_bike", "fusion_lat": 0.0, "lat": 39.003865, "name": "4bc8d66e8109c7e89dfe82ff567212d0", "fusion_lon": 0.0, "bike_id": "4bc8d66e8109c7e89dfe82ff567212d0", "is_disabled": 0, "is_reserved": 0}, {"rental_uris": {"ios": "https://dc.lft.to/lastmile_qr_scan", "android": "https://dc.lft.to/lastmile_qr_scan"}, "lon": -77.0230975, "type": "electric_scooter", "fusion_lat": 0.0, "lat": 38.916152, "name": "e04cf2d3bf587746b2989c3e792f8141", "fusion_lon": 0.0, "bike_id": "e04cf2d3bf587746b2989c3e792f8141", "is_disabled": 0, "is_reserved": 0}, {"rental_uris": {"ios": "https://dc.lft.to/lastmile_qr_scan", "android": "https://dc.lft.to/lastmile_qr_scan"}, "lon": -77.04738566666667, "type": "electric_scooter", "fusion_lat": 0.0, "lat": 38.90234983333333, "name": "d77b0df382e37abb05a94027d5d8e13c", "fusion_lon": 0.0, "bike_id": "d77b0df382e37abb05a94027d5d8e13c", "is_disabled": 0, "is_reserved": 0}, {"rental_uris": {"ios": "https://dc.lft.to/lastmile_qr_scan", "android": "https://dc.lft.to/lastmile_qr_scan"}, "lon": -76.9856015, "type": "electric_scooter", "fusion_lat": 0.0, "lat": 38.889965833333335, "name": "05ea68742ac76cd98e6749a6b3fc6226", "fusion_lon": 0.0, "bike_id": "05ea68742ac76cd98e6749a6b3fc6226", "is_disabled": 0, "is_reserved": 0}, {"rental_uris": {"ios": "https://dc.lft.to/lastmile_qr_scan", "android": "https://dc.lft.to/lastmile_qr_scan"}, "lon": -77.02688483333333, "type": "electric_scooter", "fusion_lat": 0.0, "lat": 38.899353, "name": "f78e1a77ca65e9f6998f808dbefab0d0", "fusion_lon": 0.0, "bike_id": "f78e1a77ca65e9f6998f808dbefab0d0", "is_disabled": 0, "is_reserved": 0}, {"rental_uris": {"ios": "https://dc.lft.to/lastmile_qr_scan", "android": "https://dc.lft.to/lastmile_qr_scan"}, "lon": -77.0357065, "type": "electric_scooter", "fusion_lat": 0.0, "lat": 38.9572125, "name": "1ff8618605b668f49dafda45aec7f77b", "fusion_lon": 0.0, "bike_id": "1ff8618605b668f49dafda45aec7f77b", "is_disabled": 0, "is_reserved": 0}, {"rental_uris": {"ios": "https://dc.lft.to/lastmile_qr_scan", "android": "https://dc.lft.to/lastmile_qr_scan"}, "lon": -77.03206716666666, "type": "electric_scooter", "fusion_lat": 0.0, "lat": 38.9178665, "name": "4bcb25ec09df4fb7d08c7073fad2911f", "fusion_lon": 0.0, "bike_id": "4bcb25ec09df4fb7d08c7073fad2911f", "is_disabled": 0, "is_reserved": 0}, {"rental_uris": {"ios": "https://dc.lft.to/lastmile_qr_scan", "android": "https://dc.lft.to/lastmile_qr_scan"}, "lon": -77.12257533333333, "type": "electric_bike", "fusion_lat": 0.0, "lat": 38.891887, "name": "687e7265e0556d33f5d32419048310c3", "fusion_lon": 0.0, "bike_id": "687e7265e0556d33f5d32419048310c3", "is_disabled": 0, "is_reserved": 0}, {"rental_uris": {"ios": "https://dc.lft.to/lastmile_qr_scan", "android": "https://dc.lft.to/lastmile_qr_scan"}, "lon": -77.1122235, "type": "electric_bike", "fusion_lat": 0.0, "lat": 38.828743833333334, "name": "14741d36bfe7a6fedd2e9e47341da096", "fusion_lon": 0.0, "bike_id": "14741d36bfe7a6fedd2e9e47341da096", "is_disabled": 0, "is_reserved": 0}, {"rental_uris": {"ios": "https://dc.lft.to/lastmile_qr_scan", "android": "https://dc.lft.to/lastmile_qr_scan"}, "lon": -77.04997933333334, "type": "electric_scooter", "fusion_lat": 0.0, "lat": 38.89895683333334, "name": "7370d95d2e0b08cf71d43181793e12ee", "fusion_lon": 0.0, "bike_id": "7370d95d2e0b08cf71d43181793e12ee", "is_disabled": 0, "is_reserved": 0}, {"rental_uris": {"ios": "https://dc.lft.to/lastmile_qr_scan", "android": "https://dc.lft.to/lastmile_qr_scan"}, "lon": -76.98738033333333, "type": "electric_bike", "fusion_lat": 0.0, "lat": 38.9443505, "name": "7f9b89372ff7e61f46eb3835e7e4e670", "fusion_lon": 0.0, "bike_id": "7f9b89372ff7e61f46eb3835e7e4e670", "is_disabled": 0, "is_reserved": 0}, {"rental_uris": {"ios": "https://dc.lft.to/lastmile_qr_scan", "android": "https://dc.lft.to/lastmile_qr_scan"}, "lon": -77.00512616666667, "type": "electric_scooter", "fusion_lat": 0.0, "lat": 38.916761, "name": "1649a71112728f660b92d49b0762014a", "fusion_lon": 0.0, "bike_id": "1649a71112728f660b92d49b0762014a", "is_disabled": 0, "is_reserved": 0}, {"rental_uris": {"ios": "https://dc.lft.to/lastmile_qr_scan", "android": "https://dc.lft.to/lastmile_qr_scan"}, "lon": -77.07685566666666, "type": "electric_bike", "fusion_lat": 0.0, "lat": 38.831957, "name": "be5d98d1d9e163882d9d9c1377cb0de4", "fusion_lon": 0.0, "bike_id": "be5d98d1d9e163882d9d9c1377cb0de4", "is_disabled": 0, "is_reserved": 0}, {"rental_uris": {"ios": "https://dc.lft.to/lastmile_qr_scan", "android": "https://dc.lft.to/lastmile_qr_scan"}, "lon": -76.935331, "type": "electric_bike", "fusion_lat": 0.0, "lat": 38.955577166666664, "name": "af6057782f4b59b29e67ad9c1ee9e06c", "fusion_lon": 0.0, "bike_id": "af6057782f4b59b29e67ad9c1ee9e06c", "is_disabled": 0, "is_reserved": 0}, {"rental_uris": {"ios": "https://dc.lft.to/lastmile_qr_scan", "android": "https://dc.lft.to/lastmile_qr_scan"}, "lon": -77.03358616666667, "type": "electric_scooter", "fusion_lat": 0.0, "lat": 38.92441133333333, "name": "27c5cd491e1ef235943dc07602e9b9a7", "fusion_lon": 0.0, "bike_id": "27c5cd491e1ef235943dc07602e9b9a7", "is_disabled": 0, "is_reserved": 0}, {"rental_uris": {"ios": "https://dc.lft.to/lastmile_qr_scan", "android": "https://dc.lft.to/lastmile_qr_scan"}, "lon": -77.05638516666667, "type": "electric_scooter", "fusion_lat": 0.0, "lat": 38.924163166666666, "name": "d2b81c719872aae427d02f8176f5902d", "fusion_lon": 0.0, "bike_id": "d2b81c719872aae427d02f8176f5902d", "is_disabled": 0, "is_reserved": 0}, {"rental_uris": {"ios": "https://dc.lft.to/lastmile_qr_scan", "android": "https://dc.lft.to/lastmile_qr_scan"}, "lon": -77.0735265, "type": "electric_scooter", "fusion_lat": 0.0, "lat": 38.93353666666667, "name": "696328c4d214f87bb9e7b8a6bba5e8b7", "fusion_lon": 0.0, "bike_id": "696328c4d214f87bb9e7b8a6bba5e8b7", "is_disabled": 0, "is_reserved": 0}, {"rental_uris": {"ios": "https://dc.lft.to/lastmile_qr_scan", "android": "https://dc.lft.to/lastmile_qr_scan"}, "lon": -77.126247, "type": "electric_bike", "fusion_lat": 0.0, "lat": 39.05815066666667, "name": "e37c534fce5727968291ef05c523c50b", "fusion_lon": 0.0, "bike_id": "e37c534fce5727968291ef05c523c50b", "is_disabled": 0, "is_reserved": 0}, {"rental_uris": {"ios": "https://dc.lft.to/lastmile_qr_scan", "android": "https://dc.lft.to/lastmile_qr_scan"}, "lon": -77.03208133333334, "type": "electric_scooter", "fusion_lat": 0.0, "lat": 38.916387666666665, "name": "bfdf87756320d5f85c8086c3c088505b", "fusion_lon": 0.0, "bike_id": "bfdf87756320d5f85c8086c3c088505b", "is_disabled": 0, "is_reserved": 0}, {"rental_uris": {"ios": "https://dc.lft.to/lastmile_qr_scan", "android": "https://dc.lft.to/lastmile_qr_scan"}, "lon": -76.98394566666667, "type": "electric_bike", "fusion_lat": 0.0, "lat": 38.922037833333334, "name": "d52248bca351276d55faf6b17f68f3f2", "fusion_lon": 0.0, "bike_id": "d52248bca351276d55faf6b17f68f3f2", "is_disabled": 0, "is_reserved": 0}, {"rental_uris": {"ios": "https://dc.lft.to/lastmile_qr_scan", "android": "https://dc.lft.to/lastmile_qr_scan"}, "lon": -77.03281583333333, "type": "electric_scooter", "fusion_lat": 0.0, "lat": 38.92882483333333, "name": "011873abca188571682d025917ec715e", "fusion_lon": 0.0, "bike_id": "011873abca188571682d025917ec715e", "is_disabled": 0, "is_reserved": 0}, {"rental_uris": {"ios": "https://dc.lft.to/lastmile_qr_scan", "android": "https://dc.lft.to/lastmile_qr_scan"}, "lon": -77.03209783333334, "type": "electric_scooter", "fusion_lat": 0.0, "lat": 38.89225033333334, "name": "eece44a3a83a6112f76cf79779f46a43", "fusion_lon": 0.0, "bike_id": "eece44a3a83a6112f76cf79779f46a43", "is_disabled": 0, "is_reserved": 0}, {"rental_uris": {"ios": "https://dc.lft.to/lastmile_qr_scan", "android": "https://dc.lft.to/lastmile_qr_scan"}, "lon": -76.99825833333334, "type": "electric_scooter", "fusion_lat": 0.0, "lat": 38.84420033333333, "name": "5867200f91ea040d1bdf2941e55eab8f", "fusion_lon": 0.0, "bike_id": "5867200f91ea040d1bdf2941e55eab8f", "is_disabled": 0, "is_reserved": 0}, {"rental_uris": {"ios": "https://dc.lft.to/lastmile_qr_scan", "android": "https://dc.lft.to/lastmile_qr_scan"}, "lon": -76.987415, "type": "electric_bike", "fusion_lat": 0.0, "lat": 38.857935833333336, "name": "c1b78c3356ec67559b9945626c4ad887", "fusion_lon": 0.0, "bike_id": "c1b78c3356ec67559b9945626c4ad887", "is_disabled": 0, "is_reserved": 0}, {"rental_uris": {"ios": "https://dc.lft.to/lastmile_qr_scan", "android": "https://dc.lft.to/lastmile_qr_scan"}, "lon": -77.07168866666666, "type": "electric_scooter", "fusion_lat": 0.0, "lat": 38.90774716666667, "name": "7f5331caffea0ebfa4d990e5b77c6c47", "fusion_lon": 0.0, "bike_id": "7f5331caffea0ebfa4d990e5b77c6c47", "is_disabled": 0, "is_reserved": 0}, {"rental_uris": {"ios": "https://dc.lft.to/lastmile_qr_scan", "android": "https://dc.lft.to/lastmile_qr_scan"}, "lon": -77.0296685, "type": "electric_scooter", "fusion_lat": 0.0, "lat": 38.89207616666667, "name": "d4baadd117bec4909e35e06a1d31747b", "fusion_lon": 0.0, "bike_id": "d4baadd117bec4909e35e06a1d31747b", "is_disabled": 0, "is_reserved": 0}, {"rental_uris": {"ios": "https://dc.lft.to/lastmile_qr_scan", "android": "https://dc.lft.to/lastmile_qr_scan"}, "lon": -77.02696883333333, "type": "electric_scooter", "fusion_lat": 0.0, "lat": 38.8972865, "name": "e45056433660496e58918402efaba01f", "fusion_lon": 0.0, "bike_id": "e45056433660496e58918402efaba01f", "is_disabled": 0, "is_reserved": 0}, {"rental_uris": {"ios": "https://dc.lft.to/lastmile_qr_scan", "android": "https://dc.lft.to/lastmile_qr_scan"}, "lon": -77.0312625, "type": "electric_scooter", "fusion_lat": 0.0, "lat": 38.91036583333333, "name": "448c9d5a88e4d5b17325451e871a2355", "fusion_lon": 0.0, "bike_id": "448c9d5a88e4d5b17325451e871a2355", "is_disabled": 0, "is_reserved": 0}, {"rental_uris": {"ios": "https://dc.lft.to/lastmile_qr_scan", "android": "https://dc.lft.to/lastmile_qr_scan"}, "lon": -77.043486, "type": "electric_scooter", "fusion_lat": 0.0, "lat": 38.90367716666667, "name": "312e0c27e4b2fbb176a9be646de75485", "fusion_lon": 0.0, "bike_id": "312e0c27e4b2fbb176a9be646de75485", "is_disabled": 0, "is_reserved": 0}, {"rental_uris": {"ios": "https://dc.lft.to/lastmile_qr_scan", "android": "https://dc.lft.to/lastmile_qr_scan"}, "lon": -77.03321116666666, "type": "electric_scooter", "fusion_lat": 0.0, "lat": 38.890087333333334, "name": "a08660de055e3955df46c42430c8225f", "fusion_lon": 0.0, "bike_id": "a08660de055e3955df46c42430c8225f", "is_disabled": 0, "is_reserved": 0}, {"rental_uris": {"ios": "https://dc.lft.to/lastmile_qr_scan", "android": "https://dc.lft.to/lastmile_qr_scan"}, "lon": -77.03985233333333, "type": "electric_scooter", "fusion_lat": 0.0, "lat": 38.899013833333335, "name": "835a34a8b3dcaf3d49e9a1a14aa564de", "fusion_lon": 0.0, "bike_id": "835a34a8b3dcaf3d49e9a1a14aa564de", "is_disabled": 0, "is_reserved": 0}, {"rental_uris": {"ios": "https://dc.lft.to/lastmile_qr_scan", "android": "https://dc.lft.to/lastmile_qr_scan"}, "lon": -77.02387066666667, "type": "electric_scooter", "fusion_lat": 0.0, "lat": 38.915955, "name": "aec9a10cef88dfbe7bd670104d7fc700", "fusion_lon": 0.0, "bike_id": "aec9a10cef88dfbe7bd670104d7fc700", "is_disabled": 0, "is_reserved": 0}, {"rental_uris": {"ios": "https://dc.lft.to/lastmile_qr_scan", "android": "https://dc.lft.to/lastmile_qr_scan"}, "lon": -76.99931033333333, "type": "electric_scooter", "fusion_lat": 0.0, "lat": 38.896217166666666, "name": "e8d08ba3a4def1eb52319ea305d2c049", "fusion_lon": 0.0, "bike_id": "e8d08ba3a4def1eb52319ea305d2c049", "is_disabled": 0, "is_reserved": 0}, {"rental_uris": {"ios": "https://dc.lft.to/lastmile_qr_scan", "android": "https://dc.lft.to/lastmile_qr_scan"}, "lon": -77.07153716666667, "type": "electric_scooter", "fusion_lat": 0.0, "lat": 38.9074705, "name": "d7a90ea2325b4b7dad07c107a30dacd5", "fusion_lon": 0.0, "bike_id": "d7a90ea2325b4b7dad07c107a30dacd5", "is_disabled": 0, "is_reserved": 0}, {"rental_uris": {"ios": "https://dc.lft.to/lastmile_qr_scan", "android": "https://dc.lft.to/lastmile_qr_scan"}, "lon": -77.019709, "type": "electric_scooter", "fusion_lat": 0.0, "lat": 38.87845516666667, "name": "160e99a9bc5dc98218b4c53188bdf647", "fusion_lon": 0.0, "bike_id": "160e99a9bc5dc98218b4c53188bdf647", "is_disabled": 0, "is_reserved": 0}, {"rental_uris": {"ios": "https://dc.lft.to/lastmile_qr_scan", "android": "https://dc.lft.to/lastmile_qr_scan"}, "lon": -77.0468375, "type": "electric_scooter", "fusion_lat": 0.0, "lat": 38.90553233333333, "name": "cb024d4a0a231023c838472e48ca3f91", "fusion_lon": 0.0, "bike_id": "cb024d4a0a231023c838472e48ca3f91", "is_disabled": 0, "is_reserved": 0}, {"rental_uris": {"ios": "https://dc.lft.to/lastmile_qr_scan", "android": "https://dc.lft.to/lastmile_qr_scan"}, "lon": -77.0283015, "type": "electric_scooter", "fusion_lat": 0.0, "lat": 38.9171305, "name": "6e178d7aef6dda6cc3cbba47159851ac", "fusion_lon": 0.0, "bike_id": "6e178d7aef6dda6cc3cbba47159851ac", "is_disabled": 0, "is_reserved": 0}, {"rental_uris": {"ios": "https://dc.lft.to/lastmile_qr_scan", "android": "https://dc.lft.to/lastmile_qr_scan"}, "lon": -77.04428433333334, "type": "electric_scooter", "fusion_lat": 0.0, "lat": 38.90577366666667, "name": "ab1950da3e447de1652d355af112194b", "fusion_lon": 0.0, "bike_id": "ab1950da3e447de1652d355af112194b", "is_disabled": 0, "is_reserved": 0}, {"rental_uris": {"ios": "https://dc.lft.to/lastmile_qr_scan", "android": "https://dc.lft.to/lastmile_qr_scan"}, "lon": -77.03180733333333, "type": "electric_scooter", "fusion_lat": 0.0, "lat": 38.91330383333333, "name": "2844195e06b34da4963b674185fb6059", "fusion_lon": 0.0, "bike_id": "2844195e06b34da4963b674185fb6059", "is_disabled": 0, "is_reserved": 0}, {"rental_uris": {"ios": "https://dc.lft.to/lastmile_qr_scan", "android": "https://dc.lft.to/lastmile_qr_scan"}, "lon": -76.93183233333333, "type": "electric_scooter", "fusion_lat": 0.0, "lat": 38.8987605, "name": "936d99ba7e201576a11167ca4abdeaf7", "fusion_lon": 0.0, "bike_id": "936d99ba7e201576a11167ca4abdeaf7", "is_disabled": 0, "is_reserved": 0}, {"rental_uris": {"ios": "https://dc.lft.to/lastmile_qr_scan", "android": "https://dc.lft.to/lastmile_qr_scan"}, "lon": -77.0118405, "type": "electric_scooter", "fusion_lat": 0.0, "lat": 38.90655566666667, "name": "c5c4aae39404ab1eaeac8a22680a681e", "fusion_lon": 0.0, "bike_id": "c5c4aae39404ab1eaeac8a22680a681e", "is_disabled": 0, "is_reserved": 0}, {"rental_uris": {"ios": "https://dc.lft.to/lastmile_qr_scan", "android": "https://dc.lft.to/lastmile_qr_scan"}, "lon": -77.03328716666667, "type": "electric_scooter", "fusion_lat": 0.0, "lat": 38.9216515, "name": "929845708d142f213a99dc4311ebeade", "fusion_lon": 0.0, "bike_id": "929845708d142f213a99dc4311ebeade", "is_disabled": 0, "is_reserved": 0}, {"rental_uris": {"ios": "https://dc.lft.to/lastmile_qr_scan", "android": "https://dc.lft.to/lastmile_qr_scan"}, "lon": -77.02573683333334, "type": "electric_bike", "fusion_lat": 0.0, "lat": 38.88743766666666, "name": "7c088e922e6593041a7ffaaeff29b92c", "fusion_lon": 0.0, "bike_id": "7c088e922e6593041a7ffaaeff29b92c", "is_disabled": 0, "is_reserved": 0}, {"rental_uris": {"ios": "https://dc.lft.to/lastmile_qr_scan", "android": "https://dc.lft.to/lastmile_qr_scan"}, "lon": -77.03441166666667, "type": "electric_scooter", "fusion_lat": 0.0, "lat": 38.918477333333335, "name": "b81ae649b0b9ce9b047290dade689eed", "fusion_lon": 0.0, "bike_id": "b81ae649b0b9ce9b047290dade689eed", "is_disabled": 0, "is_reserved": 0}, {"rental_uris": {"ios": "https://dc.lft.to/lastmile_qr_scan", "android": "https://dc.lft.to/lastmile_qr_scan"}, "lon": -77.0320955, "type": "electric_scooter", "fusion_lat": 0.0, "lat": 38.911216, "name": "14bfffb14dac4a02c15515f11300b7ec", "fusion_lon": 0.0, "bike_id": "14bfffb14dac4a02c15515f11300b7ec", "is_disabled": 0, "is_reserved": 0}, {"rental_uris": {"ios": "https://dc.lft.to/lastmile_qr_scan", "android": "https://dc.lft.to/lastmile_qr_scan"}, "lon": -77.0013195, "type": "electric_scooter", "fusion_lat": 0.0, "lat": 38.9041005, "name": "2fd9b6c47d3c2eca2e5b8f180d042021", "fusion_lon": 0.0, "bike_id": "2fd9b6c47d3c2eca2e5b8f180d042021", "is_disabled": 0, "is_reserved": 0}, {"rental_uris": {"ios": "https://dc.lft.to/lastmile_qr_scan", "android": "https://dc.lft.to/lastmile_qr_scan"}, "lon": -76.990606, "type": "electric_scooter", "fusion_lat": 0.0, "lat": 38.900332666666664, "name": "9463d99f43474d0623f79c79cd0424e5", "fusion_lon": 0.0, "bike_id": "9463d99f43474d0623f79c79cd0424e5", "is_disabled": 0, "is_reserved": 0}, {"rental_uris": {"ios": "https://dc.lft.to/lastmile_qr_scan", "android": "https://dc.lft.to/lastmile_qr_scan"}, "lon": -76.9520525, "type": "electric_bike", "fusion_lat": 0.0, "lat": 38.936712666666665, "name": "19bd3114741a3647e61d3d4631149c31", "fusion_lon": 0.0, "bike_id": "19bd3114741a3647e61d3d4631149c31", "is_disabled": 0, "is_reserved": 0}, {"rental_uris": {"ios": "https://dc.lft.to/lastmile_qr_scan", "android": "https://dc.lft.to/lastmile_qr_scan"}, "lon": -77.02817766666666, "type": "electric_scooter", "fusion_lat": 0.0, "lat": 38.895318333333336, "name": "0e0d3c75d40981a6869b5012f08962ed", "fusion_lon": 0.0, "bike_id": "0e0d3c75d40981a6869b5012f08962ed", "is_disabled": 0, "is_reserved": 0}, {"rental_uris": {"ios": "https://dc.lft.to/lastmile_qr_scan", "android": "https://dc.lft.to/lastmile_qr_scan"}, "lon": -77.04992883333334, "type": "electric_scooter", "fusion_lat": 0.0, "lat": 38.90543133333333, "name": "cb1ad4cd1ac17b44048a8ae523a8f718", "fusion_lon": 0.0, "bike_id": "cb1ad4cd1ac17b44048a8ae523a8f718", "is_disabled": 0, "is_reserved": 0}, {"rental_uris": {"ios": "https://dc.lft.to/lastmile_qr_scan", "android": "https://dc.lft.to/lastmile_qr_scan"}, "lon": -77.05441166666667, "type": "electric_scooter", "fusion_lat": 0.0, "lat": 38.89606466666667, "name": "4175fa935cbd3d6da0d9fb4de65b688a", "fusion_lon": 0.0, "bike_id": "4175fa935cbd3d6da0d9fb4de65b688a", "is_disabled": 0, "is_reserved": 0}, {"rental_uris": {"ios": "https://dc.lft.to/lastmile_qr_scan", "android": "https://dc.lft.to/lastmile_qr_scan"}, "lon": -77.038206, "type": "electric_scooter", "fusion_lat": 0.0, "lat": 38.909726166666665, "name": "e0dbd48af40b68aa2262ad343d2e787b", "fusion_lon": 0.0, "bike_id": "e0dbd48af40b68aa2262ad343d2e787b", "is_disabled": 0, "is_reserved": 0}, {"rental_uris": {"ios": "https://dc.lft.to/lastmile_qr_scan", "android": "https://dc.lft.to/lastmile_qr_scan"}, "lon": -77.02371666666667, "type": "electric_scooter", "fusion_lat": 0.0, "lat": 38.902042333333334, "name": "d33ca292f6d4d77611e9d8dc2ca21365", "fusion_lon": 0.0, "bike_id": "d33ca292f6d4d77611e9d8dc2ca21365", "is_disabled": 0, "is_reserved": 0}, {"rental_uris": {"ios": "https://dc.lft.to/lastmile_qr_scan", "android": "https://dc.lft.to/lastmile_qr_scan"}, "lon": -77.01653783333333, "type": "electric_scooter", "fusion_lat": 0.0, "lat": 38.9533015, "name": "5c7c7b02f9e1fabbf9f10d8eee7304e2", "fusion_lon": 0.0, "bike_id": "5c7c7b02f9e1fabbf9f10d8eee7304e2", "is_disabled": 0, "is_reserved": 0}, {"rental_uris": {"ios": "https://dc.lft.to/lastmile_qr_scan", "android": "https://dc.lft.to/lastmile_qr_scan"}, "lon": -77.01838916666667, "type": "electric_scooter", "fusion_lat": 0.0, "lat": 38.9087705, "name": "bc8a27399dc02ae18972039e3c62c944", "fusion_lon": 0.0, "bike_id": "bc8a27399dc02ae18972039e3c62c944", "is_disabled": 0, "is_reserved": 0}, {"rental_uris": {"ios": "https://dc.lft.to/lastmile_qr_scan", "android": "https://dc.lft.to/lastmile_qr_scan"}, "lon": -77.00262933333333, "type": "electric_scooter", "fusion_lat": 0.0, "lat": 38.87752066666667, "name": "d86b43b7809a977becb1cbb2931b40bf", "fusion_lon": 0.0, "bike_id": "d86b43b7809a977becb1cbb2931b40bf", "is_disabled": 0, "is_reserved": 0}, {"rental_uris": {"ios": "https://dc.lft.to/lastmile_qr_scan", "android": "https://dc.lft.to/lastmile_qr_scan"}, "lon": -77.0119465, "type": "electric_scooter", "fusion_lat": 0.0, "lat": 38.900242166666665, "name": "f5108d396e9c1298049abc398a3c7d90", "fusion_lon": 0.0, "bike_id": "f5108d396e9c1298049abc398a3c7d90", "is_disabled": 0, "is_reserved": 0}, {"rental_uris": {"ios": "https://dc.lft.to/lastmile_qr_scan", "android": "https://dc.lft.to/lastmile_qr_scan"}, "lon": -76.9826315, "type": "electric_scooter", "fusion_lat": 0.0, "lat": 38.863536, "name": "ce9d9233ef1c64cbbf2a884f527a0260", "fusion_lon": 0.0, "bike_id": "ce9d9233ef1c64cbbf2a884f527a0260", "is_disabled": 0, "is_reserved": 0}, {"rental_uris": {"ios": "https://dc.lft.to/lastmile_qr_scan", "android": "https://dc.lft.to/lastmile_qr_scan"}, "lon": -77.04403083333334, "type": "electric_scooter", "fusion_lat": 0.0, "lat": 38.9057925, "name": "a00917e8384a5f64388d372390d8a474", "fusion_lon": 0.0, "bike_id": "a00917e8384a5f64388d372390d8a474", "is_disabled": 0, "is_reserved": 0}, {"rental_uris": {"ios": "https://dc.lft.to/lastmile_qr_scan", "android": "https://dc.lft.to/lastmile_qr_scan"}, "lon": -77.0337455, "type": "electric_scooter", "fusion_lat": 0.0, "lat": 38.938529, "name": "f50ac77fcd6da2c8d9344444ef8071ba", "fusion_lon": 0.0, "bike_id": "f50ac77fcd6da2c8d9344444ef8071ba", "is_disabled": 0, "is_reserved": 0}, {"rental_uris": {"ios": "https://dc.lft.to/lastmile_qr_scan", "android": "https://dc.lft.to/lastmile_qr_scan"}, "lon": -77.02885483333333, "type": "electric_bike", "fusion_lat": 0.0, "lat": 38.907208, "name": "a3374a8833ecb4e2a84438d0a1c8530a", "fusion_lon": 0.0, "bike_id": "a3374a8833ecb4e2a84438d0a1c8530a", "is_disabled": 0, "is_reserved": 0}, {"rental_uris": {"ios": "https://dc.lft.to/lastmile_qr_scan", "android": "https://dc.lft.to/lastmile_qr_scan"}, "lon": -77.04793733333334, "type": "electric_scooter", "fusion_lat": 0.0, "lat": 38.89367383333333, "name": "25e2140a76738f69259f24d68a45f262", "fusion_lon": 0.0, "bike_id": "25e2140a76738f69259f24d68a45f262", "is_disabled": 0, "is_reserved": 0}, {"rental_uris": {"ios": "https://dc.lft.to/lastmile_qr_scan", "android": "https://dc.lft.to/lastmile_qr_scan"}, "lon": -77.02425016666666, "type": "electric_scooter", "fusion_lat": 0.0, "lat": 38.9371035, "name": "bddc1883dfde0f74ad15d1229c6937fc", "fusion_lon": 0.0, "bike_id": "bddc1883dfde0f74ad15d1229c6937fc", "is_disabled": 0, "is_reserved": 0}, {"rental_uris": {"ios": "https://dc.lft.to/lastmile_qr_scan", "android": "https://dc.lft.to/lastmile_qr_scan"}, "lon": -77.02863366666666, "type": "electric_scooter", "fusion_lat": 0.0, "lat": 38.907144333333335, "name": "90dcae51273148f05911ac66f2e2b0e0", "fusion_lon": 0.0, "bike_id": "90dcae51273148f05911ac66f2e2b0e0", "is_disabled": 0, "is_reserved": 0}, {"rental_uris": {"ios": "https://dc.lft.to/lastmile_qr_scan", "android": "https://dc.lft.to/lastmile_qr_scan"}, "lon": -76.97959166666666, "type": "electric_scooter", "fusion_lat": 0.0, "lat": 38.9038135, "name": "06eb547da250e749b06548ee6238d781", "fusion_lon": 0.0, "bike_id": "06eb547da250e749b06548ee6238d781", "is_disabled": 0, "is_reserved": 0}, {"rental_uris": {"ios": "https://dc.lft.to/lastmile_qr_scan", "android": "https://dc.lft.to/lastmile_qr_scan"}, "lon": -77.03280366666667, "type": "electric_scooter", "fusion_lat": 0.0, "lat": 38.9398445, "name": "b6439aad1567fa15b92654b1f530d2dd", "fusion_lon": 0.0, "bike_id": "b6439aad1567fa15b92654b1f530d2dd", "is_disabled": 0, "is_reserved": 0}, {"rental_uris": {"ios": "https://dc.lft.to/lastmile_qr_scan", "android": "https://dc.lft.to/lastmile_qr_scan"}, "lon": -77.03454233333333, "type": "electric_scooter", "fusion_lat": 0.0, "lat": 38.918199333333334, "name": "b6fcf1594e43e77fb6aef3acc996766c", "fusion_lon": 0.0, "bike_id": "b6fcf1594e43e77fb6aef3acc996766c", "is_disabled": 0, "is_reserved": 0}, {"rental_uris": {"ios": "https://dc.lft.to/lastmile_qr_scan", "android": "https://dc.lft.to/lastmile_qr_scan"}, "lon": -76.98674233333334, "type": "electric_scooter", "fusion_lat": 0.0, "lat": 38.8821625, "name": "50337a282699d94ea54a33c06ac399b6", "fusion_lon": 0.0, "bike_id": "50337a282699d94ea54a33c06ac399b6", "is_disabled": 0, "is_reserved": 0}, {"rental_uris": {"ios": "https://dc.lft.to/lastmile_qr_scan", "android": "https://dc.lft.to/lastmile_qr_scan"}, "lon": -76.99062683333334, "type": "electric_scooter", "fusion_lat": 0.0, "lat": 38.92663666666667, "name": "a34bceb5943b10febf3fb7bdb1eff813", "fusion_lon": 0.0, "bike_id": "a34bceb5943b10febf3fb7bdb1eff813", "is_disabled": 0, "is_reserved": 0}, {"rental_uris": {"ios": "https://dc.lft.to/lastmile_qr_scan", "android": "https://dc.lft.to/lastmile_qr_scan"}, "lon": -77.05742716666667, "type": "electric_scooter", "fusion_lat": 0.0, "lat": 38.905007833333336, "name": "d3ff055f369f8369bb3766f75f7861d6", "fusion_lon": 0.0, "bike_id": "d3ff055f369f8369bb3766f75f7861d6", "is_disabled": 0, "is_reserved": 0}, {"rental_uris": {"ios": "https://dc.lft.to/lastmile_qr_scan", "android": "https://dc.lft.to/lastmile_qr_scan"}, "lon": -77.00331716666666, "type": "electric_scooter", "fusion_lat": 0.0, "lat": 38.8935695, "name": "3cf64e5b09ccd5e5d4e848497740d1d0", "fusion_lon": 0.0, "bike_id": "3cf64e5b09ccd5e5d4e848497740d1d0", "is_disabled": 0, "is_reserved": 0}, {"rental_uris": {"ios": "https://dc.lft.to/lastmile_qr_scan", "android": "https://dc.lft.to/lastmile_qr_scan"}, "lon": -76.9759455, "type": "electric_scooter", "fusion_lat": 0.0, "lat": 38.903316833333335, "name": "93337dfc22cdc81ca3fe5b9bd56af952", "fusion_lon": 0.0, "bike_id": "93337dfc22cdc81ca3fe5b9bd56af952", "is_disabled": 0, "is_reserved": 0}, {"rental_uris": {"ios": "https://dc.lft.to/lastmile_qr_scan", "android": "https://dc.lft.to/lastmile_qr_scan"}, "lon": -77.04363983333333, "type": "electric_scooter", "fusion_lat": 0.0, "lat": 38.933383, "name": "e5711b54b9b103e127107c9016cd4206", "fusion_lon": 0.0, "bike_id": "e5711b54b9b103e127107c9016cd4206", "is_disabled": 0, "is_reserved": 0}, {"rental_uris": {"ios": "https://dc.lft.to/lastmile_qr_scan", "android": "https://dc.lft.to/lastmile_qr_scan"}, "lon": -77.05007733333333, "type": "electric_scooter", "fusion_lat": 0.0, "lat": 38.90107416666667, "name": "cd9feb84c918265521d409a629e3e825", "fusion_lon": 0.0, "bike_id": "cd9feb84c918265521d409a629e3e825", "is_disabled": 0, "is_reserved": 0}, {"rental_uris": {"ios": "https://dc.lft.to/lastmile_qr_scan", "android": "https://dc.lft.to/lastmile_qr_scan"}, "lon": -77.03261516666667, "type": "electric_bike", "fusion_lat": 0.0, "lat": 38.938955666666665, "name": "be929a54ef7817b67dbbad2b05559402", "fusion_lon": 0.0, "bike_id": "be929a54ef7817b67dbbad2b05559402", "is_disabled": 0, "is_reserved": 0}, {"rental_uris": {"ios": "https://dc.lft.to/lastmile_qr_scan", "android": "https://dc.lft.to/lastmile_qr_scan"}, "lon": -76.99826166666666, "type": "electric_bike", "fusion_lat": 0.0, "lat": 38.885359333333334, "name": "8aca99d570234a4f43ec97316fcfb731", "fusion_lon": 0.0, "bike_id": "8aca99d570234a4f43ec97316fcfb731", "is_disabled": 0, "is_reserved": 0}, {"rental_uris": {"ios": "https://dc.lft.to/lastmile_qr_scan", "android": "https://dc.lft.to/lastmile_qr_scan"}, "lon": -77.033667, "type": "electric_scooter", "fusion_lat": 0.0, "lat": 38.93592916666667, "name": "1e7366e189281104e465cc3ff81c95c1", "fusion_lon": 0.0, "bike_id": "1e7366e189281104e465cc3ff81c95c1", "is_disabled": 0, "is_reserved": 0}, {"rental_uris": {"ios": "https://dc.lft.to/lastmile_qr_scan", "android": "https://dc.lft.to/lastmile_qr_scan"}, "lon": -77.03990833333333, "type": "electric_scooter", "fusion_lat": 0.0, "lat": 38.91421183333333, "name": "f0197e2fbe9001c55bca2fa1efd11001", "fusion_lon": 0.0, "bike_id": "f0197e2fbe9001c55bca2fa1efd11001", "is_disabled": 0, "is_reserved": 0}, {"rental_uris": {"ios": "https://dc.lft.to/lastmile_qr_scan", "android": "https://dc.lft.to/lastmile_qr_scan"}, "lon": -77.03361866666667, "type": "electric_scooter", "fusion_lat": 0.0, "lat": 38.902809166666664, "name": "5952ad2d7040d2e7e0dd64e3cb924262", "fusion_lon": 0.0, "bike_id": "5952ad2d7040d2e7e0dd64e3cb924262", "is_disabled": 0, "is_reserved": 0}, {"rental_uris": {"ios": "https://dc.lft.to/lastmile_qr_scan", "android": "https://dc.lft.to/lastmile_qr_scan"}, "lon": -77.02596533333333, "type": "electric_scooter", "fusion_lat": 0.0, "lat": 38.88742283333333, "name": "cff94ed4363945e07d9e21ceae09533a", "fusion_lon": 0.0, "bike_id": "cff94ed4363945e07d9e21ceae09533a", "is_disabled": 0, "is_reserved": 0}, {"rental_uris": {"ios": "https://dc.lft.to/lastmile_qr_scan", "android": "https://dc.lft.to/lastmile_qr_scan"}, "lon": -77.04137666666666, "type": "electric_scooter", "fusion_lat": 0.0, "lat": 38.902526333333334, "name": "5cbd851444175e2ad94ff3461349f335", "fusion_lon": 0.0, "bike_id": "5cbd851444175e2ad94ff3461349f335", "is_disabled": 0, "is_reserved": 0}, {"rental_uris": {"ios": "https://dc.lft.to/lastmile_qr_scan", "android": "https://dc.lft.to/lastmile_qr_scan"}, "lon": -77.038439, "type": "electric_scooter", "fusion_lat": 0.0, "lat": 38.91035333333333, "name": "2d98f05b239fa19bc6744c9a508eb50a", "fusion_lon": 0.0, "bike_id": "2d98f05b239fa19bc6744c9a508eb50a", "is_disabled": 0, "is_reserved": 0}, {"rental_uris": {"ios": "https://dc.lft.to/lastmile_qr_scan", "android": "https://dc.lft.to/lastmile_qr_scan"}, "lon": -77.041697, "type": "electric_scooter", "fusion_lat": 0.0, "lat": 38.90355233333333, "name": "7e6fbf4c953933a0647b5dcc96b736b5", "fusion_lon": 0.0, "bike_id": "7e6fbf4c953933a0647b5dcc96b736b5", "is_disabled": 0, "is_reserved": 0}, {"rental_uris": {"ios": "https://dc.lft.to/lastmile_qr_scan", "android": "https://dc.lft.to/lastmile_qr_scan"}, "lon": -77.00863583333333, "type": "electric_bike", "fusion_lat": 0.0, "lat": 38.82731916666667, "name": "714ed528dc70e2c4e467c48c6c3e7260", "fusion_lon": 0.0, "bike_id": "714ed528dc70e2c4e467c48c6c3e7260", "is_disabled": 0, "is_reserved": 0}, {"rental_uris": {"ios": "https://dc.lft.to/lastmile_qr_scan", "android": "https://dc.lft.to/lastmile_qr_scan"}, "lon": -76.98568833333333, "type": "electric_scooter", "fusion_lat": 0.0, "lat": 38.8559035, "name": "aa2f9ecbdbce26d790b5dda0b4776d44", "fusion_lon": 0.0, "bike_id": "aa2f9ecbdbce26d790b5dda0b4776d44", "is_disabled": 0, "is_reserved": 0}, {"rental_uris": {"ios": "https://dc.lft.to/lastmile_qr_scan", "android": "https://dc.lft.to/lastmile_qr_scan"}, "lon": -77.0258945, "type": "electric_scooter", "fusion_lat": 0.0, "lat": 38.89246983333334, "name": "3ae93faa4f6298059dab2cd915b354d1", "fusion_lon": 0.0, "bike_id": "3ae93faa4f6298059dab2cd915b354d1", "is_disabled": 0, "is_reserved": 0}, {"rental_uris": {"ios": "https://dc.lft.to/lastmile_qr_scan", "android": "https://dc.lft.to/lastmile_qr_scan"}, "lon": -77.06166783333333, "type": "electric_scooter", "fusion_lat": 0.0, "lat": 38.94325416666667, "name": "938fbe2b9ec6f69d7cb79a0fd76b99bc", "fusion_lon": 0.0, "bike_id": "938fbe2b9ec6f69d7cb79a0fd76b99bc", "is_disabled": 0, "is_reserved": 0}, {"rental_uris": {"ios": "https://dc.lft.to/lastmile_qr_scan", "android": "https://dc.lft.to/lastmile_qr_scan"}, "lon": -77.01945066666667, "type": "electric_scooter", "fusion_lat": 0.0, "lat": 38.92421566666667, "name": "b67f18dd2dec117fda1245016330fc86", "fusion_lon": 0.0, "bike_id": "b67f18dd2dec117fda1245016330fc86", "is_disabled": 0, "is_reserved": 0}, {"rental_uris": {"ios": "https://dc.lft.to/lastmile_qr_scan", "android": "https://dc.lft.to/lastmile_qr_scan"}, "lon": -77.04715633333333, "type": "electric_scooter", "fusion_lat": 0.0, "lat": 38.92237766666667, "name": "db786e0feb06efc5f04c4db60f26b3a1", "fusion_lon": 0.0, "bike_id": "db786e0feb06efc5f04c4db60f26b3a1", "is_disabled": 0, "is_reserved": 0}, {"rental_uris": {"ios": "https://dc.lft.to/lastmile_qr_scan", "android": "https://dc.lft.to/lastmile_qr_scan"}, "lon": -77.03182433333333, "type": "electric_scooter", "fusion_lat": 0.0, "lat": 38.9015755, "name": "47fb496e7190c614482c45b848bdf427", "fusion_lon": 0.0, "bike_id": "47fb496e7190c614482c45b848bdf427", "is_disabled": 0, "is_reserved": 0}, {"rental_uris": {"ios": "https://dc.lft.to/lastmile_qr_scan", "android": "https://dc.lft.to/lastmile_qr_scan"}, "lon": -77.0385845, "type": "electric_scooter", "fusion_lat": 0.0, "lat": 38.90997316666667, "name": "357bca53b8e529fa7f01a8701c29c145", "fusion_lon": 0.0, "bike_id": "357bca53b8e529fa7f01a8701c29c145", "is_disabled": 0, "is_reserved": 0}, {"rental_uris": {"ios": "https://dc.lft.to/lastmile_qr_scan", "android": "https://dc.lft.to/lastmile_qr_scan"}, "lon": -77.072779, "type": "electric_scooter", "fusion_lat": 0.0, "lat": 38.93475766666667, "name": "5368d671e4da13e27337f75a53f7e6b1", "fusion_lon": 0.0, "bike_id": "5368d671e4da13e27337f75a53f7e6b1", "is_disabled": 0, "is_reserved": 0}, {"rental_uris": {"ios": "https://dc.lft.to/lastmile_qr_scan", "android": "https://dc.lft.to/lastmile_qr_scan"}, "lon": -77.02605033333333, "type": "electric_scooter", "fusion_lat": 0.0, "lat": 38.90349483333333, "name": "31e9751b6f001a78956fe0b82a23d55c", "fusion_lon": 0.0, "bike_id": "31e9751b6f001a78956fe0b82a23d55c", "is_disabled": 0, "is_reserved": 0}, {"rental_uris": {"ios": "https://dc.lft.to/lastmile_qr_scan", "android": "https://dc.lft.to/lastmile_qr_scan"}, "lon": -77.02402433333333, "type": "electric_scooter", "fusion_lat": 0.0, "lat": 38.93371366666667, "name": "5517b927aed0293dd7505d790a40ecaa", "fusion_lon": 0.0, "bike_id": "5517b927aed0293dd7505d790a40ecaa", "is_disabled": 0, "is_reserved": 0}, {"rental_uris": {"ios": "https://dc.lft.to/lastmile_qr_scan", "android": "https://dc.lft.to/lastmile_qr_scan"}, "lon": -77.03472083333334, "type": "electric_scooter", "fusion_lat": 0.0, "lat": 38.90870183333333, "name": "ef8f23091855e80dad12484c293685b3", "fusion_lon": 0.0, "bike_id": "ef8f23091855e80dad12484c293685b3", "is_disabled": 0, "is_reserved": 0}, {"rental_uris": {"ios": "https://dc.lft.to/lastmile_qr_scan", "android": "https://dc.lft.to/lastmile_qr_scan"}, "lon": -77.01209416666667, "type": "electric_scooter", "fusion_lat": 0.0, "lat": 38.91716533333334, "name": "62ebd5e1de9f8a021f230bce95af94a4", "fusion_lon": 0.0, "bike_id": "62ebd5e1de9f8a021f230bce95af94a4", "is_disabled": 0, "is_reserved": 0}, {"rental_uris": {"ios": "https://dc.lft.to/lastmile_qr_scan", "android": "https://dc.lft.to/lastmile_qr_scan"}, "lon": -77.04491683333333, "type": "electric_scooter", "fusion_lat": 0.0, "lat": 38.91949116666667, "name": "e132ea725a293486a5194778ba09268b", "fusion_lon": 0.0, "bike_id": "e132ea725a293486a5194778ba09268b", "is_disabled": 0, "is_reserved": 0}, {"rental_uris": {"ios": "https://dc.lft.to/lastmile_qr_scan", "android": "https://dc.lft.to/lastmile_qr_scan"}, "lon": -77.03450133333334, "type": "electric_scooter", "fusion_lat": 0.0, "lat": 38.90808333333333, "name": "eaed3ac5d4321ce538e8c2afac821968", "fusion_lon": 0.0, "bike_id": "eaed3ac5d4321ce538e8c2afac821968", "is_disabled": 0, "is_reserved": 0}, {"rental_uris": {"ios": "https://dc.lft.to/lastmile_qr_scan", "android": "https://dc.lft.to/lastmile_qr_scan"}, "lon": -76.986784, "type": "electric_scooter", "fusion_lat": 0.0, "lat": 38.88216966666667, "name": "e54698d16d8b5e2496cc10f4d544b943", "fusion_lon": 0.0, "bike_id": "e54698d16d8b5e2496cc10f4d544b943", "is_disabled": 0, "is_reserved": 0}, {"rental_uris": {"ios": "https://dc.lft.to/lastmile_qr_scan", "android": "https://dc.lft.to/lastmile_qr_scan"}, "lon": -77.01748, "type": "electric_scooter", "fusion_lat": 0.0, "lat": 38.887378, "name": "bde65d6f2b8ad99b163a7a354401188e", "fusion_lon": 0.0, "bike_id": "bde65d6f2b8ad99b163a7a354401188e", "is_disabled": 0, "is_reserved": 0}, {"rental_uris": {"ios": "https://dc.lft.to/lastmile_qr_scan", "android": "https://dc.lft.to/lastmile_qr_scan"}, "lon": -77.16252516666667, "type": "electric_bike", "fusion_lat": 0.0, "lat": 38.886629, "name": "5b485f10ad9e30674f98b0fdad88f9fd", "fusion_lon": 0.0, "bike_id": "5b485f10ad9e30674f98b0fdad88f9fd", "is_disabled": 0, "is_reserved": 0}, {"rental_uris": {"ios": "https://dc.lft.to/lastmile_qr_scan", "android": "https://dc.lft.to/lastmile_qr_scan"}, "lon": -77.04635116666667, "type": "electric_scooter", "fusion_lat": 0.0, "lat": 38.919141833333335, "name": "cb2567bbb4242ffdb8f6da09559e3104", "fusion_lon": 0.0, "bike_id": "cb2567bbb4242ffdb8f6da09559e3104", "is_disabled": 0, "is_reserved": 0}, {"rental_uris": {"ios": "https://dc.lft.to/lastmile_qr_scan", "android": "https://dc.lft.to/lastmile_qr_scan"}, "lon": -76.99407583333333, "type": "electric_scooter", "fusion_lat": 0.0, "lat": 38.910026333333334, "name": "f1711f92babc260d058f487e85e87879", "fusion_lon": 0.0, "bike_id": "f1711f92babc260d058f487e85e87879", "is_disabled": 0, "is_reserved": 0}, {"rental_uris": {"ios": "https://dc.lft.to/lastmile_qr_scan", "android": "https://dc.lft.to/lastmile_qr_scan"}, "lon": -76.99630933333333, "type": "electric_scooter", "fusion_lat": 0.0, "lat": 38.846209, "name": "e84cd6dff5c84842892bd7b36b806aa3", "fusion_lon": 0.0, "bike_id": "e84cd6dff5c84842892bd7b36b806aa3", "is_disabled": 0, "is_reserved": 0}, {"rental_uris": {"ios": "https://dc.lft.to/lastmile_qr_scan", "android": "https://dc.lft.to/lastmile_qr_scan"}, "lon": -77.066345, "type": "electric_scooter", "fusion_lat": 0.0, "lat": 38.92804366666667, "name": "791609578ac7e764e210f76390977b94", "fusion_lon": 0.0, "bike_id": "791609578ac7e764e210f76390977b94", "is_disabled": 0, "is_reserved": 0}, {"rental_uris": {"ios": "https://dc.lft.to/lastmile_qr_scan", "android": "https://dc.lft.to/lastmile_qr_scan"}, "lon": -77.02696783333333, "type": "electric_scooter", "fusion_lat": 0.0, "lat": 38.90947766666667, "name": "0782c648c305a5f55abaf4ae7390c8fd", "fusion_lon": 0.0, "bike_id": "0782c648c305a5f55abaf4ae7390c8fd", "is_disabled": 0, "is_reserved": 0}, {"rental_uris": {"ios": "https://dc.lft.to/lastmile_qr_scan", "android": "https://dc.lft.to/lastmile_qr_scan"}, "lon": -76.92713633333334, "type": "electric_scooter", "fusion_lat": 0.0, "lat": 38.887662166666665, "name": "30788512a2dc25545e878b59ba128810", "fusion_lon": 0.0, "bike_id": "30788512a2dc25545e878b59ba128810", "is_disabled": 0, "is_reserved": 0}, {"rental_uris": {"ios": "https://dc.lft.to/lastmile_qr_scan", "android": "https://dc.lft.to/lastmile_qr_scan"}, "lon": -76.98903233333333, "type": "electric_scooter", "fusion_lat": 0.0, "lat": 38.86696366666666, "name": "dff42decee69d25d5ed18bb256c8aef1", "fusion_lon": 0.0, "bike_id": "dff42decee69d25d5ed18bb256c8aef1", "is_disabled": 0, "is_reserved": 0}, {"rental_uris": {"ios": "https://dc.lft.to/lastmile_qr_scan", "android": "https://dc.lft.to/lastmile_qr_scan"}, "lon": -77.01741183333333, "type": "electric_scooter", "fusion_lat": 0.0, "lat": 38.882077, "name": "ac8983e313e043860754b7814daecc97", "fusion_lon": 0.0, "bike_id": "ac8983e313e043860754b7814daecc97", "is_disabled": 0, "is_reserved": 0}, {"rental_uris": {"ios": "https://dc.lft.to/lastmile_qr_scan", "android": "https://dc.lft.to/lastmile_qr_scan"}, "lon": -77.05596116666666, "type": "electric_scooter", "fusion_lat": 0.0, "lat": 38.937028833333336, "name": "ced1564415fbd8ff01c6a7f8f9f08589", "fusion_lon": 0.0, "bike_id": "ced1564415fbd8ff01c6a7f8f9f08589", "is_disabled": 0, "is_reserved": 0}, {"rental_uris": {"ios": "https://dc.lft.to/lastmile_qr_scan", "android": "https://dc.lft.to/lastmile_qr_scan"}, "lon": -77.02759883333333, "type": "electric_scooter", "fusion_lat": 0.0, "lat": 38.95611983333333, "name": "5fdfcbc4b6e19b5a11e1e9f91c59447d", "fusion_lon": 0.0, "bike_id": "5fdfcbc4b6e19b5a11e1e9f91c59447d", "is_disabled": 0, "is_reserved": 0}, {"rental_uris": {"ios": "https://dc.lft.to/lastmile_qr_scan", "android": "https://dc.lft.to/lastmile_qr_scan"}, "lon": -77.06957066666666, "type": "electric_bike", "fusion_lat": 0.0, "lat": 38.99042983333333, "name": "443be3c372cdc81fa3bb02fd7100df7d", "fusion_lon": 0.0, "bike_id": "443be3c372cdc81fa3bb02fd7100df7d", "is_disabled": 0, "is_reserved": 0}, {"rental_uris": {"ios": "https://dc.lft.to/lastmile_qr_scan", "android": "https://dc.lft.to/lastmile_qr_scan"}, "lon": -77.049039, "type": "electric_scooter", "fusion_lat": 0.0, "lat": 38.88842666666667, "name": "0d301708db557d595c7ca3b876d396bc", "fusion_lon": 0.0, "bike_id": "0d301708db557d595c7ca3b876d396bc", "is_disabled": 0, "is_reserved": 0}, {"rental_uris": {"ios": "https://dc.lft.to/lastmile_qr_scan", "android": "https://dc.lft.to/lastmile_qr_scan"}, "lon": -76.99051633333333, "type": "electric_bike", "fusion_lat": 0.0, "lat": 38.90294266666667, "name": "5d43cf75b58f0aa63352ecdda878fb33", "fusion_lon": 0.0, "bike_id": "5d43cf75b58f0aa63352ecdda878fb33", "is_disabled": 0, "is_reserved": 0}, {"rental_uris": {"ios": "https://dc.lft.to/lastmile_qr_scan", "android": "https://dc.lft.to/lastmile_qr_scan"}, "lon": -77.00710683333334, "type": "electric_scooter", "fusion_lat": 0.0, "lat": 38.88486833333333, "name": "8d6d436a15e393dafae517ffd8353639", "fusion_lon": 0.0, "bike_id": "8d6d436a15e393dafae517ffd8353639", "is_disabled": 0, "is_reserved": 0}, {"rental_uris": {"ios": "https://dc.lft.to/lastmile_qr_scan", "android": "https://dc.lft.to/lastmile_qr_scan"}, "lon": -77.04239716666666, "type": "electric_scooter", "fusion_lat": 0.0, "lat": 38.92275683333333, "name": "89154c20bcf0203026cb20575213c165", "fusion_lon": 0.0, "bike_id": "89154c20bcf0203026cb20575213c165", "is_disabled": 0, "is_reserved": 0}, {"rental_uris": {"ios": "https://dc.lft.to/lastmile_qr_scan", "android": "https://dc.lft.to/lastmile_qr_scan"}, "lon": -76.988408, "type": "electric_scooter", "fusion_lat": 0.0, "lat": 38.9018195, "name": "ec76832888da16cc90a2f45e74551310", "fusion_lon": 0.0, "bike_id": "ec76832888da16cc90a2f45e74551310", "is_disabled": 0, "is_reserved": 0}, {"rental_uris": {"ios": "https://dc.lft.to/lastmile_qr_scan", "android": "https://dc.lft.to/lastmile_qr_scan"}, "lon": -77.02964983333334, "type": "electric_scooter", "fusion_lat": 0.0, "lat": 38.95420433333334, "name": "c616a617e748299587d2fd6599170300", "fusion_lon": 0.0, "bike_id": "c616a617e748299587d2fd6599170300", "is_disabled": 0, "is_reserved": 0}, {"rental_uris": {"ios": "https://dc.lft.to/lastmile_qr_scan", "android": "https://dc.lft.to/lastmile_qr_scan"}, "lon": -77.04736033333333, "type": "electric_scooter", "fusion_lat": 0.0, "lat": 38.911222, "name": "722c92e0bf0eb2da964027f067fd1e4c", "fusion_lon": 0.0, "bike_id": "722c92e0bf0eb2da964027f067fd1e4c", "is_disabled": 0, "is_reserved": 0}, {"rental_uris": {"ios": "https://dc.lft.to/lastmile_qr_scan", "android": "https://dc.lft.to/lastmile_qr_scan"}, "lon": -77.0227795, "type": "electric_scooter", "fusion_lat": 0.0, "lat": 38.916594, "name": "c2958c76a600093224f7cea77d5b3523", "fusion_lon": 0.0, "bike_id": "c2958c76a600093224f7cea77d5b3523", "is_disabled": 0, "is_reserved": 0}, {"rental_uris": {"ios": "https://dc.lft.to/lastmile_qr_scan", "android": "https://dc.lft.to/lastmile_qr_scan"}, "lon": -77.02387133333333, "type": "electric_scooter", "fusion_lat": 0.0, "lat": 38.9573485, "name": "7e1207df2438e823a5e46712b16b2674", "fusion_lon": 0.0, "bike_id": "7e1207df2438e823a5e46712b16b2674", "is_disabled": 0, "is_reserved": 0}, {"rental_uris": {"ios": "https://dc.lft.to/lastmile_qr_scan", "android": "https://dc.lft.to/lastmile_qr_scan"}, "lon": -76.98724916666667, "type": "electric_scooter", "fusion_lat": 0.0, "lat": 38.86711566666666, "name": "db6b5b6cec476e0c9382a6b3ae5c69ec", "fusion_lon": 0.0, "bike_id": "db6b5b6cec476e0c9382a6b3ae5c69ec", "is_disabled": 0, "is_reserved": 0}, {"rental_uris": {"ios": "https://dc.lft.to/lastmile_qr_scan", "android": "https://dc.lft.to/lastmile_qr_scan"}, "lon": -77.00189933333333, "type": "electric_scooter", "fusion_lat": 0.0, "lat": 38.9002505, "name": "ad53ea46111066ed73a93fa77ef195d8", "fusion_lon": 0.0, "bike_id": "ad53ea46111066ed73a93fa77ef195d8", "is_disabled": 0, "is_reserved": 0}, {"rental_uris": {"ios": "https://dc.lft.to/lastmile_qr_scan", "android": "https://dc.lft.to/lastmile_qr_scan"}, "lon": -77.04374066666666, "type": "electric_scooter", "fusion_lat": 0.0, "lat": 38.902395166666665, "name": "f35beb62893620c8b645ae014208232c", "fusion_lon": 0.0, "bike_id": "f35beb62893620c8b645ae014208232c", "is_disabled": 0, "is_reserved": 0}, {"rental_uris": {"ios": "https://dc.lft.to/lastmile_qr_scan", "android": "https://dc.lft.to/lastmile_qr_scan"}, "lon": -77.01115016666667, "type": "electric_scooter", "fusion_lat": 0.0, "lat": 38.870734666666664, "name": "48069a28fd2430d07bba56ad69c0a424", "fusion_lon": 0.0, "bike_id": "48069a28fd2430d07bba56ad69c0a424", "is_disabled": 0, "is_reserved": 0}, {"rental_uris": {"ios": "https://dc.lft.to/lastmile_qr_scan", "android": "https://dc.lft.to/lastmile_qr_scan"}, "lon": -77.053858, "type": "electric_scooter", "fusion_lat": 0.0, "lat": 38.910531666666664, "name": "a850959b37ccd5478886adf3f61f92fa", "fusion_lon": 0.0, "bike_id": "a850959b37ccd5478886adf3f61f92fa", "is_disabled": 0, "is_reserved": 0}, {"rental_uris": {"ios": "https://dc.lft.to/lastmile_qr_scan", "android": "https://dc.lft.to/lastmile_qr_scan"}, "lon": -76.99253416666667, "type": "electric_scooter", "fusion_lat": 0.0, "lat": 38.919722, "name": "3193c114dcdc27e70bc83b8c8ccbc66c", "fusion_lon": 0.0, "bike_id": "3193c114dcdc27e70bc83b8c8ccbc66c", "is_disabled": 0, "is_reserved": 0}, {"rental_uris": {"ios": "https://dc.lft.to/lastmile_qr_scan", "android": "https://dc.lft.to/lastmile_qr_scan"}, "lon": -77.0260565, "type": "electric_scooter", "fusion_lat": 0.0, "lat": 38.90349333333333, "name": "6fdbe289397f64e50b44f4c11e0c0a99", "fusion_lon": 0.0, "bike_id": "6fdbe289397f64e50b44f4c11e0c0a99", "is_disabled": 0, "is_reserved": 0}, {"rental_uris": {"ios": "https://dc.lft.to/lastmile_qr_scan", "android": "https://dc.lft.to/lastmile_qr_scan"}, "lon": -77.0427125, "type": "electric_scooter", "fusion_lat": 0.0, "lat": 38.92241883333333, "name": "558a157af38d98f45157d0e8e7033d0a", "fusion_lon": 0.0, "bike_id": "558a157af38d98f45157d0e8e7033d0a", "is_disabled": 0, "is_reserved": 0}, {"rental_uris": {"ios": "https://dc.lft.to/lastmile_qr_scan", "android": "https://dc.lft.to/lastmile_qr_scan"}, "lon": -76.9962085, "type": "electric_scooter", "fusion_lat": 0.0, "lat": 38.885618, "name": "3d16a41e53e258a26fb4b83a88395803", "fusion_lon": 0.0, "bike_id": "3d16a41e53e258a26fb4b83a88395803", "is_disabled": 0, "is_reserved": 0}, {"rental_uris": {"ios": "https://dc.lft.to/lastmile_qr_scan", "android": "https://dc.lft.to/lastmile_qr_scan"}, "lon": -77.05513366666666, "type": "electric_scooter", "fusion_lat": 0.0, "lat": 38.930016, "name": "3efd7ed2a8f33a90896b3406f571513b", "fusion_lon": 0.0, "bike_id": "3efd7ed2a8f33a90896b3406f571513b", "is_disabled": 0, "is_reserved": 0}, {"rental_uris": {"ios": "https://dc.lft.to/lastmile_qr_scan", "android": "https://dc.lft.to/lastmile_qr_scan"}, "lon": -77.0270035, "type": "electric_scooter", "fusion_lat": 0.0, "lat": 38.900005166666666, "name": "ef5b5c7ba1825f84ffd32d0e5576f847", "fusion_lon": 0.0, "bike_id": "ef5b5c7ba1825f84ffd32d0e5576f847", "is_disabled": 0, "is_reserved": 0}, {"rental_uris": {"ios": "https://dc.lft.to/lastmile_qr_scan", "android": "https://dc.lft.to/lastmile_qr_scan"}, "lon": -77.02443766666667, "type": "electric_scooter", "fusion_lat": 0.0, "lat": 38.902144, "name": "c0bb556cf6b37df9633880f7ae41b9fa", "fusion_lon": 0.0, "bike_id": "c0bb556cf6b37df9633880f7ae41b9fa", "is_disabled": 0, "is_reserved": 0}, {"rental_uris": {"ios": "https://dc.lft.to/lastmile_qr_scan", "android": "https://dc.lft.to/lastmile_qr_scan"}, "lon": -76.97935783333334, "type": "electric_scooter", "fusion_lat": 0.0, "lat": 38.90249083333333, "name": "b7c28cab89312df67d5dca7eb15e21ac", "fusion_lon": 0.0, "bike_id": "b7c28cab89312df67d5dca7eb15e21ac", "is_disabled": 0, "is_reserved": 0}, {"rental_uris": {"ios": "https://dc.lft.to/lastmile_qr_scan", "android": "https://dc.lft.to/lastmile_qr_scan"}, "lon": -77.0458005, "type": "electric_scooter", "fusion_lat": 0.0, "lat": 38.921330166666664, "name": "67c165ff53464ccbd3aad6a8823a2c29", "fusion_lon": 0.0, "bike_id": "67c165ff53464ccbd3aad6a8823a2c29", "is_disabled": 0, "is_reserved": 0}, {"rental_uris": {"ios": "https://dc.lft.to/lastmile_qr_scan", "android": "https://dc.lft.to/lastmile_qr_scan"}, "lon": -77.00335916666667, "type": "electric_scooter", "fusion_lat": 0.0, "lat": 38.893582, "name": "8234241135254053fbf1f2b13fefc5e7", "fusion_lon": 0.0, "bike_id": "8234241135254053fbf1f2b13fefc5e7", "is_disabled": 0, "is_reserved": 0}, {"rental_uris": {"ios": "https://dc.lft.to/lastmile_qr_scan", "android": "https://dc.lft.to/lastmile_qr_scan"}, "lon": -77.03965683333334, "type": "electric_scooter", "fusion_lat": 0.0, "lat": 38.89907933333333, "name": "2e1b33dfbf0099491af9660ec5608ea5", "fusion_lon": 0.0, "bike_id": "2e1b33dfbf0099491af9660ec5608ea5", "is_disabled": 0, "is_reserved": 0}, {"rental_uris": {"ios": "https://dc.lft.to/lastmile_qr_scan", "android": "https://dc.lft.to/lastmile_qr_scan"}, "lon": -77.01592916666667, "type": "electric_scooter", "fusion_lat": 0.0, "lat": 38.91855916666667, "name": "140273ed7747bbd2469ae84aa8fae470", "fusion_lon": 0.0, "bike_id": "140273ed7747bbd2469ae84aa8fae470", "is_disabled": 0, "is_reserved": 0}, {"rental_uris": {"ios": "https://dc.lft.to/lastmile_qr_scan", "android": "https://dc.lft.to/lastmile_qr_scan"}, "lon": -76.97941133333333, "type": "electric_scooter", "fusion_lat": 0.0, "lat": 38.86614516666667, "name": "467849a2675aa0610bb4a1328ba5e46e", "fusion_lon": 0.0, "bike_id": "467849a2675aa0610bb4a1328ba5e46e", "is_disabled": 0, "is_reserved": 0}, {"rental_uris": {"ios": "https://dc.lft.to/lastmile_qr_scan", "android": "https://dc.lft.to/lastmile_qr_scan"}, "lon": -77.03294066666666, "type": "electric_scooter", "fusion_lat": 0.0, "lat": 38.908490666666665, "name": "45f5436355d824e576381e4d67e360e7", "fusion_lon": 0.0, "bike_id": "45f5436355d824e576381e4d67e360e7", "is_disabled": 0, "is_reserved": 0}, {"rental_uris": {"ios": "https://dc.lft.to/lastmile_qr_scan", "android": "https://dc.lft.to/lastmile_qr_scan"}, "lon": -77.01376716666667, "type": "electric_scooter", "fusion_lat": 0.0, "lat": 38.89827, "name": "c9641c50e78ab9560b8c8d8e806b4269", "fusion_lon": 0.0, "bike_id": "c9641c50e78ab9560b8c8d8e806b4269", "is_disabled": 0, "is_reserved": 0}, {"rental_uris": {"ios": "https://dc.lft.to/lastmile_qr_scan", "android": "https://dc.lft.to/lastmile_qr_scan"}, "lon": -77.0265655, "type": "electric_scooter", "fusion_lat": 0.0, "lat": 38.9105885, "name": "04a11b9bb1964de9276668f68c9aa431", "fusion_lon": 0.0, "bike_id": "04a11b9bb1964de9276668f68c9aa431", "is_disabled": 0, "is_reserved": 0}, {"rental_uris": {"ios": "https://dc.lft.to/lastmile_qr_scan", "android": "https://dc.lft.to/lastmile_qr_scan"}, "lon": -77.044815, "type": "electric_scooter", "fusion_lat": 0.0, "lat": 38.903442, "name": "7fbe6f09fed088be0589b7f661c352c8", "fusion_lon": 0.0, "bike_id": "7fbe6f09fed088be0589b7f661c352c8", "is_disabled": 0, "is_reserved": 0}, {"rental_uris": {"ios": "https://dc.lft.to/lastmile_qr_scan", "android": "https://dc.lft.to/lastmile_qr_scan"}, "lon": -76.98573983333333, "type": "electric_scooter", "fusion_lat": 0.0, "lat": 38.899567833333336, "name": "7f64fd958742763e87ff69c635d894af", "fusion_lon": 0.0, "bike_id": "7f64fd958742763e87ff69c635d894af", "is_disabled": 0, "is_reserved": 0}, {"rental_uris": {"ios": "https://dc.lft.to/lastmile_qr_scan", "android": "https://dc.lft.to/lastmile_qr_scan"}, "lon": -77.05843783333333, "type": "electric_scooter", "fusion_lat": 0.0, "lat": 38.93429066666667, "name": "97a2e47bc45048ea6e912b1ea4bfc922", "fusion_lon": 0.0, "bike_id": "97a2e47bc45048ea6e912b1ea4bfc922", "is_disabled": 0, "is_reserved": 0}, {"rental_uris": {"ios": "https://dc.lft.to/lastmile_qr_scan", "android": "https://dc.lft.to/lastmile_qr_scan"}, "lon": -76.947212, "type": "electric_scooter", "fusion_lat": 0.0, "lat": 38.89737316666667, "name": "b0ea713db6062bff5f3ecf485a198b99", "fusion_lon": 0.0, "bike_id": "b0ea713db6062bff5f3ecf485a198b99", "is_disabled": 0, "is_reserved": 0}, {"rental_uris": {"ios": "https://dc.lft.to/lastmile_qr_scan", "android": "https://dc.lft.to/lastmile_qr_scan"}, "lon": -77.0280755, "type": "electric_scooter", "fusion_lat": 0.0, "lat": 38.881758166666664, "name": "71a907971b8f1540273d30d304dfd96d", "fusion_lon": 0.0, "bike_id": "71a907971b8f1540273d30d304dfd96d", "is_disabled": 0, "is_reserved": 0}, {"rental_uris": {"ios": "https://dc.lft.to/lastmile_qr_scan", "android": "https://dc.lft.to/lastmile_qr_scan"}, "lon": -77.01408133333334, "type": "electric_scooter", "fusion_lat": 0.0, "lat": 38.928158, "name": "533b05a9be1747e6012f98a579bf0774", "fusion_lon": 0.0, "bike_id": "533b05a9be1747e6012f98a579bf0774", "is_disabled": 0, "is_reserved": 0}, {"rental_uris": {"ios": "https://dc.lft.to/lastmile_qr_scan", "android": "https://dc.lft.to/lastmile_qr_scan"}, "lon": -77.03403666666667, "type": "electric_scooter", "fusion_lat": 0.0, "lat": 38.9227655, "name": "a47a3f339b4a602457d23aa343a8deb8", "fusion_lon": 0.0, "bike_id": "a47a3f339b4a602457d23aa343a8deb8", "is_disabled": 0, "is_reserved": 0}, {"rental_uris": {"ios": "https://dc.lft.to/lastmile_qr_scan", "android": "https://dc.lft.to/lastmile_qr_scan"}, "lon": -77.02589883333333, "type": "electric_scooter", "fusion_lat": 0.0, "lat": 38.90605466666667, "name": "d67e10c3bf4b6a8e307ba25929671459", "fusion_lon": 0.0, "bike_id": "d67e10c3bf4b6a8e307ba25929671459", "is_disabled": 0, "is_reserved": 0}, {"rental_uris": {"ios": "https://dc.lft.to/lastmile_qr_scan", "android": "https://dc.lft.to/lastmile_qr_scan"}, "lon": -77.02763633333333, "type": "electric_scooter", "fusion_lat": 0.0, "lat": 38.89476833333333, "name": "8af227354e3e252a7537a3c9dfc6ca83", "fusion_lon": 0.0, "bike_id": "8af227354e3e252a7537a3c9dfc6ca83", "is_disabled": 0, "is_reserved": 0}, {"rental_uris": {"ios": "https://dc.lft.to/lastmile_qr_scan", "android": "https://dc.lft.to/lastmile_qr_scan"}, "lon": -77.04607966666667, "type": "electric_scooter", "fusion_lat": 0.0, "lat": 38.922315166666664, "name": "b7f8762dfb73adf75b823abf15418525", "fusion_lon": 0.0, "bike_id": "b7f8762dfb73adf75b823abf15418525", "is_disabled": 0, "is_reserved": 0}, {"rental_uris": {"ios": "https://dc.lft.to/lastmile_qr_scan", "android": "https://dc.lft.to/lastmile_qr_scan"}, "lon": -76.98712933333333, "type": "electric_scooter", "fusion_lat": 0.0, "lat": 38.86260216666667, "name": "48aae93e9efc895bbfb0b70701ca2dd3", "fusion_lon": 0.0, "bike_id": "48aae93e9efc895bbfb0b70701ca2dd3", "is_disabled": 0, "is_reserved": 0}, {"rental_uris": {"ios": "https://dc.lft.to/lastmile_qr_scan", "android": "https://dc.lft.to/lastmile_qr_scan"}, "lon": -77.03173466666667, "type": "electric_scooter", "fusion_lat": 0.0, "lat": 38.914185, "name": "9c26700ec71b0547985f72e06364c858", "fusion_lon": 0.0, "bike_id": "9c26700ec71b0547985f72e06364c858", "is_disabled": 0, "is_reserved": 0}, {"rental_uris": {"ios": "https://dc.lft.to/lastmile_qr_scan", "android": "https://dc.lft.to/lastmile_qr_scan"}, "lon": -77.03308683333333, "type": "electric_scooter", "fusion_lat": 0.0, "lat": 38.90978116666667, "name": "8434bbb36c645f1e9d41db3fca7b8beb", "fusion_lon": 0.0, "bike_id": "8434bbb36c645f1e9d41db3fca7b8beb", "is_disabled": 0, "is_reserved": 0}, {"rental_uris": {"ios": "https://dc.lft.to/lastmile_qr_scan", "android": "https://dc.lft.to/lastmile_qr_scan"}, "lon": -77.037907, "type": "electric_scooter", "fusion_lat": 0.0, "lat": 38.92200666666667, "name": "d1cf0cae17c978540dacbcbae41db5e4", "fusion_lon": 0.0, "bike_id": "d1cf0cae17c978540dacbcbae41db5e4", "is_disabled": 0, "is_reserved": 0}, {"rental_uris": {"ios": "https://dc.lft.to/lastmile_qr_scan", "android": "https://dc.lft.to/lastmile_qr_scan"}, "lon": -77.017553, "type": "electric_scooter", "fusion_lat": 0.0, "lat": 38.902643833333336, "name": "2b4f5b60bc23922c0c055e8cbb047470", "fusion_lon": 0.0, "bike_id": "2b4f5b60bc23922c0c055e8cbb047470", "is_disabled": 0, "is_reserved": 0}, {"rental_uris": {"ios": "https://dc.lft.to/lastmile_qr_scan", "android": "https://dc.lft.to/lastmile_qr_scan"}, "lon": -77.03895716666666, "type": "electric_scooter", "fusion_lat": 0.0, "lat": 38.91565166666667, "name": "a1f5db50512193118daabf10976016c9", "fusion_lon": 0.0, "bike_id": "a1f5db50512193118daabf10976016c9", "is_disabled": 0, "is_reserved": 0}, {"rental_uris": {"ios": "https://dc.lft.to/lastmile_qr_scan", "android": "https://dc.lft.to/lastmile_qr_scan"}, "lon": -77.00803816666667, "type": "electric_scooter", "fusion_lat": 0.0, "lat": 38.905779833333334, "name": "d9bad431e22c2220965d65126322cb7b", "fusion_lon": 0.0, "bike_id": "d9bad431e22c2220965d65126322cb7b", "is_disabled": 0, "is_reserved": 0}, {"rental_uris": {"ios": "https://dc.lft.to/lastmile_qr_scan", "android": "https://dc.lft.to/lastmile_qr_scan"}, "lon": -76.9317275, "type": "electric_scooter", "fusion_lat": 0.0, "lat": 38.89885683333333, "name": "db5b4fee90aa4e7b21a9d3b6d8c8e717", "fusion_lon": 0.0, "bike_id": "db5b4fee90aa4e7b21a9d3b6d8c8e717", "is_disabled": 0, "is_reserved": 0}, {"rental_uris": {"ios": "https://dc.lft.to/lastmile_qr_scan", "android": "https://dc.lft.to/lastmile_qr_scan"}, "lon": -77.02760883333333, "type": "electric_scooter", "fusion_lat": 0.0, "lat": 38.913449, "name": "f2dc2e132127d4d52facfab70c7682ab", "fusion_lon": 0.0, "bike_id": "f2dc2e132127d4d52facfab70c7682ab", "is_disabled": 0, "is_reserved": 0}, {"rental_uris": {"ios": "https://dc.lft.to/lastmile_qr_scan", "android": "https://dc.lft.to/lastmile_qr_scan"}, "lon": -77.05148166666666, "type": "electric_scooter", "fusion_lat": 0.0, "lat": 38.90209, "name": "1b71f793d77f4f4d22ef96e3b5f3a5a0", "fusion_lon": 0.0, "bike_id": "1b71f793d77f4f4d22ef96e3b5f3a5a0", "is_disabled": 0, "is_reserved": 0}, {"rental_uris": {"ios": "https://dc.lft.to/lastmile_qr_scan", "android": "https://dc.lft.to/lastmile_qr_scan"}, "lon": -77.03823166666666, "type": "electric_scooter", "fusion_lat": 0.0, "lat": 38.920663166666664, "name": "954f8165741a6939fdf11a010f0e2f9f", "fusion_lon": 0.0, "bike_id": "954f8165741a6939fdf11a010f0e2f9f", "is_disabled": 0, "is_reserved": 0}, {"rental_uris": {"ios": "https://dc.lft.to/lastmile_qr_scan", "android": "https://dc.lft.to/lastmile_qr_scan"}, "lon": -76.99586816666667, "type": "electric_scooter", "fusion_lat": 0.0, "lat": 38.9550415, "name": "6a05361b4b433144136f6864ede699ba", "fusion_lon": 0.0, "bike_id": "6a05361b4b433144136f6864ede699ba", "is_disabled": 0, "is_reserved": 0}, {"rental_uris": {"ios": "https://dc.lft.to/lastmile_qr_scan", "android": "https://dc.lft.to/lastmile_qr_scan"}, "lon": -76.91921116666667, "type": "electric_scooter", "fusion_lat": 0.0, "lat": 38.89078716666667, "name": "c34f6a153bf89c114b185e1fa1c3c24b", "fusion_lon": 0.0, "bike_id": "c34f6a153bf89c114b185e1fa1c3c24b", "is_disabled": 0, "is_reserved": 0}, {"rental_uris": {"ios": "https://dc.lft.to/lastmile_qr_scan", "android": "https://dc.lft.to/lastmile_qr_scan"}, "lon": -76.99794716666666, "type": "electric_bike", "fusion_lat": 0.0, "lat": 38.905585333333335, "name": "7db5c0c64b70bccdce5ac866d0a351a2", "fusion_lon": 0.0, "bike_id": "7db5c0c64b70bccdce5ac866d0a351a2", "is_disabled": 0, "is_reserved": 0}, {"rental_uris": {"ios": "https://dc.lft.to/lastmile_qr_scan", "android": "https://dc.lft.to/lastmile_qr_scan"}, "lon": -77.04501433333333, "type": "electric_scooter", "fusion_lat": 0.0, "lat": 38.91109866666667, "name": "33bbf054b0db33f0bfefa5985eced97d", "fusion_lon": 0.0, "bike_id": "33bbf054b0db33f0bfefa5985eced97d", "is_disabled": 0, "is_reserved": 0}, {"rental_uris": {"ios": "https://dc.lft.to/lastmile_qr_scan", "android": "https://dc.lft.to/lastmile_qr_scan"}, "lon": -77.03250966666667, "type": "electric_scooter", "fusion_lat": 0.0, "lat": 38.9073285, "name": "30460fd64bca446e45468f98e6913c3b", "fusion_lon": 0.0, "bike_id": "30460fd64bca446e45468f98e6913c3b", "is_disabled": 0, "is_reserved": 0}, {"rental_uris": {"ios": "https://dc.lft.to/lastmile_qr_scan", "android": "https://dc.lft.to/lastmile_qr_scan"}, "lon": -76.995745, "type": "electric_scooter", "fusion_lat": 0.0, "lat": 38.900314, "name": "f780147d87ddff3ade719a50e5fc5098", "fusion_lon": 0.0, "bike_id": "f780147d87ddff3ade719a50e5fc5098", "is_disabled": 0, "is_reserved": 0}, {"rental_uris": {"ios": "https://dc.lft.to/lastmile_qr_scan", "android": "https://dc.lft.to/lastmile_qr_scan"}, "lon": -77.02285933333333, "type": "electric_scooter", "fusion_lat": 0.0, "lat": 38.956462333333334, "name": "39c8280a5e2bef737503a7049df9e835", "fusion_lon": 0.0, "bike_id": "39c8280a5e2bef737503a7049df9e835", "is_disabled": 0, "is_reserved": 0}, {"rental_uris": {"ios": "https://dc.lft.to/lastmile_qr_scan", "android": "https://dc.lft.to/lastmile_qr_scan"}, "lon": -77.0234315, "type": "electric_scooter", "fusion_lat": 0.0, "lat": 38.9205285, "name": "6d0861a58aeee9c05854876a9ed54634", "fusion_lon": 0.0, "bike_id": "6d0861a58aeee9c05854876a9ed54634", "is_disabled": 0, "is_reserved": 0}, {"rental_uris": {"ios": "https://dc.lft.to/lastmile_qr_scan", "android": "https://dc.lft.to/lastmile_qr_scan"}, "lon": -77.04786783333333, "type": "electric_scooter", "fusion_lat": 0.0, "lat": 38.89373966666667, "name": "d9095deb5b1b514954fa5ada7df8423a", "fusion_lon": 0.0, "bike_id": "d9095deb5b1b514954fa5ada7df8423a", "is_disabled": 0, "is_reserved": 0}, {"rental_uris": {"ios": "https://dc.lft.to/lastmile_qr_scan", "android": "https://dc.lft.to/lastmile_qr_scan"}, "lon": -77.024052, "type": "electric_scooter", "fusion_lat": 0.0, "lat": 38.920891166666664, "name": "2294799599504dda7a77c19f1694ffab", "fusion_lon": 0.0, "bike_id": "2294799599504dda7a77c19f1694ffab", "is_disabled": 0, "is_reserved": 0}, {"rental_uris": {"ios": "https://dc.lft.to/lastmile_qr_scan", "android": "https://dc.lft.to/lastmile_qr_scan"},