{"data": {"bikes": [{"fusion_lat": 0.0, "type": "electric_scooter", "name": "b532b701c0cd7061ce9c5df8e3a03f61", "fusion_lon": 0.0, "bike_id": "b532b701c0cd7061ce9c5df8e3a03f61", "is_reserved": 0, "rental_uris": {"android": "https://dc.lft.to/lastmile_qr_scan", "ios": "https://dc.lft.to/lastmile_qr_scan"}, "lat": 38.91680316666667, "is_disabled": 0, "lon": -77.03688733333334}, {"fusion_lat": 0.0, "type": "electric_scooter", "name": "88261d13ad92b348c568206b6272dd58", "fusion_lon": 0.0, "bike_id": "88261d13ad92b348c568206b6272dd58", "is_reserved": 0, "rental_uris": {"android": "https://dc.lft.to/lastmile_qr_scan", "ios": "https://dc.lft.to/lastmile_qr_scan"}, "lat": 38.903058, "is_disabled": 0, "lon": -77.0504885}, {"fusion_lat": 0.0, "type": "electric_scooter", "name": "fc25f6c61d442cdb5aab481346c9d887", "fusion_lon": 0.0, "bike_id": "fc25f6c61d442cdb5aab481346c9d887", "is_reserved": 0, "rental_uris": {"android": "https://dc.lft.to/lastmile_qr_scan", "ios": "https://dc.lft.to/lastmile_qr_scan"}, "lat": 38.91376866666667, "is_disabled": 0, "lon": -77.03142216666667}, {"fusion_lat": 0.0, "type": "electric_scooter", "name": "726d53215f237df557be88b04d4ecd4d", "fusion_lon": 0.0, "bike_id": "726d53215f237df557be88b04d4ecd4d", "is_reserved": 0, "rental_uris": {"android": "https://dc.lft.to/lastmile_qr_scan", "ios": "https://dc.lft.to/lastmile_qr_scan"}, "lat": 38.8989415, "is_disabled": 0, "lon": -76.99385833333334}, {"fusion_lat": 0.0, "type": "electric_scooter", "name": "0598dcb82478ae3d884bdd9c80941682", "fusion_lon": 0.0, "bike_id": "0598dcb82478ae3d884bdd9c80941682", "is_reserved": 0, "rental_uris": {"android": "https://dc.lft.to/lastmile_qr_scan", "ios": "https://dc.lft.to/lastmile_qr_scan"}, "lat": 38.918412000000004, "is_disabled": 0, "lon": -77.05949783333334}, {"fusion_lat": 0.0, "type": "electric_scooter", "name": "d3ecd1db67fd0ee3722a51153f60b879", "fusion_lon": 0.0, "bike_id": "d3ecd1db67fd0ee3722a51153f60b879", "is_reserved": 0, "rental_uris": {"android": "https://dc.lft.to/lastmile_qr_scan", "ios": "https://dc.lft.to/lastmile_qr_scan"}, "lat": 38.89225866666666, "is_disabled": 0, "lon": -77.050013}, {"fusion_lat": 0.0, "type": "electric_scooter", "name": "6f56bde66b68435e6c384d906b533e25", "fusion_lon": 0.0, "bike_id": "6f56bde66b68435e6c384d906b533e25", "is_reserved": 0, "rental_uris": {"android": "https://dc.lft.to/lastmile_qr_scan", "ios": "https://dc.lft.to/lastmile_qr_scan"}, "lat": 38.916334666666664, "is_disabled": 0, "lon": -77.04795883333334}, {"fusion_lat": 0.0, "type": "electric_scooter", "name": "d37ffb88aa6b781440481395ac0c6275", "fusion_lon": 0.0, "bike_id": "d37ffb88aa6b781440481395ac0c6275", "is_reserved": 0, "rental_uris": {"android": "https://dc.lft.to/lastmile_qr_scan", "ios": "https://dc.lft.to/lastmile_qr_scan"}, "lat": 38.95289966666667, "is_disabled": 0, "lon": -77.06859933333334}, {"fusion_lat": 0.0, "type": "electric_scooter", "name": "887437e48b5335f6ddd7ecfbc4c1a640", "fusion_lon": 0.0, "bike_id": "887437e48b5335f6ddd7ecfbc4c1a640", "is_reserved": 0, "rental_uris": {"android": "https://dc.lft.to/lastmile_qr_scan", "ios": "https://dc.lft.to/lastmile_qr_scan"}, "lat": 38.9112605, "is_disabled": 0, "lon": -77.0219645}, {"fusion_lat": 0.0, "type": "electric_scooter", "name": "015f1639d85547828c32fcbf50fce005", "fusion_lon": 0.0, "bike_id": "015f1639d85547828c32fcbf50fce005", "is_reserved": 0, "rental_uris": {"android": "https://dc.lft.to/lastmile_qr_scan", "ios": "https://dc.lft.to/lastmile_qr_scan"}, "lat": 38.92632016666667, "is_disabled": 0, "lon": -77.043273}, {"fusion_lat": 0.0, "type": "electric_bike", "name": "e82d5910af81954792555ec6080722e8", "fusion_lon": 0.0, "bike_id": "e82d5910af81954792555ec6080722e8", "is_reserved": 0, "rental_uris": {"android": "https://dc.lft.to/lastmile_qr_scan", "ios": "https://dc.lft.to/lastmile_qr_scan"}, "lat": 38.93227483333333, "is_disabled": 0, "lon": -77.18124216666666}, {"fusion_lat": 0.0, "type": "electric_scooter", "name": "8e3d3e3ec51568860aef519437c22d1d", "fusion_lon": 0.0, "bike_id": "8e3d3e3ec51568860aef519437c22d1d", "is_reserved": 0, "rental_uris": {"android": "https://dc.lft.to/lastmile_qr_scan", "ios": "https://dc.lft.to/lastmile_qr_scan"}, "lat": 38.924608, "is_disabled": 0, "lon": -77.02979066666667}, {"fusion_lat": 0.0, "type": "electric_scooter", "name": "e6f3ed7767164a4dc5de6f2e31e71740", "fusion_lon": 0.0, "bike_id": "e6f3ed7767164a4dc5de6f2e31e71740", "is_reserved": 0, "rental_uris": {"android": "https://dc.lft.to/lastmile_qr_scan", "ios": "https://dc.lft.to/lastmile_qr_scan"}, "lat": 38.8924605, "is_disabled": 0, "lon": -77.0395635}, {"fusion_lat": 0.0, "type": "electric_scooter", "name": "f986193ea7cc28ce71a561979961a1d4", "fusion_lon": 0.0, "bike_id": "f986193ea7cc28ce71a561979961a1d4", "is_reserved": 0, "rental_uris": {"android": "https://dc.lft.to/lastmile_qr_scan", "ios": "https://dc.lft.to/lastmile_qr_scan"}, "lat": 38.9248415, "is_disabled": 0, "lon": -77.0267615}, {"fusion_lat": 0.0, "type": "electric_scooter", "name": "a8bcfb462724551d275b734889f59cab", "fusion_lon": 0.0, "bike_id": "a8bcfb462724551d275b734889f59cab", "is_reserved": 0, "rental_uris": {"android": "https://dc.lft.to/lastmile_qr_scan", "ios": "https://dc.lft.to/lastmile_qr_scan"}, "lat": 38.921594999999996, "is_disabled": 0, "lon": -77.03380933333334}, {"fusion_lat": 0.0, "type": "electric_scooter", "name": "dee19222f8e09d56475abfb20d902a3e", "fusion_lon": 0.0, "bike_id": "dee19222f8e09d56475abfb20d902a3e", "is_reserved": 0, "rental_uris": {"android": "https://dc.lft.to/lastmile_qr_scan", "ios": "https://dc.lft.to/lastmile_qr_scan"}, "lat": 38.89618183333333, "is_disabled": 0, "lon": -77.03210766666666}, {"fusion_lat": 0.0, "type": "electric_scooter", "name": "419c0bbccb60ef20ba4dc9106eb269f4", "fusion_lon": 0.0, "bike_id": "419c0bbccb60ef20ba4dc9106eb269f4", "is_reserved": 0, "rental_uris": {"android": "https://dc.lft.to/lastmile_qr_scan", "ios": "https://dc.lft.to/lastmile_qr_scan"}, "lat": 38.95184066666667, "is_disabled": 0, "lon": -77.02611666666667}, {"fusion_lat": 0.0, "type": "electric_bike", "name": "9cffb9c67037f13d18338bd4d5633a84", "fusion_lon": 0.0, "bike_id": "9cffb9c67037f13d18338bd4d5633a84", "is_reserved": 0, "rental_uris": {"android": "https://dc.lft.to/lastmile_qr_scan", "ios": "https://dc.lft.to/lastmile_qr_scan"}, "lat": 38.95329, "is_disabled": 0, "lon": -76.95434933333334}, {"fusion_lat": 0.0, "type": "electric_scooter", "name": "fed4dd87161a04a8e4e2b1c46794dd39", "fusion_lon": 0.0, "bike_id": "fed4dd87161a04a8e4e2b1c46794dd39", "is_reserved": 0, "rental_uris": {"android": "https://dc.lft.to/lastmile_qr_scan", "ios": "https://dc.lft.to/lastmile_qr_scan"}, "lat": 38.8925035, "is_disabled": 0, "lon": -76.9882985}, {"fusion_lat": 0.0, "type": "electric_bike", "name": "c9055d45f500f6a16c9e549cd99e92d7", "fusion_lon": 0.0, "bike_id": "c9055d45f500f6a16c9e549cd99e92d7", "is_reserved": 0, "rental_uris": {"android": "https://dc.lft.to/lastmile_qr_scan", "ios": "https://dc.lft.to/lastmile_qr_scan"}, "lat": 39.054969, "is_disabled": 0, "lon": -77.11787333333334}, {"fusion_lat": 0.0, "type": "electric_scooter", "name": "eddb8a608a7b728ee62c87a004c526f9", "fusion_lon": 0.0, "bike_id": "eddb8a608a7b728ee62c87a004c526f9", "is_reserved": 0, "rental_uris": {"android": "https://dc.lft.to/lastmile_qr_scan", "ios": "https://dc.lft.to/lastmile_qr_scan"}, "lat": 38.921576, "is_disabled": 0, "lon": -77.03356933333333}, {"fusion_lat": 0.0, "type": "electric_scooter", "name": "a1dfea8c52df1965fdc9fec397a38b47", "fusion_lon": 0.0, "bike_id": "a1dfea8c52df1965fdc9fec397a38b47", "is_reserved": 0, "rental_uris": {"android": "https://dc.lft.to/lastmile_qr_scan", "ios": "https://dc.lft.to/lastmile_qr_scan"}, "lat": 38.903587, "is_disabled": 0, "lon": -77.040029}, {"fusion_lat": 0.0, "type": "electric_scooter", "name": "dae166afb5d8615f3cd402a3888ce997", "fusion_lon": 0.0, "bike_id": "dae166afb5d8615f3cd402a3888ce997", "is_reserved": 0, "rental_uris": {"android": "https://dc.lft.to/lastmile_qr_scan", "ios": "https://dc.lft.to/lastmile_qr_scan"}, "lat": 38.91983833333333, "is_disabled": 0, "lon": -77.0379345}, {"fusion_lat": 0.0, "type": "electric_scooter", "name": "05bbfb92e5991a410552b9dbe8cc723c", "fusion_lon": 0.0, "bike_id": "05bbfb92e5991a410552b9dbe8cc723c", "is_reserved": 0, "rental_uris": {"android": "https://dc.lft.to/lastmile_qr_scan", "ios": "https://dc.lft.to/lastmile_qr_scan"}, "lat": 38.92094566666667, "is_disabled": 0, "lon": -77.02321966666666}, {"fusion_lat": 0.0, "type": "electric_scooter", "name": "863c82508e28be0a2d7c346ad353e40b", "fusion_lon": 0.0, "bike_id": "863c82508e28be0a2d7c346ad353e40b", "is_reserved": 0, "rental_uris": {"android": "https://dc.lft.to/lastmile_qr_scan", "ios": "https://dc.lft.to/lastmile_qr_scan"}, "lat": 38.879636, "is_disabled": 0, "lon": -76.98747316666666}, {"fusion_lat": 0.0, "type": "electric_bike", "name": "9a87c7a4693a07ed044820d5cc79583e", "fusion_lon": 0.0, "bike_id": "9a87c7a4693a07ed044820d5cc79583e", "is_reserved": 0, "rental_uris": {"android": "https://dc.lft.to/lastmile_qr_scan", "ios": "https://dc.lft.to/lastmile_qr_scan"}, "lat": 38.883339666666664, "is_disabled": 0, "lon": -77.06563366666667}, {"fusion_lat": 0.0, "type": "electric_bike", "name": "2756f9d125e15841a5eeccd653f2d53c", "fusion_lon": 0.0, "bike_id": "2756f9d125e15841a5eeccd653f2d53c", "is_reserved": 0, "rental_uris": {"android": "https://dc.lft.to/lastmile_qr_scan", "ios": "https://dc.lft.to/lastmile_qr_scan"}, "lat": 39.034278666666665, "is_disabled": 0, "lon": -77.0410285}, {"fusion_lat": 0.0, "type": "electric_scooter", "name": "97948e66b64fbb3c5445005ecf8c210c", "fusion_lon": 0.0, "bike_id": "97948e66b64fbb3c5445005ecf8c210c", "is_reserved": 0, "rental_uris": {"android": "https://dc.lft.to/lastmile_qr_scan", "ios": "https://dc.lft.to/lastmile_qr_scan"}, "lat": 38.894513833333335, "is_disabled": 0, "lon": -76.99833116666667}, {"fusion_lat": 0.0, "type": "electric_scooter", "name": "6c9374234433dfb5befe5cdca2291058", "fusion_lon": 0.0, "bike_id": "6c9374234433dfb5befe5cdca2291058", "is_reserved": 0, "rental_uris": {"android": "https://dc.lft.to/lastmile_qr_scan", "ios": "https://dc.lft.to/lastmile_qr_scan"}, "lat": 38.934017, "is_disabled": 0, "lon": -77.04129133333333}, {"fusion_lat": 0.0, "type": "electric_scooter", "name": "230c9c34044beb88507130e9a70ce951", "fusion_lon": 0.0, "bike_id": "230c9c34044beb88507130e9a70ce951", "is_reserved": 0, "rental_uris": {"android": "https://dc.lft.to/lastmile_qr_scan", "ios": "https://dc.lft.to/lastmile_qr_scan"}, "lat": 38.9228615, "is_disabled": 0, "lon": -77.0296425}, {"fusion_lat": 0.0, "type": "electric_scooter", "name": "29fe83cacbf437cfc4b285bb1352ed21", "fusion_lon": 0.0, "bike_id": "29fe83cacbf437cfc4b285bb1352ed21", "is_reserved": 0, "rental_uris": {"android": "https://dc.lft.to/lastmile_qr_scan", "ios": "https://dc.lft.to/lastmile_qr_scan"}, "lat": 38.916998666666665, "is_disabled": 0, "lon": -77.0404575}, {"fusion_lat": 0.0, "type": "electric_bike", "name": "6e7db4a22ef4a6a70b4cbff7c52a8795", "fusion_lon": 0.0, "bike_id": "6e7db4a22ef4a6a70b4cbff7c52a8795", "is_reserved": 0, "rental_uris": {"android": "https://dc.lft.to/lastmile_qr_scan", "ios": "https://dc.lft.to/lastmile_qr_scan"}, "lat": 38.8956235, "is_disabled": 0, "lon": -77.12729683333333}, {"fusion_lat": 0.0, "type": "electric_scooter", "name": "118ca543363b78c4e63bf9f1dbb1d758", "fusion_lon": 0.0, "bike_id": "118ca543363b78c4e63bf9f1dbb1d758", "is_reserved": 0, "rental_uris": {"android": "https://dc.lft.to/lastmile_qr_scan", "ios": "https://dc.lft.to/lastmile_qr_scan"}, "lat": 38.9219585, "is_disabled": 0, "lon": -77.04238983333333}, {"fusion_lat": 0.0, "type": "electric_scooter", "name": "9dd001d568b5b7cfbeb16018d6fd8efd", "fusion_lon": 0.0, "bike_id": "9dd001d568b5b7cfbeb16018d6fd8efd", "is_reserved": 0, "rental_uris": {"android": "https://dc.lft.to/lastmile_qr_scan", "ios": "https://dc.lft.to/lastmile_qr_scan"}, "lat": 38.924642, "is_disabled": 0, "lon": -77.0575415}, {"fusion_lat": 0.0, "type": "electric_scooter", "name": "df4ba1c7338fc40379f33d6640c07aff", "fusion_lon": 0.0, "bike_id": "df4ba1c7338fc40379f33d6640c07aff", "is_reserved": 0, "rental_uris": {"android": "https://dc.lft.to/lastmile_qr_scan", "ios": "https://dc.lft.to/lastmile_qr_scan"}, "lat": 38.919292166666665, "is_disabled": 0, "lon": -76.999344}, {"fusion_lat": 0.0, "type": "electric_scooter", "name": "23154edbc2e4753602f0a670c172523f", "fusion_lon": 0.0, "bike_id": "23154edbc2e4753602f0a670c172523f", "is_reserved": 0, "rental_uris": {"android": "https://dc.lft.to/lastmile_qr_scan", "ios": "https://dc.lft.to/lastmile_qr_scan"}, "lat": 38.90713516666667, "is_disabled": 0, "lon": -77.044787}, {"fusion_lat": 0.0, "type": "electric_scooter", "name": "18dd1c5bb790435ec875c8e09c6acca2", "fusion_lon": 0.0, "bike_id": "18dd1c5bb790435ec875c8e09c6acca2", "is_reserved": 0, "rental_uris": {"android": "https://dc.lft.to/lastmile_qr_scan", "ios": "https://dc.lft.to/lastmile_qr_scan"}, "lat": 38.9158965, "is_disabled": 0, "lon": -77.04377416666667}, {"fusion_lat": 0.0, "type": "electric_scooter", "name": "45b79188b36aa0eca0f13d3afe15b962", "fusion_lon": 0.0, "bike_id": "45b79188b36aa0eca0f13d3afe15b962", "is_reserved": 0, "rental_uris": {"android": "https://dc.lft.to/lastmile_qr_scan", "ios": "https://dc.lft.to/lastmile_qr_scan"}, "lat": 38.918602, "is_disabled": 0, "lon": -77.04596633333334}, {"fusion_lat": 0.0, "type": "electric_scooter", "name": "45f057537dd82c46633a1e17a37bb415", "fusion_lon": 0.0, "bike_id": "45f057537dd82c46633a1e17a37bb415", "is_reserved": 0, "rental_uris": {"android": "https://dc.lft.to/lastmile_qr_scan", "ios": "https://dc.lft.to/lastmile_qr_scan"}, "lat": 38.915511, "is_disabled": 0, "lon": -77.03855433333334}, {"fusion_lat": 0.0, "type": "electric_scooter", "name": "33cf827ba559ebf4017829b781bcda55", "fusion_lon": 0.0, "bike_id": "33cf827ba559ebf4017829b781bcda55", "is_reserved": 0, "rental_uris": {"android": "https://dc.lft.to/lastmile_qr_scan", "ios": "https://dc.lft.to/lastmile_qr_scan"}, "lat": 38.92051566666667, "is_disabled": 0, "lon": -77.03659183333333}, {"fusion_lat": 0.0, "type": "electric_scooter", "name": "75e805a8488bf8218fb8d7517cfa9c87", "fusion_lon": 0.0, "bike_id": "75e805a8488bf8218fb8d7517cfa9c87", "is_reserved": 0, "rental_uris": {"android": "https://dc.lft.to/lastmile_qr_scan", "ios": "https://dc.lft.to/lastmile_qr_scan"}, "lat": 38.894301166666665, "is_disabled": 0, "lon": -76.948823}, {"fusion_lat": 0.0, "type": "electric_scooter", "name": "0c2a20e1f00d0dec90072c58a3a463f2", "fusion_lon": 0.0, "bike_id": "0c2a20e1f00d0dec90072c58a3a463f2", "is_reserved": 0, "rental_uris": {"android": "https://dc.lft.to/lastmile_qr_scan", "ios": "https://dc.lft.to/lastmile_qr_scan"}, "lat": 38.93164316666667, "is_disabled": 0, "lon": -77.05608666666667}, {"fusion_lat": 0.0, "type": "electric_scooter", "name": "55ee304076cee5131cd9a726f9035cc4", "fusion_lon": 0.0, "bike_id": "55ee304076cee5131cd9a726f9035cc4", "is_reserved": 0, "rental_uris": {"android": "https://dc.lft.to/lastmile_qr_scan", "ios": "https://dc.lft.to/lastmile_qr_scan"}, "lat": 38.863805166666666, "is_disabled": 0, "lon": -76.99056016666667}, {"fusion_lat": 0.0, "type": "electric_scooter", "name": "301624d7c3e5c518aa8c8a24c88c95a5", "fusion_lon": 0.0, "bike_id": "301624d7c3e5c518aa8c8a24c88c95a5", "is_reserved": 0, "rental_uris": {"android": "https://dc.lft.to/lastmile_qr_scan", "ios": "https://dc.lft.to/lastmile_qr_scan"}, "lat": 38.94098183333333, "is_disabled": 0, "lon": -77.02110983333333}, {"fusion_lat": 0.0, "type": "electric_scooter", "name": "b20a2cd61ab0d0294fe8821fe386c49c", "fusion_lon": 0.0, "bike_id": "b20a2cd61ab0d0294fe8821fe386c49c", "is_reserved": 0, "rental_uris": {"android": "https://dc.lft.to/lastmile_qr_scan", "ios": "https://dc.lft.to/lastmile_qr_scan"}, "lat": 38.89098, "is_disabled": 0, "lon": -77.00281283333334}, {"fusion_lat": 0.0, "type": "electric_scooter", "name": "c8a32f650ef07caafc0acea2197be130", "fusion_lon": 0.0, "bike_id": "c8a32f650ef07caafc0acea2197be130", "is_reserved": 0, "rental_uris": {"android": "https://dc.lft.to/lastmile_qr_scan", "ios": "https://dc.lft.to/lastmile_qr_scan"}, "lat": 38.866983833333336, "is_disabled": 0, "lon": -76.9859205}, {"fusion_lat": 0.0, "type": "electric_bike", "name": "681f7edc581fe076aed07ba988a4511f", "fusion_lon": 0.0, "bike_id": "681f7edc581fe076aed07ba988a4511f", "is_reserved": 0, "rental_uris": {"android": "https://dc.lft.to/lastmile_qr_scan", "ios": "https://dc.lft.to/lastmile_qr_scan"}, "lat": 38.904799833333335, "is_disabled": 0, "lon": -76.97327666666666}, {"fusion_lat": 0.0, "type": "electric_scooter", "name": "e5ac84dc0de7e3f015f6952805606b48", "fusion_lon": 0.0, "bike_id": "e5ac84dc0de7e3f015f6952805606b48", "is_reserved": 0, "rental_uris": {"android": "https://dc.lft.to/lastmile_qr_scan", "ios": "https://dc.lft.to/lastmile_qr_scan"}, "lat": 38.907398666666666, "is_disabled": 0, "lon": -77.045085}, {"fusion_lat": 0.0, "type": "electric_scooter", "name": "7140f93e6086d5faa7331ff0444dd0a7", "fusion_lon": 0.0, "bike_id": "7140f93e6086d5faa7331ff0444dd0a7", "is_reserved": 0, "rental_uris": {"android": "https://dc.lft.to/lastmile_qr_scan", "ios": "https://dc.lft.to/lastmile_qr_scan"}, "lat": 38.93093266666666, "is_disabled": 0, "lon": -77.0344095}, {"fusion_lat": 0.0, "type": "electric_scooter", "name": "bb96d7a66d963dda0f797168840525da", "fusion_lon": 0.0, "bike_id": "bb96d7a66d963dda0f797168840525da", "is_reserved": 0, "rental_uris": {"android": "https://dc.lft.to/lastmile_qr_scan", "ios": "https://dc.lft.to/lastmile_qr_scan"}, "lat": 38.92486383333333, "is_disabled": 0, "lon": -77.02139883333334}, {"fusion_lat": 0.0, "type": "electric_scooter", "name": "3226094fd3e1d853d747417b216f084b", "fusion_lon": 0.0, "bike_id": "3226094fd3e1d853d747417b216f084b", "is_reserved": 0, "rental_uris": {"android": "https://dc.lft.to/lastmile_qr_scan", "ios": "https://dc.lft.to/lastmile_qr_scan"}, "lat": 38.9013655, "is_disabled": 0, "lon": -77.01638366666667}, {"fusion_lat": 0.0, "type": "electric_scooter", "name": "2624eba41e544a80a08659f2376fbe85", "fusion_lon": 0.0, "bike_id": "2624eba41e544a80a08659f2376fbe85", "is_reserved": 0, "rental_uris": {"android": "https://dc.lft.to/lastmile_qr_scan", "ios": "https://dc.lft.to/lastmile_qr_scan"}, "lat": 38.92540283333334, "is_disabled": 0, "lon": -76.97222566666667}, {"fusion_lat": 0.0, "type": "electric_scooter", "name": "536decc59a88bc0cd414b099edf23050", "fusion_lon": 0.0, "bike_id": "536decc59a88bc0cd414b099edf23050", "is_reserved": 0, "rental_uris": {"android": "https://dc.lft.to/lastmile_qr_scan", "ios": "https://dc.lft.to/lastmile_qr_scan"}, "lat": 38.91919016666667, "is_disabled": 0, "lon": -77.031587}, {"fusion_lat": 0.0, "type": "electric_scooter", "name": "3942a15bd8ed78a1f9b00e82c61f9443", "fusion_lon": 0.0, "bike_id": "3942a15bd8ed78a1f9b00e82c61f9443", "is_reserved": 0, "rental_uris": {"android": "https://dc.lft.to/lastmile_qr_scan", "ios": "https://dc.lft.to/lastmile_qr_scan"}, "lat": 38.92437616666667, "is_disabled": 0, "lon": -77.03403933333334}, {"fusion_lat": 0.0, "type": "electric_scooter", "name": "6aade12ea36d75c47b767df963bc191f", "fusion_lon": 0.0, "bike_id": "6aade12ea36d75c47b767df963bc191f", "is_reserved": 0, "rental_uris": {"android": "https://dc.lft.to/lastmile_qr_scan", "ios": "https://dc.lft.to/lastmile_qr_scan"}, "lat": 38.93628233333333, "is_disabled": 0, "lon": -77.036662}, {"fusion_lat": 0.0, "type": "electric_scooter", "name": "d640a1d3a6e77a42f948b77351562368", "fusion_lon": 0.0, "bike_id": "d640a1d3a6e77a42f948b77351562368", "is_reserved": 0, "rental_uris": {"android": "https://dc.lft.to/lastmile_qr_scan", "ios": "https://dc.lft.to/lastmile_qr_scan"}, "lat": 38.90014216666667, "is_disabled": 0, "lon": -76.93029983333334}, {"fusion_lat": 0.0, "type": "electric_scooter", "name": "22bc7839abac6c59bbc68b481e9ce45c", "fusion_lon": 0.0, "bike_id": "22bc7839abac6c59bbc68b481e9ce45c", "is_reserved": 0, "rental_uris": {"android": "https://dc.lft.to/lastmile_qr_scan", "ios": "https://dc.lft.to/lastmile_qr_scan"}, "lat": 38.918883, "is_disabled": 0, "lon": -77.04821416666667}, {"fusion_lat": 0.0, "type": "electric_scooter", "name": "43a6958c67afe6068cadb5e5e3b9f8ee", "fusion_lon": 0.0, "bike_id": "43a6958c67afe6068cadb5e5e3b9f8ee", "is_reserved": 0, "rental_uris": {"android": "https://dc.lft.to/lastmile_qr_scan", "ios": "https://dc.lft.to/lastmile_qr_scan"}, "lat": 38.9195635, "is_disabled": 0, "lon": -77.023701}, {"fusion_lat": 0.0, "type": "electric_scooter", "name": "f10c316abbaf8fcdbb0203b9331d0f27", "fusion_lon": 0.0, "bike_id": "f10c316abbaf8fcdbb0203b9331d0f27", "is_reserved": 0, "rental_uris": {"android": "https://dc.lft.to/lastmile_qr_scan", "ios": "https://dc.lft.to/lastmile_qr_scan"}, "lat": 38.905829833333335, "is_disabled": 0, "lon": -77.02595016666666}, {"fusion_lat": 0.0, "type": "electric_scooter", "name": "7f5974b9a9e75231be2465a848eff8df", "fusion_lon": 0.0, "bike_id": "7f5974b9a9e75231be2465a848eff8df", "is_reserved": 0, "rental_uris": {"android": "https://dc.lft.to/lastmile_qr_scan", "ios": "https://dc.lft.to/lastmile_qr_scan"}, "lat": 38.9661815, "is_disabled": 0, "lon": -77.03504466666666}, {"fusion_lat": 0.0, "type": "electric_scooter", "name": "995414cd259b59673db4f9faf6126cf1", "fusion_lon": 0.0, "bike_id": "995414cd259b59673db4f9faf6126cf1", "is_reserved": 0, "rental_uris": {"android": "https://dc.lft.to/lastmile_qr_scan", "ios": "https://dc.lft.to/lastmile_qr_scan"}, "lat": 38.927985166666666, "is_disabled": 0, "lon": -77.02118633333333}, {"fusion_lat": 0.0, "type": "electric_scooter", "name": "8127e48be1f04e0d8174a1c55a61304f", "fusion_lon": 0.0, "bike_id": "8127e48be1f04e0d8174a1c55a61304f", "is_reserved": 0, "rental_uris": {"android": "https://dc.lft.to/lastmile_qr_scan", "ios": "https://dc.lft.to/lastmile_qr_scan"}, "lat": 38.921616666666665, "is_disabled": 0, "lon": -77.03386833333333}, {"fusion_lat": 0.0, "type": "electric_scooter", "name": "338c6e8049eebcac7dc1303d3cc82550", "fusion_lon": 0.0, "bike_id": "338c6e8049eebcac7dc1303d3cc82550", "is_reserved": 0, "rental_uris": {"android": "https://dc.lft.to/lastmile_qr_scan", "ios": "https://dc.lft.to/lastmile_qr_scan"}, "lat": 38.93880683333333, "is_disabled": 0, "lon": -77.02375233333333}, {"fusion_lat": 0.0, "type": "electric_scooter", "name": "199f1967b6a5309c963ac8449fb88515", "fusion_lon": 0.0, "bike_id": "199f1967b6a5309c963ac8449fb88515", "is_reserved": 0, "rental_uris": {"android": "https://dc.lft.to/lastmile_qr_scan", "ios": "https://dc.lft.to/lastmile_qr_scan"}, "lat": 38.94126633333333, "is_disabled": 0, "lon": -77.01546616666667}, {"fusion_lat": 0.0, "type": "electric_bike", "name": "c56a177b280d8a91d9ee92318b9fd848", "fusion_lon": 0.0, "bike_id": "c56a177b280d8a91d9ee92318b9fd848", "is_reserved": 0, "rental_uris": {"android": "https://dc.lft.to/lastmile_qr_scan", "ios": "https://dc.lft.to/lastmile_qr_scan"}, "lat": 38.85441983333333, "is_disabled": 0, "lon": -77.083356}, {"fusion_lat": 0.0, "type": "electric_scooter", "name": "14aa7752656ed7f98dfd8a4a883c60cf", "fusion_lon": 0.0, "bike_id": "14aa7752656ed7f98dfd8a4a883c60cf", "is_reserved": 0, "rental_uris": {"android": "https://dc.lft.to/lastmile_qr_scan", "ios": "https://dc.lft.to/lastmile_qr_scan"}, "lat": 38.92636783333333, "is_disabled": 0, "lon": -77.03459316666667}, {"fusion_lat": 0.0, "type": "electric_bike", "name": "bae3414efc4cc49e66166df16da9f9cd", "fusion_lon": 0.0, "bike_id": "bae3414efc4cc49e66166df16da9f9cd", "is_reserved": 0, "rental_uris": {"android": "https://dc.lft.to/lastmile_qr_scan", "ios": "https://dc.lft.to/lastmile_qr_scan"}, "lat": 38.85774883333333, "is_disabled": 0, "lon": -76.98774633333333}, {"fusion_lat": 0.0, "type": "electric_scooter", "name": "3d458d16c2e6b11530f45ee241451555", "fusion_lon": 0.0, "bike_id": "3d458d16c2e6b11530f45ee241451555", "is_reserved": 0, "rental_uris": {"android": "https://dc.lft.to/lastmile_qr_scan", "ios": "https://dc.lft.to/lastmile_qr_scan"}, "lat": 38.892496, "is_disabled": 0, "lon": -77.04659066666666}, {"fusion_lat": 0.0, "type": "electric_scooter", "name": "8b42728c377536c6e6cfe066e7ff3147", "fusion_lon": 0.0, "bike_id": "8b42728c377536c6e6cfe066e7ff3147", "is_reserved": 0, "rental_uris": {"android": "https://dc.lft.to/lastmile_qr_scan", "ios": "https://dc.lft.to/lastmile_qr_scan"}, "lat": 38.9112235, "is_disabled": 0, "lon": -77.03155833333334}, {"fusion_lat": 0.0, "type": "electric_bike", "name": "6109f9fffdd2d9afc49bf5f1f23738ec", "fusion_lon": 0.0, "bike_id": "6109f9fffdd2d9afc49bf5f1f23738ec", "is_reserved": 0, "rental_uris": {"android": "https://dc.lft.to/lastmile_qr_scan", "ios": "https://dc.lft.to/lastmile_qr_scan"}, "lat": 38.85484733333333, "is_disabled": 0, "lon": -77.11607333333333}, {"fusion_lat": 0.0, "type": "electric_scooter", "name": "9e7c6587ea725e821f7461b8bff8378f", "fusion_lon": 0.0, "bike_id": "9e7c6587ea725e821f7461b8bff8378f", "is_reserved": 0, "rental_uris": {"android": "https://dc.lft.to/lastmile_qr_scan", "ios": "https://dc.lft.to/lastmile_qr_scan"}, "lat": 38.90284183333333, "is_disabled": 0, "lon": -77.01894433333334}, {"fusion_lat": 0.0, "type": "electric_scooter", "name": "dd71722fd88562fde9aa39e55a15ca07", "fusion_lon": 0.0, "bike_id": "dd71722fd88562fde9aa39e55a15ca07", "is_reserved": 0, "rental_uris": {"android": "https://dc.lft.to/lastmile_qr_scan", "ios": "https://dc.lft.to/lastmile_qr_scan"}, "lat": 38.9025025, "is_disabled": 0, "lon": -77.00598066666667}, {"fusion_lat": 0.0, "type": "electric_scooter", "name": "403dc1861af91d181e777cb635f9f0dd", "fusion_lon": 0.0, "bike_id": "403dc1861af91d181e777cb635f9f0dd", "is_reserved": 0, "rental_uris": {"android": "https://dc.lft.to/lastmile_qr_scan", "ios": "https://dc.lft.to/lastmile_qr_scan"}, "lat": 38.90206216666667, "is_disabled": 0, "lon": -77.04673716666667}, {"fusion_lat": 0.0, "type": "electric_scooter", "name": "21b4da8da6daff36141120f56ca8a84d", "fusion_lon": 0.0, "bike_id": "21b4da8da6daff36141120f56ca8a84d", "is_reserved": 0, "rental_uris": {"android": "https://dc.lft.to/lastmile_qr_scan", "ios": "https://dc.lft.to/lastmile_qr_scan"}, "lat": 38.945164166666665, "is_disabled": 0, "lon": -77.03319633333334}, {"fusion_lat": 0.0, "type": "electric_scooter", "name": "49e37b53f30991514f11f9345e8b47cd", "fusion_lon": 0.0, "bike_id": "49e37b53f30991514f11f9345e8b47cd", "is_reserved": 0, "rental_uris": {"android": "https://dc.lft.to/lastmile_qr_scan", "ios": "https://dc.lft.to/lastmile_qr_scan"}, "lat": 38.904059, "is_disabled": 0, "lon": -76.9808615}, {"fusion_lat": 0.0, "type": "electric_scooter", "name": "af0616fe73a8552b394fda08377e12cf", "fusion_lon": 0.0, "bike_id": "af0616fe73a8552b394fda08377e12cf", "is_reserved": 0, "rental_uris": {"android": "https://dc.lft.to/lastmile_qr_scan", "ios": "https://dc.lft.to/lastmile_qr_scan"}, "lat": 38.92335583333333, "is_disabled": 0, "lon": -77.03620616666667}, {"fusion_lat": 0.0, "type": "electric_scooter", "name": "66efff637d05cab15ec0d1cb27fd1752", "fusion_lon": 0.0, "bike_id": "66efff637d05cab15ec0d1cb27fd1752", "is_reserved": 0, "rental_uris": {"android": "https://dc.lft.to/lastmile_qr_scan", "ios": "https://dc.lft.to/lastmile_qr_scan"}, "lat": 38.9233355, "is_disabled": 0, "lon": -77.03617833333334}, {"fusion_lat": 0.0, "type": "electric_scooter", "name": "66db7ac94268bcc4659901a4e1fa27ba", "fusion_lon": 0.0, "bike_id": "66db7ac94268bcc4659901a4e1fa27ba", "is_reserved": 0, "rental_uris": {"android": "https://dc.lft.to/lastmile_qr_scan", "ios": "https://dc.lft.to/lastmile_qr_scan"}, "lat": 38.92561233333333, "is_disabled": 0, "lon": -77.02285683333334}, {"fusion_lat": 0.0, "type": "electric_scooter", "name": "4b1dd9423c963164bda7ac4c00419f58", "fusion_lon": 0.0, "bike_id": "4b1dd9423c963164bda7ac4c00419f58", "is_reserved": 0, "rental_uris": {"android": "https://dc.lft.to/lastmile_qr_scan", "ios": "https://dc.lft.to/lastmile_qr_scan"}, "lat": 38.905592, "is_disabled": 0, "lon": -77.006006}, {"fusion_lat": 0.0, "type": "electric_scooter", "name": "333bf17ed6e63c6cda29bd17735a8eec", "fusion_lon": 0.0, "bike_id": "333bf17ed6e63c6cda29bd17735a8eec", "is_reserved": 0, "rental_uris": {"android": "https://dc.lft.to/lastmile_qr_scan", "ios": "https://dc.lft.to/lastmile_qr_scan"}, "lat": 38.925784666666665, "is_disabled": 0, "lon": -77.02613933333333}, {"fusion_lat": 0.0, "type": "electric_scooter", "name": "91e71c6767a18d385b56db2a182acf3c", "fusion_lon": 0.0, "bike_id": "91e71c6767a18d385b56db2a182acf3c", "is_reserved": 0, "rental_uris": {"android": "https://dc.lft.to/lastmile_qr_scan", "ios": "https://dc.lft.to/lastmile_qr_scan"}, "lat": 38.88744783333333, "is_disabled": 0, "lon": -77.02736133333333}, {"fusion_lat": 0.0, "type": "electric_scooter", "name": "71eed3e7c9fef3a673b2edc1bb3e030a", "fusion_lon": 0.0, "bike_id": "71eed3e7c9fef3a673b2edc1bb3e030a", "is_reserved": 0, "rental_uris": {"android": "https://dc.lft.to/lastmile_qr_scan", "ios": "https://dc.lft.to/lastmile_qr_scan"}, "lat": 38.907286666666664, "is_disabled": 0, "lon": -77.03191033333333}, {"fusion_lat": 0.0, "type": "electric_scooter", "name": "8679b6f1ba684bcc4ba2243fb79a35ce", "fusion_lon": 0.0, "bike_id": "8679b6f1ba684bcc4ba2243fb79a35ce", "is_reserved": 0, "rental_uris": {"android": "https://dc.lft.to/lastmile_qr_scan", "ios": "https://dc.lft.to/lastmile_qr_scan"}, "lat": 38.910536666666665, "is_disabled": 0, "lon": -77.05317783333334}, {"fusion_lat": 0.0, "type": "electric_scooter", "name": "686e40ea08f14b10498e73e5b3a63fe6", "fusion_lon": 0.0, "bike_id": "686e40ea08f14b10498e73e5b3a63fe6", "is_reserved": 0, "rental_uris": {"android": "https://dc.lft.to/lastmile_qr_scan", "ios": "https://dc.lft.to/lastmile_qr_scan"}, "lat": 38.930758, "is_disabled": 0, "lon": -77.03761883333334}, {"fusion_lat": 0.0, "type": "electric_scooter", "name": "9b4724f338ea39cc5d1185ca0facc571", "fusion_lon": 0.0, "bike_id": "9b4724f338ea39cc5d1185ca0facc571", "is_reserved": 0, "rental_uris": {"android": "https://dc.lft.to/lastmile_qr_scan", "ios": "https://dc.lft.to/lastmile_qr_scan"}, "lat": 38.936345833333334, "is_disabled": 0, "lon": -77.03662933333334}, {"fusion_lat": 0.0, "type": "electric_scooter", "name": "75019bded1245d4a231de72142c83637", "fusion_lon": 0.0, "bike_id": "75019bded1245d4a231de72142c83637", "is_reserved": 0, "rental_uris": {"android": "https://dc.lft.to/lastmile_qr_scan", "ios": "https://dc.lft.to/lastmile_qr_scan"}, "lat": 38.8868945, "is_disabled": 0, "lon": -76.95469283333334}, {"fusion_lat": 0.0, "type": "electric_scooter", "name": "476b13cf2d49359a259f8a73a6b8877f", "fusion_lon": 0.0, "bike_id": "476b13cf2d49359a259f8a73a6b8877f", "is_reserved": 0, "rental_uris": {"android": "https://dc.lft.to/lastmile_qr_scan", "ios": "https://dc.lft.to/lastmile_qr_scan"}, "lat": 38.90888233333333, "is_disabled": 0, "lon": -76.98545766666666}, {"fusion_lat": 0.0, "type": "electric_scooter", "name": "bbd9bcaf25894198126ab09a3b847b4c", "fusion_lon": 0.0, "bike_id": "bbd9bcaf25894198126ab09a3b847b4c", "is_reserved": 0, "rental_uris": {"android": "https://dc.lft.to/lastmile_qr_scan", "ios": "https://dc.lft.to/lastmile_qr_scan"}, "lat": 38.86505866666667, "is_disabled": 0, "lon": -76.9900095}, {"fusion_lat": 0.0, "type": "electric_scooter", "name": "749d45de8fd2a6af5b46f659dfad2fda", "fusion_lon": 0.0, "bike_id": "749d45de8fd2a6af5b46f659dfad2fda", "is_reserved": 0, "rental_uris": {"android": "https://dc.lft.to/lastmile_qr_scan", "ios": "https://dc.lft.to/lastmile_qr_scan"}, "lat": 38.8921775, "is_disabled": 0, "lon": -77.03141166666667}, {"fusion_lat": 0.0, "type": "electric_scooter", "name": "e78010b10c82ab2f4695ac23a63e0adc", "fusion_lon": 0.0, "bike_id": "e78010b10c82ab2f4695ac23a63e0adc", "is_reserved": 0, "rental_uris": {"android": "https://dc.lft.to/lastmile_qr_scan", "ios": "https://dc.lft.to/lastmile_qr_scan"}, "lat": 38.9147215, "is_disabled": 0, "lon": -77.0694365}, {"fusion_lat": 0.0, "type": "electric_scooter", "name": "ad4b2fb81e9f2ccadebb84eed27d158c", "fusion_lon": 0.0, "bike_id": "ad4b2fb81e9f2ccadebb84eed27d158c", "is_reserved": 0, "rental_uris": {"android": "https://dc.lft.to/lastmile_qr_scan", "ios": "https://dc.lft.to/lastmile_qr_scan"}, "lat": 38.929035666666664, "is_disabled": 0, "lon": -77.00418216666667}, {"fusion_lat": 0.0, "type": "electric_scooter", "name": "988f3700d8ba89900b580dd5943f82d2", "fusion_lon": 0.0, "bike_id": "988f3700d8ba89900b580dd5943f82d2", "is_reserved": 0, "rental_uris": {"android": "https://dc.lft.to/lastmile_qr_scan", "ios": "https://dc.lft.to/lastmile_qr_scan"}, "lat": 38.92468366666667, "is_disabled": 0, "lon": -77.03529533333334}, {"fusion_lat": 0.0, "type": "electric_scooter", "name": "614a1925a583e3ea4751043a5595153a", "fusion_lon": 0.0, "bike_id": "614a1925a583e3ea4751043a5595153a", "is_reserved": 0, "rental_uris": {"android": "https://dc.lft.to/lastmile_qr_scan", "ios": "https://dc.lft.to/lastmile_qr_scan"}, "lat": 38.93815133333333, "is_disabled": 0, "lon": -77.07039083333333}, {"fusion_lat": 0.0, "type": "electric_scooter", "name": "b1afeb38b756c5516079eedd6af95ef1", "fusion_lon": 0.0, "bike_id": "b1afeb38b756c5516079eedd6af95ef1", "is_reserved": 0, "rental_uris": {"android": "https://dc.lft.to/lastmile_qr_scan", "ios": "https://dc.lft.to/lastmile_qr_scan"}, "lat": 38.9208985, "is_disabled": 0, "lon": -77.04377916666667}, {"fusion_lat": 0.0, "type": "electric_scooter", "name": "83563e630b539daa3ab5cd7e2145b380", "fusion_lon": 0.0, "bike_id": "83563e630b539daa3ab5cd7e2145b380", "is_reserved": 0, "rental_uris": {"android": "https://dc.lft.to/lastmile_qr_scan", "ios": "https://dc.lft.to/lastmile_qr_scan"}, "lat": 38.892182166666665, "is_disabled": 0, "lon": -77.02630866666667}, {"fusion_lat": 0.0, "type": "electric_bike", "name": "08c4b60d84b9ca6f70a2c8226bf51aee", "fusion_lon": 0.0, "bike_id": "08c4b60d84b9ca6f70a2c8226bf51aee", "is_reserved": 0, "rental_uris": {"android": "https://dc.lft.to/lastmile_qr_scan", "ios": "https://dc.lft.to/lastmile_qr_scan"}, "lat": 38.862576, "is_disabled": 0, "lon": -76.98349733333333}, {"fusion_lat": 0.0, "type": "electric_scooter", "name": "128f2d036f4c3aab08c17fe5dc85b0fa", "fusion_lon": 0.0, "bike_id": "128f2d036f4c3aab08c17fe5dc85b0fa", "is_reserved": 0, "rental_uris": {"android": "https://dc.lft.to/lastmile_qr_scan", "ios": "https://dc.lft.to/lastmile_qr_scan"}, "lat": 38.944405, "is_disabled": 0, "lon": -77.02790783333333}, {"fusion_lat": 0.0, "type": "electric_scooter", "name": "856569d2277ad7215bf8076f7835e6e1", "fusion_lon": 0.0, "bike_id": "856569d2277ad7215bf8076f7835e6e1", "is_reserved": 0, "rental_uris": {"android": "https://dc.lft.to/lastmile_qr_scan", "ios": "https://dc.lft.to/lastmile_qr_scan"}, "lat": 38.935827, "is_disabled": 0, "lon": -77.02127083333333}, {"fusion_lat": 0.0, "type": "electric_scooter", "name": "f644025dc110582e00c848c5bd20a27b", "fusion_lon": 0.0, "bike_id": "f644025dc110582e00c848c5bd20a27b", "is_reserved": 0, "rental_uris": {"android": "https://dc.lft.to/lastmile_qr_scan", "ios": "https://dc.lft.to/lastmile_qr_scan"}, "lat": 38.911821, "is_disabled": 0, "lon": -77.03495116666667}, {"fusion_lat": 0.0, "type": "electric_scooter", "name": "ee429978e0a47e95d2d772169e24a4b5", "fusion_lon": 0.0, "bike_id": "ee429978e0a47e95d2d772169e24a4b5", "is_reserved": 0, "rental_uris": {"android": "https://dc.lft.to/lastmile_qr_scan", "ios": "https://dc.lft.to/lastmile_qr_scan"}, "lat": 38.922552833333334, "is_disabled": 0, "lon": -77.02981033333333}, {"fusion_lat": 0.0, "type": "electric_scooter", "name": "cc6f4fbabeca8fb810b49187b2b1b7a0", "fusion_lon": 0.0, "bike_id": "cc6f4fbabeca8fb810b49187b2b1b7a0", "is_reserved": 0, "rental_uris": {"android": "https://dc.lft.to/lastmile_qr_scan", "ios": "https://dc.lft.to/lastmile_qr_scan"}, "lat": 38.8961125, "is_disabled": 0, "lon": -76.9997005}, {"fusion_lat": 0.0, "type": "electric_scooter", "name": "4bb75a0f290a7281426db004e1d09fa5", "fusion_lon": 0.0, "bike_id": "4bb75a0f290a7281426db004e1d09fa5", "is_reserved": 0, "rental_uris": {"android": "https://dc.lft.to/lastmile_qr_scan", "ios": "https://dc.lft.to/lastmile_qr_scan"}, "lat": 38.8978815, "is_disabled": 0, "lon": -77.04995683333334}, {"fusion_lat": 0.0, "type": "electric_scooter", "name": "0774cec3354c72b81eb5adb93db6bc1c", "fusion_lon": 0.0, "bike_id": "0774cec3354c72b81eb5adb93db6bc1c", "is_reserved": 0, "rental_uris": {"android": "https://dc.lft.to/lastmile_qr_scan", "ios": "https://dc.lft.to/lastmile_qr_scan"}, "lat": 38.895127333333335, "is_disabled": 0, "lon": -76.948862}, {"fusion_lat": 0.0, "type": "electric_scooter", "name": "123a0dc4b1d8963800d4a8057b4e0774", "fusion_lon": 0.0, "bike_id": "123a0dc4b1d8963800d4a8057b4e0774", "is_reserved": 0, "rental_uris": {"android": "https://dc.lft.to/lastmile_qr_scan", "ios": "https://dc.lft.to/lastmile_qr_scan"}, "lat": 38.905133, "is_disabled": 0, "lon": -76.996096}, {"fusion_lat": 0.0, "type": "electric_bike", "name": "90e38da1a04ead878a3db91eadb6ce27", "fusion_lon": 0.0, "bike_id": "90e38da1a04ead878a3db91eadb6ce27", "is_reserved": 0, "rental_uris": {"android": "https://dc.lft.to/lastmile_qr_scan", "ios": "https://dc.lft.to/lastmile_qr_scan"}, "lat": 38.906282166666664, "is_disabled": 0, "lon": -76.986037}, {"fusion_lat": 0.0, "type": "electric_bike", "name": "0eeae4e8d065338399e1745534fc8033", "fusion_lon": 0.0, "bike_id": "0eeae4e8d065338399e1745534fc8033", "is_reserved": 0, "rental_uris": {"android": "https://dc.lft.to/lastmile_qr_scan", "ios": "https://dc.lft.to/lastmile_qr_scan"}, "lat": 39.0430785, "is_disabled": 0, "lon": -77.0515995}, {"fusion_lat": 0.0, "type": "electric_scooter", "name": "72fba8242764ebee32907901ffeef449", "fusion_lon": 0.0, "bike_id": "72fba8242764ebee32907901ffeef449", "is_reserved": 0, "rental_uris": {"android": "https://dc.lft.to/lastmile_qr_scan", "ios": "https://dc.lft.to/lastmile_qr_scan"}, "lat": 38.920359833333336, "is_disabled": 0, "lon": -77.01221416666667}, {"fusion_lat": 0.0, "type": "electric_scooter", "name": "415c551b2d7f84a9fa34cc4aea85e05c", "fusion_lon": 0.0, "bike_id": "415c551b2d7f84a9fa34cc4aea85e05c", "is_reserved": 0, "rental_uris": {"android": "https://dc.lft.to/lastmile_qr_scan", "ios": "https://dc.lft.to/lastmile_qr_scan"}, "lat": 38.931026333333335, "is_disabled": 0, "lon": -77.02540566666667}, {"fusion_lat": 0.0, "type": "electric_scooter", "name": "44d18f4046450ec3a476c73efbacb744", "fusion_lon": 0.0, "bike_id": "44d18f4046450ec3a476c73efbacb744", "is_reserved": 0, "rental_uris": {"android": "https://dc.lft.to/lastmile_qr_scan", "ios": "https://dc.lft.to/lastmile_qr_scan"}, "lat": 38.911784833333336, "is_disabled": 0, "lon": -77.00443483333333}, {"fusion_lat": 0.0, "type": "electric_scooter", "name": "8bc3086ca1091f16a31010b7277feee3", "fusion_lon": 0.0, "bike_id": "8bc3086ca1091f16a31010b7277feee3", "is_reserved": 0, "rental_uris": {"android": "https://dc.lft.to/lastmile_qr_scan", "ios": "https://dc.lft.to/lastmile_qr_scan"}, "lat": 38.9539985, "is_disabled": 0, "lon": -77.02785466666667}, {"fusion_lat": 0.0, "type": "electric_scooter", "name": "400d5d28dbd353a807b4ea3a4318c16e", "fusion_lon": 0.0, "bike_id": "400d5d28dbd353a807b4ea3a4318c16e", "is_reserved": 0, "rental_uris": {"android": "https://dc.lft.to/lastmile_qr_scan", "ios": "https://dc.lft.to/lastmile_qr_scan"}, "lat": 38.873438166666666, "is_disabled": 0, "lon": -76.991647}, {"fusion_lat": 0.0, "type": "electric_scooter", "name": "927d64e9240db166fd01067e27739998", "fusion_lon": 0.0, "bike_id": "927d64e9240db166fd01067e27739998", "is_reserved": 0, "rental_uris": {"android": "https://dc.lft.to/lastmile_qr_scan", "ios": "https://dc.lft.to/lastmile_qr_scan"}, "lat": 38.8919685, "is_disabled": 0, "lon": -76.9330285}, {"fusion_lat": 0.0, "type": "electric_scooter", "name": "8032828e4eade7a045cdd44a90ed2bdd", "fusion_lon": 0.0, "bike_id": "8032828e4eade7a045cdd44a90ed2bdd", "is_reserved": 0, "rental_uris": {"android": "https://dc.lft.to/lastmile_qr_scan", "ios": "https://dc.lft.to/lastmile_qr_scan"}, "lat": 38.90035366666667, "is_disabled": 0, "lon": -77.03201883333334}, {"fusion_lat": 0.0, "type": "electric_scooter", "name": "21e661407a6cc785269cca1676bba694", "fusion_lon": 0.0, "bike_id": "21e661407a6cc785269cca1676bba694", "is_reserved": 0, "rental_uris": {"android": "https://dc.lft.to/lastmile_qr_scan", "ios": "https://dc.lft.to/lastmile_qr_scan"}, "lat": 38.92359833333333, "is_disabled": 0, "lon": -77.01924033333333}, {"fusion_lat": 0.0, "type": "electric_scooter", "name": "741db4b2fdc6396c35b68f97bcc72e77", "fusion_lon": 0.0, "bike_id": "741db4b2fdc6396c35b68f97bcc72e77", "is_reserved": 0, "rental_uris": {"android": "https://dc.lft.to/lastmile_qr_scan", "ios": "https://dc.lft.to/lastmile_qr_scan"}, "lat": 38.90729666666667, "is_disabled": 0, "lon": -76.98696266666667}, {"fusion_lat": 0.0, "type": "electric_scooter", "name": "64695728d8be6e730e77f01ebc070773", "fusion_lon": 0.0, "bike_id": "64695728d8be6e730e77f01ebc070773", "is_reserved": 0, "rental_uris": {"android": "https://dc.lft.to/lastmile_qr_scan", "ios": "https://dc.lft.to/lastmile_qr_scan"}, "lat": 38.926548, "is_disabled": 0, "lon": -77.02425833333334}, {"fusion_lat": 0.0, "type": "electric_scooter", "name": "169982f8e01d5578ba21e7e282d5bc1f", "fusion_lon": 0.0, "bike_id": "169982f8e01d5578ba21e7e282d5bc1f", "is_reserved": 0, "rental_uris": {"android": "https://dc.lft.to/lastmile_qr_scan", "ios": "https://dc.lft.to/lastmile_qr_scan"}, "lat": 38.89244583333333, "is_disabled": 0, "lon": -77.02205833333333}, {"fusion_lat": 0.0, "type": "electric_scooter", "name": "7dfafb085aaef168e4a4479d7a812c81", "fusion_lon": 0.0, "bike_id": "7dfafb085aaef168e4a4479d7a812c81", "is_reserved": 0, "rental_uris": {"android": "https://dc.lft.to/lastmile_qr_scan", "ios": "https://dc.lft.to/lastmile_qr_scan"}, "lat": 38.907364333333334, "is_disabled": 0, "lon": -77.0269165}, {"fusion_lat": 0.0, "type": "electric_scooter", "name": "9c7050edcf846ffc88534b726b73b17d", "fusion_lon": 0.0, "bike_id": "9c7050edcf846ffc88534b726b73b17d", "is_reserved": 0, "rental_uris": {"android": "https://dc.lft.to/lastmile_qr_scan", "ios": "https://dc.lft.to/lastmile_qr_scan"}, "lat": 38.928503166666665, "is_disabled": 0, "lon": -77.0200215}, {"fusion_lat": 0.0, "type": "electric_scooter", "name": "afdada6b52e66d756bcd12dc9120813b", "fusion_lon": 0.0, "bike_id": "afdada6b52e66d756bcd12dc9120813b", "is_reserved": 0, "rental_uris": {"android": "https://dc.lft.to/lastmile_qr_scan", "ios": "https://dc.lft.to/lastmile_qr_scan"}, "lat": 38.888638, "is_disabled": 0, "lon": -76.98236833333333}, {"fusion_lat": 0.0, "type": "electric_scooter", "name": "f1396229affc48d18345e19a688a53b0", "fusion_lon": 0.0, "bike_id": "f1396229affc48d18345e19a688a53b0", "is_reserved": 0, "rental_uris": {"android": "https://dc.lft.to/lastmile_qr_scan", "ios": "https://dc.lft.to/lastmile_qr_scan"}, "lat": 38.905559333333336, "is_disabled": 0, "lon": -77.05009733333333}, {"fusion_lat": 0.0, "type": "electric_bike", "name": "39fa2a987b07bfb349f1f9858f4b97cc", "fusion_lon": 0.0, "bike_id": "39fa2a987b07bfb349f1f9858f4b97cc", "is_reserved": 0, "rental_uris": {"android": "https://dc.lft.to/lastmile_qr_scan", "ios": "https://dc.lft.to/lastmile_qr_scan"}, "lat": 38.88398933333333, "is_disabled": 0, "lon": -76.960637}, {"fusion_lat": 0.0, "type": "electric_scooter", "name": "24b65e36a702ebce13a4339b926d0b53", "fusion_lon": 0.0, "bike_id": "24b65e36a702ebce13a4339b926d0b53", "is_reserved": 0, "rental_uris": {"android": "https://dc.lft.to/lastmile_qr_scan", "ios": "https://dc.lft.to/lastmile_qr_scan"}, "lat": 38.908066166666664, "is_disabled": 0, "lon": -77.03424783333334}, {"fusion_lat": 0.0, "type": "electric_scooter", "name": "4c76b046b528ec254b2f55fa5a4ac351", "fusion_lon": 0.0, "bike_id": "4c76b046b528ec254b2f55fa5a4ac351", "is_reserved": 0, "rental_uris": {"android": "https://dc.lft.to/lastmile_qr_scan", "ios": "https://dc.lft.to/lastmile_qr_scan"}, "lat": 38.921941, "is_disabled": 0, "lon": -77.02976466666667}, {"fusion_lat": 0.0, "type": "electric_scooter", "name": "45f1e9a670f8eb64604050c64841afd0", "fusion_lon": 0.0, "bike_id": "45f1e9a670f8eb64604050c64841afd0", "is_reserved": 0, "rental_uris": {"android": "https://dc.lft.to/lastmile_qr_scan", "ios": "https://dc.lft.to/lastmile_qr_scan"}, "lat": 38.92381833333334, "is_disabled": 0, "lon": -77.0504565}, {"fusion_lat": 0.0, "type": "electric_scooter", "name": "0effe97841bf9b907cb7d4d4ad50ac2f", "fusion_lon": 0.0, "bike_id": "0effe97841bf9b907cb7d4d4ad50ac2f", "is_reserved": 0, "rental_uris": {"android": "https://dc.lft.to/lastmile_qr_scan", "ios": "https://dc.lft.to/lastmile_qr_scan"}, "lat": 38.91547766666667, "is_disabled": 0, "lon": -77.03859416666667}, {"fusion_lat": 0.0, "type": "electric_scooter", "name": "89335a9f1ddfae558928d86e62a8575f", "fusion_lon": 0.0, "bike_id": "89335a9f1ddfae558928d86e62a8575f", "is_reserved": 0, "rental_uris": {"android": "https://dc.lft.to/lastmile_qr_scan", "ios": "https://dc.lft.to/lastmile_qr_scan"}, "lat": 38.911923333333334, "is_disabled": 0, "lon": -77.044545}, {"fusion_lat": 0.0, "type": "electric_scooter", "name": "22071a9a371783365884863dd1c55bcf", "fusion_lon": 0.0, "bike_id": "22071a9a371783365884863dd1c55bcf", "is_reserved": 0, "rental_uris": {"android": "https://dc.lft.to/lastmile_qr_scan", "ios": "https://dc.lft.to/lastmile_qr_scan"}, "lat": 38.89893216666667, "is_disabled": 0, "lon": -77.02172166666666}, {"fusion_lat": 0.0, "type": "electric_scooter", "name": "615b670f05b300e6cae5eabe0c16b1e0", "fusion_lon": 0.0, "bike_id": "615b670f05b300e6cae5eabe0c16b1e0", "is_reserved": 0, "rental_uris": {"android": "https://dc.lft.to/lastmile_qr_scan", "ios": "https://dc.lft.to/lastmile_qr_scan"}, "lat": 38.892234333333334, "is_disabled": 0, "lon": -77.00219283333334}, {"fusion_lat": 0.0, "type": "electric_scooter", "name": "1a50dc5e0c5cb0a43727c241195cc999", "fusion_lon": 0.0, "bike_id": "1a50dc5e0c5cb0a43727c241195cc999", "is_reserved": 0, "rental_uris": {"android": "https://dc.lft.to/lastmile_qr_scan", "ios": "https://dc.lft.to/lastmile_qr_scan"}, "lat": 38.92702283333333, "is_disabled": 0, "lon": -77.02076866666667}, {"fusion_lat": 0.0, "type": "electric_scooter", "name": "a50b7796fe9bbf764c1883b60573e738", "fusion_lon": 0.0, "bike_id": "a50b7796fe9bbf764c1883b60573e738", "is_reserved": 0, "rental_uris": {"android": "https://dc.lft.to/lastmile_qr_scan", "ios": "https://dc.lft.to/lastmile_qr_scan"}, "lat": 38.9398495, "is_disabled": 0, "lon": -77.0288665}, {"fusion_lat": 0.0, "type": "electric_scooter", "name": "111c342789679858c34b74f9b0045fc9", "fusion_lon": 0.0, "bike_id": "111c342789679858c34b74f9b0045fc9", "is_reserved": 0, "rental_uris": {"android": "https://dc.lft.to/lastmile_qr_scan", "ios": "https://dc.lft.to/lastmile_qr_scan"}, "lat": 38.920972, "is_disabled": 0, "lon": -77.03268833333334}, {"fusion_lat": 0.0, "type": "electric_bike", "name": "788bd38fee6f978c20ea9d18abcf98d9", "fusion_lon": 0.0, "bike_id": "788bd38fee6f978c20ea9d18abcf98d9", "is_reserved": 0, "rental_uris": {"android": "https://dc.lft.to/lastmile_qr_scan", "ios": "https://dc.lft.to/lastmile_qr_scan"}, "lat": 39.0244025, "is_disabled": 0, "lon": -77.131018}, {"fusion_lat": 0.0, "type": "electric_bike", "name": "967cc226ace2e4e016240a251cb55ca9", "fusion_lon": 0.0, "bike_id": "967cc226ace2e4e016240a251cb55ca9", "is_reserved": 0, "rental_uris": {"android": "https://dc.lft.to/lastmile_qr_scan", "ios": "https://dc.lft.to/lastmile_qr_scan"}, "lat": 38.939717, "is_disabled": 0, "lon": -76.98615583333333}, {"fusion_lat": 0.0, "type": "electric_scooter", "name": "af5f4572c4f29422e47ddb4d418c9ff0", "fusion_lon": 0.0, "bike_id": "af5f4572c4f29422e47ddb4d418c9ff0", "is_reserved": 0, "rental_uris": {"android": "https://dc.lft.to/lastmile_qr_scan", "ios": "https://dc.lft.to/lastmile_qr_scan"}, "lat": 38.919338333333336, "is_disabled": 0, "lon": -77.0450155}, {"fusion_lat": 0.0, "type": "electric_scooter", "name": "19c8ead83f0d5187d45c0c2a63d4d78e", "fusion_lon": 0.0, "bike_id": "19c8ead83f0d5187d45c0c2a63d4d78e", "is_reserved": 0, "rental_uris": {"android": "https://dc.lft.to/lastmile_qr_scan", "ios": "https://dc.lft.to/lastmile_qr_scan"}, "lat": 38.909448166666664, "is_disabled": 0, "lon": -77.04422466666666}, {"fusion_lat": 0.0, "type": "electric_scooter", "name": "e1fb4194c850b49a058f745f211cc1cb", "fusion_lon": 0.0, "bike_id": "e1fb4194c850b49a058f745f211cc1cb", "is_reserved": 0, "rental_uris": {"android": "https://dc.lft.to/lastmile_qr_scan", "ios": "https://dc.lft.to/lastmile_qr_scan"}, "lat": 38.85756716666667, "is_disabled": 0, "lon": -76.9930375}, {"fusion_lat": 0.0, "type": "electric_scooter", "name": "c0027d791728cb5b09a3e7dd66615400", "fusion_lon": 0.0, "bike_id": "c0027d791728cb5b09a3e7dd66615400", "is_reserved": 0, "rental_uris": {"android": "https://dc.lft.to/lastmile_qr_scan", "ios": "https://dc.lft.to/lastmile_qr_scan"}, "lat": 38.945969833333336, "is_disabled": 0, "lon": -77.02666366666666}, {"fusion_lat": 0.0, "type": "electric_scooter", "name": "db3d1c77cdf7fac305c08da90a0a074d", "fusion_lon": 0.0, "bike_id": "db3d1c77cdf7fac305c08da90a0a074d", "is_reserved": 0, "rental_uris": {"android": "https://dc.lft.to/lastmile_qr_scan", "ios": "https://dc.lft.to/lastmile_qr_scan"}, "lat": 38.90730966666667, "is_disabled": 0, "lon": -77.03459633333334}, {"fusion_lat": 0.0, "type": "electric_scooter", "name": "560f765aee5b458977bee8f7704fb5f7", "fusion_lon": 0.0, "bike_id": "560f765aee5b458977bee8f7704fb5f7", "is_reserved": 0, "rental_uris": {"android": "https://dc.lft.to/lastmile_qr_scan", "ios": "https://dc.lft.to/lastmile_qr_scan"}, "lat": 38.91747183333333, "is_disabled": 0, "lon": -77.0108545}, {"fusion_lat": 0.0, "type": "electric_scooter", "name": "ed8f12ba0cb9a98835c5497eeee998a9", "fusion_lon": 0.0, "bike_id": "ed8f12ba0cb9a98835c5497eeee998a9", "is_reserved": 0, "rental_uris": {"android": "https://dc.lft.to/lastmile_qr_scan", "ios": "https://dc.lft.to/lastmile_qr_scan"}, "lat": 38.9242425, "is_disabled": 0, "lon": -77.03539983333333}, {"fusion_lat": 0.0, "type": "electric_scooter", "name": "c65e2887e37f89a7a88a3644ccef7248", "fusion_lon": 0.0, "bike_id": "c65e2887e37f89a7a88a3644ccef7248", "is_reserved": 0, "rental_uris": {"android": "https://dc.lft.to/lastmile_qr_scan", "ios": "https://dc.lft.to/lastmile_qr_scan"}, "lat": 38.8859905, "is_disabled": 0, "lon": -76.9914725}, {"fusion_lat": 0.0, "type": "electric_scooter", "name": "e03cd6ca04c1c6500f334a9045bdc42a", "fusion_lon": 0.0, "bike_id": "e03cd6ca04c1c6500f334a9045bdc42a", "is_reserved": 0, "rental_uris": {"android": "https://dc.lft.to/lastmile_qr_scan", "ios": "https://dc.lft.to/lastmile_qr_scan"}, "lat": 38.92470616666667, "is_disabled": 0, "lon": -77.02215766666667}, {"fusion_lat": 0.0, "type": "electric_scooter", "name": "530c5e031181e4bdfd4d78b5504007ca", "fusion_lon": 0.0, "bike_id": "530c5e031181e4bdfd4d78b5504007ca", "is_reserved": 0, "rental_uris": {"android": "https://dc.lft.to/lastmile_qr_scan", "ios": "https://dc.lft.to/lastmile_qr_scan"}, "lat": 38.90051616666667, "is_disabled": 0, "lon": -76.93325966666667}, {"fusion_lat": 0.0, "type": "electric_bike", "name": "2ea40f26bc7c49fc2611c01058343803", "fusion_lon": 0.0, "bike_id": "2ea40f26bc7c49fc2611c01058343803", "is_reserved": 0, "rental_uris": {"android": "https://dc.lft.to/lastmile_qr_scan", "ios": "https://dc.lft.to/lastmile_qr_scan"}, "lat": 38.879426333333335, "is_disabled": 0, "lon": -76.91616416666666}, {"fusion_lat": 0.0, "type": "electric_scooter", "name": "13c38655063a7f1b4518436b3446c6e7", "fusion_lon": 0.0, "bike_id": "13c38655063a7f1b4518436b3446c6e7", "is_reserved": 0, "rental_uris": {"android": "https://dc.lft.to/lastmile_qr_scan", "ios": "https://dc.lft.to/lastmile_qr_scan"}, "lat": 38.908088, "is_disabled": 0, "lon": -77.04326083333333}, {"fusion_lat": 0.0, "type": "electric_scooter", "name": "5448734eb011f65dce6005f5aac44fa6", "fusion_lon": 0.0, "bike_id": "5448734eb011f65dce6005f5aac44fa6", "is_reserved": 0, "rental_uris": {"android": "https://dc.lft.to/lastmile_qr_scan", "ios": "https://dc.lft.to/lastmile_qr_scan"}, "lat": 38.9227335, "is_disabled": 0, "lon": -77.03676566666667}, {"fusion_lat": 0.0, "type": "electric_scooter", "name": "42ef1bb254cd8d9d7048dcae818f135f", "fusion_lon": 0.0, "bike_id": "42ef1bb254cd8d9d7048dcae818f135f", "is_reserved": 0, "rental_uris": {"android": "https://dc.lft.to/lastmile_qr_scan", "ios": "https://dc.lft.to/lastmile_qr_scan"}, "lat": 38.93191, "is_disabled": 0, "lon": -77.04540866666666}, {"fusion_lat": 0.0, "type": "electric_scooter", "name": "18ab795cfc23b3be7434a18fc0d113ba", "fusion_lon": 0.0, "bike_id": "18ab795cfc23b3be7434a18fc0d113ba", "is_reserved": 0, "rental_uris": {"android": "https://dc.lft.to/lastmile_qr_scan", "ios": "https://dc.lft.to/lastmile_qr_scan"}, "lat": 38.9154985, "is_disabled": 0, "lon": -77.02602}, {"fusion_lat": 0.0, "type": "electric_scooter", "name": "4eefe76ca4e7edd0fee43e1427127aa6", "fusion_lon": 0.0, "bike_id": "4eefe76ca4e7edd0fee43e1427127aa6", "is_reserved": 0, "rental_uris": {"android": "https://dc.lft.to/lastmile_qr_scan", "ios": "https://dc.lft.to/lastmile_qr_scan"}, "lat": 38.9579625, "is_disabled": 0, "lon": -77.02000833333334}, {"fusion_lat": 0.0, "type": "electric_scooter", "name": "2b357747e80e1bdebdce5c40c6306636", "fusion_lon": 0.0, "bike_id": "2b357747e80e1bdebdce5c40c6306636", "is_reserved": 0, "rental_uris": {"android": "https://dc.lft.to/lastmile_qr_scan", "ios": "https://dc.lft.to/lastmile_qr_scan"}, "lat": 38.893096666666665, "is_disabled": 0, "lon": -77.0216285}, {"fusion_lat": 0.0, "type": "electric_scooter", "name": "0aa6a0fffdb6172aa2f3207d394a32b3", "fusion_lon": 0.0, "bike_id": "0aa6a0fffdb6172aa2f3207d394a32b3", "is_reserved": 0, "rental_uris": {"android": "https://dc.lft.to/lastmile_qr_scan", "ios": "https://dc.lft.to/lastmile_qr_scan"}, "lat": 38.92358483333334, "is_disabled": 0, "lon": -76.9937285}, {"fusion_lat": 0.0, "type": "electric_scooter", "name": "e9a675d43737d92742403e08302c155a", "fusion_lon": 0.0, "bike_id": "e9a675d43737d92742403e08302c155a", "is_reserved": 0, "rental_uris": {"android": "https://dc.lft.to/lastmile_qr_scan", "ios": "https://dc.lft.to/lastmile_qr_scan"}, "lat": 38.905013, "is_disabled": 0, "lon": -77.068591}, {"fusion_lat": 0.0, "type": "electric_bike", "name": "e00442f700ae266f0984cd814acbe861", "fusion_lon": 0.0, "bike_id": "e00442f700ae266f0984cd814acbe861", "is_reserved": 0, "rental_uris": {"android": "https://dc.lft.to/lastmile_qr_scan", "ios": "https://dc.lft.to/lastmile_qr_scan"}, "lat": 38.83932333333333, "is_disabled": 0, "lon": -77.078981}, {"fusion_lat": 0.0, "type": "electric_scooter", "name": "3ba79165aaade88095b8bbe853d21ccb", "fusion_lon": 0.0, "bike_id": "3ba79165aaade88095b8bbe853d21ccb", "is_reserved": 0, "rental_uris": {"android": "https://dc.lft.to/lastmile_qr_scan", "ios": "https://dc.lft.to/lastmile_qr_scan"}, "lat": 38.892951, "is_disabled": 0, "lon": -77.01234216666667}, {"fusion_lat": 0.0, "type": "electric_scooter", "name": "3e9ead85a15a8c544ca82b984fc98404", "fusion_lon": 0.0, "bike_id": "3e9ead85a15a8c544ca82b984fc98404", "is_reserved": 0, "rental_uris": {"android": "https://dc.lft.to/lastmile_qr_scan", "ios": "https://dc.lft.to/lastmile_qr_scan"}, "lat": 38.919392, "is_disabled": 0, "lon": -77.04556516666666}, {"fusion_lat": 0.0, "type": "electric_scooter", "name": "8838b757b94dde477330dc828f94da8b", "fusion_lon": 0.0, "bike_id": "8838b757b94dde477330dc828f94da8b", "is_reserved": 0, "rental_uris": {"android": "https://dc.lft.to/lastmile_qr_scan", "ios": "https://dc.lft.to/lastmile_qr_scan"}, "lat": 38.88616433333333, "is_disabled": 0, "lon": -77.00066566666666}, {"fusion_lat": 0.0, "type": "electric_scooter", "name": "de4cd3ea9a426f3fd842e5093e7796ed", "fusion_lon": 0.0, "bike_id": "de4cd3ea9a426f3fd842e5093e7796ed", "is_reserved": 0, "rental_uris": {"android": "https://dc.lft.to/lastmile_qr_scan", "ios": "https://dc.lft.to/lastmile_qr_scan"}, "lat": 38.920806666666664, "is_disabled": 0, "lon": -77.02302583333334}, {"fusion_lat": 0.0, "type": "electric_scooter", "name": "8018ac7012fa05ffd197da9984c4fc89", "fusion_lon": 0.0, "bike_id": "8018ac7012fa05ffd197da9984c4fc89", "is_reserved": 0, "rental_uris": {"android": "https://dc.lft.to/lastmile_qr_scan", "ios": "https://dc.lft.to/lastmile_qr_scan"}, "lat": 38.8736495, "is_disabled": 0, "lon": -76.97011083333334}, {"fusion_lat": 0.0, "type": "electric_scooter", "name": "32f42f78414c40323530dcd20af5f6f5", "fusion_lon": 0.0, "bike_id": "32f42f78414c40323530dcd20af5f6f5", "is_reserved": 0, "rental_uris": {"android": "https://dc.lft.to/lastmile_qr_scan", "ios": "https://dc.lft.to/lastmile_qr_scan"}, "lat": 38.90264033333333, "is_disabled": 0, "lon": -77.03663083333333}, {"fusion_lat": 0.0, "type": "electric_scooter", "name": "20c8f52e26cbc5c0d8494c6090829204", "fusion_lon": 0.0, "bike_id": "20c8f52e26cbc5c0d8494c6090829204", "is_reserved": 0, "rental_uris": {"android": "https://dc.lft.to/lastmile_qr_scan", "ios": "https://dc.lft.to/lastmile_qr_scan"}, "lat": 38.898431, "is_disabled": 0, "lon": -77.03276533333333}, {"fusion_lat": 0.0, "type": "electric_scooter", "name": "a7d51460aa684e1a7ba3a00570fe18d0", "fusion_lon": 0.0, "bike_id": "a7d51460aa684e1a7ba3a00570fe18d0", "is_reserved": 0, "rental_uris": {"android": "https://dc.lft.to/lastmile_qr_scan", "ios": "https://dc.lft.to/lastmile_qr_scan"}, "lat": 38.97455433333333, "is_disabled": 0, "lon": -77.01789333333333}, {"fusion_lat": 0.0, "type": "electric_scooter", "name": "abc1480d9614d65d941cf36a714b2a34", "fusion_lon": 0.0, "bike_id": "abc1480d9614d65d941cf36a714b2a34", "is_reserved": 0, "rental_uris": {"android": "https://dc.lft.to/lastmile_qr_scan", "ios": "https://dc.lft.to/lastmile_qr_scan"}, "lat": 38.914245, "is_disabled": 0, "lon": -77.02590233333333}, {"fusion_lat": 0.0, "type": "electric_scooter", "name": "0b7cc6161ed4031397ceb8dac710e945", "fusion_lon": 0.0, "bike_id": "0b7cc6161ed4031397ceb8dac710e945", "is_reserved": 0, "rental_uris": {"android": "https://dc.lft.to/lastmile_qr_scan", "ios": "https://dc.lft.to/lastmile_qr_scan"}, "lat": 38.918891333333335, "is_disabled": 0, "lon": -77.04828716666667}, {"fusion_lat": 0.0, "type": "electric_scooter", "name": "4088e2cd9f215717bf0cfa98148ecdec", "fusion_lon": 0.0, "bike_id": "4088e2cd9f215717bf0cfa98148ecdec", "is_reserved": 0, "rental_uris": {"android": "https://dc.lft.to/lastmile_qr_scan", "ios": "https://dc.lft.to/lastmile_qr_scan"}, "lat": 38.909598833333334, "is_disabled": 0, "lon": -77.03633}, {"fusion_lat": 0.0, "type": "electric_scooter", "name": "5258c87d0faaa890b31350f7b1678416", "fusion_lon": 0.0, "bike_id": "5258c87d0faaa890b31350f7b1678416", "is_reserved": 0, "rental_uris": {"android": "https://dc.lft.to/lastmile_qr_scan", "ios": "https://dc.lft.to/lastmile_qr_scan"}, "lat": 38.8832475, "is_disabled": 0, "lon": -77.01755866666667}, {"fusion_lat": 0.0, "type": "electric_scooter", "name": "c7af67191535b133db874f8033717a73", "fusion_lon": 0.0, "bike_id": "c7af67191535b133db874f8033717a73", "is_reserved": 0, "rental_uris": {"android": "https://dc.lft.to/lastmile_qr_scan", "ios": "https://dc.lft.to/lastmile_qr_scan"}, "lat": 38.924261333333334, "is_disabled": 0, "lon": -77.04475}, {"fusion_lat": 0.0, "type": "electric_scooter", "name": "a3850e669db17363dcb97c192c17f841", "fusion_lon": 0.0, "bike_id": "a3850e669db17363dcb97c192c17f841", "is_reserved": 0, "rental_uris": {"android": "https://dc.lft.to/lastmile_qr_scan", "ios": "https://dc.lft.to/lastmile_qr_scan"}, "lat": 38.904710666666666, "is_disabled": 0, "lon": -77.03454433333333}, {"fusion_lat": 0.0, "type": "electric_bike", "name": "5f536f15e3d763e02591b9f9383c674c", "fusion_lon": 0.0, "bike_id": "5f536f15e3d763e02591b9f9383c674c", "is_reserved": 0, "rental_uris": {"android": "https://dc.lft.to/lastmile_qr_scan", "ios": "https://dc.lft.to/lastmile_qr_scan"}, "lat": 38.9603315, "is_disabled": 0, "lon": -77.03408283333333}, {"fusion_lat": 0.0, "type": "electric_bike", "name": "66f916d41d49218294dc35ef65bb48cc", "fusion_lon": 0.0, "bike_id": "66f916d41d49218294dc35ef65bb48cc", "is_reserved": 0, "rental_uris": {"android": "https://dc.lft.to/lastmile_qr_scan", "ios": "https://dc.lft.to/lastmile_qr_scan"}, "lat": 38.84507283333333, "is_disabled": 0, "lon": -76.993556}, {"fusion_lat": 0.0, "type": "electric_scooter", "name": "d113c7dd08da3c0b4174806d67e6e097", "fusion_lon": 0.0, "bike_id": "d113c7dd08da3c0b4174806d67e6e097", "is_reserved": 0, "rental_uris": {"android": "https://dc.lft.to/lastmile_qr_scan", "ios": "https://dc.lft.to/lastmile_qr_scan"}, "lat": 38.9191015, "is_disabled": 0, "lon": -77.03201916666667}, {"fusion_lat": 0.0, "type": "electric_scooter", "name": "c6fa6a6c7d4ac8ba2aa0fd979158e6a1", "fusion_lon": 0.0, "bike_id": "c6fa6a6c7d4ac8ba2aa0fd979158e6a1", "is_reserved": 0, "rental_uris": {"android": "https://dc.lft.to/lastmile_qr_scan", "ios": "https://dc.lft.to/lastmile_qr_scan"}, "lat": 38.928085833333334, "is_disabled": 0, "lon": -77.026722}, {"fusion_lat": 0.0, "type": "electric_scooter", "name": "1983494edcf495acbde816eff0879d8e", "fusion_lon": 0.0, "bike_id": "1983494edcf495acbde816eff0879d8e", "is_reserved": 0, "rental_uris": {"android": "https://dc.lft.to/lastmile_qr_scan", "ios": "https://dc.lft.to/lastmile_qr_scan"}, "lat": 38.93869566666667, "is_disabled": 0, "lon": -77.02655533333333}, {"fusion_lat": 0.0, "type": "electric_scooter", "name": "ca0e33b10915599deb6812b02e19e86d", "fusion_lon": 0.0, "bike_id": "ca0e33b10915599deb6812b02e19e86d", "is_reserved": 0, "rental_uris": {"android": "https://dc.lft.to/lastmile_qr_scan", "ios": "https://dc.lft.to/lastmile_qr_scan"}, "lat": 38.91503516666667, "is_disabled": 0, "lon": -76.98363}, {"fusion_lat": 0.0, "type": "electric_bike", "name": "7999323b99fa42f40c4eb121c12ebfe5", "fusion_lon": 0.0, "bike_id": "7999323b99fa42f40c4eb121c12ebfe5", "is_reserved": 0, "rental_uris": {"android": "https://dc.lft.to/lastmile_qr_scan", "ios": "https://dc.lft.to/lastmile_qr_scan"}, "lat": 38.8558035, "is_disabled": 0, "lon": -77.11769616666666}, {"fusion_lat": 0.0, "type": "electric_scooter", "name": "11b3e19570f10cce7279c2efce8e3457", "fusion_lon": 0.0, "bike_id": "11b3e19570f10cce7279c2efce8e3457", "is_reserved": 0, "rental_uris": {"android": "https://dc.lft.to/lastmile_qr_scan", "ios": "https://dc.lft.to/lastmile_qr_scan"}, "lat": 38.88680633333333, "is_disabled": 0, "lon": -76.99009883333333}, {"fusion_lat": 0.0, "type": "electric_scooter", "name": "a3d3d1423ab13fa56addb1ac0f252f29", "fusion_lon": 0.0, "bike_id": "a3d3d1423ab13fa56addb1ac0f252f29", "is_reserved": 0, "rental_uris": {"android": "https://dc.lft.to/lastmile_qr_scan", "ios": "https://dc.lft.to/lastmile_qr_scan"}, "lat": 38.91417583333333, "is_disabled": 0, "lon": -77.04156733333333}, {"fusion_lat": 0.0, "type": "electric_bike", "name": "9c2b9c7ba8248a085ee22290bf7d0cec", "fusion_lon": 0.0, "bike_id": "9c2b9c7ba8248a085ee22290bf7d0cec", "is_reserved": 0, "rental_uris": {"android": "https://dc.lft.to/lastmile_qr_scan", "ios": "https://dc.lft.to/lastmile_qr_scan"}, "lat": 38.955005166666666, "is_disabled": 0, "lon": -76.99382883333334}, {"fusion_lat": 0.0, "type": "electric_scooter", "name": "3ac3da134e6fee6ec6baae4bac6843ce", "fusion_lon": 0.0, "bike_id": "3ac3da134e6fee6ec6baae4bac6843ce", "is_reserved": 0, "rental_uris": {"android": "https://dc.lft.to/lastmile_qr_scan", "ios": "https://dc.lft.to/lastmile_qr_scan"}, "lat": 38.91113816666667, "is_disabled": 0, "lon": -77.03321733333334}, {"fusion_lat": 0.0, "type": "electric_scooter", "name": "4d7f0e4db9c265cda4e54657f276b13c", "fusion_lon": 0.0, "bike_id": "4d7f0e4db9c265cda4e54657f276b13c", "is_reserved": 0, "rental_uris": {"android": "https://dc.lft.to/lastmile_qr_scan", "ios": "https://dc.lft.to/lastmile_qr_scan"}, "lat": 38.9284975, "is_disabled": 0, "lon": -77.03278783333333}, {"fusion_lat": 0.0, "type": "electric_scooter", "name": "6dd0a565806731cf575a9d3a261a4016", "fusion_lon": 0.0, "bike_id": "6dd0a565806731cf575a9d3a261a4016", "is_reserved": 0, "rental_uris": {"android": "https://dc.lft.to/lastmile_qr_scan", "ios": "https://dc.lft.to/lastmile_qr_scan"}, "lat": 38.9096985, "is_disabled": 0, "lon": -77.02083233333333}, {"fusion_lat": 0.0, "type": "electric_scooter", "name": "c253000019a4339e0f3bca471017c65f", "fusion_lon": 0.0, "bike_id": "c253000019a4339e0f3bca471017c65f", "is_reserved": 0, "rental_uris": {"android": "https://dc.lft.to/lastmile_qr_scan", "ios": "https://dc.lft.to/lastmile_qr_scan"}, "lat": 38.95832716666666, "is_disabled": 0, "lon": -77.0151395}, {"fusion_lat": 0.0, "type": "electric_scooter", "name": "1d60e82bc7dcf999b137b3ef81cf3815", "fusion_lon": 0.0, "bike_id": "1d60e82bc7dcf999b137b3ef81cf3815", "is_reserved": 0, "rental_uris": {"android": "https://dc.lft.to/lastmile_qr_scan", "ios": "https://dc.lft.to/lastmile_qr_scan"}, "lat": 38.90064816666667, "is_disabled": 0, "lon": -77.04533366666666}, {"fusion_lat": 0.0, "type": "electric_scooter", "name": "df4926de0c3893bfa329c3b2681b1069", "fusion_lon": 0.0, "bike_id": "df4926de0c3893bfa329c3b2681b1069", "is_reserved": 0, "rental_uris": {"android": "https://dc.lft.to/lastmile_qr_scan", "ios": "https://dc.lft.to/lastmile_qr_scan"}, "lat": 38.876449, "is_disabled": 0, "lon": -76.96506783333334}, {"fusion_lat": 0.0, "type": "electric_scooter", "name": "5d2a443a4ad024f5ed297b748dd3df38", "fusion_lon": 0.0, "bike_id": "5d2a443a4ad024f5ed297b748dd3df38", "is_reserved": 0, "rental_uris": {"android": "https://dc.lft.to/lastmile_qr_scan", "ios": "https://dc.lft.to/lastmile_qr_scan"}, "lat": 38.897495666666664, "is_disabled": 0, "lon": -77.0135555}, {"fusion_lat": 0.0, "type": "electric_scooter", "name": "f3cc9c94aac0e004e0e19dd7e5cf4c10", "fusion_lon": 0.0, "bike_id": "f3cc9c94aac0e004e0e19dd7e5cf4c10", "is_reserved": 0, "rental_uris": {"android": "https://dc.lft.to/lastmile_qr_scan", "ios": "https://dc.lft.to/lastmile_qr_scan"}, "lat": 38.94208533333333, "is_disabled": 0, "lon": -77.02515433333333}, {"fusion_lat": 0.0, "type": "electric_scooter", "name": "ec52f683287efebc104534291f22bec9", "fusion_lon": 0.0, "bike_id": "ec52f683287efebc104534291f22bec9", "is_reserved": 0, "rental_uris": {"android": "https://dc.lft.to/lastmile_qr_scan", "ios": "https://dc.lft.to/lastmile_qr_scan"}, "lat": 38.87791933333333, "is_disabled": 0, "lon": -77.01750066666666}, {"fusion_lat": 0.0, "type": "electric_scooter", "name": "a01fa8b009a1d59c4054375ae92b1131", "fusion_lon": 0.0, "bike_id": "a01fa8b009a1d59c4054375ae92b1131", "is_reserved": 0, "rental_uris": {"android": "https://dc.lft.to/lastmile_qr_scan", "ios": "https://dc.lft.to/lastmile_qr_scan"}, "lat": 38.92086466666667, "is_disabled": 0, "lon": -77.0267625}, {"fusion_lat": 0.0, "type": "electric_scooter", "name": "9fd6859e78c1fa1bfc0d6d42098de4fd", "fusion_lon": 0.0, "bike_id": "9fd6859e78c1fa1bfc0d6d42098de4fd", "is_reserved": 0, "rental_uris": {"android": "https://dc.lft.to/lastmile_qr_scan", "ios": "https://dc.lft.to/lastmile_qr_scan"}, "lat": 38.89222083333333, "is_disabled": 0, "lon": -77.04308166666667}, {"fusion_lat": 0.0, "type": "electric_scooter", "name": "1b77c11eee293ddb535fcf11ade0e8dd", "fusion_lon": 0.0, "bike_id": "1b77c11eee293ddb535fcf11ade0e8dd", "is_reserved": 0, "rental_uris": {"android": "https://dc.lft.to/lastmile_qr_scan", "ios": "https://dc.lft.to/lastmile_qr_scan"}, "lat": 38.930846333333335, "is_disabled": 0, "lon": -77.02794983333334}, {"fusion_lat": 0.0, "type": "electric_scooter", "name": "028ff97724003571ca3559aa69d99ae5", "fusion_lon": 0.0, "bike_id": "028ff97724003571ca3559aa69d99ae5", "is_reserved": 0, "rental_uris": {"android": "https://dc.lft.to/lastmile_qr_scan", "ios": "https://dc.lft.to/lastmile_qr_scan"}, "lat": 38.91795333333334, "is_disabled": 0, "lon": -77.04536333333333}, {"fusion_lat": 0.0, "type": "electric_bike", "name": "d36795460efbc2a5ef18b2cbc3a38703", "fusion_lon": 0.0, "bike_id": "d36795460efbc2a5ef18b2cbc3a38703", "is_reserved": 0, "rental_uris": {"android": "https://dc.lft.to/lastmile_qr_scan", "ios": "https://dc.lft.to/lastmile_qr_scan"}, "lat": 39.042394, "is_disabled": 0, "lon": -77.0307995}, {"fusion_lat": 0.0, "type": "electric_scooter", "name": "3c6bc32aa26c25e4ea519db7ce743f43", "fusion_lon": 0.0, "bike_id": "3c6bc32aa26c25e4ea519db7ce743f43", "is_reserved": 0, "rental_uris": {"android": "https://dc.lft.to/lastmile_qr_scan", "ios": "https://dc.lft.to/lastmile_qr_scan"}, "lat": 38.9047345, "is_disabled": 0, "lon": -77.02831116666667}, {"fusion_lat": 0.0, "type": "electric_scooter", "name": "837c193bbe3a546d69da0b9087c876c2", "fusion_lon": 0.0, "bike_id": "837c193bbe3a546d69da0b9087c876c2", "is_reserved": 0, "rental_uris": {"android": "https://dc.lft.to/lastmile_qr_scan", "ios": "https://dc.lft.to/lastmile_qr_scan"}, "lat": 38.9233525, "is_disabled": 0, "lon": -77.03617466666667}, {"fusion_lat": 0.0, "type": "electric_scooter", "name": "4478895eac835267739f40a17d1796e9", "fusion_lon": 0.0, "bike_id": "4478895eac835267739f40a17d1796e9", "is_reserved": 0, "rental_uris": {"android": "https://dc.lft.to/lastmile_qr_scan", "ios": "https://dc.lft.to/lastmile_qr_scan"}, "lat": 38.935488, "is_disabled": 0, "lon": -77.02228916666667}, {"fusion_lat": 0.0, "type": "electric_scooter", "name": "3d4c672ca2d9ffca7db79634d30d8451", "fusion_lon": 0.0, "bike_id": "3d4c672ca2d9ffca7db79634d30d8451", "is_reserved": 0, "rental_uris": {"android": "https://dc.lft.to/lastmile_qr_scan", "ios": "https://dc.lft.to/lastmile_qr_scan"}, "lat": 38.8670365, "is_disabled": 0, "lon": -76.98716716666667}, {"fusion_lat": 0.0, "type": "electric_scooter", "name": "4a00b683246787ef5edda3a34a79d5f2", "fusion_lon": 0.0, "bike_id": "4a00b683246787ef5edda3a34a79d5f2", "is_reserved": 0, "rental_uris": {"android": "https://dc.lft.to/lastmile_qr_scan", "ios": "https://dc.lft.to/lastmile_qr_scan"}, "lat": 38.892212666666666, "is_disabled": 0, "lon": -77.04374716666666}, {"fusion_lat": 0.0, "type": "electric_scooter", "name": "399a252dd9a6383be4bf9a47ee021893", "fusion_lon": 0.0, "bike_id": "399a252dd9a6383be4bf9a47ee021893", "is_reserved": 0, "rental_uris": {"android": "https://dc.lft.to/lastmile_qr_scan", "ios": "https://dc.lft.to/lastmile_qr_scan"}, "lat": 38.92063233333333, "is_disabled": 0, "lon": -77.04219516666667}, {"fusion_lat": 0.0, "type": "electric_scooter", "name": "82d08704f7f3a9b3ef72c355a4910b3f", "fusion_lon": 0.0, "bike_id": "82d08704f7f3a9b3ef72c355a4910b3f", "is_reserved": 0, "rental_uris": {"android": "https://dc.lft.to/lastmile_qr_scan", "ios": "https://dc.lft.to/lastmile_qr_scan"}, "lat": 38.911051666666665, "is_disabled": 0, "lon": -77.02099733333333}, {"fusion_lat": 0.0, "type": "electric_scooter", "name": "2333bd556ba3eb4ba1a1e0da860af3b4", "fusion_lon": 0.0, "bike_id": "2333bd556ba3eb4ba1a1e0da860af3b4", "is_reserved": 0, "rental_uris": {"android": "https://dc.lft.to/lastmile_qr_scan", "ios": "https://dc.lft.to/lastmile_qr_scan"}, "lat": 38.92857166666667, "is_disabled": 0, "lon": -77.0140745}, {"fusion_lat": 0.0, "type": "electric_bike", "name": "30533a60e1fdd288e9b0e693fe16ab6e", "fusion_lon": 0.0, "bike_id": "30533a60e1fdd288e9b0e693fe16ab6e", "is_reserved": 0, "rental_uris": {"android": "https://dc.lft.to/lastmile_qr_scan", "ios": "https://dc.lft.to/lastmile_qr_scan"}, "lat": 38.959298, "is_disabled": 0, "lon": -76.925385}, {"fusion_lat": 0.0, "type": "electric_scooter", "name": "7cb530a7648752de4f067f7a09f70d24", "fusion_lon": 0.0, "bike_id": "7cb530a7648752de4f067f7a09f70d24", "is_reserved": 0, "rental_uris": {"android": "https://dc.lft.to/lastmile_qr_scan", "ios": "https://dc.lft.to/lastmile_qr_scan"}, "lat": 38.869007333333336, "is_disabled": 0, "lon": -76.9822815}, {"fusion_lat": 0.0, "type": "electric_scooter", "name": "6708d3487da13aaceb4ca1286be1342e", "fusion_lon": 0.0, "bike_id": "6708d3487da13aaceb4ca1286be1342e", "is_reserved": 0, "rental_uris": {"android": "https://dc.lft.to/lastmile_qr_scan", "ios": "https://dc.lft.to/lastmile_qr_scan"}, "lat": 38.907262333333335, "is_disabled": 0, "lon": -77.04879266666667}, {"fusion_lat": 0.0, "type": "electric_scooter", "name": "fea15f2a8e4b8da9957b4bb45f6040ce", "fusion_lon": 0.0, "bike_id": "fea15f2a8e4b8da9957b4bb45f6040ce", "is_reserved": 0, "rental_uris": {"android": "https://dc.lft.to/lastmile_qr_scan", "ios": "https://dc.lft.to/lastmile_qr_scan"}, "lat": 38.9055605, "is_disabled": 0, "lon": -77.006956}, {"fusion_lat": 0.0, "type": "electric_scooter", "name": "c2ca8cd5db7427a9fb179801a8dad799", "fusion_lon": 0.0, "bike_id": "c2ca8cd5db7427a9fb179801a8dad799", "is_reserved": 0, "rental_uris": {"android": "https://dc.lft.to/lastmile_qr_scan", "ios": "https://dc.lft.to/lastmile_qr_scan"}, "lat": 38.89225416666667, "is_disabled": 0, "lon": -77.04378333333334}, {"fusion_lat": 0.0, "type": "electric_scooter", "name": "e7187995245e27bba40612341b37f599", "fusion_lon": 0.0, "bike_id": "e7187995245e27bba40612341b37f599", "is_reserved": 0, "rental_uris": {"android": "https://dc.lft.to/lastmile_qr_scan", "ios": "https://dc.lft.to/lastmile_qr_scan"}, "lat": 38.911855333333335, "is_disabled": 0, "lon": -77.03022366666667}, {"fusion_lat": 0.0, "type": "electric_scooter", "name": "c22a592444991aeed2c8ee650157dff6", "fusion_lon": 0.0, "bike_id": "c22a592444991aeed2c8ee650157dff6", "is_reserved": 0, "rental_uris": {"android": "https://dc.lft.to/lastmile_qr_scan", "ios": "https://dc.lft.to/lastmile_qr_scan"}, "lat": 38.88737416666667, "is_disabled": 0, "lon": -77.02581066666667}, {"fusion_lat": 0.0, "type": "electric_scooter", "name": "0ea7696ff2c4497205cbb3cd60a705f1", "fusion_lon": 0.0, "bike_id": "0ea7696ff2c4497205cbb3cd60a705f1", "is_reserved": 0, "rental_uris": {"android": "https://dc.lft.to/lastmile_qr_scan", "ios": "https://dc.lft.to/lastmile_qr_scan"}, "lat": 38.9602455, "is_disabled": 0, "lon": -77.01979}, {"fusion_lat": 0.0, "type": "electric_scooter", "name": "3582e647d5921b30bbd3c4bee55114ce", "fusion_lon": 0.0, "bike_id": "3582e647d5921b30bbd3c4bee55114ce", "is_reserved": 0, "rental_uris": {"android": "https://dc.lft.to/lastmile_qr_scan", "ios": "https://dc.lft.to/lastmile_qr_scan"}, "lat": 38.894975333333335, "is_disabled": 0, "lon": -77.02148583333333}, {"fusion_lat": 0.0, "type": "electric_scooter", "name": "7299ffb8c064ece5143d1561ff303ac0", "fusion_lon": 0.0, "bike_id": "7299ffb8c064ece5143d1561ff303ac0", "is_reserved": 0, "rental_uris": {"android": "https://dc.lft.to/lastmile_qr_scan", "ios": "https://dc.lft.to/lastmile_qr_scan"}, "lat": 38.89372983333333, "is_disabled": 0, "lon": -76.9499745}, {"fusion_lat": 0.0, "type": "electric_scooter", "name": "2fd41195f5ff71a708b9c71d30519917", "fusion_lon": 0.0, "bike_id": "2fd41195f5ff71a708b9c71d30519917", "is_reserved": 0, "rental_uris": {"android": "https://dc.lft.to/lastmile_qr_scan", "ios": "https://dc.lft.to/lastmile_qr_scan"}, "lat": 38.925715333333336, "is_disabled": 0, "lon": -77.0400655}, {"fusion_lat": 0.0, "type": "electric_scooter", "name": "d184725dcaf9f7a07c0946d754c5cd1c", "fusion_lon": 0.0, "bike_id": "d184725dcaf9f7a07c0946d754c5cd1c", "is_reserved": 0, "rental_uris": {"android": "https://dc.lft.to/lastmile_qr_scan", "ios": "https://dc.lft.to/lastmile_qr_scan"}, "lat": 38.893491, "is_disabled": 0, "lon": -77.04192216666667}, {"fusion_lat": 0.0, "type": "electric_scooter", "name": "81fc05175b7deaeabd2bff260e1df519", "fusion_lon": 0.0, "bike_id": "81fc05175b7deaeabd2bff260e1df519", "is_reserved": 0, "rental_uris": {"android": "https://dc.lft.to/lastmile_qr_scan", "ios": "https://dc.lft.to/lastmile_qr_scan"}, "lat": 38.93085816666667, "is_disabled": 0, "lon": -77.00409333333333}, {"fusion_lat": 0.0, "type": "electric_scooter", "name": "c8d464b22ad40825c26e5ddd6661f0ee", "fusion_lon": 0.0, "bike_id": "c8d464b22ad40825c26e5ddd6661f0ee", "is_reserved": 0, "rental_uris": {"android": "https://dc.lft.to/lastmile_qr_scan", "ios": "https://dc.lft.to/lastmile_qr_scan"}, "lat": 38.890056333333334, "is_disabled": 0, "lon": -76.958938}, {"fusion_lat": 0.0, "type": "electric_scooter", "name": "a8acdb562d20a9bb657187fe9f4ada3f", "fusion_lon": 0.0, "bike_id": "a8acdb562d20a9bb657187fe9f4ada3f", "is_reserved": 0, "rental_uris": {"android": "https://dc.lft.to/lastmile_qr_scan", "ios": "https://dc.lft.to/lastmile_qr_scan"}, "lat": 38.92055716666667, "is_disabled": 0, "lon": -77.004901}, {"fusion_lat": 0.0, "type": "electric_scooter", "name": "7a5c6a78b559c26e1eb74067a1bd3db5", "fusion_lon": 0.0, "bike_id": "7a5c6a78b559c26e1eb74067a1bd3db5", "is_reserved": 0, "rental_uris": {"android": "https://dc.lft.to/lastmile_qr_scan", "ios": "https://dc.lft.to/lastmile_qr_scan"}, "lat": 38.928159, "is_disabled": 0, "lon": -77.05524883333334}, {"fusion_lat": 0.0, "type": "electric_scooter", "name": "9a66b9fa5884fb3657f7a3cfbb276c1c", "fusion_lon": 0.0, "bike_id": "9a66b9fa5884fb3657f7a3cfbb276c1c", "is_reserved": 0, "rental_uris": {"android": "https://dc.lft.to/lastmile_qr_scan", "ios": "https://dc.lft.to/lastmile_qr_scan"}, "lat": 38.91330766666667, "is_disabled": 0, "lon": -77.04528766666667}, {"fusion_lat": 0.0, "type": "electric_scooter", "name": "a5221dc5373d98e9abd68b2b39229539", "fusion_lon": 0.0, "bike_id": "a5221dc5373d98e9abd68b2b39229539", "is_reserved": 0, "rental_uris": {"android": "https://dc.lft.to/lastmile_qr_scan", "ios": "https://dc.lft.to/lastmile_qr_scan"}, "lat": 38.92718, "is_disabled": 0, "lon": -77.04133233333333}, {"fusion_lat": 0.0, "type": "electric_scooter", "name": "7b11c62c951b95f20ed525e6b6c7cf01", "fusion_lon": 0.0, "bike_id": "7b11c62c951b95f20ed525e6b6c7cf01", "is_reserved": 0, "rental_uris": {"android": "https://dc.lft.to/lastmile_qr_scan", "ios": "https://dc.lft.to/lastmile_qr_scan"}, "lat": 38.900127166666664, "is_disabled": 0, "lon": -77.04502183333334}, {"fusion_lat": 0.0, "type": "electric_scooter", "name": "5ba3e414d628c0d0408db6ff817e5cf8", "fusion_lon": 0.0, "bike_id": "5ba3e414d628c0d0408db6ff817e5cf8", "is_reserved": 0, "rental_uris": {"android": "https://dc.lft.to/lastmile_qr_scan", "ios": "https://dc.lft.to/lastmile_qr_scan"}, "lat": 38.952316, "is_disabled": 0, "lon": -77.01428933333334}, {"fusion_lat": 0.0, "type": "electric_scooter", "name": "6cc86bb57d607f894d01957058f981c4", "fusion_lon": 0.0, "bike_id": "6cc86bb57d607f894d01957058f981c4", "is_reserved": 0, "rental_uris": {"android": "https://dc.lft.to/lastmile_qr_scan", "ios": "https://dc.lft.to/lastmile_qr_scan"}, "lat": 38.9308525, "is_disabled": 0, "lon": -77.004089}, {"fusion_lat": 0.0, "type": "electric_bike", "name": "e9e7f752e746415b475e531c2e504131", "fusion_lon": 0.0, "bike_id": "e9e7f752e746415b475e531c2e504131", "is_reserved": 0, "rental_uris": {"android": "https://dc.lft.to/lastmile_qr_scan", "ios": "https://dc.lft.to/lastmile_qr_scan"}, "lat": 38.879841166666665, "is_disabled": 0, "lon": -76.984775}, {"fusion_lat": 0.0, "type": "electric_scooter", "name": "a28cc917f5d55fa7b69676be84f7b84a", "fusion_lon": 0.0, "bike_id": "a28cc917f5d55fa7b69676be84f7b84a", "is_reserved": 0, "rental_uris": {"android": "https://dc.lft.to/lastmile_qr_scan", "ios": "https://dc.lft.to/lastmile_qr_scan"}, "lat": 38.928703166666665, "is_disabled": 0, "lon": -77.032912}, {"fusion_lat": 0.0, "type": "electric_scooter", "name": "175a696fa36c577560de0195ebc75ad8", "fusion_lon": 0.0, "bike_id": "175a696fa36c577560de0195ebc75ad8", "is_reserved": 0, "rental_uris": {"android": "https://dc.lft.to/lastmile_qr_scan", "ios": "https://dc.lft.to/lastmile_qr_scan"}, "lat": 38.92990066666667, "is_disabled": 0, "lon": -77.03472566666667}, {"fusion_lat": 0.0, "type": "electric_scooter", "name": "70e2c57ac1111ae72b926272e7943624", "fusion_lon": 0.0, "bike_id": "70e2c57ac1111ae72b926272e7943624", "is_reserved": 0, "rental_uris": {"android": "https://dc.lft.to/lastmile_qr_scan", "ios": "https://dc.lft.to/lastmile_qr_scan"}, "lat": 38.889895333333335, "is_disabled": 0, "lon": -76.9832875}, {"fusion_lat": 0.0, "type": "electric_scooter", "name": "995469a41de8a0a0c065952801c772d6", "fusion_lon": 0.0, "bike_id": "995469a41de8a0a0c065952801c772d6", "is_reserved": 0, "rental_uris": {"android": "https://dc.lft.to/lastmile_qr_scan", "ios": "https://dc.lft.to/lastmile_qr_scan"}, "lat": 38.904698833333335, "is_disabled": 0, "lon": -77.03901766666667}, {"fusion_lat": 0.0, "type": "electric_scooter", "name": "8fafbcca5f46c8e0a75477b0a0bd44de", "fusion_lon": 0.0, "bike_id": "8fafbcca5f46c8e0a75477b0a0bd44de", "is_reserved": 0, "rental_uris": {"android": "https://dc.lft.to/lastmile_qr_scan", "ios": "https://dc.lft.to/lastmile_qr_scan"}, "lat": 38.9134115, "is_disabled": 0, "lon": -77.00923033333333}, {"fusion_lat": 0.0, "type": "electric_bike", "name": "d0564d7b527526804372774ebd444c4f", "fusion_lon": 0.0, "bike_id": "d0564d7b527526804372774ebd444c4f", "is_reserved": 0, "rental_uris": {"android": "https://dc.lft.to/lastmile_qr_scan", "ios": "https://dc.lft.to/lastmile_qr_scan"}, "lat": 38.880529333333335, "is_disabled": 0, "lon": -77.01132833333334}, {"fusion_lat": 0.0, "type": "electric_scooter", "name": "6561c08b0d4bcb52c4029e103c03efb2", "fusion_lon": 0.0, "bike_id": "6561c08b0d4bcb52c4029e103c03efb2", "is_reserved": 0, "rental_uris": {"android": "https://dc.lft.to/lastmile_qr_scan", "ios": "https://dc.lft.to/lastmile_qr_scan"}, "lat": 38.92197616666667, "is_disabled": 0, "lon": -77.02977733333333}, {"fusion_lat": 0.0, "type": "electric_scooter", "name": "30216187d31443814fafed61d123b3a5", "fusion_lon": 0.0, "bike_id": "30216187d31443814fafed61d123b3a5", "is_reserved": 0, "rental_uris": {"android": "https://dc.lft.to/lastmile_qr_scan", "ios": "https://dc.lft.to/lastmile_qr_scan"}, "lat": 38.883490333333334, "is_disabled": 0, "lon": -76.9855755}, {"fusion_lat": 0.0, "type": "electric_scooter", "name": "97b3dca8eec3247dc847ae1d6f3780fe", "fusion_lon": 0.0, "bike_id": "97b3dca8eec3247dc847ae1d6f3780fe", "is_reserved": 0, "rental_uris": {"android": "https://dc.lft.to/lastmile_qr_scan", "ios": "https://dc.lft.to/lastmile_qr_scan"}, "lat": 38.867079333333336, "is_disabled": 0, "lon": -76.9872075}, {"fusion_lat": 0.0, "type": "electric_scooter", "name": "de5228710776bfa65cc67a3db669ef1a", "fusion_lon": 0.0, "bike_id": "de5228710776bfa65cc67a3db669ef1a", "is_reserved": 0, "rental_uris": {"android": "https://dc.lft.to/lastmile_qr_scan", "ios": "https://dc.lft.to/lastmile_qr_scan"}, "lat": 38.927338666666664, "is_disabled": 0, "lon": -77.07337666666666}, {"fusion_lat": 0.0, "type": "electric_scooter", "name": "bb1fc6658cf166035083b1cfd3d9f53d", "fusion_lon": 0.0, "bike_id": "bb1fc6658cf166035083b1cfd3d9f53d", "is_reserved": 0, "rental_uris": {"android": "https://dc.lft.to/lastmile_qr_scan", "ios": "https://dc.lft.to/lastmile_qr_scan"}, "lat": 38.92501683333333, "is_disabled": 0, "lon": -77.05760216666667}, {"fusion_lat": 0.0, "type": "electric_bike", "name": "c2f37434f8cd554742f9d01eb77e4a48", "fusion_lon": 0.0, "bike_id": "c2f37434f8cd554742f9d01eb77e4a48", "is_reserved": 0, "rental_uris": {"android": "https://dc.lft.to/lastmile_qr_scan", "ios": "https://dc.lft.to/lastmile_qr_scan"}, "lat": 38.9923335, "is_disabled": 0, "lon": -77.0322285}, {"fusion_lat": 0.0, "type": "electric_scooter", "name": "65edbb3d56f375711bd4410bd54a88e1", "fusion_lon": 0.0, "bike_id": "65edbb3d56f375711bd4410bd54a88e1", "is_reserved": 0, "rental_uris": {"android": "https://dc.lft.to/lastmile_qr_scan", "ios": "https://dc.lft.to/lastmile_qr_scan"}, "lat": 38.914826166666664, "is_disabled": 0, "lon": -77.02174783333334}, {"fusion_lat": 0.0, "type": "electric_scooter", "name": "2b4786880123376b9035d395da9fd446", "fusion_lon": 0.0, "bike_id": "2b4786880123376b9035d395da9fd446", "is_reserved": 0, "rental_uris": {"android": "https://dc.lft.to/lastmile_qr_scan", "ios": "https://dc.lft.to/lastmile_qr_scan"}, "lat": 38.8922545, "is_disabled": 0, "lon": -77.03189916666666}, {"fusion_lat": 0.0, "type": "electric_scooter", "name": "af53e21990730c775185f1822da96a7e", "fusion_lon": 0.0, "bike_id": "af53e21990730c775185f1822da96a7e", "is_reserved": 0, "rental_uris": {"android": "https://dc.lft.to/lastmile_qr_scan", "ios": "https://dc.lft.to/lastmile_qr_scan"}, "lat": 38.93187316666667, "is_disabled": 0, "lon": -77.03838416666666}, {"fusion_lat": 0.0, "type": "electric_scooter", "name": "bda2e423895d9e1e746dc11a489cd568", "fusion_lon": 0.0, "bike_id": "bda2e423895d9e1e746dc11a489cd568", "is_reserved": 0, "rental_uris": {"android": "https://dc.lft.to/lastmile_qr_scan", "ios": "https://dc.lft.to/lastmile_qr_scan"}, "lat": 38.904276333333335, "is_disabled": 0, "lon": -77.04352866666666}, {"fusion_lat": 0.0, "type": "electric_scooter", "name": "413cc71f3dc49dd8fad7874c7f365e0f", "fusion_lon": 0.0, "bike_id": "413cc71f3dc49dd8fad7874c7f365e0f", "is_reserved": 0, "rental_uris": {"android": "https://dc.lft.to/lastmile_qr_scan", "ios": "https://dc.lft.to/lastmile_qr_scan"}, "lat": 38.91824016666666, "is_disabled": 0, "lon": -77.04182416666667}, {"fusion_lat": 0.0, "type": "electric_scooter", "name": "884fb17f5b99097b328e8e81d5025178", "fusion_lon": 0.0, "bike_id": "884fb17f5b99097b328e8e81d5025178", "is_reserved": 0, "rental_uris": {"android": "https://dc.lft.to/lastmile_qr_scan", "ios": "https://dc.lft.to/lastmile_qr_scan"}, "lat": 38.9225665, "is_disabled": 0, "lon": -77.0429435}, {"fusion_lat": 0.0, "type": "electric_scooter", "name": "b814c595717b8b1726a7a15f412ada20", "fusion_lon": 0.0, "bike_id": "b814c595717b8b1726a7a15f412ada20", "is_reserved": 0, "rental_uris": {"android": "https://dc.lft.to/lastmile_qr_scan", "ios": "https://dc.lft.to/lastmile_qr_scan"}, "lat": 38.90905016666667, "is_disabled": 0, "lon": -77.018922}, {"fusion_lat": 0.0, "type": "electric_bike", "name": "fdad563643897bed70a2e3d4ee9e9221", "fusion_lon": 0.0, "bike_id": "fdad563643897bed70a2e3d4ee9e9221", "is_reserved": 0, "rental_uris": {"android": "https://dc.lft.to/lastmile_qr_scan", "ios": "https://dc.lft.to/lastmile_qr_scan"}, "lat": 38.865162833333336, "is_disabled": 0, "lon": -76.97332683333333}, {"fusion_lat": 0.0, "type": "electric_scooter", "name": "d1d0acd00ab3226e8049ccbf83669210", "fusion_lon": 0.0, "bike_id": "d1d0acd00ab3226e8049ccbf83669210", "is_reserved": 0, "rental_uris": {"android": "https://dc.lft.to/lastmile_qr_scan", "ios": "https://dc.lft.to/lastmile_qr_scan"}, "lat": 38.90540683333333, "is_disabled": 0, "lon": -77.0570195}, {"fusion_lat": 0.0, "type": "electric_scooter", "name": "97d1113015057ef0d5da21e741e6e965", "fusion_lon": 0.0, "bike_id": "97d1113015057ef0d5da21e741e6e965", "is_reserved": 0, "rental_uris": {"android": "https://dc.lft.to/lastmile_qr_scan", "ios": "https://dc.lft.to/lastmile_qr_scan"}, "lat": 38.86506416666667, "is_disabled": 0, "lon": -76.9900235}, {"fusion_lat": 0.0, "type": "electric_bike", "name": "bbf3894e376451a4a087a2d1602ff940", "fusion_lon": 0.0, "bike_id": "bbf3894e376451a4a087a2d1602ff940", "is_reserved": 0, "rental_uris": {"android": "https://dc.lft.to/lastmile_qr_scan", "ios": "https://dc.lft.to/lastmile_qr_scan"}, "lat": 38.954231666666665, "is_disabled": 0, "lon": -76.932805}, {"fusion_lat": 0.0, "type": "electric_scooter", "name": "310aef04fa8003245dfd47d57f5a04f3", "fusion_lon": 0.0, "bike_id": "310aef04fa8003245dfd47d57f5a04f3", "is_reserved": 0, "rental_uris": {"android": "https://dc.lft.to/lastmile_qr_scan", "ios": "https://dc.lft.to/lastmile_qr_scan"}, "lat": 38.874716166666666, "is_disabled": 0, "lon": -77.00874616666667}, {"fusion_lat": 0.0, "type": "electric_scooter", "name": "80b2262e7dcb764921f9fd2af241da4b", "fusion_lon": 0.0, "bike_id": "80b2262e7dcb764921f9fd2af241da4b", "is_reserved": 0, "rental_uris": {"android": "https://dc.lft.to/lastmile_qr_scan", "ios": "https://dc.lft.to/lastmile_qr_scan"}, "lat": 38.939036333333334, "is_disabled": 0, "lon": -77.02472733333333}, {"fusion_lat": 0.0, "type": "electric_bike", "name": "8ad797bf95c5f7e4219258a3a7de46f8", "fusion_lon": 0.0, "bike_id": "8ad797bf95c5f7e4219258a3a7de46f8", "is_reserved": 0, "rental_uris": {"android": "https://dc.lft.to/lastmile_qr_scan", "ios": "https://dc.lft.to/lastmile_qr_scan"}, "lat": 38.86582033333333, "is_disabled": 0, "lon": -77.047631}, {"fusion_lat": 0.0, "type": "electric_scooter", "name": "3878dd88e3042c38880fff695d04f605", "fusion_lon": 0.0, "bike_id": "3878dd88e3042c38880fff695d04f605", "is_reserved": 0, "rental_uris": {"android": "https://dc.lft.to/lastmile_qr_scan", "ios": "https://dc.lft.to/lastmile_qr_scan"}, "lat": 38.93962833333333, "is_disabled": 0, "lon": -77.07251616666667}, {"fusion_lat": 0.0, "type": "electric_scooter", "name": "57757a80d729a151d802a9b3f4c4f395", "fusion_lon": 0.0, "bike_id": "57757a80d729a151d802a9b3f4c4f395", "is_reserved": 0, "rental_uris": {"android": "https://dc.lft.to/lastmile_qr_scan", "ios": "https://dc.lft.to/lastmile_qr_scan"}, "lat": 38.9420175, "is_disabled": 0, "lon": -77.02500966666666}, {"fusion_lat": 0.0, "type": "electric_scooter", "name": "fba440090ff777b371539376358efefd", "fusion_lon": 0.0, "bike_id": "fba440090ff777b371539376358efefd", "is_reserved": 0, "rental_uris": {"android": "https://dc.lft.to/lastmile_qr_scan", "ios": "https://dc.lft.to/lastmile_qr_scan"}, "lat": 38.92921, "is_disabled": 0, "lon": -77.03750933333333}, {"fusion_lat": 0.0, "type": "electric_scooter", "name": "013e1739dc3d812a08eac6a4644ff0ef", "fusion_lon": 0.0, "bike_id": "013e1739dc3d812a08eac6a4644ff0ef", "is_reserved": 0, "rental_uris": {"android": "https://dc.lft.to/lastmile_qr_scan", "ios": "https://dc.lft.to/lastmile_qr_scan"}, "lat": 38.9306795, "is_disabled": 0, "lon": -77.03355833333333}, {"fusion_lat": 0.0, "type": "electric_scooter", "name": "e85a7c8dccd8ba67cfa19e63dd9cfe3a", "fusion_lon": 0.0, "bike_id": "e85a7c8dccd8ba67cfa19e63dd9cfe3a", "is_reserved": 0, "rental_uris": {"android": "https://dc.lft.to/lastmile_qr_scan", "ios": "https://dc.lft.to/lastmile_qr_scan"}, "lat": 38.88745683333333, "is_disabled": 0, "lon": -77.02738966666666}, {"fusion_lat": 0.0, "type": "electric_scooter", "name": "530968ec1e009c977168b5e365436231", "fusion_lon": 0.0, "bike_id": "530968ec1e009c977168b5e365436231", "is_reserved": 0, "rental_uris": {"android": "https://dc.lft.to/lastmile_qr_scan", "ios": "https://dc.lft.to/lastmile_qr_scan"}, "lat": 38.934215333333334, "is_disabled": 0, "lon": -77.04399516666666}, {"fusion_lat": 0.0, "type": "electric_scooter", "name": "28ffd76c1e40c709f1da32ae958234fb", "fusion_lon": 0.0, "bike_id": "28ffd76c1e40c709f1da32ae958234fb", "is_reserved": 0, "rental_uris": {"android": "https://dc.lft.to/lastmile_qr_scan", "ios": "https://dc.lft.to/lastmile_qr_scan"}, "lat": 38.9203915, "is_disabled": 0, "lon": -77.03638583333333}, {"fusion_lat": 0.0, "type": "electric_scooter", "name": "fa5bb096475df10e2055ecf799610260", "fusion_lon": 0.0, "bike_id": "fa5bb096475df10e2055ecf799610260", "is_reserved": 0, "rental_uris": {"android": "https://dc.lft.to/lastmile_qr_scan", "ios": "https://dc.lft.to/lastmile_qr_scan"}, "lat": 38.898512, "is_disabled": 0, "lon": -76.99032516666666}, {"fusion_lat": 0.0, "type": "electric_scooter", "name": "efebff4eb8f4973eb1cd2d68beb7c2dc", "fusion_lon": 0.0, "bike_id": "efebff4eb8f4973eb1cd2d68beb7c2dc", "is_reserved": 0, "rental_uris": {"android": "https://dc.lft.to/lastmile_qr_scan", "ios": "https://dc.lft.to/lastmile_qr_scan"}, "lat": 38.91989, "is_disabled": 0, "lon": -77.02400033333333}, {"fusion_lat": 0.0, "type": "electric_scooter", "name": "f8917e28320dbeefcd501a09ab9af94f", "fusion_lon": 0.0, "bike_id": "f8917e28320dbeefcd501a09ab9af94f", "is_reserved": 0, "rental_uris": {"android": "https://dc.lft.to/lastmile_qr_scan", "ios": "https://dc.lft.to/lastmile_qr_scan"}, "lat": 38.906270166666665, "is_disabled": 0, "lon": -77.05139633333333}, {"fusion_lat": 0.0, "type": "electric_scooter", "name": "64fd9adacf39997e27f5f04e7c8cb744", "fusion_lon": 0.0, "bike_id": "64fd9adacf39997e27f5f04e7c8cb744", "is_reserved": 0, "rental_uris": {"android": "https://dc.lft.to/lastmile_qr_scan", "ios": "https://dc.lft.to/lastmile_qr_scan"}, "lat": 38.907322666666666, "is_disabled": 0, "lon": -77.0319375}, {"fusion_lat": 0.0, "type": "electric_scooter", "name": "91338c63c0c23191d693d64d76db5755", "fusion_lon": 0.0, "bike_id": "91338c63c0c23191d693d64d76db5755", "is_reserved": 0, "rental_uris": {"android": "https://dc.lft.to/lastmile_qr_scan", "ios": "https://dc.lft.to/lastmile_qr_scan"}, "lat": 38.9074205, "is_disabled": 0, "lon": -77.0420415}, {"fusion_lat": 0.0, "type": "electric_scooter", "name": "b4466d8c8a91b65fd83c3319b5dd1031", "fusion_lon": 0.0, "bike_id": "b4466d8c8a91b65fd83c3319b5dd1031", "is_reserved": 0, "rental_uris": {"android": "https://dc.lft.to/lastmile_qr_scan", "ios": "https://dc.lft.to/lastmile_qr_scan"}, "lat": 38.915954, "is_disabled": 0, "lon": -77.03514533333333}, {"fusion_lat": 0.0, "type": "electric_scooter", "name": "b629dd864c9b81c0004e20ceea68dc50", "fusion_lon": 0.0, "bike_id": "b629dd864c9b81c0004e20ceea68dc50", "is_reserved": 0, "rental_uris": {"android": "https://dc.lft.to/lastmile_qr_scan", "ios": "https://dc.lft.to/lastmile_qr_scan"}, "lat": 38.91110533333333, "is_disabled": 0, "lon": -77.01903616666667}, {"fusion_lat": 0.0, "type": "electric_bike", "name": "24ba1627ac87d32c6852ba733503907d", "fusion_lon": 0.0, "bike_id": "24ba1627ac87d32c6852ba733503907d", "is_reserved": 0, "rental_uris": {"android": "https://dc.lft.to/lastmile_qr_scan", "ios": "https://dc.lft.to/lastmile_qr_scan"}, "lat": 38.9480465, "is_disabled": 0, "lon": -76.9597295}, {"fusion_lat": 0.0, "type": "electric_scooter", "name": "c27df2b3eba1140390986ffa9cfc5ac6", "fusion_lon": 0.0, "bike_id": "c27df2b3eba1140390986ffa9cfc5ac6", "is_reserved": 0, "rental_uris": {"android": "https://dc.lft.to/lastmile_qr_scan", "ios": "https://dc.lft.to/lastmile_qr_scan"}, "lat": 38.90074116666667, "is_disabled": 0, "lon": -77.04536383333334}, {"fusion_lat": 0.0, "type": "electric_bike", "name": "2893e6cc9913c5e2777cf23eddd2ba10", "fusion_lon": 0.0, "bike_id": "2893e6cc9913c5e2777cf23eddd2ba10", "is_reserved": 0, "rental_uris": {"android": "https://dc.lft.to/lastmile_qr_scan", "ios": "https://dc.lft.to/lastmile_qr_scan"}, "lat": 38.906939666666666, "is_disabled": 0, "lon": -76.95248483333333}, {"fusion_lat": 0.0, "type": "electric_scooter", "name": "8b074958afb00fbe75c63997a6c841bb", "fusion_lon": 0.0, "bike_id": "8b074958afb00fbe75c63997a6c841bb", "is_reserved": 0, "rental_uris": {"android": "https://dc.lft.to/lastmile_qr_scan", "ios": "https://dc.lft.to/lastmile_qr_scan"}, "lat": 38.895757333333336, "is_disabled": 0, "lon": -77.015879}, {"fusion_lat": 0.0, "type": "electric_scooter", "name": "942413539eb9dcd89a8114d132634c73", "fusion_lon": 0.0, "bike_id": "942413539eb9dcd89a8114d132634c73", "is_reserved": 0, "rental_uris": {"android": "https://dc.lft.to/lastmile_qr_scan", "ios": "https://dc.lft.to/lastmile_qr_scan"}, "lat": 38.92357166666667, "is_disabled": 0, "lon": -77.05281133333334}, {"fusion_lat": 0.0, "type": "electric_bike", "name": "8ff1699bbbc7cff9a59c1dff406dc4f7", "fusion_lon": 0.0, "bike_id": "8ff1699bbbc7cff9a59c1dff406dc4f7", "is_reserved": 0, "rental_uris": {"android": "https://dc.lft.to/lastmile_qr_scan", "ios": "https://dc.lft.to/lastmile_qr_scan"}, "lat": 38.94601733333333, "is_disabled": 0, "lon": -77.0071365}, {"fusion_lat": 0.0, "type": "electric_scooter", "name": "a813dfca349e8d4bbb299ab95eac1542", "fusion_lon": 0.0, "bike_id": "a813dfca349e8d4bbb299ab95eac1542", "is_reserved": 0, "rental_uris": {"android": "https://dc.lft.to/lastmile_qr_scan", "ios": "https://dc.lft.to/lastmile_qr_scan"}, "lat": 38.92050416666667, "is_disabled": 0, "lon": -77.03470916666667}, {"fusion_lat": 0.0, "type": "electric_scooter", "name": "fe84f2fbdb4a08158fdf46e4fd3b3360", "fusion_lon": 0.0, "bike_id": "fe84f2fbdb4a08158fdf46e4fd3b3360", "is_reserved": 0, "rental_uris": {"android": "https://dc.lft.to/lastmile_qr_scan", "ios": "https://dc.lft.to/lastmile_qr_scan"}, "lat": 38.88620016666667, "is_disabled": 0, "lon": -76.95578433333333}, {"fusion_lat": 0.0, "type": "electric_scooter", "name": "2756939405f8eff7f8dd887c2e0ea54f", "fusion_lon": 0.0, "bike_id": "2756939405f8eff7f8dd887c2e0ea54f", "is_reserved": 0, "rental_uris": {"android": "https://dc.lft.to/lastmile_qr_scan", "ios": "https://dc.lft.to/lastmile_qr_scan"}, "lat": 38.90801066666667, "is_disabled": 0, "lon": -77.04178716666667}, {"fusion_lat": 0.0, "type": "electric_scooter", "name": "11b46b82d2e2941d9103500f5bce2209", "fusion_lon": 0.0, "bike_id": "11b46b82d2e2941d9103500f5bce2209", "is_reserved": 0, "rental_uris": {"android": "https://dc.lft.to/lastmile_qr_scan", "ios": "https://dc.lft.to/lastmile_qr_scan"}, "lat": 38.9005865, "is_disabled": 0, "lon": -77.012974}, {"fusion_lat": 0.0, "type": "electric_bike", "name": "b1ec5f421d98f4af9327647a8b8dd68a", "fusion_lon": 0.0, "bike_id": "b1ec5f421d98f4af9327647a8b8dd68a", "is_reserved": 0, "rental_uris": {"android": "https://dc.lft.to/lastmile_qr_scan", "ios": "https://dc.lft.to/lastmile_qr_scan"}, "lat": 38.86198916666667, "is_disabled": 0, "lon": -76.948125}, {"fusion_lat": 0.0, "type": "electric_scooter", "name": "34a5cd0d6f804462e320e536a8022d56", "fusion_lon": 0.0, "bike_id": "34a5cd0d6f804462e320e536a8022d56", "is_reserved": 0, "rental_uris": {"android": "https://dc.lft.to/lastmile_qr_scan", "ios": "https://dc.lft.to/lastmile_qr_scan"}, "lat": 38.8748475, "is_disabled": 0, "lon": -77.00656383333333}, {"fusion_lat": 0.0, "type": "electric_scooter", "name": "c0574a42871951bfb60e20ac4249e18b", "fusion_lon": 0.0, "bike_id": "c0574a42871951bfb60e20ac4249e18b", "is_reserved": 0, "rental_uris": {"android": "https://dc.lft.to/lastmile_qr_scan", "ios": "https://dc.lft.to/lastmile_qr_scan"}, "lat": 38.888361833333335, "is_disabled": 0, "lon": -77.0484485}, {"fusion_lat": 0.0, "type": "electric_scooter", "name": "b6abddb5a6585d0aee05021697de9bac", "fusion_lon": 0.0, "bike_id": "b6abddb5a6585d0aee05021697de9bac", "is_reserved": 0, "rental_uris": {"android": "https://dc.lft.to/lastmile_qr_scan", "ios": "https://dc.lft.to/lastmile_qr_scan"}, "lat": 38.89603016666667, "is_disabled": 0, "lon": -77.00924466666666}, {"fusion_lat": 0.0, "type": "electric_scooter", "name": "572e38dedc81697d23612a4135319586", "fusion_lon": 0.0, "bike_id": "572e38dedc81697d23612a4135319586", "is_reserved": 0, "rental_uris": {"android": "https://dc.lft.to/lastmile_qr_scan", "ios": "https://dc.lft.to/lastmile_qr_scan"}, "lat": 38.8774505, "is_disabled": 0, "lon": -77.00702316666667}, {"fusion_lat": 0.0, "type": "electric_scooter", "name": "f48b89e856d729b3b10de328d79651cb", "fusion_lon": 0.0, "bike_id": "f48b89e856d729b3b10de328d79651cb", "is_reserved": 0, "rental_uris": {"android": "https://dc.lft.to/lastmile_qr_scan", "ios": "https://dc.lft.to/lastmile_qr_scan"}, "lat": 38.90142316666667, "is_disabled": 0, "lon": -77.016331}, {"fusion_lat": 0.0, "type": "electric_scooter", "name": "56c9cde3d119cd4dc7a533d98191a035", "fusion_lon": 0.0, "bike_id": "56c9cde3d119cd4dc7a533d98191a035", "is_reserved": 0, "rental_uris": {"android": "https://dc.lft.to/lastmile_qr_scan", "ios": "https://dc.lft.to/lastmile_qr_scan"}, "lat": 38.90152716666667, "is_disabled": 0, "lon": -77.03278283333333}, {"fusion_lat": 0.0, "type": "electric_bike", "name": "000db587cd99851111e7e94baa16a7ec", "fusion_lon": 0.0, "bike_id": "000db587cd99851111e7e94baa16a7ec", "is_reserved": 0, "rental_uris": {"android": "https://dc.lft.to/lastmile_qr_scan", "ios": "https://dc.lft.to/lastmile_qr_scan"}, "lat": 38.807555, "is_disabled": 0, "lon": -77.09456383333334}, {"fusion_lat": 0.0, "type": "electric_scooter", "name": "ea9ff69ad6e684d7e8be312700ccb636", "fusion_lon": 0.0, "bike_id": "ea9ff69ad6e684d7e8be312700ccb636", "is_reserved": 0, "rental_uris": {"android": "https://dc.lft.to/lastmile_qr_scan", "ios": "https://dc.lft.to/lastmile_qr_scan"}, "lat": 38.8979355, "is_disabled": 0, "lon": -77.049932}, {"fusion_lat": 0.0, "type": "electric_scooter", "name": "fb5885037ce3617e08dc5bee23ca58d7", "fusion_lon": 0.0, "bike_id": "fb5885037ce3617e08dc5bee23ca58d7", "is_reserved": 0, "rental_uris": {"android": "https://dc.lft.to/lastmile_qr_scan", "ios": "https://dc.lft.to/lastmile_qr_scan"}, "lat": 38.86700883333334, "is_disabled": 0, "lon": -76.9859305},