{"data": {"bikes": [{"lat": 38.93063816666667, "is_disabled": 0, "type": "electric_scooter", "lon": -77.0315695, "bike_id": "3545505709e0a2c263836e0b9432e68f", "fusion_lat": 0.0, "name": "3545505709e0a2c263836e0b9432e68f", "is_reserved": 0, "rental_uris": {"android": "https://dc.lft.to/lastmile_qr_scan", "ios": "https://dc.lft.to/lastmile_qr_scan"}, "fusion_lon": 0.0}, {"lat": 38.90620716666667, "is_disabled": 0, "type": "electric_scooter", "lon": -76.98979533333333, "bike_id": "fb3c64287c13b77d4573d955123575e2", "fusion_lat": 0.0, "name": "fb3c64287c13b77d4573d955123575e2", "is_reserved": 0, "rental_uris": {"android": "https://dc.lft.to/lastmile_qr_scan", "ios": "https://dc.lft.to/lastmile_qr_scan"}, "fusion_lon": 0.0}, {"lat": 38.859145, "is_disabled": 0, "type": "electric_scooter", "lon": -76.99139966666667, "bike_id": "118829b1c547232e936be5a3f66664c5", "fusion_lat": 0.0, "name": "118829b1c547232e936be5a3f66664c5", "is_reserved": 0, "rental_uris": {"android": "https://dc.lft.to/lastmile_qr_scan", "ios": "https://dc.lft.to/lastmile_qr_scan"}, "fusion_lon": 0.0}, {"lat": 38.899067333333335, "is_disabled": 0, "type": "electric_scooter", "lon": -76.933544, "bike_id": "cca788f4cfe83bd9533527e544557799", "fusion_lat": 0.0, "name": "cca788f4cfe83bd9533527e544557799", "is_reserved": 0, "rental_uris": {"android": "https://dc.lft.to/lastmile_qr_scan", "ios": "https://dc.lft.to/lastmile_qr_scan"}, "fusion_lon": 0.0}, {"lat": 38.934062833333336, "is_disabled": 0, "type": "electric_scooter", "lon": -77.032623, "bike_id": "db080d7c85abb53ee027e346aa43f01a", "fusion_lat": 0.0, "name": "db080d7c85abb53ee027e346aa43f01a", "is_reserved": 0, "rental_uris": {"android": "https://dc.lft.to/lastmile_qr_scan", "ios": "https://dc.lft.to/lastmile_qr_scan"}, "fusion_lon": 0.0}, {"lat": 38.91515666666667, "is_disabled": 0, "type": "electric_scooter", "lon": -77.03845833333334, "bike_id": "5ef13b8efdc357852d77173b15583228", "fusion_lat": 0.0, "name": "5ef13b8efdc357852d77173b15583228", "is_reserved": 0, "rental_uris": {"android": "https://dc.lft.to/lastmile_qr_scan", "ios": "https://dc.lft.to/lastmile_qr_scan"}, "fusion_lon": 0.0}, {"lat": 38.934792333333334, "is_disabled": 0, "type": "electric_scooter", "lon": -77.07268216666667, "bike_id": "498747fcc29fc345c47aeab6238adfae", "fusion_lat": 0.0, "name": "498747fcc29fc345c47aeab6238adfae", "is_reserved": 0, "rental_uris": {"android": "https://dc.lft.to/lastmile_qr_scan", "ios": "https://dc.lft.to/lastmile_qr_scan"}, "fusion_lon": 0.0}, {"lat": 38.908625, "is_disabled": 0, "type": "electric_scooter", "lon": -77.08595166666667, "bike_id": "f62a0b279f8612b6df7c767eee258c14", "fusion_lat": 0.0, "name": "f62a0b279f8612b6df7c767eee258c14", "is_reserved": 0, "rental_uris": {"android": "https://dc.lft.to/lastmile_qr_scan", "ios": "https://dc.lft.to/lastmile_qr_scan"}, "fusion_lon": 0.0}, {"lat": 38.9362825, "is_disabled": 0, "type": "electric_scooter", "lon": -77.05876916666666, "bike_id": "9694664c811bdca330a6adee07482b12", "fusion_lat": 0.0, "name": "9694664c811bdca330a6adee07482b12", "is_reserved": 0, "rental_uris": {"android": "https://dc.lft.to/lastmile_qr_scan", "ios": "https://dc.lft.to/lastmile_qr_scan"}, "fusion_lon": 0.0}, {"lat": 38.913450166666664, "is_disabled": 0, "type": "electric_scooter", "lon": -77.0318585, "bike_id": "4170587905157d8ecd31faf0ac83db6d", "fusion_lat": 0.0, "name": "4170587905157d8ecd31faf0ac83db6d", "is_reserved": 0, "rental_uris": {"android": "https://dc.lft.to/lastmile_qr_scan", "ios": "https://dc.lft.to/lastmile_qr_scan"}, "fusion_lon": 0.0}, {"lat": 38.90894466666666, "is_disabled": 0, "type": "electric_scooter", "lon": -76.99915416666667, "bike_id": "97ea2633621e47d50a476f83c9ae3fb1", "fusion_lat": 0.0, "name": "97ea2633621e47d50a476f83c9ae3fb1", "is_reserved": 0, "rental_uris": {"android": "https://dc.lft.to/lastmile_qr_scan", "ios": "https://dc.lft.to/lastmile_qr_scan"}, "fusion_lon": 0.0}, {"lat": 38.90964866666667, "is_disabled": 0, "type": "electric_scooter", "lon": -77.03211333333333, "bike_id": "da60506fa2a8c880c1ac146ea7a13064", "fusion_lat": 0.0, "name": "da60506fa2a8c880c1ac146ea7a13064", "is_reserved": 0, "rental_uris": {"android": "https://dc.lft.to/lastmile_qr_scan", "ios": "https://dc.lft.to/lastmile_qr_scan"}, "fusion_lon": 0.0}, {"lat": 38.891153333333335, "is_disabled": 0, "type": "electric_scooter", "lon": -76.94380666666666, "bike_id": "08e890dae851e712b3dd254a33bf7e7f", "fusion_lat": 0.0, "name": "08e890dae851e712b3dd254a33bf7e7f", "is_reserved": 0, "rental_uris": {"android": "https://dc.lft.to/lastmile_qr_scan", "ios": "https://dc.lft.to/lastmile_qr_scan"}, "fusion_lon": 0.0}, {"lat": 38.916971333333336, "is_disabled": 0, "type": "electric_scooter", "lon": -77.00813666666667, "bike_id": "4ebad876a132d1aa8f27f50c17528d69", "fusion_lat": 0.0, "name": "4ebad876a132d1aa8f27f50c17528d69", "is_reserved": 0, "rental_uris": {"android": "https://dc.lft.to/lastmile_qr_scan", "ios": "https://dc.lft.to/lastmile_qr_scan"}, "fusion_lon": 0.0}, {"lat": 38.932095, "is_disabled": 0, "type": "electric_scooter", "lon": -77.03654433333334, "bike_id": "ba9cd2dca8c427b5cea3fd8c64804c9c", "fusion_lat": 0.0, "name": "ba9cd2dca8c427b5cea3fd8c64804c9c", "is_reserved": 0, "rental_uris": {"android": "https://dc.lft.to/lastmile_qr_scan", "ios": "https://dc.lft.to/lastmile_qr_scan"}, "fusion_lon": 0.0}, {"lat": 38.930608, "is_disabled": 0, "type": "electric_scooter", "lon": -77.04188316666666, "bike_id": "a7cc73a9cacb15735c4fac112249fcd1", "fusion_lat": 0.0, "name": "a7cc73a9cacb15735c4fac112249fcd1", "is_reserved": 0, "rental_uris": {"android": "https://dc.lft.to/lastmile_qr_scan", "ios": "https://dc.lft.to/lastmile_qr_scan"}, "fusion_lon": 0.0}, {"lat": 38.907750166666666, "is_disabled": 0, "type": "electric_scooter", "lon": -77.06805666666666, "bike_id": "3f429875ea26e9fb99f58df6bde95e20", "fusion_lat": 0.0, "name": "3f429875ea26e9fb99f58df6bde95e20", "is_reserved": 0, "rental_uris": {"android": "https://dc.lft.to/lastmile_qr_scan", "ios": "https://dc.lft.to/lastmile_qr_scan"}, "fusion_lon": 0.0}, {"lat": 38.90087583333333, "is_disabled": 0, "type": "electric_scooter", "lon": -77.04988816666666, "bike_id": "9e8feb45b9493e7cd5f424448aa4a3b7", "fusion_lat": 0.0, "name": "9e8feb45b9493e7cd5f424448aa4a3b7", "is_reserved": 0, "rental_uris": {"android": "https://dc.lft.to/lastmile_qr_scan", "ios": "https://dc.lft.to/lastmile_qr_scan"}, "fusion_lon": 0.0}, {"lat": 38.9126445, "is_disabled": 0, "type": "electric_scooter", "lon": -77.00278033333333, "bike_id": "4caf026bce229edae1eb4caa33ce0daf", "fusion_lat": 0.0, "name": "4caf026bce229edae1eb4caa33ce0daf", "is_reserved": 0, "rental_uris": {"android": "https://dc.lft.to/lastmile_qr_scan", "ios": "https://dc.lft.to/lastmile_qr_scan"}, "fusion_lon": 0.0}, {"lat": 38.9133825, "is_disabled": 0, "type": "electric_scooter", "lon": -77.00223283333334, "bike_id": "c817abf24a53f54ef4888a1a778a4f4c", "fusion_lat": 0.0, "name": "c817abf24a53f54ef4888a1a778a4f4c", "is_reserved": 0, "rental_uris": {"android": "https://dc.lft.to/lastmile_qr_scan", "ios": "https://dc.lft.to/lastmile_qr_scan"}, "fusion_lon": 0.0}, {"lat": 38.8833935, "is_disabled": 0, "type": "electric_scooter", "lon": -77.031511, "bike_id": "fc2fe79214700aebeee05682ffb2cefa", "fusion_lat": 0.0, "name": "fc2fe79214700aebeee05682ffb2cefa", "is_reserved": 0, "rental_uris": {"android": "https://dc.lft.to/lastmile_qr_scan", "ios": "https://dc.lft.to/lastmile_qr_scan"}, "fusion_lon": 0.0}, {"lat": 38.92339116666667, "is_disabled": 0, "type": "electric_scooter", "lon": -77.01903516666667, "bike_id": "058b1ab2111f7e9046c78714e3f1e747", "fusion_lat": 0.0, "name": "058b1ab2111f7e9046c78714e3f1e747", "is_reserved": 0, "rental_uris": {"android": "https://dc.lft.to/lastmile_qr_scan", "ios": "https://dc.lft.to/lastmile_qr_scan"}, "fusion_lon": 0.0}, {"lat": 38.90030016666667, "is_disabled": 0, "type": "electric_scooter", "lon": -76.9874075, "bike_id": "fc276c43cfe5764f6371ee5800b1d3c6", "fusion_lat": 0.0, "name": "fc276c43cfe5764f6371ee5800b1d3c6", "is_reserved": 0, "rental_uris": {"android": "https://dc.lft.to/lastmile_qr_scan", "ios": "https://dc.lft.to/lastmile_qr_scan"}, "fusion_lon": 0.0}, {"lat": 38.9111535, "is_disabled": 0, "type": "electric_scooter", "lon": -77.002455, "bike_id": "40c9ddc49c9e17e4f43573b050d3e839", "fusion_lat": 0.0, "name": "40c9ddc49c9e17e4f43573b050d3e839", "is_reserved": 0, "rental_uris": {"android": "https://dc.lft.to/lastmile_qr_scan", "ios": "https://dc.lft.to/lastmile_qr_scan"}, "fusion_lon": 0.0}, {"lat": 38.86106066666667, "is_disabled": 0, "type": "electric_scooter", "lon": -76.98362533333334, "bike_id": "1f460a8ef9354974d9bffadd4fd89f61", "fusion_lat": 0.0, "name": "1f460a8ef9354974d9bffadd4fd89f61", "is_reserved": 0, "rental_uris": {"android": "https://dc.lft.to/lastmile_qr_scan", "ios": "https://dc.lft.to/lastmile_qr_scan"}, "fusion_lon": 0.0}, {"lat": 38.897321, "is_disabled": 0, "type": "electric_scooter", "lon": -77.05524733333333, "bike_id": "8ff112487ab6f04c35b5b4299c4dcbc7", "fusion_lat": 0.0, "name": "8ff112487ab6f04c35b5b4299c4dcbc7", "is_reserved": 0, "rental_uris": {"android": "https://dc.lft.to/lastmile_qr_scan", "ios": "https://dc.lft.to/lastmile_qr_scan"}, "fusion_lon": 0.0}, {"lat": 38.91013133333333, "is_disabled": 0, "type": "electric_scooter", "lon": -76.99387833333333, "bike_id": "ed496d68c03522460ef29126986774ef", "fusion_lat": 0.0, "name": "ed496d68c03522460ef29126986774ef", "is_reserved": 0, "rental_uris": {"android": "https://dc.lft.to/lastmile_qr_scan", "ios": "https://dc.lft.to/lastmile_qr_scan"}, "fusion_lon": 0.0}, {"lat": 38.931138, "is_disabled": 0, "type": "electric_scooter", "lon": -77.03805566666666, "bike_id": "faed5b078b5c48313d25be4acb4944c2", "fusion_lat": 0.0, "name": "faed5b078b5c48313d25be4acb4944c2", "is_reserved": 0, "rental_uris": {"android": "https://dc.lft.to/lastmile_qr_scan", "ios": "https://dc.lft.to/lastmile_qr_scan"}, "fusion_lon": 0.0}, {"lat": 38.90358333333333, "is_disabled": 0, "type": "electric_scooter", "lon": -77.03848016666667, "bike_id": "fed5be61e9caaa35979d44bbd4cec621", "fusion_lat": 0.0, "name": "fed5be61e9caaa35979d44bbd4cec621", "is_reserved": 0, "rental_uris": {"android": "https://dc.lft.to/lastmile_qr_scan", "ios": "https://dc.lft.to/lastmile_qr_scan"}, "fusion_lon": 0.0}, {"lat": 38.923759, "is_disabled": 0, "type": "electric_scooter", "lon": -77.0312775, "bike_id": "e305cf54b02c5ba35c1945b31888365b", "fusion_lat": 0.0, "name": "e305cf54b02c5ba35c1945b31888365b", "is_reserved": 0, "rental_uris": {"android": "https://dc.lft.to/lastmile_qr_scan", "ios": "https://dc.lft.to/lastmile_qr_scan"}, "fusion_lon": 0.0}, {"lat": 38.9303425, "is_disabled": 0, "type": "electric_bike", "lon": -77.08288616666667, "bike_id": "531f39b51c217bcf960b7c014da075de", "fusion_lat": 0.0, "name": "531f39b51c217bcf960b7c014da075de", "is_reserved": 0, "rental_uris": {"android": "https://dc.lft.to/lastmile_qr_scan", "ios": "https://dc.lft.to/lastmile_qr_scan"}, "fusion_lon": 0.0}, {"lat": 38.938588, "is_disabled": 0, "type": "electric_scooter", "lon": -77.02562833333333, "bike_id": "9d3bb5cb52dcbc9cb2828470ea8df550", "fusion_lat": 0.0, "name": "9d3bb5cb52dcbc9cb2828470ea8df550", "is_reserved": 0, "rental_uris": {"android": "https://dc.lft.to/lastmile_qr_scan", "ios": "https://dc.lft.to/lastmile_qr_scan"}, "fusion_lon": 0.0}, {"lat": 38.90199, "is_disabled": 0, "type": "electric_scooter", "lon": -77.02370466666666, "bike_id": "f75428e44e2a73ab7ba62bba1e56f087", "fusion_lat": 0.0, "name": "f75428e44e2a73ab7ba62bba1e56f087", "is_reserved": 0, "rental_uris": {"android": "https://dc.lft.to/lastmile_qr_scan", "ios": "https://dc.lft.to/lastmile_qr_scan"}, "fusion_lon": 0.0}, {"lat": 38.907359166666666, "is_disabled": 0, "type": "electric_scooter", "lon": -77.029854, "bike_id": "3a31cf2b64217aa503d1b5b45d3ca0fb", "fusion_lat": 0.0, "name": "3a31cf2b64217aa503d1b5b45d3ca0fb", "is_reserved": 0, "rental_uris": {"android": "https://dc.lft.to/lastmile_qr_scan", "ios": "https://dc.lft.to/lastmile_qr_scan"}, "fusion_lon": 0.0}, {"lat": 38.8714845, "is_disabled": 0, "type": "electric_bike", "lon": -76.93668483333333, "bike_id": "4b35cd6dda5da25f41e794c4a74533e7", "fusion_lat": 0.0, "name": "4b35cd6dda5da25f41e794c4a74533e7", "is_reserved": 0, "rental_uris": {"android": "https://dc.lft.to/lastmile_qr_scan", "ios": "https://dc.lft.to/lastmile_qr_scan"}, "fusion_lon": 0.0}, {"lat": 38.8831405, "is_disabled": 0, "type": "electric_scooter", "lon": -77.009392, "bike_id": "abbf170977fa7b4c5f9b7bd04d51f3c2", "fusion_lat": 0.0, "name": "abbf170977fa7b4c5f9b7bd04d51f3c2", "is_reserved": 0, "rental_uris": {"android": "https://dc.lft.to/lastmile_qr_scan", "ios": "https://dc.lft.to/lastmile_qr_scan"}, "fusion_lon": 0.0}, {"lat": 38.96623066666667, "is_disabled": 0, "type": "electric_bike", "lon": -76.97665366666666, "bike_id": "33fe9eb6e2f74836bcc423e3f23e529c", "fusion_lat": 0.0, "name": "33fe9eb6e2f74836bcc423e3f23e529c", "is_reserved": 0, "rental_uris": {"android": "https://dc.lft.to/lastmile_qr_scan", "ios": "https://dc.lft.to/lastmile_qr_scan"}, "fusion_lon": 0.0}, {"lat": 38.9126065, "is_disabled": 0, "type": "electric_scooter", "lon": -77.038716, "bike_id": "c2bba5e60503e8d29e23b53528061d8c", "fusion_lat": 0.0, "name": "c2bba5e60503e8d29e23b53528061d8c", "is_reserved": 0, "rental_uris": {"android": "https://dc.lft.to/lastmile_qr_scan", "ios": "https://dc.lft.to/lastmile_qr_scan"}, "fusion_lon": 0.0}, {"lat": 38.90697183333333, "is_disabled": 0, "type": "electric_scooter", "lon": -77.04376216666667, "bike_id": "94e87f08700b03bb6e6a3bc8c09f9de6", "fusion_lat": 0.0, "name": "94e87f08700b03bb6e6a3bc8c09f9de6", "is_reserved": 0, "rental_uris": {"android": "https://dc.lft.to/lastmile_qr_scan", "ios": "https://dc.lft.to/lastmile_qr_scan"}, "fusion_lon": 0.0}, {"lat": 38.95077166666667, "is_disabled": 0, "type": "electric_bike", "lon": -77.011985, "bike_id": "084a88309df77923121b6e73e6eeb756", "fusion_lat": 0.0, "name": "084a88309df77923121b6e73e6eeb756", "is_reserved": 0, "rental_uris": {"android": "https://dc.lft.to/lastmile_qr_scan", "ios": "https://dc.lft.to/lastmile_qr_scan"}, "fusion_lon": 0.0}, {"lat": 38.90275066666667, "is_disabled": 0, "type": "electric_scooter", "lon": -77.020965, "bike_id": "cbeeebb2e7a8764ba4df56c4ddfc82dc", "fusion_lat": 0.0, "name": "cbeeebb2e7a8764ba4df56c4ddfc82dc", "is_reserved": 0, "rental_uris": {"android": "https://dc.lft.to/lastmile_qr_scan", "ios": "https://dc.lft.to/lastmile_qr_scan"}, "fusion_lon": 0.0}, {"lat": 38.91977883333333, "is_disabled": 0, "type": "electric_scooter", "lon": -77.01217633333333, "bike_id": "cb88f0476696d1c91005fc1af697dca8", "fusion_lat": 0.0, "name": "cb88f0476696d1c91005fc1af697dca8", "is_reserved": 0, "rental_uris": {"android": "https://dc.lft.to/lastmile_qr_scan", "ios": "https://dc.lft.to/lastmile_qr_scan"}, "fusion_lon": 0.0}, {"lat": 38.92356316666667, "is_disabled": 0, "type": "electric_scooter", "lon": -77.05093533333333, "bike_id": "c1fb059fb35370d87ef1dd7e2d0e8d57", "fusion_lat": 0.0, "name": "c1fb059fb35370d87ef1dd7e2d0e8d57", "is_reserved": 0, "rental_uris": {"android": "https://dc.lft.to/lastmile_qr_scan", "ios": "https://dc.lft.to/lastmile_qr_scan"}, "fusion_lon": 0.0}, {"lat": 38.952173, "is_disabled": 0, "type": "electric_scooter", "lon": -77.06890416666667, "bike_id": "883a5d73b37c5ce9c1800b65618c36aa", "fusion_lat": 0.0, "name": "883a5d73b37c5ce9c1800b65618c36aa", "is_reserved": 0, "rental_uris": {"android": "https://dc.lft.to/lastmile_qr_scan", "ios": "https://dc.lft.to/lastmile_qr_scan"}, "fusion_lon": 0.0}, {"lat": 38.931731166666665, "is_disabled": 0, "type": "electric_scooter", "lon": -77.0281465, "bike_id": "e35bb14ce4d2a84f2d5b4099f491c8b0", "fusion_lat": 0.0, "name": "e35bb14ce4d2a84f2d5b4099f491c8b0", "is_reserved": 0, "rental_uris": {"android": "https://dc.lft.to/lastmile_qr_scan", "ios": "https://dc.lft.to/lastmile_qr_scan"}, "fusion_lon": 0.0}, {"lat": 38.9340685, "is_disabled": 0, "type": "electric_scooter", "lon": -77.0203695, "bike_id": "151579a814221ecda379ac69c5b6deae", "fusion_lat": 0.0, "name": "151579a814221ecda379ac69c5b6deae", "is_reserved": 0, "rental_uris": {"android": "https://dc.lft.to/lastmile_qr_scan", "ios": "https://dc.lft.to/lastmile_qr_scan"}, "fusion_lon": 0.0}, {"lat": 38.908142833333336, "is_disabled": 0, "type": "electric_scooter", "lon": -76.997095, "bike_id": "e8375f04d5369fcaa08d57262b333e54", "fusion_lat": 0.0, "name": "e8375f04d5369fcaa08d57262b333e54", "is_reserved": 0, "rental_uris": {"android": "https://dc.lft.to/lastmile_qr_scan", "ios": "https://dc.lft.to/lastmile_qr_scan"}, "fusion_lon": 0.0}, {"lat": 38.90524216666667, "is_disabled": 0, "type": "electric_scooter", "lon": -77.0645165, "bike_id": "497c79fbf17b08b7c7c1fbf65541101a", "fusion_lat": 0.0, "name": "497c79fbf17b08b7c7c1fbf65541101a", "is_reserved": 0, "rental_uris": {"android": "https://dc.lft.to/lastmile_qr_scan", "ios": "https://dc.lft.to/lastmile_qr_scan"}, "fusion_lon": 0.0}, {"lat": 38.90008016666667, "is_disabled": 0, "type": "electric_scooter", "lon": -77.0060915, "bike_id": "7a681f82e084b53ae17f317c09b28d03", "fusion_lat": 0.0, "name": "7a681f82e084b53ae17f317c09b28d03", "is_reserved": 0, "rental_uris": {"android": "https://dc.lft.to/lastmile_qr_scan", "ios": "https://dc.lft.to/lastmile_qr_scan"}, "fusion_lon": 0.0}, {"lat": 38.92356933333333, "is_disabled": 0, "type": "electric_scooter", "lon": -77.0414715, "bike_id": "517ba8c6d847ee7c44183791ac0306bb", "fusion_lat": 0.0, "name": "517ba8c6d847ee7c44183791ac0306bb", "is_reserved": 0, "rental_uris": {"android": "https://dc.lft.to/lastmile_qr_scan", "ios": "https://dc.lft.to/lastmile_qr_scan"}, "fusion_lon": 0.0}, {"lat": 38.888834333333335, "is_disabled": 0, "type": "electric_scooter", "lon": -76.931542, "bike_id": "415defb69224389508160735aa19ba22", "fusion_lat": 0.0, "name": "415defb69224389508160735aa19ba22", "is_reserved": 0, "rental_uris": {"android": "https://dc.lft.to/lastmile_qr_scan", "ios": "https://dc.lft.to/lastmile_qr_scan"}, "fusion_lon": 0.0}, {"lat": 38.9225425, "is_disabled": 0, "type": "electric_scooter", "lon": -77.019705, "bike_id": "0e60117a5a8a79f8d662499139c21978", "fusion_lat": 0.0, "name": "0e60117a5a8a79f8d662499139c21978", "is_reserved": 0, "rental_uris": {"android": "https://dc.lft.to/lastmile_qr_scan", "ios": "https://dc.lft.to/lastmile_qr_scan"}, "fusion_lon": 0.0}, {"lat": 38.90554366666667, "is_disabled": 0, "type": "electric_scooter", "lon": -76.98375283333333, "bike_id": "e796470472284b61618d040e205fe311", "fusion_lat": 0.0, "name": "e796470472284b61618d040e205fe311", "is_reserved": 0, "rental_uris": {"android": "https://dc.lft.to/lastmile_qr_scan", "ios": "https://dc.lft.to/lastmile_qr_scan"}, "fusion_lon": 0.0}, {"lat": 38.93580816666667, "is_disabled": 0, "type": "electric_bike", "lon": -77.10682233333333, "bike_id": "db313ba3dc0fef2b4c17df6d4f361960", "fusion_lat": 0.0, "name": "db313ba3dc0fef2b4c17df6d4f361960", "is_reserved": 0, "rental_uris": {"android": "https://dc.lft.to/lastmile_qr_scan", "ios": "https://dc.lft.to/lastmile_qr_scan"}, "fusion_lon": 0.0}, {"lat": 38.9443075, "is_disabled": 0, "type": "electric_scooter", "lon": -77.063032, "bike_id": "2e4e468bb36a8b35d8ffb726d1ef7169", "fusion_lat": 0.0, "name": "2e4e468bb36a8b35d8ffb726d1ef7169", "is_reserved": 0, "rental_uris": {"android": "https://dc.lft.to/lastmile_qr_scan", "ios": "https://dc.lft.to/lastmile_qr_scan"}, "fusion_lon": 0.0}, {"lat": 38.90283766666667, "is_disabled": 0, "type": "electric_scooter", "lon": -76.97392583333334, "bike_id": "6c3c44731885991413a2d6c3541fded8", "fusion_lat": 0.0, "name": "6c3c44731885991413a2d6c3541fded8", "is_reserved": 0, "rental_uris": {"android": "https://dc.lft.to/lastmile_qr_scan", "ios": "https://dc.lft.to/lastmile_qr_scan"}, "fusion_lon": 0.0}, {"lat": 38.917116666666665, "is_disabled": 0, "type": "electric_scooter", "lon": -77.03123416666666, "bike_id": "6ec24bf93cdd47ee6a0182e07832a09a", "fusion_lat": 0.0, "name": "6ec24bf93cdd47ee6a0182e07832a09a", "is_reserved": 0, "rental_uris": {"android": "https://dc.lft.to/lastmile_qr_scan", "ios": "https://dc.lft.to/lastmile_qr_scan"}, "fusion_lon": 0.0}, {"lat": 38.90978033333333, "is_disabled": 0, "type": "electric_scooter", "lon": -77.0225835, "bike_id": "050c2e7d3eceb683a796fedd8b5f83f3", "fusion_lat": 0.0, "name": "050c2e7d3eceb683a796fedd8b5f83f3", "is_reserved": 0, "rental_uris": {"android": "https://dc.lft.to/lastmile_qr_scan", "ios": "https://dc.lft.to/lastmile_qr_scan"}, "fusion_lon": 0.0}, {"lat": 38.91180333333333, "is_disabled": 0, "type": "electric_scooter", "lon": -77.00650583333334, "bike_id": "0bda868d18634c381e210e5e9e2fb129", "fusion_lat": 0.0, "name": "0bda868d18634c381e210e5e9e2fb129", "is_reserved": 0, "rental_uris": {"android": "https://dc.lft.to/lastmile_qr_scan", "ios": "https://dc.lft.to/lastmile_qr_scan"}, "fusion_lon": 0.0}, {"lat": 38.870651, "is_disabled": 0, "type": "electric_scooter", "lon": -77.00838983333334, "bike_id": "35b5f57c5c1e8d32d08d16cc93f2981e", "fusion_lat": 0.0, "name": "35b5f57c5c1e8d32d08d16cc93f2981e", "is_reserved": 0, "rental_uris": {"android": "https://dc.lft.to/lastmile_qr_scan", "ios": "https://dc.lft.to/lastmile_qr_scan"}, "fusion_lon": 0.0}, {"lat": 38.918175833333336, "is_disabled": 0, "type": "electric_scooter", "lon": -77.01273766666667, "bike_id": "3b3ce30647ba60633cb02193261e35b2", "fusion_lat": 0.0, "name": "3b3ce30647ba60633cb02193261e35b2", "is_reserved": 0, "rental_uris": {"android": "https://dc.lft.to/lastmile_qr_scan", "ios": "https://dc.lft.to/lastmile_qr_scan"}, "fusion_lon": 0.0}, {"lat": 38.874758, "is_disabled": 0, "type": "electric_scooter", "lon": -77.00937766666667, "bike_id": "74a42a0cf008fbd60f45548a2fa80114", "fusion_lat": 0.0, "name": "74a42a0cf008fbd60f45548a2fa80114", "is_reserved": 0, "rental_uris": {"android": "https://dc.lft.to/lastmile_qr_scan", "ios": "https://dc.lft.to/lastmile_qr_scan"}, "fusion_lon": 0.0}, {"lat": 38.84430616666667, "is_disabled": 0, "type": "electric_scooter", "lon": -76.99780266666667, "bike_id": "a27aa2869a72b04b46181a7e9c5c2806", "fusion_lat": 0.0, "name": "a27aa2869a72b04b46181a7e9c5c2806", "is_reserved": 0, "rental_uris": {"android": "https://dc.lft.to/lastmile_qr_scan", "ios": "https://dc.lft.to/lastmile_qr_scan"}, "fusion_lon": 0.0}, {"lat": 38.91282266666666, "is_disabled": 0, "type": "electric_scooter", "lon": -77.02264766666667, "bike_id": "795270aa2947f84112ec231615465091", "fusion_lat": 0.0, "name": "795270aa2947f84112ec231615465091", "is_reserved": 0, "rental_uris": {"android": "https://dc.lft.to/lastmile_qr_scan", "ios": "https://dc.lft.to/lastmile_qr_scan"}, "fusion_lon": 0.0}, {"lat": 38.922431, "is_disabled": 0, "type": "electric_scooter", "lon": -77.03893983333333, "bike_id": "03fb64abbd3b39e4dd32b8514c0cb359", "fusion_lat": 0.0, "name": "03fb64abbd3b39e4dd32b8514c0cb359", "is_reserved": 0, "rental_uris": {"android": "https://dc.lft.to/lastmile_qr_scan", "ios": "https://dc.lft.to/lastmile_qr_scan"}, "fusion_lon": 0.0}, {"lat": 38.916842833333334, "is_disabled": 0, "type": "electric_scooter", "lon": -77.0294385, "bike_id": "84a471aa05e21ad8269be76684192378", "fusion_lat": 0.0, "name": "84a471aa05e21ad8269be76684192378", "is_reserved": 0, "rental_uris": {"android": "https://dc.lft.to/lastmile_qr_scan", "ios": "https://dc.lft.to/lastmile_qr_scan"}, "fusion_lon": 0.0}, {"lat": 38.90759583333333, "is_disabled": 0, "type": "electric_scooter", "lon": -77.02060916666667, "bike_id": "88c852f181d85360d72083d14d168d42", "fusion_lat": 0.0, "name": "88c852f181d85360d72083d14d168d42", "is_reserved": 0, "rental_uris": {"android": "https://dc.lft.to/lastmile_qr_scan", "ios": "https://dc.lft.to/lastmile_qr_scan"}, "fusion_lon": 0.0}, {"lat": 38.915462, "is_disabled": 0, "type": "electric_scooter", "lon": -77.03239433333333, "bike_id": "4c82789c23e41f9da9606bb387c32b43", "fusion_lat": 0.0, "name": "4c82789c23e41f9da9606bb387c32b43", "is_reserved": 0, "rental_uris": {"android": "https://dc.lft.to/lastmile_qr_scan", "ios": "https://dc.lft.to/lastmile_qr_scan"}, "fusion_lon": 0.0}, {"lat": 38.95328166666667, "is_disabled": 0, "type": "electric_bike", "lon": -76.9881935, "bike_id": "9dd17e987889e38069394566fc270db0", "fusion_lat": 0.0, "name": "9dd17e987889e38069394566fc270db0", "is_reserved": 0, "rental_uris": {"android": "https://dc.lft.to/lastmile_qr_scan", "ios": "https://dc.lft.to/lastmile_qr_scan"}, "fusion_lon": 0.0}, {"lat": 38.890945333333335, "is_disabled": 0, "type": "electric_scooter", "lon": -76.9868295, "bike_id": "dd888f1b55342ea74e56c2ea697abd2e", "fusion_lat": 0.0, "name": "dd888f1b55342ea74e56c2ea697abd2e", "is_reserved": 0, "rental_uris": {"android": "https://dc.lft.to/lastmile_qr_scan", "ios": "https://dc.lft.to/lastmile_qr_scan"}, "fusion_lon": 0.0}, {"lat": 38.906871833333334, "is_disabled": 0, "type": "electric_bike", "lon": -76.95198016666667, "bike_id": "8f56af5a426c0740ac5838d23a13c347", "fusion_lat": 0.0, "name": "8f56af5a426c0740ac5838d23a13c347", "is_reserved": 0, "rental_uris": {"android": "https://dc.lft.to/lastmile_qr_scan", "ios": "https://dc.lft.to/lastmile_qr_scan"}, "fusion_lon": 0.0}, {"lat": 38.8075395, "is_disabled": 0, "type": "electric_bike", "lon": -77.094544, "bike_id": "7613bac018cd331f47856728b16e6786", "fusion_lat": 0.0, "name": "7613bac018cd331f47856728b16e6786", "is_reserved": 0, "rental_uris": {"android": "https://dc.lft.to/lastmile_qr_scan", "ios": "https://dc.lft.to/lastmile_qr_scan"}, "fusion_lon": 0.0}, {"lat": 38.866170833333335, "is_disabled": 0, "type": "electric_scooter", "lon": -76.98650416666666, "bike_id": "85fc58cf2efdb047a15d741e984ccb97", "fusion_lat": 0.0, "name": "85fc58cf2efdb047a15d741e984ccb97", "is_reserved": 0, "rental_uris": {"android": "https://dc.lft.to/lastmile_qr_scan", "ios": "https://dc.lft.to/lastmile_qr_scan"}, "fusion_lon": 0.0}, {"lat": 38.909446833333334, "is_disabled": 0, "type": "electric_scooter", "lon": -77.0442285, "bike_id": "1747bd2269ba921e58c8466e9417e69d", "fusion_lat": 0.0, "name": "1747bd2269ba921e58c8466e9417e69d", "is_reserved": 0, "rental_uris": {"android": "https://dc.lft.to/lastmile_qr_scan", "ios": "https://dc.lft.to/lastmile_qr_scan"}, "fusion_lon": 0.0}, {"lat": 38.914964166666664, "is_disabled": 0, "type": "electric_scooter", "lon": -77.019964, "bike_id": "ae1fd7236c94886584e44aab1811d480", "fusion_lat": 0.0, "name": "ae1fd7236c94886584e44aab1811d480", "is_reserved": 0, "rental_uris": {"android": "https://dc.lft.to/lastmile_qr_scan", "ios": "https://dc.lft.to/lastmile_qr_scan"}, "fusion_lon": 0.0}, {"lat": 38.92066966666667, "is_disabled": 0, "type": "electric_scooter", "lon": -77.02356533333334, "bike_id": "ab0f4e141a6993efedd7b4ed26bbb354", "fusion_lat": 0.0, "name": "ab0f4e141a6993efedd7b4ed26bbb354", "is_reserved": 0, "rental_uris": {"android": "https://dc.lft.to/lastmile_qr_scan", "ios": "https://dc.lft.to/lastmile_qr_scan"}, "fusion_lon": 0.0}, {"lat": 38.921459666666664, "is_disabled": 0, "type": "electric_scooter", "lon": -76.96917866666666, "bike_id": "d0cbdcf2c3b0243a3a22c91d8ed14287", "fusion_lat": 0.0, "name": "d0cbdcf2c3b0243a3a22c91d8ed14287", "is_reserved": 0, "rental_uris": {"android": "https://dc.lft.to/lastmile_qr_scan", "ios": "https://dc.lft.to/lastmile_qr_scan"}, "fusion_lon": 0.0}, {"lat": 38.90260683333333, "is_disabled": 0, "type": "electric_scooter", "lon": -77.01746416666667, "bike_id": "fd3d039a6374b9f987c54bc9a133cf80", "fusion_lat": 0.0, "name": "fd3d039a6374b9f987c54bc9a133cf80", "is_reserved": 0, "rental_uris": {"android": "https://dc.lft.to/lastmile_qr_scan", "ios": "https://dc.lft.to/lastmile_qr_scan"}, "fusion_lon": 0.0}, {"lat": 38.91192383333333, "is_disabled": 0, "type": "electric_scooter", "lon": -77.0045095, "bike_id": "e1438a89feb7133ed5784183fabe1f1b", "fusion_lat": 0.0, "name": "e1438a89feb7133ed5784183fabe1f1b", "is_reserved": 0, "rental_uris": {"android": "https://dc.lft.to/lastmile_qr_scan", "ios": "https://dc.lft.to/lastmile_qr_scan"}, "fusion_lon": 0.0}, {"lat": 38.89691466666667, "is_disabled": 0, "type": "electric_scooter", "lon": -77.02401, "bike_id": "2d18c9a43b9977ad0718acce53b0ffd2", "fusion_lat": 0.0, "name": "2d18c9a43b9977ad0718acce53b0ffd2", "is_reserved": 0, "rental_uris": {"android": "https://dc.lft.to/lastmile_qr_scan", "ios": "https://dc.lft.to/lastmile_qr_scan"}, "fusion_lon": 0.0}, {"lat": 38.905293666666665, "is_disabled": 0, "type": "electric_scooter", "lon": -77.059345, "bike_id": "0ddb1b4bd508a6bdf807383e0f30d661", "fusion_lat": 0.0, "name": "0ddb1b4bd508a6bdf807383e0f30d661", "is_reserved": 0, "rental_uris": {"android": "https://dc.lft.to/lastmile_qr_scan", "ios": "https://dc.lft.to/lastmile_qr_scan"}, "fusion_lon": 0.0}, {"lat": 38.861655999999996, "is_disabled": 0, "type": "electric_bike", "lon": -76.95065816666667, "bike_id": "30a9a0d66b00936c14a6141590c62fcb", "fusion_lat": 0.0, "name": "30a9a0d66b00936c14a6141590c62fcb", "is_reserved": 0, "rental_uris": {"android": "https://dc.lft.to/lastmile_qr_scan", "ios": "https://dc.lft.to/lastmile_qr_scan"}, "fusion_lon": 0.0}, {"lat": 38.907269166666666, "is_disabled": 0, "type": "electric_scooter", "lon": -77.02377316666667, "bike_id": "4febfe38e37c547ac6d60ecf008154d7", "fusion_lat": 0.0, "name": "4febfe38e37c547ac6d60ecf008154d7", "is_reserved": 0, "rental_uris": {"android": "https://dc.lft.to/lastmile_qr_scan", "ios": "https://dc.lft.to/lastmile_qr_scan"}, "fusion_lon": 0.0}, {"lat": 38.904891666666664, "is_disabled": 0, "type": "electric_scooter", "lon": -77.00132483333333, "bike_id": "51daf80affce39a6aa95743215fc33f9", "fusion_lat": 0.0, "name": "51daf80affce39a6aa95743215fc33f9", "is_reserved": 0, "rental_uris": {"android": "https://dc.lft.to/lastmile_qr_scan", "ios": "https://dc.lft.to/lastmile_qr_scan"}, "fusion_lon": 0.0}, {"lat": 38.892216833333336, "is_disabled": 0, "type": "electric_scooter", "lon": -77.04867366666667, "bike_id": "e2c0a3d2fa9725b287dfda22d431f375", "fusion_lat": 0.0, "name": "e2c0a3d2fa9725b287dfda22d431f375", "is_reserved": 0, "rental_uris": {"android": "https://dc.lft.to/lastmile_qr_scan", "ios": "https://dc.lft.to/lastmile_qr_scan"}, "fusion_lon": 0.0}, {"lat": 38.887643833333335, "is_disabled": 0, "type": "electric_scooter", "lon": -76.95596816666666, "bike_id": "e94c46bf6a4ef55fc8965478a36f515c", "fusion_lat": 0.0, "name": "e94c46bf6a4ef55fc8965478a36f515c", "is_reserved": 0, "rental_uris": {"android": "https://dc.lft.to/lastmile_qr_scan", "ios": "https://dc.lft.to/lastmile_qr_scan"}, "fusion_lon": 0.0}, {"lat": 38.91772983333333, "is_disabled": 0, "type": "electric_scooter", "lon": -77.01496233333333, "bike_id": "06533a2305132b8a609cc0f1358916f8", "fusion_lat": 0.0, "name": "06533a2305132b8a609cc0f1358916f8", "is_reserved": 0, "rental_uris": {"android": "https://dc.lft.to/lastmile_qr_scan", "ios": "https://dc.lft.to/lastmile_qr_scan"}, "fusion_lon": 0.0}, {"lat": 38.873418666666666, "is_disabled": 0, "type": "electric_scooter", "lon": -76.99166216666667, "bike_id": "6e7c53ee15487065ceecae7e2fa09d80", "fusion_lat": 0.0, "name": "6e7c53ee15487065ceecae7e2fa09d80", "is_reserved": 0, "rental_uris": {"android": "https://dc.lft.to/lastmile_qr_scan", "ios": "https://dc.lft.to/lastmile_qr_scan"}, "fusion_lon": 0.0}, {"lat": 38.904953666666664, "is_disabled": 0, "type": "electric_scooter", "lon": -77.0682585, "bike_id": "887ad0f30db5b6e76a2a4caa2b69b6ca", "fusion_lat": 0.0, "name": "887ad0f30db5b6e76a2a4caa2b69b6ca", "is_reserved": 0, "rental_uris": {"android": "https://dc.lft.to/lastmile_qr_scan", "ios": "https://dc.lft.to/lastmile_qr_scan"}, "fusion_lon": 0.0}, {"lat": 38.93890666666667, "is_disabled": 0, "type": "electric_scooter", "lon": -77.02823016666666, "bike_id": "bfa3830a6052e738e7104d589ab5161d", "fusion_lat": 0.0, "name": "bfa3830a6052e738e7104d589ab5161d", "is_reserved": 0, "rental_uris": {"android": "https://dc.lft.to/lastmile_qr_scan", "ios": "https://dc.lft.to/lastmile_qr_scan"}, "fusion_lon": 0.0}, {"lat": 38.915507, "is_disabled": 0, "type": "electric_scooter", "lon": -77.041533, "bike_id": "e9ba1ff1906b8b9cfbe05fd58408e06e", "fusion_lat": 0.0, "name": "e9ba1ff1906b8b9cfbe05fd58408e06e", "is_reserved": 0, "rental_uris": {"android": "https://dc.lft.to/lastmile_qr_scan", "ios": "https://dc.lft.to/lastmile_qr_scan"}, "fusion_lon": 0.0}, {"lat": 38.944387, "is_disabled": 0, "type": "electric_scooter", "lon": -77.0635075, "bike_id": "1b676f6525ab37a3920e57304be45ce5", "fusion_lat": 0.0, "name": "1b676f6525ab37a3920e57304be45ce5", "is_reserved": 0, "rental_uris": {"android": "https://dc.lft.to/lastmile_qr_scan", "ios": "https://dc.lft.to/lastmile_qr_scan"}, "fusion_lon": 0.0}, {"lat": 38.90489183333333, "is_disabled": 0, "type": "electric_scooter", "lon": -77.02000433333333, "bike_id": "70806abc7b2ba823ddb46b821f2dfa28", "fusion_lat": 0.0, "name": "70806abc7b2ba823ddb46b821f2dfa28", "is_reserved": 0, "rental_uris": {"android": "https://dc.lft.to/lastmile_qr_scan", "ios": "https://dc.lft.to/lastmile_qr_scan"}, "fusion_lon": 0.0}, {"lat": 38.90492016666666, "is_disabled": 0, "type": "electric_scooter", "lon": -76.987129, "bike_id": "4d284ed1dc157409feb510fc8a79c07d", "fusion_lat": 0.0, "name": "4d284ed1dc157409feb510fc8a79c07d", "is_reserved": 0, "rental_uris": {"android": "https://dc.lft.to/lastmile_qr_scan", "ios": "https://dc.lft.to/lastmile_qr_scan"}, "fusion_lon": 0.0}, {"lat": 38.924746166666665, "is_disabled": 0, "type": "electric_scooter", "lon": -77.02647683333333, "bike_id": "bd665e764940e6acbfb8956b47ee0541", "fusion_lat": 0.0, "name": "bd665e764940e6acbfb8956b47ee0541", "is_reserved": 0, "rental_uris": {"android": "https://dc.lft.to/lastmile_qr_scan", "ios": "https://dc.lft.to/lastmile_qr_scan"}, "fusion_lon": 0.0}, {"lat": 38.88390116666667, "is_disabled": 0, "type": "electric_scooter", "lon": -77.01884883333334, "bike_id": "8d9354fa10ce6ef6b6f8e3ae0d5d4f32", "fusion_lat": 0.0, "name": "8d9354fa10ce6ef6b6f8e3ae0d5d4f32", "is_reserved": 0, "rental_uris": {"android": "https://dc.lft.to/lastmile_qr_scan", "ios": "https://dc.lft.to/lastmile_qr_scan"}, "fusion_lon": 0.0}, {"lat": 38.9122905, "is_disabled": 0, "type": "electric_scooter", "lon": -77.0021675, "bike_id": "db794d9db70db6bc8433a5ad17e045ee", "fusion_lat": 0.0, "name": "db794d9db70db6bc8433a5ad17e045ee", "is_reserved": 0, "rental_uris": {"android": "https://dc.lft.to/lastmile_qr_scan", "ios": "https://dc.lft.to/lastmile_qr_scan"}, "fusion_lon": 0.0}, {"lat": 38.909211166666665, "is_disabled": 0, "type": "electric_scooter", "lon": -77.03646483333333, "bike_id": "b7051d42698d7253fc6eae95075cc5c9", "fusion_lat": 0.0, "name": "b7051d42698d7253fc6eae95075cc5c9", "is_reserved": 0, "rental_uris": {"android": "https://dc.lft.to/lastmile_qr_scan", "ios": "https://dc.lft.to/lastmile_qr_scan"}, "fusion_lon": 0.0}, {"lat": 38.868891833333336, "is_disabled": 0, "type": "electric_scooter", "lon": -76.98308033333333, "bike_id": "394de65ecac9f4555d5255599652214b", "fusion_lat": 0.0, "name": "394de65ecac9f4555d5255599652214b", "is_reserved": 0, "rental_uris": {"android": "https://dc.lft.to/lastmile_qr_scan", "ios": "https://dc.lft.to/lastmile_qr_scan"}, "fusion_lon": 0.0}, {"lat": 38.931416666666664, "is_disabled": 0, "type": "electric_scooter", "lon": -77.0383285, "bike_id": "028997076894a610e7d70653bd957f44", "fusion_lat": 0.0, "name": "028997076894a610e7d70653bd957f44", "is_reserved": 0, "rental_uris": {"android": "https://dc.lft.to/lastmile_qr_scan", "ios": "https://dc.lft.to/lastmile_qr_scan"}, "fusion_lon": 0.0}, {"lat": 38.90363983333334, "is_disabled": 0, "type": "electric_scooter", "lon": -77.06019833333333, "bike_id": "0a9a0fb358f833da10dfdbd988cc85a2", "fusion_lat": 0.0, "name": "0a9a0fb358f833da10dfdbd988cc85a2", "is_reserved": 0, "rental_uris": {"android": "https://dc.lft.to/lastmile_qr_scan", "ios": "https://dc.lft.to/lastmile_qr_scan"}, "fusion_lon": 0.0}, {"lat": 38.8983875, "is_disabled": 0, "type": "electric_scooter", "lon": -77.01864266666666, "bike_id": "102dad5aaf7770aa0f4fcaea9743198f", "fusion_lat": 0.0, "name": "102dad5aaf7770aa0f4fcaea9743198f", "is_reserved": 0, "rental_uris": {"android": "https://dc.lft.to/lastmile_qr_scan", "ios": "https://dc.lft.to/lastmile_qr_scan"}, "fusion_lon": 0.0}, {"lat": 38.842574, "is_disabled": 0, "type": "electric_scooter", "lon": -77.00230433333333, "bike_id": "143edb8a44651f951b92a98db61bb13b", "fusion_lat": 0.0, "name": "143edb8a44651f951b92a98db61bb13b", "is_reserved": 0, "rental_uris": {"android": "https://dc.lft.to/lastmile_qr_scan", "ios": "https://dc.lft.to/lastmile_qr_scan"}, "fusion_lon": 0.0}, {"lat": 38.920671166666665, "is_disabled": 0, "type": "electric_scooter", "lon": -76.97601766666666, "bike_id": "cb2eb1283420775e285eb49b2c6a7abf", "fusion_lat": 0.0, "name": "cb2eb1283420775e285eb49b2c6a7abf", "is_reserved": 0, "rental_uris": {"android": "https://dc.lft.to/lastmile_qr_scan", "ios": "https://dc.lft.to/lastmile_qr_scan"}, "fusion_lon": 0.0}, {"lat": 38.9191875, "is_disabled": 0, "type": "electric_scooter", "lon": -77.03177433333333, "bike_id": "14c1cfc873e32f005584d4b43426c841", "fusion_lat": 0.0, "name": "14c1cfc873e32f005584d4b43426c841", "is_reserved": 0, "rental_uris": {"android": "https://dc.lft.to/lastmile_qr_scan", "ios": "https://dc.lft.to/lastmile_qr_scan"}, "fusion_lon": 0.0}, {"lat": 38.90554866666667, "is_disabled": 0, "type": "electric_scooter", "lon": -77.05691516666667, "bike_id": "8fe5082c8cfafa4748d14d8795a717de", "fusion_lat": 0.0, "name": "8fe5082c8cfafa4748d14d8795a717de", "is_reserved": 0, "rental_uris": {"android": "https://dc.lft.to/lastmile_qr_scan", "ios": "https://dc.lft.to/lastmile_qr_scan"}, "fusion_lon": 0.0}, {"lat": 38.90311883333333, "is_disabled": 0, "type": "electric_scooter", "lon": -77.06528516666667, "bike_id": "2d6ac33ea4f29954fa8a9061f4ec54e8", "fusion_lat": 0.0, "name": "2d6ac33ea4f29954fa8a9061f4ec54e8", "is_reserved": 0, "rental_uris": {"android": "https://dc.lft.to/lastmile_qr_scan", "ios": "https://dc.lft.to/lastmile_qr_scan"}, "fusion_lon": 0.0}, {"lat": 38.8791125, "is_disabled": 0, "type": "electric_scooter", "lon": -76.99138233333333, "bike_id": "ca635450e57423070e71cc09628dc76e", "fusion_lat": 0.0, "name": "ca635450e57423070e71cc09628dc76e", "is_reserved": 0, "rental_uris": {"android": "https://dc.lft.to/lastmile_qr_scan", "ios": "https://dc.lft.to/lastmile_qr_scan"}, "fusion_lon": 0.0}, {"lat": 38.91567583333333, "is_disabled": 0, "type": "electric_scooter", "lon": -77.03154983333333, "bike_id": "08b0ee9f56cd319105e9efceb8be01c0", "fusion_lat": 0.0, "name": "08b0ee9f56cd319105e9efceb8be01c0", "is_reserved": 0, "rental_uris": {"android": "https://dc.lft.to/lastmile_qr_scan", "ios": "https://dc.lft.to/lastmile_qr_scan"}, "fusion_lon": 0.0}, {"lat": 38.9614675, "is_disabled": 0, "type": "electric_scooter", "lon": -77.0279605, "bike_id": "9c2a3bf4c8d68290e48e30f7e60686e3", "fusion_lat": 0.0, "name": "9c2a3bf4c8d68290e48e30f7e60686e3", "is_reserved": 0, "rental_uris": {"android": "https://dc.lft.to/lastmile_qr_scan", "ios": "https://dc.lft.to/lastmile_qr_scan"}, "fusion_lon": 0.0}, {"lat": 38.89682883333333, "is_disabled": 0, "type": "electric_scooter", "lon": -76.93523983333333, "bike_id": "7ccff734e03bca8d7ae7a10a1d9aadcc", "fusion_lat": 0.0, "name": "7ccff734e03bca8d7ae7a10a1d9aadcc", "is_reserved": 0, "rental_uris": {"android": "https://dc.lft.to/lastmile_qr_scan", "ios": "https://dc.lft.to/lastmile_qr_scan"}, "fusion_lon": 0.0}, {"lat": 38.9171445, "is_disabled": 0, "type": "electric_scooter", "lon": -77.03860333333333, "bike_id": "303dd9a957c218f2f559826895d76c29", "fusion_lat": 0.0, "name": "303dd9a957c218f2f559826895d76c29", "is_reserved": 0, "rental_uris": {"android": "https://dc.lft.to/lastmile_qr_scan", "ios": "https://dc.lft.to/lastmile_qr_scan"}, "fusion_lon": 0.0}, {"lat": 38.88042383333333, "is_disabled": 0, "type": "electric_scooter", "lon": -76.98628933333333, "bike_id": "922d283314b38cfb6da7b6984dd6cc5b", "fusion_lat": 0.0, "name": "922d283314b38cfb6da7b6984dd6cc5b", "is_reserved": 0, "rental_uris": {"android": "https://dc.lft.to/lastmile_qr_scan", "ios": "https://dc.lft.to/lastmile_qr_scan"}, "fusion_lon": 0.0}, {"lat": 38.959545, "is_disabled": 0, "type": "electric_bike", "lon": -77.10086316666667, "bike_id": "cfa17f9a0994b71f20391cd175c783db", "fusion_lat": 0.0, "name": "cfa17f9a0994b71f20391cd175c783db", "is_reserved": 0, "rental_uris": {"android": "https://dc.lft.to/lastmile_qr_scan", "ios": "https://dc.lft.to/lastmile_qr_scan"}, "fusion_lon": 0.0}, {"lat": 38.88433466666667, "is_disabled": 0, "type": "electric_scooter", "lon": -77.03040216666666, "bike_id": "379932aa29bcce569586dc2d7af1a540", "fusion_lat": 0.0, "name": "379932aa29bcce569586dc2d7af1a540", "is_reserved": 0, "rental_uris": {"android": "https://dc.lft.to/lastmile_qr_scan", "ios": "https://dc.lft.to/lastmile_qr_scan"}, "fusion_lon": 0.0}, {"lat": 38.920630333333335, "is_disabled": 0, "type": "electric_scooter", "lon": -77.04337483333333, "bike_id": "5927b75742502bf415462ed218ee7152", "fusion_lat": 0.0, "name": "5927b75742502bf415462ed218ee7152", "is_reserved": 0, "rental_uris": {"android": "https://dc.lft.to/lastmile_qr_scan", "ios": "https://dc.lft.to/lastmile_qr_scan"}, "fusion_lon": 0.0}, {"lat": 38.89814483333333, "is_disabled": 0, "type": "electric_scooter", "lon": -76.996932, "bike_id": "283da77cedf8248f379f28146fac4c27", "fusion_lat": 0.0, "name": "283da77cedf8248f379f28146fac4c27", "is_reserved": 0, "rental_uris": {"android": "https://dc.lft.to/lastmile_qr_scan", "ios": "https://dc.lft.to/lastmile_qr_scan"}, "fusion_lon": 0.0}, {"lat": 38.90190783333333, "is_disabled": 0, "type": "electric_scooter", "lon": -77.02392516666667, "bike_id": "e9c0be862c6f0387e887784f00847e05", "fusion_lat": 0.0, "name": "e9c0be862c6f0387e887784f00847e05", "is_reserved": 0, "rental_uris": {"android": "https://dc.lft.to/lastmile_qr_scan", "ios": "https://dc.lft.to/lastmile_qr_scan"}, "fusion_lon": 0.0}, {"lat": 39.056339333333334, "is_disabled": 0, "type": "electric_bike", "lon": -77.12526283333334, "bike_id": "ff13aaba2db4d0a0bed49c0383cfe814", "fusion_lat": 0.0, "name": "ff13aaba2db4d0a0bed49c0383cfe814", "is_reserved": 0, "rental_uris": {"android": "https://dc.lft.to/lastmile_qr_scan", "ios": "https://dc.lft.to/lastmile_qr_scan"}, "fusion_lon": 0.0}, {"lat": 38.92759, "is_disabled": 0, "type": "electric_scooter", "lon": -77.0321875, "bike_id": "e2cdfb0afc1953d9ec360323dab7761d", "fusion_lat": 0.0, "name": "e2cdfb0afc1953d9ec360323dab7761d", "is_reserved": 0, "rental_uris": {"android": "https://dc.lft.to/lastmile_qr_scan", "ios": "https://dc.lft.to/lastmile_qr_scan"}, "fusion_lon": 0.0}, {"lat": 38.91119166666667, "is_disabled": 0, "type": "electric_scooter", "lon": -77.03767933333333, "bike_id": "f36683cc8da2db259820caf2553ba671", "fusion_lat": 0.0, "name": "f36683cc8da2db259820caf2553ba671", "is_reserved": 0, "rental_uris": {"android": "https://dc.lft.to/lastmile_qr_scan", "ios": "https://dc.lft.to/lastmile_qr_scan"}, "fusion_lon": 0.0}, {"lat": 38.88578233333333, "is_disabled": 0, "type": "electric_scooter", "lon": -76.91910416666667, "bike_id": "9347cf7291f29b977f18bd018a699efb", "fusion_lat": 0.0, "name": "9347cf7291f29b977f18bd018a699efb", "is_reserved": 0, "rental_uris": {"android": "https://dc.lft.to/lastmile_qr_scan", "ios": "https://dc.lft.to/lastmile_qr_scan"}, "fusion_lon": 0.0}, {"lat": 38.92480333333334, "is_disabled": 0, "type": "electric_scooter", "lon": -77.02844433333334, "bike_id": "7dded4f38260f7e3f705191118d0daf8", "fusion_lat": 0.0, "name": "7dded4f38260f7e3f705191118d0daf8", "is_reserved": 0, "rental_uris": {"android": "https://dc.lft.to/lastmile_qr_scan", "ios": "https://dc.lft.to/lastmile_qr_scan"}, "fusion_lon": 0.0}, {"lat": 38.95609133333333, "is_disabled": 0, "type": "electric_scooter", "lon": -77.027604, "bike_id": "033019404c34df4a7c77187782dffc04", "fusion_lat": 0.0, "name": "033019404c34df4a7c77187782dffc04", "is_reserved": 0, "rental_uris": {"android": "https://dc.lft.to/lastmile_qr_scan", "ios": "https://dc.lft.to/lastmile_qr_scan"}, "fusion_lon": 0.0}, {"lat": 38.91176016666667, "is_disabled": 0, "type": "electric_scooter", "lon": -77.06089383333334, "bike_id": "250818246e357995029ad927030764ca", "fusion_lat": 0.0, "name": "250818246e357995029ad927030764ca", "is_reserved": 0, "rental_uris": {"android": "https://dc.lft.to/lastmile_qr_scan", "ios": "https://dc.lft.to/lastmile_qr_scan"}, "fusion_lon": 0.0}, {"lat": 38.929032, "is_disabled": 0, "type": "electric_scooter", "lon": -77.02218316666666, "bike_id": "f5964e5732e5a9c4f47f4b351e60ed3c", "fusion_lat": 0.0, "name": "f5964e5732e5a9c4f47f4b351e60ed3c", "is_reserved": 0, "rental_uris": {"android": "https://dc.lft.to/lastmile_qr_scan", "ios": "https://dc.lft.to/lastmile_qr_scan"}, "fusion_lon": 0.0}, {"lat": 38.886395666666665, "is_disabled": 0, "type": "electric_bike", "lon": -76.9547505, "bike_id": "1fbb4ef4a22006abf28005f028c6242c", "fusion_lat": 0.0, "name": "1fbb4ef4a22006abf28005f028c6242c", "is_reserved": 0, "rental_uris": {"android": "https://dc.lft.to/lastmile_qr_scan", "ios": "https://dc.lft.to/lastmile_qr_scan"}, "fusion_lon": 0.0}, {"lat": 38.927346, "is_disabled": 0, "type": "electric_scooter", "lon": -77.034478, "bike_id": "2090d901727b0444ac3a6d5dcf6bd224", "fusion_lat": 0.0, "name": "2090d901727b0444ac3a6d5dcf6bd224", "is_reserved": 0, "rental_uris": {"android": "https://dc.lft.to/lastmile_qr_scan", "ios": "https://dc.lft.to/lastmile_qr_scan"}, "fusion_lon": 0.0}, {"lat": 38.883047833333336, "is_disabled": 0, "type": "electric_bike", "lon": -77.0315155, "bike_id": "966910ebd88822a8ff6491efff3de276", "fusion_lat": 0.0, "name": "966910ebd88822a8ff6491efff3de276", "is_reserved": 0, "rental_uris": {"android": "https://dc.lft.to/lastmile_qr_scan", "ios": "https://dc.lft.to/lastmile_qr_scan"}, "fusion_lon": 0.0}, {"lat": 38.926201, "is_disabled": 0, "type": "electric_scooter", "lon": -77.037814, "bike_id": "9a4c7f881c56ddb2933c0627dc933b4e", "fusion_lat": 0.0, "name": "9a4c7f881c56ddb2933c0627dc933b4e", "is_reserved": 0, "rental_uris": {"android": "https://dc.lft.to/lastmile_qr_scan", "ios": "https://dc.lft.to/lastmile_qr_scan"}, "fusion_lon": 0.0}, {"lat": 38.923295, "is_disabled": 0, "type": "electric_scooter", "lon": -77.036698, "bike_id": "5dd7527a7cf6486bb21cba936783f442", "fusion_lat": 0.0, "name": "5dd7527a7cf6486bb21cba936783f442", "is_reserved": 0, "rental_uris": {"android": "https://dc.lft.to/lastmile_qr_scan", "ios": "https://dc.lft.to/lastmile_qr_scan"}, "fusion_lon": 0.0}, {"lat": 38.883639333333335, "is_disabled": 0, "type": "electric_scooter", "lon": -76.9415395, "bike_id": "acdb3343b4dcebecf5b15ff7f5a456f1", "fusion_lat": 0.0, "name": "acdb3343b4dcebecf5b15ff7f5a456f1", "is_reserved": 0, "rental_uris": {"android": "https://dc.lft.to/lastmile_qr_scan", "ios": "https://dc.lft.to/lastmile_qr_scan"}, "fusion_lon": 0.0}, {"lat": 38.92344716666667, "is_disabled": 0, "type": "electric_scooter", "lon": -77.0511475, "bike_id": "576be511aa598e4ae97c3a3753ab6ffc", "fusion_lat": 0.0, "name": "576be511aa598e4ae97c3a3753ab6ffc", "is_reserved": 0, "rental_uris": {"android": "https://dc.lft.to/lastmile_qr_scan", "ios": "https://dc.lft.to/lastmile_qr_scan"}, "fusion_lon": 0.0}, {"lat": 38.95895816666667, "is_disabled": 0, "type": "electric_bike", "lon": -76.9249535, "bike_id": "cac216c0ae39b75075b5ed3f6126e0c1", "fusion_lat": 0.0, "name": "cac216c0ae39b75075b5ed3f6126e0c1", "is_reserved": 0, "rental_uris": {"android": "https://dc.lft.to/lastmile_qr_scan", "ios": "https://dc.lft.to/lastmile_qr_scan"}, "fusion_lon": 0.0}, {"lat": 38.957441, "is_disabled": 0, "type": "electric_scooter", "lon": -77.020737, "bike_id": "3b8eed34e6803176e2b6462e52d0b86c", "fusion_lat": 0.0, "name": "3b8eed34e6803176e2b6462e52d0b86c", "is_reserved": 0, "rental_uris": {"android": "https://dc.lft.to/lastmile_qr_scan", "ios": "https://dc.lft.to/lastmile_qr_scan"}, "fusion_lon": 0.0}, {"lat": 38.91683833333333, "is_disabled": 0, "type": "electric_scooter", "lon": -77.001956, "bike_id": "2ce84f8f1016bfe6f8cfa797bad51bee", "fusion_lat": 0.0, "name": "2ce84f8f1016bfe6f8cfa797bad51bee", "is_reserved": 0, "rental_uris": {"android": "https://dc.lft.to/lastmile_qr_scan", "ios": "https://dc.lft.to/lastmile_qr_scan"}, "fusion_lon": 0.0}, {"lat": 38.92199216666667, "is_disabled": 0, "type": "electric_scooter", "lon": -76.983727, "bike_id": "c242bf31af7f4fc418226ab82021ddf3", "fusion_lat": 0.0, "name": "c242bf31af7f4fc418226ab82021ddf3", "is_reserved": 0, "rental_uris": {"android": "https://dc.lft.to/lastmile_qr_scan", "ios": "https://dc.lft.to/lastmile_qr_scan"}, "fusion_lon": 0.0}, {"lat": 38.97323016666667, "is_disabled": 0, "type": "electric_bike", "lon": -77.02147216666667, "bike_id": "129d0e9a6055a647845815097779ab72", "fusion_lat": 0.0, "name": "129d0e9a6055a647845815097779ab72", "is_reserved": 0, "rental_uris": {"android": "https://dc.lft.to/lastmile_qr_scan", "ios": "https://dc.lft.to/lastmile_qr_scan"}, "fusion_lon": 0.0}, {"lat": 38.92737116666667, "is_disabled": 0, "type": "electric_scooter", "lon": -77.0428165, "bike_id": "2a0faddb3ad74fa2d492176b48d78d13", "fusion_lat": 0.0, "name": "2a0faddb3ad74fa2d492176b48d78d13", "is_reserved": 0, "rental_uris": {"android": "https://dc.lft.to/lastmile_qr_scan", "ios": "https://dc.lft.to/lastmile_qr_scan"}, "fusion_lon": 0.0}, {"lat": 38.89330266666666, "is_disabled": 0, "type": "electric_scooter", "lon": -76.9298865, "bike_id": "0239c2b26132eee0cce9d877adf8fe29", "fusion_lat": 0.0, "name": "0239c2b26132eee0cce9d877adf8fe29", "is_reserved": 0, "rental_uris": {"android": "https://dc.lft.to/lastmile_qr_scan", "ios": "https://dc.lft.to/lastmile_qr_scan"}, "fusion_lon": 0.0}, {"lat": 38.909656166666664, "is_disabled": 0, "type": "electric_scooter", "lon": -76.98470216666666, "bike_id": "07182be5a5324792273d5749ce5632f2", "fusion_lat": 0.0, "name": "07182be5a5324792273d5749ce5632f2", "is_reserved": 0, "rental_uris": {"android": "https://dc.lft.to/lastmile_qr_scan", "ios": "https://dc.lft.to/lastmile_qr_scan"}, "fusion_lon": 0.0}, {"lat": 38.9228105, "is_disabled": 0, "type": "electric_scooter", "lon": -77.03660416666666, "bike_id": "158bf20feb7ae461196848c2af38ff81", "fusion_lat": 0.0, "name": "158bf20feb7ae461196848c2af38ff81", "is_reserved": 0, "rental_uris": {"android": "https://dc.lft.to/lastmile_qr_scan", "ios": "https://dc.lft.to/lastmile_qr_scan"}, "fusion_lon": 0.0}, {"lat": 39.034130166666664, "is_disabled": 0, "type": "electric_bike", "lon": -77.04212483333333, "bike_id": "2be1d6d145ded659fd50817d4ae81ee8", "fusion_lat": 0.0, "name": "2be1d6d145ded659fd50817d4ae81ee8", "is_reserved": 0, "rental_uris": {"android": "https://dc.lft.to/lastmile_qr_scan", "ios": "https://dc.lft.to/lastmile_qr_scan"}, "fusion_lon": 0.0}, {"lat": 38.94633283333334, "is_disabled": 0, "type": "electric_scooter", "lon": -77.01934916666667, "bike_id": "431fa1dcce92cfe74a7c669098ea67df", "fusion_lat": 0.0, "name": "431fa1dcce92cfe74a7c669098ea67df", "is_reserved": 0, "rental_uris": {"android": "https://dc.lft.to/lastmile_qr_scan", "ios": "https://dc.lft.to/lastmile_qr_scan"}, "fusion_lon": 0.0}, {"lat": 38.89218433333333, "is_disabled": 0, "type": "electric_scooter", "lon": -77.04359366666667, "bike_id": "6a3279b6bae58c0f48323ce2c12eee3a", "fusion_lat": 0.0, "name": "6a3279b6bae58c0f48323ce2c12eee3a", "is_reserved": 0, "rental_uris": {"android": "https://dc.lft.to/lastmile_qr_scan", "ios": "https://dc.lft.to/lastmile_qr_scan"}, "fusion_lon": 0.0}, {"lat": 38.9032635, "is_disabled": 0, "type": "electric_scooter", "lon": -77.02055433333334, "bike_id": "00d837fcf8f4ce2ef8175a4ebd9ae86a", "fusion_lat": 0.0, "name": "00d837fcf8f4ce2ef8175a4ebd9ae86a", "is_reserved": 0, "rental_uris": {"android": "https://dc.lft.to/lastmile_qr_scan", "ios": "https://dc.lft.to/lastmile_qr_scan"}, "fusion_lon": 0.0}, {"lat": 38.91733116666666, "is_disabled": 0, "type": "electric_bike", "lon": -77.00798066666667, "bike_id": "d0ab6cfa0dc95dd4363b843c62cfb3a0", "fusion_lat": 0.0, "name": "d0ab6cfa0dc95dd4363b843c62cfb3a0", "is_reserved": 0, "rental_uris": {"android": "https://dc.lft.to/lastmile_qr_scan", "ios": "https://dc.lft.to/lastmile_qr_scan"}, "fusion_lon": 0.0}, {"lat": 38.89623233333333, "is_disabled": 0, "type": "electric_scooter", "lon": -76.99849783333333, "bike_id": "27722c8e4e8ca6927497cfe9626f5e1a", "fusion_lat": 0.0, "name": "27722c8e4e8ca6927497cfe9626f5e1a", "is_reserved": 0, "rental_uris": {"android": "https://dc.lft.to/lastmile_qr_scan", "ios": "https://dc.lft.to/lastmile_qr_scan"}, "fusion_lon": 0.0}, {"lat": 38.876276, "is_disabled": 0, "type": "electric_scooter", "lon": -76.96525483333333, "bike_id": "2aa95788168e4781aa226417a3c84d2c", "fusion_lat": 0.0, "name": "2aa95788168e4781aa226417a3c84d2c", "is_reserved": 0, "rental_uris": {"android": "https://dc.lft.to/lastmile_qr_scan", "ios": "https://dc.lft.to/lastmile_qr_scan"}, "fusion_lon": 0.0}, {"lat": 38.90197783333333, "is_disabled": 0, "type": "electric_scooter", "lon": -77.02369183333333, "bike_id": "221ccfcdd4fbaed1bd021edf7e9733a2", "fusion_lat": 0.0, "name": "221ccfcdd4fbaed1bd021edf7e9733a2", "is_reserved": 0, "rental_uris": {"android": "https://dc.lft.to/lastmile_qr_scan", "ios": "https://dc.lft.to/lastmile_qr_scan"}, "fusion_lon": 0.0}, {"lat": 38.9009415, "is_disabled": 0, "type": "electric_scooter", "lon": -77.01359566666666, "bike_id": "10fccca57b620217e32a6a3f657eec4b", "fusion_lat": 0.0, "name": "10fccca57b620217e32a6a3f657eec4b", "is_reserved": 0, "rental_uris": {"android": "https://dc.lft.to/lastmile_qr_scan", "ios": "https://dc.lft.to/lastmile_qr_scan"}, "fusion_lon": 0.0}, {"lat": 38.812218666666666, "is_disabled": 0, "type": "electric_bike", "lon": -77.1098645, "bike_id": "a2c9d2738d3a87a318c838dafd00bfbc", "fusion_lat": 0.0, "name": "a2c9d2738d3a87a318c838dafd00bfbc", "is_reserved": 0, "rental_uris": {"android": "https://dc.lft.to/lastmile_qr_scan", "ios": "https://dc.lft.to/lastmile_qr_scan"}, "fusion_lon": 0.0}, {"lat": 38.90750666666667, "is_disabled": 0, "type": "electric_scooter", "lon": -77.00105983333333, "bike_id": "8f01c05e943681869a1aa13fde3b53d6", "fusion_lat": 0.0, "name": "8f01c05e943681869a1aa13fde3b53d6", "is_reserved": 0, "rental_uris": {"android": "https://dc.lft.to/lastmile_qr_scan", "ios": "https://dc.lft.to/lastmile_qr_scan"}, "fusion_lon": 0.0}, {"lat": 38.87659266666667, "is_disabled": 0, "type": "electric_scooter", "lon": -77.0040815, "bike_id": "7a876548a240474926970e8f915f473d", "fusion_lat": 0.0, "name": "7a876548a240474926970e8f915f473d", "is_reserved": 0, "rental_uris": {"android": "https://dc.lft.to/lastmile_qr_scan", "ios": "https://dc.lft.to/lastmile_qr_scan"}, "fusion_lon": 0.0}, {"lat": 38.86618716666667, "is_disabled": 0, "type": "electric_scooter", "lon": -76.98665916666667, "bike_id": "da718a8150b8bdb2e6b37fc26577cb18", "fusion_lat": 0.0, "name": "da718a8150b8bdb2e6b37fc26577cb18", "is_reserved": 0, "rental_uris": {"android": "https://dc.lft.to/lastmile_qr_scan", "ios": "https://dc.lft.to/lastmile_qr_scan"}, "fusion_lon": 0.0}, {"lat": 38.88005233333333, "is_disabled": 0, "type": "electric_scooter", "lon": -77.00530266666667, "bike_id": "27d0d428976b00e2acee35a86227673c", "fusion_lat": 0.0, "name": "27d0d428976b00e2acee35a86227673c", "is_reserved": 0, "rental_uris": {"android": "https://dc.lft.to/lastmile_qr_scan", "ios": "https://dc.lft.to/lastmile_qr_scan"}, "fusion_lon": 0.0}, {"lat": 38.845902333333335, "is_disabled": 0, "type": "electric_bike", "lon": -77.07670816666666, "bike_id": "ca60c8ac42a9b0d5d7ab12f2c70670b8", "fusion_lat": 0.0, "name": "ca60c8ac42a9b0d5d7ab12f2c70670b8", "is_reserved": 0, "rental_uris": {"android": "https://dc.lft.to/lastmile_qr_scan", "ios": "https://dc.lft.to/lastmile_qr_scan"}, "fusion_lon": 0.0}, {"lat": 38.90837533333333, "is_disabled": 0, "type": "electric_scooter", "lon": -77.02958116666667, "bike_id": "8cc9bcdd0e362daa996677a00f5c54e9", "fusion_lat": 0.0, "name": "8cc9bcdd0e362daa996677a00f5c54e9", "is_reserved": 0, "rental_uris": {"android": "https://dc.lft.to/lastmile_qr_scan", "ios": "https://dc.lft.to/lastmile_qr_scan"}, "fusion_lon": 0.0}, {"lat": 38.9063275, "is_disabled": 0, "type": "electric_scooter", "lon": -77.01367566666667, "bike_id": "fa6df2678ff1c7a2466e3de894b0e655", "fusion_lat": 0.0, "name": "fa6df2678ff1c7a2466e3de894b0e655", "is_reserved": 0, "rental_uris": {"android": "https://dc.lft.to/lastmile_qr_scan", "ios": "https://dc.lft.to/lastmile_qr_scan"}, "fusion_lon": 0.0}, {"lat": 38.940406333333335, "is_disabled": 0, "type": "electric_scooter", "lon": -77.02899733333334, "bike_id": "c207dcd1e354690767878236e7860762", "fusion_lat": 0.0, "name": "c207dcd1e354690767878236e7860762", "is_reserved": 0, "rental_uris": {"android": "https://dc.lft.to/lastmile_qr_scan", "ios": "https://dc.lft.to/lastmile_qr_scan"}, "fusion_lon": 0.0}, {"lat": 38.93198316666667, "is_disabled": 0, "type": "electric_bike", "lon": -77.03876183333334, "bike_id": "f8e8b6ec5642c02197bc6aba891bb574", "fusion_lat": 0.0, "name": "f8e8b6ec5642c02197bc6aba891bb574", "is_reserved": 0, "rental_uris": {"android": "https://dc.lft.to/lastmile_qr_scan", "ios": "https://dc.lft.to/lastmile_qr_scan"}, "fusion_lon": 0.0}, {"lat": 38.92430616666667, "is_disabled": 0, "type": "electric_scooter", "lon": -77.042412, "bike_id": "a56d03c2ee4e53762cbb08dddc2e1e78", "fusion_lat": 0.0, "name": "a56d03c2ee4e53762cbb08dddc2e1e78", "is_reserved": 0, "rental_uris": {"android": "https://dc.lft.to/lastmile_qr_scan", "ios": "https://dc.lft.to/lastmile_qr_scan"}, "fusion_lon": 0.0}, {"lat": 38.9248505, "is_disabled": 0, "type": "electric_scooter", "lon": -77.05212333333333, "bike_id": "42b98fda8e8685b16d1094d80ae6eedc", "fusion_lat": 0.0, "name": "42b98fda8e8685b16d1094d80ae6eedc", "is_reserved": 0, "rental_uris": {"android": "https://dc.lft.to/lastmile_qr_scan", "ios": "https://dc.lft.to/lastmile_qr_scan"}, "fusion_lon": 0.0}, {"lat": 38.9230465, "is_disabled": 0, "type": "electric_scooter", "lon": -77.03965183333334, "bike_id": "a25dac5cd20032f68d798dbf8865f969", "fusion_lat": 0.0, "name": "a25dac5cd20032f68d798dbf8865f969", "is_reserved": 0, "rental_uris": {"android": "https://dc.lft.to/lastmile_qr_scan", "ios": "https://dc.lft.to/lastmile_qr_scan"}, "fusion_lon": 0.0}, {"lat": 38.90571116666667, "is_disabled": 0, "type": "electric_scooter", "lon": -76.98872583333333, "bike_id": "b98cfc581c0a3429e23ed16b125713aa", "fusion_lat": 0.0, "name": "b98cfc581c0a3429e23ed16b125713aa", "is_reserved": 0, "rental_uris": {"android": "https://dc.lft.to/lastmile_qr_scan", "ios": "https://dc.lft.to/lastmile_qr_scan"}, "fusion_lon": 0.0}, {"lat": 38.911832833333335, "is_disabled": 0, "type": "electric_scooter", "lon": -77.03846583333333, "bike_id": "8e72ae52c58053c4e82a3f78473deeb2", "fusion_lat": 0.0, "name": "8e72ae52c58053c4e82a3f78473deeb2", "is_reserved": 0, "rental_uris": {"android": "https://dc.lft.to/lastmile_qr_scan", "ios": "https://dc.lft.to/lastmile_qr_scan"}, "fusion_lon": 0.0}, {"lat": 38.89909083333333, "is_disabled": 0, "type": "electric_scooter", "lon": -77.0216, "bike_id": "2ae0aad92a675942b322df46607ad428", "fusion_lat": 0.0, "name": "2ae0aad92a675942b322df46607ad428", "is_reserved": 0, "rental_uris": {"android": "https://dc.lft.to/lastmile_qr_scan", "ios": "https://dc.lft.to/lastmile_qr_scan"}, "fusion_lon": 0.0}, {"lat": 38.866486, "is_disabled": 0, "type": "electric_scooter", "lon": -76.98880866666667, "bike_id": "d72a71c75ece584d99e694213c584fee", "fusion_lat": 0.0, "name": "d72a71c75ece584d99e694213c584fee", "is_reserved": 0, "rental_uris": {"android": "https://dc.lft.to/lastmile_qr_scan", "ios": "https://dc.lft.to/lastmile_qr_scan"}, "fusion_lon": 0.0}, {"lat": 38.91715416666667, "is_disabled": 0, "type": "electric_scooter", "lon": -77.0385765, "bike_id": "c0fc2e522b560525626717d53807a011", "fusion_lat": 0.0, "name": "c0fc2e522b560525626717d53807a011", "is_reserved": 0, "rental_uris": {"android": "https://dc.lft.to/lastmile_qr_scan", "ios": "https://dc.lft.to/lastmile_qr_scan"}, "fusion_lon": 0.0}, {"lat": 38.933435333333335, "is_disabled": 0, "type": "electric_scooter", "lon": -77.058621, "bike_id": "76d3c7af42dfdbc75df8b559a2eb3470", "fusion_lat": 0.0, "name": "76d3c7af42dfdbc75df8b559a2eb3470", "is_reserved": 0, "rental_uris": {"android": "https://dc.lft.to/lastmile_qr_scan", "ios": "https://dc.lft.to/lastmile_qr_scan"}, "fusion_lon": 0.0}, {"lat": 38.8977015, "is_disabled": 0, "type": "electric_scooter", "lon": -77.05162833333333, "bike_id": "31e3a546eff672d10f54c1e602cc9f30", "fusion_lat": 0.0, "name": "31e3a546eff672d10f54c1e602cc9f30", "is_reserved": 0, "rental_uris": {"android": "https://dc.lft.to/lastmile_qr_scan", "ios": "https://dc.lft.to/lastmile_qr_scan"}, "fusion_lon": 0.0}, {"lat": 38.9229915, "is_disabled": 0, "type": "electric_scooter", "lon": -77.04145066666666, "bike_id": "77640bf1f2d7b049416dd28dca880198", "fusion_lat": 0.0, "name": "77640bf1f2d7b049416dd28dca880198", "is_reserved": 0, "rental_uris": {"android": "https://dc.lft.to/lastmile_qr_scan", "ios": "https://dc.lft.to/lastmile_qr_scan"}, "fusion_lon": 0.0}, {"lat": 38.917048, "is_disabled": 0, "type": "electric_scooter", "lon": -77.03221883333333, "bike_id": "3d36779f3643e16efefb7f4ab91d8bb8", "fusion_lat": 0.0, "name": "3d36779f3643e16efefb7f4ab91d8bb8", "is_reserved": 0, "rental_uris": {"android": "https://dc.lft.to/lastmile_qr_scan", "ios": "https://dc.lft.to/lastmile_qr_scan"}, "fusion_lon": 0.0}, {"lat": 38.9655575, "is_disabled": 0, "type": "electric_bike", "lon": -77.02301183333333, "bike_id": "5cce54925ace66bd023a152675976983", "fusion_lat": 0.0, "name": "5cce54925ace66bd023a152675976983", "is_reserved": 0, "rental_uris": {"android": "https://dc.lft.to/lastmile_qr_scan", "ios": "https://dc.lft.to/lastmile_qr_scan"}, "fusion_lon": 0.0}, {"lat": 38.928761, "is_disabled": 0, "type": "electric_bike", "lon": -77.03702266666667, "bike_id": "733f17a1b1ea047c2fe944c2cbafbf7c", "fusion_lat": 0.0, "name": "733f17a1b1ea047c2fe944c2cbafbf7c", "is_reserved": 0, "rental_uris": {"android": "https://dc.lft.to/lastmile_qr_scan", "ios": "https://dc.lft.to/lastmile_qr_scan"}, "fusion_lon": 0.0}, {"lat": 38.919851666666666, "is_disabled": 0, "type": "electric_scooter", "lon": -76.97299383333333, "bike_id": "c3261b4861353feb27999656d9d8ca8e", "fusion_lat": 0.0, "name": "c3261b4861353feb27999656d9d8ca8e", "is_reserved": 0, "rental_uris": {"android": "https://dc.lft.to/lastmile_qr_scan", "ios": "https://dc.lft.to/lastmile_qr_scan"}, "fusion_lon": 0.0}, {"lat": 38.9158825, "is_disabled": 0, "type": "electric_scooter", "lon": -77.0238525, "bike_id": "b5f497adac995f70f5fd37ce77b82e50", "fusion_lat": 0.0, "name": "b5f497adac995f70f5fd37ce77b82e50", "is_reserved": 0, "rental_uris": {"android": "https://dc.lft.to/lastmile_qr_scan", "ios": "https://dc.lft.to/lastmile_qr_scan"}, "fusion_lon": 0.0}, {"lat": 38.924244, "is_disabled": 0, "type": "electric_scooter", "lon": -77.051789, "bike_id": "7810c2f78bab9cd3379ca9d6ee1e4273", "fusion_lat": 0.0, "name": "7810c2f78bab9cd3379ca9d6ee1e4273", "is_reserved": 0, "rental_uris": {"android": "https://dc.lft.to/lastmile_qr_scan", "ios": "https://dc.lft.to/lastmile_qr_scan"}, "fusion_lon": 0.0}, {"lat": 38.927436, "is_disabled": 0, "type": "electric_scooter", "lon": -77.03413716666667, "bike_id": "3ec331e432a5f4b141d98d1ec8b09b56", "fusion_lat": 0.0, "name": "3ec331e432a5f4b141d98d1ec8b09b56", "is_reserved": 0, "rental_uris": {"android": "https://dc.lft.to/lastmile_qr_scan", "ios": "https://dc.lft.to/lastmile_qr_scan"}, "fusion_lon": 0.0}, {"lat": 38.90865433333333, "is_disabled": 0, "type": "electric_scooter", "lon": -77.04656066666666, "bike_id": "b330956f93a8baaf887e73ae3569d8c5", "fusion_lat": 0.0, "name": "b330956f93a8baaf887e73ae3569d8c5", "is_reserved": 0, "rental_uris": {"android": "https://dc.lft.to/lastmile_qr_scan", "ios": "https://dc.lft.to/lastmile_qr_scan"}, "fusion_lon": 0.0}, {"lat": 39.00004216666667, "is_disabled": 0, "type": "electric_bike", "lon": -76.91074183333333, "bike_id": "27ac414378c0b9f7386faa0744d943c1", "fusion_lat": 0.0, "name": "27ac414378c0b9f7386faa0744d943c1", "is_reserved": 0, "rental_uris": {"android": "https://dc.lft.to/lastmile_qr_scan", "ios": "https://dc.lft.to/lastmile_qr_scan"}, "fusion_lon": 0.0}, {"lat": 38.909727833333335, "is_disabled": 0, "type": "electric_scooter", "lon": -76.99725883333333, "bike_id": "c9e8211263b1bd56675a2920ebbba71c", "fusion_lat": 0.0, "name": "c9e8211263b1bd56675a2920ebbba71c", "is_reserved": 0, "rental_uris": {"android": "https://dc.lft.to/lastmile_qr_scan", "ios": "https://dc.lft.to/lastmile_qr_scan"}, "fusion_lon": 0.0}, {"lat": 38.95607316666667, "is_disabled": 0, "type": "electric_scooter", "lon": -77.02781116666667, "bike_id": "f88b4c24f55b418e9f8d771983987b3c", "fusion_lat": 0.0, "name": "f88b4c24f55b418e9f8d771983987b3c", "is_reserved": 0, "rental_uris": {"android": "https://dc.lft.to/lastmile_qr_scan", "ios": "https://dc.lft.to/lastmile_qr_scan"}, "fusion_lon": 0.0}, {"lat": 38.828723833333335, "is_disabled": 0, "type": "electric_bike", "lon": -77.11219266666667, "bike_id": "0d37b664d0c7961e988c20cbd56d861e", "fusion_lat": 0.0, "name": "0d37b664d0c7961e988c20cbd56d861e", "is_reserved": 0, "rental_uris": {"android": "https://dc.lft.to/lastmile_qr_scan", "ios": "https://dc.lft.to/lastmile_qr_scan"}, "fusion_lon": 0.0}, {"lat": 38.901797, "is_disabled": 0, "type": "electric_scooter", "lon": -77.02403166666667, "bike_id": "9e149ec5b4dfe551dcec79e305dba948", "fusion_lat": 0.0, "name": "9e149ec5b4dfe551dcec79e305dba948", "is_reserved": 0, "rental_uris": {"android": "https://dc.lft.to/lastmile_qr_scan", "ios": "https://dc.lft.to/lastmile_qr_scan"}, "fusion_lon": 0.0}, {"lat": 38.919206333333335, "is_disabled": 0, "type": "electric_scooter", "lon": -77.03179633333333, "bike_id": "ea55b99ce56ee927182658946a6040db", "fusion_lat": 0.0, "name": "ea55b99ce56ee927182658946a6040db", "is_reserved": 0, "rental_uris": {"android": "https://dc.lft.to/lastmile_qr_scan", "ios": "https://dc.lft.to/lastmile_qr_scan"}, "fusion_lon": 0.0}, {"lat": 38.915518166666665, "is_disabled": 0, "type": "electric_scooter", "lon": -77.038679, "bike_id": "63a3d0b2c13a358c10adeedd23aa3038", "fusion_lat": 0.0, "name": "63a3d0b2c13a358c10adeedd23aa3038", "is_reserved": 0, "rental_uris": {"android": "https://dc.lft.to/lastmile_qr_scan", "ios": "https://dc.lft.to/lastmile_qr_scan"}, "fusion_lon": 0.0}, {"lat": 38.90361516666667, "is_disabled": 0, "type": "electric_scooter", "lon": -77.0385855, "bike_id": "e7f7425b7d80f2692e7efd65017d4d2c", "fusion_lat": 0.0, "name": "e7f7425b7d80f2692e7efd65017d4d2c", "is_reserved": 0, "rental_uris": {"android": "https://dc.lft.to/lastmile_qr_scan", "ios": "https://dc.lft.to/lastmile_qr_scan"}, "fusion_lon": 0.0}, {"lat": 38.905522, "is_disabled": 0, "type": "electric_scooter", "lon": -77.006048, "bike_id": "35ae480aafa9a730d4c7422d8b3ce909", "fusion_lat": 0.0, "name": "35ae480aafa9a730d4c7422d8b3ce909", "is_reserved": 0, "rental_uris": {"android": "https://dc.lft.to/lastmile_qr_scan", "ios": "https://dc.lft.to/lastmile_qr_scan"}, "fusion_lon": 0.0}, {"lat": 38.86648783333333, "is_disabled": 0, "type": "electric_scooter", "lon": -76.98884016666666, "bike_id": "a2a60ee4f31463112a1c52407b260aa7", "fusion_lat": 0.0, "name": "a2a60ee4f31463112a1c52407b260aa7", "is_reserved": 0, "rental_uris": {"android": "https://dc.lft.to/lastmile_qr_scan", "ios": "https://dc.lft.to/lastmile_qr_scan"}, "fusion_lon": 0.0}, {"lat": 38.90378166666667, "is_disabled": 0, "type": "electric_scooter", "lon": -77.02149233333333, "bike_id": "2ceca7ce53da04bcaff8fba39eb7f748", "fusion_lat": 0.0, "name": "2ceca7ce53da04bcaff8fba39eb7f748", "is_reserved": 0, "rental_uris": {"android": "https://dc.lft.to/lastmile_qr_scan", "ios": "https://dc.lft.to/lastmile_qr_scan"}, "fusion_lon": 0.0}, {"lat": 38.87129633333333, "is_disabled": 0, "type": "electric_scooter", "lon": -77.00780633333333, "bike_id": "8b1f9076d6c8d9510be50413a753bd44", "fusion_lat": 0.0, "name": "8b1f9076d6c8d9510be50413a753bd44", "is_reserved": 0, "rental_uris": {"android": "https://dc.lft.to/lastmile_qr_scan", "ios": "https://dc.lft.to/lastmile_qr_scan"}, "fusion_lon": 0.0}, {"lat": 38.8652385, "is_disabled": 0, "type": "electric_scooter", "lon": -76.9903245, "bike_id": "6c49ae8ab14f25773a008eea53681a24", "fusion_lat": 0.0, "name": "6c49ae8ab14f25773a008eea53681a24", "is_reserved": 0, "rental_uris": {"android": "https://dc.lft.to/lastmile_qr_scan", "ios": "https://dc.lft.to/lastmile_qr_scan"}, "fusion_lon": 0.0}, {"lat": 38.914016333333336, "is_disabled": 0, "type": "electric_scooter", "lon": -77.01803833333334, "bike_id": "d7b99fd87e44c98c6a4be07add5508d1", "fusion_lat": 0.0, "name": "d7b99fd87e44c98c6a4be07add5508d1", "is_reserved": 0, "rental_uris": {"android": "https://dc.lft.to/lastmile_qr_scan", "ios": "https://dc.lft.to/lastmile_qr_scan"}, "fusion_lon": 0.0}, {"lat": 38.898196166666665, "is_disabled": 0, "type": "electric_scooter", "lon": -77.00578916666667, "bike_id": "0a3db8f12fe3db3a07046da7f94919c5", "fusion_lat": 0.0, "name": "0a3db8f12fe3db3a07046da7f94919c5", "is_reserved": 0, "rental_uris": {"android": "https://dc.lft.to/lastmile_qr_scan", "ios": "https://dc.lft.to/lastmile_qr_scan"}, "fusion_lon": 0.0}, {"lat": 38.90967033333333, "is_disabled": 0, "type": "electric_scooter", "lon": -77.048103, "bike_id": "33b5c57296a83a356e0d9fc7b2b654b7", "fusion_lat": 0.0, "name": "33b5c57296a83a356e0d9fc7b2b654b7", "is_reserved": 0, "rental_uris": {"android": "https://dc.lft.to/lastmile_qr_scan", "ios": "https://dc.lft.to/lastmile_qr_scan"}, "fusion_lon": 0.0}, {"lat": 38.876788833333336, "is_disabled": 0, "type": "electric_scooter", "lon": -77.0178715, "bike_id": "bec8159309bdef31ffb5e730289e260f", "fusion_lat": 0.0, "name": "bec8159309bdef31ffb5e730289e260f", "is_reserved": 0, "rental_uris": {"android": "https://dc.lft.to/lastmile_qr_scan", "ios": "https://dc.lft.to/lastmile_qr_scan"}, "fusion_lon": 0.0}, {"lat": 38.863720666666666, "is_disabled": 0, "type": "electric_scooter", "lon": -76.99060466666667, "bike_id": "be11155c275ba68904a6a9b0e9dd59ec", "fusion_lat": 0.0, "name": "be11155c275ba68904a6a9b0e9dd59ec", "is_reserved": 0, "rental_uris": {"android": "https://dc.lft.to/lastmile_qr_scan", "ios": "https://dc.lft.to/lastmile_qr_scan"}, "fusion_lon": 0.0}, {"lat": 38.912066833333334, "is_disabled": 0, "type": "electric_scooter", "lon": -77.03851383333334, "bike_id": "27531815f4380a8bff09ac12ba98385e", "fusion_lat": 0.0, "name": "27531815f4380a8bff09ac12ba98385e", "is_reserved": 0, "rental_uris": {"android": "https://dc.lft.to/lastmile_qr_scan", "ios": "https://dc.lft.to/lastmile_qr_scan"}, "fusion_lon": 0.0}, {"lat": 38.9191125, "is_disabled": 0, "type": "electric_scooter", "lon": -77.046275, "bike_id": "9eb478dbba79c3f5f9ee3224ba476804", "fusion_lat": 0.0, "name": "9eb478dbba79c3f5f9ee3224ba476804", "is_reserved": 0, "rental_uris": {"android": "https://dc.lft.to/lastmile_qr_scan", "ios": "https://dc.lft.to/lastmile_qr_scan"}, "fusion_lon": 0.0}, {"lat": 38.903839833333336, "is_disabled": 0, "type": "electric_scooter", "lon": -77.04322833333333, "bike_id": "dd4391722a4d33ea5994062eb149f74c", "fusion_lat": 0.0, "name": "dd4391722a4d33ea5994062eb149f74c", "is_reserved": 0, "rental_uris": {"android": "https://dc.lft.to/lastmile_qr_scan", "ios": "https://dc.lft.to/lastmile_qr_scan"}, "fusion_lon": 0.0}, {"lat": 38.89949683333333, "is_disabled": 0, "type": "electric_scooter", "lon": -77.02133216666667, "bike_id": "fcc745af93680541ea31690e7f68a69c", "fusion_lat": 0.0, "name": "fcc745af93680541ea31690e7f68a69c", "is_reserved": 0, "rental_uris": {"android": "https://dc.lft.to/lastmile_qr_scan", "ios": "https://dc.lft.to/lastmile_qr_scan"}, "fusion_lon": 0.0}, {"lat": 38.92482583333334, "is_disabled": 0, "type": "electric_scooter", "lon": -77.03182783333334, "bike_id": "795b9ab280ab4e9c33bf7d3a9651a180", "fusion_lat": 0.0, "name": "795b9ab280ab4e9c33bf7d3a9651a180", "is_reserved": 0, "rental_uris": {"android": "https://dc.lft.to/lastmile_qr_scan", "ios": "https://dc.lft.to/lastmile_qr_scan"}, "fusion_lon": 0.0}, {"lat": 38.925365, "is_disabled": 0, "type": "electric_scooter", "lon": -77.034531, "bike_id": "2b7458809b88302a1b5b54ebf3feafbe", "fusion_lat": 0.0, "name": "2b7458809b88302a1b5b54ebf3feafbe", "is_reserved": 0, "rental_uris": {"android": "https://dc.lft.to/lastmile_qr_scan", "ios": "https://dc.lft.to/lastmile_qr_scan"}, "fusion_lon": 0.0}, {"lat": 38.966075333333336, "is_disabled": 0, "type": "electric_scooter", "lon": -77.02048816666667, "bike_id": "1d71d2db0ebf9bd62d894fca1ccb3d91", "fusion_lat": 0.0, "name": "1d71d2db0ebf9bd62d894fca1ccb3d91", "is_reserved": 0, "rental_uris": {"android": "https://dc.lft.to/lastmile_qr_scan", "ios": "https://dc.lft.to/lastmile_qr_scan"}, "fusion_lon": 0.0}, {"lat": 38.85805766666667, "is_disabled": 0, "type": "electric_scooter", "lon": -76.98652816666667, "bike_id": "07facee5d5dd6e70dd8780c2eed51af3", "fusion_lat": 0.0, "name": "07facee5d5dd6e70dd8780c2eed51af3", "is_reserved": 0, "rental_uris": {"android": "https://dc.lft.to/lastmile_qr_scan", "ios": "https://dc.lft.to/lastmile_qr_scan"}, "fusion_lon": 0.0}, {"lat": 38.9420225, "is_disabled": 0, "type": "electric_bike", "lon": -77.01824933333333, "bike_id": "7ed7f95de1f42e541c341f23cf80dcbc", "fusion_lat": 0.0, "name": "7ed7f95de1f42e541c341f23cf80dcbc", "is_reserved": 0, "rental_uris": {"android": "https://dc.lft.to/lastmile_qr_scan", "ios": "https://dc.lft.to/lastmile_qr_scan"}, "fusion_lon": 0.0}, {"lat": 38.934750666666666, "is_disabled": 0, "type": "electric_scooter", "lon": -77.057919, "bike_id": "017d0ee59863c801ecd1c95a83bad7ac", "fusion_lat": 0.0, "name": "017d0ee59863c801ecd1c95a83bad7ac", "is_reserved": 0, "rental_uris": {"android": "https://dc.lft.to/lastmile_qr_scan", "ios": "https://dc.lft.to/lastmile_qr_scan"}, "fusion_lon": 0.0}, {"lat": 38.90034166666667, "is_disabled": 0, "type": "electric_scooter", "lon": -77.0019495, "bike_id": "a9127418afa56b1742da8093a0ed4e38", "fusion_lat": 0.0, "name": "a9127418afa56b1742da8093a0ed4e38", "is_reserved": 0, "rental_uris": {"android": "https://dc.lft.to/lastmile_qr_scan", "ios": "https://dc.lft.to/lastmile_qr_scan"}, "fusion_lon": 0.0}, {"lat": 38.8874405, "is_disabled": 0, "type": "electric_scooter", "lon": -77.031469, "bike_id": "2b757fc41e5cc06984bf921abae04f04", "fusion_lat": 0.0, "name": "2b757fc41e5cc06984bf921abae04f04", "is_reserved": 0, "rental_uris": {"android": "https://dc.lft.to/lastmile_qr_scan", "ios": "https://dc.lft.to/lastmile_qr_scan"}, "fusion_lon": 0.0}, {"lat": 38.9067855, "is_disabled": 0, "type": "electric_scooter", "lon": -77.062541, "bike_id": "22c44e4b198e09039da1c11178fa7bf2", "fusion_lat": 0.0, "name": "22c44e4b198e09039da1c11178fa7bf2", "is_reserved": 0, "rental_uris": {"android": "https://dc.lft.to/lastmile_qr_scan", "ios": "https://dc.lft.to/lastmile_qr_scan"}, "fusion_lon": 0.0}, {"lat": 38.922965833333336, "is_disabled": 0, "type": "electric_scooter", "lon": -77.04144066666667, "bike_id": "42ad5fef6f71f0499c55edf4bbb9ae0e", "fusion_lat": 0.0, "name": "42ad5fef6f71f0499c55edf4bbb9ae0e", "is_reserved": 0, "rental_uris": {"android": "https://dc.lft.to/lastmile_qr_scan", "ios": "https://dc.lft.to/lastmile_qr_scan"}, "fusion_lon": 0.0}, {"lat": 38.921834833333335, "is_disabled": 0, "type": "electric_scooter", "lon": -77.04711516666667, "bike_id": "6946fd5e6bf2f0362a19b22ad081224b", "fusion_lat": 0.0, "name": "6946fd5e6bf2f0362a19b22ad081224b", "is_reserved": 0, "rental_uris": {"android": "https://dc.lft.to/lastmile_qr_scan", "ios": "https://dc.lft.to/lastmile_qr_scan"}, "fusion_lon": 0.0}, {"lat": 38.866520333333334, "is_disabled": 0, "type": "electric_scooter", "lon": -76.988845, "bike_id": "9207414470ed5222b3b02b9e4c515d35", "fusion_lat": 0.0, "name": "9207414470ed5222b3b02b9e4c515d35", "is_reserved": 0, "rental_uris": {"android": "https://dc.lft.to/lastmile_qr_scan", "ios": "https://dc.lft.to/lastmile_qr_scan"}, "fusion_lon": 0.0}, {"lat": 38.964927, "is_disabled": 0, "type": "electric_scooter", "lon": -77.02777433333333, "bike_id": "fe6b41f4f1eabbcd25a5f49cd63922b7", "fusion_lat": 0.0, "name": "fe6b41f4f1eabbcd25a5f49cd63922b7", "is_reserved": 0, "rental_uris": {"android": "https://dc.lft.to/lastmile_qr_scan", "ios": "https://dc.lft.to/lastmile_qr_scan"}, "fusion_lon": 0.0}, {"lat": 38.9201995, "is_disabled": 0, "type": "electric_scooter", "lon": -77.0385895, "bike_id": "d0a0574b64ac53ace45b7b694c0ac430", "fusion_lat": 0.0, "name": "d0a0574b64ac53ace45b7b694c0ac430", "is_reserved": 0, "rental_uris": {"android": "https://dc.lft.to/lastmile_qr_scan", "ios": "https://dc.lft.to/lastmile_qr_scan"}, "fusion_lon": 0.0}, {"lat": 38.932363, "is_disabled": 0, "type": "electric_scooter", "lon": -77.032669, "bike_id": "d8ac34b6b788030b647556dde9351dbe", "fusion_lat": 0.0, "name": "d8ac34b6b788030b647556dde9351dbe", "is_reserved": 0, "rental_uris": {"android": "https://dc.lft.to/lastmile_qr_scan", "ios": "https://dc.lft.to/lastmile_qr_scan"}, "fusion_lon": 0.0}, {"lat": 38.9191805, "is_disabled": 0, "type": "electric_scooter", "lon": -77.0339345, "bike_id": "4b1615e36852278add83db4b33c23345", "fusion_lat": 0.0, "name": "4b1615e36852278add83db4b33c23345", "is_reserved": 0, "rental_uris": {"android": "https://dc.lft.to/lastmile_qr_scan", "ios": "https://dc.lft.to/lastmile_qr_scan"}, "fusion_lon": 0.0}, {"lat": 38.90379316666667, "is_disabled": 0, "type": "electric_scooter", "lon": -77.00268633333333, "bike_id": "107559fd41ce6e0e1375c4beba279763", "fusion_lat": 0.0, "name": "107559fd41ce6e0e1375c4beba279763", "is_reserved": 0, "rental_uris": {"android": "https://dc.lft.to/lastmile_qr_scan", "ios": "https://dc.lft.to/lastmile_qr_scan"}, "fusion_lon": 0.0}, {"lat": 38.90522933333333, "is_disabled": 0, "type": "electric_scooter", "lon": -76.98619883333333, "bike_id": "0f5a0021e482105b44974e43181d872b", "fusion_lat": 0.0, "name": "0f5a0021e482105b44974e43181d872b", "is_reserved": 0, "rental_uris": {"android": "https://dc.lft.to/lastmile_qr_scan", "ios": "https://dc.lft.to/lastmile_qr_scan"}, "fusion_lon": 0.0}, {"lat": 38.86791266666667, "is_disabled": 0, "type": "electric_scooter", "lon": -76.96564733333334, "bike_id": "f91f6959165acf5b6a494c10d54dcb2f", "fusion_lat": 0.0, "name": "f91f6959165acf5b6a494c10d54dcb2f", "is_reserved": 0, "rental_uris": {"android": "https://dc.lft.to/lastmile_qr_scan", "ios": "https://dc.lft.to/lastmile_qr_scan"}, "fusion_lon": 0.0}, {"lat": 38.90033783333333, "is_disabled": 0, "type": "electric_scooter", "lon": -77.001964, "bike_id": "9b163ea28a4280a49c71f2fefff607bc", "fusion_lat": 0.0, "name": "9b163ea28a4280a49c71f2fefff607bc", "is_reserved": 0, "rental_uris": {"android": "https://dc.lft.to/lastmile_qr_scan", "ios": "https://dc.lft.to/lastmile_qr_scan"}, "fusion_lon": 0.0}, {"lat": 38.897466333333334, "is_disabled": 0, "type": "electric_scooter", "lon": -77.01855366666666, "bike_id": "fa73228cf1f59986d62d01c7a5aa8100", "fusion_lat": 0.0, "name": "fa73228cf1f59986d62d01c7a5aa8100", "is_reserved": 0, "rental_uris": {"android": "https://dc.lft.to/lastmile_qr_scan", "ios": "https://dc.lft.to/lastmile_qr_scan"}, "fusion_lon": 0.0}, {"lat": 38.90700133333333, "is_disabled": 0, "type": "electric_scooter", "lon": -77.0218395, "bike_id": "65ffbf3356567a3c01e9586402e1828a", "fusion_lat": 0.0, "name": "65ffbf3356567a3c01e9586402e1828a", "is_reserved": 0, "rental_uris": {"android": "https://dc.lft.to/lastmile_qr_scan", "ios": "https://dc.lft.to/lastmile_qr_scan"}, "fusion_lon": 0.0}, {"lat": 38.93267916666667, "is_disabled": 0, "type": "electric_scooter", "lon": -77.032855, "bike_id": "cd4839f55d6f10cbee778182479c3fc9", "fusion_lat": 0.0, "name": "cd4839f55d6f10cbee778182479c3fc9", "is_reserved": 0, "rental_uris": {"android": "https://dc.lft.to/lastmile_qr_scan", "ios": "https://dc.lft.to/lastmile_qr_scan"}, "fusion_lon": 0.0}, {"lat": 38.92053766666667, "is_disabled": 0, "type": "electric_scooter", "lon": -77.03294266666667, "bike_id": "988bbaee4986f41ad96e1ac2957c6e7f", "fusion_lat": 0.0, "name": "988bbaee4986f41ad96e1ac2957c6e7f", "is_reserved": 0, "rental_uris": {"android": "https://dc.lft.to/lastmile_qr_scan", "ios": "https://dc.lft.to/lastmile_qr_scan"}, "fusion_lon": 0.0}, {"lat": 38.908801833333335, "is_disabled": 0, "type": "electric_scooter", "lon": -77.03674133333334, "bike_id": "4735b6f85ed581c3e58aeca3c22d28ba", "fusion_lat": 0.0, "name": "4735b6f85ed581c3e58aeca3c22d28ba", "is_reserved": 0, "rental_uris": {"android": "https://dc.lft.to/lastmile_qr_scan", "ios": "https://dc.lft.to/lastmile_qr_scan"}, "fusion_lon": 0.0}, {"lat": 38.92453716666667, "is_disabled": 0, "type": "electric_scooter", "lon": -77.0122, "bike_id": "d0ae3f5c5639693ec65701f64c4815cc", "fusion_lat": 0.0, "name": "d0ae3f5c5639693ec65701f64c4815cc", "is_reserved": 0, "rental_uris": {"android": "https://dc.lft.to/lastmile_qr_scan", "ios": "https://dc.lft.to/lastmile_qr_scan"}, "fusion_lon": 0.0}, {"lat": 38.95212566666667, "is_disabled": 0, "type": "electric_scooter", "lon": -77.020155, "bike_id": "22fca571ac1ea65fbfbb95ce3b7f0d43", "fusion_lat": 0.0, "name": "22fca571ac1ea65fbfbb95ce3b7f0d43", "is_reserved": 0, "rental_uris": {"android": "https://dc.lft.to/lastmile_qr_scan", "ios": "https://dc.lft.to/lastmile_qr_scan"}, "fusion_lon": 0.0}, {"lat": 38.939712666666665, "is_disabled": 0, "type": "electric_scooter", "lon": -77.03588883333333, "bike_id": "9850693b4036897734b65c120ed840fe", "fusion_lat": 0.0, "name": "9850693b4036897734b65c120ed840fe", "is_reserved": 0, "rental_uris": {"android": "https://dc.lft.to/lastmile_qr_scan", "ios": "https://dc.lft.to/lastmile_qr_scan"}, "fusion_lon": 0.0}, {"lat": 38.881182333333335, "is_disabled": 0, "type": "electric_bike", "lon": -77.01662933333333, "bike_id": "11717951453e170880203adc1887f9d3", "fusion_lat": 0.0, "name": "11717951453e170880203adc1887f9d3", "is_reserved": 0, "rental_uris": {"android": "https://dc.lft.to/lastmile_qr_scan", "ios": "https://dc.lft.to/lastmile_qr_scan"}, "fusion_lon": 0.0}, {"lat": 38.9078395, "is_disabled": 0, "type": "electric_scooter", "lon": -77.06896716666667, "bike_id": "038e5d4ca9a3f92698294aa50b8a2a5f", "fusion_lat": 0.0, "name": "038e5d4ca9a3f92698294aa50b8a2a5f", "is_reserved": 0, "rental_uris": {"android": "https://dc.lft.to/lastmile_qr_scan", "ios": "https://dc.lft.to/lastmile_qr_scan"}, "fusion_lon": 0.0}, {"lat": 38.88726716666667, "is_disabled": 0, "type": "electric_scooter", "lon": -77.02824883333334, "bike_id": "a31f00113299dee39846a0d44f1c5139", "fusion_lat": 0.0, "name": "a31f00113299dee39846a0d44f1c5139", "is_reserved": 0, "rental_uris": {"android": "https://dc.lft.to/lastmile_qr_scan", "ios": "https://dc.lft.to/lastmile_qr_scan"}, "fusion_lon": 0.0}, {"lat": 38.8872315, "is_disabled": 0, "type": "electric_scooter", "lon": -77.01377866666667, "bike_id": "4eaa0647dc12cfc8e7e36082861f7a1f", "fusion_lat": 0.0, "name": "4eaa0647dc12cfc8e7e36082861f7a1f", "is_reserved": 0, "rental_uris": {"android": "https://dc.lft.to/lastmile_qr_scan", "ios": "https://dc.lft.to/lastmile_qr_scan"}, "fusion_lon": 0.0}, {"lat": 38.90310766666666, "is_disabled": 0, "type": "electric_scooter", "lon": -77.02071983333333, "bike_id": "36d5472690cf0f7d197dc9dd828b1856", "fusion_lat": 0.0, "name": "36d5472690cf0f7d197dc9dd828b1856", "is_reserved": 0, "rental_uris": {"android": "https://dc.lft.to/lastmile_qr_scan", "ios": "https://dc.lft.to/lastmile_qr_scan"}, "fusion_lon": 0.0}, {"lat": 38.9192685, "is_disabled": 0, "type": "electric_scooter", "lon": -77.000978, "bike_id": "7087119a66886c6874e21e1e08b7e1d1", "fusion_lat": 0.0, "name": "7087119a66886c6874e21e1e08b7e1d1", "is_reserved": 0, "rental_uris": {"android": "https://dc.lft.to/lastmile_qr_scan", "ios": "https://dc.lft.to/lastmile_qr_scan"}, "fusion_lon": 0.0}, {"lat": 38.8635525, "is_disabled": 0, "type": "electric_scooter", "lon": -76.98271133333333, "bike_id": "8d6a4e1be77cfeef19d98ba6b4cd15c2", "fusion_lat": 0.0, "name": "8d6a4e1be77cfeef19d98ba6b4cd15c2", "is_reserved": 0, "rental_uris": {"android": "https://dc.lft.to/lastmile_qr_scan", "ios": "https://dc.lft.to/lastmile_qr_scan"}, "fusion_lon": 0.0}, {"lat": 38.91332633333333, "is_disabled": 0, "type": "electric_scooter", "lon": -77.04815966666666, "bike_id": "7e4c4edfa0daeb02b5f49ef953893511", "fusion_lat": 0.0, "name": "7e4c4edfa0daeb02b5f49ef953893511", "is_reserved": 0, "rental_uris": {"android": "https://dc.lft.to/lastmile_qr_scan", "ios": "https://dc.lft.to/lastmile_qr_scan"}, "fusion_lon": 0.0}, {"lat": 38.864123, "is_disabled": 0, "type": "electric_bike", "lon": -76.97423083333334, "bike_id": "3e1f171ce37a6cf0fb60c03e6b41ae83", "fusion_lat": 0.0, "name": "3e1f171ce37a6cf0fb60c03e6b41ae83", "is_reserved": 0, "rental_uris": {"android": "https://dc.lft.to/lastmile_qr_scan", "ios": "https://dc.lft.to/lastmile_qr_scan"}, "fusion_lon": 0.0}, {"lat": 38.9083485, "is_disabled": 0, "type": "electric_scooter", "lon": -76.9997245, "bike_id": "c54a58d9e8f7bc9c30a4c39edcddbfa4", "fusion_lat": 0.0, "name": "c54a58d9e8f7bc9c30a4c39edcddbfa4", "is_reserved": 0, "rental_uris": {"android": "https://dc.lft.to/lastmile_qr_scan", "ios": "https://dc.lft.to/lastmile_qr_scan"}, "fusion_lon": 0.0}, {"lat": 38.90668383333333, "is_disabled": 0, "type": "electric_scooter", "lon": -77.03866633333334, "bike_id": "885f855c037952d47e16e23e67bea971", "fusion_lat": 0.0, "name": "885f855c037952d47e16e23e67bea971", "is_reserved": 0, "rental_uris": {"android": "https://dc.lft.to/lastmile_qr_scan", "ios": "https://dc.lft.to/lastmile_qr_scan"}, "fusion_lon": 0.0}, {"lat": 38.902628, "is_disabled": 0, "type": "electric_scooter", "lon": -77.04611183333333, "bike_id": "7f5e2b7abc7833e5912ec4de4e378c8a", "fusion_lat": 0.0, "name": "7f5e2b7abc7833e5912ec4de4e378c8a", "is_reserved": 0, "rental_uris": {"android": "https://dc.lft.to/lastmile_qr_scan", "ios": "https://dc.lft.to/lastmile_qr_scan"}, "fusion_lon": 0.0}, {"lat": 38.90970566666667, "is_disabled": 0, "type": "electric_scooter", "lon": -77.04517816666667, "bike_id": "0afc44850d97237e7ae45c75cd9ae55b", "fusion_lat": 0.0, "name": "0afc44850d97237e7ae45c75cd9ae55b", "is_reserved": 0, "rental_uris": {"android": "https://dc.lft.to/lastmile_qr_scan", "ios": "https://dc.lft.to/lastmile_qr_scan"}, "fusion_lon": 0.0}, {"lat": 38.99608833333333, "is_disabled": 0, "type": "electric_scooter", "lon": -77.032065, "bike_id": "5af3140a1959918a55dc6af3bf4df912", "fusion_lat": 0.0, "name": "5af3140a1959918a55dc6af3bf4df912", "is_reserved": 0, "rental_uris": {"android": "https://dc.lft.to/lastmile_qr_scan", "ios": "https://dc.lft.to/lastmile_qr_scan"}, "fusion_lon": 0.0}, {"lat": 38.9071615, "is_disabled": 0, "type": "electric_scooter", "lon": -76.99823783333333, "bike_id": "0ad7d45431c823c5927128dbe2b87e33", "fusion_lat": 0.0, "name": "0ad7d45431c823c5927128dbe2b87e33", "is_reserved": 0, "rental_uris": {"android": "https://dc.lft.to/lastmile_qr_scan", "ios": "https://dc.lft.to/lastmile_qr_scan"}, "fusion_lon": 0.0}, {"lat": 38.93307466666667, "is_disabled": 0, "type": "electric_scooter", "lon": -77.0345015, "bike_id": "e7fb1472a33a510db65e086c20cf0214", "fusion_lat": 0.0, "name": "e7fb1472a33a510db65e086c20cf0214", "is_reserved": 0, "rental_uris": {"android": "https://dc.lft.to/lastmile_qr_scan", "ios": "https://dc.lft.to/lastmile_qr_scan"}, "fusion_lon": 0.0}, {"lat": 38.894064166666666, "is_disabled": 0, "type": "electric_scooter", "lon": -76.95662833333333, "bike_id": "380e28a5dbe8902641de834221f44e3d", "fusion_lat": 0.0, "name": "380e28a5dbe8902641de834221f44e3d", "is_reserved": 0, "rental_uris": {"android": "https://dc.lft.to/lastmile_qr_scan", "ios": "https://dc.lft.to/lastmile_qr_scan"}, "fusion_lon": 0.0}, {"lat": 38.84569833333333, "is_disabled": 0, "type": "electric_bike", "lon": -77.096226, "bike_id": "56727b5fbb7f3d003f90b8fad29285b3", "fusion_lat": 0.0, "name": "56727b5fbb7f3d003f90b8fad29285b3", "is_reserved": 0, "rental_uris": {"android": "https://dc.lft.to/lastmile_qr_scan", "ios": "https://dc.lft.to/lastmile_qr_scan"}, "fusion_lon": 0.0}, {"lat": 38.836839166666664, "is_disabled": 0, "type": "electric_scooter", "lon": -77.10304783333333, "bike_id": "71b3946ff618f255a7ed5083711f7b3f", "fusion_lat": 0.0, "name": "71b3946ff618f255a7ed5083711f7b3f", "is_reserved": 0, "rental_uris": {"android": "https://dc.lft.to/lastmile_qr_scan", "ios": "https://dc.lft.to/lastmile_qr_scan"}, "fusion_lon": 0.0}, {"lat": 38.920783, "is_disabled": 0, "type": "electric_scooter", "lon": -77.02421866666667, "bike_id": "759bc4bb3b706657ea3ab9f5b51ba243", "fusion_lat": 0.0, "name": "759bc4bb3b706657ea3ab9f5b51ba243", "is_reserved": 0, "rental_uris": {"android": "https://dc.lft.to/lastmile_qr_scan", "ios": "https://dc.lft.to/lastmile_qr_scan"}, "fusion_lon": 0.0}, {"lat": 38.902346666666666, "is_disabled": 0, "type": "electric_scooter", "lon": -77.05336866666667, "bike_id": "3aa440fa3ea2b85043d85fc75173bd0e", "fusion_lat": 0.0, "name": "3aa440fa3ea2b85043d85fc75173bd0e", "is_reserved": 0, "rental_uris": {"android": "https://dc.lft.to/lastmile_qr_scan", "ios": "https://dc.lft.to/lastmile_qr_scan"}, "fusion_lon": 0.0}, {"lat": 38.8670525, "is_disabled": 0, "type": "electric_scooter", "lon": -76.98722666666667, "bike_id": "54497c8cab3a8138cf42447d30670b5b", "fusion_lat": 0.0, "name": "54497c8cab3a8138cf42447d30670b5b", "is_reserved": 0, "rental_uris": {"android": "https://dc.lft.to/lastmile_qr_scan", "ios": "https://dc.lft.to/lastmile_qr_scan"}, "fusion_lon": 0.0}, {"lat": 38.91168833333333, "is_disabled": 0, "type": "electric_bike", "lon": -77.002931, "bike_id": "4cd29d2c3ba57de5c4da0c268f6ed244", "fusion_lat": 0.0, "name": "4cd29d2c3ba57de5c4da0c268f6ed244", "is_reserved": 0, "rental_uris": {"android": "https://dc.lft.to/lastmile_qr_scan", "ios": "https://dc.lft.to/lastmile_qr_scan"}, "fusion_lon": 0.0}, {"lat": 38.90488766666667, "is_disabled": 0, "type": "electric_scooter", "lon": -77.00738733333333, "bike_id": "331bf8670dfe210644af207d9e212d8f", "fusion_lat": 0.0, "name": "331bf8670dfe210644af207d9e212d8f", "is_reserved": 0, "rental_uris": {"android": "https://dc.lft.to/lastmile_qr_scan", "ios": "https://dc.lft.to/lastmile_qr_scan"}, "fusion_lon": 0.0}, {"lat": 38.9000335, "is_disabled": 0, "type": "electric_scooter", "lon": -76.98815566666667, "bike_id": "76caa7493bec8fb9b3e45060f93dc1c0", "fusion_lat": 0.0, "name": "76caa7493bec8fb9b3e45060f93dc1c0", "is_reserved": 0, "rental_uris": {"android": "https://dc.lft.to/lastmile_qr_scan", "ios": "https://dc.lft.to/lastmile_qr_scan"}, "fusion_lon": 0.0}, {"lat": 38.87138216666666, "is_disabled": 0, "type": "electric_bike", "lon": -76.93704, "bike_id": "07db4f121efd7dd9c39eefb8775cce57", "fusion_lat": 0.0, "name": "07db4f121efd7dd9c39eefb8775cce57", "is_reserved": 0, "rental_uris": {"android": "https://dc.lft.to/lastmile_qr_scan", "ios": "https://dc.lft.to/lastmile_qr_scan"}, "fusion_lon": 0.0}, {"lat": 38.88427566666667, "is_disabled": 0, "type": "electric_bike", "lon": -76.957544, "bike_id": "2c201f2425fd42018ee5c9cbb59544c6", "fusion_lat": 0.0, "name": "2c201f2425fd42018ee5c9cbb59544c6", "is_reserved": 0, "rental_uris": {"android": "https://dc.lft.to/lastmile_qr_scan", "ios": "https://dc.lft.to/lastmile_qr_scan"}, "fusion_lon": 0.0}, {"lat": 38.91618, "is_disabled": 0, "type": "electric_scooter", "lon": -77.03268983333334, "bike_id": "906b87af664e8db14903d811f6dc3d2c", "fusion_lat": 0.0, "name": "906b87af664e8db14903d811f6dc3d2c", "is_reserved": 0, "rental_uris": {"android": "https://dc.lft.to/lastmile_qr_scan", "ios": "https://dc.lft.to/lastmile_qr_scan"}, "fusion_lon": 0.0}, {"lat": 38.9309895, "is_disabled": 0, "type": "electric_scooter", "lon": -77.0347135, "bike_id": "ca6ba05cb1ca2a547079afadddb17400", "fusion_lat": 0.0, "name": "ca6ba05cb1ca2a547079afadddb17400", "is_reserved": 0, "rental_uris": {"android": "https://dc.lft.to/lastmile_qr_scan", "ios": "https://dc.lft.to/lastmile_qr_scan"}, "fusion_lon": 0.0}, {"lat": 38.90162516666667, "is_disabled": 0, "type": "electric_scooter", "lon": -76.98072766666667, "bike_id": "155aba9af946e2c1ca40ccbd0b9891c0", "fusion_lat": 0.0, "name": "155aba9af946e2c1ca40ccbd0b9891c0", "is_reserved": 0, "rental_uris": {"android": "https://dc.lft.to/lastmile_qr_scan", "ios": "https://dc.lft.to/lastmile_qr_scan"}, "fusion_lon": 0.0}, {"lat": 38.9309505, "is_disabled": 0, "type": "electric_scooter", "lon": -77.025123, "bike_id": "cbe8ded7efaf12889d64773c7c7a3963", "fusion_lat": 0.0, "name": "cbe8ded7efaf12889d64773c7c7a3963", "is_reserved": 0, "rental_uris": {"android": "https://dc.lft.to/lastmile_qr_scan", "ios": "https://dc.lft.to/lastmile_qr_scan"}, "fusion_lon": 0.0}, {"lat": 38.871579, "is_disabled": 0, "type": "electric_scooter", "lon": -77.01317466666667, "bike_id": "a4d09d073935bd6ff6281b9bb0abe7b5", "fusion_lat": 0.0, "name": "a4d09d073935bd6ff6281b9bb0abe7b5", "is_reserved": 0, "rental_uris": {"android": "https://dc.lft.to/lastmile_qr_scan", "ios": "https://dc.lft.to/lastmile_qr_scan"}, "fusion_lon": 0.0}, {"lat": 38.92605616666667, "is_disabled": 0, "type": "electric_scooter", "lon": -77.05695466666667, "bike_id": "30c1c0783521e3565c06f0474e4bf630", "fusion_lat": 0.0, "name": "30c1c0783521e3565c06f0474e4bf630", "is_reserved": 0, "rental_uris": {"android": "https://dc.lft.to/lastmile_qr_scan", "ios": "https://dc.lft.to/lastmile_qr_scan"}, "fusion_lon": 0.0}, {"lat": 38.94597666666667, "is_disabled": 0, "type": "electric_scooter", "lon": -77.07037183333334, "bike_id": "29182cc18990d75de31322a7c68287a2", "fusion_lat": 0.0, "name": "29182cc18990d75de31322a7c68287a2", "is_reserved": 0, "rental_uris": {"android": "https://dc.lft.to/lastmile_qr_scan", "ios": "https://dc.lft.to/lastmile_qr_scan"}, "fusion_lon": 0.0}, {"lat": 38.90384983333333, "is_disabled": 0, "type": "electric_scooter", "lon": -77.05319, "bike_id": "b0793899d768ab6e8ee939531a99c6ee", "fusion_lat": 0.0, "name": "b0793899d768ab6e8ee939531a99c6ee", "is_reserved": 0, "rental_uris": {"android": "https://dc.lft.to/lastmile_qr_scan", "ios": "https://dc.lft.to/lastmile_qr_scan"}, "fusion_lon": 0.0}, {"lat": 38.89364966666667, "is_disabled": 0, "type": "electric_scooter", "lon": -76.99107633333334, "bike_id": "1f2c4c3973d16c321b1da86a78f692a9", "fusion_lat": 0.0, "name": "1f2c4c3973d16c321b1da86a78f692a9", "is_reserved": 0, "rental_uris": {"android": "https://dc.lft.to/lastmile_qr_scan", "ios": "https://dc.lft.to/lastmile_qr_scan"}, "fusion_lon": 0.0}, {"lat": 38.9210425, "is_disabled": 0, "type": "electric_scooter", "lon": -77.04211016666666, "bike_id": "cd70ee197a192e29fb2970627b01b08a", "fusion_lat": 0.0, "name": "cd70ee197a192e29fb2970627b01b08a", "is_reserved": 0, "rental_uris": {"android": "https://dc.lft.to/lastmile_qr_scan", "ios": "https://dc.lft.to/lastmile_qr_scan"}, "fusion_lon": 0.0}, {"lat": 38.91548933333333, "is_disabled": 0, "type": "electric_scooter", "lon": -77.009806, "bike_id": "b01430d1f83fcb1c7bc3799351d64aab", "fusion_lat": 0.0, "name": "b01430d1f83fcb1c7bc3799351d64aab", "is_reserved": 0, "rental_uris": {"android": "https://dc.lft.to/lastmile_qr_scan", "ios": "https://dc.lft.to/lastmile_qr_scan"}, "fusion_lon": 0.0}, {"lat": 38.8543385, "is_disabled": 0, "type": "electric_bike", "lon": -76.90975433333334, "bike_id": "1581245ac83176d863251a2ebcf43d1d", "fusion_lat": 0.0, "name": "1581245ac83176d863251a2ebcf43d1d", "is_reserved": 0, "rental_uris": {"android": "https://dc.lft.to/lastmile_qr_scan", "ios": "https://dc.lft.to/lastmile_qr_scan"}, "fusion_lon": 0.0}, {"lat": 38.91879133333333, "is_disabled": 0, "type": "electric_scooter", "lon": -77.03509416666667, "bike_id": "a7375d5b7460ee05edd5d164c22e1ce9", "fusion_lat": 0.0, "name": "a7375d5b7460ee05edd5d164c22e1ce9", "is_reserved": 0, "rental_uris": {"android": "https://dc.lft.to/lastmile_qr_scan", "ios": "https://dc.lft.to/lastmile_qr_scan"}, "fusion_lon": 0.0}, {"lat": 38.9049945, "is_disabled": 0, "type": "electric_scooter", "lon": -76.995328, "bike_id": "95e2157b0d5f972190861b40835b3e61", "fusion_lat": 0.0, "name": "95e2157b0d5f972190861b40835b3e61", "is_reserved": 0, "rental_uris": {"android": "https://dc.lft.to/lastmile_qr_scan", "ios": "https://dc.lft.to/lastmile_qr_scan"}, "fusion_lon": 0.0}, {"lat": 38.92384583333333, "is_disabled": 0, "type": "electric_scooter", "lon": -77.027604, "bike_id": "78a0538a4ba98f1ad424b76cf2a4ed19", "fusion_lat": 0.0, "name": "78a0538a4ba98f1ad424b76cf2a4ed19", "is_reserved": 0, "rental_uris": {"android": "https://dc.lft.to/lastmile_qr_scan", "ios": "https://dc.lft.to/lastmile_qr_scan"}, "fusion_lon": 0.0}, {"lat": 38.877454166666666, "is_disabled": 0, "type": "electric_bike", "lon": -76.99518116666667, "bike_id": "31e891732ed46af12e1b6700aae9c9c1", "fusion_lat": 0.0, "name": "31e891732ed46af12e1b6700aae9c9c1", "is_reserved": 0, "rental_uris": {"android": "https://dc.lft.to/lastmile_qr_scan", "ios": "https://dc.lft.to/lastmile_qr_scan"}, "fusion_lon": 0.0}, {"lat": 38.8442435, "is_disabled": 0, "type": "electric_scooter", "lon": -76.99780533333333, "bike_id": "2cdca6fae530a8cd3a6a879a1dcbb797", "fusion_lat": 0.0, "name": "2cdca6fae530a8cd3a6a879a1dcbb797", "is_reserved": 0, "rental_uris": {"android": "https://dc.lft.to/lastmile_qr_scan", "ios": "https://dc.lft.to/lastmile_qr_scan"}, "fusion_lon": 0.0}, {"lat": 38.81047933333333, "is_disabled": 0, "type": "electric_bike", "lon": -77.085096, "bike_id": "fac4ac3d63d9015a9cc1a75326869b05", "fusion_lat": 0.0, "name": "fac4ac3d63d9015a9cc1a75326869b05", "is_reserved": 0, "rental_uris": {"android": "https://dc.lft.to/lastmile_qr_scan", "ios": "https://dc.lft.to/lastmile_qr_scan"}, "fusion_lon": 0.0}, {"lat": 38.92441783333334, "is_disabled": 0, "type": "electric_scooter", "lon": -77.02031533333333, "bike_id": "6e44cd7cc90384d37899d6fcc06caf9d", "fusion_lat": 0.0, "name": "6e44cd7cc90384d37899d6fcc06caf9d", "is_reserved": 0, "rental_uris": {"android": "https://dc.lft.to/lastmile_qr_scan", "ios": "https://dc.lft.to/lastmile_qr_scan"}, "fusion_lon": 0.0}, {"lat": 38.86091183333333, "is_disabled": 0, "type": "electric_scooter", "lon": -76.983763, "bike_id": "6f507dc2129870e314b66cf45d080e14", "fusion_lat": 0.0, "name": "6f507dc2129870e314b66cf45d080e14", "is_reserved": 0, "rental_uris": {"android": "https://dc.lft.to/lastmile_qr_scan", "ios": "https://dc.lft.to/lastmile_qr_scan"}, "fusion_lon": 0.0}, {"lat": 38.8638615, "is_disabled": 0, "type": "electric_scooter", "lon": -76.99246566666666, "bike_id": "8b0cc071d77ccc5979c52e7c8af104ec", "fusion_lat": 0.0, "name": "8b0cc071d77ccc5979c52e7c8af104ec", "is_reserved": 0, "rental_uris": {"android": "https://dc.lft.to/lastmile_qr_scan", "ios": "https://dc.lft.to/lastmile_qr_scan"}, "fusion_lon": 0.0}, {"lat": 38.9430515, "is_disabled": 0, "type": "electric_scooter", "lon": -77.05924633333333, "bike_id": "75fd0e66ca2775557b03e94f6cedf7ff", "fusion_lat": 0.0, "name": "75fd0e66ca2775557b03e94f6cedf7ff", "is_reserved": 0, "rental_uris": {"android": "https://dc.lft.to/lastmile_qr_scan", "ios": "https://dc.lft.to/lastmile_qr_scan"}, "fusion_lon": 0.0}, {"lat": 38.900118, "is_disabled": 0, "type": "electric_scooter", "lon": -76.9921705, "bike_id": "d4678c5f23c66b71a70106ee08ff245d", "fusion_lat": 0.0, "name": "d4678c5f23c66b71a70106ee08ff245d", "is_reserved": 0, "rental_uris": {"android": "https://dc.lft.to/lastmile_qr_scan", "ios": "https://dc.lft.to/lastmile_qr_scan"}, "fusion_lon": 0.0}, {"lat": 38.97839, "is_disabled": 0, "type": "electric_bike", "lon": -77.0265595, "bike_id": "3f9145c3e1fc9baf250437cbc76ee6fd", "fusion_lat": 0.0, "name": "3f9145c3e1fc9baf250437cbc76ee6fd", "is_reserved": 0, "rental_uris": {"android": "https://dc.lft.to/lastmile_qr_scan", "ios": "https://dc.lft.to/lastmile_qr_scan"}, "fusion_lon": 0.0}, {"lat": 38.934477, "is_disabled": 0, "type": "electric_scooter", "lon": -77.02733616666667, "bike_id": "455f3750adcd9926a5f882af6b92bee2", "fusion_lat": 0.0, "name": "455f3750adcd9926a5f882af6b92bee2", "is_reserved": 0, "rental_uris": {"android": "https://dc.lft.to/lastmile_qr_scan", "ios": "https://dc.lft.to/lastmile_qr_scan"}, "fusion_lon": 0.0},