{"data": {"bikes": [{"bike_id": "9291088b8ac65311c36fbc2abe5a2378", "lat": 38.91982266666667, "is_reserved": 0, "fusion_lat": 0.0, "rental_uris": {"android": "https://dc.lft.to/lastmile_qr_scan", "ios": "https://dc.lft.to/lastmile_qr_scan"}, "fusion_lon": 0.0, "name": "9291088b8ac65311c36fbc2abe5a2378", "lon": -77.01787733333333, "is_disabled": 0, "type": "electric_scooter"}, {"bike_id": "c06fdf1ac2c10e7200350685d81caba2", "lat": 38.918185333333334, "is_reserved": 0, "fusion_lat": 0.0, "rental_uris": {"android": "https://dc.lft.to/lastmile_qr_scan", "ios": "https://dc.lft.to/lastmile_qr_scan"}, "fusion_lon": 0.0, "name": "c06fdf1ac2c10e7200350685d81caba2", "lon": -77.04003683333333, "is_disabled": 0, "type": "electric_scooter"}, {"bike_id": "f83e9061e86e9fd2063871a3b7d16a0c", "lat": 38.9170685, "is_reserved": 0, "fusion_lat": 0.0, "rental_uris": {"android": "https://dc.lft.to/lastmile_qr_scan", "ios": "https://dc.lft.to/lastmile_qr_scan"}, "fusion_lon": 0.0, "name": "f83e9061e86e9fd2063871a3b7d16a0c", "lon": -77.03882316666666, "is_disabled": 0, "type": "electric_scooter"}, {"bike_id": "f75abd79342fa2ad52b2e317f1d3bb2a", "lat": 38.904950666666664, "is_reserved": 0, "fusion_lat": 0.0, "rental_uris": {"android": "https://dc.lft.to/lastmile_qr_scan", "ios": "https://dc.lft.to/lastmile_qr_scan"}, "fusion_lon": 0.0, "name": "f75abd79342fa2ad52b2e317f1d3bb2a", "lon": -77.04331266666667, "is_disabled": 0, "type": "electric_scooter"}, {"bike_id": "7d315e450cd83d2bd739ffadac53a477", "lat": 38.9640405, "is_reserved": 0, "fusion_lat": 0.0, "rental_uris": {"android": "https://dc.lft.to/lastmile_qr_scan", "ios": "https://dc.lft.to/lastmile_qr_scan"}, "fusion_lon": 0.0, "name": "7d315e450cd83d2bd739ffadac53a477", "lon": -76.99991666666666, "is_disabled": 0, "type": "electric_bike"}, {"bike_id": "b6e5035d83e51075193bf7bb191684a6", "lat": 38.9297985, "is_reserved": 0, "fusion_lat": 0.0, "rental_uris": {"android": "https://dc.lft.to/lastmile_qr_scan", "ios": "https://dc.lft.to/lastmile_qr_scan"}, "fusion_lon": 0.0, "name": "b6e5035d83e51075193bf7bb191684a6", "lon": -77.03273633333333, "is_disabled": 0, "type": "electric_scooter"}, {"bike_id": "0e6dd89766b864e685c429b2a77346c8", "lat": 38.88351766666667, "is_reserved": 0, "fusion_lat": 0.0, "rental_uris": {"android": "https://dc.lft.to/lastmile_qr_scan", "ios": "https://dc.lft.to/lastmile_qr_scan"}, "fusion_lon": 0.0, "name": "0e6dd89766b864e685c429b2a77346c8", "lon": -77.026281, "is_disabled": 0, "type": "electric_scooter"}, {"bike_id": "b228e388adaef30b19d17db66d35a7b8", "lat": 38.90415466666666, "is_reserved": 0, "fusion_lat": 0.0, "rental_uris": {"android": "https://dc.lft.to/lastmile_qr_scan", "ios": "https://dc.lft.to/lastmile_qr_scan"}, "fusion_lon": 0.0, "name": "b228e388adaef30b19d17db66d35a7b8", "lon": -77.048761, "is_disabled": 0, "type": "electric_scooter"}, {"bike_id": "35c8369449e51d5903c69ad01055618e", "lat": 38.907374833333336, "is_reserved": 0, "fusion_lat": 0.0, "rental_uris": {"android": "https://dc.lft.to/lastmile_qr_scan", "ios": "https://dc.lft.to/lastmile_qr_scan"}, "fusion_lon": 0.0, "name": "35c8369449e51d5903c69ad01055618e", "lon": -77.002272, "is_disabled": 0, "type": "electric_scooter"}, {"bike_id": "fe7149076586afba1cd04e7d6e920bb8", "lat": 38.924257, "is_reserved": 0, "fusion_lat": 0.0, "rental_uris": {"android": "https://dc.lft.to/lastmile_qr_scan", "ios": "https://dc.lft.to/lastmile_qr_scan"}, "fusion_lon": 0.0, "name": "fe7149076586afba1cd04e7d6e920bb8", "lon": -77.05180183333333, "is_disabled": 0, "type": "electric_scooter"}, {"bike_id": "dc6da375f9257f08c36fbee75dcbe353", "lat": 38.89546966666666, "is_reserved": 0, "fusion_lat": 0.0, "rental_uris": {"android": "https://dc.lft.to/lastmile_qr_scan", "ios": "https://dc.lft.to/lastmile_qr_scan"}, "fusion_lon": 0.0, "name": "dc6da375f9257f08c36fbee75dcbe353", "lon": -77.046908, "is_disabled": 0, "type": "electric_scooter"}, {"bike_id": "71d0b29d64bf4d3ae09e536c69e9c0c4", "lat": 38.89955533333333, "is_reserved": 0, "fusion_lat": 0.0, "rental_uris": {"android": "https://dc.lft.to/lastmile_qr_scan", "ios": "https://dc.lft.to/lastmile_qr_scan"}, "fusion_lon": 0.0, "name": "71d0b29d64bf4d3ae09e536c69e9c0c4", "lon": -77.03169633333333, "is_disabled": 0, "type": "electric_scooter"}, {"bike_id": "a2da66421ccf7f15fe687291f3f749d5", "lat": 38.90805783333333, "is_reserved": 0, "fusion_lat": 0.0, "rental_uris": {"android": "https://dc.lft.to/lastmile_qr_scan", "ios": "https://dc.lft.to/lastmile_qr_scan"}, "fusion_lon": 0.0, "name": "a2da66421ccf7f15fe687291f3f749d5", "lon": -77.04344716666667, "is_disabled": 0, "type": "electric_scooter"}, {"bike_id": "e388f00ff5431ca9cc05c869ed6dd0e4", "lat": 38.91744633333333, "is_reserved": 0, "fusion_lat": 0.0, "rental_uris": {"android": "https://dc.lft.to/lastmile_qr_scan", "ios": "https://dc.lft.to/lastmile_qr_scan"}, "fusion_lon": 0.0, "name": "e388f00ff5431ca9cc05c869ed6dd0e4", "lon": -77.03190833333333, "is_disabled": 0, "type": "electric_scooter"}, {"bike_id": "317caedb52c92690aeef2c85429c9d47", "lat": 38.936991166666665, "is_reserved": 0, "fusion_lat": 0.0, "rental_uris": {"android": "https://dc.lft.to/lastmile_qr_scan", "ios": "https://dc.lft.to/lastmile_qr_scan"}, "fusion_lon": 0.0, "name": "317caedb52c92690aeef2c85429c9d47", "lon": -77.02396466666667, "is_disabled": 0, "type": "electric_scooter"}, {"bike_id": "4253217c34ee0601e0e801e17deccc05", "lat": 38.916308666666666, "is_reserved": 0, "fusion_lat": 0.0, "rental_uris": {"android": "https://dc.lft.to/lastmile_qr_scan", "ios": "https://dc.lft.to/lastmile_qr_scan"}, "fusion_lon": 0.0, "name": "4253217c34ee0601e0e801e17deccc05", "lon": -77.03045316666666, "is_disabled": 0, "type": "electric_scooter"}, {"bike_id": "596ac16f9278eec362f1ee923a979a5c", "lat": 38.9220255, "is_reserved": 0, "fusion_lat": 0.0, "rental_uris": {"android": "https://dc.lft.to/lastmile_qr_scan", "ios": "https://dc.lft.to/lastmile_qr_scan"}, "fusion_lon": 0.0, "name": "596ac16f9278eec362f1ee923a979a5c", "lon": -77.03405016666666, "is_disabled": 0, "type": "electric_scooter"}, {"bike_id": "574e8fddedfc45eb4c0871803532ab9e", "lat": 38.89231016666667, "is_reserved": 0, "fusion_lat": 0.0, "rental_uris": {"android": "https://dc.lft.to/lastmile_qr_scan", "ios": "https://dc.lft.to/lastmile_qr_scan"}, "fusion_lon": 0.0, "name": "574e8fddedfc45eb4c0871803532ab9e", "lon": -77.041527, "is_disabled": 0, "type": "electric_scooter"}, {"bike_id": "e503585491c076a75db2bbf5891b0c1d", "lat": 38.8737285, "is_reserved": 0, "fusion_lat": 0.0, "rental_uris": {"android": "https://dc.lft.to/lastmile_qr_scan", "ios": "https://dc.lft.to/lastmile_qr_scan"}, "fusion_lon": 0.0, "name": "e503585491c076a75db2bbf5891b0c1d", "lon": -77.00056766666667, "is_disabled": 0, "type": "electric_scooter"}, {"bike_id": "bcf797cee16f9ee728700a034d7d3e93", "lat": 38.91016183333333, "is_reserved": 0, "fusion_lat": 0.0, "rental_uris": {"android": "https://dc.lft.to/lastmile_qr_scan", "ios": "https://dc.lft.to/lastmile_qr_scan"}, "fusion_lon": 0.0, "name": "bcf797cee16f9ee728700a034d7d3e93", "lon": -77.02765683333334, "is_disabled": 0, "type": "electric_scooter"}, {"bike_id": "249cbd71a319212509a8d106a2dc4e07", "lat": 38.903519833333334, "is_reserved": 0, "fusion_lat": 0.0, "rental_uris": {"android": "https://dc.lft.to/lastmile_qr_scan", "ios": "https://dc.lft.to/lastmile_qr_scan"}, "fusion_lon": 0.0, "name": "249cbd71a319212509a8d106a2dc4e07", "lon": -77.00340116666666, "is_disabled": 0, "type": "electric_scooter"}, {"bike_id": "3868338a588f0417ce53e182da76b253", "lat": 38.906443333333335, "is_reserved": 0, "fusion_lat": 0.0, "rental_uris": {"android": "https://dc.lft.to/lastmile_qr_scan", "ios": "https://dc.lft.to/lastmile_qr_scan"}, "fusion_lon": 0.0, "name": "3868338a588f0417ce53e182da76b253", "lon": -77.0163495, "is_disabled": 0, "type": "electric_scooter"}, {"bike_id": "ec9c058a2d85dd88c0e332e76180888f", "lat": 38.91710916666667, "is_reserved": 0, "fusion_lat": 0.0, "rental_uris": {"android": "https://dc.lft.to/lastmile_qr_scan", "ios": "https://dc.lft.to/lastmile_qr_scan"}, "fusion_lon": 0.0, "name": "ec9c058a2d85dd88c0e332e76180888f", "lon": -77.03477866666667, "is_disabled": 0, "type": "electric_scooter"}, {"bike_id": "fea59ff0977a50c594252100fb094a81", "lat": 38.895718333333335, "is_reserved": 0, "fusion_lat": 0.0, "rental_uris": {"android": "https://dc.lft.to/lastmile_qr_scan", "ios": "https://dc.lft.to/lastmile_qr_scan"}, "fusion_lon": 0.0, "name": "fea59ff0977a50c594252100fb094a81", "lon": -76.93025716666666, "is_disabled": 0, "type": "electric_scooter"}, {"bike_id": "0e2b525b464765c7d689ecda80bb4bea", "lat": 38.9012685, "is_reserved": 0, "fusion_lat": 0.0, "rental_uris": {"android": "https://dc.lft.to/lastmile_qr_scan", "ios": "https://dc.lft.to/lastmile_qr_scan"}, "fusion_lon": 0.0, "name": "0e2b525b464765c7d689ecda80bb4bea", "lon": -77.04361683333333, "is_disabled": 0, "type": "electric_scooter"}, {"bike_id": "bf390aa44090c50fe979eeffd3ffaaef", "lat": 38.877534833333335, "is_reserved": 0, "fusion_lat": 0.0, "rental_uris": {"android": "https://dc.lft.to/lastmile_qr_scan", "ios": "https://dc.lft.to/lastmile_qr_scan"}, "fusion_lon": 0.0, "name": "bf390aa44090c50fe979eeffd3ffaaef", "lon": -76.98690783333333, "is_disabled": 0, "type": "electric_scooter"}, {"bike_id": "cf641e5cd7f8c381a2083ee1b94652a8", "lat": 38.91979216666667, "is_reserved": 0, "fusion_lat": 0.0, "rental_uris": {"android": "https://dc.lft.to/lastmile_qr_scan", "ios": "https://dc.lft.to/lastmile_qr_scan"}, "fusion_lon": 0.0, "name": "cf641e5cd7f8c381a2083ee1b94652a8", "lon": -77.0251195, "is_disabled": 0, "type": "electric_scooter"}, {"bike_id": "e55486fe9e261f5c219d9beb50521eeb", "lat": 38.91413416666666, "is_reserved": 0, "fusion_lat": 0.0, "rental_uris": {"android": "https://dc.lft.to/lastmile_qr_scan", "ios": "https://dc.lft.to/lastmile_qr_scan"}, "fusion_lon": 0.0, "name": "e55486fe9e261f5c219d9beb50521eeb", "lon": -77.02395533333333, "is_disabled": 0, "type": "electric_scooter"}, {"bike_id": "b85a4d3167534dc2b5525129dd2e06a9", "lat": 38.92118083333333, "is_reserved": 0, "fusion_lat": 0.0, "rental_uris": {"android": "https://dc.lft.to/lastmile_qr_scan", "ios": "https://dc.lft.to/lastmile_qr_scan"}, "fusion_lon": 0.0, "name": "b85a4d3167534dc2b5525129dd2e06a9", "lon": -77.01746366666667, "is_disabled": 0, "type": "electric_scooter"}, {"bike_id": "bad8fa70d079ae34cb1301fea9332b15", "lat": 38.83243383333333, "is_reserved": 0, "fusion_lat": 0.0, "rental_uris": {"android": "https://dc.lft.to/lastmile_qr_scan", "ios": "https://dc.lft.to/lastmile_qr_scan"}, "fusion_lon": 0.0, "name": "bad8fa70d079ae34cb1301fea9332b15", "lon": -76.9463125, "is_disabled": 0, "type": "electric_bike"}, {"bike_id": "e23f94a2084270516121ee40d32aacda", "lat": 38.88437733333333, "is_reserved": 0, "fusion_lat": 0.0, "rental_uris": {"android": "https://dc.lft.to/lastmile_qr_scan", "ios": "https://dc.lft.to/lastmile_qr_scan"}, "fusion_lon": 0.0, "name": "e23f94a2084270516121ee40d32aacda", "lon": -76.996208, "is_disabled": 0, "type": "electric_scooter"}, {"bike_id": "8f5603ee1f6704cbe98edd3e97a198c4", "lat": 39.034234833333336, "is_reserved": 0, "fusion_lat": 0.0, "rental_uris": {"android": "https://dc.lft.to/lastmile_qr_scan", "ios": "https://dc.lft.to/lastmile_qr_scan"}, "fusion_lon": 0.0, "name": "8f5603ee1f6704cbe98edd3e97a198c4", "lon": -77.04309866666667, "is_disabled": 0, "type": "electric_bike"}, {"bike_id": "8cfda333aeccb0461fd6c783f1640a3e", "lat": 38.898328166666666, "is_reserved": 0, "fusion_lat": 0.0, "rental_uris": {"android": "https://dc.lft.to/lastmile_qr_scan", "ios": "https://dc.lft.to/lastmile_qr_scan"}, "fusion_lon": 0.0, "name": "8cfda333aeccb0461fd6c783f1640a3e", "lon": -77.03041683333333, "is_disabled": 0, "type": "electric_scooter"}, {"bike_id": "5c1bfcf162f2673e7c574a39cfdddb01", "lat": 38.929115333333336, "is_reserved": 0, "fusion_lat": 0.0, "rental_uris": {"android": "https://dc.lft.to/lastmile_qr_scan", "ios": "https://dc.lft.to/lastmile_qr_scan"}, "fusion_lon": 0.0, "name": "5c1bfcf162f2673e7c574a39cfdddb01", "lon": -77.032523, "is_disabled": 0, "type": "electric_scooter"}, {"bike_id": "4fc1003ac4c2accb248e7ebfea38f5be", "lat": 38.9037385, "is_reserved": 0, "fusion_lat": 0.0, "rental_uris": {"android": "https://dc.lft.to/lastmile_qr_scan", "ios": "https://dc.lft.to/lastmile_qr_scan"}, "fusion_lon": 0.0, "name": "4fc1003ac4c2accb248e7ebfea38f5be", "lon": -77.04853633333333, "is_disabled": 0, "type": "electric_scooter"}, {"bike_id": "a671c9f280b8f5be6ed1f3c0e1ce35da", "lat": 38.8846945, "is_reserved": 0, "fusion_lat": 0.0, "rental_uris": {"android": "https://dc.lft.to/lastmile_qr_scan", "ios": "https://dc.lft.to/lastmile_qr_scan"}, "fusion_lon": 0.0, "name": "a671c9f280b8f5be6ed1f3c0e1ce35da", "lon": -76.956673, "is_disabled": 0, "type": "electric_bike"}, {"bike_id": "5fe4de64b0fd18badacd00bffdf3f257", "lat": 38.92315516666667, "is_reserved": 0, "fusion_lat": 0.0, "rental_uris": {"android": "https://dc.lft.to/lastmile_qr_scan", "ios": "https://dc.lft.to/lastmile_qr_scan"}, "fusion_lon": 0.0, "name": "5fe4de64b0fd18badacd00bffdf3f257", "lon": -77.0451805, "is_disabled": 0, "type": "electric_scooter"}, {"bike_id": "c25826cd3f116c73e419654e16c02180", "lat": 38.90849516666667, "is_reserved": 0, "fusion_lat": 0.0, "rental_uris": {"android": "https://dc.lft.to/lastmile_qr_scan", "ios": "https://dc.lft.to/lastmile_qr_scan"}, "fusion_lon": 0.0, "name": "c25826cd3f116c73e419654e16c02180", "lon": -76.998072, "is_disabled": 0, "type": "electric_scooter"}, {"bike_id": "dde1202a651d055de1ff22075605dbf5", "lat": 38.906111333333335, "is_reserved": 0, "fusion_lat": 0.0, "rental_uris": {"android": "https://dc.lft.to/lastmile_qr_scan", "ios": "https://dc.lft.to/lastmile_qr_scan"}, "fusion_lon": 0.0, "name": "dde1202a651d055de1ff22075605dbf5", "lon": -77.012098, "is_disabled": 0, "type": "electric_scooter"}, {"bike_id": "d04b0e6e40c2ce3a94b01cd89489b53d", "lat": 38.900734, "is_reserved": 0, "fusion_lat": 0.0, "rental_uris": {"android": "https://dc.lft.to/lastmile_qr_scan", "ios": "https://dc.lft.to/lastmile_qr_scan"}, "fusion_lon": 0.0, "name": "d04b0e6e40c2ce3a94b01cd89489b53d", "lon": -77.027024, "is_disabled": 0, "type": "electric_scooter"}, {"bike_id": "2f18ee9e484eea4fe761be6c073ffb80", "lat": 38.928586833333334, "is_reserved": 0, "fusion_lat": 0.0, "rental_uris": {"android": "https://dc.lft.to/lastmile_qr_scan", "ios": "https://dc.lft.to/lastmile_qr_scan"}, "fusion_lon": 0.0, "name": "2f18ee9e484eea4fe761be6c073ffb80", "lon": -77.00561933333333, "is_disabled": 0, "type": "electric_scooter"}, {"bike_id": "bc20cf4f753bddce5012d8335ecaeada", "lat": 38.92175983333333, "is_reserved": 0, "fusion_lat": 0.0, "rental_uris": {"android": "https://dc.lft.to/lastmile_qr_scan", "ios": "https://dc.lft.to/lastmile_qr_scan"}, "fusion_lon": 0.0, "name": "bc20cf4f753bddce5012d8335ecaeada", "lon": -77.02649433333333, "is_disabled": 0, "type": "electric_scooter"}, {"bike_id": "c6a76e806e654a7d9957bc548ed18bab", "lat": 38.905622, "is_reserved": 0, "fusion_lat": 0.0, "rental_uris": {"android": "https://dc.lft.to/lastmile_qr_scan", "ios": "https://dc.lft.to/lastmile_qr_scan"}, "fusion_lon": 0.0, "name": "c6a76e806e654a7d9957bc548ed18bab", "lon": -76.97786383333333, "is_disabled": 0, "type": "electric_scooter"}, {"bike_id": "38e60d3c5233744632c862f9aac3bed5", "lat": 38.90748216666667, "is_reserved": 0, "fusion_lat": 0.0, "rental_uris": {"android": "https://dc.lft.to/lastmile_qr_scan", "ios": "https://dc.lft.to/lastmile_qr_scan"}, "fusion_lon": 0.0, "name": "38e60d3c5233744632c862f9aac3bed5", "lon": -77.0321215, "is_disabled": 0, "type": "electric_scooter"}, {"bike_id": "d827d17b1021e7670070686f73fa7cdd", "lat": 38.89248166666667, "is_reserved": 0, "fusion_lat": 0.0, "rental_uris": {"android": "https://dc.lft.to/lastmile_qr_scan", "ios": "https://dc.lft.to/lastmile_qr_scan"}, "fusion_lon": 0.0, "name": "d827d17b1021e7670070686f73fa7cdd", "lon": -77.04883433333333, "is_disabled": 0, "type": "electric_scooter"}, {"bike_id": "8bc156272beb95bb80040a0494a7bb3e", "lat": 38.8750035, "is_reserved": 0, "fusion_lat": 0.0, "rental_uris": {"android": "https://dc.lft.to/lastmile_qr_scan", "ios": "https://dc.lft.to/lastmile_qr_scan"}, "fusion_lon": 0.0, "name": "8bc156272beb95bb80040a0494a7bb3e", "lon": -77.01231366666667, "is_disabled": 0, "type": "electric_scooter"}, {"bike_id": "fc88cbba58f129b5a37617787799c7c3", "lat": 38.93352483333334, "is_reserved": 0, "fusion_lat": 0.0, "rental_uris": {"android": "https://dc.lft.to/lastmile_qr_scan", "ios": "https://dc.lft.to/lastmile_qr_scan"}, "fusion_lon": 0.0, "name": "fc88cbba58f129b5a37617787799c7c3", "lon": -77.08580083333334, "is_disabled": 0, "type": "electric_scooter"}, {"bike_id": "c0bc329226f28f29ae1865e6ddba6b0b", "lat": 38.878532, "is_reserved": 0, "fusion_lat": 0.0, "rental_uris": {"android": "https://dc.lft.to/lastmile_qr_scan", "ios": "https://dc.lft.to/lastmile_qr_scan"}, "fusion_lon": 0.0, "name": "c0bc329226f28f29ae1865e6ddba6b0b", "lon": -77.01764483333334, "is_disabled": 0, "type": "electric_scooter"}, {"bike_id": "cd69d6466a52c4594ca6364cc45ef153", "lat": 38.920562333333336, "is_reserved": 0, "fusion_lat": 0.0, "rental_uris": {"android": "https://dc.lft.to/lastmile_qr_scan", "ios": "https://dc.lft.to/lastmile_qr_scan"}, "fusion_lon": 0.0, "name": "cd69d6466a52c4594ca6364cc45ef153", "lon": -77.023583, "is_disabled": 0, "type": "electric_scooter"}, {"bike_id": "114a1795ca5870e3a9016ac99d5b5b10", "lat": 38.899555666666664, "is_reserved": 0, "fusion_lat": 0.0, "rental_uris": {"android": "https://dc.lft.to/lastmile_qr_scan", "ios": "https://dc.lft.to/lastmile_qr_scan"}, "fusion_lon": 0.0, "name": "114a1795ca5870e3a9016ac99d5b5b10", "lon": -77.0482395, "is_disabled": 0, "type": "electric_bike"}, {"bike_id": "469a6417b0092027e72a023238c849dd", "lat": 38.917689833333334, "is_reserved": 0, "fusion_lat": 0.0, "rental_uris": {"android": "https://dc.lft.to/lastmile_qr_scan", "ios": "https://dc.lft.to/lastmile_qr_scan"}, "fusion_lon": 0.0, "name": "469a6417b0092027e72a023238c849dd", "lon": -77.0296135, "is_disabled": 0, "type": "electric_scooter"}, {"bike_id": "74c8055e9b8ee9d9adb3c8ca66290b74", "lat": 38.80905383333333, "is_reserved": 0, "fusion_lat": 0.0, "rental_uris": {"android": "https://dc.lft.to/lastmile_qr_scan", "ios": "https://dc.lft.to/lastmile_qr_scan"}, "fusion_lon": 0.0, "name": "74c8055e9b8ee9d9adb3c8ca66290b74", "lon": -77.08660766666667, "is_disabled": 0, "type": "electric_bike"}, {"bike_id": "41eda6911acce8c0476e2e2d310608fe", "lat": 38.865046666666665, "is_reserved": 0, "fusion_lat": 0.0, "rental_uris": {"android": "https://dc.lft.to/lastmile_qr_scan", "ios": "https://dc.lft.to/lastmile_qr_scan"}, "fusion_lon": 0.0, "name": "41eda6911acce8c0476e2e2d310608fe", "lon": -76.99018233333334, "is_disabled": 0, "type": "electric_scooter"}, {"bike_id": "5a43c97285e759e4c48fc8dddc3a300f", "lat": 38.89238533333334, "is_reserved": 0, "fusion_lat": 0.0, "rental_uris": {"android": "https://dc.lft.to/lastmile_qr_scan", "ios": "https://dc.lft.to/lastmile_qr_scan"}, "fusion_lon": 0.0, "name": "5a43c97285e759e4c48fc8dddc3a300f", "lon": -76.95330566666667, "is_disabled": 0, "type": "electric_scooter"}, {"bike_id": "677db6619cf3d4c1f173637291bb8ab0", "lat": 38.90950933333333, "is_reserved": 0, "fusion_lat": 0.0, "rental_uris": {"android": "https://dc.lft.to/lastmile_qr_scan", "ios": "https://dc.lft.to/lastmile_qr_scan"}, "fusion_lon": 0.0, "name": "677db6619cf3d4c1f173637291bb8ab0", "lon": -77.0374295, "is_disabled": 0, "type": "electric_scooter"}, {"bike_id": "263fcd1e6cc266b4dc4ff026593fdb40", "lat": 38.90089666666667, "is_reserved": 0, "fusion_lat": 0.0, "rental_uris": {"android": "https://dc.lft.to/lastmile_qr_scan", "ios": "https://dc.lft.to/lastmile_qr_scan"}, "fusion_lon": 0.0, "name": "263fcd1e6cc266b4dc4ff026593fdb40", "lon": -76.98340833333333, "is_disabled": 0, "type": "electric_scooter"}, {"bike_id": "138ee7be1ae3518a74befe981027df71", "lat": 38.902438333333336, "is_reserved": 0, "fusion_lat": 0.0, "rental_uris": {"android": "https://dc.lft.to/lastmile_qr_scan", "ios": "https://dc.lft.to/lastmile_qr_scan"}, "fusion_lon": 0.0, "name": "138ee7be1ae3518a74befe981027df71", "lon": -77.03926333333334, "is_disabled": 0, "type": "electric_scooter"}, {"bike_id": "b1219077649a3756272c1d94381b476e", "lat": 38.89907783333334, "is_reserved": 0, "fusion_lat": 0.0, "rental_uris": {"android": "https://dc.lft.to/lastmile_qr_scan", "ios": "https://dc.lft.to/lastmile_qr_scan"}, "fusion_lon": 0.0, "name": "b1219077649a3756272c1d94381b476e", "lon": -77.04022166666667, "is_disabled": 0, "type": "electric_scooter"}, {"bike_id": "b888222ce613644ab8d9a0a888505f54", "lat": 38.9064135, "is_reserved": 0, "fusion_lat": 0.0, "rental_uris": {"android": "https://dc.lft.to/lastmile_qr_scan", "ios": "https://dc.lft.to/lastmile_qr_scan"}, "fusion_lon": 0.0, "name": "b888222ce613644ab8d9a0a888505f54", "lon": -77.03436316666667, "is_disabled": 0, "type": "electric_scooter"}, {"bike_id": "91456d70f500ccd1595097e5876bdf80", "lat": 38.915377, "is_reserved": 0, "fusion_lat": 0.0, "rental_uris": {"android": "https://dc.lft.to/lastmile_qr_scan", "ios": "https://dc.lft.to/lastmile_qr_scan"}, "fusion_lon": 0.0, "name": "91456d70f500ccd1595097e5876bdf80", "lon": -77.04448633333334, "is_disabled": 0, "type": "electric_scooter"}, {"bike_id": "17d5a45147a4852a7b63bd67d7ed5663", "lat": 38.91901583333333, "is_reserved": 0, "fusion_lat": 0.0, "rental_uris": {"android": "https://dc.lft.to/lastmile_qr_scan", "ios": "https://dc.lft.to/lastmile_qr_scan"}, "fusion_lon": 0.0, "name": "17d5a45147a4852a7b63bd67d7ed5663", "lon": -77.01690483333333, "is_disabled": 0, "type": "electric_scooter"}, {"bike_id": "a5ba545c132065c83a999be6a37a6619", "lat": 38.921419, "is_reserved": 0, "fusion_lat": 0.0, "rental_uris": {"android": "https://dc.lft.to/lastmile_qr_scan", "ios": "https://dc.lft.to/lastmile_qr_scan"}, "fusion_lon": 0.0, "name": "a5ba545c132065c83a999be6a37a6619", "lon": -77.03512383333333, "is_disabled": 0, "type": "electric_scooter"}, {"bike_id": "583ded109ebea93595372eb3227bcc5f", "lat": 38.87376533333333, "is_reserved": 0, "fusion_lat": 0.0, "rental_uris": {"android": "https://dc.lft.to/lastmile_qr_scan", "ios": "https://dc.lft.to/lastmile_qr_scan"}, "fusion_lon": 0.0, "name": "583ded109ebea93595372eb3227bcc5f", "lon": -77.00114416666666, "is_disabled": 0, "type": "electric_scooter"}, {"bike_id": "c2a0b5cf13efde7c619f37386bad27c3", "lat": 38.90722683333333, "is_reserved": 0, "fusion_lat": 0.0, "rental_uris": {"android": "https://dc.lft.to/lastmile_qr_scan", "ios": "https://dc.lft.to/lastmile_qr_scan"}, "fusion_lon": 0.0, "name": "c2a0b5cf13efde7c619f37386bad27c3", "lon": -77.03188233333333, "is_disabled": 0, "type": "electric_scooter"}, {"bike_id": "236a8663be9ff409c1cec3464476b724", "lat": 38.90135466666667, "is_reserved": 0, "fusion_lat": 0.0, "rental_uris": {"android": "https://dc.lft.to/lastmile_qr_scan", "ios": "https://dc.lft.to/lastmile_qr_scan"}, "fusion_lon": 0.0, "name": "236a8663be9ff409c1cec3464476b724", "lon": -77.0447695, "is_disabled": 0, "type": "electric_scooter"}, {"bike_id": "cc6370f4a96b180fb1db9ebd35adfc1d", "lat": 38.892849166666664, "is_reserved": 0, "fusion_lat": 0.0, "rental_uris": {"android": "https://dc.lft.to/lastmile_qr_scan", "ios": "https://dc.lft.to/lastmile_qr_scan"}, "fusion_lon": 0.0, "name": "cc6370f4a96b180fb1db9ebd35adfc1d", "lon": -77.04486316666667, "is_disabled": 0, "type": "electric_scooter"}, {"bike_id": "8d8e09c0c5648a9be290e8629ee716c0", "lat": 38.897221333333334, "is_reserved": 0, "fusion_lat": 0.0, "rental_uris": {"android": "https://dc.lft.to/lastmile_qr_scan", "ios": "https://dc.lft.to/lastmile_qr_scan"}, "fusion_lon": 0.0, "name": "8d8e09c0c5648a9be290e8629ee716c0", "lon": -77.02458233333333, "is_disabled": 0, "type": "electric_scooter"}, {"bike_id": "7f67250770310d4ef3504620b628592d", "lat": 38.92003616666667, "is_reserved": 0, "fusion_lat": 0.0, "rental_uris": {"android": "https://dc.lft.to/lastmile_qr_scan", "ios": "https://dc.lft.to/lastmile_qr_scan"}, "fusion_lon": 0.0, "name": "7f67250770310d4ef3504620b628592d", "lon": -77.03198216666667, "is_disabled": 0, "type": "electric_scooter"}, {"bike_id": "420d33d807187a411c270c32a3812909", "lat": 38.91102716666666, "is_reserved": 0, "fusion_lat": 0.0, "rental_uris": {"android": "https://dc.lft.to/lastmile_qr_scan", "ios": "https://dc.lft.to/lastmile_qr_scan"}, "fusion_lon": 0.0, "name": "420d33d807187a411c270c32a3812909", "lon": -77.043637, "is_disabled": 0, "type": "electric_scooter"}, {"bike_id": "32a8b9acafdac86f2d696c622b7059d5", "lat": 38.934212, "is_reserved": 0, "fusion_lat": 0.0, "rental_uris": {"android": "https://dc.lft.to/lastmile_qr_scan", "ios": "https://dc.lft.to/lastmile_qr_scan"}, "fusion_lon": 0.0, "name": "32a8b9acafdac86f2d696c622b7059d5", "lon": -77.04006483333333, "is_disabled": 0, "type": "electric_scooter"}, {"bike_id": "f40fec9441ee66aa0b66628b944a70f6", "lat": 38.942929166666666, "is_reserved": 0, "fusion_lat": 0.0, "rental_uris": {"android": "https://dc.lft.to/lastmile_qr_scan", "ios": "https://dc.lft.to/lastmile_qr_scan"}, "fusion_lon": 0.0, "name": "f40fec9441ee66aa0b66628b944a70f6", "lon": -77.02176583333333, "is_disabled": 0, "type": "electric_scooter"}, {"bike_id": "abf16d7f1a9f233c8a93a10f5176643e", "lat": 38.92824366666667, "is_reserved": 0, "fusion_lat": 0.0, "rental_uris": {"android": "https://dc.lft.to/lastmile_qr_scan", "ios": "https://dc.lft.to/lastmile_qr_scan"}, "fusion_lon": 0.0, "name": "abf16d7f1a9f233c8a93a10f5176643e", "lon": -77.02259666666667, "is_disabled": 0, "type": "electric_scooter"}, {"bike_id": "067138739d89114729d1685d710f725d", "lat": 38.887640833333336, "is_reserved": 0, "fusion_lat": 0.0, "rental_uris": {"android": "https://dc.lft.to/lastmile_qr_scan", "ios": "https://dc.lft.to/lastmile_qr_scan"}, "fusion_lon": 0.0, "name": "067138739d89114729d1685d710f725d", "lon": -77.02616583333334, "is_disabled": 0, "type": "electric_scooter"}, {"bike_id": "240f5170887b5959ac11b30867ca0ab6", "lat": 38.978556, "is_reserved": 0, "fusion_lat": 0.0, "rental_uris": {"android": "https://dc.lft.to/lastmile_qr_scan", "ios": "https://dc.lft.to/lastmile_qr_scan"}, "fusion_lon": 0.0, "name": "240f5170887b5959ac11b30867ca0ab6", "lon": -76.94050783333333, "is_disabled": 0, "type": "electric_bike"}, {"bike_id": "e96af899a1d170a9bd4035a87b21a5f4", "lat": 38.90088516666667, "is_reserved": 0, "fusion_lat": 0.0, "rental_uris": {"android": "https://dc.lft.to/lastmile_qr_scan", "ios": "https://dc.lft.to/lastmile_qr_scan"}, "fusion_lon": 0.0, "name": "e96af899a1d170a9bd4035a87b21a5f4", "lon": -77.032315, "is_disabled": 0, "type": "electric_scooter"}, {"bike_id": "5037280fc65872d5f5736f5db0741cae", "lat": 38.8670125, "is_reserved": 0, "fusion_lat": 0.0, "rental_uris": {"android": "https://dc.lft.to/lastmile_qr_scan", "ios": "https://dc.lft.to/lastmile_qr_scan"}, "fusion_lon": 0.0, "name": "5037280fc65872d5f5736f5db0741cae", "lon": -76.98717783333333, "is_disabled": 0, "type": "electric_scooter"}, {"bike_id": "58d77e4784ce87def11da08d7fe33848", "lat": 38.9028725, "is_reserved": 0, "fusion_lat": 0.0, "rental_uris": {"android": "https://dc.lft.to/lastmile_qr_scan", "ios": "https://dc.lft.to/lastmile_qr_scan"}, "fusion_lon": 0.0, "name": "58d77e4784ce87def11da08d7fe33848", "lon": -77.033605, "is_disabled": 0, "type": "electric_scooter"}, {"bike_id": "631e8aa131d071e993d16fea422d7229", "lat": 38.86696666666667, "is_reserved": 0, "fusion_lat": 0.0, "rental_uris": {"android": "https://dc.lft.to/lastmile_qr_scan", "ios": "https://dc.lft.to/lastmile_qr_scan"}, "fusion_lon": 0.0, "name": "631e8aa131d071e993d16fea422d7229", "lon": -76.9871725, "is_disabled": 0, "type": "electric_scooter"}, {"bike_id": "f92a0f54da68e3c3c9e8820e026ad54c", "lat": 38.897573333333334, "is_reserved": 0, "fusion_lat": 0.0, "rental_uris": {"android": "https://dc.lft.to/lastmile_qr_scan", "ios": "https://dc.lft.to/lastmile_qr_scan"}, "fusion_lon": 0.0, "name": "f92a0f54da68e3c3c9e8820e026ad54c", "lon": -77.04895966666666, "is_disabled": 0, "type": "electric_scooter"}, {"bike_id": "5e6fcf1ddbd18ad8bc28b3fd8a761d9e", "lat": 38.878759, "is_reserved": 0, "fusion_lat": 0.0, "rental_uris": {"android": "https://dc.lft.to/lastmile_qr_scan", "ios": "https://dc.lft.to/lastmile_qr_scan"}, "fusion_lon": 0.0, "name": "5e6fcf1ddbd18ad8bc28b3fd8a761d9e", "lon": -77.01927, "is_disabled": 0, "type": "electric_scooter"}, {"bike_id": "7e65139086921a8625ecd345d7fee34b", "lat": 38.93077366666667, "is_reserved": 0, "fusion_lat": 0.0, "rental_uris": {"android": "https://dc.lft.to/lastmile_qr_scan", "ios": "https://dc.lft.to/lastmile_qr_scan"}, "fusion_lon": 0.0, "name": "7e65139086921a8625ecd345d7fee34b", "lon": -77.027952, "is_disabled": 0, "type": "electric_scooter"}, {"bike_id": "089af1622c5ffb68958281c3313c6241", "lat": 38.898665666666666, "is_reserved": 0, "fusion_lat": 0.0, "rental_uris": {"android": "https://dc.lft.to/lastmile_qr_scan", "ios": "https://dc.lft.to/lastmile_qr_scan"}, "fusion_lon": 0.0, "name": "089af1622c5ffb68958281c3313c6241", "lon": -76.94638583333334, "is_disabled": 0, "type": "electric_scooter"}, {"bike_id": "b67636c0fbc05c4783a01d965ae49e88", "lat": 38.910281, "is_reserved": 0, "fusion_lat": 0.0, "rental_uris": {"android": "https://dc.lft.to/lastmile_qr_scan", "ios": "https://dc.lft.to/lastmile_qr_scan"}, "fusion_lon": 0.0, "name": "b67636c0fbc05c4783a01d965ae49e88", "lon": -76.98555983333333, "is_disabled": 0, "type": "electric_scooter"}, {"bike_id": "eadf2b19c85e28a6ccdf3e9064729460", "lat": 38.8596345, "is_reserved": 0, "fusion_lat": 0.0, "rental_uris": {"android": "https://dc.lft.to/lastmile_qr_scan", "ios": "https://dc.lft.to/lastmile_qr_scan"}, "fusion_lon": 0.0, "name": "eadf2b19c85e28a6ccdf3e9064729460", "lon": -76.99164083333334, "is_disabled": 0, "type": "electric_scooter"}, {"bike_id": "6d3dc909f77357c6011083b7d93f9bda", "lat": 38.92321533333333, "is_reserved": 0, "fusion_lat": 0.0, "rental_uris": {"android": "https://dc.lft.to/lastmile_qr_scan", "ios": "https://dc.lft.to/lastmile_qr_scan"}, "fusion_lon": 0.0, "name": "6d3dc909f77357c6011083b7d93f9bda", "lon": -77.04150033333333, "is_disabled": 0, "type": "electric_scooter"}, {"bike_id": "e072621d7970c267c848b38507aac019", "lat": 38.951004166666664, "is_reserved": 0, "fusion_lat": 0.0, "rental_uris": {"android": "https://dc.lft.to/lastmile_qr_scan", "ios": "https://dc.lft.to/lastmile_qr_scan"}, "fusion_lon": 0.0, "name": "e072621d7970c267c848b38507aac019", "lon": -77.097223, "is_disabled": 0, "type": "electric_scooter"}, {"bike_id": "ac7b5a993640d40660952a2022fc520d", "lat": 38.941790166666664, "is_reserved": 0, "fusion_lat": 0.0, "rental_uris": {"android": "https://dc.lft.to/lastmile_qr_scan", "ios": "https://dc.lft.to/lastmile_qr_scan"}, "fusion_lon": 0.0, "name": "ac7b5a993640d40660952a2022fc520d", "lon": -77.02490916666666, "is_disabled": 0, "type": "electric_scooter"}, {"bike_id": "d6dd6cb8396070f3de7e5f951383a74b", "lat": 38.88545416666667, "is_reserved": 0, "fusion_lat": 0.0, "rental_uris": {"android": "https://dc.lft.to/lastmile_qr_scan", "ios": "https://dc.lft.to/lastmile_qr_scan"}, "fusion_lon": 0.0, "name": "d6dd6cb8396070f3de7e5f951383a74b", "lon": -76.99624866666667, "is_disabled": 0, "type": "electric_scooter"}, {"bike_id": "c1d0fd987e588625f16f81ef89e352f6", "lat": 38.928703666666664, "is_reserved": 0, "fusion_lat": 0.0, "rental_uris": {"android": "https://dc.lft.to/lastmile_qr_scan", "ios": "https://dc.lft.to/lastmile_qr_scan"}, "fusion_lon": 0.0, "name": "c1d0fd987e588625f16f81ef89e352f6", "lon": -77.03335066666666, "is_disabled": 0, "type": "electric_scooter"}, {"bike_id": "edc1ed8987141432feb0cd551eae1bde", "lat": 38.95649516666667, "is_reserved": 0, "fusion_lat": 0.0, "rental_uris": {"android": "https://dc.lft.to/lastmile_qr_scan", "ios": "https://dc.lft.to/lastmile_qr_scan"}, "fusion_lon": 0.0, "name": "edc1ed8987141432feb0cd551eae1bde", "lon": -77.01969133333333, "is_disabled": 0, "type": "electric_scooter"}, {"bike_id": "06a19b48cad7ddded73fefeae9fe49bc", "lat": 38.91613316666667, "is_reserved": 0, "fusion_lat": 0.0, "rental_uris": {"android": "https://dc.lft.to/lastmile_qr_scan", "ios": "https://dc.lft.to/lastmile_qr_scan"}, "fusion_lon": 0.0, "name": "06a19b48cad7ddded73fefeae9fe49bc", "lon": -77.023091, "is_disabled": 0, "type": "electric_scooter"}, {"bike_id": "0acec3624996531aa0795e1bae964384", "lat": 38.89195983333333, "is_reserved": 0, "fusion_lat": 0.0, "rental_uris": {"android": "https://dc.lft.to/lastmile_qr_scan", "ios": "https://dc.lft.to/lastmile_qr_scan"}, "fusion_lon": 0.0, "name": "0acec3624996531aa0795e1bae964384", "lon": -77.003017, "is_disabled": 0, "type": "electric_scooter"}, {"bike_id": "23a9cd75e74a895ecb2a7a0eb1f484e5", "lat": 38.900106666666666, "is_reserved": 0, "fusion_lat": 0.0, "rental_uris": {"android": "https://dc.lft.to/lastmile_qr_scan", "ios": "https://dc.lft.to/lastmile_qr_scan"}, "fusion_lon": 0.0, "name": "23a9cd75e74a895ecb2a7a0eb1f484e5", "lon": -76.98703866666666, "is_disabled": 0, "type": "electric_scooter"}, {"bike_id": "1230a30fa982d9242a05e4307c4683e9", "lat": 38.9326825, "is_reserved": 0, "fusion_lat": 0.0, "rental_uris": {"android": "https://dc.lft.to/lastmile_qr_scan", "ios": "https://dc.lft.to/lastmile_qr_scan"}, "fusion_lon": 0.0, "name": "1230a30fa982d9242a05e4307c4683e9", "lon": -77.03505366666667, "is_disabled": 0, "type": "electric_scooter"}, {"bike_id": "f1cdd360cbc4d4c86f0fbf746bf278fb", "lat": 38.892345, "is_reserved": 0, "fusion_lat": 0.0, "rental_uris": {"android": "https://dc.lft.to/lastmile_qr_scan", "ios": "https://dc.lft.to/lastmile_qr_scan"}, "fusion_lon": 0.0, "name": "f1cdd360cbc4d4c86f0fbf746bf278fb", "lon": -76.94102283333334, "is_disabled": 0, "type": "electric_scooter"}, {"bike_id": "2f0c8ddcb37f8eae23bc4affe2216260", "lat": 38.89798283333333, "is_reserved": 0, "fusion_lat": 0.0, "rental_uris": {"android": "https://dc.lft.to/lastmile_qr_scan", "ios": "https://dc.lft.to/lastmile_qr_scan"}, "fusion_lon": 0.0, "name": "2f0c8ddcb37f8eae23bc4affe2216260", "lon": -77.024818, "is_disabled": 0, "type": "electric_scooter"}, {"bike_id": "5c1f4f288021e8edc9117bfff2c69118", "lat": 38.903889166666666, "is_reserved": 0, "fusion_lat": 0.0, "rental_uris": {"android": "https://dc.lft.to/lastmile_qr_scan", "ios": "https://dc.lft.to/lastmile_qr_scan"}, "fusion_lon": 0.0, "name": "5c1f4f288021e8edc9117bfff2c69118", "lon": -77.02954433333333, "is_disabled": 0, "type": "electric_scooter"}, {"bike_id": "69333be9de522d22a18287a4680faf30", "lat": 38.935094666666664, "is_reserved": 0, "fusion_lat": 0.0, "rental_uris": {"android": "https://dc.lft.to/lastmile_qr_scan", "ios": "https://dc.lft.to/lastmile_qr_scan"}, "fusion_lon": 0.0, "name": "69333be9de522d22a18287a4680faf30", "lon": -77.03296583333334, "is_disabled": 0, "type": "electric_scooter"}, {"bike_id": "bdbbe697f97cb305f9660d9c31e403b7", "lat": 38.92047066666667, "is_reserved": 0, "fusion_lat": 0.0, "rental_uris": {"android": "https://dc.lft.to/lastmile_qr_scan", "ios": "https://dc.lft.to/lastmile_qr_scan"}, "fusion_lon": 0.0, "name": "bdbbe697f97cb305f9660d9c31e403b7", "lon": -77.04234483333333, "is_disabled": 0, "type": "electric_scooter"}, {"bike_id": "0d8a1db8dd59a3fc9947e795d7676be0", "lat": 38.928768, "is_reserved": 0, "fusion_lat": 0.0, "rental_uris": {"android": "https://dc.lft.to/lastmile_qr_scan", "ios": "https://dc.lft.to/lastmile_qr_scan"}, "fusion_lon": 0.0, "name": "0d8a1db8dd59a3fc9947e795d7676be0", "lon": -77.02719916666666, "is_disabled": 0, "type": "electric_scooter"}, {"bike_id": "ada79fedec7490e756ad3929caa13e4b", "lat": 38.88129716666667, "is_reserved": 0, "fusion_lat": 0.0, "rental_uris": {"android": "https://dc.lft.to/lastmile_qr_scan", "ios": "https://dc.lft.to/lastmile_qr_scan"}, "fusion_lon": 0.0, "name": "ada79fedec7490e756ad3929caa13e4b", "lon": -76.99558966666666, "is_disabled": 0, "type": "electric_bike"}, {"bike_id": "d5a9739c43579f890b3fe8eb30f01b24", "lat": 38.886698, "is_reserved": 0, "fusion_lat": 0.0, "rental_uris": {"android": "https://dc.lft.to/lastmile_qr_scan", "ios": "https://dc.lft.to/lastmile_qr_scan"}, "fusion_lon": 0.0, "name": "d5a9739c43579f890b3fe8eb30f01b24", "lon": -77.01986033333333, "is_disabled": 0, "type": "electric_scooter"}, {"bike_id": "bae7566c394aa7a441c9e7718ff2c101", "lat": 38.897922, "is_reserved": 0, "fusion_lat": 0.0, "rental_uris": {"android": "https://dc.lft.to/lastmile_qr_scan", "ios": "https://dc.lft.to/lastmile_qr_scan"}, "fusion_lon": 0.0, "name": "bae7566c394aa7a441c9e7718ff2c101", "lon": -77.03204316666667, "is_disabled": 0, "type": "electric_scooter"}, {"bike_id": "c2bcef45d432d56885427487c81ba371", "lat": 38.8746685, "is_reserved": 0, "fusion_lat": 0.0, "rental_uris": {"android": "https://dc.lft.to/lastmile_qr_scan", "ios": "https://dc.lft.to/lastmile_qr_scan"}, "fusion_lon": 0.0, "name": "c2bcef45d432d56885427487c81ba371", "lon": -77.004867, "is_disabled": 0, "type": "electric_scooter"}, {"bike_id": "657a92ee33fa438d2c98c5768ff9ac96", "lat": 38.902580666666665, "is_reserved": 0, "fusion_lat": 0.0, "rental_uris": {"android": "https://dc.lft.to/lastmile_qr_scan", "ios": "https://dc.lft.to/lastmile_qr_scan"}, "fusion_lon": 0.0, "name": "657a92ee33fa438d2c98c5768ff9ac96", "lon": -77.0265775, "is_disabled": 0, "type": "electric_scooter"}, {"bike_id": "5747a35c0b3d66736e70c8be0d468f72", "lat": 38.90265766666667, "is_reserved": 0, "fusion_lat": 0.0, "rental_uris": {"android": "https://dc.lft.to/lastmile_qr_scan", "ios": "https://dc.lft.to/lastmile_qr_scan"}, "fusion_lon": 0.0, "name": "5747a35c0b3d66736e70c8be0d468f72", "lon": -77.003282, "is_disabled": 0, "type": "electric_scooter"}, {"bike_id": "7d207c4b836446cdd7e9ffddf0514aff", "lat": 38.87939216666667, "is_reserved": 0, "fusion_lat": 0.0, "rental_uris": {"android": "https://dc.lft.to/lastmile_qr_scan", "ios": "https://dc.lft.to/lastmile_qr_scan"}, "fusion_lon": 0.0, "name": "7d207c4b836446cdd7e9ffddf0514aff", "lon": -77.00698033333333, "is_disabled": 0, "type": "electric_scooter"}, {"bike_id": "158659ce30a1651fac9ac8bbf41af384", "lat": 38.913799166666664, "is_reserved": 0, "fusion_lat": 0.0, "rental_uris": {"android": "https://dc.lft.to/lastmile_qr_scan", "ios": "https://dc.lft.to/lastmile_qr_scan"}, "fusion_lon": 0.0, "name": "158659ce30a1651fac9ac8bbf41af384", "lon": -77.032147, "is_disabled": 0, "type": "electric_scooter"}, {"bike_id": "a83566e254a3e7e7e913b86177019efc", "lat": 38.90004883333334, "is_reserved": 0, "fusion_lat": 0.0, "rental_uris": {"android": "https://dc.lft.to/lastmile_qr_scan", "ios": "https://dc.lft.to/lastmile_qr_scan"}, "fusion_lon": 0.0, "name": "a83566e254a3e7e7e913b86177019efc", "lon": -77.04029533333333, "is_disabled": 0, "type": "electric_scooter"}, {"bike_id": "19cb273abe612d261e9c88c2fdaf9c98", "lat": 38.90777966666667, "is_reserved": 0, "fusion_lat": 0.0, "rental_uris": {"android": "https://dc.lft.to/lastmile_qr_scan", "ios": "https://dc.lft.to/lastmile_qr_scan"}, "fusion_lon": 0.0, "name": "19cb273abe612d261e9c88c2fdaf9c98", "lon": -77.07170516666666, "is_disabled": 0, "type": "electric_scooter"}, {"bike_id": "1b4076ecdc75a900a582858781d90d66", "lat": 38.918645166666664, "is_reserved": 0, "fusion_lat": 0.0, "rental_uris": {"android": "https://dc.lft.to/lastmile_qr_scan", "ios": "https://dc.lft.to/lastmile_qr_scan"}, "fusion_lon": 0.0, "name": "1b4076ecdc75a900a582858781d90d66", "lon": -77.04038933333334, "is_disabled": 0, "type": "electric_scooter"}, {"bike_id": "ce1e4b5895fee5b26ae7737b17187c26", "lat": 38.897346166666665, "is_reserved": 0, "fusion_lat": 0.0, "rental_uris": {"android": "https://dc.lft.to/lastmile_qr_scan", "ios": "https://dc.lft.to/lastmile_qr_scan"}, "fusion_lon": 0.0, "name": "ce1e4b5895fee5b26ae7737b17187c26", "lon": -76.94726916666667, "is_disabled": 0, "type": "electric_scooter"}, {"bike_id": "68b38465cccab2f7e07b225988a0d2f1", "lat": 38.85887366666667, "is_reserved": 0, "fusion_lat": 0.0, "rental_uris": {"android": "https://dc.lft.to/lastmile_qr_scan", "ios": "https://dc.lft.to/lastmile_qr_scan"}, "fusion_lon": 0.0, "name": "68b38465cccab2f7e07b225988a0d2f1", "lon": -77.11863466666667, "is_disabled": 0, "type": "electric_bike"}, {"bike_id": "b297a31905623d9a9d7b840fae417ce3", "lat": 38.91128583333333, "is_reserved": 0, "fusion_lat": 0.0, "rental_uris": {"android": "https://dc.lft.to/lastmile_qr_scan", "ios": "https://dc.lft.to/lastmile_qr_scan"}, "fusion_lon": 0.0, "name": "b297a31905623d9a9d7b840fae417ce3", "lon": -77.04420766666667, "is_disabled": 0, "type": "electric_scooter"}, {"bike_id": "97ee6a30ced5b14d1478831ac2cf6d52", "lat": 38.90108333333333, "is_reserved": 0, "fusion_lat": 0.0, "rental_uris": {"android": "https://dc.lft.to/lastmile_qr_scan", "ios": "https://dc.lft.to/lastmile_qr_scan"}, "fusion_lon": 0.0, "name": "97ee6a30ced5b14d1478831ac2cf6d52", "lon": -77.0089845, "is_disabled": 0, "type": "electric_scooter"}, {"bike_id": "a40f4d52655305f20b3d37cfc653dc1c", "lat": 38.896597666666665, "is_reserved": 0, "fusion_lat": 0.0, "rental_uris": {"android": "https://dc.lft.to/lastmile_qr_scan", "ios": "https://dc.lft.to/lastmile_qr_scan"}, "fusion_lon": 0.0, "name": "a40f4d52655305f20b3d37cfc653dc1c", "lon": -77.02823833333333, "is_disabled": 0, "type": "electric_scooter"}, {"bike_id": "afac79aac0c67a0b7e4a44add18d5786", "lat": 38.9300105, "is_reserved": 0, "fusion_lat": 0.0, "rental_uris": {"android": "https://dc.lft.to/lastmile_qr_scan", "ios": "https://dc.lft.to/lastmile_qr_scan"}, "fusion_lon": 0.0, "name": "afac79aac0c67a0b7e4a44add18d5786", "lon": -77.013032, "is_disabled": 0, "type": "electric_scooter"}, {"bike_id": "95808f526e03504a12654e5763ea3ec5", "lat": 38.90583633333333, "is_reserved": 0, "fusion_lat": 0.0, "rental_uris": {"android": "https://dc.lft.to/lastmile_qr_scan", "ios": "https://dc.lft.to/lastmile_qr_scan"}, "fusion_lon": 0.0, "name": "95808f526e03504a12654e5763ea3ec5", "lon": -77.04327866666667, "is_disabled": 0, "type": "electric_scooter"}, {"bike_id": "c371785d514dffff5f329fced5b971c7", "lat": 38.9023475, "is_reserved": 0, "fusion_lat": 0.0, "rental_uris": {"android": "https://dc.lft.to/lastmile_qr_scan", "ios": "https://dc.lft.to/lastmile_qr_scan"}, "fusion_lon": 0.0, "name": "c371785d514dffff5f329fced5b971c7", "lon": -77.045997, "is_disabled": 0, "type": "electric_scooter"}, {"bike_id": "7d72ce3979266b7fc6eb89d3d9f6ee97", "lat": 38.922250166666664, "is_reserved": 0, "fusion_lat": 0.0, "rental_uris": {"android": "https://dc.lft.to/lastmile_qr_scan", "ios": "https://dc.lft.to/lastmile_qr_scan"}, "fusion_lon": 0.0, "name": "7d72ce3979266b7fc6eb89d3d9f6ee97", "lon": -77.02977116666666, "is_disabled": 0, "type": "electric_scooter"}, {"bike_id": "36eb241847237d79db2c46db21a1040e", "lat": 38.900787333333334, "is_reserved": 0, "fusion_lat": 0.0, "rental_uris": {"android": "https://dc.lft.to/lastmile_qr_scan", "ios": "https://dc.lft.to/lastmile_qr_scan"}, "fusion_lon": 0.0, "name": "36eb241847237d79db2c46db21a1040e", "lon": -77.0122725, "is_disabled": 0, "type": "electric_scooter"}, {"bike_id": "cfc7ccb03e08b2a6dbcec8d62d2a514a", "lat": 38.874711833333336, "is_reserved": 0, "fusion_lat": 0.0, "rental_uris": {"android": "https://dc.lft.to/lastmile_qr_scan", "ios": "https://dc.lft.to/lastmile_qr_scan"}, "fusion_lon": 0.0, "name": "cfc7ccb03e08b2a6dbcec8d62d2a514a", "lon": -77.002672, "is_disabled": 0, "type": "electric_scooter"}, {"bike_id": "9512b9c397965d5e3683c32458d8b917", "lat": 38.88029383333333, "is_reserved": 0, "fusion_lat": 0.0, "rental_uris": {"android": "https://dc.lft.to/lastmile_qr_scan", "ios": "https://dc.lft.to/lastmile_qr_scan"}, "fusion_lon": 0.0, "name": "9512b9c397965d5e3683c32458d8b917", "lon": -77.02507483333333, "is_disabled": 0, "type": "electric_scooter"}, {"bike_id": "41e6f596e8ad71362f9cfda20cdd39e8", "lat": 38.92468266666667, "is_reserved": 0, "fusion_lat": 0.0, "rental_uris": {"android": "https://dc.lft.to/lastmile_qr_scan", "ios": "https://dc.lft.to/lastmile_qr_scan"}, "fusion_lon": 0.0, "name": "41e6f596e8ad71362f9cfda20cdd39e8", "lon": -77.03784366666666, "is_disabled": 0, "type": "electric_scooter"}, {"bike_id": "ca663987712e94f1f27255cc94e19cc9", "lat": 38.924660333333335, "is_reserved": 0, "fusion_lat": 0.0, "rental_uris": {"android": "https://dc.lft.to/lastmile_qr_scan", "ios": "https://dc.lft.to/lastmile_qr_scan"}, "fusion_lon": 0.0, "name": "ca663987712e94f1f27255cc94e19cc9", "lon": -77.02216766666666, "is_disabled": 0, "type": "electric_scooter"}, {"bike_id": "08fbb1243b0feacf1c48fdaf519d5341", "lat": 38.90089566666666, "is_reserved": 0, "fusion_lat": 0.0, "rental_uris": {"android": "https://dc.lft.to/lastmile_qr_scan", "ios": "https://dc.lft.to/lastmile_qr_scan"}, "fusion_lon": 0.0, "name": "08fbb1243b0feacf1c48fdaf519d5341", "lon": -77.04990233333334, "is_disabled": 0, "type": "electric_scooter"}, {"bike_id": "45396065aaac7832366f11b7cc976e0b", "lat": 38.906365666666666, "is_reserved": 0, "fusion_lat": 0.0, "rental_uris": {"android": "https://dc.lft.to/lastmile_qr_scan", "ios": "https://dc.lft.to/lastmile_qr_scan"}, "fusion_lon": 0.0, "name": "45396065aaac7832366f11b7cc976e0b", "lon": -77.017906, "is_disabled": 0, "type": "electric_scooter"}, {"bike_id": "802799407f16430928618af984735158", "lat": 38.91815416666667, "is_reserved": 0, "fusion_lat": 0.0, "rental_uris": {"android": "https://dc.lft.to/lastmile_qr_scan", "ios": "https://dc.lft.to/lastmile_qr_scan"}, "fusion_lon": 0.0, "name": "802799407f16430928618af984735158", "lon": -77.00262866666667, "is_disabled": 0, "type": "electric_scooter"}, {"bike_id": "85401fe693c35ebaeb9fbd81a91cbfbb", "lat": 38.8840295, "is_reserved": 0, "fusion_lat": 0.0, "rental_uris": {"android": "https://dc.lft.to/lastmile_qr_scan", "ios": "https://dc.lft.to/lastmile_qr_scan"}, "fusion_lon": 0.0, "name": "85401fe693c35ebaeb9fbd81a91cbfbb", "lon": -76.96060166666666, "is_disabled": 0, "type": "electric_bike"}, {"bike_id": "b5936d20416f425322e21fd07c5c8e37", "lat": 38.9288865, "is_reserved": 0, "fusion_lat": 0.0, "rental_uris": {"android": "https://dc.lft.to/lastmile_qr_scan", "ios": "https://dc.lft.to/lastmile_qr_scan"}, "fusion_lon": 0.0, "name": "b5936d20416f425322e21fd07c5c8e37", "lon": -77.03278816666666, "is_disabled": 0, "type": "electric_scooter"}, {"bike_id": "b0a6c6f7dfb53fac227fdb5eb4b64830", "lat": 38.897172833333336, "is_reserved": 0, "fusion_lat": 0.0, "rental_uris": {"android": "https://dc.lft.to/lastmile_qr_scan", "ios": "https://dc.lft.to/lastmile_qr_scan"}, "fusion_lon": 0.0, "name": "b0a6c6f7dfb53fac227fdb5eb4b64830", "lon": -77.02701633333334, "is_disabled": 0, "type": "electric_scooter"}, {"bike_id": "33bb9b03bf62dfa5b8e605d9c67d2b19", "lat": 38.923819333333334, "is_reserved": 0, "fusion_lat": 0.0, "rental_uris": {"android": "https://dc.lft.to/lastmile_qr_scan", "ios": "https://dc.lft.to/lastmile_qr_scan"}, "fusion_lon": 0.0, "name": "33bb9b03bf62dfa5b8e605d9c67d2b19", "lon": -77.03136216666667, "is_disabled": 0, "type": "electric_scooter"}, {"bike_id": "dd11cf0041bdffabd92b97ea71471a45", "lat": 38.90733933333333, "is_reserved": 0, "fusion_lat": 0.0, "rental_uris": {"android": "https://dc.lft.to/lastmile_qr_scan", "ios": "https://dc.lft.to/lastmile_qr_scan"}, "fusion_lon": 0.0, "name": "dd11cf0041bdffabd92b97ea71471a45", "lon": -77.000571, "is_disabled": 0, "type": "electric_scooter"}, {"bike_id": "96e1dd86a78b5280a6c749aeac59eabf", "lat": 38.90928, "is_reserved": 0, "fusion_lat": 0.0, "rental_uris": {"android": "https://dc.lft.to/lastmile_qr_scan", "ios": "https://dc.lft.to/lastmile_qr_scan"}, "fusion_lon": 0.0, "name": "96e1dd86a78b5280a6c749aeac59eabf", "lon": -77.03179683333333, "is_disabled": 0, "type": "electric_scooter"}, {"bike_id": "ac7e959302466865c486fa3762408165", "lat": 38.922448833333334, "is_reserved": 0, "fusion_lat": 0.0, "rental_uris": {"android": "https://dc.lft.to/lastmile_qr_scan", "ios": "https://dc.lft.to/lastmile_qr_scan"}, "fusion_lon": 0.0, "name": "ac7e959302466865c486fa3762408165", "lon": -77.0195355, "is_disabled": 0, "type": "electric_scooter"}, {"bike_id": "8b52ac307824f72c748f82614d31ae34", "lat": 38.920713166666665, "is_reserved": 0, "fusion_lat": 0.0, "rental_uris": {"android": "https://dc.lft.to/lastmile_qr_scan", "ios": "https://dc.lft.to/lastmile_qr_scan"}, "fusion_lon": 0.0, "name": "8b52ac307824f72c748f82614d31ae34", "lon": -77.02318516666666, "is_disabled": 0, "type": "electric_scooter"}, {"bike_id": "a9990f89d3169257f45ca3340a871acb", "lat": 38.899652833333334, "is_reserved": 0, "fusion_lat": 0.0, "rental_uris": {"android": "https://dc.lft.to/lastmile_qr_scan", "ios": "https://dc.lft.to/lastmile_qr_scan"}, "fusion_lon": 0.0, "name": "a9990f89d3169257f45ca3340a871acb", "lon": -77.02004583333333, "is_disabled": 0, "type": "electric_scooter"}, {"bike_id": "8c5d818f1069d10cbed6b6e1874ad901", "lat": 38.8988655, "is_reserved": 0, "fusion_lat": 0.0, "rental_uris": {"android": "https://dc.lft.to/lastmile_qr_scan", "ios": "https://dc.lft.to/lastmile_qr_scan"}, "fusion_lon": 0.0, "name": "8c5d818f1069d10cbed6b6e1874ad901", "lon": -76.93175583333333, "is_disabled": 0, "type": "electric_scooter"}, {"bike_id": "3e9c577cafd9eee0a6f2c3a90f035269", "lat": 38.92322816666667, "is_reserved": 0, "fusion_lat": 0.0, "rental_uris": {"android": "https://dc.lft.to/lastmile_qr_scan", "ios": "https://dc.lft.to/lastmile_qr_scan"}, "fusion_lon": 0.0, "name": "3e9c577cafd9eee0a6f2c3a90f035269", "lon": -77.055772, "is_disabled": 0, "type": "electric_scooter"}, {"bike_id": "8a83a336900709f3b137a4b2266e9291", "lat": 38.9316645, "is_reserved": 0, "fusion_lat": 0.0, "rental_uris": {"android": "https://dc.lft.to/lastmile_qr_scan", "ios": "https://dc.lft.to/lastmile_qr_scan"}, "fusion_lon": 0.0, "name": "8a83a336900709f3b137a4b2266e9291", "lon": -77.03159383333333, "is_disabled": 0, "type": "electric_scooter"}, {"bike_id": "5a96106ac87020e252c3b29b1378df53", "lat": 38.866246333333336, "is_reserved": 0, "fusion_lat": 0.0, "rental_uris": {"android": "https://dc.lft.to/lastmile_qr_scan", "ios": "https://dc.lft.to/lastmile_qr_scan"}, "fusion_lon": 0.0, "name": "5a96106ac87020e252c3b29b1378df53", "lon": -76.98717966666666, "is_disabled": 0, "type": "electric_scooter"}, {"bike_id": "cae31ea8b9178325905a702d7462ab2f", "lat": 38.918070166666666, "is_reserved": 0, "fusion_lat": 0.0, "rental_uris": {"android": "https://dc.lft.to/lastmile_qr_scan", "ios": "https://dc.lft.to/lastmile_qr_scan"}, "fusion_lon": 0.0, "name": "cae31ea8b9178325905a702d7462ab2f", "lon": -77.034475, "is_disabled": 0, "type": "electric_scooter"}, {"bike_id": "f55547942afaa1fbfd2640dcc29eb7a1", "lat": 38.8964055, "is_reserved": 0, "fusion_lat": 0.0, "rental_uris": {"android": "https://dc.lft.to/lastmile_qr_scan", "ios": "https://dc.lft.to/lastmile_qr_scan"}, "fusion_lon": 0.0, "name": "f55547942afaa1fbfd2640dcc29eb7a1", "lon": -77.07064316666667, "is_disabled": 0, "type": "electric_scooter"}, {"bike_id": "77fabaa0b24235d36213b4a80171be0b", "lat": 38.88773616666667, "is_reserved": 0, "fusion_lat": 0.0, "rental_uris": {"android": "https://dc.lft.to/lastmile_qr_scan", "ios": "https://dc.lft.to/lastmile_qr_scan"}, "fusion_lon": 0.0, "name": "77fabaa0b24235d36213b4a80171be0b", "lon": -76.95531366666667, "is_disabled": 0, "type": "electric_scooter"}, {"bike_id": "f546e092bf507cf8c8878080a68a4c2e", "lat": 38.9148395, "is_reserved": 0, "fusion_lat": 0.0, "rental_uris": {"android": "https://dc.lft.to/lastmile_qr_scan", "ios": "https://dc.lft.to/lastmile_qr_scan"}, "fusion_lon": 0.0, "name": "f546e092bf507cf8c8878080a68a4c2e", "lon": -77.03573866666666, "is_disabled": 0, "type": "electric_scooter"}, {"bike_id": "cbba524e40778081e9576182a58532df", "lat": 38.92872833333333, "is_reserved": 0, "fusion_lat": 0.0, "rental_uris": {"android": "https://dc.lft.to/lastmile_qr_scan", "ios": "https://dc.lft.to/lastmile_qr_scan"}, "fusion_lon": 0.0, "name": "cbba524e40778081e9576182a58532df", "lon": -77.03936383333334, "is_disabled": 0, "type": "electric_scooter"}, {"bike_id": "dfc1c470b7a3f90ebfe1863f9aa7949c", "lat": 38.89736083333333, "is_reserved": 0, "fusion_lat": 0.0, "rental_uris": {"android": "https://dc.lft.to/lastmile_qr_scan", "ios": "https://dc.lft.to/lastmile_qr_scan"}, "fusion_lon": 0.0, "name": "dfc1c470b7a3f90ebfe1863f9aa7949c", "lon": -76.94730583333333, "is_disabled": 0, "type": "electric_scooter"}, {"bike_id": "0e1d56c3d830a55151622598d6e313aa", "lat": 38.929733, "is_reserved": 0, "fusion_lat": 0.0, "rental_uris": {"android": "https://dc.lft.to/lastmile_qr_scan", "ios": "https://dc.lft.to/lastmile_qr_scan"}, "fusion_lon": 0.0, "name": "0e1d56c3d830a55151622598d6e313aa", "lon": -77.01304933333333, "is_disabled": 0, "type": "electric_scooter"}, {"bike_id": "c4124e2d77e09f80936ceb3fb96202fe", "lat": 38.8852985, "is_reserved": 0, "fusion_lat": 0.0, "rental_uris": {"android": "https://dc.lft.to/lastmile_qr_scan", "ios": "https://dc.lft.to/lastmile_qr_scan"}, "fusion_lon": 0.0, "name": "c4124e2d77e09f80936ceb3fb96202fe", "lon": -77.029378, "is_disabled": 0, "type": "electric_scooter"}, {"bike_id": "1d33432e1aec0e26d4e6ddd4beef85e8", "lat": 38.90049, "is_reserved": 0, "fusion_lat": 0.0, "rental_uris": {"android": "https://dc.lft.to/lastmile_qr_scan", "ios": "https://dc.lft.to/lastmile_qr_scan"}, "fusion_lon": 0.0, "name": "1d33432e1aec0e26d4e6ddd4beef85e8", "lon": -77.00069333333333, "is_disabled": 0, "type": "electric_scooter"}, {"bike_id": "874dc3922d9f144582a6e0328782c74d", "lat": 38.905657166666664, "is_reserved": 0, "fusion_lat": 0.0, "rental_uris": {"android": "https://dc.lft.to/lastmile_qr_scan", "ios": "https://dc.lft.to/lastmile_qr_scan"}, "fusion_lon": 0.0, "name": "874dc3922d9f144582a6e0328782c74d", "lon": -77.02177216666666, "is_disabled": 0, "type": "electric_scooter"}, {"bike_id": "281552e1b93cd42110713e737b1cb44c", "lat": 38.9233155, "is_reserved": 0, "fusion_lat": 0.0, "rental_uris": {"android": "https://dc.lft.to/lastmile_qr_scan", "ios": "https://dc.lft.to/lastmile_qr_scan"}, "fusion_lon": 0.0, "name": "281552e1b93cd42110713e737b1cb44c", "lon": -77.05336666666666, "is_disabled": 0, "type": "electric_scooter"}, {"bike_id": "322bf12b89971770752c60e71c2bdaa0", "lat": 38.906546, "is_reserved": 0, "fusion_lat": 0.0, "rental_uris": {"android": "https://dc.lft.to/lastmile_qr_scan", "ios": "https://dc.lft.to/lastmile_qr_scan"}, "fusion_lon": 0.0, "name": "322bf12b89971770752c60e71c2bdaa0", "lon": -77.0379355, "is_disabled": 0, "type": "electric_scooter"}, {"bike_id": "3e694dd7e96ca4fffc3a0324951a8cad", "lat": 38.918729666666664, "is_reserved": 0, "fusion_lat": 0.0, "rental_uris": {"android": "https://dc.lft.to/lastmile_qr_scan", "ios": "https://dc.lft.to/lastmile_qr_scan"}, "fusion_lon": 0.0, "name": "3e694dd7e96ca4fffc3a0324951a8cad", "lon": -77.01479483333334, "is_disabled": 0, "type": "electric_scooter"}, {"bike_id": "a04d02f49214e20aeb268df4c47442e4", "lat": 38.920654666666664, "is_reserved": 0, "fusion_lat": 0.0, "rental_uris": {"android": "https://dc.lft.to/lastmile_qr_scan", "ios": "https://dc.lft.to/lastmile_qr_scan"}, "fusion_lon": 0.0, "name": "a04d02f49214e20aeb268df4c47442e4", "lon": -77.04254166666666, "is_disabled": 0, "type": "electric_scooter"}, {"bike_id": "4a1ec474958e29573357e04c53ddaf72", "lat": 38.896180666666666, "is_reserved": 0, "fusion_lat": 0.0, "rental_uris": {"android": "https://dc.lft.to/lastmile_qr_scan", "ios": "https://dc.lft.to/lastmile_qr_scan"}, "fusion_lon": 0.0, "name": "4a1ec474958e29573357e04c53ddaf72", "lon": -77.02246316666667, "is_disabled": 0, "type": "electric_scooter"}, {"bike_id": "c6e6482fe4abacc4142e5b984b6d41f4", "lat": 38.888564833333334, "is_reserved": 0, "fusion_lat": 0.0, "rental_uris": {"android": "https://dc.lft.to/lastmile_qr_scan", "ios": "https://dc.lft.to/lastmile_qr_scan"}, "fusion_lon": 0.0, "name": "c6e6482fe4abacc4142e5b984b6d41f4", "lon": -77.0005545, "is_disabled": 0, "type": "electric_scooter"}, {"bike_id": "1680d01e9bd4c265372ce78b8e77c565", "lat": 38.877311666666664, "is_reserved": 0, "fusion_lat": 0.0, "rental_uris": {"android": "https://dc.lft.to/lastmile_qr_scan", "ios": "https://dc.lft.to/lastmile_qr_scan"}, "fusion_lon": 0.0, "name": "1680d01e9bd4c265372ce78b8e77c565", "lon": -77.0214625, "is_disabled": 0, "type": "electric_scooter"}, {"bike_id": "8fb174fcdc062b607000bef080d94a28", "lat": 38.95073, "is_reserved": 0, "fusion_lat": 0.0, "rental_uris": {"android": "https://dc.lft.to/lastmile_qr_scan", "ios": "https://dc.lft.to/lastmile_qr_scan"}, "fusion_lon": 0.0, "name": "8fb174fcdc062b607000bef080d94a28", "lon": -77.0298875, "is_disabled": 0, "type": "electric_scooter"}, {"bike_id": "0b8aee468cce634abc7d1e35c38e4c45", "lat": 38.9167025, "is_reserved": 0, "fusion_lat": 0.0, "rental_uris": {"android": "https://dc.lft.to/lastmile_qr_scan", "ios": "https://dc.lft.to/lastmile_qr_scan"}, "fusion_lon": 0.0, "name": "0b8aee468cce634abc7d1e35c38e4c45", "lon": -77.02332983333334, "is_disabled": 0, "type": "electric_scooter"}, {"bike_id": "dddb1bfc23014f16f9e190f9b245479b", "lat": 38.907278833333336, "is_reserved": 0, "fusion_lat": 0.0, "rental_uris": {"android": "https://dc.lft.to/lastmile_qr_scan", "ios": "https://dc.lft.to/lastmile_qr_scan"}, "fusion_lon": 0.0, "name": "dddb1bfc23014f16f9e190f9b245479b", "lon": -77.02376566666666, "is_disabled": 0, "type": "electric_scooter"}, {"bike_id": "7e7f50c79eeb0e5e1b4042f256515025", "lat": 38.926194833333334, "is_reserved": 0, "fusion_lat": 0.0, "rental_uris": {"android": "https://dc.lft.to/lastmile_qr_scan", "ios": "https://dc.lft.to/lastmile_qr_scan"}, "fusion_lon": 0.0, "name": "7e7f50c79eeb0e5e1b4042f256515025", "lon": -77.036982, "is_disabled": 0, "type": "electric_scooter"}, {"bike_id": "e92a1817d4b8333f0c22ebf780d176c8", "lat": 38.93872966666667, "is_reserved": 0, "fusion_lat": 0.0, "rental_uris": {"android": "https://dc.lft.to/lastmile_qr_scan", "ios": "https://dc.lft.to/lastmile_qr_scan"}, "fusion_lon": 0.0, "name": "e92a1817d4b8333f0c22ebf780d176c8", "lon": -77.03397483333333, "is_disabled": 0, "type": "electric_scooter"}, {"bike_id": "efd88a0d9f96b8edd4628841b486d653", "lat": 38.907655166666665, "is_reserved": 0, "fusion_lat": 0.0, "rental_uris": {"android": "https://dc.lft.to/lastmile_qr_scan", "ios": "https://dc.lft.to/lastmile_qr_scan"}, "fusion_lon": 0.0, "name": "efd88a0d9f96b8edd4628841b486d653", "lon": -77.03464883333334, "is_disabled": 0, "type": "electric_scooter"}, {"bike_id": "f68bbea51264f7202dc4cb09454da195", "lat": 38.9085665, "is_reserved": 0, "fusion_lat": 0.0, "rental_uris": {"android": "https://dc.lft.to/lastmile_qr_scan", "ios": "https://dc.lft.to/lastmile_qr_scan"}, "fusion_lon": 0.0, "name": "f68bbea51264f7202dc4cb09454da195", "lon": -76.99800083333334, "is_disabled": 0, "type": "electric_scooter"}, {"bike_id": "842ae39c74d193c8b0d9bb63e44c0ad3", "lat": 38.87650816666667, "is_reserved": 0, "fusion_lat": 0.0, "rental_uris": {"android": "https://dc.lft.to/lastmile_qr_scan", "ios": "https://dc.lft.to/lastmile_qr_scan"}, "fusion_lon": 0.0, "name": "842ae39c74d193c8b0d9bb63e44c0ad3", "lon": -76.93126366666667, "is_disabled": 0, "type": "electric_scooter"}, {"bike_id": "c5e7ea80e13e0a598dbe3a659d7193ef", "lat": 38.860231166666665, "is_reserved": 0, "fusion_lat": 0.0, "rental_uris": {"android": "https://dc.lft.to/lastmile_qr_scan", "ios": "https://dc.lft.to/lastmile_qr_scan"}, "fusion_lon": 0.0, "name": "c5e7ea80e13e0a598dbe3a659d7193ef", "lon": -76.99684033333334, "is_disabled": 0, "type": "electric_scooter"}, {"bike_id": "028e1e16439e899f471b642edac59013", "lat": 38.89229483333333, "is_reserved": 0, "fusion_lat": 0.0, "rental_uris": {"android": "https://dc.lft.to/lastmile_qr_scan", "ios": "https://dc.lft.to/lastmile_qr_scan"}, "fusion_lon": 0.0, "name": "028e1e16439e899f471b642edac59013", "lon": -77.04313216666667, "is_disabled": 0, "type": "electric_scooter"}, {"bike_id": "76688e0d219b3e0e554e967362542bd2", "lat": 38.92325133333333, "is_reserved": 0, "fusion_lat": 0.0, "rental_uris": {"android": "https://dc.lft.to/lastmile_qr_scan", "ios": "https://dc.lft.to/lastmile_qr_scan"}, "fusion_lon": 0.0, "name": "76688e0d219b3e0e554e967362542bd2", "lon": -77.03505733333333, "is_disabled": 0, "type": "electric_scooter"}, {"bike_id": "1351939381155d4d610bd9a62040a176", "lat": 38.87649316666667, "is_reserved": 0, "fusion_lat": 0.0, "rental_uris": {"android": "https://dc.lft.to/lastmile_qr_scan", "ios": "https://dc.lft.to/lastmile_qr_scan"}, "fusion_lon": 0.0, "name": "1351939381155d4d610bd9a62040a176", "lon": -77.0043185, "is_disabled": 0, "type": "electric_scooter"}, {"bike_id": "e324ee115071d1489059baf418ef585f", "lat": 38.90428216666667, "is_reserved": 0, "fusion_lat": 0.0, "rental_uris": {"android": "https://dc.lft.to/lastmile_qr_scan", "ios": "https://dc.lft.to/lastmile_qr_scan"}, "fusion_lon": 0.0, "name": "e324ee115071d1489059baf418ef585f", "lon": -77.04354533333333, "is_disabled": 0, "type": "electric_scooter"}, {"bike_id": "1f0404a825e571a1dbb2ecb9348dc4c4", "lat": 38.911251, "is_reserved": 0, "fusion_lat": 0.0, "rental_uris": {"android": "https://dc.lft.to/lastmile_qr_scan", "ios": "https://dc.lft.to/lastmile_qr_scan"}, "fusion_lon": 0.0, "name": "1f0404a825e571a1dbb2ecb9348dc4c4", "lon": -77.04325216666666, "is_disabled": 0, "type": "electric_scooter"}, {"bike_id": "396aa27115213eb402c3b31dfa189d4e", "lat": 38.873772833333334, "is_reserved": 0, "fusion_lat": 0.0, "rental_uris": {"android": "https://dc.lft.to/lastmile_qr_scan", "ios": "https://dc.lft.to/lastmile_qr_scan"}, "fusion_lon": 0.0, "name": "396aa27115213eb402c3b31dfa189d4e", "lon": -77.000609, "is_disabled": 0, "type": "electric_scooter"}, {"bike_id": "dfc5292cbddf8703ac59c4fd999fb468", "lat": 38.892255666666664, "is_reserved": 0, "fusion_lat": 0.0, "rental_uris": {"android": "https://dc.lft.to/lastmile_qr_scan", "ios": "https://dc.lft.to/lastmile_qr_scan"}, "fusion_lon": 0.0, "name": "dfc5292cbddf8703ac59c4fd999fb468", "lon": -77.04510466666666, "is_disabled": 0, "type": "electric_scooter"}, {"bike_id": "b3d95bc2454da90c0c19c6baa699cc70", "lat": 38.92945866666667, "is_reserved": 0, "fusion_lat": 0.0, "rental_uris": {"android": "https://dc.lft.to/lastmile_qr_scan", "ios": "https://dc.lft.to/lastmile_qr_scan"}, "fusion_lon": 0.0, "name": "b3d95bc2454da90c0c19c6baa699cc70", "lon": -77.03468783333334, "is_disabled": 0, "type": "electric_scooter"}, {"bike_id": "ae643ac857b6a02e542f29866da145ab", "lat": 38.928590666666665, "is_reserved": 0, "fusion_lat": 0.0, "rental_uris": {"android": "https://dc.lft.to/lastmile_qr_scan", "ios": "https://dc.lft.to/lastmile_qr_scan"}, "fusion_lon": 0.0, "name": "ae643ac857b6a02e542f29866da145ab", "lon": -77.03287483333334, "is_disabled": 0, "type": "electric_scooter"}, {"bike_id": "a4e525444beeb840611e80a7f711c5db", "lat": 38.9236035, "is_reserved": 0, "fusion_lat": 0.0, "rental_uris": {"android": "https://dc.lft.to/lastmile_qr_scan", "ios": "https://dc.lft.to/lastmile_qr_scan"}, "fusion_lon": 0.0, "name": "a4e525444beeb840611e80a7f711c5db", "lon": -77.03268016666667, "is_disabled": 0, "type": "electric_scooter"}, {"bike_id": "c14a9a454a991236241183eefb8086c1", "lat": 39.040775833333335, "is_reserved": 0, "fusion_lat": 0.0, "rental_uris": {"android": "https://dc.lft.to/lastmile_qr_scan", "ios": "https://dc.lft.to/lastmile_qr_scan"}, "fusion_lon": 0.0, "name": "c14a9a454a991236241183eefb8086c1", "lon": -77.05339116666667, "is_disabled": 0, "type": "electric_bike"}, {"bike_id": "fd239673a6ac9aa46f39248ad9e59acc", "lat": 38.918667666666664, "is_reserved": 0, "fusion_lat": 0.0, "rental_uris": {"android": "https://dc.lft.to/lastmile_qr_scan", "ios": "https://dc.lft.to/lastmile_qr_scan"}, "fusion_lon": 0.0, "name": "fd239673a6ac9aa46f39248ad9e59acc", "lon": -77.04204566666667, "is_disabled": 0, "type": "electric_scooter"}, {"bike_id": "2a2b775504269683c7f4706af712d115", "lat": 38.899693666666664, "is_reserved": 0, "fusion_lat": 0.0, "rental_uris": {"android": "https://dc.lft.to/lastmile_qr_scan", "ios": "https://dc.lft.to/lastmile_qr_scan"}, "fusion_lon": 0.0, "name": "2a2b775504269683c7f4706af712d115", "lon": -77.02004116666667, "is_disabled": 0, "type": "electric_scooter"}, {"bike_id": "7b388719bd2e08cfd02dddb9b320165d", "lat": 38.914030833333335, "is_reserved": 0, "fusion_lat": 0.0, "rental_uris": {"android": "https://dc.lft.to/lastmile_qr_scan", "ios": "https://dc.lft.to/lastmile_qr_scan"}, "fusion_lon": 0.0, "name": "7b388719bd2e08cfd02dddb9b320165d", "lon": -77.0317525, "is_disabled": 0, "type": "electric_scooter"}, {"bike_id": "317f90fc5cd29b4beb7ba5469eed2cee", "lat": 38.884468166666665, "is_reserved": 0, "fusion_lat": 0.0, "rental_uris": {"android": "https://dc.lft.to/lastmile_qr_scan", "ios": "https://dc.lft.to/lastmile_qr_scan"}, "fusion_lon": 0.0, "name": "317f90fc5cd29b4beb7ba5469eed2cee", "lon": -76.95098133333333, "is_disabled": 0, "type": "electric_scooter"}, {"bike_id": "7ee991b0521180e2a8d53d049b3288fb", "lat": 38.900322833333334, "is_reserved": 0, "fusion_lat": 0.0, "rental_uris": {"android": "https://dc.lft.to/lastmile_qr_scan", "ios": "https://dc.lft.to/lastmile_qr_scan"}, "fusion_lon": 0.0, "name": "7ee991b0521180e2a8d53d049b3288fb", "lon": -77.00211633333333, "is_disabled": 0, "type": "electric_scooter"}, {"bike_id": "269d72bc11cbe7bc5bf899e4c2a8759b", "lat": 38.88117283333333, "is_reserved": 0, "fusion_lat": 0.0, "rental_uris": {"android": "https://dc.lft.to/lastmile_qr_scan", "ios": "https://dc.lft.to/lastmile_qr_scan"}, "fusion_lon": 0.0, "name": "269d72bc11cbe7bc5bf899e4c2a8759b", "lon": -77.0165865, "is_disabled": 0, "type": "electric_scooter"}, {"bike_id": "41e0f53d91d4535f226e0577828196bd", "lat": 38.9058585, "is_reserved": 0, "fusion_lat": 0.0, "rental_uris": {"android": "https://dc.lft.to/lastmile_qr_scan", "ios": "https://dc.lft.to/lastmile_qr_scan"}, "fusion_lon": 0.0, "name": "41e0f53d91d4535f226e0577828196bd", "lon": -77.021891, "is_disabled": 0, "type": "electric_scooter"}, {"bike_id": "bb0640395a2d257ae6259af3df275c0d", "lat": 38.92345616666667, "is_reserved": 0, "fusion_lat": 0.0, "rental_uris": {"android": "https://dc.lft.to/lastmile_qr_scan", "ios": "https://dc.lft.to/lastmile_qr_scan"}, "fusion_lon": 0.0, "name": "bb0640395a2d257ae6259af3df275c0d", "lon": -77.05121216666667, "is_disabled": 0, "type": "electric_scooter"}, {"bike_id": "b71ddbd5774af4394073c2de421208f2", "lat": 38.931016166666666, "is_reserved": 0, "fusion_lat": 0.0, "rental_uris": {"android": "https://dc.lft.to/lastmile_qr_scan", "ios": "https://dc.lft.to/lastmile_qr_scan"}, "fusion_lon": 0.0, "name": "b71ddbd5774af4394073c2de421208f2", "lon": -77.0248115, "is_disabled": 0, "type": "electric_scooter"}, {"bike_id": "d01ec7a1f861bfedd3db91ca30e94d72", "lat": 38.910075, "is_reserved": 0, "fusion_lat": 0.0, "rental_uris": {"android": "https://dc.lft.to/lastmile_qr_scan", "ios": "https://dc.lft.to/lastmile_qr_scan"}, "fusion_lon": 0.0, "name": "d01ec7a1f861bfedd3db91ca30e94d72", "lon": -77.016177, "is_disabled": 0, "type": "electric_scooter"}, {"bike_id": "ec19a1089fd83fffbe9e29d87762e5d6", "lat": 38.91154016666667, "is_reserved": 0, "fusion_lat": 0.0, "rental_uris": {"android": "https://dc.lft.to/lastmile_qr_scan", "ios": "https://dc.lft.to/lastmile_qr_scan"}, "fusion_lon": 0.0, "name": "ec19a1089fd83fffbe9e29d87762e5d6", "lon": -77.02383866666666, "is_disabled": 0, "type": "electric_scooter"}, {"bike_id": "45dff68201be927b191fa11d7ee17c03", "lat": 38.9086095, "is_reserved": 0, "fusion_lat": 0.0, "rental_uris": {"android": "https://dc.lft.to/lastmile_qr_scan", "ios": "https://dc.lft.to/lastmile_qr_scan"}, "fusion_lon": 0.0, "name": "45dff68201be927b191fa11d7ee17c03", "lon": -77.02461066666666, "is_disabled": 0, "type": "electric_scooter"}, {"bike_id": "87a7d10c823da012b03781ee692710de", "lat": 38.91781783333333, "is_reserved": 0, "fusion_lat": 0.0, "rental_uris": {"android": "https://dc.lft.to/lastmile_qr_scan", "ios": "https://dc.lft.to/lastmile_qr_scan"}, "fusion_lon": 0.0, "name": "87a7d10c823da012b03781ee692710de", "lon": -77.03186266666667, "is_disabled": 0, "type": "electric_scooter"}, {"bike_id": "0f0d8d3b47a3340efbafe4c8db731024", "lat": 39.056316833333334, "is_reserved": 0, "fusion_lat": 0.0, "rental_uris": {"android": "https://dc.lft.to/lastmile_qr_scan", "ios": "https://dc.lft.to/lastmile_qr_scan"}, "fusion_lon": 0.0, "name": "0f0d8d3b47a3340efbafe4c8db731024", "lon": -77.12529633333334, "is_disabled": 0, "type": "electric_bike"}, {"bike_id": "460688f93bce22487bc073c25b2df9cb", "lat": 38.906979666666665, "is_reserved": 0, "fusion_lat": 0.0, "rental_uris": {"android": "https://dc.lft.to/lastmile_qr_scan", "ios": "https://dc.lft.to/lastmile_qr_scan"}, "fusion_lon": 0.0, "name": "460688f93bce22487bc073c25b2df9cb", "lon": -76.98695833333333, "is_disabled": 0, "type": "electric_scooter"}, {"bike_id": "c319bfe3e2792ce74c743ceffd966f92", "lat": 38.932710666666665, "is_reserved": 0, "fusion_lat": 0.0, "rental_uris": {"android": "https://dc.lft.to/lastmile_qr_scan", "ios": "https://dc.lft.to/lastmile_qr_scan"}, "fusion_lon": 0.0, "name": "c319bfe3e2792ce74c743ceffd966f92", "lon": -77.035013, "is_disabled": 0, "type": "electric_scooter"}, {"bike_id": "05474bbc58d03c3a78f28aebf6c4e0f8", "lat": 38.93816483333333, "is_reserved": 0, "fusion_lat": 0.0, "rental_uris": {"android": "https://dc.lft.to/lastmile_qr_scan", "ios": "https://dc.lft.to/lastmile_qr_scan"}, "fusion_lon": 0.0, "name": "05474bbc58d03c3a78f28aebf6c4e0f8", "lon": -77.07168, "is_disabled": 0, "type": "electric_scooter"}, {"bike_id": "986c581f1f9262ab1a1f66b967f1ad15", "lat": 38.903899, "is_reserved": 0, "fusion_lat": 0.0, "rental_uris": {"android": "https://dc.lft.to/lastmile_qr_scan", "ios": "https://dc.lft.to/lastmile_qr_scan"}, "fusion_lon": 0.0, "name": "986c581f1f9262ab1a1f66b967f1ad15", "lon": -77.0651475, "is_disabled": 0, "type": "electric_scooter"}, {"bike_id": "9befea104a1704f6e17cca0aac11becd", "lat": 38.908591666666666, "is_reserved": 0, "fusion_lat": 0.0, "rental_uris": {"android": "https://dc.lft.to/lastmile_qr_scan", "ios": "https://dc.lft.to/lastmile_qr_scan"}, "fusion_lon": 0.0, "name": "9befea104a1704f6e17cca0aac11becd", "lon": -77.02713466666667, "is_disabled": 0, "type": "electric_scooter"}, {"bike_id": "bd7f484f96ac7346fca199f6234c84e1", "lat": 38.9057335, "is_reserved": 0, "fusion_lat": 0.0, "rental_uris": {"android": "https://dc.lft.to/lastmile_qr_scan", "ios": "https://dc.lft.to/lastmile_qr_scan"}, "fusion_lon": 0.0, "name": "bd7f484f96ac7346fca199f6234c84e1", "lon": -77.04588533333333, "is_disabled": 0, "type": "electric_scooter"}, {"bike_id": "e5980273808e861dbfaf3a541266ae84", "lat": 38.91101066666667, "is_reserved": 0, "fusion_lat": 0.0, "rental_uris": {"android": "https://dc.lft.to/lastmile_qr_scan", "ios": "https://dc.lft.to/lastmile_qr_scan"}, "fusion_lon": 0.0, "name": "e5980273808e861dbfaf3a541266ae84", "lon": -77.04087433333333, "is_disabled": 0, "type": "electric_scooter"}, {"bike_id": "4ecef761e9cc125e076db9dcf534eb91", "lat": 38.874737833333334, "is_reserved": 0, "fusion_lat": 0.0, "rental_uris": {"android": "https://dc.lft.to/lastmile_qr_scan", "ios": "https://dc.lft.to/lastmile_qr_scan"}, "fusion_lon": 0.0, "name": "4ecef761e9cc125e076db9dcf534eb91", "lon": -77.0107445, "is_disabled": 0, "type": "electric_scooter"}, {"bike_id": "0e33357e508d6bb107b717f1518da9a7", "lat": 38.918507, "is_reserved": 0, "fusion_lat": 0.0, "rental_uris": {"android": "https://dc.lft.to/lastmile_qr_scan", "ios": "https://dc.lft.to/lastmile_qr_scan"}, "fusion_lon": 0.0, "name": "0e33357e508d6bb107b717f1518da9a7", "lon": -77.0318725, "is_disabled": 0, "type": "electric_scooter"}, {"bike_id": "1a1cb37b31227de1a99255e202a9edfb", "lat": 38.93868666666667, "is_reserved": 0, "fusion_lat": 0.0, "rental_uris": {"android": "https://dc.lft.to/lastmile_qr_scan", "ios": "https://dc.lft.to/lastmile_qr_scan"}, "fusion_lon": 0.0, "name": "1a1cb37b31227de1a99255e202a9edfb", "lon": -77.02593933333333, "is_disabled": 0, "type": "electric_scooter"}, {"bike_id": "c12aed149e130d86b1fc45898dacc654", "lat": 38.9331585, "is_reserved": 0, "fusion_lat": 0.0, "rental_uris": {"android": "https://dc.lft.to/lastmile_qr_scan", "ios": "https://dc.lft.to/lastmile_qr_scan"}, "fusion_lon": 0.0, "name": "c12aed149e130d86b1fc45898dacc654", "lon": -77.029303, "is_disabled": 0, "type": "electric_scooter"}, {"bike_id": "ee4a50255ed06d4936f62df2b129a185", "lat": 38.9095235, "is_reserved": 0, "fusion_lat": 0.0, "rental_uris": {"android": "https://dc.lft.to/lastmile_qr_scan", "ios": "https://dc.lft.to/lastmile_qr_scan"}, "fusion_lon": 0.0, "name": "ee4a50255ed06d4936f62df2b129a185", "lon": -77.04791483333334, "is_disabled": 0, "type": "electric_scooter"}, {"bike_id": "6631aa970768be973c5225b463bff0d2", "lat": 38.903247, "is_reserved": 0, "fusion_lat": 0.0, "rental_uris": {"android": "https://dc.lft.to/lastmile_qr_scan", "ios": "https://dc.lft.to/lastmile_qr_scan"}, "fusion_lon": 0.0, "name": "6631aa970768be973c5225b463bff0d2", "lon": -77.02890433333333, "is_disabled": 0, "type": "electric_scooter"}, {"bike_id": "3f173488f03740de62fd0759bccd5592", "lat": 38.92089166666667, "is_reserved": 0, "fusion_lat": 0.0, "rental_uris": {"android": "https://dc.lft.to/lastmile_qr_scan", "ios": "https://dc.lft.to/lastmile_qr_scan"}, "fusion_lon": 0.0, "name": "3f173488f03740de62fd0759bccd5592", "lon": -77.02043483333334, "is_disabled": 0, "type": "electric_scooter"}, {"bike_id": "f850e64f777d4d1ad460bbc494f6fe1b", "lat": 38.878815333333336, "is_reserved": 0, "fusion_lat": 0.0, "rental_uris": {"android": "https://dc.lft.to/lastmile_qr_scan", "ios": "https://dc.lft.to/lastmile_qr_scan"}, "fusion_lon": 0.0, "name": "f850e64f777d4d1ad460bbc494f6fe1b", "lon": -77.09614866666666, "is_disabled": 0, "type": "electric_bike"}, {"bike_id": "2dc336bd7c6fd320b93f19de0a000faa", "lat": 38.898812, "is_reserved": 0, "fusion_lat": 0.0, "rental_uris": {"android": "https://dc.lft.to/lastmile_qr_scan", "ios": "https://dc.lft.to/lastmile_qr_scan"}, "fusion_lon": 0.0, "name": "2dc336bd7c6fd320b93f19de0a000faa", "lon": -76.93179066666667, "is_disabled": 0, "type": "electric_scooter"}, {"bike_id": "dca042f03430ee802385fc81fe3681e9", "lat": 38.907453333333336, "is_reserved": 0, "fusion_lat": 0.0, "rental_uris": {"android": "https://dc.lft.to/lastmile_qr_scan", "ios": "https://dc.lft.to/lastmile_qr_scan"}, "fusion_lon": 0.0, "name": "dca042f03430ee802385fc81fe3681e9", "lon": -77.03218866666667, "is_disabled": 0, "type": "electric_scooter"}, {"bike_id": "bbe49de7febab92b8b3b576589ca66b1", "lat": 38.916541333333335, "is_reserved": 0, "fusion_lat": 0.0, "rental_uris": {"android": "https://dc.lft.to/lastmile_qr_scan", "ios": "https://dc.lft.to/lastmile_qr_scan"}, "fusion_lon": 0.0, "name": "bbe49de7febab92b8b3b576589ca66b1", "lon": -76.9791685, "is_disabled": 0, "type": "electric_scooter"}, {"bike_id": "2d1c9847d3f1666be324a6c609a5a211", "lat": 38.91828316666667, "is_reserved": 0, "fusion_lat": 0.0, "rental_uris": {"android": "https://dc.lft.to/lastmile_qr_scan", "ios": "https://dc.lft.to/lastmile_qr_scan"}, "fusion_lon": 0.0, "name": "2d1c9847d3f1666be324a6c609a5a211", "lon": -77.0322685, "is_disabled": 0, "type": "electric_scooter"}, {"bike_id": "7c467e8e90e93a80cb72866f1a64f200", "lat": 38.987657666666664, "is_reserved": 0, "fusion_lat": 0.0, "rental_uris": {"android": "https://dc.lft.to/lastmile_qr_scan", "ios": "https://dc.lft.to/lastmile_qr_scan"}, "fusion_lon": 0.0, "name": "7c467e8e90e93a80cb72866f1a64f200", "lon": -77.14062866666667, "is_disabled": 0, "type": "electric_bike"}, {"bike_id": "7fd990dc3d9099ff5d5d29e8fae16dbb", "lat": 38.884931333333334, "is_reserved": 0, "fusion_lat": 0.0, "rental_uris": {"android": "https://dc.lft.to/lastmile_qr_scan", "ios": "https://dc.lft.to/lastmile_qr_scan"}, "fusion_lon": 0.0, "name": "7fd990dc3d9099ff5d5d29e8fae16dbb", "lon": -77.00732316666667, "is_disabled": 0, "type": "electric_scooter"}, {"bike_id": "51a0587e50984a55062285a953eda5f0", "lat": 38.92326766666667, "is_reserved": 0, "fusion_lat": 0.0, "rental_uris": {"android": "https://dc.lft.to/lastmile_qr_scan", "ios": "https://dc.lft.to/lastmile_qr_scan"}, "fusion_lon": 0.0, "name": "51a0587e50984a55062285a953eda5f0", "lon": -77.0088985, "is_disabled": 0, "type": "electric_scooter"}, {"bike_id": "7e806ca2e87c626361bec5459c24b9dc", "lat": 38.897109, "is_reserved": 0, "fusion_lat": 0.0, "rental_uris": {"android": "https://dc.lft.to/lastmile_qr_scan", "ios": "https://dc.lft.to/lastmile_qr_scan"}, "fusion_lon": 0.0, "name": "7e806ca2e87c626361bec5459c24b9dc", "lon": -77.02385816666667, "is_disabled": 0, "type": "electric_scooter"}, {"bike_id": "d36e9fe2f57dc697df267bae6182977c", "lat": 38.935306, "is_reserved": 0, "fusion_lat": 0.0, "rental_uris": {"android": "https://dc.lft.to/lastmile_qr_scan", "ios": "https://dc.lft.to/lastmile_qr_scan"}, "fusion_lon": 0.0, "name": "d36e9fe2f57dc697df267bae6182977c", "lon": -77.0235615, "is_disabled": 0, "type": "electric_scooter"}, {"bike_id": "c98b5a300c31ffcb96abdd2405270afa", "lat": 38.92003833333333, "is_reserved": 0, "fusion_lat": 0.0, "rental_uris": {"android": "https://dc.lft.to/lastmile_qr_scan", "ios": "https://dc.lft.to/lastmile_qr_scan"}, "fusion_lon": 0.0, "name": "c98b5a300c31ffcb96abdd2405270afa", "lon": -77.022089, "is_disabled": 0, "type": "electric_scooter"}, {"bike_id": "00e95dde52ab64a0f46c922bf084d853", "lat": 38.9248665, "is_reserved": 0, "fusion_lat": 0.0, "rental_uris": {"android": "https://dc.lft.to/lastmile_qr_scan", "ios": "https://dc.lft.to/lastmile_qr_scan"}, "fusion_lon": 0.0, "name": "00e95dde52ab64a0f46c922bf084d853", "lon": -77.03177466666666, "is_disabled": 0, "type": "electric_scooter"}, {"bike_id": "138e40145a1603d52487db39c9cf462b", "lat": 38.92033166666667, "is_reserved": 0, "fusion_lat": 0.0, "rental_uris": {"android": "https://dc.lft.to/lastmile_qr_scan", "ios": "https://dc.lft.to/lastmile_qr_scan"}, "fusion_lon": 0.0, "name": "138e40145a1603d52487db39c9cf462b", "lon": -77.00306633333334, "is_disabled": 0, "type": "electric_scooter"}, {"bike_id": "c6cb4aaddd4784392f139470cdf66de4", "lat": 38.8871285, "is_reserved": 0, "fusion_lat": 0.0, "rental_uris": {"android": "https://dc.lft.to/lastmile_qr_scan", "ios": "https://dc.lft.to/lastmile_qr_scan"}, "fusion_lon": 0.0, "name": "c6cb4aaddd4784392f139470cdf66de4", "lon": -77.02184266666667, "is_disabled": 0, "type": "electric_scooter"}, {"bike_id": "1b2b5687fcfab33306410fe22a3953e5", "lat": 38.8801145, "is_reserved": 0, "fusion_lat": 0.0, "rental_uris": {"android": "https://dc.lft.to/lastmile_qr_scan", "ios": "https://dc.lft.to/lastmile_qr_scan"}, "fusion_lon": 0.0, "name": "1b2b5687fcfab33306410fe22a3953e5", "lon": -76.9850725, "is_disabled": 0, "type": "electric_scooter"}, {"bike_id": "0b6a2b3f59b3a1229106be2d8b93fb3e", "lat": 38.907377, "is_reserved": 0, "fusion_lat": 0.0, "rental_uris": {"android": "https://dc.lft.to/lastmile_qr_scan", "ios": "https://dc.lft.to/lastmile_qr_scan"}, "fusion_lon": 0.0, "name": "0b6a2b3f59b3a1229106be2d8b93fb3e", "lon": -77.04274733333334, "is_disabled": 0, "type": "electric_scooter"}, {"bike_id": "04b18a50f5e92fe24ff439c34194a95c", "lat": 38.89515883333333, "is_reserved": 0, "fusion_lat": 0.0, "rental_uris": {"android": "https://dc.lft.to/lastmile_qr_scan", "ios": "https://dc.lft.to/lastmile_qr_scan"}, "fusion_lon": 0.0, "name": "04b18a50f5e92fe24ff439c34194a95c", "lon": -77.02281716666667, "is_disabled": 0, "type": "electric_scooter"}, {"bike_id": "cae6008773b5998032986185bb3ad650", "lat": 38.918999166666666, "is_reserved": 0, "fusion_lat": 0.0, "rental_uris": {"android": "https://dc.lft.to/lastmile_qr_scan", "ios": "https://dc.lft.to/lastmile_qr_scan"}, "fusion_lon": 0.0, "name": "cae6008773b5998032986185bb3ad650", "lon": -77.0312305, "is_disabled": 0, "type": "electric_scooter"}, {"bike_id": "b4bcc97fffbbdf720155c439ccb937ee", "lat": 38.90008733333333, "is_reserved": 0, "fusion_lat": 0.0, "rental_uris": {"android": "https://dc.lft.to/lastmile_qr_scan", "ios": "https://dc.lft.to/lastmile_qr_scan"}, "fusion_lon": 0.0, "name": "b4bcc97fffbbdf720155c439ccb937ee", "lon": -76.98697216666666, "is_disabled": 0, "type": "electric_scooter"}, {"bike_id": "7d1f121f09c4281d87da043403fbfebd", "lat": 38.907166333333336, "is_reserved": 0, "fusion_lat": 0.0, "rental_uris": {"android": "https://dc.lft.to/lastmile_qr_scan", "ios": "https://dc.lft.to/lastmile_qr_scan"}, "fusion_lon": 0.0, "name": "7d1f121f09c4281d87da043403fbfebd", "lon": -77.0217285, "is_disabled": 0, "type": "electric_scooter"}, {"bike_id": "e9767b07551071b57e0e7ad70a715332", "lat": 38.910473833333334, "is_reserved": 0, "fusion_lat": 0.0, "rental_uris": {"android": "https://dc.lft.to/lastmile_qr_scan", "ios": "https://dc.lft.to/lastmile_qr_scan"}, "fusion_lon": 0.0, "name": "e9767b07551071b57e0e7ad70a715332", "lon": -77.043843, "is_disabled": 0, "type": "electric_scooter"}, {"bike_id": "792a1e6ca9e55fc17a760144495cfaa9", "lat": 38.886353666666665, "is_reserved": 0, "fusion_lat": 0.0, "rental_uris": {"android": "https://dc.lft.to/lastmile_qr_scan", "ios": "https://dc.lft.to/lastmile_qr_scan"}, "fusion_lon": 0.0, "name": "792a1e6ca9e55fc17a760144495cfaa9", "lon": -77.01360166666667, "is_disabled": 0, "type": "electric_scooter"}, {"bike_id": "5e9297646bcb07cc1ca008ce8660b674", "lat": 38.91399533333333, "is_reserved": 0, "fusion_lat": 0.0, "rental_uris": {"android": "https://dc.lft.to/lastmile_qr_scan", "ios": "https://dc.lft.to/lastmile_qr_scan"}, "fusion_lon": 0.0, "name": "5e9297646bcb07cc1ca008ce8660b674", "lon": -77.01648533333334, "is_disabled": 0, "type": "electric_scooter"}, {"bike_id": "357288164b1cb7db5c852e6e9bf2d319", "lat": 38.90807933333333, "is_reserved": 0, "fusion_lat": 0.0, "rental_uris": {"android": "https://dc.lft.to/lastmile_qr_scan", "ios": "https://dc.lft.to/lastmile_qr_scan"}, "fusion_lon": 0.0, "name": "357288164b1cb7db5c852e6e9bf2d319", "lon": -77.02612416666666, "is_disabled": 0, "type": "electric_scooter"}, {"bike_id": "70acdcfa1dc66c9202653ba96ba71848", "lat": 38.944697833333336, "is_reserved": 0, "fusion_lat": 0.0, "rental_uris": {"android": "https://dc.lft.to/lastmile_qr_scan", "ios": "https://dc.lft.to/lastmile_qr_scan"}, "fusion_lon": 0.0, "name": "70acdcfa1dc66c9202653ba96ba71848", "lon": -77.02342033333333, "is_disabled": 0, "type": "electric_scooter"}, {"bike_id": "7fd4ea83e34b487307c465876724ebfc", "lat": 38.904386333333335, "is_reserved": 0, "fusion_lat": 0.0, "rental_uris": {"android": "https://dc.lft.to/lastmile_qr_scan", "ios": "https://dc.lft.to/lastmile_qr_scan"}, "fusion_lon": 0.0, "name": "7fd4ea83e34b487307c465876724ebfc", "lon": -77.0629795, "is_disabled": 0, "type": "electric_scooter"}, {"bike_id": "70e43e79654e2519d0231e5524fa8574", "lat": 38.899449, "is_reserved": 0, "fusion_lat": 0.0, "rental_uris": {"android": "https://dc.lft.to/lastmile_qr_scan", "ios": "https://dc.lft.to/lastmile_qr_scan"}, "fusion_lon": 0.0, "name": "70e43e79654e2519d0231e5524fa8574", "lon": -77.04499433333334, "is_disabled": 0, "type": "electric_scooter"}, {"bike_id": "f575ac8f0d058b352118a85aa1248977", "lat": 38.893713, "is_reserved": 0, "fusion_lat": 0.0, "rental_uris": {"android": "https://dc.lft.to/lastmile_qr_scan", "ios": "https://dc.lft.to/lastmile_qr_scan"}, "fusion_lon": 0.0, "name": "f575ac8f0d058b352118a85aa1248977", "lon": -77.01548316666667, "is_disabled": 0, "type": "electric_scooter"}, {"bike_id": "53778a8de0339f5575da5c2c5e6cb1b9", "lat": 38.87885283333333, "is_reserved": 0, "fusion_lat": 0.0, "rental_uris": {"android": "https://dc.lft.to/lastmile_qr_scan", "ios": "https://dc.lft.to/lastmile_qr_scan"}, "fusion_lon": 0.0, "name": "53778a8de0339f5575da5c2c5e6cb1b9", "lon": -76.99155783333333, "is_disabled": 0, "type": "electric_scooter"}, {"bike_id": "caa4fffcd32ff794e8d365390379b42b", "lat": 38.866243833333336, "is_reserved": 0, "fusion_lat": 0.0, "rental_uris": {"android": "https://dc.lft.to/lastmile_qr_scan", "ios": "https://dc.lft.to/lastmile_qr_scan"}, "fusion_lon": 0.0, "name": "caa4fffcd32ff794e8d365390379b42b", "lon": -76.989046, "is_disabled": 0, "type": "electric_scooter"}, {"bike_id": "09a8275e37dd604f03588788763cb3fa", "lat": 38.89699483333333, "is_reserved": 0, "fusion_lat": 0.0, "rental_uris": {"android": "https://dc.lft.to/lastmile_qr_scan", "ios": "https://dc.lft.to/lastmile_qr_scan"}, "fusion_lon": 0.0, "name": "09a8275e37dd604f03588788763cb3fa", "lon": -76.93000666666667, "is_disabled": 0, "type": "electric_scooter"}, {"bike_id": "c95320b08576a28b3ce17ca976135f20", "lat": 38.8651465, "is_reserved": 0, "fusion_lat": 0.0, "rental_uris": {"android": "https://dc.lft.to/lastmile_qr_scan", "ios": "https://dc.lft.to/lastmile_qr_scan"}, "fusion_lon": 0.0, "name": "c95320b08576a28b3ce17ca976135f20", "lon": -77.1293985, "is_disabled": 0, "type": "electric_bike"}, {"bike_id": "e4de3d53756cc613e1a132625e8b8f15", "lat": 38.924302, "is_reserved": 0, "fusion_lat": 0.0, "rental_uris": {"android": "https://dc.lft.to/lastmile_qr_scan", "ios": "https://dc.lft.to/lastmile_qr_scan"}, "fusion_lon": 0.0, "name": "e4de3d53756cc613e1a132625e8b8f15", "lon": -77.05210683333334, "is_disabled": 0, "type": "electric_scooter"}, {"bike_id": "01247f92de15f23508ab8b23cfdebe3d", "lat": 38.80393216666667, "is_reserved": 0, "fusion_lat": 0.0, "rental_uris": {"android": "https://dc.lft.to/lastmile_qr_scan", "ios": "https://dc.lft.to/lastmile_qr_scan"}, "fusion_lon": 0.0, "name": "01247f92de15f23508ab8b23cfdebe3d", "lon": -77.055678, "is_disabled": 0, "type": "electric_bike"}, {"bike_id": "85ba5f3c881f934a68d82eb81afc27dc", "lat": 38.9359915, "is_reserved": 0, "fusion_lat": 0.0, "rental_uris": {"android": "https://dc.lft.to/lastmile_qr_scan", "ios": "https://dc.lft.to/lastmile_qr_scan"}, "fusion_lon": 0.0, "name": "85ba5f3c881f934a68d82eb81afc27dc", "lon": -77.03554516666667, "is_disabled": 0, "type": "electric_scooter"}, {"bike_id": "faa0905f3c1e93d02b178e9966cc2be9", "lat": 38.89247733333333, "is_reserved": 0, "fusion_lat": 0.0, "rental_uris": {"android": "https://dc.lft.to/lastmile_qr_scan", "ios": "https://dc.lft.to/lastmile_qr_scan"}, "fusion_lon": 0.0, "name": "faa0905f3c1e93d02b178e9966cc2be9", "lon": -77.05027366666667, "is_disabled": 0, "type": "electric_scooter"}, {"bike_id": "be519123381cb60c5b3ae2e8e48d4755", "lat": 38.89528283333333, "is_reserved": 0, "fusion_lat": 0.0, "rental_uris": {"android": "https://dc.lft.to/lastmile_qr_scan", "ios": "https://dc.lft.to/lastmile_qr_scan"}, "fusion_lon": 0.0, "name": "be519123381cb60c5b3ae2e8e48d4755", "lon": -77.03353316666667, "is_disabled": 0, "type": "electric_scooter"}, {"bike_id": "5c80dba6b7fe07770ffc415c292a2a59", "lat": 38.898644, "is_reserved": 0, "fusion_lat": 0.0, "rental_uris": {"android": "https://dc.lft.to/lastmile_qr_scan", "ios": "https://dc.lft.to/lastmile_qr_scan"}, "fusion_lon": 0.0, "name": "5c80dba6b7fe07770ffc415c292a2a59", "lon": -76.94640866666667, "is_disabled": 0, "type": "electric_scooter"}, {"bike_id": "60563e5d9010071e40c3f41fb06226bf", "lat": 38.9042385, "is_reserved": 0, "fusion_lat": 0.0, "rental_uris": {"android": "https://dc.lft.to/lastmile_qr_scan", "ios": "https://dc.lft.to/lastmile_qr_scan"}, "fusion_lon": 0.0, "name": "60563e5d9010071e40c3f41fb06226bf", "lon": -76.97911733333333, "is_disabled": 0, "type": "electric_scooter"}, {"bike_id": "09d193c3e0c13c21217281143c33b429", "lat": 38.9528, "is_reserved": 0, "fusion_lat": 0.0, "rental_uris": {"android": "https://dc.lft.to/lastmile_qr_scan", "ios": "https://dc.lft.to/lastmile_qr_scan"}, "fusion_lon": 0.0, "name": "09d193c3e0c13c21217281143c33b429", "lon": -77.01805433333334, "is_disabled": 0, "type": "electric_scooter"}, {"bike_id": "f6720638df1ebae78db8f2ea798c8f8e", "lat": 38.894763, "is_reserved": 0, "fusion_lat": 0.0, "rental_uris": {"android": "https://dc.lft.to/lastmile_qr_scan", "ios": "https://dc.lft.to/lastmile_qr_scan"}, "fusion_lon": 0.0, "name": "f6720638df1ebae78db8f2ea798c8f8e", "lon": -76.94863, "is_disabled": 0, "type": "electric_scooter"}, {"bike_id": "ee71fcd069bdb12b1b7f71887de2bdab", "lat": 38.91565716666667, "is_reserved": 0, "fusion_lat": 0.0, "rental_uris": {"android": "https://dc.lft.to/lastmile_qr_scan", "ios": "https://dc.lft.to/lastmile_qr_scan"}, "fusion_lon": 0.0, "name": "ee71fcd069bdb12b1b7f71887de2bdab", "lon": -77.02004733333334, "is_disabled": 0, "type": "electric_scooter"}, {"bike_id": "0bc02d5bbcabd7efd1a871988f39abdb", "lat": 38.8953365, "is_reserved": 0, "fusion_lat": 0.0, "rental_uris": {"android": "https://dc.lft.to/lastmile_qr_scan", "ios": "https://dc.lft.to/lastmile_qr_scan"}, "fusion_lon": 0.0, "name": "0bc02d5bbcabd7efd1a871988f39abdb", "lon": -77.01097216666666, "is_disabled": 0, "type": "electric_scooter"}, {"bike_id": "0c7fbe7dea4904f65cf02b10fb31e322", "lat": 38.87477, "is_reserved": 0, "fusion_lat": 0.0, "rental_uris": {"android": "https://dc.lft.to/lastmile_qr_scan", "ios": "https://dc.lft.to/lastmile_qr_scan"}, "fusion_lon": 0.0, "name": "0c7fbe7dea4904f65cf02b10fb31e322", "lon": -76.96534133333333, "is_disabled": 0, "type": "electric_bike"}, {"bike_id": "9280529bfa6e04feabfb0ab22be1a7b8", "lat": 38.88743933333333, "is_reserved": 0, "fusion_lat": 0.0, "rental_uris": {"android": "https://dc.lft.to/lastmile_qr_scan", "ios": "https://dc.lft.to/lastmile_qr_scan"}, "fusion_lon": 0.0, "name": "9280529bfa6e04feabfb0ab22be1a7b8", "lon": -77.01726383333333, "is_disabled": 0, "type": "electric_scooter"}, {"bike_id": "e6c84204854731cb12a20fe0c19acc62", "lat": 38.9161165, "is_reserved": 0, "fusion_lat": 0.0, "rental_uris": {"android": "https://dc.lft.to/lastmile_qr_scan", "ios": "https://dc.lft.to/lastmile_qr_scan"}, "fusion_lon": 0.0, "name": "e6c84204854731cb12a20fe0c19acc62", "lon": -77.02300833333334, "is_disabled": 0, "type": "electric_scooter"}, {"bike_id": "e2777e5c6250345ad95e9b86618d9097", "lat": 38.906265, "is_reserved": 0, "fusion_lat": 0.0, "rental_uris": {"android": "https://dc.lft.to/lastmile_qr_scan", "ios": "https://dc.lft.to/lastmile_qr_scan"}, "fusion_lon": 0.0, "name": "e2777e5c6250345ad95e9b86618d9097", "lon": -77.04877216666667, "is_disabled": 0, "type": "electric_scooter"}, {"bike_id": "3fb16f02007f29185a550893334f6b15", "lat": 38.91911433333333, "is_reserved": 0, "fusion_lat": 0.0, "rental_uris": {"android": "https://dc.lft.to/lastmile_qr_scan", "ios": "https://dc.lft.to/lastmile_qr_scan"}, "fusion_lon": 0.0, "name": "3fb16f02007f29185a550893334f6b15", "lon": -77.033334, "is_disabled": 0, "type": "electric_scooter"}, {"bike_id": "b012ac27cc730de0e1313b66fad828ca", "lat": 38.902591666666666, "is_reserved": 0, "fusion_lat": 0.0, "rental_uris": {"android": "https://dc.lft.to/lastmile_qr_scan", "ios": "https://dc.lft.to/lastmile_qr_scan"}, "fusion_lon": 0.0, "name": "b012ac27cc730de0e1313b66fad828ca", "lon": -77.03438683333333, "is_disabled": 0, "type": "electric_scooter"}, {"bike_id": "2619b2a49a8059745cf2878f031c503d", "lat": 38.928643, "is_reserved": 0, "fusion_lat": 0.0, "rental_uris": {"android": "https://dc.lft.to/lastmile_qr_scan", "ios": "https://dc.lft.to/lastmile_qr_scan"}, "fusion_lon": 0.0, "name": "2619b2a49a8059745cf2878f031c503d", "lon": -77.0334905, "is_disabled": 0, "type": "electric_scooter"}, {"bike_id": "6712590e890f5546d963c0d152b79c75", "lat": 38.903724833333335, "is_reserved": 0, "fusion_lat": 0.0, "rental_uris": {"android": "https://dc.lft.to/lastmile_qr_scan", "ios": "https://dc.lft.to/lastmile_qr_scan"}, "fusion_lon": 0.0, "name": "6712590e890f5546d963c0d152b79c75", "lon": -77.045853, "is_disabled": 0, "type": "electric_scooter"}, {"bike_id": "d5aa63ecdbd1554057845a6793cb5c61", "lat": 38.899429, "is_reserved": 0, "fusion_lat": 0.0, "rental_uris": {"android": "https://dc.lft.to/lastmile_qr_scan", "ios": "https://dc.lft.to/lastmile_qr_scan"}, "fusion_lon": 0.0, "name": "d5aa63ecdbd1554057845a6793cb5c61", "lon": -77.07183816666667, "is_disabled": 0, "type": "electric_scooter"}, {"bike_id": "c09e01ce9c63869934c03046f7826320", "lat": 38.907604, "is_reserved": 0, "fusion_lat": 0.0, "rental_uris": {"android": "https://dc.lft.to/lastmile_qr_scan", "ios": "https://dc.lft.to/lastmile_qr_scan"}, "fusion_lon": 0.0, "name": "c09e01ce9c63869934c03046f7826320", "lon": -77.0170125, "is_disabled": 0, "type": "electric_scooter"}, {"bike_id": "c0055c2ec2649e03f5027684c1f4c4ae", "lat": 38.932125, "is_reserved": 0, "fusion_lat": 0.0, "rental_uris": {"android": "https://dc.lft.to/lastmile_qr_scan", "ios": "https://dc.lft.to/lastmile_qr_scan"}, "fusion_lon": 0.0, "name": "c0055c2ec2649e03f5027684c1f4c4ae", "lon": -77.03264583333333, "is_disabled": 0, "type": "electric_scooter"}, {"bike_id": "19b2237695cebf9b52c103313af10018", "lat": 38.90076333333333, "is_reserved": 0, "fusion_lat": 0.0, "rental_uris": {"android": "https://dc.lft.to/lastmile_qr_scan", "ios": "https://dc.lft.to/lastmile_qr_scan"}, "fusion_lon": 0.0, "name": "19b2237695cebf9b52c103313af10018", "lon": -77.0220455, "is_disabled": 0, "type": "electric_scooter"}, {"bike_id": "ae57424c6035654ff2389d015a6f2256", "lat": 38.892218666666665, "is_reserved": 0, "fusion_lat": 0.0, "rental_uris": {"android": "https://dc.lft.to/lastmile_qr_scan", "ios": "https://dc.lft.to/lastmile_qr_scan"}, "fusion_lon": 0.0, "name": "ae57424c6035654ff2389d015a6f2256", "lon": -77.0437115, "is_disabled": 0, "type": "electric_scooter"}, {"bike_id": "6efe76b9de63d398c634ab5bcfab29af", "lat": 38.88407733333333, "is_reserved": 0, "fusion_lat": 0.0, "rental_uris": {"android": "https://dc.lft.to/lastmile_qr_scan", "ios": "https://dc.lft.to/lastmile_qr_scan"}, "fusion_lon": 0.0, "name": "6efe76b9de63d398c634ab5bcfab29af", "lon": -76.94830233333333, "is_disabled": 0, "type": "electric_scooter"}, {"bike_id": "5e2004dfdfaf018ebde5d8a24db4e3d0", "lat": 38.926137, "is_reserved": 0, "fusion_lat": 0.0, "rental_uris": {"android": "https://dc.lft.to/lastmile_qr_scan", "ios": "https://dc.lft.to/lastmile_qr_scan"}, "fusion_lon": 0.0, "name": "5e2004dfdfaf018ebde5d8a24db4e3d0", "lon": -77.02169866666667, "is_disabled": 0, "type": "electric_scooter"}, {"bike_id": "43a344f7edbfd0ea26ed1b6d268e049e", "lat": 38.8962025, "is_reserved": 0, "fusion_lat": 0.0, "rental_uris": {"android": "https://dc.lft.to/lastmile_qr_scan", "ios": "https://dc.lft.to/lastmile_qr_scan"}, "fusion_lon": 0.0, "name": "43a344f7edbfd0ea26ed1b6d268e049e", "lon": -77.02636733333334, "is_disabled": 0, "type": "electric_scooter"}, {"bike_id": "e08b2f67a4d8afdcf5b37755bff9bee3", "lat": 38.90556616666667, "is_reserved": 0, "fusion_lat": 0.0, "rental_uris": {"android": "https://dc.lft.to/lastmile_qr_scan", "ios": "https://dc.lft.to/lastmile_qr_scan"}, "fusion_lon": 0.0, "name": "e08b2f67a4d8afdcf5b37755bff9bee3", "lon": -77.04180233333334, "is_disabled": 0, "type": "electric_scooter"}, {"bike_id": "393aa2991bdd451e40e57f9399a84c37", "lat": 38.933959333333334, "is_reserved": 0, "fusion_lat": 0.0, "rental_uris": {"android": "https://dc.lft.to/lastmile_qr_scan", "ios": "https://dc.lft.to/lastmile_qr_scan"}, "fusion_lon": 0.0, "name": "393aa2991bdd451e40e57f9399a84c37", "lon": -77.05747883333333, "is_disabled": 0, "type": "electric_scooter"}, {"bike_id": "cc723e0b13444355aead0e42560389ee", "lat": 38.830953666666666, "is_reserved": 0, "fusion_lat": 0.0, "rental_uris": {"android": "https://dc.lft.to/lastmile_qr_scan", "ios": "https://dc.lft.to/lastmile_qr_scan"}, "fusion_lon": 0.0, "name": "cc723e0b13444355aead0e42560389ee", "lon": -77.0429705, "is_disabled": 0, "type": "electric_bike"}, {"bike_id": "8d254be159cbcd7bc2c4adc5b3098746", "lat": 38.92083566666667, "is_reserved": 0, "fusion_lat": 0.0, "rental_uris": {"android": "https://dc.lft.to/lastmile_qr_scan", "ios": "https://dc.lft.to/lastmile_qr_scan"}, "fusion_lon": 0.0, "name": "8d254be159cbcd7bc2c4adc5b3098746", "lon": -77.0234375, "is_disabled": 0, "type": "electric_scooter"}, {"bike_id": "6da3079df5b7c086c23791de6e365881", "lat": 38.897322, "is_reserved": 0, "fusion_lat": 0.0, "rental_uris": {"android": "https://dc.lft.to/lastmile_qr_scan", "ios": "https://dc.lft.to/lastmile_qr_scan"}, "fusion_lon": 0.0, "name": "6da3079df5b7c086c23791de6e365881", "lon": -77.02994366666667, "is_disabled": 0, "type": "electric_scooter"}, {"bike_id": "bc1e69aba87fc19952f4fd2768b823da", "lat": 38.9197935, "is_reserved": 0, "fusion_lat": 0.0, "rental_uris": {"android": "https://dc.lft.to/lastmile_qr_scan", "ios": "https://dc.lft.to/lastmile_qr_scan"}, "fusion_lon": 0.0, "name": "bc1e69aba87fc19952f4fd2768b823da", "lon": -77.02336916666667, "is_disabled": 0, "type": "electric_scooter"}, {"bike_id": "4fb6fbce0051a19cf21c316c60cebb52", "lat": 38.92398383333333, "is_reserved": 0, "fusion_lat": 0.0, "rental_uris": {"android": "https://dc.lft.to/lastmile_qr_scan", "ios": "https://dc.lft.to/lastmile_qr_scan"}, "fusion_lon": 0.0, "name": "4fb6fbce0051a19cf21c316c60cebb52", "lon": -77.02980416666666, "is_disabled": 0, "type": "electric_scooter"}, {"bike_id": "353ff2377e5cf46817440e8352d044f2", "lat": 38.848572, "is_reserved": 0, "fusion_lat": 0.0, "rental_uris": {"android": "https://dc.lft.to/lastmile_qr_scan", "ios": "https://dc.lft.to/lastmile_qr_scan"}, "fusion_lon": 0.0, "name": "353ff2377e5cf46817440e8352d044f2", "lon": -77.1119735, "is_disabled": 0, "type": "electric_bike"}, {"bike_id": "8b04b3fa1a35507b1d67ca08e9fb3ea7", "lat": 38.93459583333333, "is_reserved": 0, "fusion_lat": 0.0, "rental_uris": {"android": "https://dc.lft.to/lastmile_qr_scan", "ios": "https://dc.lft.to/lastmile_qr_scan"}, "fusion_lon": 0.0, "name": "8b04b3fa1a35507b1d67ca08e9fb3ea7", "lon": -77.0277595, "is_disabled": 0, "type": "electric_scooter"}, {"bike_id": "10332c363c465edd0965a332b42164b4", "lat": 38.93732333333333, "is_reserved": 0, "fusion_lat": 0.0, "rental_uris": {"android": "https://dc.lft.to/lastmile_qr_scan", "ios": "https://dc.lft.to/lastmile_qr_scan"}, "fusion_lon": 0.0, "name": "10332c363c465edd0965a332b42164b4", "lon": -77.0325865, "is_disabled": 0, "type": "electric_scooter"}, {"bike_id": "881dfab007336457d2542153dd7e13f5", "lat": 38.91404566666667, "is_reserved": 0, "fusion_lat": 0.0, "rental_uris": {"android": "https://dc.lft.to/lastmile_qr_scan", "ios": "https://dc.lft.to/lastmile_qr_scan"}, "fusion_lon": 0.0, "name": "881dfab007336457d2542153dd7e13f5", "lon": -77.01320616666666, "is_disabled": 0, "type": "electric_scooter"}, {"bike_id": "edcdaa3fe30ddc70852424c556d28a70", "lat": 38.86745666666667, "is_reserved": 0, "fusion_lat": 0.0, "rental_uris": {"android": "https://dc.lft.to/lastmile_qr_scan", "ios": "https://dc.lft.to/lastmile_qr_scan"}, "fusion_lon": 0.0, "name": "edcdaa3fe30ddc70852424c556d28a70", "lon": -76.97857116666667, "is_disabled": 0, "type": "electric_scooter"}, {"bike_id": "d7aceecb393e40c55bf0c93eeeb17763", "lat": 38.87373733333333, "is_reserved": 0, "fusion_lat": 0.0, "rental_uris": {"android": "https://dc.lft.to/lastmile_qr_scan", "ios": "https://dc.lft.to/lastmile_qr_scan"}, "fusion_lon": 0.0, "name": "d7aceecb393e40c55bf0c93eeeb17763", "lon": -77.00115183333334, "is_disabled": 0, "type": "electric_scooter"}, {"bike_id": "b335b35655c96af2300e5faca1077f3b", "lat": 38.925937166666664, "is_reserved": 0, "fusion_lat": 0.0, "rental_uris": {"android": "https://dc.lft.to/lastmile_qr_scan", "ios": "https://dc.lft.to/lastmile_qr_scan"}, "fusion_lon": 0.0, "name": "b335b35655c96af2300e5faca1077f3b", "lon": -77.023983, "is_disabled": 0, "type": "electric_scooter"}, {"bike_id": "5405633f3c04980099741f4364a95820", "lat": 38.915526166666666, "is_reserved": 0, "fusion_lat": 0.0, "rental_uris": {"android": "https://dc.lft.to/lastmile_qr_scan", "ios": "https://dc.lft.to/lastmile_qr_scan"}, "fusion_lon": 0.0, "name": "5405633f3c04980099741f4364a95820", "lon": -77.02213183333333, "is_disabled": 0, "type": "electric_scooter"}, {"bike_id": "95bc12e8f704c510b095f5f47919fc9e", "lat": 38.922339666666666, "is_reserved": 0, "fusion_lat": 0.0, "rental_uris": {"android": "https://dc.lft.to/lastmile_qr_scan", "ios": "https://dc.lft.to/lastmile_qr_scan"}, "fusion_lon": 0.0, "name": "95bc12e8f704c510b095f5f47919fc9e", "lon": -77.03527866666667, "is_disabled": 0, "type": "electric_scooter"}, {"bike_id": "5d4f8277741b532945ca3cd9c7a82220", "lat": 38.91417933333334, "is_reserved": 0, "fusion_lat": 0.0, "rental_uris": {"android": "https://dc.lft.to/lastmile_qr_scan", "ios": "https://dc.lft.to/lastmile_qr_scan"}, "fusion_lon": 0.0, "name": "5d4f8277741b532945ca3cd9c7a82220", "lon": -77.0180465, "is_disabled": 0, "type": "electric_scooter"},