{"data": {"bikes": [{"rental_uris": {"android": "https://dc.lft.to/lastmile_qr_scan", "ios": "https://dc.lft.to/lastmile_qr_scan"}, "type": "electric_scooter", "lon": -76.98732016666666, "name": "78e3cfa49c31b0548fa3decb1279aa4d", "bike_id": "78e3cfa49c31b0548fa3decb1279aa4d", "fusion_lat": 0.0, "is_reserved": 0, "lat": 38.86707633333333, "fusion_lon": 0.0, "is_disabled": 0}, {"rental_uris": {"android": "https://dc.lft.to/lastmile_qr_scan", "ios": "https://dc.lft.to/lastmile_qr_scan"}, "type": "electric_scooter", "lon": -77.02660483333334, "name": "b296c011583e6ebe1ab532a963d9a2c6", "bike_id": "b296c011583e6ebe1ab532a963d9a2c6", "fusion_lat": 0.0, "is_reserved": 0, "lat": 38.93098966666667, "fusion_lon": 0.0, "is_disabled": 0}, {"rental_uris": {"android": "https://dc.lft.to/lastmile_qr_scan", "ios": "https://dc.lft.to/lastmile_qr_scan"}, "type": "electric_bike", "lon": -77.08817766666667, "name": "39f352bac5e9f602124085c65d52416a", "bike_id": "39f352bac5e9f602124085c65d52416a", "fusion_lat": 0.0, "is_reserved": 0, "lat": 38.90976033333333, "fusion_lon": 0.0, "is_disabled": 0}, {"rental_uris": {"android": "https://dc.lft.to/lastmile_qr_scan", "ios": "https://dc.lft.to/lastmile_qr_scan"}, "type": "electric_scooter", "lon": -77.02903266666667, "name": "24a94329f746dad8d08eaea0e0882924", "bike_id": "24a94329f746dad8d08eaea0e0882924", "fusion_lat": 0.0, "is_reserved": 0, "lat": 38.9584645, "fusion_lon": 0.0, "is_disabled": 0}, {"rental_uris": {"android": "https://dc.lft.to/lastmile_qr_scan", "ios": "https://dc.lft.to/lastmile_qr_scan"}, "type": "electric_scooter", "lon": -77.023335, "name": "2fdb95ec7f85511a65678a7bcc774583", "bike_id": "2fdb95ec7f85511a65678a7bcc774583", "fusion_lat": 0.0, "is_reserved": 0, "lat": 38.8847785, "fusion_lon": 0.0, "is_disabled": 0}, {"rental_uris": {"android": "https://dc.lft.to/lastmile_qr_scan", "ios": "https://dc.lft.to/lastmile_qr_scan"}, "type": "electric_scooter", "lon": -77.04410033333333, "name": "22500f712696e1517c05e647b2e76dc8", "bike_id": "22500f712696e1517c05e647b2e76dc8", "fusion_lat": 0.0, "is_reserved": 0, "lat": 38.908997, "fusion_lon": 0.0, "is_disabled": 0}, {"rental_uris": {"android": "https://dc.lft.to/lastmile_qr_scan", "ios": "https://dc.lft.to/lastmile_qr_scan"}, "type": "electric_scooter", "lon": -77.0256655, "name": "3920624c9657bf67bb004d57376d4944", "bike_id": "3920624c9657bf67bb004d57376d4944", "fusion_lat": 0.0, "is_reserved": 0, "lat": 38.885881166666664, "fusion_lon": 0.0, "is_disabled": 0}, {"rental_uris": {"android": "https://dc.lft.to/lastmile_qr_scan", "ios": "https://dc.lft.to/lastmile_qr_scan"}, "type": "electric_bike", "lon": -76.9755715, "name": "9e651f47b3a93404918a49b29b8ced9a", "bike_id": "9e651f47b3a93404918a49b29b8ced9a", "fusion_lat": 0.0, "is_reserved": 0, "lat": 38.90317783333333, "fusion_lon": 0.0, "is_disabled": 0}, {"rental_uris": {"android": "https://dc.lft.to/lastmile_qr_scan", "ios": "https://dc.lft.to/lastmile_qr_scan"}, "type": "electric_scooter", "lon": -77.040161, "name": "79b431969c701a2a6fbc949f54493f2a", "bike_id": "79b431969c701a2a6fbc949f54493f2a", "fusion_lat": 0.0, "is_reserved": 0, "lat": 38.92201333333333, "fusion_lon": 0.0, "is_disabled": 0}, {"rental_uris": {"android": "https://dc.lft.to/lastmile_qr_scan", "ios": "https://dc.lft.to/lastmile_qr_scan"}, "type": "electric_scooter", "lon": -76.941544, "name": "55baa746cb1ee2752eb611a2945321bd", "bike_id": "55baa746cb1ee2752eb611a2945321bd", "fusion_lat": 0.0, "is_reserved": 0, "lat": 38.88360633333333, "fusion_lon": 0.0, "is_disabled": 0}, {"rental_uris": {"android": "https://dc.lft.to/lastmile_qr_scan", "ios": "https://dc.lft.to/lastmile_qr_scan"}, "type": "electric_scooter", "lon": -77.02185616666667, "name": "163cc6f1e076aa2dbf9c0e5240bd650a", "bike_id": "163cc6f1e076aa2dbf9c0e5240bd650a", "fusion_lat": 0.0, "is_reserved": 0, "lat": 38.9113735, "fusion_lon": 0.0, "is_disabled": 0}, {"rental_uris": {"android": "https://dc.lft.to/lastmile_qr_scan", "ios": "https://dc.lft.to/lastmile_qr_scan"}, "type": "electric_scooter", "lon": -77.0527795, "name": "2f010ac963cfb78e9828c4cbab624e9f", "bike_id": "2f010ac963cfb78e9828c4cbab624e9f", "fusion_lat": 0.0, "is_reserved": 0, "lat": 38.92251983333333, "fusion_lon": 0.0, "is_disabled": 0}, {"rental_uris": {"android": "https://dc.lft.to/lastmile_qr_scan", "ios": "https://dc.lft.to/lastmile_qr_scan"}, "type": "electric_scooter", "lon": -77.040274, "name": "52a3b944324b30d2a13c98fc2495c081", "bike_id": "52a3b944324b30d2a13c98fc2495c081", "fusion_lat": 0.0, "is_reserved": 0, "lat": 38.925693833333334, "fusion_lon": 0.0, "is_disabled": 0}, {"rental_uris": {"android": "https://dc.lft.to/lastmile_qr_scan", "ios": "https://dc.lft.to/lastmile_qr_scan"}, "type": "electric_scooter", "lon": -77.03814116666666, "name": "4b9aafc1550357c5a13d1b180b7fdcbc", "bike_id": "4b9aafc1550357c5a13d1b180b7fdcbc", "fusion_lat": 0.0, "is_reserved": 0, "lat": 38.914193, "fusion_lon": 0.0, "is_disabled": 0}, {"rental_uris": {"android": "https://dc.lft.to/lastmile_qr_scan", "ios": "https://dc.lft.to/lastmile_qr_scan"}, "type": "electric_scooter", "lon": -76.9927755, "name": "d540a412e70732e794ecf76084b8cc02", "bike_id": "d540a412e70732e794ecf76084b8cc02", "fusion_lat": 0.0, "is_reserved": 0, "lat": 38.8576545, "fusion_lon": 0.0, "is_disabled": 0}, {"rental_uris": {"android": "https://dc.lft.to/lastmile_qr_scan", "ios": "https://dc.lft.to/lastmile_qr_scan"}, "type": "electric_scooter", "lon": -77.03270316666666, "name": "0ae56482cc250b98e6d1e15f9165cd26", "bike_id": "0ae56482cc250b98e6d1e15f9165cd26", "fusion_lat": 0.0, "is_reserved": 0, "lat": 38.89639183333333, "fusion_lon": 0.0, "is_disabled": 0}, {"rental_uris": {"android": "https://dc.lft.to/lastmile_qr_scan", "ios": "https://dc.lft.to/lastmile_qr_scan"}, "type": "electric_scooter", "lon": -77.0243515, "name": "80b48b6574e178c598252ab7d14b383f", "bike_id": "80b48b6574e178c598252ab7d14b383f", "fusion_lat": 0.0, "is_reserved": 0, "lat": 38.932929666666666, "fusion_lon": 0.0, "is_disabled": 0}, {"rental_uris": {"android": "https://dc.lft.to/lastmile_qr_scan", "ios": "https://dc.lft.to/lastmile_qr_scan"}, "type": "electric_scooter", "lon": -77.01487216666666, "name": "158993d2d1844fd06ebc9b959e851e35", "bike_id": "158993d2d1844fd06ebc9b959e851e35", "fusion_lat": 0.0, "is_reserved": 0, "lat": 38.91769683333333, "fusion_lon": 0.0, "is_disabled": 0}, {"rental_uris": {"android": "https://dc.lft.to/lastmile_qr_scan", "ios": "https://dc.lft.to/lastmile_qr_scan"}, "type": "electric_scooter", "lon": -77.007138, "name": "f751c9fe77269409b9e7c93216644089", "bike_id": "f751c9fe77269409b9e7c93216644089", "fusion_lat": 0.0, "is_reserved": 0, "lat": 38.8767175, "fusion_lon": 0.0, "is_disabled": 0}, {"rental_uris": {"android": "https://dc.lft.to/lastmile_qr_scan", "ios": "https://dc.lft.to/lastmile_qr_scan"}, "type": "electric_scooter", "lon": -77.0057165, "name": "de03e3270fa194c83382c1f74824eff4", "bike_id": "de03e3270fa194c83382c1f74824eff4", "fusion_lat": 0.0, "is_reserved": 0, "lat": 38.9054795, "fusion_lon": 0.0, "is_disabled": 0}, {"rental_uris": {"android": "https://dc.lft.to/lastmile_qr_scan", "ios": "https://dc.lft.to/lastmile_qr_scan"}, "type": "electric_scooter", "lon": -77.04257616666666, "name": "c85011d3336c41b3aa0953f4894af60a", "bike_id": "c85011d3336c41b3aa0953f4894af60a", "fusion_lat": 0.0, "is_reserved": 0, "lat": 38.921985666666664, "fusion_lon": 0.0, "is_disabled": 0}, {"rental_uris": {"android": "https://dc.lft.to/lastmile_qr_scan", "ios": "https://dc.lft.to/lastmile_qr_scan"}, "type": "electric_scooter", "lon": -77.03137483333333, "name": "b885c1d813628b7c7d610a2faea7116e", "bike_id": "b885c1d813628b7c7d610a2faea7116e", "fusion_lat": 0.0, "is_reserved": 0, "lat": 38.89718083333333, "fusion_lon": 0.0, "is_disabled": 0}, {"rental_uris": {"android": "https://dc.lft.to/lastmile_qr_scan", "ios": "https://dc.lft.to/lastmile_qr_scan"}, "type": "electric_bike", "lon": -77.13092383333333, "name": "212ed3f4e580118fe197047345dcb38d", "bike_id": "212ed3f4e580118fe197047345dcb38d", "fusion_lat": 0.0, "is_reserved": 0, "lat": 38.86164, "fusion_lon": 0.0, "is_disabled": 0}, {"rental_uris": {"android": "https://dc.lft.to/lastmile_qr_scan", "ios": "https://dc.lft.to/lastmile_qr_scan"}, "type": "electric_scooter", "lon": -77.04381, "name": "631cdbe1011d26d777f3fbef7f61e5da", "bike_id": "631cdbe1011d26d777f3fbef7f61e5da", "fusion_lat": 0.0, "is_reserved": 0, "lat": 38.9236805, "fusion_lon": 0.0, "is_disabled": 0}, {"rental_uris": {"android": "https://dc.lft.to/lastmile_qr_scan", "ios": "https://dc.lft.to/lastmile_qr_scan"}, "type": "electric_scooter", "lon": -77.03065433333333, "name": "53ae732c988eceb6133d2f1434ff9a09", "bike_id": "53ae732c988eceb6133d2f1434ff9a09", "fusion_lat": 0.0, "is_reserved": 0, "lat": 38.92250083333333, "fusion_lon": 0.0, "is_disabled": 0}, {"rental_uris": {"android": "https://dc.lft.to/lastmile_qr_scan", "ios": "https://dc.lft.to/lastmile_qr_scan"}, "type": "electric_scooter", "lon": -77.03504, "name": "eeb2c6513c9d90d0dfb1b157dafbd354", "bike_id": "eeb2c6513c9d90d0dfb1b157dafbd354", "fusion_lat": 0.0, "is_reserved": 0, "lat": 38.903869666666665, "fusion_lon": 0.0, "is_disabled": 0}, {"rental_uris": {"android": "https://dc.lft.to/lastmile_qr_scan", "ios": "https://dc.lft.to/lastmile_qr_scan"}, "type": "electric_scooter", "lon": -76.99487783333333, "name": "41761cc3e27fe24a88c35ef82288ad30", "bike_id": "41761cc3e27fe24a88c35ef82288ad30", "fusion_lat": 0.0, "is_reserved": 0, "lat": 38.862188, "fusion_lon": 0.0, "is_disabled": 0}, {"rental_uris": {"android": "https://dc.lft.to/lastmile_qr_scan", "ios": "https://dc.lft.to/lastmile_qr_scan"}, "type": "electric_scooter", "lon": -77.03392783333334, "name": "c044f634eb927743678063ad1e0f11cc", "bike_id": "c044f634eb927743678063ad1e0f11cc", "fusion_lat": 0.0, "is_reserved": 0, "lat": 38.9204315, "fusion_lon": 0.0, "is_disabled": 0}, {"rental_uris": {"android": "https://dc.lft.to/lastmile_qr_scan", "ios": "https://dc.lft.to/lastmile_qr_scan"}, "type": "electric_bike", "lon": -77.02118466666667, "name": "8a8417539359623df5d90a950f8682d2", "bike_id": "8a8417539359623df5d90a950f8682d2", "fusion_lat": 0.0, "is_reserved": 0, "lat": 38.93600333333333, "fusion_lon": 0.0, "is_disabled": 0}, {"rental_uris": {"android": "https://dc.lft.to/lastmile_qr_scan", "ios": "https://dc.lft.to/lastmile_qr_scan"}, "type": "electric_scooter", "lon": -77.02972633333333, "name": "06619a16185ffccc001c2c0754881490", "bike_id": "06619a16185ffccc001c2c0754881490", "fusion_lat": 0.0, "is_reserved": 0, "lat": 38.962297666666664, "fusion_lon": 0.0, "is_disabled": 0}, {"rental_uris": {"android": "https://dc.lft.to/lastmile_qr_scan", "ios": "https://dc.lft.to/lastmile_qr_scan"}, "type": "electric_bike", "lon": -77.10126783333334, "name": "fc5aae048e182f24798572501242b41c", "bike_id": "fc5aae048e182f24798572501242b41c", "fusion_lat": 0.0, "is_reserved": 0, "lat": 38.8521145, "fusion_lon": 0.0, "is_disabled": 0}, {"rental_uris": {"android": "https://dc.lft.to/lastmile_qr_scan", "ios": "https://dc.lft.to/lastmile_qr_scan"}, "type": "electric_scooter", "lon": -77.06397916666667, "name": "fe20b2e67638390cf4df540bba1eacf2", "bike_id": "fe20b2e67638390cf4df540bba1eacf2", "fusion_lat": 0.0, "is_reserved": 0, "lat": 38.944175333333334, "fusion_lon": 0.0, "is_disabled": 0}, {"rental_uris": {"android": "https://dc.lft.to/lastmile_qr_scan", "ios": "https://dc.lft.to/lastmile_qr_scan"}, "type": "electric_scooter", "lon": -76.9888885, "name": "958c4c2ba85e0a2a4a136151c48db0d9", "bike_id": "958c4c2ba85e0a2a4a136151c48db0d9", "fusion_lat": 0.0, "is_reserved": 0, "lat": 38.86676966666667, "fusion_lon": 0.0, "is_disabled": 0}, {"rental_uris": {"android": "https://dc.lft.to/lastmile_qr_scan", "ios": "https://dc.lft.to/lastmile_qr_scan"}, "type": "electric_scooter", "lon": -76.94995083333333, "name": "b02a1bc748ceee90f19af1551a2d4683", "bike_id": "b02a1bc748ceee90f19af1551a2d4683", "fusion_lat": 0.0, "is_reserved": 0, "lat": 38.893915, "fusion_lon": 0.0, "is_disabled": 0}, {"rental_uris": {"android": "https://dc.lft.to/lastmile_qr_scan", "ios": "https://dc.lft.to/lastmile_qr_scan"}, "type": "electric_scooter", "lon": -77.01997066666667, "name": "077ff4fb6e89629413c7fa46687b5d04", "bike_id": "077ff4fb6e89629413c7fa46687b5d04", "fusion_lat": 0.0, "is_reserved": 0, "lat": 38.913326833333336, "fusion_lon": 0.0, "is_disabled": 0}, {"rental_uris": {"android": "https://dc.lft.to/lastmile_qr_scan", "ios": "https://dc.lft.to/lastmile_qr_scan"}, "type": "electric_scooter", "lon": -77.0515635, "name": "b832d06d90cfe9a0a508cc1972f3e778", "bike_id": "b832d06d90cfe9a0a508cc1972f3e778", "fusion_lat": 0.0, "is_reserved": 0, "lat": 38.8966415, "fusion_lon": 0.0, "is_disabled": 0}, {"rental_uris": {"android": "https://dc.lft.to/lastmile_qr_scan", "ios": "https://dc.lft.to/lastmile_qr_scan"}, "type": "electric_scooter", "lon": -77.04980066666667, "name": "4bb4691604816bd2bda7123af2a9f17e", "bike_id": "4bb4691604816bd2bda7123af2a9f17e", "fusion_lat": 0.0, "is_reserved": 0, "lat": 38.90115483333334, "fusion_lon": 0.0, "is_disabled": 0}, {"rental_uris": {"android": "https://dc.lft.to/lastmile_qr_scan", "ios": "https://dc.lft.to/lastmile_qr_scan"}, "type": "electric_bike", "lon": -77.06110416666667, "name": "92dd3c54131b79cabb5f34b19fd1867a", "bike_id": "92dd3c54131b79cabb5f34b19fd1867a", "fusion_lat": 0.0, "is_reserved": 0, "lat": 38.94518766666667, "fusion_lon": 0.0, "is_disabled": 0}, {"rental_uris": {"android": "https://dc.lft.to/lastmile_qr_scan", "ios": "https://dc.lft.to/lastmile_qr_scan"}, "type": "electric_bike", "lon": -76.960889, "name": "4241618959fd0b15e0ce7f8fee79cf03", "bike_id": "4241618959fd0b15e0ce7f8fee79cf03", "fusion_lat": 0.0, "is_reserved": 0, "lat": 38.9185645, "fusion_lon": 0.0, "is_disabled": 0}, {"rental_uris": {"android": "https://dc.lft.to/lastmile_qr_scan", "ios": "https://dc.lft.to/lastmile_qr_scan"}, "type": "electric_scooter", "lon": -77.023663, "name": "c877da425125b5426c9e25a913741585", "bike_id": "c877da425125b5426c9e25a913741585", "fusion_lat": 0.0, "is_reserved": 0, "lat": 38.90734483333333, "fusion_lon": 0.0, "is_disabled": 0}, {"rental_uris": {"android": "https://dc.lft.to/lastmile_qr_scan", "ios": "https://dc.lft.to/lastmile_qr_scan"}, "type": "electric_bike", "lon": -77.063793, "name": "a091a1eaaf5059f0afa41b0b5fb0ae2c", "bike_id": "a091a1eaaf5059f0afa41b0b5fb0ae2c", "fusion_lat": 0.0, "is_reserved": 0, "lat": 39.017328166666665, "fusion_lon": 0.0, "is_disabled": 0}, {"rental_uris": {"android": "https://dc.lft.to/lastmile_qr_scan", "ios": "https://dc.lft.to/lastmile_qr_scan"}, "type": "electric_scooter", "lon": -77.03458283333333, "name": "76bb68f5f151782e18bddb770caa1546", "bike_id": "76bb68f5f151782e18bddb770caa1546", "fusion_lat": 0.0, "is_reserved": 0, "lat": 38.9042505, "fusion_lon": 0.0, "is_disabled": 0}, {"rental_uris": {"android": "https://dc.lft.to/lastmile_qr_scan", "ios": "https://dc.lft.to/lastmile_qr_scan"}, "type": "electric_scooter", "lon": -76.98220483333333, "name": "fc729ededc3a283fe36008f5323cd5b1", "bike_id": "fc729ededc3a283fe36008f5323cd5b1", "fusion_lat": 0.0, "is_reserved": 0, "lat": 38.90189483333333, "fusion_lon": 0.0, "is_disabled": 0}, {"rental_uris": {"android": "https://dc.lft.to/lastmile_qr_scan", "ios": "https://dc.lft.to/lastmile_qr_scan"}, "type": "electric_scooter", "lon": -77.03710383333333, "name": "6decfd9c582c093e41060fa3761546b9", "bike_id": "6decfd9c582c093e41060fa3761546b9", "fusion_lat": 0.0, "is_reserved": 0, "lat": 38.91553966666667, "fusion_lon": 0.0, "is_disabled": 0}, {"rental_uris": {"android": "https://dc.lft.to/lastmile_qr_scan", "ios": "https://dc.lft.to/lastmile_qr_scan"}, "type": "electric_scooter", "lon": -77.02612883333333, "name": "d1e2b10a966d4ddbdcf8f16272cc8049", "bike_id": "d1e2b10a966d4ddbdcf8f16272cc8049", "fusion_lat": 0.0, "is_reserved": 0, "lat": 38.919170666666666, "fusion_lon": 0.0, "is_disabled": 0}, {"rental_uris": {"android": "https://dc.lft.to/lastmile_qr_scan", "ios": "https://dc.lft.to/lastmile_qr_scan"}, "type": "electric_scooter", "lon": -76.981298, "name": "01c68b0dca8fcb7c33966bdfdd65aa56", "bike_id": "01c68b0dca8fcb7c33966bdfdd65aa56", "fusion_lat": 0.0, "is_reserved": 0, "lat": 38.88416616666667, "fusion_lon": 0.0, "is_disabled": 0}, {"rental_uris": {"android": "https://dc.lft.to/lastmile_qr_scan", "ios": "https://dc.lft.to/lastmile_qr_scan"}, "type": "electric_scooter", "lon": -77.02037333333334, "name": "b3b37ae91c8418b91fc121cd579ef715", "bike_id": "b3b37ae91c8418b91fc121cd579ef715", "fusion_lat": 0.0, "is_reserved": 0, "lat": 38.89265616666667, "fusion_lon": 0.0, "is_disabled": 0}, {"rental_uris": {"android": "https://dc.lft.to/lastmile_qr_scan", "ios": "https://dc.lft.to/lastmile_qr_scan"}, "type": "electric_scooter", "lon": -76.9948105, "name": "63b78b3c1beb2e3028f6e0c5a98a27d5", "bike_id": "63b78b3c1beb2e3028f6e0c5a98a27d5", "fusion_lat": 0.0, "is_reserved": 0, "lat": 38.877008833333335, "fusion_lon": 0.0, "is_disabled": 0}, {"rental_uris": {"android": "https://dc.lft.to/lastmile_qr_scan", "ios": "https://dc.lft.to/lastmile_qr_scan"}, "type": "electric_scooter", "lon": -77.0634175, "name": "576ac843cb78f9b1d9268e587e47f96f", "bike_id": "576ac843cb78f9b1d9268e587e47f96f", "fusion_lat": 0.0, "is_reserved": 0, "lat": 38.908483, "fusion_lon": 0.0, "is_disabled": 0}, {"rental_uris": {"android": "https://dc.lft.to/lastmile_qr_scan", "ios": "https://dc.lft.to/lastmile_qr_scan"}, "type": "electric_scooter", "lon": -77.03662616666666, "name": "2dd1a3c5c1324c6fcdc21f0336ba40ea", "bike_id": "2dd1a3c5c1324c6fcdc21f0336ba40ea", "fusion_lat": 0.0, "is_reserved": 0, "lat": 38.916213, "fusion_lon": 0.0, "is_disabled": 0}, {"rental_uris": {"android": "https://dc.lft.to/lastmile_qr_scan", "ios": "https://dc.lft.to/lastmile_qr_scan"}, "type": "electric_scooter", "lon": -77.01766566666667, "name": "5f41e405c8f101b0001efbf9fedbca4a", "bike_id": "5f41e405c8f101b0001efbf9fedbca4a", "fusion_lat": 0.0, "is_reserved": 0, "lat": 38.87299016666667, "fusion_lon": 0.0, "is_disabled": 0}, {"rental_uris": {"android": "https://dc.lft.to/lastmile_qr_scan", "ios": "https://dc.lft.to/lastmile_qr_scan"}, "type": "electric_scooter", "lon": -77.02161333333333, "name": "f7c1c374e8e843ae08b0a85780cb3750", "bike_id": "f7c1c374e8e843ae08b0a85780cb3750", "fusion_lat": 0.0, "is_reserved": 0, "lat": 38.9408565, "fusion_lon": 0.0, "is_disabled": 0}, {"rental_uris": {"android": "https://dc.lft.to/lastmile_qr_scan", "ios": "https://dc.lft.to/lastmile_qr_scan"}, "type": "electric_scooter", "lon": -77.026939, "name": "c943abc205cdc3eb7a896f187dea4ca9", "bike_id": "c943abc205cdc3eb7a896f187dea4ca9", "fusion_lat": 0.0, "is_reserved": 0, "lat": 38.91272883333333, "fusion_lon": 0.0, "is_disabled": 0}, {"rental_uris": {"android": "https://dc.lft.to/lastmile_qr_scan", "ios": "https://dc.lft.to/lastmile_qr_scan"}, "type": "electric_scooter", "lon": -76.99954966666667, "name": "3e067f489bfc933acdf20660b0c50d65", "bike_id": "3e067f489bfc933acdf20660b0c50d65", "fusion_lat": 0.0, "is_reserved": 0, "lat": 38.908659, "fusion_lon": 0.0, "is_disabled": 0}, {"rental_uris": {"android": "https://dc.lft.to/lastmile_qr_scan", "ios": "https://dc.lft.to/lastmile_qr_scan"}, "type": "electric_bike", "lon": -77.11427216666667, "name": "a8db6ec6187b2f1f1f8e4706d0c6f6aa", "bike_id": "a8db6ec6187b2f1f1f8e4706d0c6f6aa", "fusion_lat": 0.0, "is_reserved": 0, "lat": 38.852480666666665, "fusion_lon": 0.0, "is_disabled": 0}, {"rental_uris": {"android": "https://dc.lft.to/lastmile_qr_scan", "ios": "https://dc.lft.to/lastmile_qr_scan"}, "type": "electric_scooter", "lon": -77.03582533333334, "name": "7273bce2725dd2ad133a017baba2afb1", "bike_id": "7273bce2725dd2ad133a017baba2afb1", "fusion_lat": 0.0, "is_reserved": 0, "lat": 38.91918166666667, "fusion_lon": 0.0, "is_disabled": 0}, {"rental_uris": {"android": "https://dc.lft.to/lastmile_qr_scan", "ios": "https://dc.lft.to/lastmile_qr_scan"}, "type": "electric_scooter", "lon": -76.99485783333333, "name": "1b7dde632d3faaa6c79b72c7ce056de6", "bike_id": "1b7dde632d3faaa6c79b72c7ce056de6", "fusion_lat": 0.0, "is_reserved": 0, "lat": 38.862425333333334, "fusion_lon": 0.0, "is_disabled": 0}, {"rental_uris": {"android": "https://dc.lft.to/lastmile_qr_scan", "ios": "https://dc.lft.to/lastmile_qr_scan"}, "type": "electric_scooter", "lon": -77.03446333333333, "name": "e74218295af2161e05368cb070819629", "bike_id": "e74218295af2161e05368cb070819629", "fusion_lat": 0.0, "is_reserved": 0, "lat": 38.905706333333335, "fusion_lon": 0.0, "is_disabled": 0}, {"rental_uris": {"android": "https://dc.lft.to/lastmile_qr_scan", "ios": "https://dc.lft.to/lastmile_qr_scan"}, "type": "electric_scooter", "lon": -76.99148966666667, "name": "98f08a4fb0820bd4ad055976372ba233", "bike_id": "98f08a4fb0820bd4ad055976372ba233", "fusion_lat": 0.0, "is_reserved": 0, "lat": 38.9012365, "fusion_lon": 0.0, "is_disabled": 0}, {"rental_uris": {"android": "https://dc.lft.to/lastmile_qr_scan", "ios": "https://dc.lft.to/lastmile_qr_scan"}, "type": "electric_scooter", "lon": -77.0344215, "name": "1c782454ae8eefa171beb53c55a52766", "bike_id": "1c782454ae8eefa171beb53c55a52766", "fusion_lat": 0.0, "is_reserved": 0, "lat": 38.918105833333335, "fusion_lon": 0.0, "is_disabled": 0}, {"rental_uris": {"android": "https://dc.lft.to/lastmile_qr_scan", "ios": "https://dc.lft.to/lastmile_qr_scan"}, "type": "electric_scooter", "lon": -76.997271, "name": "c46daea5dd5130267d13adf3373789ed", "bike_id": "c46daea5dd5130267d13adf3373789ed", "fusion_lat": 0.0, "is_reserved": 0, "lat": 38.907932333333335, "fusion_lon": 0.0, "is_disabled": 0}, {"rental_uris": {"android": "https://dc.lft.to/lastmile_qr_scan", "ios": "https://dc.lft.to/lastmile_qr_scan"}, "type": "electric_bike", "lon": -76.99764833333333, "name": "a86d1b32aa97a0e838d4c96dc7ea338c", "bike_id": "a86d1b32aa97a0e838d4c96dc7ea338c", "fusion_lat": 0.0, "is_reserved": 0, "lat": 39.005922166666664, "fusion_lon": 0.0, "is_disabled": 0}, {"rental_uris": {"android": "https://dc.lft.to/lastmile_qr_scan", "ios": "https://dc.lft.to/lastmile_qr_scan"}, "type": "electric_scooter", "lon": -76.99770916666667, "name": "930aef1512443d6bd566545eff5b1212", "bike_id": "930aef1512443d6bd566545eff5b1212", "fusion_lat": 0.0, "is_reserved": 0, "lat": 38.92288833333333, "fusion_lon": 0.0, "is_disabled": 0}, {"rental_uris": {"android": "https://dc.lft.to/lastmile_qr_scan", "ios": "https://dc.lft.to/lastmile_qr_scan"}, "type": "electric_scooter", "lon": -76.99685883333333, "name": "714041d3e57bc2adbae3bc936e533227", "bike_id": "714041d3e57bc2adbae3bc936e533227", "fusion_lat": 0.0, "is_reserved": 0, "lat": 38.876613, "fusion_lon": 0.0, "is_disabled": 0}, {"rental_uris": {"android": "https://dc.lft.to/lastmile_qr_scan", "ios": "https://dc.lft.to/lastmile_qr_scan"}, "type": "electric_scooter", "lon": -77.0388, "name": "90bcf2b25d447b54eb6d4a62228376dd", "bike_id": "90bcf2b25d447b54eb6d4a62228376dd", "fusion_lat": 0.0, "is_reserved": 0, "lat": 38.933642666666664, "fusion_lon": 0.0, "is_disabled": 0}, {"rental_uris": {"android": "https://dc.lft.to/lastmile_qr_scan", "ios": "https://dc.lft.to/lastmile_qr_scan"}, "type": "electric_scooter", "lon": -77.00798633333333, "name": "b4a3b378ab215ded15fd3fd657bcc2ea", "bike_id": "b4a3b378ab215ded15fd3fd657bcc2ea", "fusion_lat": 0.0, "is_reserved": 0, "lat": 38.878604833333334, "fusion_lon": 0.0, "is_disabled": 0}, {"rental_uris": {"android": "https://dc.lft.to/lastmile_qr_scan", "ios": "https://dc.lft.to/lastmile_qr_scan"}, "type": "electric_scooter", "lon": -77.039102, "name": "41ec0b9b73a0d5a8258b85d70c18f5da", "bike_id": "41ec0b9b73a0d5a8258b85d70c18f5da", "fusion_lat": 0.0, "is_reserved": 0, "lat": 38.904689, "fusion_lon": 0.0, "is_disabled": 0}, {"rental_uris": {"android": "https://dc.lft.to/lastmile_qr_scan", "ios": "https://dc.lft.to/lastmile_qr_scan"}, "type": "electric_bike", "lon": -77.01647583333333, "name": "3e0b1c9dc84199c31f354c472b58e654", "bike_id": "3e0b1c9dc84199c31f354c472b58e654", "fusion_lat": 0.0, "is_reserved": 0, "lat": 38.881149, "fusion_lon": 0.0, "is_disabled": 0}, {"rental_uris": {"android": "https://dc.lft.to/lastmile_qr_scan", "ios": "https://dc.lft.to/lastmile_qr_scan"}, "type": "electric_scooter", "lon": -77.04406433333334, "name": "08383191ab8e3bf7de57b39e093bd002", "bike_id": "08383191ab8e3bf7de57b39e093bd002", "fusion_lat": 0.0, "is_reserved": 0, "lat": 38.893984333333336, "fusion_lon": 0.0, "is_disabled": 0}, {"rental_uris": {"android": "https://dc.lft.to/lastmile_qr_scan", "ios": "https://dc.lft.to/lastmile_qr_scan"}, "type": "electric_bike", "lon": -76.98003966666667, "name": "646774ce36c73d6373a3d40d7a1e3425", "bike_id": "646774ce36c73d6373a3d40d7a1e3425", "fusion_lat": 0.0, "is_reserved": 0, "lat": 38.90228366666667, "fusion_lon": 0.0, "is_disabled": 0}, {"rental_uris": {"android": "https://dc.lft.to/lastmile_qr_scan", "ios": "https://dc.lft.to/lastmile_qr_scan"}, "type": "electric_scooter", "lon": -77.02094766666667, "name": "43de3c275035b1f5bf8cc45370c44f3b", "bike_id": "43de3c275035b1f5bf8cc45370c44f3b", "fusion_lat": 0.0, "is_reserved": 0, "lat": 38.91010383333333, "fusion_lon": 0.0, "is_disabled": 0}, {"rental_uris": {"android": "https://dc.lft.to/lastmile_qr_scan", "ios": "https://dc.lft.to/lastmile_qr_scan"}, "type": "electric_scooter", "lon": -77.0529085, "name": "fe5ec5db7a40a2cc6b596527f74f8863", "bike_id": "fe5ec5db7a40a2cc6b596527f74f8863", "fusion_lat": 0.0, "is_reserved": 0, "lat": 38.898812, "fusion_lon": 0.0, "is_disabled": 0}, {"rental_uris": {"android": "https://dc.lft.to/lastmile_qr_scan", "ios": "https://dc.lft.to/lastmile_qr_scan"}, "type": "electric_bike", "lon": -77.3608245, "name": "4b0714917eeb72cb8f87dee3967bf545", "bike_id": "4b0714917eeb72cb8f87dee3967bf545", "fusion_lat": 0.0, "is_reserved": 0, "lat": 38.939619666666665, "fusion_lon": 0.0, "is_disabled": 0}, {"rental_uris": {"android": "https://dc.lft.to/lastmile_qr_scan", "ios": "https://dc.lft.to/lastmile_qr_scan"}, "type": "electric_scooter", "lon": -77.021701, "name": "5cf2a3311d04ecad56803a4c746d7c07", "bike_id": "5cf2a3311d04ecad56803a4c746d7c07", "fusion_lat": 0.0, "is_reserved": 0, "lat": 38.942933, "fusion_lon": 0.0, "is_disabled": 0}, {"rental_uris": {"android": "https://dc.lft.to/lastmile_qr_scan", "ios": "https://dc.lft.to/lastmile_qr_scan"}, "type": "electric_scooter", "lon": -76.99011383333334, "name": "ff66ce043e1f4e203913550839c45799", "bike_id": "ff66ce043e1f4e203913550839c45799", "fusion_lat": 0.0, "is_reserved": 0, "lat": 38.886219, "fusion_lon": 0.0, "is_disabled": 0}, {"rental_uris": {"android": "https://dc.lft.to/lastmile_qr_scan", "ios": "https://dc.lft.to/lastmile_qr_scan"}, "type": "electric_scooter", "lon": -77.03579033333334, "name": "d8ea6f5ba06df9029a40d5c6f7080898", "bike_id": "d8ea6f5ba06df9029a40d5c6f7080898", "fusion_lat": 0.0, "is_reserved": 0, "lat": 38.93477466666667, "fusion_lon": 0.0, "is_disabled": 0}, {"rental_uris": {"android": "https://dc.lft.to/lastmile_qr_scan", "ios": "https://dc.lft.to/lastmile_qr_scan"}, "type": "electric_scooter", "lon": -77.04032216666667, "name": "c3df0c006f246c79909b4c6b1dba4e17", "bike_id": "c3df0c006f246c79909b4c6b1dba4e17", "fusion_lat": 0.0, "is_reserved": 0, "lat": 38.90007283333333, "fusion_lon": 0.0, "is_disabled": 0}, {"rental_uris": {"android": "https://dc.lft.to/lastmile_qr_scan", "ios": "https://dc.lft.to/lastmile_qr_scan"}, "type": "electric_scooter", "lon": -77.02362166666667, "name": "4f71598f77521043772d56be78e8f93d", "bike_id": "4f71598f77521043772d56be78e8f93d", "fusion_lat": 0.0, "is_reserved": 0, "lat": 38.907312166666664, "fusion_lon": 0.0, "is_disabled": 0}, {"rental_uris": {"android": "https://dc.lft.to/lastmile_qr_scan", "ios": "https://dc.lft.to/lastmile_qr_scan"}, "type": "electric_scooter", "lon": -77.0382945, "name": "31dc593d8936aabd55fbe972c4e0fb3a", "bike_id": "31dc593d8936aabd55fbe972c4e0fb3a", "fusion_lat": 0.0, "is_reserved": 0, "lat": 38.921729, "fusion_lon": 0.0, "is_disabled": 0}, {"rental_uris": {"android": "https://dc.lft.to/lastmile_qr_scan", "ios": "https://dc.lft.to/lastmile_qr_scan"}, "type": "electric_scooter", "lon": -77.03291016666667, "name": "a4fdd56af31953727ace3f5d067cd3a2", "bike_id": "a4fdd56af31953727ace3f5d067cd3a2", "fusion_lat": 0.0, "is_reserved": 0, "lat": 38.922175333333335, "fusion_lon": 0.0, "is_disabled": 0}, {"rental_uris": {"android": "https://dc.lft.to/lastmile_qr_scan", "ios": "https://dc.lft.to/lastmile_qr_scan"}, "type": "electric_scooter", "lon": -77.0343905, "name": "1e14078b9faf56577b801d2b1e85a26e", "bike_id": "1e14078b9faf56577b801d2b1e85a26e", "fusion_lat": 0.0, "is_reserved": 0, "lat": 38.93439216666667, "fusion_lon": 0.0, "is_disabled": 0}, {"rental_uris": {"android": "https://dc.lft.to/lastmile_qr_scan", "ios": "https://dc.lft.to/lastmile_qr_scan"}, "type": "electric_scooter", "lon": -77.021184, "name": "e2c698dcd6060d93451c2d418657e55a", "bike_id": "e2c698dcd6060d93451c2d418657e55a", "fusion_lat": 0.0, "is_reserved": 0, "lat": 38.91737916666666, "fusion_lon": 0.0, "is_disabled": 0}, {"rental_uris": {"android": "https://dc.lft.to/lastmile_qr_scan", "ios": "https://dc.lft.to/lastmile_qr_scan"}, "type": "electric_scooter", "lon": -77.01414683333333, "name": "7e7b9f5977d1bc53749c5b58a32a7b31", "bike_id": "7e7b9f5977d1bc53749c5b58a32a7b31", "fusion_lat": 0.0, "is_reserved": 0, "lat": 38.87893916666667, "fusion_lon": 0.0, "is_disabled": 0}, {"rental_uris": {"android": "https://dc.lft.to/lastmile_qr_scan", "ios": "https://dc.lft.to/lastmile_qr_scan"}, "type": "electric_scooter", "lon": -77.03463583333334, "name": "6038f3df0a162e940aa156c5ddf70a63", "bike_id": "6038f3df0a162e940aa156c5ddf70a63", "fusion_lat": 0.0, "is_reserved": 0, "lat": 38.921600166666664, "fusion_lon": 0.0, "is_disabled": 0}, {"rental_uris": {"android": "https://dc.lft.to/lastmile_qr_scan", "ios": "https://dc.lft.to/lastmile_qr_scan"}, "type": "electric_bike", "lon": -76.9816245, "name": "57e3ffc5b74ece98a2cb4d4ca2084dea", "bike_id": "57e3ffc5b74ece98a2cb4d4ca2084dea", "fusion_lat": 0.0, "is_reserved": 0, "lat": 38.884970333333335, "fusion_lon": 0.0, "is_disabled": 0}, {"rental_uris": {"android": "https://dc.lft.to/lastmile_qr_scan", "ios": "https://dc.lft.to/lastmile_qr_scan"}, "type": "electric_scooter", "lon": -77.00119283333333, "name": "7b60d82ce5867c9dce9d36a377e3ebb6", "bike_id": "7b60d82ce5867c9dce9d36a377e3ebb6", "fusion_lat": 0.0, "is_reserved": 0, "lat": 38.877903, "fusion_lon": 0.0, "is_disabled": 0}, {"rental_uris": {"android": "https://dc.lft.to/lastmile_qr_scan", "ios": "https://dc.lft.to/lastmile_qr_scan"}, "type": "electric_scooter", "lon": -77.039437, "name": "8368df24cde961a1838afe864ea3a798", "bike_id": "8368df24cde961a1838afe864ea3a798", "fusion_lat": 0.0, "is_reserved": 0, "lat": 38.91691683333333, "fusion_lon": 0.0, "is_disabled": 0}, {"rental_uris": {"android": "https://dc.lft.to/lastmile_qr_scan", "ios": "https://dc.lft.to/lastmile_qr_scan"}, "type": "electric_scooter", "lon": -77.02981383333334, "name": "0d0cef7294810d8c1f3ce84dfbfb325a", "bike_id": "0d0cef7294810d8c1f3ce84dfbfb325a", "fusion_lat": 0.0, "is_reserved": 0, "lat": 38.94070133333334, "fusion_lon": 0.0, "is_disabled": 0}, {"rental_uris": {"android": "https://dc.lft.to/lastmile_qr_scan", "ios": "https://dc.lft.to/lastmile_qr_scan"}, "type": "electric_scooter", "lon": -77.03785283333333, "name": "f70d553862a0e69615d6b54435dc5ad2", "bike_id": "f70d553862a0e69615d6b54435dc5ad2", "fusion_lat": 0.0, "is_reserved": 0, "lat": 38.9057605, "fusion_lon": 0.0, "is_disabled": 0}, {"rental_uris": {"android": "https://dc.lft.to/lastmile_qr_scan", "ios": "https://dc.lft.to/lastmile_qr_scan"}, "type": "electric_bike", "lon": -77.0121375, "name": "2c5c3b77fc717f27d69cac4c39870215", "bike_id": "2c5c3b77fc717f27d69cac4c39870215", "fusion_lat": 0.0, "is_reserved": 0, "lat": 38.871006666666666, "fusion_lon": 0.0, "is_disabled": 0}, {"rental_uris": {"android": "https://dc.lft.to/lastmile_qr_scan", "ios": "https://dc.lft.to/lastmile_qr_scan"}, "type": "electric_scooter", "lon": -77.04238766666667, "name": "78fbe94568216f638e24186cd4cfdabd", "bike_id": "78fbe94568216f638e24186cd4cfdabd", "fusion_lat": 0.0, "is_reserved": 0, "lat": 38.922766, "fusion_lon": 0.0, "is_disabled": 0}, {"rental_uris": {"android": "https://dc.lft.to/lastmile_qr_scan", "ios": "https://dc.lft.to/lastmile_qr_scan"}, "type": "electric_scooter", "lon": -76.97629483333333, "name": "c09732c9d8d1b19f4d054d74309f9abb", "bike_id": "c09732c9d8d1b19f4d054d74309f9abb", "fusion_lat": 0.0, "is_reserved": 0, "lat": 38.905715666666666, "fusion_lon": 0.0, "is_disabled": 0}, {"rental_uris": {"android": "https://dc.lft.to/lastmile_qr_scan", "ios": "https://dc.lft.to/lastmile_qr_scan"}, "type": "electric_scooter", "lon": -77.05057833333333, "name": "f23bae9e60994af593041c4414addefa", "bike_id": "f23bae9e60994af593041c4414addefa", "fusion_lat": 0.0, "is_reserved": 0, "lat": 38.92366416666667, "fusion_lon": 0.0, "is_disabled": 0}, {"rental_uris": {"android": "https://dc.lft.to/lastmile_qr_scan", "ios": "https://dc.lft.to/lastmile_qr_scan"}, "type": "electric_scooter", "lon": -77.02259783333334, "name": "a5acc213533973a16127e3fb7af0c723", "bike_id": "a5acc213533973a16127e3fb7af0c723", "fusion_lat": 0.0, "is_reserved": 0, "lat": 38.928329833333336, "fusion_lon": 0.0, "is_disabled": 0}, {"rental_uris": {"android": "https://dc.lft.to/lastmile_qr_scan", "ios": "https://dc.lft.to/lastmile_qr_scan"}, "type": "electric_scooter", "lon": -77.01944533333334, "name": "7741829270df31dc9927b83410f0f5be", "bike_id": "7741829270df31dc9927b83410f0f5be", "fusion_lat": 0.0, "is_reserved": 0, "lat": 38.9097145, "fusion_lon": 0.0, "is_disabled": 0}, {"rental_uris": {"android": "https://dc.lft.to/lastmile_qr_scan", "ios": "https://dc.lft.to/lastmile_qr_scan"}, "type": "electric_scooter", "lon": -76.99448533333333, "name": "a358e9738e432055f98ff6b4d44b6f03", "bike_id": "a358e9738e432055f98ff6b4d44b6f03", "fusion_lat": 0.0, "is_reserved": 0, "lat": 38.905044, "fusion_lon": 0.0, "is_disabled": 0}, {"rental_uris": {"android": "https://dc.lft.to/lastmile_qr_scan", "ios": "https://dc.lft.to/lastmile_qr_scan"}, "type": "electric_scooter", "lon": -77.06387966666667, "name": "8f983bda8a545cb8ec7ddb3e19203f1a", "bike_id": "8f983bda8a545cb8ec7ddb3e19203f1a", "fusion_lat": 0.0, "is_reserved": 0, "lat": 38.929056833333334, "fusion_lon": 0.0, "is_disabled": 0}, {"rental_uris": {"android": "https://dc.lft.to/lastmile_qr_scan", "ios": "https://dc.lft.to/lastmile_qr_scan"}, "type": "electric_scooter", "lon": -77.03506383333334, "name": "a9671509f3893dea36e257d939666517", "bike_id": "a9671509f3893dea36e257d939666517", "fusion_lat": 0.0, "is_reserved": 0, "lat": 38.92144566666666, "fusion_lon": 0.0, "is_disabled": 0}, {"rental_uris": {"android": "https://dc.lft.to/lastmile_qr_scan", "ios": "https://dc.lft.to/lastmile_qr_scan"}, "type": "electric_bike", "lon": -77.07048416666666, "name": "c8c76c9490232d94f9237da31ef397af", "bike_id": "c8c76c9490232d94f9237da31ef397af", "fusion_lat": 0.0, "is_reserved": 0, "lat": 38.8244515, "fusion_lon": 0.0, "is_disabled": 0}, {"rental_uris": {"android": "https://dc.lft.to/lastmile_qr_scan", "ios": "https://dc.lft.to/lastmile_qr_scan"}, "type": "electric_scooter", "lon": -77.011968, "name": "28a1036d39f518dd2e4205a6c44f8d3b", "bike_id": "28a1036d39f518dd2e4205a6c44f8d3b", "fusion_lat": 0.0, "is_reserved": 0, "lat": 38.8930135, "fusion_lon": 0.0, "is_disabled": 0}, {"rental_uris": {"android": "https://dc.lft.to/lastmile_qr_scan", "ios": "https://dc.lft.to/lastmile_qr_scan"}, "type": "electric_bike", "lon": -76.9159615, "name": "5f20df6a77f851323125a2249acf7159", "bike_id": "5f20df6a77f851323125a2249acf7159", "fusion_lat": 0.0, "is_reserved": 0, "lat": 38.879849166666666, "fusion_lon": 0.0, "is_disabled": 0}, {"rental_uris": {"android": "https://dc.lft.to/lastmile_qr_scan", "ios": "https://dc.lft.to/lastmile_qr_scan"}, "type": "electric_scooter", "lon": -76.98700733333334, "name": "db5cf99a1287010de0ed9adce221634c", "bike_id": "db5cf99a1287010de0ed9adce221634c", "fusion_lat": 0.0, "is_reserved": 0, "lat": 38.86535033333333, "fusion_lon": 0.0, "is_disabled": 0}, {"rental_uris": {"android": "https://dc.lft.to/lastmile_qr_scan", "ios": "https://dc.lft.to/lastmile_qr_scan"}, "type": "electric_scooter", "lon": -76.947192, "name": "d97b161d1018d077fe8c2c09961638f1", "bike_id": "d97b161d1018d077fe8c2c09961638f1", "fusion_lat": 0.0, "is_reserved": 0, "lat": 38.896865, "fusion_lon": 0.0, "is_disabled": 0}, {"rental_uris": {"android": "https://dc.lft.to/lastmile_qr_scan", "ios": "https://dc.lft.to/lastmile_qr_scan"}, "type": "electric_scooter", "lon": -77.03268966666667, "name": "3b82f670d281dec9ddfa0e720ed9ec14", "bike_id": "3b82f670d281dec9ddfa0e720ed9ec14", "fusion_lat": 0.0, "is_reserved": 0, "lat": 38.92843366666666, "fusion_lon": 0.0, "is_disabled": 0}, {"rental_uris": {"android": "https://dc.lft.to/lastmile_qr_scan", "ios": "https://dc.lft.to/lastmile_qr_scan"}, "type": "electric_bike", "lon": -77.129862, "name": "dfb4f6e7c605fab5af8cc61ce7727ea2", "bike_id": "dfb4f6e7c605fab5af8cc61ce7727ea2", "fusion_lat": 0.0, "is_reserved": 0, "lat": 38.79986316666667, "fusion_lon": 0.0, "is_disabled": 0}, {"rental_uris": {"android": "https://dc.lft.to/lastmile_qr_scan", "ios": "https://dc.lft.to/lastmile_qr_scan"}, "type": "electric_bike", "lon": -77.12809333333334, "name": "f42e83804ee6bc5c965a8f264c2ce03d", "bike_id": "f42e83804ee6bc5c965a8f264c2ce03d", "fusion_lat": 0.0, "is_reserved": 0, "lat": 38.86532066666667, "fusion_lon": 0.0, "is_disabled": 0}, {"rental_uris": {"android": "https://dc.lft.to/lastmile_qr_scan", "ios": "https://dc.lft.to/lastmile_qr_scan"}, "type": "electric_scooter", "lon": -77.00863716666667, "name": "bf07911e8d9497731638c94e6ba79c9f", "bike_id": "bf07911e8d9497731638c94e6ba79c9f", "fusion_lat": 0.0, "is_reserved": 0, "lat": 38.90636083333333, "fusion_lon": 0.0, "is_disabled": 0}, {"rental_uris": {"android": "https://dc.lft.to/lastmile_qr_scan", "ios": "https://dc.lft.to/lastmile_qr_scan"}, "type": "electric_scooter", "lon": -77.021675, "name": "a45a69175902b69f14e98da6a9909131", "bike_id": "a45a69175902b69f14e98da6a9909131", "fusion_lat": 0.0, "is_reserved": 0, "lat": 38.887458, "fusion_lon": 0.0, "is_disabled": 0}, {"rental_uris": {"android": "https://dc.lft.to/lastmile_qr_scan", "ios": "https://dc.lft.to/lastmile_qr_scan"}, "type": "electric_scooter", "lon": -77.019558, "name": "6ae922ec4b26e7cd83769ecd7311bf75", "bike_id": "6ae922ec4b26e7cd83769ecd7311bf75", "fusion_lat": 0.0, "is_reserved": 0, "lat": 38.935818166666664, "fusion_lon": 0.0, "is_disabled": 0}, {"rental_uris": {"android": "https://dc.lft.to/lastmile_qr_scan", "ios": "https://dc.lft.to/lastmile_qr_scan"}, "type": "electric_scooter", "lon": -77.0448955, "name": "1f6923d66ac3d501f3071b71313fe587", "bike_id": "1f6923d66ac3d501f3071b71313fe587", "fusion_lat": 0.0, "is_reserved": 0, "lat": 38.896159833333336, "fusion_lon": 0.0, "is_disabled": 0}, {"rental_uris": {"android": "https://dc.lft.to/lastmile_qr_scan", "ios": "https://dc.lft.to/lastmile_qr_scan"}, "type": "electric_bike", "lon": -76.9733135, "name": "a53ac47a7c89bfb9c5c7708e25fa0f6c", "bike_id": "a53ac47a7c89bfb9c5c7708e25fa0f6c", "fusion_lat": 0.0, "is_reserved": 0, "lat": 38.850642, "fusion_lon": 0.0, "is_disabled": 0}, {"rental_uris": {"android": "https://dc.lft.to/lastmile_qr_scan", "ios": "https://dc.lft.to/lastmile_qr_scan"}, "type": "electric_scooter", "lon": -77.046507, "name": "6d6a2f1768a48c98bd9aa3c71dd780f0", "bike_id": "6d6a2f1768a48c98bd9aa3c71dd780f0", "fusion_lat": 0.0, "is_reserved": 0, "lat": 38.905063166666665, "fusion_lon": 0.0, "is_disabled": 0}, {"rental_uris": {"android": "https://dc.lft.to/lastmile_qr_scan", "ios": "https://dc.lft.to/lastmile_qr_scan"}, "type": "electric_scooter", "lon": -77.03265016666667, "name": "1a0be2f903807820cf3d99034ab70c55", "bike_id": "1a0be2f903807820cf3d99034ab70c55", "fusion_lat": 0.0, "is_reserved": 0, "lat": 38.932515333333335, "fusion_lon": 0.0, "is_disabled": 0}, {"rental_uris": {"android": "https://dc.lft.to/lastmile_qr_scan", "ios": "https://dc.lft.to/lastmile_qr_scan"}, "type": "electric_scooter", "lon": -77.0344025, "name": "9f3f285adf925eb6ca17432b22586710", "bike_id": "9f3f285adf925eb6ca17432b22586710", "fusion_lat": 0.0, "is_reserved": 0, "lat": 38.928703166666665, "fusion_lon": 0.0, "is_disabled": 0}, {"rental_uris": {"android": "https://dc.lft.to/lastmile_qr_scan", "ios": "https://dc.lft.to/lastmile_qr_scan"}, "type": "electric_scooter", "lon": -77.02529366666667, "name": "7e986dafa8edc3ff9f66d49775d69a84", "bike_id": "7e986dafa8edc3ff9f66d49775d69a84", "fusion_lat": 0.0, "is_reserved": 0, "lat": 38.919449166666666, "fusion_lon": 0.0, "is_disabled": 0}, {"rental_uris": {"android": "https://dc.lft.to/lastmile_qr_scan", "ios": "https://dc.lft.to/lastmile_qr_scan"}, "type": "electric_scooter", "lon": -77.0400275, "name": "e0fd2bf5450180a42fbc742a11b30244", "bike_id": "e0fd2bf5450180a42fbc742a11b30244", "fusion_lat": 0.0, "is_reserved": 0, "lat": 38.918112, "fusion_lon": 0.0, "is_disabled": 0}, {"rental_uris": {"android": "https://dc.lft.to/lastmile_qr_scan", "ios": "https://dc.lft.to/lastmile_qr_scan"}, "type": "electric_scooter", "lon": -76.97730066666666, "name": "052ebb4e8044f3069f2938e5345b6b88", "bike_id": "052ebb4e8044f3069f2938e5345b6b88", "fusion_lat": 0.0, "is_reserved": 0, "lat": 38.87246183333333, "fusion_lon": 0.0, "is_disabled": 0}, {"rental_uris": {"android": "https://dc.lft.to/lastmile_qr_scan", "ios": "https://dc.lft.to/lastmile_qr_scan"}, "type": "electric_scooter", "lon": -77.024983, "name": "76fd61091a4a2856760525683117ad7f", "bike_id": "76fd61091a4a2856760525683117ad7f", "fusion_lat": 0.0, "is_reserved": 0, "lat": 38.942045666666665, "fusion_lon": 0.0, "is_disabled": 0}, {"rental_uris": {"android": "https://dc.lft.to/lastmile_qr_scan", "ios": "https://dc.lft.to/lastmile_qr_scan"}, "type": "electric_scooter", "lon": -77.03327816666666, "name": "0ae363982508d27bf60932913ce550f4", "bike_id": "0ae363982508d27bf60932913ce550f4", "fusion_lat": 0.0, "is_reserved": 0, "lat": 38.90367216666667, "fusion_lon": 0.0, "is_disabled": 0}, {"rental_uris": {"android": "https://dc.lft.to/lastmile_qr_scan", "ios": "https://dc.lft.to/lastmile_qr_scan"}, "type": "electric_scooter", "lon": -77.07995233333334, "name": "23125856ac27cb693774efbcae66c99e", "bike_id": "23125856ac27cb693774efbcae66c99e", "fusion_lat": 0.0, "is_reserved": 0, "lat": 38.92369266666667, "fusion_lon": 0.0, "is_disabled": 0}, {"rental_uris": {"android": "https://dc.lft.to/lastmile_qr_scan", "ios": "https://dc.lft.to/lastmile_qr_scan"}, "type": "electric_scooter", "lon": -77.04034516666667, "name": "d012cc0fbb83419a4a1a72f544019f05", "bike_id": "d012cc0fbb83419a4a1a72f544019f05", "fusion_lat": 0.0, "is_reserved": 0, "lat": 38.924466333333335, "fusion_lon": 0.0, "is_disabled": 0}, {"rental_uris": {"android": "https://dc.lft.to/lastmile_qr_scan", "ios": "https://dc.lft.to/lastmile_qr_scan"}, "type": "electric_scooter", "lon": -77.03959783333333, "name": "b35dcdee586184f67df8007f3c709b85", "bike_id": "b35dcdee586184f67df8007f3c709b85", "fusion_lat": 0.0, "is_reserved": 0, "lat": 38.9061775, "fusion_lon": 0.0, "is_disabled": 0}, {"rental_uris": {"android": "https://dc.lft.to/lastmile_qr_scan", "ios": "https://dc.lft.to/lastmile_qr_scan"}, "type": "electric_scooter", "lon": -77.0242, "name": "d9dbb2f05d8aa29e431e9f3b53a748a1", "bike_id": "d9dbb2f05d8aa29e431e9f3b53a748a1", "fusion_lat": 0.0, "is_reserved": 0, "lat": 38.909633666666664, "fusion_lon": 0.0, "is_disabled": 0}, {"rental_uris": {"android": "https://dc.lft.to/lastmile_qr_scan", "ios": "https://dc.lft.to/lastmile_qr_scan"}, "type": "electric_scooter", "lon": -77.06761433333334, "name": "6e6485188240b07d76a0e86b84c51652", "bike_id": "6e6485188240b07d76a0e86b84c51652", "fusion_lat": 0.0, "is_reserved": 0, "lat": 38.9497355, "fusion_lon": 0.0, "is_disabled": 0}, {"rental_uris": {"android": "https://dc.lft.to/lastmile_qr_scan", "ios": "https://dc.lft.to/lastmile_qr_scan"}, "type": "electric_scooter", "lon": -77.04536833333333, "name": "f31483070b878c2a7c80ba071c659296", "bike_id": "f31483070b878c2a7c80ba071c659296", "fusion_lat": 0.0, "is_reserved": 0, "lat": 38.920502666666664, "fusion_lon": 0.0, "is_disabled": 0}, {"rental_uris": {"android": "https://dc.lft.to/lastmile_qr_scan", "ios": "https://dc.lft.to/lastmile_qr_scan"}, "type": "electric_scooter", "lon": -77.03504566666666, "name": "a0077b9b821c19f5cfb46bf905394539", "bike_id": "a0077b9b821c19f5cfb46bf905394539", "fusion_lat": 0.0, "is_reserved": 0, "lat": 38.921466833333334, "fusion_lon": 0.0, "is_disabled": 0}, {"rental_uris": {"android": "https://dc.lft.to/lastmile_qr_scan", "ios": "https://dc.lft.to/lastmile_qr_scan"}, "type": "electric_scooter", "lon": -77.03204766666667, "name": "d72bb04b64915e513e1da7e06c5d23f0", "bike_id": "d72bb04b64915e513e1da7e06c5d23f0", "fusion_lat": 0.0, "is_reserved": 0, "lat": 38.9396645, "fusion_lon": 0.0, "is_disabled": 0}, {"rental_uris": {"android": "https://dc.lft.to/lastmile_qr_scan", "ios": "https://dc.lft.to/lastmile_qr_scan"}, "type": "electric_scooter", "lon": -77.02153866666667, "name": "b6531477963597711010428a9e62f01d", "bike_id": "b6531477963597711010428a9e62f01d", "fusion_lat": 0.0, "is_reserved": 0, "lat": 38.92602183333333, "fusion_lon": 0.0, "is_disabled": 0}, {"rental_uris": {"android": "https://dc.lft.to/lastmile_qr_scan", "ios": "https://dc.lft.to/lastmile_qr_scan"}, "type": "electric_bike", "lon": -77.0277795, "name": "784d74cc99725be379f1ca15dd48402a", "bike_id": "784d74cc99725be379f1ca15dd48402a", "fusion_lat": 0.0, "is_reserved": 0, "lat": 38.96524483333334, "fusion_lon": 0.0, "is_disabled": 0}, {"rental_uris": {"android": "https://dc.lft.to/lastmile_qr_scan", "ios": "https://dc.lft.to/lastmile_qr_scan"}, "type": "electric_scooter", "lon": -77.0303605, "name": "19b87699d7aa3605be73ad2fa88dde51", "bike_id": "19b87699d7aa3605be73ad2fa88dde51", "fusion_lat": 0.0, "is_reserved": 0, "lat": 38.939787, "fusion_lon": 0.0, "is_disabled": 0}, {"rental_uris": {"android": "https://dc.lft.to/lastmile_qr_scan", "ios": "https://dc.lft.to/lastmile_qr_scan"}, "type": "electric_bike", "lon": -76.97214666666666, "name": "de0ffcd618b1d10c5089d46763146ebc", "bike_id": "de0ffcd618b1d10c5089d46763146ebc", "fusion_lat": 0.0, "is_reserved": 0, "lat": 38.84479616666667, "fusion_lon": 0.0, "is_disabled": 0}, {"rental_uris": {"android": "https://dc.lft.to/lastmile_qr_scan", "ios": "https://dc.lft.to/lastmile_qr_scan"}, "type": "electric_scooter", "lon": -77.02591233333334, "name": "5b4063df0b1ee4ce17888b96e9df2ab0", "bike_id": "5b4063df0b1ee4ce17888b96e9df2ab0", "fusion_lat": 0.0, "is_reserved": 0, "lat": 38.908432, "fusion_lon": 0.0, "is_disabled": 0}, {"rental_uris": {"android": "https://dc.lft.to/lastmile_qr_scan", "ios": "https://dc.lft.to/lastmile_qr_scan"}, "type": "electric_scooter", "lon": -77.020497, "name": "9529e60025ba7cd10f50069fb8e50af6", "bike_id": "9529e60025ba7cd10f50069fb8e50af6", "fusion_lat": 0.0, "is_reserved": 0, "lat": 38.9587245, "fusion_lon": 0.0, "is_disabled": 0}, {"rental_uris": {"android": "https://dc.lft.to/lastmile_qr_scan", "ios": "https://dc.lft.to/lastmile_qr_scan"}, "type": "electric_scooter", "lon": -77.01836816666666, "name": "9e108be817f0f735661cc1932ed4af7c", "bike_id": "9e108be817f0f735661cc1932ed4af7c", "fusion_lat": 0.0, "is_reserved": 0, "lat": 38.9197055, "fusion_lon": 0.0, "is_disabled": 0}, {"rental_uris": {"android": "https://dc.lft.to/lastmile_qr_scan", "ios": "https://dc.lft.to/lastmile_qr_scan"}, "type": "electric_scooter", "lon": -77.02154366666667, "name": "c8485e52f3a62ebbb76a5427048fe080", "bike_id": "c8485e52f3a62ebbb76a5427048fe080", "fusion_lat": 0.0, "is_reserved": 0, "lat": 38.92602816666667, "fusion_lon": 0.0, "is_disabled": 0}, {"rental_uris": {"android": "https://dc.lft.to/lastmile_qr_scan", "ios": "https://dc.lft.to/lastmile_qr_scan"}, "type": "electric_bike", "lon": -76.98328516666666, "name": "8e4646c1929cc85f1fb60e21ab047b3e", "bike_id": "8e4646c1929cc85f1fb60e21ab047b3e", "fusion_lat": 0.0, "is_reserved": 0, "lat": 38.966072, "fusion_lon": 0.0, "is_disabled": 0}, {"rental_uris": {"android": "https://dc.lft.to/lastmile_qr_scan", "ios": "https://dc.lft.to/lastmile_qr_scan"}, "type": "electric_scooter", "lon": -77.04555433333333, "name": "8cbb593227d5cf46ef26721307b846ed", "bike_id": "8cbb593227d5cf46ef26721307b846ed", "fusion_lat": 0.0, "is_reserved": 0, "lat": 38.91944483333333, "fusion_lon": 0.0, "is_disabled": 0}, {"rental_uris": {"android": "https://dc.lft.to/lastmile_qr_scan", "ios": "https://dc.lft.to/lastmile_qr_scan"}, "type": "electric_scooter", "lon": -77.02158033333333, "name": "84cdab7a7c346a7a3b593b90894abe77", "bike_id": "84cdab7a7c346a7a3b593b90894abe77", "fusion_lat": 0.0, "is_reserved": 0, "lat": 38.912411, "fusion_lon": 0.0, "is_disabled": 0}, {"rental_uris": {"android": "https://dc.lft.to/lastmile_qr_scan", "ios": "https://dc.lft.to/lastmile_qr_scan"}, "type": "electric_scooter", "lon": -77.04119983333334, "name": "59cdaa59ffd74c649159bb8de736faa0", "bike_id": "59cdaa59ffd74c649159bb8de736faa0", "fusion_lat": 0.0, "is_reserved": 0, "lat": 38.91694966666667, "fusion_lon": 0.0, "is_disabled": 0}, {"rental_uris": {"android": "https://dc.lft.to/lastmile_qr_scan", "ios": "https://dc.lft.to/lastmile_qr_scan"}, "type": "electric_scooter", "lon": -77.0061185, "name": "a3131291867c2f07522ee1ae4af0914d", "bike_id": "a3131291867c2f07522ee1ae4af0914d", "fusion_lat": 0.0, "is_reserved": 0, "lat": 38.885029, "fusion_lon": 0.0, "is_disabled": 0}, {"rental_uris": {"android": "https://dc.lft.to/lastmile_qr_scan", "ios": "https://dc.lft.to/lastmile_qr_scan"}, "type": "electric_scooter", "lon": -77.0307655, "name": "b6a0364d1d5396105226ae184c767aa5", "bike_id": "b6a0364d1d5396105226ae184c767aa5", "fusion_lat": 0.0, "is_reserved": 0, "lat": 38.9238285, "fusion_lon": 0.0, "is_disabled": 0}, {"rental_uris": {"android": "https://dc.lft.to/lastmile_qr_scan", "ios": "https://dc.lft.to/lastmile_qr_scan"}, "type": "electric_scooter", "lon": -77.02790566666667, "name": "8f9b7842492ff72f2bdd5616412b1c9d", "bike_id": "8f9b7842492ff72f2bdd5616412b1c9d", "fusion_lat": 0.0, "is_reserved": 0, "lat": 38.930836, "fusion_lon": 0.0, "is_disabled": 0}, {"rental_uris": {"android": "https://dc.lft.to/lastmile_qr_scan", "ios": "https://dc.lft.to/lastmile_qr_scan"}, "type": "electric_bike", "lon": -77.11233083333333, "name": "26d5ad25c20810b0cfbd7be0b9ae0640", "bike_id": "26d5ad25c20810b0cfbd7be0b9ae0640", "fusion_lat": 0.0, "is_reserved": 0, "lat": 38.81221433333333, "fusion_lon": 0.0, "is_disabled": 0}, {"rental_uris": {"android": "https://dc.lft.to/lastmile_qr_scan", "ios": "https://dc.lft.to/lastmile_qr_scan"}, "type": "electric_scooter", "lon": -77.02202483333333, "name": "3b07b05ff30ab49e26161cda58b7c5d5", "bike_id": "3b07b05ff30ab49e26161cda58b7c5d5", "fusion_lat": 0.0, "is_reserved": 0, "lat": 38.887168333333335, "fusion_lon": 0.0, "is_disabled": 0}, {"rental_uris": {"android": "https://dc.lft.to/lastmile_qr_scan", "ios": "https://dc.lft.to/lastmile_qr_scan"}, "type": "electric_scooter", "lon": -77.04168583333333, "name": "213825de5a0094b2dde02bc96044c4b4", "bike_id": "213825de5a0094b2dde02bc96044c4b4", "fusion_lat": 0.0, "is_reserved": 0, "lat": 38.910847833333335, "fusion_lon": 0.0, "is_disabled": 0}, {"rental_uris": {"android": "https://dc.lft.to/lastmile_qr_scan", "ios": "https://dc.lft.to/lastmile_qr_scan"}, "type": "electric_bike", "lon": -76.981202, "name": "2b2d80f5e356efd4e7f540bd3ae9c98a", "bike_id": "2b2d80f5e356efd4e7f540bd3ae9c98a", "fusion_lat": 0.0, "is_reserved": 0, "lat": 38.89669583333333, "fusion_lon": 0.0, "is_disabled": 0}, {"rental_uris": {"android": "https://dc.lft.to/lastmile_qr_scan", "ios": "https://dc.lft.to/lastmile_qr_scan"}, "type": "electric_bike", "lon": -77.10180683333333, "name": "ceab73ceec1590c12c1dbf1f493e7b3f", "bike_id": "ceab73ceec1590c12c1dbf1f493e7b3f", "fusion_lat": 0.0, "is_reserved": 0, "lat": 38.918069, "fusion_lon": 0.0, "is_disabled": 0}, {"rental_uris": {"android": "https://dc.lft.to/lastmile_qr_scan", "ios": "https://dc.lft.to/lastmile_qr_scan"}, "type": "electric_scooter", "lon": -77.07864966666666, "name": "7672bc0a63fddba9c7ab523e8fd3097f", "bike_id": "7672bc0a63fddba9c7ab523e8fd3097f", "fusion_lat": 0.0, "is_reserved": 0, "lat": 38.919115833333336, "fusion_lon": 0.0, "is_disabled": 0}, {"rental_uris": {"android": "https://dc.lft.to/lastmile_qr_scan", "ios": "https://dc.lft.to/lastmile_qr_scan"}, "type": "electric_bike", "lon": -77.0066625, "name": "36209e3b5784a2cb5d21f5c02bbd7492", "bike_id": "36209e3b5784a2cb5d21f5c02bbd7492", "fusion_lat": 0.0, "is_reserved": 0, "lat": 38.945102166666665, "fusion_lon": 0.0, "is_disabled": 0}, {"rental_uris": {"android": "https://dc.lft.to/lastmile_qr_scan", "ios": "https://dc.lft.to/lastmile_qr_scan"}, "type": "electric_scooter", "lon": -76.98330683333333, "name": "c52efd89da71a2028432af7b9c654d32", "bike_id": "c52efd89da71a2028432af7b9c654d32", "fusion_lat": 0.0, "is_reserved": 0, "lat": 38.864702333333334, "fusion_lon": 0.0, "is_disabled": 0}, {"rental_uris": {"android": "https://dc.lft.to/lastmile_qr_scan", "ios": "https://dc.lft.to/lastmile_qr_scan"}, "type": "electric_scooter", "lon": -77.04294566666667, "name": "a60206a8134b0900237bb0a17a7d1bc9", "bike_id": "a60206a8134b0900237bb0a17a7d1bc9", "fusion_lat": 0.0, "is_reserved": 0, "lat": 38.92668716666667, "fusion_lon": 0.0, "is_disabled": 0}, {"rental_uris": {"android": "https://dc.lft.to/lastmile_qr_scan", "ios": "https://dc.lft.to/lastmile_qr_scan"}, "type": "electric_scooter", "lon": -77.00251416666667, "name": "8e999fbf40c1b4e4bfa99ca410b07832", "bike_id": "8e999fbf40c1b4e4bfa99ca410b07832", "fusion_lat": 0.0, "is_reserved": 0, "lat": 38.90878033333333, "fusion_lon": 0.0, "is_disabled": 0}, {"rental_uris": {"android": "https://dc.lft.to/lastmile_qr_scan", "ios": "https://dc.lft.to/lastmile_qr_scan"}, "type": "electric_scooter", "lon": -77.04359416666667, "name": "8112031b17cbcc71732d3d6c9103d448", "bike_id": "8112031b17cbcc71732d3d6c9103d448", "fusion_lat": 0.0, "is_reserved": 0, "lat": 38.921234, "fusion_lon": 0.0, "is_disabled": 0}, {"rental_uris": {"android": "https://dc.lft.to/lastmile_qr_scan", "ios": "https://dc.lft.to/lastmile_qr_scan"}, "type": "electric_scooter", "lon": -77.02338416666667, "name": "229327d36c7d5d4ca61462c3ea230baa", "bike_id": "229327d36c7d5d4ca61462c3ea230baa", "fusion_lat": 0.0, "is_reserved": 0, "lat": 38.9620765, "fusion_lon": 0.0, "is_disabled": 0}, {"rental_uris": {"android": "https://dc.lft.to/lastmile_qr_scan", "ios": "https://dc.lft.to/lastmile_qr_scan"}, "type": "electric_scooter", "lon": -77.07135, "name": "77890e45ef64acf3074e64500460e919", "bike_id": "77890e45ef64acf3074e64500460e919", "fusion_lat": 0.0, "is_reserved": 0, "lat": 38.93820916666667, "fusion_lon": 0.0, "is_disabled": 0}, {"rental_uris": {"android": "https://dc.lft.to/lastmile_qr_scan", "ios": "https://dc.lft.to/lastmile_qr_scan"}, "type": "electric_scooter", "lon": -77.02956216666666, "name": "a20357ee9d351280e9814a1d7c1f8450", "bike_id": "a20357ee9d351280e9814a1d7c1f8450", "fusion_lat": 0.0, "is_reserved": 0, "lat": 38.923141333333334, "fusion_lon": 0.0, "is_disabled": 0}, {"rental_uris": {"android": "https://dc.lft.to/lastmile_qr_scan", "ios": "https://dc.lft.to/lastmile_qr_scan"}, "type": "electric_scooter", "lon": -77.04825, "name": "a926111f2ed0b67c638bbff54bc773e0", "bike_id": "a926111f2ed0b67c638bbff54bc773e0", "fusion_lat": 0.0, "is_reserved": 0, "lat": 38.904762833333336, "fusion_lon": 0.0, "is_disabled": 0}, {"rental_uris": {"android": "https://dc.lft.to/lastmile_qr_scan", "ios": "https://dc.lft.to/lastmile_qr_scan"}, "type": "electric_bike", "lon": -77.12501433333334, "name": "0a7d9144c68baf10ac747ca33cbb0a47", "bike_id": "0a7d9144c68baf10ac747ca33cbb0a47", "fusion_lat": 0.0, "is_reserved": 0, "lat": 39.024188333333335, "fusion_lon": 0.0, "is_disabled": 0}, {"rental_uris": {"android": "https://dc.lft.to/lastmile_qr_scan", "ios": "https://dc.lft.to/lastmile_qr_scan"}, "type": "electric_scooter", "lon": -77.03542, "name": "177c19a1c5112e1b13e51a6315ef40c4", "bike_id": "177c19a1c5112e1b13e51a6315ef40c4", "fusion_lat": 0.0, "is_reserved": 0, "lat": 38.90369833333333, "fusion_lon": 0.0, "is_disabled": 0}, {"rental_uris": {"android": "https://dc.lft.to/lastmile_qr_scan", "ios": "https://dc.lft.to/lastmile_qr_scan"}, "type": "electric_scooter", "lon": -76.9383375, "name": "f2afa761a6b824050ff542f4238d7df5", "bike_id": "f2afa761a6b824050ff542f4238d7df5", "fusion_lat": 0.0, "is_reserved": 0, "lat": 38.89008583333333, "fusion_lon": 0.0, "is_disabled": 0}, {"rental_uris": {"android": "https://dc.lft.to/lastmile_qr_scan", "ios": "https://dc.lft.to/lastmile_qr_scan"}, "type": "electric_scooter", "lon": -77.02690833333334, "name": "e0f393ee1f042da9517e5fd909ff0f84", "bike_id": "e0f393ee1f042da9517e5fd909ff0f84", "fusion_lat": 0.0, "is_reserved": 0, "lat": 38.9068735, "fusion_lon": 0.0, "is_disabled": 0}, {"rental_uris": {"android": "https://dc.lft.to/lastmile_qr_scan", "ios": "https://dc.lft.to/lastmile_qr_scan"}, "type": "electric_scooter", "lon": -77.02344633333334, "name": "12946a14de6556730d068bde2276c099", "bike_id": "12946a14de6556730d068bde2276c099", "fusion_lat": 0.0, "is_reserved": 0, "lat": 38.929893666666665, "fusion_lon": 0.0, "is_disabled": 0}, {"rental_uris": {"android": "https://dc.lft.to/lastmile_qr_scan", "ios": "https://dc.lft.to/lastmile_qr_scan"}, "type": "electric_scooter", "lon": -77.07444133333334, "name": "a1d1adffef950339239580cbb55f564a", "bike_id": "a1d1adffef950339239580cbb55f564a", "fusion_lat": 0.0, "is_reserved": 0, "lat": 38.91088583333333, "fusion_lon": 0.0, "is_disabled": 0}, {"rental_uris": {"android": "https://dc.lft.to/lastmile_qr_scan", "ios": "https://dc.lft.to/lastmile_qr_scan"}, "type": "electric_bike", "lon": -77.12900133333333, "name": "ea7b4410e806aa4762c91e5c906d85f0", "bike_id": "ea7b4410e806aa4762c91e5c906d85f0", "fusion_lat": 0.0, "is_reserved": 0, "lat": 38.86374133333333, "fusion_lon": 0.0, "is_disabled": 0}, {"rental_uris": {"android": "https://dc.lft.to/lastmile_qr_scan", "ios": "https://dc.lft.to/lastmile_qr_scan"}, "type": "electric_scooter", "lon": -77.05108816666667, "name": "aaf6b07efadc9ce63b170829ed01c13e", "bike_id": "aaf6b07efadc9ce63b170829ed01c13e", "fusion_lat": 0.0, "is_reserved": 0, "lat": 38.905236, "fusion_lon": 0.0, "is_disabled": 0}, {"rental_uris": {"android": "https://dc.lft.to/lastmile_qr_scan", "ios": "https://dc.lft.to/lastmile_qr_scan"}, "type": "electric_scooter", "lon": -77.03251733333333, "name": "6745ad0aa00a59e466a8858d7f2e8c74", "bike_id": "6745ad0aa00a59e466a8858d7f2e8c74", "fusion_lat": 0.0, "is_reserved": 0, "lat": 38.9338145, "fusion_lon": 0.0, "is_disabled": 0}, {"rental_uris": {"android": "https://dc.lft.to/lastmile_qr_scan", "ios": "https://dc.lft.to/lastmile_qr_scan"}, "type": "electric_scooter", "lon": -77.00574633333333, "name": "56f90a2a05fffe77b9c110625d8a8370", "bike_id": "56f90a2a05fffe77b9c110625d8a8370", "fusion_lat": 0.0, "is_reserved": 0, "lat": 38.885332166666664, "fusion_lon": 0.0, "is_disabled": 0}, {"rental_uris": {"android": "https://dc.lft.to/lastmile_qr_scan", "ios": "https://dc.lft.to/lastmile_qr_scan"}, "type": "electric_scooter", "lon": -77.0396575, "name": "77e64cb5a8bb5aef6be0bd3ac19fa71b", "bike_id": "77e64cb5a8bb5aef6be0bd3ac19fa71b", "fusion_lat": 0.0, "is_reserved": 0, "lat": 38.90912683333333, "fusion_lon": 0.0, "is_disabled": 0}, {"rental_uris": {"android": "https://dc.lft.to/lastmile_qr_scan", "ios": "https://dc.lft.to/lastmile_qr_scan"}, "type": "electric_scooter", "lon": -77.04673133333333, "name": "f2359cb40235aa37b0f2fbd450eb5ed9", "bike_id": "f2359cb40235aa37b0f2fbd450eb5ed9", "fusion_lat": 0.0, "is_reserved": 0, "lat": 38.89556266666666, "fusion_lon": 0.0, "is_disabled": 0}, {"rental_uris": {"android": "https://dc.lft.to/lastmile_qr_scan", "ios": "https://dc.lft.to/lastmile_qr_scan"}, "type": "electric_scooter", "lon": -76.993878, "name": "631387a06ca8f9fab7d53b13f8f4c3f4", "bike_id": "631387a06ca8f9fab7d53b13f8f4c3f4", "fusion_lat": 0.0, "is_reserved": 0, "lat": 38.8845295, "fusion_lon": 0.0, "is_disabled": 0}, {"rental_uris": {"android": "https://dc.lft.to/lastmile_qr_scan", "ios": "https://dc.lft.to/lastmile_qr_scan"}, "type": "electric_scooter", "lon": -77.04816516666666, "name": "5a279a1c9726ff05c6298645074c51c7", "bike_id": "5a279a1c9726ff05c6298645074c51c7", "fusion_lat": 0.0, "is_reserved": 0, "lat": 38.920397, "fusion_lon": 0.0, "is_disabled": 0}, {"rental_uris": {"android": "https://dc.lft.to/lastmile_qr_scan", "ios": "https://dc.lft.to/lastmile_qr_scan"}, "type": "electric_scooter", "lon": -77.00582583333333, "name": "ddda0f7cf772e8791092be2c6dfe319d", "bike_id": "ddda0f7cf772e8791092be2c6dfe319d", "fusion_lat": 0.0, "is_reserved": 0, "lat": 38.90558383333333, "fusion_lon": 0.0, "is_disabled": 0}, {"rental_uris": {"android": "https://dc.lft.to/lastmile_qr_scan", "ios": "https://dc.lft.to/lastmile_qr_scan"}, "type": "electric_scooter", "lon": -77.0605335, "name": "5c0429227a67255fbd5b0c6087f31d56", "bike_id": "5c0429227a67255fbd5b0c6087f31d56", "fusion_lat": 0.0, "is_reserved": 0, "lat": 38.9390205, "fusion_lon": 0.0, "is_disabled": 0}, {"rental_uris": {"android": "https://dc.lft.to/lastmile_qr_scan", "ios": "https://dc.lft.to/lastmile_qr_scan"}, "type": "electric_bike", "lon": -77.02107583333333, "name": "a190658202cac84d6b66a90472bb740d", "bike_id": "a190658202cac84d6b66a90472bb740d", "fusion_lat": 0.0, "is_reserved": 0, "lat": 39.0229835, "fusion_lon": 0.0, "is_disabled": 0}, {"rental_uris": {"android": "https://dc.lft.to/lastmile_qr_scan", "ios": "https://dc.lft.to/lastmile_qr_scan"}, "type": "electric_scooter", "lon": -77.03893983333333, "name": "ed78e14446c65a5b63c95297b04e9b06", "bike_id": "ed78e14446c65a5b63c95297b04e9b06", "fusion_lat": 0.0, "is_reserved": 0, "lat": 38.922160833333336, "fusion_lon": 0.0, "is_disabled": 0}, {"rental_uris": {"android": "https://dc.lft.to/lastmile_qr_scan", "ios": "https://dc.lft.to/lastmile_qr_scan"}, "type": "electric_scooter", "lon": -77.00588766666667, "name": "f9d1dc851a4bb1d9ec3692434110c623", "bike_id": "f9d1dc851a4bb1d9ec3692434110c623", "fusion_lat": 0.0, "is_reserved": 0, "lat": 38.88374966666667, "fusion_lon": 0.0, "is_disabled": 0}, {"rental_uris": {"android": "https://dc.lft.to/lastmile_qr_scan", "ios": "https://dc.lft.to/lastmile_qr_scan"}, "type": "electric_scooter", "lon": -76.9493995, "name": "1bf1a8fcef2fbfb25b71dda7c335a990", "bike_id": "1bf1a8fcef2fbfb25b71dda7c335a990", "fusion_lat": 0.0, "is_reserved": 0, "lat": 38.883221666666664, "fusion_lon": 0.0, "is_disabled": 0}, {"rental_uris": {"android": "https://dc.lft.to/lastmile_qr_scan", "ios": "https://dc.lft.to/lastmile_qr_scan"}, "type": "electric_scooter", "lon": -77.02186533333334, "name": "ff115e524c254c66ecb238b954d4c18e", "bike_id": "ff115e524c254c66ecb238b954d4c18e", "fusion_lat": 0.0, "is_reserved": 0, "lat": 38.91012666666666, "fusion_lon": 0.0, "is_disabled": 0}, {"rental_uris": {"android": "https://dc.lft.to/lastmile_qr_scan", "ios": "https://dc.lft.to/lastmile_qr_scan"}, "type": "electric_bike", "lon": -77.08927833333334, "name": "434b9991471d0e730e9f08258a906a65", "bike_id": "434b9991471d0e730e9f08258a906a65", "fusion_lat": 0.0, "is_reserved": 0, "lat": 38.841019, "fusion_lon": 0.0, "is_disabled": 0}, {"rental_uris": {"android": "https://dc.lft.to/lastmile_qr_scan", "ios": "https://dc.lft.to/lastmile_qr_scan"}, "type": "electric_scooter", "lon": -77.03277983333334, "name": "e77afa1b60314f0b2d8d28eafe1b3328", "bike_id": "e77afa1b60314f0b2d8d28eafe1b3328", "fusion_lat": 0.0, "is_reserved": 0, "lat": 38.95650216666667, "fusion_lon": 0.0, "is_disabled": 0}, {"rental_uris": {"android": "https://dc.lft.to/lastmile_qr_scan", "ios": "https://dc.lft.to/lastmile_qr_scan"}, "type": "electric_scooter", "lon": -77.03227283333334, "name": "a6942e13dd967f29a3949835dd13328b", "bike_id": "a6942e13dd967f29a3949835dd13328b", "fusion_lat": 0.0, "is_reserved": 0, "lat": 38.918853166666665, "fusion_lon": 0.0, "is_disabled": 0}, {"rental_uris": {"android": "https://dc.lft.to/lastmile_qr_scan", "ios": "https://dc.lft.to/lastmile_qr_scan"}, "type": "electric_scooter", "lon": -76.94794816666666, "name": "6a836337391b3bbb42e9a210b6a6c885", "bike_id": "6a836337391b3bbb42e9a210b6a6c885", "fusion_lat": 0.0, "is_reserved": 0, "lat": 38.896357333333334, "fusion_lon": 0.0, "is_disabled": 0}, {"rental_uris": {"android": "https://dc.lft.to/lastmile_qr_scan", "ios": "https://dc.lft.to/lastmile_qr_scan"}, "type": "electric_scooter", "lon": -76.99776666666666, "name": "4ceff34c6eb94635ae8edc88e2067011", "bike_id": "4ceff34c6eb94635ae8edc88e2067011", "fusion_lat": 0.0, "is_reserved": 0, "lat": 38.844257, "fusion_lon": 0.0, "is_disabled": 0}, {"rental_uris": {"android": "https://dc.lft.to/lastmile_qr_scan", "ios": "https://dc.lft.to/lastmile_qr_scan"}, "type": "electric_scooter", "lon": -77.01140633333333, "name": "370abbbafed3d255f8b760408bf2ab88", "bike_id": "370abbbafed3d255f8b760408bf2ab88", "fusion_lat": 0.0, "is_reserved": 0, "lat": 38.91807433333334, "fusion_lon": 0.0, "is_disabled": 0}, {"rental_uris": {"android": "https://dc.lft.to/lastmile_qr_scan", "ios": "https://dc.lft.to/lastmile_qr_scan"}, "type": "electric_bike", "lon": -77.0268965, "name": "f3c4deab78334d6fdc21354e29d6bc30", "bike_id": "f3c4deab78334d6fdc21354e29d6bc30", "fusion_lat": 0.0, "is_reserved": 0, "lat": 38.97382833333333, "fusion_lon": 0.0, "is_disabled": 0}, {"rental_uris": {"android": "https://dc.lft.to/lastmile_qr_scan", "ios": "https://dc.lft.to/lastmile_qr_scan"}, "type": "electric_scooter", "lon": -77.00164716666667, "name": "4c300740ef3383b2184ab9895c07d676", "bike_id": "4c300740ef3383b2184ab9895c07d676", "fusion_lat": 0.0, "is_reserved": 0, "lat": 38.90514066666667, "fusion_lon": 0.0, "is_disabled": 0}, {"rental_uris": {"android": "https://dc.lft.to/lastmile_qr_scan", "ios": "https://dc.lft.to/lastmile_qr_scan"}, "type": "electric_scooter", "lon": -77.04325883333334, "name": "59fe32e138446cd33792a1e387184ffe", "bike_id": "59fe32e138446cd33792a1e387184ffe", "fusion_lat": 0.0, "is_reserved": 0, "lat": 38.90845, "fusion_lon": 0.0, "is_disabled": 0}, {"rental_uris": {"android": "https://dc.lft.to/lastmile_qr_scan", "ios": "https://dc.lft.to/lastmile_qr_scan"}, "type": "electric_scooter", "lon": -76.987039, "name": "8d9678dab2da4bdc9ec0de47e69258ba", "bike_id": "8d9678dab2da4bdc9ec0de47e69258ba", "fusion_lat": 0.0, "is_reserved": 0, "lat": 38.866994166666665, "fusion_lon": 0.0, "is_disabled": 0}, {"rental_uris": {"android": "https://dc.lft.to/lastmile_qr_scan", "ios": "https://dc.lft.to/lastmile_qr_scan"}, "type": "electric_scooter", "lon": -77.023923, "name": "1385c90d8c5616f32ff9d58ea1827d6f", "bike_id": "1385c90d8c5616f32ff9d58ea1827d6f", "fusion_lat": 0.0, "is_reserved": 0, "lat": 38.90712116666667, "fusion_lon": 0.0, "is_disabled": 0}, {"rental_uris": {"android": "https://dc.lft.to/lastmile_qr_scan", "ios": "https://dc.lft.to/lastmile_qr_scan"}, "type": "electric_scooter", "lon": -77.01816566666666, "name": "7e7f246f95123bf453076c938a93c4e5", "bike_id": "7e7f246f95123bf453076c938a93c4e5", "fusion_lat": 0.0, "is_reserved": 0, "lat": 38.92166783333333, "fusion_lon": 0.0, "is_disabled": 0}, {"rental_uris": {"android": "https://dc.lft.to/lastmile_qr_scan", "ios": "https://dc.lft.to/lastmile_qr_scan"}, "type": "electric_bike", "lon": -77.12498533333333, "name": "59e9b33321a710fac9f7ee4e5759aebd", "bike_id": "59e9b33321a710fac9f7ee4e5759aebd", "fusion_lat": 0.0, "is_reserved": 0, "lat": 39.024205, "fusion_lon": 0.0, "is_disabled": 0}, {"rental_uris": {"android": "https://dc.lft.to/lastmile_qr_scan", "ios": "https://dc.lft.to/lastmile_qr_scan"}, "type": "electric_scooter", "lon": -77.043472, "name": "8e0982010d8e60b953f943ba83b366b6", "bike_id": "8e0982010d8e60b953f943ba83b366b6", "fusion_lat": 0.0, "is_reserved": 0, "lat": 38.905157333333335, "fusion_lon": 0.0, "is_disabled": 0}, {"rental_uris": {"android": "https://dc.lft.to/lastmile_qr_scan", "ios": "https://dc.lft.to/lastmile_qr_scan"}, "type": "electric_scooter", "lon": -77.0089835, "name": "5b566aa7817b603ac7a553acdf3f2ab5", "bike_id": "5b566aa7817b603ac7a553acdf3f2ab5", "fusion_lat": 0.0, "is_reserved": 0, "lat": 38.8731855, "fusion_lon": 0.0, "is_disabled": 0}, {"rental_uris": {"android": "https://dc.lft.to/lastmile_qr_scan", "ios": "https://dc.lft.to/lastmile_qr_scan"}, "type": "electric_scooter", "lon": -76.99262566666667, "name": "a4178a1f2c47117349955a4700e6e7dc", "bike_id": "a4178a1f2c47117349955a4700e6e7dc", "fusion_lat": 0.0, "is_reserved": 0, "lat": 38.8929045, "fusion_lon": 0.0, "is_disabled": 0}, {"rental_uris": {"android": "https://dc.lft.to/lastmile_qr_scan", "ios": "https://dc.lft.to/lastmile_qr_scan"}, "type": "electric_bike", "lon": -76.99567766666667, "name": "b2866585afd1cd5619eba42e4cd32622", "bike_id": "b2866585afd1cd5619eba42e4cd32622", "fusion_lat": 0.0, "is_reserved": 0, "lat": 39.0078805, "fusion_lon": 0.0, "is_disabled": 0}, {"rental_uris": {"android": "https://dc.lft.to/lastmile_qr_scan", "ios": "https://dc.lft.to/lastmile_qr_scan"}, "type": "electric_scooter", "lon": -77.04505733333333, "name": "4886cad38fa7ec2d22e892461cd88534", "bike_id": "4886cad38fa7ec2d22e892461cd88534", "fusion_lat": 0.0, "is_reserved": 0, "lat": 38.892260666666665, "fusion_lon": 0.0, "is_disabled": 0}, {"rental_uris": {"android": "https://dc.lft.to/lastmile_qr_scan", "ios": "https://dc.lft.to/lastmile_qr_scan"}, "type": "electric_bike", "lon": -77.09560933333333, "name": "e9c2df025d6dadae99a88f156a55e34d", "bike_id": "e9c2df025d6dadae99a88f156a55e34d", "fusion_lat": 0.0, "is_reserved": 0, "lat": 38.91704766666667, "fusion_lon": 0.0, "is_disabled": 0}, {"rental_uris": {"android": "https://dc.lft.to/lastmile_qr_scan", "ios": "https://dc.lft.to/lastmile_qr_scan"}, "type": "electric_scooter", "lon": -77.07156366666666, "name": "8f146ef1d84b96ba82b388958ac2015f", "bike_id": "8f146ef1d84b96ba82b388958ac2015f", "fusion_lat": 0.0, "is_reserved": 0, "lat": 38.958306, "fusion_lon": 0.0, "is_disabled": 0}, {"rental_uris": {"android": "https://dc.lft.to/lastmile_qr_scan", "ios": "https://dc.lft.to/lastmile_qr_scan"}, "type": "electric_scooter", "lon": -77.0326455, "name": "b65e4ca3eafd15a2250b5296f57c8f9f", "bike_id": "b65e4ca3eafd15a2250b5296f57c8f9f", "fusion_lat": 0.0, "is_reserved": 0, "lat": 38.9325665, "fusion_lon": 0.0, "is_disabled": 0}, {"rental_uris": {"android": "https://dc.lft.to/lastmile_qr_scan", "ios": "https://dc.lft.to/lastmile_qr_scan"}, "type": "electric_scooter", "lon": -77.02254116666667, "name": "8cb03442bb19a718daf4265a2515fd91", "bike_id": "8cb03442bb19a718daf4265a2515fd91", "fusion_lat": 0.0, "is_reserved": 0, "lat": 38.928248833333335, "fusion_lon": 0.0, "is_disabled": 0}, {"rental_uris": {"android": "https://dc.lft.to/lastmile_qr_scan", "ios": "https://dc.lft.to/lastmile_qr_scan"}, "type": "electric_bike", "lon": -77.072473, "name": "7411bfe7fbc2f969830753fc3c55852b", "bike_id": "7411bfe7fbc2f969830753fc3c55852b", "fusion_lat": 0.0, "is_reserved": 0, "lat": 38.9591195, "fusion_lon": 0.0, "is_disabled": 0}, {"rental_uris": {"android": "https://dc.lft.to/lastmile_qr_scan", "ios": "https://dc.lft.to/lastmile_qr_scan"}, "type": "electric_scooter", "lon": -77.03657816666667, "name": "195db49e6b76613af610b7b4ccdf4cf8", "bike_id": "195db49e6b76613af610b7b4ccdf4cf8", "fusion_lat": 0.0, "is_reserved": 0, "lat": 38.936422, "fusion_lon": 0.0, "is_disabled": 0}, {"rental_uris": {"android": "https://dc.lft.to/lastmile_qr_scan", "ios": "https://dc.lft.to/lastmile_qr_scan"}, "type": "electric_bike", "lon": -77.0954765, "name": "74c775baa02090c608d02584d8307c72", "bike_id": "74c775baa02090c608d02584d8307c72", "fusion_lat": 0.0, "is_reserved": 0, "lat": 38.8380705, "fusion_lon": 0.0, "is_disabled": 0}, {"rental_uris": {"android": "https://dc.lft.to/lastmile_qr_scan", "ios": "https://dc.lft.to/lastmile_qr_scan"}, "type": "electric_scooter", "lon": -76.98410583333333, "name": "82bafcc7ddc444e3568fddb11ad9ff8a", "bike_id": "82bafcc7ddc444e3568fddb11ad9ff8a", "fusion_lat": 0.0, "is_reserved": 0, "lat": 38.8597115, "fusion_lon": 0.0, "is_disabled": 0}, {"rental_uris": {"android": "https://dc.lft.to/lastmile_qr_scan", "ios": "https://dc.lft.to/lastmile_qr_scan"}, "type": "electric_scooter", "lon": -77.04246333333333, "name": "a080011ff24bad171bb1e010bef5cef0", "bike_id": "a080011ff24bad171bb1e010bef5cef0", "fusion_lat": 0.0, "is_reserved": 0, "lat": 38.91775633333334, "fusion_lon": 0.0, "is_disabled": 0}, {"rental_uris": {"android": "https://dc.lft.to/lastmile_qr_scan", "ios": "https://dc.lft.to/lastmile_qr_scan"}, "type": "electric_scooter", "lon": -77.029529, "name": "f7a29e26c2d9715d9264dda4736fc59f", "bike_id": "f7a29e26c2d9715d9264dda4736fc59f", "fusion_lat": 0.0, "is_reserved": 0, "lat": 38.907822, "fusion_lon": 0.0, "is_disabled": 0}, {"rental_uris": {"android": "https://dc.lft.to/lastmile_qr_scan", "ios": "https://dc.lft.to/lastmile_qr_scan"}, "type": "electric_scooter", "lon": -77.02761033333333, "name": "27df6e35646e722ff4a953c7c63680df", "bike_id": "27df6e35646e722ff4a953c7c63680df", "fusion_lat": 0.0, "is_reserved": 0, "lat": 38.94288933333333, "fusion_lon": 0.0, "is_disabled": 0}, {"rental_uris": {"android": "https://dc.lft.to/lastmile_qr_scan", "ios": "https://dc.lft.to/lastmile_qr_scan"}, "type": "electric_scooter", "lon": -77.0078675, "name": "67370da778712bad659578c7039e3016", "bike_id": "67370da778712bad659578c7039e3016", "fusion_lat": 0.0, "is_reserved": 0, "lat": 38.879104166666664, "fusion_lon": 0.0, "is_disabled": 0}, {"rental_uris": {"android": "https://dc.lft.to/lastmile_qr_scan", "ios": "https://dc.lft.to/lastmile_qr_scan"}, "type": "electric_bike", "lon": -77.105112, "name": "4118af1cd61e51798c6707cda9c95ba4", "bike_id": "4118af1cd61e51798c6707cda9c95ba4", "fusion_lat": 0.0, "is_reserved": 0, "lat": 38.92849533333333, "fusion_lon": 0.0, "is_disabled": 0}, {"rental_uris": {"android": "https://dc.lft.to/lastmile_qr_scan", "ios": "https://dc.lft.to/lastmile_qr_scan"}, "type": "electric_bike", "lon": -77.10099, "name": "f5a8f3b79faac89be27d4d0e608b95df", "bike_id": "f5a8f3b79faac89be27d4d0e608b95df", "fusion_lat": 0.0, "is_reserved": 0, "lat": 38.8586385, "fusion_lon": 0.0, "is_disabled": 0}, {"rental_uris": {"android": "https://dc.lft.to/lastmile_qr_scan", "ios": "https://dc.lft.to/lastmile_qr_scan"}, "type": "electric_scooter", "lon": -77.03269566666667, "name": "fae91058dc1ec782f653bb71a9380ad3", "bike_id": "fae91058dc1ec782f653bb71a9380ad3", "fusion_lat": 0.0, "is_reserved": 0, "lat": 38.93100166666667, "fusion_lon": 0.0, "is_disabled": 0}, {"rental_uris": {"android": "https://dc.lft.to/lastmile_qr_scan", "ios": "https://dc.lft.to/lastmile_qr_scan"}, "type": "electric_scooter", "lon": -76.92399433333334, "name": "b07739019f1ded76572e83ccef01e73e", "bike_id": "b07739019f1ded76572e83ccef01e73e", "fusion_lat": 0.0, "is_reserved": 0, "lat": 38.889879, "fusion_lon": 0.0, "is_disabled": 0}, {"rental_uris": {"android": "https://dc.lft.to/lastmile_qr_scan", "ios": "https://dc.lft.to/lastmile_qr_scan"}, "type": "electric_scooter", "lon": -77.0270825, "name": "cd52c4f8734e319e4e3adbd1e76c14e9", "bike_id": "cd52c4f8734e319e4e3adbd1e76c14e9", "fusion_lat": 0.0, "is_reserved": 0, "lat": 38.908982333333334, "fusion_lon": 0.0, "is_disabled": 0}, {"rental_uris": {"android": "https://dc.lft.to/lastmile_qr_scan", "ios": "https://dc.lft.to/lastmile_qr_scan"}, "type": "electric_bike", "lon": -76.93411133333333, "name": "41d04badca39f142f5e8d3d1d0a73cc2", "bike_id": "41d04badca39f142f5e8d3d1d0a73cc2", "fusion_lat": 0.0, "is_reserved": 0, "lat": 38.946257333333335, "fusion_lon": 0.0, "is_disabled": 0}, {"rental_uris": {"android": "https://dc.lft.to/lastmile_qr_scan", "ios": "https://dc.lft.to/lastmile_qr_scan"}, "type": "electric_scooter", "lon": -77.04710816666666, "name": "584f01c39b0624af1ca9913b53d49a5d", "bike_id": "584f01c39b0624af1ca9913b53d49a5d", "fusion_lat": 0.0, "is_reserved": 0, "lat": 38.912618, "fusion_lon": 0.0, "is_disabled": 0}, {"rental_uris": {"android": "https://dc.lft.to/lastmile_qr_scan", "ios": "https://dc.lft.to/lastmile_qr_scan"}, "type": "electric_scooter", "lon": -76.9915735, "name": "b637f6115bd8b5b38b5234339edf0823", "bike_id": "b637f6115bd8b5b38b5234339edf0823", "fusion_lat": 0.0, "is_reserved": 0, "lat": 38.8791485, "fusion_lon": 0.0, "is_disabled": 0}, {"rental_uris": {"android": "https://dc.lft.to/lastmile_qr_scan", "ios": "https://dc.lft.to/lastmile_qr_scan"}, "type": "electric_scooter", "lon": -77.02975933333333, "name": "1f941b16637da79ed2562fcb66087ccf", "bike_id": "1f941b16637da79ed2562fcb66087ccf", "fusion_lat": 0.0, "is_reserved": 0, "lat": 38.8931995, "fusion_lon": 0.0, "is_disabled": 0}, {"rental_uris": {"android": "https://dc.lft.to/lastmile_qr_scan", "ios": "https://dc.lft.to/lastmile_qr_scan"}, "type": "electric_scooter", "lon": -76.9734115, "name": "d5cb10df39c941637c2e8f0a12d111ca", "bike_id": "d5cb10df39c941637c2e8f0a12d111ca", "fusion_lat": 0.0, "is_reserved": 0, "lat": 38.8650885, "fusion_lon": 0.0, "is_disabled": 0}, {"rental_uris": {"android": "https://dc.lft.to/lastmile_qr_scan", "ios": "https://dc.lft.to/lastmile_qr_scan"}, "type": "electric_scooter", "lon": -77.04828666666667, "name": "a60ee28ddc04bf70436dfc3158b6fd14", "bike_id": "a60ee28ddc04bf70436dfc3158b6fd14", "fusion_lat": 0.0, "is_reserved": 0, "lat": 38.911415833333336, "fusion_lon": 0.0, "is_disabled": 0}, {"rental_uris": {"android": "https://dc.lft.to/lastmile_qr_scan", "ios": "https://dc.lft.to/lastmile_qr_scan"}, "type": "electric_scooter", "lon": -77.00200416666667, "name": "6b8cc05a187eb9f3161a0f2e6229e6ac", "bike_id": "6b8cc05a187eb9f3161a0f2e6229e6ac", "fusion_lat": 0.0, "is_reserved": 0, "lat": 38.902922, "fusion_lon": 0.0, "is_disabled": 0}, {"rental_uris": {"android": "https://dc.lft.to/lastmile_qr_scan", "ios": "https://dc.lft.to/lastmile_qr_scan"}, "type": "electric_scooter", "lon": -77.008809, "name": "62584b7117332bbbc5c2d95668070a2c", "bike_id": "62584b7117332bbbc5c2d95668070a2c", "fusion_lat": 0.0, "is_reserved": 0, "lat": 38.8735575, "fusion_lon": 0.0, "is_disabled": 0}, {"rental_uris": {"android": "https://dc.lft.to/lastmile_qr_scan", "ios": "https://dc.lft.to/lastmile_qr_scan"}, "type": "electric_scooter", "lon": -77.038144, "name": "d457bb5fc4b9272b7026578df745acee", "bike_id": "d457bb5fc4b9272b7026578df745acee", "fusion_lat": 0.0, "is_reserved": 0, "lat": 38.920683833333335, "fusion_lon": 0.0, "is_disabled": 0}, {"rental_uris": {"android": "https://dc.lft.to/lastmile_qr_scan", "ios": "https://dc.lft.to/lastmile_qr_scan"}, "type": "electric_scooter", "lon": -76.97663666666666, "name": "2c925221734337b66826dec5aa366272", "bike_id": "2c925221734337b66826dec5aa366272", "fusion_lat": 0.0, "is_reserved": 0, "lat": 38.89859116666667, "fusion_lon": 0.0, "is_disabled": 0}, {"rental_uris": {"android": "https://dc.lft.to/lastmile_qr_scan", "ios": "https://dc.lft.to/lastmile_qr_scan"}, "type": "electric_bike", "lon": -77.01622016666667, "name": "8ab8844cb80cfcb248dec0d19eeea0f8", "bike_id": "8ab8844cb80cfcb248dec0d19eeea0f8", "fusion_lat": 0.0, "is_reserved": 0, "lat": 38.99092233333333, "fusion_lon": 0.0, "is_disabled": 0}, {"rental_uris": {"android": "https://dc.lft.to/lastmile_qr_scan", "ios": "https://dc.lft.to/lastmile_qr_scan"}, "type": "electric_scooter", "lon": -76.91915916666666, "name": "bded1e8c2b6b7d15c0db541f5a502d21", "bike_id": "bded1e8c2b6b7d15c0db541f5a502d21", "fusion_lat": 0.0, "is_reserved": 0, "lat": 38.890773, "fusion_lon": 0.0, "is_disabled": 0}, {"rental_uris": {"android": "https://dc.lft.to/lastmile_qr_scan", "ios": "https://dc.lft.to/lastmile_qr_scan"}, "type": "electric_scooter", "lon": -77.03332233333333, "name": "f2d04d838f638f408fb85bd13d8cce42", "bike_id": "f2d04d838f638f408fb85bd13d8cce42", "fusion_lat": 0.0, "is_reserved": 0, "lat": 38.92257433333333, "fusion_lon": 0.0, "is_disabled": 0}, {"rental_uris": {"android": "https://dc.lft.to/lastmile_qr_scan", "ios": "https://dc.lft.to/lastmile_qr_scan"}, "type": "electric_scooter", "lon": -76.98566016666666, "name": "6dbc82d942fa35e119096dbb612fe7f9", "bike_id": "6dbc82d942fa35e119096dbb612fe7f9", "fusion_lat": 0.0, "is_reserved": 0, "lat": 38.90930383333333, "fusion_lon": 0.0, "is_disabled": 0}, {"rental_uris": {"android": "https://dc.lft.to/lastmile_qr_scan", "ios": "https://dc.lft.to/lastmile_qr_scan"}, "type": "electric_bike", "lon": -76.96689266666667, "name": "41a7e3a365d86007d2b8f815a5265390", "bike_id": "41a7e3a365d86007d2b8f815a5265390", "fusion_lat": 0.0, "is_reserved": 0, "lat": 38.945637, "fusion_lon": 0.0, "is_disabled": 0}, {"rental_uris": {"android": "https://dc.lft.to/lastmile_qr_scan", "ios": "https://dc.lft.to/lastmile_qr_scan"}, "type": "electric_scooter", "lon": -77.03463483333333, "name": "b025d572b4035ee687923d7d2112709c", "bike_id": "b025d572b4035ee687923d7d2112709c", "fusion_lat": 0.0, "is_reserved": 0, "lat": 38.904191833333336, "fusion_lon": 0.0, "is_disabled": 0}, {"rental_uris": {"android": "https://dc.lft.to/lastmile_qr_scan", "ios": "https://dc.lft.to/lastmile_qr_scan"}, "type": "electric_scooter", "lon": -77.045065, "name": "7249161c814d7ffba02e9750d0e5f110", "bike_id": "7249161c814d7ffba02e9750d0e5f110", "fusion_lat": 0.0, "is_reserved": 0, "lat": 38.892224166666665, "fusion_lon": 0.0, "is_disabled": 0}, {"rental_uris": {"android": "https://dc.lft.to/lastmile_qr_scan", "ios": "https://dc.lft.to/lastmile_qr_scan"}, "type": "electric_bike", "lon": -77.06975866666667, "name": "dd3187697bfd4ea8edb20ea9bb20d051", "bike_id": "dd3187697bfd4ea8edb20ea9bb20d051", "fusion_lat": 0.0, "is_reserved": 0, "lat": 38.95270716666667, "fusion_lon": 0.0, "is_disabled": 0}, {"rental_uris": {"android": "https://dc.lft.to/lastmile_qr_scan", "ios": "https://dc.lft.to/lastmile_qr_scan"}, "type": "electric_scooter", "lon": -77.02688666666667, "name": "1398a081b07d910b764676d34b98ea65", "bike_id": "1398a081b07d910b764676d34b98ea65", "fusion_lat": 0.0, "is_reserved": 0, "lat": 38.912758, "fusion_lon": 0.0, "is_disabled": 0}, {"rental_uris": {"android": "https://dc.lft.to/lastmile_qr_scan", "ios": "https://dc.lft.to/lastmile_qr_scan"}, "type": "electric_scooter", "lon": -76.9965895, "name": "4a091ef9cdd40a4bee299accba22ccc1", "bike_id": "4a091ef9cdd40a4bee299accba22ccc1", "fusion_lat": 0.0, "is_reserved": 0, "lat": 38.89890116666667, "fusion_lon": 0.0, "is_disabled": 0}, {"rental_uris": {"android": "https://dc.lft.to/lastmile_qr_scan", "ios": "https://dc.lft.to/lastmile_qr_scan"}, "type": "electric_scooter", "lon": -77.024088, "name": "1a13e7704d322797297c23235817c6a0", "bike_id": "1a13e7704d322797297c23235817c6a0", "fusion_lat": 0.0, "is_reserved": 0, "lat": 38.89887483333333, "fusion_lon": 0.0, "is_disabled": 0}, {"rental_uris": {"android": "https://dc.lft.to/lastmile_qr_scan", "ios": "https://dc.lft.to/lastmile_qr_scan"}, "type": "electric_scooter", "lon": -77.028265, "name": "e0ecfaa5e1b8bd69eaecc07b23c6b233", "bike_id": "e0ecfaa5e1b8bd69eaecc07b23c6b233", "fusion_lat": 0.0, "is_reserved": 0, "lat": 38.95087816666667, "fusion_lon": 0.0, "is_disabled": 0}, {"rental_uris": {"android": "https://dc.lft.to/lastmile_qr_scan", "ios": "https://dc.lft.to/lastmile_qr_scan"}, "type": "electric_scooter", "lon": -77.052915, "name": "7314b16228ba662cba7bfa0d22c72156", "bike_id": "7314b16228ba662cba7bfa0d22c72156", "fusion_lat": 0.0, "is_reserved": 0, "lat": 38.9169985, "fusion_lon": 0.0, "is_disabled": 0}, {"rental_uris": {"android": "https://dc.lft.to/lastmile_qr_scan", "ios": "https://dc.lft.to/lastmile_qr_scan"}, "type": "electric_scooter", "lon": -76.99843683333333, "name": "c8e801d2201fab3fba2f63df5bf5d968", "bike_id": "c8e801d2201fab3fba2f63df5bf5d968", "fusion_lat": 0.0, "is_reserved": 0, "lat": 38.907713, "fusion_lon": 0.0, "is_disabled": 0}, {"rental_uris": {"android": "https://dc.lft.to/lastmile_qr_scan", "ios": "https://dc.lft.to/lastmile_qr_scan"}, "type": "electric_scooter", "lon": -77.02693983333333, "name": "db62f00c7d29da66d50f4753520c4bf7", "bike_id": "db62f00c7d29da66d50f4753520c4bf7", "fusion_lat": 0.0, "is_reserved": 0, "lat": 38.9182525, "fusion_lon": 0.0, "is_disabled": 0}, {"rental_uris": {"android": "https://dc.lft.to/lastmile_qr_scan", "ios": "https://dc.lft.to/lastmile_qr_scan"}, "type": "electric_scooter", "lon": -77.03174683333333, "name": "50638e976e2f400eebff8ec4cd056c83", "bike_id": "50638e976e2f400eebff8ec4cd056c83", "fusion_lat": 0.0, "is_reserved": 0, "lat": 38.918115, "fusion_lon": 0.0, "is_disabled": 0}, {"rental_uris": {"android": "https://dc.lft.to/lastmile_qr_scan", "ios": "https://dc.lft.to/lastmile_qr_scan"}, "type": "electric_scooter", "lon": -77.03144, "name": "1096637794650c4dfb152e48428f4b01", "bike_id": "1096637794650c4dfb152e48428f4b01", "fusion_lat": 0.0, "is_reserved": 0, "lat": 38.9126785, "fusion_lon": 0.0, "is_disabled": 0}, {"rental_uris": {"android": "https://dc.lft.to/lastmile_qr_scan", "ios": "https://dc.lft.to/lastmile_qr_scan"}, "type": "electric_bike", "lon": -76.9905435, "name": "8e754785c2287a1bd18a9bc2463bc2a5", "bike_id": "8e754785c2287a1bd18a9bc2463bc2a5", "fusion_lat": 0.0, "is_reserved": 0, "lat": 38.936893, "fusion_lon": 0.0, "is_disabled": 0}, {"rental_uris": {"android": "https://dc.lft.to/lastmile_qr_scan", "ios": "https://dc.lft.to/lastmile_qr_scan"}, "type": "electric_scooter", "lon": -77.01759383333334, "name": "cd477f69aeecf67960c6ff86d370ee15", "bike_id": "cd477f69aeecf67960c6ff86d370ee15", "fusion_lat": 0.0, "is_reserved": 0, "lat": 38.87347966666667, "fusion_lon": 0.0, "is_disabled": 0}, {"rental_uris": {"android": "https://dc.lft.to/lastmile_qr_scan", "ios": "https://dc.lft.to/lastmile_qr_scan"}, "type": "electric_scooter", "lon": -77.04704366666667, "name": "61b93fc5217b61cf3c19435ddaa4b64a", "bike_id": "61b93fc5217b61cf3c19435ddaa4b64a", "fusion_lat": 0.0, "is_reserved": 0, "lat": 38.9125775, "fusion_lon": 0.0, "is_disabled": 0}, {"rental_uris": {"android": "https://dc.lft.to/lastmile_qr_scan", "ios": "https://dc.lft.to/lastmile_qr_scan"}, "type": "electric_scooter", "lon": -77.0318655, "name": "71ac1ac7b977dd98d11028d9e129005b", "bike_id": "71ac1ac7b977dd98d11028d9e129005b", "fusion_lat": 0.0, "is_reserved": 0, "lat": 38.91889883333333, "fusion_lon": 0.0, "is_disabled": 0}, {"rental_uris": {"android": "https://dc.lft.to/lastmile_qr_scan", "ios": "https://dc.lft.to/lastmile_qr_scan"}, "type": "electric_bike", "lon": -77.100261, "name": "adf1331d5b857fd36f8e444983512f7d", "bike_id": "adf1331d5b857fd36f8e444983512f7d", "fusion_lat": 0.0, "is_reserved": 0, "lat": 38.990639333333334, "fusion_lon": 0.0, "is_disabled": 0}, {"rental_uris": {"android": "https://dc.lft.to/lastmile_qr_scan", "ios": "https://dc.lft.to/lastmile_qr_scan"}, "type": "electric_scooter", "lon": -77.03261333333333, "name": "2350c7ad12c11208b9d44e48765ff2c3", "bike_id": "2350c7ad12c11208b9d44e48765ff2c3", "fusion_lat": 0.0, "is_reserved": 0, "lat": 38.932463, "fusion_lon": 0.0, "is_disabled": 0}, {"rental_uris": {"android": "https://dc.lft.to/lastmile_qr_scan", "ios": "https://dc.lft.to/lastmile_qr_scan"}, "type": "electric_scooter", "lon": -77.03931933333334, "name": "909fccb293a906c3354509a2d74149b9", "bike_id": "909fccb293a906c3354509a2d74149b9", "fusion_lat": 0.0, "is_reserved": 0, "lat": 38.91388466666667, "fusion_lon": 0.0, "is_disabled": 0}, {"rental_uris": {"android": "https://dc.lft.to/lastmile_qr_scan", "ios": "https://dc.lft.to/lastmile_qr_scan"}, "type": "electric_scooter", "lon": -77.01609366666666, "name": "b4b8e797d2290239d749d73756e2a854", "bike_id": "b4b8e797d2290239d749d73756e2a854", "fusion_lat": 0.0, "is_reserved": 0, "lat": 38.905885166666664, "fusion_lon": 0.0, "is_disabled": 0}, {"rental_uris": {"android": "https://dc.lft.to/lastmile_qr_scan", "ios": "https://dc.lft.to/lastmile_qr_scan"}, "type": "electric_scooter", "lon": -77.06787283333334, "name": "67e4a9f55a2f2cdccecf3504127d1188", "bike_id": "67e4a9f55a2f2cdccecf3504127d1188", "fusion_lat": 0.0, "is_reserved": 0, "lat": 38.91079916666666, "fusion_lon": 0.0, "is_disabled": 0}, {"rental_uris": {"android": "https://dc.lft.to/lastmile_qr_scan", "ios": "https://dc.lft.to/lastmile_qr_scan"}, "type": "electric_scooter", "lon": -77.01177833333334, "name": "99fa6685fb0f8e3bcbb27989e8218e11", "bike_id": "99fa6685fb0f8e3bcbb27989e8218e11", "fusion_lat": 0.0, "is_reserved": 0, "lat": 38.897384, "fusion_lon": 0.0, "is_disabled": 0}, {"rental_uris": {"android": "https://dc.lft.to/lastmile_qr_scan", "ios": "https://dc.lft.to/lastmile_qr_scan"}, "type": "electric_scooter", "lon": -77.02468316666666, "name": "2e2c5cdfe7acb0ef1d1cd5c435d3f14e", "bike_id": "2e2c5cdfe7acb0ef1d1cd5c435d3f14e", "fusion_lat": 0.0, "is_reserved": 0, "lat": 38.906443, "fusion_lon": 0.0, "is_disabled": 0}, {"rental_uris": {"android": "https://dc.lft.to/lastmile_qr_scan", "ios": "https://dc.lft.to/lastmile_qr_scan"}, "type": "electric_scooter", "lon": -77.03049883333334, "name": "d5924bc16a1cde71d26eef12ce4c61ca", "bike_id": "d5924bc16a1cde71d26eef12ce4c61ca", "fusion_lat": 0.0, "is_reserved": 0, "lat": 38.884069833333335, "fusion_lon": 0.0, "is_disabled": 0}, {"rental_uris": {"android": "https://dc.lft.to/lastmile_qr_scan", "ios": "https://dc.lft.to/lastmile_qr_scan"}, "type": "electric_scooter", "lon": -77.002653, "name": "71584bc9634255c6b4f5b5ebed3efe24", "bike_id": "71584bc9634255c6b4f5b5ebed3efe24", "fusion_lat": 0.0, "is_reserved": 0, "lat": 38.90127583333334, "fusion_lon": 0.0, "is_disabled": 0}, {"rental_uris": {"android": "https://dc.lft.to/lastmile_qr_scan", "ios": "https://dc.lft.to/lastmile_qr_scan"}, "type": "electric_scooter", "lon": -77.01337633333333, "name": "add91c3d388b8f3158a329505385071f", "bike_id": "add91c3d388b8f3158a329505385071f", "fusion_lat": 0.0, "is_reserved": 0, "lat": 38.88132183333333, "fusion_lon": 0.0, "is_disabled": 0}, {"rental_uris": {"android": "https://dc.lft.to/lastmile_qr_scan", "ios": "https://dc.lft.to/lastmile_qr_scan"}, "type": "electric_scooter", "lon": -77.03885, "name": "eb00ea89cbf2dac5c799b8d6fee19a7b", "bike_id": "eb00ea89cbf2dac5c799b8d6fee19a7b", "fusion_lat": 0.0, "is_reserved": 0, "lat": 38.93266233333333, "fusion_lon": 0.0, "is_disabled": 0}, {"rental_uris": {"android": "https://dc.lft.to/lastmile_qr_scan", "ios": "https://dc.lft.to/lastmile_qr_scan"}, "type": "electric_bike", "lon": -77.048991, "name": "d3f3849ea476f966cba13396988737f9", "bike_id": "d3f3849ea476f966cba13396988737f9", "fusion_lat": 0.0, "is_reserved": 0, "lat": 38.874946666666666, "fusion_lon": 0.0, "is_disabled": 0}, {"rental_uris": {"android": "https://dc.lft.to/lastmile_qr_scan", "ios": "https://dc.lft.to/lastmile_qr_scan"}, "type": "electric_scooter", "lon": -77.03852433333333, "name": "25d6b62ea0bd397f37481a9ee3343e86", "bike_id": "25d6b62ea0bd397f37481a9ee3343e86", "fusion_lat": 0.0, "is_reserved": 0, "lat": 38.91546, "fusion_lon": 0.0, "is_disabled": 0}, {"rental_uris": {"android": "https://dc.lft.to/lastmile_qr_scan", "ios": "https://dc.lft.to/lastmile_qr_scan"}, "type": "electric_scooter", "lon": -77.02478516666666, "name": "277bfdfdfeb5ff574794d25ecd8544c5", "bike_id": "277bfdfdfeb5ff574794d25ecd8544c5", "fusion_lat": 0.0, "is_reserved": 0, "lat": 38.938770833333336, "fusion_lon": 0.0, "is_disabled": 0}, {"rental_uris": {"android": "https://dc.lft.to/lastmile_qr_scan", "ios": "https://dc.lft.to/lastmile_qr_scan"}, "type": "electric_scooter", "lon": -77.0225985, "name": "552878e4031fe12fe8a001ac7ee3539f", "bike_id": "552878e4031fe12fe8a001ac7ee3539f", "fusion_lat": 0.0, "is_reserved": 0, "lat": 38.8786995, "fusion_lon": 0.0, "is_disabled": 0}, {"rental_uris": {"android": "https://dc.lft.to/lastmile_qr_scan", "ios": "https://dc.lft.to/lastmile_qr_scan"}, "type": "electric_scooter", "lon": -77.019085, "name": "b57c4bfab7aaf1d0ba2940f7dd13e915", "bike_id": "b57c4bfab7aaf1d0ba2940f7dd13e915", "fusion_lat": 0.0, "is_reserved": 0, "lat": 38.9234305, "fusion_lon": 0.0, "is_disabled": 0}, {"rental_uris": {"android": "https://dc.lft.to/lastmile_qr_scan", "ios": "https://dc.lft.to/lastmile_qr_scan"}, "type": "electric_scooter", "lon": -77.03212366666666, "name": "d95569a8b9357e86352d73d0f023a260", "bike_id": "d95569a8b9357e86352d73d0f023a260", "fusion_lat": 0.0, "is_reserved": 0, "lat": 38.9188715, "fusion_lon": 0.0, "is_disabled": 0}, {"rental_uris": {"android": "https://dc.lft.to/lastmile_qr_scan", "ios": "https://dc.lft.to/lastmile_qr_scan"}, "type": "electric_scooter", "lon": -77.022838, "name": "4faf15a06dec3650a744543bfc385c1b", "bike_id": "4faf15a06dec3650a744543bfc385c1b", "fusion_lat": 0.0, "is_reserved": 0, "lat": 38.915664166666666, "fusion_lon": 0.0, "is_disabled": 0}, {"rental_uris": {"android": "https://dc.lft.to/lastmile_qr_scan", "ios": "https://dc.lft.to/lastmile_qr_scan"}, "type": "electric_scooter", "lon": -77.01215483333333, "name": "1a6cc70456c9018a846ed0452669aaa7", "bike_id": "1a6cc70456c9018a846ed0452669aaa7", "fusion_lat": 0.0, "is_reserved": 0, "lat": 38.90053866666667, "fusion_lon": 0.0, "is_disabled": 0}, {"rental_uris": {"android": "https://dc.lft.to/lastmile_qr_scan", "ios": "https://dc.lft.to/lastmile_qr_scan"}, "type": "electric_scooter", "lon": -77.00646, "name": "2001bed45cd4b4de114907b0c24e8cc7", "bike_id": "2001bed45cd4b4de114907b0c24e8cc7", "fusion_lat": 0.0, "is_reserved": 0, "lat": 38.88338016666667, "fusion_lon": 0.0, "is_disabled": 0}, {"rental_uris": {"android": "https://dc.lft.to/lastmile_qr_scan", "ios": "https://dc.lft.to/lastmile_qr_scan"}, "type": "electric_bike", "lon": -76.94954616666666, "name": "4cf60f7fa41030d928e25a7f2059b213", "bike_id": "4cf60f7fa41030d928e25a7f2059b213", "fusion_lat": 0.0, "is_reserved": 0, "lat": 38.935007666666664, "fusion_lon": 0.0, "is_disabled": 0}, {"rental_uris": {"android": "https://dc.lft.to/lastmile_qr_scan", "ios": "https://dc.lft.to/lastmile_qr_scan"}, "type": "electric_scooter", "lon": -77.031782, "name": "0b7b65260d49d5d5f17ba47c63bf58c0", "bike_id": "0b7b65260d49d5d5f17ba47c63bf58c0", "fusion_lat": 0.0, "is_reserved": 0, "lat": 38.907568, "fusion_lon": 0.0, "is_disabled": 0}, {"rental_uris": {"android": "https://dc.lft.to/lastmile_qr_scan", "ios": "https://dc.lft.to/lastmile_qr_scan"}, "type": "electric_scooter", "lon": -77.0111085, "name": "736ca61571c46470885ee745a3ce308b", "bike_id": "736ca61571c46470885ee745a3ce308b", "fusion_lat": 0.0, "is_reserved": 0, "lat": 38.90361033333333, "fusion_lon": 0.0, "is_disabled": 0}, {"rental_uris": {"android": "https://dc.lft.to/lastmile_qr_scan", "ios": "https://dc.lft.to/lastmile_qr_scan"}, "type": "electric_scooter", "lon": -77.01018983333333, "name": "a70d0832315bccd3dbe2621e1d7c3e8b", "bike_id": "a70d0832315bccd3dbe2621e1d7c3e8b", "fusion_lat": 0.0, "is_reserved": 0, "lat": 38.86746633333333, "fusion_lon": 0.0, "is_disabled": 0}, {"rental_uris": {"android": "https://dc.lft.to/lastmile_qr_scan", "ios": "https://dc.lft.to/lastmile_qr_scan"}, "type": "electric_scooter", "lon": -77.03037166666667, "name": "fa54b8033da08bca381b06de90164b6f", "bike_id": "fa54b8033da08bca381b06de90164b6f", "fusion_lat": 0.0, "is_reserved": 0, "lat": 38.90860833333333, "fusion_lon": 0.0, "is_disabled": 0}, {"rental_uris": {"android": "https://dc.lft.to/lastmile_qr_scan", "ios": "https://dc.lft.to/lastmile_qr_scan"}, "type": "electric_scooter", "lon": -77.03179633333333, "name": "b8cc61a8365d0ccb59328c252e1cec35", "bike_id": "b8cc61a8365d0ccb59328c252e1cec35", "fusion_lat": 0.0, "is_reserved": 0, "lat": 38.91886916666667, "fusion_lon": 0.0, "is_disabled": 0}, {"rental_uris": {"android": "https://dc.lft.to/lastmile_qr_scan", "ios": "https://dc.lft.to/lastmile_qr_scan"}, "type": "electric_scooter", "lon": -77.05140466666667, "name": "344eef1dc48f1f0eca9d00583151c3e0", "bike_id": "344eef1dc48f1f0eca9d00583151c3e0", "fusion_lat": 0.0, "is_reserved": 0, "lat": 38.904323166666664, "fusion_lon": 0.0, "is_disabled": 0}, {"rental_uris": {"android": "https://dc.lft.to/lastmile_qr_scan", "ios": "https://dc.lft.to/lastmile_qr_scan"}, "type": "electric_scooter", "lon": -77.04514816666666, "name": "4288f2f92d5cf78138c39ada96455699", "bike_id": "4288f2f92d5cf78138c39ada96455699", "fusion_lat": 0.0, "is_reserved": 0, "lat": 38.91836, "fusion_lon": 0.0, "is_disabled": 0}, {"rental_uris": {"android": "https://dc.lft.to/lastmile_qr_scan", "ios": "https://dc.lft.to/lastmile_qr_scan"}, "type": "electric_scooter", "lon": -77.02306766666666, "name": "77c8f31ce4ecbc2f708b2cde67fe6896", "bike_id": "77c8f31ce4ecbc2f708b2cde67fe6896", "fusion_lat": 0.0, "is_reserved": 0, "lat": 38.90894, "fusion_lon": 0.0, "is_disabled": 0}, {"rental_uris": {"android": "https://dc.lft.to/lastmile_qr_scan", "ios": "https://dc.lft.to/lastmile_qr_scan"}, "type": "electric_scooter", "lon": -77.0296925, "name": "19680e8c3fcd7166d77dd547acccef85", "bike_id": "19680e8c3fcd7166d77dd547acccef85", "fusion_lat": 0.0, "is_reserved": 0, "lat": 38.9073675, "fusion_lon": 0.0, "is_disabled": 0}, {"rental_uris": {"android": "https://dc.lft.to/lastmile_qr_scan", "ios": "https://dc.lft.to/lastmile_qr_scan"}, "type": "electric_scooter", "lon": -77.042415, "name": "192da9e01e97360b46f56b86fbb84460", "bike_id": "192da9e01e97360b46f56b86fbb84460", "fusion_lat": 0.0, "is_reserved": 0, "lat": 38.94547216666667, "fusion_lon": 0.0, "is_disabled": 0}, {"rental_uris": {"android": "https://dc.lft.to/lastmile_qr_scan", "ios": "https://dc.lft.to/lastmile_qr_scan"}, "type": "electric_scooter", "lon": -77.063857, "name": "eee06305ff1890b8c5826e31eea7d1e3", "bike_id": "eee06305ff1890b8c5826e31eea7d1e3", "fusion_lat": 0.0, "is_reserved": 0, "lat": 38.929056833333334, "fusion_lon": 0.0, "is_disabled": 0}, {"rental_uris": {"android": "https://dc.lft.to/lastmile_qr_scan", "ios": "https://dc.lft.to/lastmile_qr_scan"}, "type": "electric_scooter", "lon": -77.001281, "name": "3ebbfdde6c87557c7ce26141f3f1934e", "bike_id": "3ebbfdde6c87557c7ce26141f3f1934e", "fusion_lat": 0.0, "is_reserved": 0, "lat": 38.90006616666667, "fusion_lon": 0.0, "is_disabled": 0}, {"rental_uris": {"android": "https://dc.lft.to/lastmile_qr_scan", "ios": "https://dc.lft.to/lastmile_qr_scan"}, "type": "electric_scooter", "lon": -77.0239435, "name": "f9f6ce2ce9c0618248cdf7d1a9b76afa", "bike_id": "f9f6ce2ce9c0618248cdf7d1a9b76afa", "fusion_lat": 0.0, "is_reserved": 0, "lat": 38.92074916666667, "fusion_lon": 0.0, "is_disabled": 0}, {"rental_uris": {"android": "https://dc.lft.to/lastmile_qr_scan", "ios": "https://dc.lft.to/lastmile_qr_scan"}, "type": "electric_scooter", "lon": -76.941211, "name": "75a06fc77d074598cf69f1a2120e9214", "bike_id": "75a06fc77d074598cf69f1a2120e9214", "fusion_lat": 0.0, "is_reserved": 0, "lat": 38.90791883333333, "fusion_lon": 0.0, "is_disabled": 0}, {"rental_uris": {"android": "https://dc.lft.to/lastmile_qr_scan", "ios": "https://dc.lft.to/lastmile_qr_scan"}, "type": "electric_scooter", "lon": -77.03652, "name": "cedd9cf93ba6405e42c35492fe9fbfc8", "bike_id": "cedd9cf93ba6405e42c35492fe9fbfc8", "fusion_lat": 0.0, "is_reserved": 0, "lat": 38.91387183333333, "fusion_lon": 0.0, "is_disabled": 0}, {"rental_uris": {"android": "https://dc.lft.to/lastmile_qr_scan", "ios": "https://dc.lft.to/lastmile_qr_scan"}, "type": "electric_scooter", "lon": -77.03194666666667, "name": "c72f0a8ae1c7a2c426d0fec465645b5e", "bike_id": "c72f0a8ae1c7a2c426d0fec465645b5e", "fusion_lat": 0.0, "is_reserved": 0, "lat": 38.91341283333333, "fusion_lon": 0.0, "is_disabled": 0}, {"rental_uris": {"android": "https://dc.lft.to/lastmile_qr_scan", "ios": "https://dc.lft.to/lastmile_qr_scan"}, "type": "electric_scooter", "lon": -77.05084316666667, "name": "0b8f2684cdb94fe25b3f64db1442a55e", "bike_id": "0b8f2684cdb94fe25b3f64db1442a55e", "fusion_lat": 0.0, "is_reserved": 0, "lat": 38.92456833333333, "fusion_lon": 0.0, "is_disabled": 0}, {"rental_uris": {"android": "https://dc.lft.to/lastmile_qr_scan", "ios": "https://dc.lft.to/lastmile_qr_scan"}, "type": "electric_scooter", "lon": -77.06044966666667, "name": "7b80c1b238f14793b10e398604219cc3", "bike_id": "7b80c1b238f14793b10e398604219cc3", "fusion_lat": 0.0, "is_reserved": 0, "lat": 38.9391225, "fusion_lon": 0.0, "is_disabled": 0},