{"data": {"bikes": [{"rental_uris": {"ios": "https://dc.lft.to/lastmile_qr_scan", "android": "https://dc.lft.to/lastmile_qr_scan"}, "lat": 38.901104333333336, "is_disabled": 0, "bike_id": "1dff1a09880ab1d7b81f7745fa16ead8", "name": "1dff1a09880ab1d7b81f7745fa16ead8", "type": "electric_scooter", "fusion_lon": 0.0, "is_reserved": 0, "fusion_lat": 0.0, "lon": -77.03926516666667}, {"rental_uris": {"ios": "https://dc.lft.to/lastmile_qr_scan", "android": "https://dc.lft.to/lastmile_qr_scan"}, "lat": 38.94785783333333, "is_disabled": 0, "bike_id": "051f1e2a44f4c59cb0bc38e35c9dc5ad", "name": "051f1e2a44f4c59cb0bc38e35c9dc5ad", "type": "electric_scooter", "fusion_lon": 0.0, "is_reserved": 0, "fusion_lat": 0.0, "lon": -77.06748566666667}, {"rental_uris": {"ios": "https://dc.lft.to/lastmile_qr_scan", "android": "https://dc.lft.to/lastmile_qr_scan"}, "lat": 38.86976816666667, "is_disabled": 0, "bike_id": "9a647f18571e75c774b49ecf6329e2e4", "name": "9a647f18571e75c774b49ecf6329e2e4", "type": "electric_bike", "fusion_lon": 0.0, "is_reserved": 0, "fusion_lat": 0.0, "lon": -77.1323085}, {"rental_uris": {"ios": "https://dc.lft.to/lastmile_qr_scan", "android": "https://dc.lft.to/lastmile_qr_scan"}, "lat": 38.898034, "is_disabled": 0, "bike_id": "54ce07efa32863896cb2f9a440d345d2", "name": "54ce07efa32863896cb2f9a440d345d2", "type": "electric_scooter", "fusion_lon": 0.0, "is_reserved": 0, "fusion_lat": 0.0, "lon": -77.0281385}, {"rental_uris": {"ios": "https://dc.lft.to/lastmile_qr_scan", "android": "https://dc.lft.to/lastmile_qr_scan"}, "lat": 38.900920166666666, "is_disabled": 0, "bike_id": "e7bb037586daf8b170acaa38e18068e5", "name": "e7bb037586daf8b170acaa38e18068e5", "type": "electric_scooter", "fusion_lon": 0.0, "is_reserved": 0, "fusion_lat": 0.0, "lon": -76.9948555}, {"rental_uris": {"ios": "https://dc.lft.to/lastmile_qr_scan", "android": "https://dc.lft.to/lastmile_qr_scan"}, "lat": 38.92233316666667, "is_disabled": 0, "bike_id": "7808691c8332ede4f462578c8170e8c5", "name": "7808691c8332ede4f462578c8170e8c5", "type": "electric_scooter", "fusion_lon": 0.0, "is_reserved": 0, "fusion_lat": 0.0, "lon": -77.04248233333334}, {"rental_uris": {"ios": "https://dc.lft.to/lastmile_qr_scan", "android": "https://dc.lft.to/lastmile_qr_scan"}, "lat": 38.88387566666667, "is_disabled": 0, "bike_id": "925bf4f1e238a387c82047d1bdc34c0a", "name": "925bf4f1e238a387c82047d1bdc34c0a", "type": "electric_scooter", "fusion_lon": 0.0, "is_reserved": 0, "fusion_lat": 0.0, "lon": -76.985452}, {"rental_uris": {"ios": "https://dc.lft.to/lastmile_qr_scan", "android": "https://dc.lft.to/lastmile_qr_scan"}, "lat": 38.903781333333335, "is_disabled": 0, "bike_id": "e3739304afd6ab521d79b80f0e719961", "name": "e3739304afd6ab521d79b80f0e719961", "type": "electric_scooter", "fusion_lon": 0.0, "is_reserved": 0, "fusion_lat": 0.0, "lon": -77.05799916666666}, {"rental_uris": {"ios": "https://dc.lft.to/lastmile_qr_scan", "android": "https://dc.lft.to/lastmile_qr_scan"}, "lat": 38.8765075, "is_disabled": 0, "bike_id": "666cca32c6e0489ab08ce91eaa90c1a4", "name": "666cca32c6e0489ab08ce91eaa90c1a4", "type": "electric_scooter", "fusion_lon": 0.0, "is_reserved": 0, "fusion_lat": 0.0, "lon": -77.00557016666667}, {"rental_uris": {"ios": "https://dc.lft.to/lastmile_qr_scan", "android": "https://dc.lft.to/lastmile_qr_scan"}, "lat": 38.911849333333336, "is_disabled": 0, "bike_id": "4f1f7e0669720a49db49c26e829d56f8", "name": "4f1f7e0669720a49db49c26e829d56f8", "type": "electric_scooter", "fusion_lon": 0.0, "is_reserved": 0, "fusion_lat": 0.0, "lon": -77.01891583333334}, {"rental_uris": {"ios": "https://dc.lft.to/lastmile_qr_scan", "android": "https://dc.lft.to/lastmile_qr_scan"}, "lat": 38.90376766666667, "is_disabled": 0, "bike_id": "c2c5653503495299237800264610a6fa", "name": "c2c5653503495299237800264610a6fa", "type": "electric_scooter", "fusion_lon": 0.0, "is_reserved": 0, "fusion_lat": 0.0, "lon": -77.029663}, {"rental_uris": {"ios": "https://dc.lft.to/lastmile_qr_scan", "android": "https://dc.lft.to/lastmile_qr_scan"}, "lat": 38.898286166666665, "is_disabled": 0, "bike_id": "ba7a00aaac010a62bb79ae3f95971710", "name": "ba7a00aaac010a62bb79ae3f95971710", "type": "electric_scooter", "fusion_lon": 0.0, "is_reserved": 0, "fusion_lat": 0.0, "lon": -77.0330975}, {"rental_uris": {"ios": "https://dc.lft.to/lastmile_qr_scan", "android": "https://dc.lft.to/lastmile_qr_scan"}, "lat": 38.918681666666664, "is_disabled": 0, "bike_id": "133636ec71891b117c7c0a913b86760d", "name": "133636ec71891b117c7c0a913b86760d", "type": "electric_scooter", "fusion_lon": 0.0, "is_reserved": 0, "fusion_lat": 0.0, "lon": -77.04714283333334}, {"rental_uris": {"ios": "https://dc.lft.to/lastmile_qr_scan", "android": "https://dc.lft.to/lastmile_qr_scan"}, "lat": 38.902505166666664, "is_disabled": 0, "bike_id": "d45a8e80387786bde30fea0ca54bdbb1", "name": "d45a8e80387786bde30fea0ca54bdbb1", "type": "electric_scooter", "fusion_lon": 0.0, "is_reserved": 0, "fusion_lat": 0.0, "lon": -77.02668416666667}, {"rental_uris": {"ios": "https://dc.lft.to/lastmile_qr_scan", "android": "https://dc.lft.to/lastmile_qr_scan"}, "lat": 38.92901833333333, "is_disabled": 0, "bike_id": "0c02e22affef373b37f6bdea2202f3a1", "name": "0c02e22affef373b37f6bdea2202f3a1", "type": "electric_scooter", "fusion_lon": 0.0, "is_reserved": 0, "fusion_lat": 0.0, "lon": -77.054562}, {"rental_uris": {"ios": "https://dc.lft.to/lastmile_qr_scan", "android": "https://dc.lft.to/lastmile_qr_scan"}, "lat": 38.884031, "is_disabled": 0, "bike_id": "c5b60e76522b06aa16fe0bd83ce96c39", "name": "c5b60e76522b06aa16fe0bd83ce96c39", "type": "electric_scooter", "fusion_lon": 0.0, "is_reserved": 0, "fusion_lat": 0.0, "lon": -77.03035833333334}, {"rental_uris": {"ios": "https://dc.lft.to/lastmile_qr_scan", "android": "https://dc.lft.to/lastmile_qr_scan"}, "lat": 38.903853166666664, "is_disabled": 0, "bike_id": "828bce545639f1394517883c5bf872c8", "name": "828bce545639f1394517883c5bf872c8", "type": "electric_scooter", "fusion_lon": 0.0, "is_reserved": 0, "fusion_lat": 0.0, "lon": -77.01792166666667}, {"rental_uris": {"ios": "https://dc.lft.to/lastmile_qr_scan", "android": "https://dc.lft.to/lastmile_qr_scan"}, "lat": 38.91806533333333, "is_disabled": 0, "bike_id": "f6a84238fd6e88bf27bf44d20d0fd4d9", "name": "f6a84238fd6e88bf27bf44d20d0fd4d9", "type": "electric_scooter", "fusion_lon": 0.0, "is_reserved": 0, "fusion_lat": 0.0, "lon": -77.01021616666667}, {"rental_uris": {"ios": "https://dc.lft.to/lastmile_qr_scan", "android": "https://dc.lft.to/lastmile_qr_scan"}, "lat": 38.920574, "is_disabled": 0, "bike_id": "fb2a1371a188137ad9e7d264dd7c28f9", "name": "fb2a1371a188137ad9e7d264dd7c28f9", "type": "electric_scooter", "fusion_lon": 0.0, "is_reserved": 0, "fusion_lat": 0.0, "lon": -77.0337875}, {"rental_uris": {"ios": "https://dc.lft.to/lastmile_qr_scan", "android": "https://dc.lft.to/lastmile_qr_scan"}, "lat": 38.88776466666667, "is_disabled": 0, "bike_id": "6f85f12f3bcf8bcc48b9de5ec0fd7ca4", "name": "6f85f12f3bcf8bcc48b9de5ec0fd7ca4", "type": "electric_scooter", "fusion_lon": 0.0, "is_reserved": 0, "fusion_lat": 0.0, "lon": -77.00177516666666}, {"rental_uris": {"ios": "https://dc.lft.to/lastmile_qr_scan", "android": "https://dc.lft.to/lastmile_qr_scan"}, "lat": 38.89819416666667, "is_disabled": 0, "bike_id": "86adcb68b11be062218195375c1a54b9", "name": "86adcb68b11be062218195375c1a54b9", "type": "electric_scooter", "fusion_lon": 0.0, "is_reserved": 0, "fusion_lat": 0.0, "lon": -77.02910816666666}, {"rental_uris": {"ios": "https://dc.lft.to/lastmile_qr_scan", "android": "https://dc.lft.to/lastmile_qr_scan"}, "lat": 38.8983355, "is_disabled": 0, "bike_id": "2a73a4756a812ba4f252dd4e71b7cc62", "name": "2a73a4756a812ba4f252dd4e71b7cc62", "type": "electric_scooter", "fusion_lon": 0.0, "is_reserved": 0, "fusion_lat": 0.0, "lon": -77.02788966666667}, {"rental_uris": {"ios": "https://dc.lft.to/lastmile_qr_scan", "android": "https://dc.lft.to/lastmile_qr_scan"}, "lat": 38.92887233333333, "is_disabled": 0, "bike_id": "1d5ca53a05a49d0b511d875c94c10aec", "name": "1d5ca53a05a49d0b511d875c94c10aec", "type": "electric_scooter", "fusion_lon": 0.0, "is_reserved": 0, "fusion_lat": 0.0, "lon": -77.02634783333333}, {"rental_uris": {"ios": "https://dc.lft.to/lastmile_qr_scan", "android": "https://dc.lft.to/lastmile_qr_scan"}, "lat": 38.9062035, "is_disabled": 0, "bike_id": "59bb72501b1b19ad91cae307fff2a610", "name": "59bb72501b1b19ad91cae307fff2a610", "type": "electric_scooter", "fusion_lon": 0.0, "is_reserved": 0, "fusion_lat": 0.0, "lon": -77.03730316666666}, {"rental_uris": {"ios": "https://dc.lft.to/lastmile_qr_scan", "android": "https://dc.lft.to/lastmile_qr_scan"}, "lat": 38.917125666666664, "is_disabled": 0, "bike_id": "d8668577e87ef2456dd03181b5bf3cfa", "name": "d8668577e87ef2456dd03181b5bf3cfa", "type": "electric_scooter", "fusion_lon": 0.0, "is_reserved": 0, "fusion_lat": 0.0, "lon": -77.032143}, {"rental_uris": {"ios": "https://dc.lft.to/lastmile_qr_scan", "android": "https://dc.lft.to/lastmile_qr_scan"}, "lat": 38.90156533333333, "is_disabled": 0, "bike_id": "0c6875e5726e08ee4ed2f698ef6fbabe", "name": "0c6875e5726e08ee4ed2f698ef6fbabe", "type": "electric_scooter", "fusion_lon": 0.0, "is_reserved": 0, "fusion_lat": 0.0, "lon": -77.033038}, {"rental_uris": {"ios": "https://dc.lft.to/lastmile_qr_scan", "android": "https://dc.lft.to/lastmile_qr_scan"}, "lat": 38.8839285, "is_disabled": 0, "bike_id": "61db2718267a6140b70763eba2573af1", "name": "61db2718267a6140b70763eba2573af1", "type": "electric_scooter", "fusion_lon": 0.0, "is_reserved": 0, "fusion_lat": 0.0, "lon": -76.97465}, {"rental_uris": {"ios": "https://dc.lft.to/lastmile_qr_scan", "android": "https://dc.lft.to/lastmile_qr_scan"}, "lat": 38.8947695, "is_disabled": 0, "bike_id": "d7969e916b0c0ff31ee5d2393fbe230d", "name": "d7969e916b0c0ff31ee5d2393fbe230d", "type": "electric_scooter", "fusion_lon": 0.0, "is_reserved": 0, "fusion_lat": 0.0, "lon": -76.933313}, {"rental_uris": {"ios": "https://dc.lft.to/lastmile_qr_scan", "android": "https://dc.lft.to/lastmile_qr_scan"}, "lat": 38.895077, "is_disabled": 0, "bike_id": "52dbcf980277b7c4ff7ece39b7e49f61", "name": "52dbcf980277b7c4ff7ece39b7e49f61", "type": "electric_scooter", "fusion_lon": 0.0, "is_reserved": 0, "fusion_lat": 0.0, "lon": -77.04677883333333}, {"rental_uris": {"ios": "https://dc.lft.to/lastmile_qr_scan", "android": "https://dc.lft.to/lastmile_qr_scan"}, "lat": 38.896140333333335, "is_disabled": 0, "bike_id": "8bd10b9db12d06a47abbde4efa415afd", "name": "8bd10b9db12d06a47abbde4efa415afd", "type": "electric_scooter", "fusion_lon": 0.0, "is_reserved": 0, "fusion_lat": 0.0, "lon": -76.99936}, {"rental_uris": {"ios": "https://dc.lft.to/lastmile_qr_scan", "android": "https://dc.lft.to/lastmile_qr_scan"}, "lat": 38.93323316666667, "is_disabled": 0, "bike_id": "e0f7695a39ddebcf8626c1b1b6f94f06", "name": "e0f7695a39ddebcf8626c1b1b6f94f06", "type": "electric_scooter", "fusion_lon": 0.0, "is_reserved": 0, "fusion_lat": 0.0, "lon": -77.03791166666667}, {"rental_uris": {"ios": "https://dc.lft.to/lastmile_qr_scan", "android": "https://dc.lft.to/lastmile_qr_scan"}, "lat": 38.883142166666666, "is_disabled": 0, "bike_id": "0bbfae24e1791e52b5f2d8d4dacfa6eb", "name": "0bbfae24e1791e52b5f2d8d4dacfa6eb", "type": "electric_scooter", "fusion_lon": 0.0, "is_reserved": 0, "fusion_lat": 0.0, "lon": -76.98764333333334}, {"rental_uris": {"ios": "https://dc.lft.to/lastmile_qr_scan", "android": "https://dc.lft.to/lastmile_qr_scan"}, "lat": 38.92381316666667, "is_disabled": 0, "bike_id": "2ee7c323cd4be34758a89c30a553d96f", "name": "2ee7c323cd4be34758a89c30a553d96f", "type": "electric_scooter", "fusion_lon": 0.0, "is_reserved": 0, "fusion_lat": 0.0, "lon": -77.04090466666666}, {"rental_uris": {"ios": "https://dc.lft.to/lastmile_qr_scan", "android": "https://dc.lft.to/lastmile_qr_scan"}, "lat": 38.92505933333333, "is_disabled": 0, "bike_id": "0248fe150412dabed93c2109fe2d07ad", "name": "0248fe150412dabed93c2109fe2d07ad", "type": "electric_scooter", "fusion_lon": 0.0, "is_reserved": 0, "fusion_lat": 0.0, "lon": -77.025884}, {"rental_uris": {"ios": "https://dc.lft.to/lastmile_qr_scan", "android": "https://dc.lft.to/lastmile_qr_scan"}, "lat": 38.90446133333333, "is_disabled": 0, "bike_id": "e3b0d74e2f4b7a903f5d4947a70d4c60", "name": "e3b0d74e2f4b7a903f5d4947a70d4c60", "type": "electric_scooter", "fusion_lon": 0.0, "is_reserved": 0, "fusion_lat": 0.0, "lon": -77.02867833333333}, {"rental_uris": {"ios": "https://dc.lft.to/lastmile_qr_scan", "android": "https://dc.lft.to/lastmile_qr_scan"}, "lat": 38.903232, "is_disabled": 0, "bike_id": "0324199ca17cb3d103e12333bca1943a", "name": "0324199ca17cb3d103e12333bca1943a", "type": "electric_scooter", "fusion_lon": 0.0, "is_reserved": 0, "fusion_lat": 0.0, "lon": -77.0489075}, {"rental_uris": {"ios": "https://dc.lft.to/lastmile_qr_scan", "android": "https://dc.lft.to/lastmile_qr_scan"}, "lat": 38.95128733333333, "is_disabled": 0, "bike_id": "47cd06f07d055684e624e9609129e651", "name": "47cd06f07d055684e624e9609129e651", "type": "electric_scooter", "fusion_lon": 0.0, "is_reserved": 0, "fusion_lat": 0.0, "lon": -77.02724883333333}, {"rental_uris": {"ios": "https://dc.lft.to/lastmile_qr_scan", "android": "https://dc.lft.to/lastmile_qr_scan"}, "lat": 38.9359165, "is_disabled": 0, "bike_id": "24607857415ae27d8be82701980cc3ad", "name": "24607857415ae27d8be82701980cc3ad", "type": "electric_scooter", "fusion_lon": 0.0, "is_reserved": 0, "fusion_lat": 0.0, "lon": -77.03371233333333}, {"rental_uris": {"ios": "https://dc.lft.to/lastmile_qr_scan", "android": "https://dc.lft.to/lastmile_qr_scan"}, "lat": 38.919887, "is_disabled": 0, "bike_id": "18c8dd82ffca1b9d672a6f2124270ea3", "name": "18c8dd82ffca1b9d672a6f2124270ea3", "type": "electric_bike", "fusion_lon": 0.0, "is_reserved": 0, "fusion_lat": 0.0, "lon": -76.98530966666667}, {"rental_uris": {"ios": "https://dc.lft.to/lastmile_qr_scan", "android": "https://dc.lft.to/lastmile_qr_scan"}, "lat": 38.862649166666664, "is_disabled": 0, "bike_id": "67095aa1b51fa914e2238f65da3d620b", "name": "67095aa1b51fa914e2238f65da3d620b", "type": "electric_bike", "fusion_lon": 0.0, "is_reserved": 0, "fusion_lat": 0.0, "lon": -76.994711}, {"rental_uris": {"ios": "https://dc.lft.to/lastmile_qr_scan", "android": "https://dc.lft.to/lastmile_qr_scan"}, "lat": 38.92625916666667, "is_disabled": 0, "bike_id": "e14da2b531e090f2656f3a2db592dbc2", "name": "e14da2b531e090f2656f3a2db592dbc2", "type": "electric_scooter", "fusion_lon": 0.0, "is_reserved": 0, "fusion_lat": 0.0, "lon": -77.037866}, {"rental_uris": {"ios": "https://dc.lft.to/lastmile_qr_scan", "android": "https://dc.lft.to/lastmile_qr_scan"}, "lat": 38.90153516666667, "is_disabled": 0, "bike_id": "f57d3e2efc23d2f4a79f6e2fbbf8b6f1", "name": "f57d3e2efc23d2f4a79f6e2fbbf8b6f1", "type": "electric_scooter", "fusion_lon": 0.0, "is_reserved": 0, "fusion_lat": 0.0, "lon": -76.98073666666667}, {"rental_uris": {"ios": "https://dc.lft.to/lastmile_qr_scan", "android": "https://dc.lft.to/lastmile_qr_scan"}, "lat": 38.99233516666666, "is_disabled": 0, "bike_id": "b27673329dfdc79e55381ccc2b66c08a", "name": "b27673329dfdc79e55381ccc2b66c08a", "type": "electric_bike", "fusion_lon": 0.0, "is_reserved": 0, "fusion_lat": 0.0, "lon": -76.87775133333334}, {"rental_uris": {"ios": "https://dc.lft.to/lastmile_qr_scan", "android": "https://dc.lft.to/lastmile_qr_scan"}, "lat": 38.8935705, "is_disabled": 0, "bike_id": "30a4af3cde3648941fb8a77b62de9fc0", "name": "30a4af3cde3648941fb8a77b62de9fc0", "type": "electric_scooter", "fusion_lon": 0.0, "is_reserved": 0, "fusion_lat": 0.0, "lon": -77.00340183333333}, {"rental_uris": {"ios": "https://dc.lft.to/lastmile_qr_scan", "android": "https://dc.lft.to/lastmile_qr_scan"}, "lat": 38.85547716666667, "is_disabled": 0, "bike_id": "79e70c47b444a327c4358937eb833531", "name": "79e70c47b444a327c4358937eb833531", "type": "electric_bike", "fusion_lon": 0.0, "is_reserved": 0, "fusion_lat": 0.0, "lon": -77.10718216666666}, {"rental_uris": {"ios": "https://dc.lft.to/lastmile_qr_scan", "android": "https://dc.lft.to/lastmile_qr_scan"}, "lat": 38.90028866666667, "is_disabled": 0, "bike_id": "928dcb6235007604dbd6bd66373d3020", "name": "928dcb6235007604dbd6bd66373d3020", "type": "electric_scooter", "fusion_lon": 0.0, "is_reserved": 0, "fusion_lat": 0.0, "lon": -76.9877905}, {"rental_uris": {"ios": "https://dc.lft.to/lastmile_qr_scan", "android": "https://dc.lft.to/lastmile_qr_scan"}, "lat": 38.907266666666665, "is_disabled": 0, "bike_id": "201e3e637d2073255f3ea605d667e3c1", "name": "201e3e637d2073255f3ea605d667e3c1", "type": "electric_scooter", "fusion_lon": 0.0, "is_reserved": 0, "fusion_lat": 0.0, "lon": -77.0451675}, {"rental_uris": {"ios": "https://dc.lft.to/lastmile_qr_scan", "android": "https://dc.lft.to/lastmile_qr_scan"}, "lat": 38.889635, "is_disabled": 0, "bike_id": "fa5042cad32469134dcddf26abf8e78e", "name": "fa5042cad32469134dcddf26abf8e78e", "type": "electric_bike", "fusion_lon": 0.0, "is_reserved": 0, "fusion_lat": 0.0, "lon": -76.948727}, {"rental_uris": {"ios": "https://dc.lft.to/lastmile_qr_scan", "android": "https://dc.lft.to/lastmile_qr_scan"}, "lat": 38.97577316666667, "is_disabled": 0, "bike_id": "8b5b7fed108fa9b70840aa094d128862", "name": "8b5b7fed108fa9b70840aa094d128862", "type": "electric_bike", "fusion_lon": 0.0, "is_reserved": 0, "fusion_lat": 0.0, "lon": -76.96387916666667}, {"rental_uris": {"ios": "https://dc.lft.to/lastmile_qr_scan", "android": "https://dc.lft.to/lastmile_qr_scan"}, "lat": 38.8995505, "is_disabled": 0, "bike_id": "f71ea11df723b6e13a131819cdbe10c0", "name": "f71ea11df723b6e13a131819cdbe10c0", "type": "electric_scooter", "fusion_lon": 0.0, "is_reserved": 0, "fusion_lat": 0.0, "lon": -77.04793766666667}, {"rental_uris": {"ios": "https://dc.lft.to/lastmile_qr_scan", "android": "https://dc.lft.to/lastmile_qr_scan"}, "lat": 38.936135666666665, "is_disabled": 0, "bike_id": "e3c98272b0f3d41274d6922a81990a64", "name": "e3c98272b0f3d41274d6922a81990a64", "type": "electric_scooter", "fusion_lon": 0.0, "is_reserved": 0, "fusion_lat": 0.0, "lon": -77.03722133333333}, {"rental_uris": {"ios": "https://dc.lft.to/lastmile_qr_scan", "android": "https://dc.lft.to/lastmile_qr_scan"}, "lat": 38.92327183333333, "is_disabled": 0, "bike_id": "3a33870dea0132019a72a7bd1478716a", "name": "3a33870dea0132019a72a7bd1478716a", "type": "electric_scooter", "fusion_lon": 0.0, "is_reserved": 0, "fusion_lat": 0.0, "lon": -77.02966833333333}, {"rental_uris": {"ios": "https://dc.lft.to/lastmile_qr_scan", "android": "https://dc.lft.to/lastmile_qr_scan"}, "lat": 38.904562, "is_disabled": 0, "bike_id": "6050dda1279ef66124025b48c04d659c", "name": "6050dda1279ef66124025b48c04d659c", "type": "electric_scooter", "fusion_lon": 0.0, "is_reserved": 0, "fusion_lat": 0.0, "lon": -77.04349366666666}, {"rental_uris": {"ios": "https://dc.lft.to/lastmile_qr_scan", "android": "https://dc.lft.to/lastmile_qr_scan"}, "lat": 38.899541166666666, "is_disabled": 0, "bike_id": "4d27fd3cfcf489c2177b92259dcd82be", "name": "4d27fd3cfcf489c2177b92259dcd82be", "type": "electric_scooter", "fusion_lon": 0.0, "is_reserved": 0, "fusion_lat": 0.0, "lon": -77.02487966666666}, {"rental_uris": {"ios": "https://dc.lft.to/lastmile_qr_scan", "android": "https://dc.lft.to/lastmile_qr_scan"}, "lat": 38.91959466666667, "is_disabled": 0, "bike_id": "b1dfe0d7519615f95f545a350b8f710e", "name": "b1dfe0d7519615f95f545a350b8f710e", "type": "electric_scooter", "fusion_lon": 0.0, "is_reserved": 0, "fusion_lat": 0.0, "lon": -77.071323}, {"rental_uris": {"ios": "https://dc.lft.to/lastmile_qr_scan", "android": "https://dc.lft.to/lastmile_qr_scan"}, "lat": 38.91286483333333, "is_disabled": 0, "bike_id": "6cab7344b7a3840fe9da569761c85f4a", "name": "6cab7344b7a3840fe9da569761c85f4a", "type": "electric_scooter", "fusion_lon": 0.0, "is_reserved": 0, "fusion_lat": 0.0, "lon": -77.00869083333333}, {"rental_uris": {"ios": "https://dc.lft.to/lastmile_qr_scan", "android": "https://dc.lft.to/lastmile_qr_scan"}, "lat": 38.90333783333333, "is_disabled": 0, "bike_id": "a6b83e9d051ce6a81110e80b79c5d75b", "name": "a6b83e9d051ce6a81110e80b79c5d75b", "type": "electric_scooter", "fusion_lon": 0.0, "is_reserved": 0, "fusion_lat": 0.0, "lon": -77.03546233333333}, {"rental_uris": {"ios": "https://dc.lft.to/lastmile_qr_scan", "android": "https://dc.lft.to/lastmile_qr_scan"}, "lat": 38.915622666666664, "is_disabled": 0, "bike_id": "471ffa8448e39448a060b29bc4ad3542", "name": "471ffa8448e39448a060b29bc4ad3542", "type": "electric_scooter", "fusion_lon": 0.0, "is_reserved": 0, "fusion_lat": 0.0, "lon": -77.00590966666667}, {"rental_uris": {"ios": "https://dc.lft.to/lastmile_qr_scan", "android": "https://dc.lft.to/lastmile_qr_scan"}, "lat": 38.922185166666665, "is_disabled": 0, "bike_id": "5affa6d3b54fbe8b4ab6d4dfb7f64311", "name": "5affa6d3b54fbe8b4ab6d4dfb7f64311", "type": "electric_scooter", "fusion_lon": 0.0, "is_reserved": 0, "fusion_lat": 0.0, "lon": -77.04334966666667}, {"rental_uris": {"ios": "https://dc.lft.to/lastmile_qr_scan", "android": "https://dc.lft.to/lastmile_qr_scan"}, "lat": 38.8623795, "is_disabled": 0, "bike_id": "fd4876b989af57a4785374effd873393", "name": "fd4876b989af57a4785374effd873393", "type": "electric_scooter", "fusion_lon": 0.0, "is_reserved": 0, "fusion_lat": 0.0, "lon": -76.99484533333333}, {"rental_uris": {"ios": "https://dc.lft.to/lastmile_qr_scan", "android": "https://dc.lft.to/lastmile_qr_scan"}, "lat": 38.890109, "is_disabled": 0, "bike_id": "5e3e7443ccb4fa6f0593c32cc02c8b04", "name": "5e3e7443ccb4fa6f0593c32cc02c8b04", "type": "electric_scooter", "fusion_lon": 0.0, "is_reserved": 0, "fusion_lat": 0.0, "lon": -76.93839166666666}, {"rental_uris": {"ios": "https://dc.lft.to/lastmile_qr_scan", "android": "https://dc.lft.to/lastmile_qr_scan"}, "lat": 39.024163, "is_disabled": 0, "bike_id": "1066947eb75da4be9bc0ee74b31c3738", "name": "1066947eb75da4be9bc0ee74b31c3738", "type": "electric_bike", "fusion_lon": 0.0, "is_reserved": 0, "fusion_lat": 0.0, "lon": -77.12505316666666}, {"rental_uris": {"ios": "https://dc.lft.to/lastmile_qr_scan", "android": "https://dc.lft.to/lastmile_qr_scan"}, "lat": 38.904465, "is_disabled": 0, "bike_id": "cd5b2f08077d4a2d150c38c4c1fb6acc", "name": "cd5b2f08077d4a2d150c38c4c1fb6acc", "type": "electric_scooter", "fusion_lon": 0.0, "is_reserved": 0, "fusion_lat": 0.0, "lon": -77.020036}, {"rental_uris": {"ios": "https://dc.lft.to/lastmile_qr_scan", "android": "https://dc.lft.to/lastmile_qr_scan"}, "lat": 38.928584, "is_disabled": 0, "bike_id": "387fae85b6006819b4f8eea587f024fc", "name": "387fae85b6006819b4f8eea587f024fc", "type": "electric_scooter", "fusion_lon": 0.0, "is_reserved": 0, "fusion_lat": 0.0, "lon": -77.03313533333333}, {"rental_uris": {"ios": "https://dc.lft.to/lastmile_qr_scan", "android": "https://dc.lft.to/lastmile_qr_scan"}, "lat": 38.962098166666664, "is_disabled": 0, "bike_id": "1fd45f5af4351a8853f8b06645ae4950", "name": "1fd45f5af4351a8853f8b06645ae4950", "type": "electric_scooter", "fusion_lon": 0.0, "is_reserved": 0, "fusion_lat": 0.0, "lon": -77.02346266666666}, {"rental_uris": {"ios": "https://dc.lft.to/lastmile_qr_scan", "android": "https://dc.lft.to/lastmile_qr_scan"}, "lat": 38.91262833333333, "is_disabled": 0, "bike_id": "0b4d8beaaf8b1cf142abc138cc7f5c1e", "name": "0b4d8beaaf8b1cf142abc138cc7f5c1e", "type": "electric_scooter", "fusion_lon": 0.0, "is_reserved": 0, "fusion_lat": 0.0, "lon": -77.0373375}, {"rental_uris": {"ios": "https://dc.lft.to/lastmile_qr_scan", "android": "https://dc.lft.to/lastmile_qr_scan"}, "lat": 38.892197, "is_disabled": 0, "bike_id": "1b3ef5fd1500fcaf6efae5b99029791e", "name": "1b3ef5fd1500fcaf6efae5b99029791e", "type": "electric_scooter", "fusion_lon": 0.0, "is_reserved": 0, "fusion_lat": 0.0, "lon": -77.03226883333333}, {"rental_uris": {"ios": "https://dc.lft.to/lastmile_qr_scan", "android": "https://dc.lft.to/lastmile_qr_scan"}, "lat": 38.923438, "is_disabled": 0, "bike_id": "b24db530bc325768b26880e5470fadb1", "name": "b24db530bc325768b26880e5470fadb1", "type": "electric_scooter", "fusion_lon": 0.0, "is_reserved": 0, "fusion_lat": 0.0, "lon": -77.05119866666666}, {"rental_uris": {"ios": "https://dc.lft.to/lastmile_qr_scan", "android": "https://dc.lft.to/lastmile_qr_scan"}, "lat": 38.903336, "is_disabled": 0, "bike_id": "46b5233f7e3e45c872c0590d93900ba3", "name": "46b5233f7e3e45c872c0590d93900ba3", "type": "electric_scooter", "fusion_lon": 0.0, "is_reserved": 0, "fusion_lat": 0.0, "lon": -77.02644033333333}, {"rental_uris": {"ios": "https://dc.lft.to/lastmile_qr_scan", "android": "https://dc.lft.to/lastmile_qr_scan"}, "lat": 38.902356833333336, "is_disabled": 0, "bike_id": "ec508eb8eca24d47a749756090b3c6af", "name": "ec508eb8eca24d47a749756090b3c6af", "type": "electric_scooter", "fusion_lon": 0.0, "is_reserved": 0, "fusion_lat": 0.0, "lon": -77.00199116666667}, {"rental_uris": {"ios": "https://dc.lft.to/lastmile_qr_scan", "android": "https://dc.lft.to/lastmile_qr_scan"}, "lat": 38.934476833333335, "is_disabled": 0, "bike_id": "0b0f96bcd7626016220663696a24505c", "name": "0b0f96bcd7626016220663696a24505c", "type": "electric_scooter", "fusion_lon": 0.0, "is_reserved": 0, "fusion_lat": 0.0, "lon": -77.02730116666666}, {"rental_uris": {"ios": "https://dc.lft.to/lastmile_qr_scan", "android": "https://dc.lft.to/lastmile_qr_scan"}, "lat": 38.90543066666667, "is_disabled": 0, "bike_id": "1ffbb9ac460c860d6a458b71eaefcf49", "name": "1ffbb9ac460c860d6a458b71eaefcf49", "type": "electric_scooter", "fusion_lon": 0.0, "is_reserved": 0, "fusion_lat": 0.0, "lon": -77.03974916666667}, {"rental_uris": {"ios": "https://dc.lft.to/lastmile_qr_scan", "android": "https://dc.lft.to/lastmile_qr_scan"}, "lat": 38.86559466666667, "is_disabled": 0, "bike_id": "f51a81e00feba281420ebeeccb66592b", "name": "f51a81e00feba281420ebeeccb66592b", "type": "electric_scooter", "fusion_lon": 0.0, "is_reserved": 0, "fusion_lat": 0.0, "lon": -76.97422633333333}, {"rental_uris": {"ios": "https://dc.lft.to/lastmile_qr_scan", "android": "https://dc.lft.to/lastmile_qr_scan"}, "lat": 38.897439166666665, "is_disabled": 0, "bike_id": "86a356fb8fae042671720d36e0875b64", "name": "86a356fb8fae042671720d36e0875b64", "type": "electric_scooter", "fusion_lon": 0.0, "is_reserved": 0, "fusion_lat": 0.0, "lon": -77.00469266666667}, {"rental_uris": {"ios": "https://dc.lft.to/lastmile_qr_scan", "android": "https://dc.lft.to/lastmile_qr_scan"}, "lat": 38.872905833333334, "is_disabled": 0, "bike_id": "491cebd3cd7fead6921798f1dfd7ab38", "name": "491cebd3cd7fead6921798f1dfd7ab38", "type": "electric_scooter", "fusion_lon": 0.0, "is_reserved": 0, "fusion_lat": 0.0, "lon": -77.01093266666666}, {"rental_uris": {"ios": "https://dc.lft.to/lastmile_qr_scan", "android": "https://dc.lft.to/lastmile_qr_scan"}, "lat": 38.9084545, "is_disabled": 0, "bike_id": "8f1ad08a331211cd30e05fab42137607", "name": "8f1ad08a331211cd30e05fab42137607", "type": "electric_scooter", "fusion_lon": 0.0, "is_reserved": 0, "fusion_lat": 0.0, "lon": -77.03300033333333}, {"rental_uris": {"ios": "https://dc.lft.to/lastmile_qr_scan", "android": "https://dc.lft.to/lastmile_qr_scan"}, "lat": 38.89954633333333, "is_disabled": 0, "bike_id": "6ed5a8df6108c614669b4b832b669386", "name": "6ed5a8df6108c614669b4b832b669386", "type": "electric_scooter", "fusion_lon": 0.0, "is_reserved": 0, "fusion_lat": 0.0, "lon": -76.98556933333333}, {"rental_uris": {"ios": "https://dc.lft.to/lastmile_qr_scan", "android": "https://dc.lft.to/lastmile_qr_scan"}, "lat": 38.899854, "is_disabled": 0, "bike_id": "298681b0679a41a9ea8235b069a43a6c", "name": "298681b0679a41a9ea8235b069a43a6c", "type": "electric_scooter", "fusion_lon": 0.0, "is_reserved": 0, "fusion_lat": 0.0, "lon": -77.0010185}, {"rental_uris": {"ios": "https://dc.lft.to/lastmile_qr_scan", "android": "https://dc.lft.to/lastmile_qr_scan"}, "lat": 38.9165885, "is_disabled": 0, "bike_id": "812cc85a159967f86989e3e45aeda4b6", "name": "812cc85a159967f86989e3e45aeda4b6", "type": "electric_scooter", "fusion_lon": 0.0, "is_reserved": 0, "fusion_lat": 0.0, "lon": -77.0254535}, {"rental_uris": {"ios": "https://dc.lft.to/lastmile_qr_scan", "android": "https://dc.lft.to/lastmile_qr_scan"}, "lat": 38.900018, "is_disabled": 0, "bike_id": "6b6a3e12e08cf460807963abfa2fdc4c", "name": "6b6a3e12e08cf460807963abfa2fdc4c", "type": "electric_scooter", "fusion_lon": 0.0, "is_reserved": 0, "fusion_lat": 0.0, "lon": -77.04653716666667}, {"rental_uris": {"ios": "https://dc.lft.to/lastmile_qr_scan", "android": "https://dc.lft.to/lastmile_qr_scan"}, "lat": 38.86164516666667, "is_disabled": 0, "bike_id": "33e601765f9b0eff5598114174114408", "name": "33e601765f9b0eff5598114174114408", "type": "electric_bike", "fusion_lon": 0.0, "is_reserved": 0, "fusion_lat": 0.0, "lon": -77.1309345}, {"rental_uris": {"ios": "https://dc.lft.to/lastmile_qr_scan", "android": "https://dc.lft.to/lastmile_qr_scan"}, "lat": 38.8971155, "is_disabled": 0, "bike_id": "6181381efcf7b982d64d66ab1a5cbe94", "name": "6181381efcf7b982d64d66ab1a5cbe94", "type": "electric_scooter", "fusion_lon": 0.0, "is_reserved": 0, "fusion_lat": 0.0, "lon": -77.0313605}, {"rental_uris": {"ios": "https://dc.lft.to/lastmile_qr_scan", "android": "https://dc.lft.to/lastmile_qr_scan"}, "lat": 38.887329, "is_disabled": 0, "bike_id": "ccd15cabb0b6d434dfd05343db1817db", "name": "ccd15cabb0b6d434dfd05343db1817db", "type": "electric_scooter", "fusion_lon": 0.0, "is_reserved": 0, "fusion_lat": 0.0, "lon": -77.03175933333333}, {"rental_uris": {"ios": "https://dc.lft.to/lastmile_qr_scan", "android": "https://dc.lft.to/lastmile_qr_scan"}, "lat": 38.92199133333333, "is_disabled": 0, "bike_id": "3edb79fb43a19bb5e51ecfc3599d3f85", "name": "3edb79fb43a19bb5e51ecfc3599d3f85", "type": "electric_scooter", "fusion_lon": 0.0, "is_reserved": 0, "fusion_lat": 0.0, "lon": -77.04260166666667}, {"rental_uris": {"ios": "https://dc.lft.to/lastmile_qr_scan", "android": "https://dc.lft.to/lastmile_qr_scan"}, "lat": 38.93290783333333, "is_disabled": 0, "bike_id": "58e1132b708b1a46c9bfd955eaa85663", "name": "58e1132b708b1a46c9bfd955eaa85663", "type": "electric_scooter", "fusion_lon": 0.0, "is_reserved": 0, "fusion_lat": 0.0, "lon": -77.0243935}, {"rental_uris": {"ios": "https://dc.lft.to/lastmile_qr_scan", "android": "https://dc.lft.to/lastmile_qr_scan"}, "lat": 38.86246516666667, "is_disabled": 0, "bike_id": "b2464fbe24bac4d4a60f3208cb1ae0db", "name": "b2464fbe24bac4d4a60f3208cb1ae0db", "type": "electric_scooter", "fusion_lon": 0.0, "is_reserved": 0, "fusion_lat": 0.0, "lon": -76.99498}, {"rental_uris": {"ios": "https://dc.lft.to/lastmile_qr_scan", "android": "https://dc.lft.to/lastmile_qr_scan"}, "lat": 38.93854916666667, "is_disabled": 0, "bike_id": "3c0f8698d08ce8ea397f8fc1c97e6b63", "name": "3c0f8698d08ce8ea397f8fc1c97e6b63", "type": "electric_scooter", "fusion_lon": 0.0, "is_reserved": 0, "fusion_lat": 0.0, "lon": -77.02463433333334}, {"rental_uris": {"ios": "https://dc.lft.to/lastmile_qr_scan", "android": "https://dc.lft.to/lastmile_qr_scan"}, "lat": 38.922406333333335, "is_disabled": 0, "bike_id": "d3ad3f09207f8aebce82f42f2ec7f5d5", "name": "d3ad3f09207f8aebce82f42f2ec7f5d5", "type": "electric_scooter", "fusion_lon": 0.0, "is_reserved": 0, "fusion_lat": 0.0, "lon": -77.03519933333334}, {"rental_uris": {"ios": "https://dc.lft.to/lastmile_qr_scan", "android": "https://dc.lft.to/lastmile_qr_scan"}, "lat": 38.90954583333333, "is_disabled": 0, "bike_id": "a7ab25f61a896b40cf36b66d9a3296d9", "name": "a7ab25f61a896b40cf36b66d9a3296d9", "type": "electric_scooter", "fusion_lon": 0.0, "is_reserved": 0, "fusion_lat": 0.0, "lon": -76.999142}, {"rental_uris": {"ios": "https://dc.lft.to/lastmile_qr_scan", "android": "https://dc.lft.to/lastmile_qr_scan"}, "lat": 38.876802833333336, "is_disabled": 0, "bike_id": "75b19ad41b4d572cdf722edbe661ee3c", "name": "75b19ad41b4d572cdf722edbe661ee3c", "type": "electric_scooter", "fusion_lon": 0.0, "is_reserved": 0, "fusion_lat": 0.0, "lon": -77.007043}, {"rental_uris": {"ios": "https://dc.lft.to/lastmile_qr_scan", "android": "https://dc.lft.to/lastmile_qr_scan"}, "lat": 38.902893, "is_disabled": 0, "bike_id": "5f4aafa64f8622187bf433772d14b4d7", "name": "5f4aafa64f8622187bf433772d14b4d7", "type": "electric_scooter", "fusion_lon": 0.0, "is_reserved": 0, "fusion_lat": 0.0, "lon": -77.00225233333333}, {"rental_uris": {"ios": "https://dc.lft.to/lastmile_qr_scan", "android": "https://dc.lft.to/lastmile_qr_scan"}, "lat": 38.94163833333333, "is_disabled": 0, "bike_id": "f26ebcf4922f0a0c6670065403f7a917", "name": "f26ebcf4922f0a0c6670065403f7a917", "type": "electric_scooter", "fusion_lon": 0.0, "is_reserved": 0, "fusion_lat": 0.0, "lon": -77.02559866666667}, {"rental_uris": {"ios": "https://dc.lft.to/lastmile_qr_scan", "android": "https://dc.lft.to/lastmile_qr_scan"}, "lat": 38.89332683333333, "is_disabled": 0, "bike_id": "c52afaef77ce053e4f2e32319b723ca7", "name": "c52afaef77ce053e4f2e32319b723ca7", "type": "electric_scooter", "fusion_lon": 0.0, "is_reserved": 0, "fusion_lat": 0.0, "lon": -77.04660866666667}, {"rental_uris": {"ios": "https://dc.lft.to/lastmile_qr_scan", "android": "https://dc.lft.to/lastmile_qr_scan"}, "lat": 38.88627533333333, "is_disabled": 0, "bike_id": "e35c89234cc984b7229aabe86d665d58", "name": "e35c89234cc984b7229aabe86d665d58", "type": "electric_scooter", "fusion_lon": 0.0, "is_reserved": 0, "fusion_lat": 0.0, "lon": -77.0316155}, {"rental_uris": {"ios": "https://dc.lft.to/lastmile_qr_scan", "android": "https://dc.lft.to/lastmile_qr_scan"}, "lat": 38.90402433333333, "is_disabled": 0, "bike_id": "42de1401b702be929120a62b4fbde3e8", "name": "42de1401b702be929120a62b4fbde3e8", "type": "electric_scooter", "fusion_lon": 0.0, "is_reserved": 0, "fusion_lat": 0.0, "lon": -77.03251683333333}, {"rental_uris": {"ios": "https://dc.lft.to/lastmile_qr_scan", "android": "https://dc.lft.to/lastmile_qr_scan"}, "lat": 38.911045333333334, "is_disabled": 0, "bike_id": "241ed5d23bcdfed10d841de0f2681aa0", "name": "241ed5d23bcdfed10d841de0f2681aa0", "type": "electric_scooter", "fusion_lon": 0.0, "is_reserved": 0, "fusion_lat": 0.0, "lon": -77.04405116666666}, {"rental_uris": {"ios": "https://dc.lft.to/lastmile_qr_scan", "android": "https://dc.lft.to/lastmile_qr_scan"}, "lat": 38.884183666666665, "is_disabled": 0, "bike_id": "3d0226293f2cc8d0a6a82b70e6afb1ae", "name": "3d0226293f2cc8d0a6a82b70e6afb1ae", "type": "electric_scooter", "fusion_lon": 0.0, "is_reserved": 0, "fusion_lat": 0.0, "lon": -77.0258}, {"rental_uris": {"ios": "https://dc.lft.to/lastmile_qr_scan", "android": "https://dc.lft.to/lastmile_qr_scan"}, "lat": 38.955664, "is_disabled": 0, "bike_id": "f70c583a81d6c8dcfff9628352b8c33a", "name": "f70c583a81d6c8dcfff9628352b8c33a", "type": "electric_scooter", "fusion_lon": 0.0, "is_reserved": 0, "fusion_lat": 0.0, "lon": -77.00630883333334}, {"rental_uris": {"ios": "https://dc.lft.to/lastmile_qr_scan", "android": "https://dc.lft.to/lastmile_qr_scan"}, "lat": 38.9413255, "is_disabled": 0, "bike_id": "ff157de8dda48f68873e65b7eb0d4a45", "name": "ff157de8dda48f68873e65b7eb0d4a45", "type": "electric_scooter", "fusion_lon": 0.0, "is_reserved": 0, "fusion_lat": 0.0, "lon": -77.092057}, {"rental_uris": {"ios": "https://dc.lft.to/lastmile_qr_scan", "android": "https://dc.lft.to/lastmile_qr_scan"}, "lat": 38.9007535, "is_disabled": 0, "bike_id": "10df919ddb36a426341d50308af12ac9", "name": "10df919ddb36a426341d50308af12ac9", "type": "electric_scooter", "fusion_lon": 0.0, "is_reserved": 0, "fusion_lat": 0.0, "lon": -77.001986}, {"rental_uris": {"ios": "https://dc.lft.to/lastmile_qr_scan", "android": "https://dc.lft.to/lastmile_qr_scan"}, "lat": 38.917604833333336, "is_disabled": 0, "bike_id": "bea9bebd629dd5c587eb93e35de055a0", "name": "bea9bebd629dd5c587eb93e35de055a0", "type": "electric_scooter", "fusion_lon": 0.0, "is_reserved": 0, "fusion_lat": 0.0, "lon": -77.02495683333333}, {"rental_uris": {"ios": "https://dc.lft.to/lastmile_qr_scan", "android": "https://dc.lft.to/lastmile_qr_scan"}, "lat": 38.852173666666665, "is_disabled": 0, "bike_id": "9c275cc487adde1a028a210f34e237e8", "name": "9c275cc487adde1a028a210f34e237e8", "type": "electric_bike", "fusion_lon": 0.0, "is_reserved": 0, "fusion_lat": 0.0, "lon": -77.12957633333333}, {"rental_uris": {"ios": "https://dc.lft.to/lastmile_qr_scan", "android": "https://dc.lft.to/lastmile_qr_scan"}, "lat": 38.894833, "is_disabled": 0, "bike_id": "7d903cb2490956130578c5b1b22e6035", "name": "7d903cb2490956130578c5b1b22e6035", "type": "electric_scooter", "fusion_lon": 0.0, "is_reserved": 0, "fusion_lat": 0.0, "lon": -76.99518116666667}, {"rental_uris": {"ios": "https://dc.lft.to/lastmile_qr_scan", "android": "https://dc.lft.to/lastmile_qr_scan"}, "lat": 38.91255616666667, "is_disabled": 0, "bike_id": "c1180135219c485fc7061fdf25ee7432", "name": "c1180135219c485fc7061fdf25ee7432", "type": "electric_scooter", "fusion_lon": 0.0, "is_reserved": 0, "fusion_lat": 0.0, "lon": -77.00933083333334}, {"rental_uris": {"ios": "https://dc.lft.to/lastmile_qr_scan", "android": "https://dc.lft.to/lastmile_qr_scan"}, "lat": 38.90503733333333, "is_disabled": 0, "bike_id": "0b75d31986ac1b0b2baf91ab6d010605", "name": "0b75d31986ac1b0b2baf91ab6d010605", "type": "electric_scooter", "fusion_lon": 0.0, "is_reserved": 0, "fusion_lat": 0.0, "lon": -77.04080633333334}, {"rental_uris": {"ios": "https://dc.lft.to/lastmile_qr_scan", "android": "https://dc.lft.to/lastmile_qr_scan"}, "lat": 38.913301, "is_disabled": 0, "bike_id": "0044085a37ea631977ce5b1c921f0552", "name": "0044085a37ea631977ce5b1c921f0552", "type": "electric_scooter", "fusion_lon": 0.0, "is_reserved": 0, "fusion_lat": 0.0, "lon": -77.04536583333334}, {"rental_uris": {"ios": "https://dc.lft.to/lastmile_qr_scan", "android": "https://dc.lft.to/lastmile_qr_scan"}, "lat": 38.90361733333334, "is_disabled": 0, "bike_id": "958c99130e31ea14d50164f01aa2c03e", "name": "958c99130e31ea14d50164f01aa2c03e", "type": "electric_scooter", "fusion_lon": 0.0, "is_reserved": 0, "fusion_lat": 0.0, "lon": -77.01681433333333}, {"rental_uris": {"ios": "https://dc.lft.to/lastmile_qr_scan", "android": "https://dc.lft.to/lastmile_qr_scan"}, "lat": 38.914338666666666, "is_disabled": 0, "bike_id": "c2ae9164e2048f8176f13d11e26c1a5a", "name": "c2ae9164e2048f8176f13d11e26c1a5a", "type": "electric_scooter", "fusion_lon": 0.0, "is_reserved": 0, "fusion_lat": 0.0, "lon": -77.028224}, {"rental_uris": {"ios": "https://dc.lft.to/lastmile_qr_scan", "android": "https://dc.lft.to/lastmile_qr_scan"}, "lat": 38.90571633333333, "is_disabled": 0, "bike_id": "a44da416f0ca88ea36e9af70de9837c2", "name": "a44da416f0ca88ea36e9af70de9837c2", "type": "electric_scooter", "fusion_lon": 0.0, "is_reserved": 0, "fusion_lat": 0.0, "lon": -77.00589083333334}, {"rental_uris": {"ios": "https://dc.lft.to/lastmile_qr_scan", "android": "https://dc.lft.to/lastmile_qr_scan"}, "lat": 38.86595166666667, "is_disabled": 0, "bike_id": "75a85bceadf35df60098b142e60e0ec4", "name": "75a85bceadf35df60098b142e60e0ec4", "type": "electric_bike", "fusion_lon": 0.0, "is_reserved": 0, "fusion_lat": 0.0, "lon": -76.93228933333333}, {"rental_uris": {"ios": "https://dc.lft.to/lastmile_qr_scan", "android": "https://dc.lft.to/lastmile_qr_scan"}, "lat": 38.902204833333336, "is_disabled": 0, "bike_id": "282b7557496f9201a8a7b9eae8cb0501", "name": "282b7557496f9201a8a7b9eae8cb0501", "type": "electric_scooter", "fusion_lon": 0.0, "is_reserved": 0, "fusion_lat": 0.0, "lon": -77.045409}, {"rental_uris": {"ios": "https://dc.lft.to/lastmile_qr_scan", "android": "https://dc.lft.to/lastmile_qr_scan"}, "lat": 38.967658, "is_disabled": 0, "bike_id": "18b43cdf199e18608b9740a3ad2f6a16", "name": "18b43cdf199e18608b9740a3ad2f6a16", "type": "electric_bike", "fusion_lon": 0.0, "is_reserved": 0, "fusion_lat": 0.0, "lon": -77.091619}, {"rental_uris": {"ios": "https://dc.lft.to/lastmile_qr_scan", "android": "https://dc.lft.to/lastmile_qr_scan"}, "lat": 38.89591216666667, "is_disabled": 0, "bike_id": "10031f4a78afdbafad837e401e86f2e3", "name": "10031f4a78afdbafad837e401e86f2e3", "type": "electric_scooter", "fusion_lon": 0.0, "is_reserved": 0, "fusion_lat": 0.0, "lon": -77.0067855}, {"rental_uris": {"ios": "https://dc.lft.to/lastmile_qr_scan", "android": "https://dc.lft.to/lastmile_qr_scan"}, "lat": 38.91051816666667, "is_disabled": 0, "bike_id": "e52c95ae2a3e6c488fd932a3889881b0", "name": "e52c95ae2a3e6c488fd932a3889881b0", "type": "electric_scooter", "fusion_lon": 0.0, "is_reserved": 0, "fusion_lat": 0.0, "lon": -77.033616}, {"rental_uris": {"ios": "https://dc.lft.to/lastmile_qr_scan", "android": "https://dc.lft.to/lastmile_qr_scan"}, "lat": 38.916273333333336, "is_disabled": 0, "bike_id": "35e691ca64449704be413cacd7e21ff3", "name": "35e691ca64449704be413cacd7e21ff3", "type": "electric_bike", "fusion_lon": 0.0, "is_reserved": 0, "fusion_lat": 0.0, "lon": -77.032676}, {"rental_uris": {"ios": "https://dc.lft.to/lastmile_qr_scan", "android": "https://dc.lft.to/lastmile_qr_scan"}, "lat": 38.973752166666664, "is_disabled": 0, "bike_id": "1049a09c34084cae2dd50406c3f80cae", "name": "1049a09c34084cae2dd50406c3f80cae", "type": "electric_scooter", "fusion_lon": 0.0, "is_reserved": 0, "fusion_lat": 0.0, "lon": -77.0312205}, {"rental_uris": {"ios": "https://dc.lft.to/lastmile_qr_scan", "android": "https://dc.lft.to/lastmile_qr_scan"}, "lat": 38.9128725, "is_disabled": 0, "bike_id": "6c824a2ae88f2943828fa5dabe14ae27", "name": "6c824a2ae88f2943828fa5dabe14ae27", "type": "electric_scooter", "fusion_lon": 0.0, "is_reserved": 0, "fusion_lat": 0.0, "lon": -77.0228065}, {"rental_uris": {"ios": "https://dc.lft.to/lastmile_qr_scan", "android": "https://dc.lft.to/lastmile_qr_scan"}, "lat": 38.892966666666666, "is_disabled": 0, "bike_id": "04d5d8699a1aa703ea70c0762dc4d153", "name": "04d5d8699a1aa703ea70c0762dc4d153", "type": "electric_scooter", "fusion_lon": 0.0, "is_reserved": 0, "fusion_lat": 0.0, "lon": -77.04655583333333}, {"rental_uris": {"ios": "https://dc.lft.to/lastmile_qr_scan", "android": "https://dc.lft.to/lastmile_qr_scan"}, "lat": 38.9375805, "is_disabled": 0, "bike_id": "9e41eb2c2a84913d20144d46d7e6ce11", "name": "9e41eb2c2a84913d20144d46d7e6ce11", "type": "electric_scooter", "fusion_lon": 0.0, "is_reserved": 0, "fusion_lat": 0.0, "lon": -77.0327785}, {"rental_uris": {"ios": "https://dc.lft.to/lastmile_qr_scan", "android": "https://dc.lft.to/lastmile_qr_scan"}, "lat": 38.915880666666666, "is_disabled": 0, "bike_id": "ec6c74d0a09f213e2eaa11b950babab3", "name": "ec6c74d0a09f213e2eaa11b950babab3", "type": "electric_scooter", "fusion_lon": 0.0, "is_reserved": 0, "fusion_lat": 0.0, "lon": -77.04527916666666}, {"rental_uris": {"ios": "https://dc.lft.to/lastmile_qr_scan", "android": "https://dc.lft.to/lastmile_qr_scan"}, "lat": 38.87428166666667, "is_disabled": 0, "bike_id": "4e853a5932315fb202d9e466facdcd3d", "name": "4e853a5932315fb202d9e466facdcd3d", "type": "electric_scooter", "fusion_lon": 0.0, "is_reserved": 0, "fusion_lat": 0.0, "lon": -77.04406166666666}, {"rental_uris": {"ios": "https://dc.lft.to/lastmile_qr_scan", "android": "https://dc.lft.to/lastmile_qr_scan"}, "lat": 38.911807, "is_disabled": 0, "bike_id": "b901f3865023a63b00fe6052d8aeb2da", "name": "b901f3865023a63b00fe6052d8aeb2da", "type": "electric_scooter", "fusion_lon": 0.0, "is_reserved": 0, "fusion_lat": 0.0, "lon": -77.038628}, {"rental_uris": {"ios": "https://dc.lft.to/lastmile_qr_scan", "android": "https://dc.lft.to/lastmile_qr_scan"}, "lat": 38.877083999999996, "is_disabled": 0, "bike_id": "57176cd12ec854d926ab5eebe4bf02c6", "name": "57176cd12ec854d926ab5eebe4bf02c6", "type": "electric_scooter", "fusion_lon": 0.0, "is_reserved": 0, "fusion_lat": 0.0, "lon": -77.01728666666666}, {"rental_uris": {"ios": "https://dc.lft.to/lastmile_qr_scan", "android": "https://dc.lft.to/lastmile_qr_scan"}, "lat": 38.9192345, "is_disabled": 0, "bike_id": "7727dd503132e1af3c5d416fceebfe9f", "name": "7727dd503132e1af3c5d416fceebfe9f", "type": "electric_scooter", "fusion_lon": 0.0, "is_reserved": 0, "fusion_lat": 0.0, "lon": -77.03183966666667}, {"rental_uris": {"ios": "https://dc.lft.to/lastmile_qr_scan", "android": "https://dc.lft.to/lastmile_qr_scan"}, "lat": 38.855285, "is_disabled": 0, "bike_id": "dae743a998e5d793b1400dff0d597fff", "name": "dae743a998e5d793b1400dff0d597fff", "type": "electric_scooter", "fusion_lon": 0.0, "is_reserved": 0, "fusion_lat": 0.0, "lon": -76.96917833333333}, {"rental_uris": {"ios": "https://dc.lft.to/lastmile_qr_scan", "android": "https://dc.lft.to/lastmile_qr_scan"}, "lat": 38.930268833333336, "is_disabled": 0, "bike_id": "cbd123c8d3001a49e974e6e0a8b71a4f", "name": "cbd123c8d3001a49e974e6e0a8b71a4f", "type": "electric_scooter", "fusion_lon": 0.0, "is_reserved": 0, "fusion_lat": 0.0, "lon": -77.03308416666667}, {"rental_uris": {"ios": "https://dc.lft.to/lastmile_qr_scan", "android": "https://dc.lft.to/lastmile_qr_scan"}, "lat": 38.910628833333334, "is_disabled": 0, "bike_id": "dedb97a99f00033ffb4735a5b72c86d5", "name": "dedb97a99f00033ffb4735a5b72c86d5", "type": "electric_scooter", "fusion_lon": 0.0, "is_reserved": 0, "fusion_lat": 0.0, "lon": -77.04249466666667}, {"rental_uris": {"ios": "https://dc.lft.to/lastmile_qr_scan", "android": "https://dc.lft.to/lastmile_qr_scan"}, "lat": 38.883201, "is_disabled": 0, "bike_id": "b1548086a589c9e270191b0c21314fe9", "name": "b1548086a589c9e270191b0c21314fe9", "type": "electric_scooter", "fusion_lon": 0.0, "is_reserved": 0, "fusion_lat": 0.0, "lon": -76.9494245}, {"rental_uris": {"ios": "https://dc.lft.to/lastmile_qr_scan", "android": "https://dc.lft.to/lastmile_qr_scan"}, "lat": 38.95646816666667, "is_disabled": 0, "bike_id": "f6bb5ba25a5e2ae66f077d63a275883c", "name": "f6bb5ba25a5e2ae66f077d63a275883c", "type": "electric_scooter", "fusion_lon": 0.0, "is_reserved": 0, "fusion_lat": 0.0, "lon": -77.03284683333334}, {"rental_uris": {"ios": "https://dc.lft.to/lastmile_qr_scan", "android": "https://dc.lft.to/lastmile_qr_scan"}, "lat": 38.90295033333334, "is_disabled": 0, "bike_id": "c2d96da1e1edd557e6552d7c135a307f", "name": "c2d96da1e1edd557e6552d7c135a307f", "type": "electric_scooter", "fusion_lon": 0.0, "is_reserved": 0, "fusion_lat": 0.0, "lon": -77.02101333333333}, {"rental_uris": {"ios": "https://dc.lft.to/lastmile_qr_scan", "android": "https://dc.lft.to/lastmile_qr_scan"}, "lat": 38.83607533333333, "is_disabled": 0, "bike_id": "0cf65d3d1bce5b7ae1487851ca892846", "name": "0cf65d3d1bce5b7ae1487851ca892846", "type": "electric_bike", "fusion_lon": 0.0, "is_reserved": 0, "fusion_lat": 0.0, "lon": -77.0037435}, {"rental_uris": {"ios": "https://dc.lft.to/lastmile_qr_scan", "android": "https://dc.lft.to/lastmile_qr_scan"}, "lat": 38.91267416666667, "is_disabled": 0, "bike_id": "3fb505e338cabc60e8800241be842bb4", "name": "3fb505e338cabc60e8800241be842bb4", "type": "electric_scooter", "fusion_lon": 0.0, "is_reserved": 0, "fusion_lat": 0.0, "lon": -77.02666816666667}, {"rental_uris": {"ios": "https://dc.lft.to/lastmile_qr_scan", "android": "https://dc.lft.to/lastmile_qr_scan"}, "lat": 38.8412535, "is_disabled": 0, "bike_id": "4042f62ceac5371792d24a25cd89e07b", "name": "4042f62ceac5371792d24a25cd89e07b", "type": "electric_bike", "fusion_lon": 0.0, "is_reserved": 0, "fusion_lat": 0.0, "lon": -77.08955233333333}, {"rental_uris": {"ios": "https://dc.lft.to/lastmile_qr_scan", "android": "https://dc.lft.to/lastmile_qr_scan"}, "lat": 38.896184833333336, "is_disabled": 0, "bike_id": "5563b3db1d3d1983b735bbf451532da9", "name": "5563b3db1d3d1983b735bbf451532da9", "type": "electric_scooter", "fusion_lon": 0.0, "is_reserved": 0, "fusion_lat": 0.0, "lon": -76.94763916666666}, {"rental_uris": {"ios": "https://dc.lft.to/lastmile_qr_scan", "android": "https://dc.lft.to/lastmile_qr_scan"}, "lat": 38.899968666666666, "is_disabled": 0, "bike_id": "4c8fd7d82bc3657ef3a37766ca774f1b", "name": "4c8fd7d82bc3657ef3a37766ca774f1b", "type": "electric_scooter", "fusion_lon": 0.0, "is_reserved": 0, "fusion_lat": 0.0, "lon": -77.0014025}, {"rental_uris": {"ios": "https://dc.lft.to/lastmile_qr_scan", "android": "https://dc.lft.to/lastmile_qr_scan"}, "lat": 38.95084133333334, "is_disabled": 0, "bike_id": "0dae40473a5fe8ebcdfcad55ec258717", "name": "0dae40473a5fe8ebcdfcad55ec258717", "type": "electric_bike", "fusion_lon": 0.0, "is_reserved": 0, "fusion_lat": 0.0, "lon": -77.012253}, {"rental_uris": {"ios": "https://dc.lft.to/lastmile_qr_scan", "android": "https://dc.lft.to/lastmile_qr_scan"}, "lat": 38.84427783333334, "is_disabled": 0, "bike_id": "64252e206df40ed0adc4d4f4f3854413", "name": "64252e206df40ed0adc4d4f4f3854413", "type": "electric_scooter", "fusion_lon": 0.0, "is_reserved": 0, "fusion_lat": 0.0, "lon": -76.997799}, {"rental_uris": {"ios": "https://dc.lft.to/lastmile_qr_scan", "android": "https://dc.lft.to/lastmile_qr_scan"}, "lat": 38.97589833333333, "is_disabled": 0, "bike_id": "3c8412c8efcd873e2918b2d5de3a9449", "name": "3c8412c8efcd873e2918b2d5de3a9449", "type": "electric_bike", "fusion_lon": 0.0, "is_reserved": 0, "fusion_lat": 0.0, "lon": -77.035114}, {"rental_uris": {"ios": "https://dc.lft.to/lastmile_qr_scan", "android": "https://dc.lft.to/lastmile_qr_scan"}, "lat": 38.90267766666667, "is_disabled": 0, "bike_id": "857187d14131fa0ea6d4012a669f57a1", "name": "857187d14131fa0ea6d4012a669f57a1", "type": "electric_scooter", "fusion_lon": 0.0, "is_reserved": 0, "fusion_lat": 0.0, "lon": -77.036631}, {"rental_uris": {"ios": "https://dc.lft.to/lastmile_qr_scan", "android": "https://dc.lft.to/lastmile_qr_scan"}, "lat": 38.88406033333333, "is_disabled": 0, "bike_id": "76db0742f95e735210a4c8b2b078ffe3", "name": "76db0742f95e735210a4c8b2b078ffe3", "type": "electric_scooter", "fusion_lon": 0.0, "is_reserved": 0, "fusion_lat": 0.0, "lon": -77.030378}, {"rental_uris": {"ios": "https://dc.lft.to/lastmile_qr_scan", "android": "https://dc.lft.to/lastmile_qr_scan"}, "lat": 38.903678166666666, "is_disabled": 0, "bike_id": "e2c449dbe725ebdab290023fec8386df", "name": "e2c449dbe725ebdab290023fec8386df", "type": "electric_scooter", "fusion_lon": 0.0, "is_reserved": 0, "fusion_lat": 0.0, "lon": -77.06771866666666}, {"rental_uris": {"ios": "https://dc.lft.to/lastmile_qr_scan", "android": "https://dc.lft.to/lastmile_qr_scan"}, "lat": 38.93355733333333, "is_disabled": 0, "bike_id": "a568543fe69de62dc41012fa8c5bc6db", "name": "a568543fe69de62dc41012fa8c5bc6db", "type": "electric_scooter", "fusion_lon": 0.0, "is_reserved": 0, "fusion_lat": 0.0, "lon": -77.0722035}, {"rental_uris": {"ios": "https://dc.lft.to/lastmile_qr_scan", "android": "https://dc.lft.to/lastmile_qr_scan"}, "lat": 38.91143133333333, "is_disabled": 0, "bike_id": "da79cb885739b950414b17788468a071", "name": "da79cb885739b950414b17788468a071", "type": "electric_scooter", "fusion_lon": 0.0, "is_reserved": 0, "fusion_lat": 0.0, "lon": -77.0280345}, {"rental_uris": {"ios": "https://dc.lft.to/lastmile_qr_scan", "android": "https://dc.lft.to/lastmile_qr_scan"}, "lat": 38.92827116666667, "is_disabled": 0, "bike_id": "49aa6a701834166dcb42331a91af5169", "name": "49aa6a701834166dcb42331a91af5169", "type": "electric_scooter", "fusion_lon": 0.0, "is_reserved": 0, "fusion_lat": 0.0, "lon": -77.014096}, {"rental_uris": {"ios": "https://dc.lft.to/lastmile_qr_scan", "android": "https://dc.lft.to/lastmile_qr_scan"}, "lat": 38.86406816666667, "is_disabled": 0, "bike_id": "e9397c7b363311b10ea5b2b3657f736b", "name": "e9397c7b363311b10ea5b2b3657f736b", "type": "electric_scooter", "fusion_lon": 0.0, "is_reserved": 0, "fusion_lat": 0.0, "lon": -76.99030766666667}, {"rental_uris": {"ios": "https://dc.lft.to/lastmile_qr_scan", "android": "https://dc.lft.to/lastmile_qr_scan"}, "lat": 38.895512, "is_disabled": 0, "bike_id": "c8a2f01b008eae28aa651b082702b898", "name": "c8a2f01b008eae28aa651b082702b898", "type": "electric_scooter", "fusion_lon": 0.0, "is_reserved": 0, "fusion_lat": 0.0, "lon": -76.991585}, {"rental_uris": {"ios": "https://dc.lft.to/lastmile_qr_scan", "android": "https://dc.lft.to/lastmile_qr_scan"}, "lat": 38.943836, "is_disabled": 0, "bike_id": "c641247cd68e867d8c67e2a642a0f82f", "name": "c641247cd68e867d8c67e2a642a0f82f", "type": "electric_scooter", "fusion_lon": 0.0, "is_reserved": 0, "fusion_lat": 0.0, "lon": -77.06103666666667}, {"rental_uris": {"ios": "https://dc.lft.to/lastmile_qr_scan", "android": "https://dc.lft.to/lastmile_qr_scan"}, "lat": 38.90820016666667, "is_disabled": 0, "bike_id": "d3844869585c3e79841945e4a2d1559f", "name": "d3844869585c3e79841945e4a2d1559f", "type": "electric_scooter", "fusion_lon": 0.0, "is_reserved": 0, "fusion_lat": 0.0, "lon": -77.00600483333334}, {"rental_uris": {"ios": "https://dc.lft.to/lastmile_qr_scan", "android": "https://dc.lft.to/lastmile_qr_scan"}, "lat": 38.922315833333336, "is_disabled": 0, "bike_id": "d5f706557d1739b394dc9267755344ff", "name": "d5f706557d1739b394dc9267755344ff", "type": "electric_scooter", "fusion_lon": 0.0, "is_reserved": 0, "fusion_lat": 0.0, "lon": -77.04613316666666}, {"rental_uris": {"ios": "https://dc.lft.to/lastmile_qr_scan", "android": "https://dc.lft.to/lastmile_qr_scan"}, "lat": 38.92432016666667, "is_disabled": 0, "bike_id": "075812f23a7e6f73f15b22342508f8da", "name": "075812f23a7e6f73f15b22342508f8da", "type": "electric_scooter", "fusion_lon": 0.0, "is_reserved": 0, "fusion_lat": 0.0, "lon": -77.02027}, {"rental_uris": {"ios": "https://dc.lft.to/lastmile_qr_scan", "android": "https://dc.lft.to/lastmile_qr_scan"}, "lat": 38.881776333333335, "is_disabled": 0, "bike_id": "e8804bc4e7696be030125802a381eff8", "name": "e8804bc4e7696be030125802a381eff8", "type": "electric_scooter", "fusion_lon": 0.0, "is_reserved": 0, "fusion_lat": 0.0, "lon": -77.02810766666667}, {"rental_uris": {"ios": "https://dc.lft.to/lastmile_qr_scan", "android": "https://dc.lft.to/lastmile_qr_scan"}, "lat": 38.93863966666667, "is_disabled": 0, "bike_id": "183de8a7dfc0fd49c433cf027524ded1", "name": "183de8a7dfc0fd49c433cf027524ded1", "type": "electric_scooter", "fusion_lon": 0.0, "is_reserved": 0, "fusion_lat": 0.0, "lon": -77.0264645}, {"rental_uris": {"ios": "https://dc.lft.to/lastmile_qr_scan", "android": "https://dc.lft.to/lastmile_qr_scan"}, "lat": 38.887506, "is_disabled": 0, "bike_id": "67b84960f2d9a80d9a9ad6ab1b486087", "name": "67b84960f2d9a80d9a9ad6ab1b486087", "type": "electric_scooter", "fusion_lon": 0.0, "is_reserved": 0, "fusion_lat": 0.0, "lon": -77.01601266666667}, {"rental_uris": {"ios": "https://dc.lft.to/lastmile_qr_scan", "android": "https://dc.lft.to/lastmile_qr_scan"}, "lat": 38.887344, "is_disabled": 0, "bike_id": "b50038e9e5fa3ef76749a80dedaea792", "name": "b50038e9e5fa3ef76749a80dedaea792", "type": "electric_scooter", "fusion_lon": 0.0, "is_reserved": 0, "fusion_lat": 0.0, "lon": -77.02270583333333}, {"rental_uris": {"ios": "https://dc.lft.to/lastmile_qr_scan", "android": "https://dc.lft.to/lastmile_qr_scan"}, "lat": 38.926758166666666, "is_disabled": 0, "bike_id": "5b92061ffc114315b063c3baa44c846e", "name": "5b92061ffc114315b063c3baa44c846e", "type": "electric_scooter", "fusion_lon": 0.0, "is_reserved": 0, "fusion_lat": 0.0, "lon": -77.07833633333334}, {"rental_uris": {"ios": "https://dc.lft.to/lastmile_qr_scan", "android": "https://dc.lft.to/lastmile_qr_scan"}, "lat": 38.8967295, "is_disabled": 0, "bike_id": "5291a332248e2fa3eb483c5dae80d798", "name": "5291a332248e2fa3eb483c5dae80d798", "type": "electric_scooter", "fusion_lon": 0.0, "is_reserved": 0, "fusion_lat": 0.0, "lon": -76.99638433333334}, {"rental_uris": {"ios": "https://dc.lft.to/lastmile_qr_scan", "android": "https://dc.lft.to/lastmile_qr_scan"}, "lat": 38.904879333333334, "is_disabled": 0, "bike_id": "19e8cfacf3165409f74abc5b62d7d08c", "name": "19e8cfacf3165409f74abc5b62d7d08c", "type": "electric_scooter", "fusion_lon": 0.0, "is_reserved": 0, "fusion_lat": 0.0, "lon": -77.0433535}, {"rental_uris": {"ios": "https://dc.lft.to/lastmile_qr_scan", "android": "https://dc.lft.to/lastmile_qr_scan"}, "lat": 38.894843, "is_disabled": 0, "bike_id": "72158aac3646b93c261db604ba0d31e6", "name": "72158aac3646b93c261db604ba0d31e6", "type": "electric_scooter", "fusion_lon": 0.0, "is_reserved": 0, "fusion_lat": 0.0, "lon": -77.02780333333334}, {"rental_uris": {"ios": "https://dc.lft.to/lastmile_qr_scan", "android": "https://dc.lft.to/lastmile_qr_scan"}, "lat": 38.89452816666667, "is_disabled": 0, "bike_id": "289e2fd8450e38dda3c9d8417d9ab042", "name": "289e2fd8450e38dda3c9d8417d9ab042", "type": "electric_scooter", "fusion_lon": 0.0, "is_reserved": 0, "fusion_lat": 0.0, "lon": -77.00219216666666}, {"rental_uris": {"ios": "https://dc.lft.to/lastmile_qr_scan", "android": "https://dc.lft.to/lastmile_qr_scan"}, "lat": 38.9007655, "is_disabled": 0, "bike_id": "70cdf9228e495ae6e2c3fd83e087fdf8", "name": "70cdf9228e495ae6e2c3fd83e087fdf8", "type": "electric_scooter", "fusion_lon": 0.0, "is_reserved": 0, "fusion_lat": 0.0, "lon": -77.00208466666666}, {"rental_uris": {"ios": "https://dc.lft.to/lastmile_qr_scan", "android": "https://dc.lft.to/lastmile_qr_scan"}, "lat": 38.922456, "is_disabled": 0, "bike_id": "22c8d99f3f3a82495522937437b65254", "name": "22c8d99f3f3a82495522937437b65254", "type": "electric_scooter", "fusion_lon": 0.0, "is_reserved": 0, "fusion_lat": 0.0, "lon": -77.09960833333334}, {"rental_uris": {"ios": "https://dc.lft.to/lastmile_qr_scan", "android": "https://dc.lft.to/lastmile_qr_scan"}, "lat": 38.907222166666664, "is_disabled": 0, "bike_id": "2600113fa02d8f1a3d64b7f237013cd8", "name": "2600113fa02d8f1a3d64b7f237013cd8", "type": "electric_scooter", "fusion_lon": 0.0, "is_reserved": 0, "fusion_lat": 0.0, "lon": -77.00104583333334}, {"rental_uris": {"ios": "https://dc.lft.to/lastmile_qr_scan", "android": "https://dc.lft.to/lastmile_qr_scan"}, "lat": 38.88741183333333, "is_disabled": 0, "bike_id": "05e001f16543a1ce5aee32118734f45c", "name": "05e001f16543a1ce5aee32118734f45c", "type": "electric_scooter", "fusion_lon": 0.0, "is_reserved": 0, "fusion_lat": 0.0, "lon": -77.028309}, {"rental_uris": {"ios": "https://dc.lft.to/lastmile_qr_scan", "android": "https://dc.lft.to/lastmile_qr_scan"}, "lat": 38.86357483333333, "is_disabled": 0, "bike_id": "5d6afed857549e1ee6b2955a1c1b9410", "name": "5d6afed857549e1ee6b2955a1c1b9410", "type": "electric_scooter", "fusion_lon": 0.0, "is_reserved": 0, "fusion_lat": 0.0, "lon": -76.99095116666666}, {"rental_uris": {"ios": "https://dc.lft.to/lastmile_qr_scan", "android": "https://dc.lft.to/lastmile_qr_scan"}, "lat": 38.867104833333336, "is_disabled": 0, "bike_id": "251d33f55d268d36c809cf45d1b28cb9", "name": "251d33f55d268d36c809cf45d1b28cb9", "type": "electric_scooter", "fusion_lon": 0.0, "is_reserved": 0, "fusion_lat": 0.0, "lon": -76.98733666666666}, {"rental_uris": {"ios": "https://dc.lft.to/lastmile_qr_scan", "android": "https://dc.lft.to/lastmile_qr_scan"}, "lat": 38.936669, "is_disabled": 0, "bike_id": "b94055938476a6d842a599a72065ddd9", "name": "b94055938476a6d842a599a72065ddd9", "type": "electric_bike", "fusion_lon": 0.0, "is_reserved": 0, "fusion_lat": 0.0, "lon": -76.95204283333334}, {"rental_uris": {"ios": "https://dc.lft.to/lastmile_qr_scan", "android": "https://dc.lft.to/lastmile_qr_scan"}, "lat": 38.93592616666667, "is_disabled": 0, "bike_id": "f6f5ba254d26a3e4eff6c6f824e6dca7", "name": "f6f5ba254d26a3e4eff6c6f824e6dca7", "type": "electric_scooter", "fusion_lon": 0.0, "is_reserved": 0, "fusion_lat": 0.0, "lon": -77.03527833333334}, {"rental_uris": {"ios": "https://dc.lft.to/lastmile_qr_scan", "android": "https://dc.lft.to/lastmile_qr_scan"}, "lat": 38.9396705, "is_disabled": 0, "bike_id": "f1fb7689bffd2448fea4d80ec2aacd62", "name": "f1fb7689bffd2448fea4d80ec2aacd62", "type": "electric_scooter", "fusion_lon": 0.0, "is_reserved": 0, "fusion_lat": 0.0, "lon": -77.02719683333333}, {"rental_uris": {"ios": "https://dc.lft.to/lastmile_qr_scan", "android": "https://dc.lft.to/lastmile_qr_scan"}, "lat": 38.929815, "is_disabled": 0, "bike_id": "b5d4eada9a27f68b7dbb8c293b05e1f6", "name": "b5d4eada9a27f68b7dbb8c293b05e1f6", "type": "electric_scooter", "fusion_lon": 0.0, "is_reserved": 0, "fusion_lat": 0.0, "lon": -77.03243466666666}, {"rental_uris": {"ios": "https://dc.lft.to/lastmile_qr_scan", "android": "https://dc.lft.to/lastmile_qr_scan"}, "lat": 38.9047525, "is_disabled": 0, "bike_id": "5a298185229579b928130347c81c9b62", "name": "5a298185229579b928130347c81c9b62", "type": "electric_scooter", "fusion_lon": 0.0, "is_reserved": 0, "fusion_lat": 0.0, "lon": -77.035765}, {"rental_uris": {"ios": "https://dc.lft.to/lastmile_qr_scan", "android": "https://dc.lft.to/lastmile_qr_scan"}, "lat": 38.92397533333333, "is_disabled": 0, "bike_id": "7fcbe7764ef28a433a12b98827c5edd1", "name": "7fcbe7764ef28a433a12b98827c5edd1", "type": "electric_bike", "fusion_lon": 0.0, "is_reserved": 0, "fusion_lat": 0.0, "lon": -77.02511616666666}, {"rental_uris": {"ios": "https://dc.lft.to/lastmile_qr_scan", "android": "https://dc.lft.to/lastmile_qr_scan"}, "lat": 38.93356983333334, "is_disabled": 0, "bike_id": "14df3633462acfb2ea833a1f5bbbddf9", "name": "14df3633462acfb2ea833a1f5bbbddf9", "type": "electric_scooter", "fusion_lon": 0.0, "is_reserved": 0, "fusion_lat": 0.0, "lon": -77.03758016666667}, {"rental_uris": {"ios": "https://dc.lft.to/lastmile_qr_scan", "android": "https://dc.lft.to/lastmile_qr_scan"}, "lat": 38.92368233333333, "is_disabled": 0, "bike_id": "d8f83d60d129bf063f643b254c0f369f", "name": "d8f83d60d129bf063f643b254c0f369f", "type": "electric_scooter", "fusion_lon": 0.0, "is_reserved": 0, "fusion_lat": 0.0, "lon": -77.050498}, {"rental_uris": {"ios": "https://dc.lft.to/lastmile_qr_scan", "android": "https://dc.lft.to/lastmile_qr_scan"}, "lat": 38.8998425, "is_disabled": 0, "bike_id": "693f5ddef07485ca93fdbe41b8ff17d0", "name": "693f5ddef07485ca93fdbe41b8ff17d0", "type": "electric_scooter", "fusion_lon": 0.0, "is_reserved": 0, "fusion_lat": 0.0, "lon": -77.01969616666666}, {"rental_uris": {"ios": "https://dc.lft.to/lastmile_qr_scan", "android": "https://dc.lft.to/lastmile_qr_scan"}, "lat": 38.9037205, "is_disabled": 0, "bike_id": "7dae656ce7e8a1a78d949753c48d220e", "name": "7dae656ce7e8a1a78d949753c48d220e", "type": "electric_scooter", "fusion_lon": 0.0, "is_reserved": 0, "fusion_lat": 0.0, "lon": -77.0449905}, {"rental_uris": {"ios": "https://dc.lft.to/lastmile_qr_scan", "android": "https://dc.lft.to/lastmile_qr_scan"}, "lat": 38.89283316666667, "is_disabled": 0, "bike_id": "19a9d2e9b1ae9282f83f9954311840e1", "name": "19a9d2e9b1ae9282f83f9954311840e1", "type": "electric_bike", "fusion_lon": 0.0, "is_reserved": 0, "fusion_lat": 0.0, "lon": -76.9762405}, {"rental_uris": {"ios": "https://dc.lft.to/lastmile_qr_scan", "android": "https://dc.lft.to/lastmile_qr_scan"}, "lat": 38.8778555, "is_disabled": 0, "bike_id": "b7132a47a3844e582cdecb6ff587fa9f", "name": "b7132a47a3844e582cdecb6ff587fa9f", "type": "electric_scooter", "fusion_lon": 0.0, "is_reserved": 0, "fusion_lat": 0.0, "lon": -76.99409016666667}, {"rental_uris": {"ios": "https://dc.lft.to/lastmile_qr_scan", "android": "https://dc.lft.to/lastmile_qr_scan"}, "lat": 38.91156133333333, "is_disabled": 0, "bike_id": "7017375b1fee7dffe114340b5b9d1766", "name": "7017375b1fee7dffe114340b5b9d1766", "type": "electric_scooter", "fusion_lon": 0.0, "is_reserved": 0, "fusion_lat": 0.0, "lon": -77.02196116666667}, {"rental_uris": {"ios": "https://dc.lft.to/lastmile_qr_scan", "android": "https://dc.lft.to/lastmile_qr_scan"}, "lat": 38.91824283333333, "is_disabled": 0, "bike_id": "3deb66c76e9b56f2706e6c8a651e7819", "name": "3deb66c76e9b56f2706e6c8a651e7819", "type": "electric_scooter", "fusion_lon": 0.0, "is_reserved": 0, "fusion_lat": 0.0, "lon": -77.026977}, {"rental_uris": {"ios": "https://dc.lft.to/lastmile_qr_scan", "android": "https://dc.lft.to/lastmile_qr_scan"}, "lat": 38.899234166666666, "is_disabled": 0, "bike_id": "f3e71205beae5c25208c29631c6d478e", "name": "f3e71205beae5c25208c29631c6d478e", "type": "electric_scooter", "fusion_lon": 0.0, "is_reserved": 0, "fusion_lat": 0.0, "lon": -76.98603516666667}, {"rental_uris": {"ios": "https://dc.lft.to/lastmile_qr_scan", "android": "https://dc.lft.to/lastmile_qr_scan"}, "lat": 38.89889933333333, "is_disabled": 0, "bike_id": "c249a51912d20c619fda971496ca1b3e", "name": "c249a51912d20c619fda971496ca1b3e", "type": "electric_scooter", "fusion_lon": 0.0, "is_reserved": 0, "fusion_lat": 0.0, "lon": -77.0530085}, {"rental_uris": {"ios": "https://dc.lft.to/lastmile_qr_scan", "android": "https://dc.lft.to/lastmile_qr_scan"}, "lat": 38.9076195, "is_disabled": 0, "bike_id": "dba0ec18ca6b5cea5f963cca71632659", "name": "dba0ec18ca6b5cea5f963cca71632659", "type": "electric_scooter", "fusion_lon": 0.0, "is_reserved": 0, "fusion_lat": 0.0, "lon": -77.03194966666666}, {"rental_uris": {"ios": "https://dc.lft.to/lastmile_qr_scan", "android": "https://dc.lft.to/lastmile_qr_scan"}, "lat": 38.86085283333333, "is_disabled": 0, "bike_id": "04be63afaccbed869eb9983a5c89507a", "name": "04be63afaccbed869eb9983a5c89507a", "type": "electric_scooter", "fusion_lon": 0.0, "is_reserved": 0, "fusion_lat": 0.0, "lon": -76.98606083333334}, {"rental_uris": {"ios": "https://dc.lft.to/lastmile_qr_scan", "android": "https://dc.lft.to/lastmile_qr_scan"}, "lat": 38.91935433333333, "is_disabled": 0, "bike_id": "ccb677f3e03950ede8a5ae856dbdd59f", "name": "ccb677f3e03950ede8a5ae856dbdd59f", "type": "electric_bike", "fusion_lon": 0.0, "is_reserved": 0, "fusion_lat": 0.0, "lon": -76.97504083333334}, {"rental_uris": {"ios": "https://dc.lft.to/lastmile_qr_scan", "android": "https://dc.lft.to/lastmile_qr_scan"}, "lat": 38.90444883333333, "is_disabled": 0, "bike_id": "890391987ec8c7c247e08ddab43291a8", "name": "890391987ec8c7c247e08ddab43291a8", "type": "electric_scooter", "fusion_lon": 0.0, "is_reserved": 0, "fusion_lat": 0.0, "lon": -76.97558466666666}, {"rental_uris": {"ios": "https://dc.lft.to/lastmile_qr_scan", "android": "https://dc.lft.to/lastmile_qr_scan"}, "lat": 38.919234, "is_disabled": 0, "bike_id": "592728157f1ad5a798d82f982f18e657", "name": "592728157f1ad5a798d82f982f18e657", "type": "electric_scooter", "fusion_lon": 0.0, "is_reserved": 0, "fusion_lat": 0.0, "lon": -77.04475566666666}, {"rental_uris": {"ios": "https://dc.lft.to/lastmile_qr_scan", "android": "https://dc.lft.to/lastmile_qr_scan"}, "lat": 38.9003025, "is_disabled": 0, "bike_id": "7169c3bc590c715003d546c185828cf4", "name": "7169c3bc590c715003d546c185828cf4", "type": "electric_scooter", "fusion_lon": 0.0, "is_reserved": 0, "fusion_lat": 0.0, "lon": -76.98783783333333}, {"rental_uris": {"ios": "https://dc.lft.to/lastmile_qr_scan", "android": "https://dc.lft.to/lastmile_qr_scan"}, "lat": 38.8624465, "is_disabled": 0, "bike_id": "779d55dfd0be4212d10aabe732335a03", "name": "779d55dfd0be4212d10aabe732335a03", "type": "electric_scooter", "fusion_lon": 0.0, "is_reserved": 0, "fusion_lat": 0.0, "lon": -76.99493783333334}, {"rental_uris": {"ios": "https://dc.lft.to/lastmile_qr_scan", "android": "https://dc.lft.to/lastmile_qr_scan"}, "lat": 38.88597466666667, "is_disabled": 0, "bike_id": "d3e4765dba15c8c972eaffb189f1ce20", "name": "d3e4765dba15c8c972eaffb189f1ce20", "type": "electric_scooter", "fusion_lon": 0.0, "is_reserved": 0, "fusion_lat": 0.0, "lon": -77.0181365}, {"rental_uris": {"ios": "https://dc.lft.to/lastmile_qr_scan", "android": "https://dc.lft.to/lastmile_qr_scan"}, "lat": 38.91179433333333, "is_disabled": 0, "bike_id": "f6a22751212c49a127979058f018679b", "name": "f6a22751212c49a127979058f018679b", "type": "electric_scooter", "fusion_lon": 0.0, "is_reserved": 0, "fusion_lat": 0.0, "lon": -77.0045195}, {"rental_uris": {"ios": "https://dc.lft.to/lastmile_qr_scan", "android": "https://dc.lft.to/lastmile_qr_scan"}, "lat": 38.90000583333333, "is_disabled": 0, "bike_id": "38aaee3be53847763b18a4e047631bb5", "name": "38aaee3be53847763b18a4e047631bb5", "type": "electric_scooter", "fusion_lon": 0.0, "is_reserved": 0, "fusion_lat": 0.0, "lon": -77.001494}, {"rental_uris": {"ios": "https://dc.lft.to/lastmile_qr_scan", "android": "https://dc.lft.to/lastmile_qr_scan"}, "lat": 38.9095105, "is_disabled": 0, "bike_id": "91daef6c3aad90ca75ebe07cc3af9d6e", "name": "91daef6c3aad90ca75ebe07cc3af9d6e", "type": "electric_scooter", "fusion_lon": 0.0, "is_reserved": 0, "fusion_lat": 0.0, "lon": -77.03209033333333}, {"rental_uris": {"ios": "https://dc.lft.to/lastmile_qr_scan", "android": "https://dc.lft.to/lastmile_qr_scan"}, "lat": 38.892212666666666, "is_disabled": 0, "bike_id": "039a5002057b9dd3e46170970770b228", "name": "039a5002057b9dd3e46170970770b228", "type": "electric_scooter", "fusion_lon": 0.0, "is_reserved": 0, "fusion_lat": 0.0, "lon": -77.028442}, {"rental_uris": {"ios": "https://dc.lft.to/lastmile_qr_scan", "android": "https://dc.lft.to/lastmile_qr_scan"}, "lat": 38.999633333333335, "is_disabled": 0, "bike_id": "3e39b423dda1efb70cb2d834658baf79", "name": "3e39b423dda1efb70cb2d834658baf79", "type": "electric_bike", "fusion_lon": 0.0, "is_reserved": 0, "fusion_lat": 0.0, "lon": -77.0511985}, {"rental_uris": {"ios": "https://dc.lft.to/lastmile_qr_scan", "android": "https://dc.lft.to/lastmile_qr_scan"}, "lat": 38.9211965, "is_disabled": 0, "bike_id": "20f47cab381be9cf9ec1f8ef722b6c3c", "name": "20f47cab381be9cf9ec1f8ef722b6c3c", "type": "electric_scooter", "fusion_lon": 0.0, "is_reserved": 0, "fusion_lat": 0.0, "lon": -77.03911983333333}, {"rental_uris": {"ios": "https://dc.lft.to/lastmile_qr_scan", "android": "https://dc.lft.to/lastmile_qr_scan"}, "lat": 39.115136166666666, "is_disabled": 0, "bike_id": "c298e74d7097399f06793f91c43e7c15", "name": "c298e74d7097399f06793f91c43e7c15", "type": "electric_bike", "fusion_lon": 0.0, "is_reserved": 0, "fusion_lat": 0.0, "lon": -77.195521}, {"rental_uris": {"ios": "https://dc.lft.to/lastmile_qr_scan", "android": "https://dc.lft.to/lastmile_qr_scan"}, "lat": 38.8763985, "is_disabled": 0, "bike_id": "70afaf31efb8add5ea751f566c233585", "name": "70afaf31efb8add5ea751f566c233585", "type": "electric_scooter", "fusion_lon": 0.0, "is_reserved": 0, "fusion_lat": 0.0, "lon": -77.003384}, {"rental_uris": {"ios": "https://dc.lft.to/lastmile_qr_scan", "android": "https://dc.lft.to/lastmile_qr_scan"}, "lat": 38.92865616666667, "is_disabled": 0, "bike_id": "3ad2088f4ed0869596585142b3902084", "name": "3ad2088f4ed0869596585142b3902084", "type": "electric_scooter", "fusion_lon": 0.0, "is_reserved": 0, "fusion_lat": 0.0, "lon": -77.03584716666667}, {"rental_uris": {"ios": "https://dc.lft.to/lastmile_qr_scan", "android": "https://dc.lft.to/lastmile_qr_scan"}, "lat": 38.917864333333334, "is_disabled": 0, "bike_id": "2555e2dddaedc48cb05cbbbb92e86c2f", "name": "2555e2dddaedc48cb05cbbbb92e86c2f", "type": "electric_scooter", "fusion_lon": 0.0, "is_reserved": 0, "fusion_lat": 0.0, "lon": -76.9733735}, {"rental_uris": {"ios": "https://dc.lft.to/lastmile_qr_scan", "android": "https://dc.lft.to/lastmile_qr_scan"}, "lat": 38.8998925, "is_disabled": 0, "bike_id": "4b3b9dd740aa71f7c41e447e5e21e69e", "name": "4b3b9dd740aa71f7c41e447e5e21e69e", "type": "electric_scooter", "fusion_lon": 0.0, "is_reserved": 0, "fusion_lat": 0.0, "lon": -77.00138966666667}, {"rental_uris": {"ios": "https://dc.lft.to/lastmile_qr_scan", "android": "https://dc.lft.to/lastmile_qr_scan"}, "lat": 39.089000166666665, "is_disabled": 0, "bike_id": "596a34b1c2e9758109835c0ad2bb2f12", "name": "596a34b1c2e9758109835c0ad2bb2f12", "type": "electric_bike", "fusion_lon": 0.0, "is_reserved": 0, "fusion_lat": 0.0, "lon": -77.17852033333334}, {"rental_uris": {"ios": "https://dc.lft.to/lastmile_qr_scan", "android": "https://dc.lft.to/lastmile_qr_scan"}, "lat": 39.054473, "is_disabled": 0, "bike_id": "2e0aba30b3fc7eb61e07750f77c82501", "name": "2e0aba30b3fc7eb61e07750f77c82501", "type": "electric_bike", "fusion_lon": 0.0, "is_reserved": 0, "fusion_lat": 0.0, "lon": -77.04306683333333}, {"rental_uris": {"ios": "https://dc.lft.to/lastmile_qr_scan", "android": "https://dc.lft.to/lastmile_qr_scan"}, "lat": 38.92999066666667, "is_disabled": 0, "bike_id": "f65956b3d90779e087fdc10cde427e4f", "name": "f65956b3d90779e087fdc10cde427e4f", "type": "electric_scooter", "fusion_lon": 0.0, "is_reserved": 0, "fusion_lat": 0.0, "lon": -77.02353616666667}, {"rental_uris": {"ios": "https://dc.lft.to/lastmile_qr_scan", "android": "https://dc.lft.to/lastmile_qr_scan"}, "lat": 38.935626, "is_disabled": 0, "bike_id": "89395b41941d9d0754d854e59fb63c07", "name": "89395b41941d9d0754d854e59fb63c07", "type": "electric_scooter", "fusion_lon": 0.0, "is_reserved": 0, "fusion_lat": 0.0, "lon": -77.08228983333333}, {"rental_uris": {"ios": "https://dc.lft.to/lastmile_qr_scan", "android": "https://dc.lft.to/lastmile_qr_scan"}, "lat": 38.94999083333333, "is_disabled": 0, "bike_id": "a01af3e4a85dc4cf5ef074ba9e8a6d08", "name": "a01af3e4a85dc4cf5ef074ba9e8a6d08", "type": "electric_scooter", "fusion_lon": 0.0, "is_reserved": 0, "fusion_lat": 0.0, "lon": -77.02703366666667}, {"rental_uris": {"ios": "https://dc.lft.to/lastmile_qr_scan", "android": "https://dc.lft.to/lastmile_qr_scan"}, "lat": 38.90964816666666, "is_disabled": 0, "bike_id": "8ed023319c68d5c82864df4f41c6234a", "name": "8ed023319c68d5c82864df4f41c6234a", "type": "electric_scooter", "fusion_lon": 0.0, "is_reserved": 0, "fusion_lat": 0.0, "lon": -77.04610766666667}, {"rental_uris": {"ios": "https://dc.lft.to/lastmile_qr_scan", "android": "https://dc.lft.to/lastmile_qr_scan"}, "lat": 38.92239333333333, "is_disabled": 0, "bike_id": "6819de618f93db1c2e84094e5bbb36fd", "name": "6819de618f93db1c2e84094e5bbb36fd", "type": "electric_scooter", "fusion_lon": 0.0, "is_reserved": 0, "fusion_lat": 0.0, "lon": -77.0440495}, {"rental_uris": {"ios": "https://dc.lft.to/lastmile_qr_scan", "android": "https://dc.lft.to/lastmile_qr_scan"}, "lat": 38.899261833333334, "is_disabled": 0, "bike_id": "746ccb3500ef13f23fe254f95deefcb1", "name": "746ccb3500ef13f23fe254f95deefcb1", "type": "electric_scooter", "fusion_lon": 0.0, "is_reserved": 0, "fusion_lat": 0.0, "lon": -77.0191255}, {"rental_uris": {"ios": "https://dc.lft.to/lastmile_qr_scan", "android": "https://dc.lft.to/lastmile_qr_scan"}, "lat": 38.88304183333333, "is_disabled": 0, "bike_id": "a1782c09ab5c9e3c7f98a678490f513b", "name": "a1782c09ab5c9e3c7f98a678490f513b", "type": "electric_scooter", "fusion_lon": 0.0, "is_reserved": 0, "fusion_lat": 0.0, "lon": -76.94857116666667}, {"rental_uris": {"ios": "https://dc.lft.to/lastmile_qr_scan", "android": "https://dc.lft.to/lastmile_qr_scan"}, "lat": 38.913147333333335, "is_disabled": 0, "bike_id": "92b090ccc3ac4be7f9d2bdcc3a526429", "name": "92b090ccc3ac4be7f9d2bdcc3a526429", "type": "electric_scooter", "fusion_lon": 0.0, "is_reserved": 0, "fusion_lat": 0.0, "lon": -77.036316}, {"rental_uris": {"ios": "https://dc.lft.to/lastmile_qr_scan", "android": "https://dc.lft.to/lastmile_qr_scan"}, "lat": 38.86076516666667, "is_disabled": 0, "bike_id": "957bd77b8d0913d372ba1d31cebd5016", "name": "957bd77b8d0913d372ba1d31cebd5016", "type": "electric_scooter", "fusion_lon": 0.0, "is_reserved": 0, "fusion_lat": 0.0, "lon": -76.99033866666667}, {"rental_uris": {"ios": "https://dc.lft.to/lastmile_qr_scan", "android": "https://dc.lft.to/lastmile_qr_scan"}, "lat": 38.892193666666664, "is_disabled": 0, "bike_id": "67b54e15c34fbabd3499617fdd0fc33b", "name": "67b54e15c34fbabd3499617fdd0fc33b", "type": "electric_scooter", "fusion_lon": 0.0, "is_reserved": 0, "fusion_lat": 0.0, "lon": -77.02637983333334}, {"rental_uris": {"ios": "https://dc.lft.to/lastmile_qr_scan", "android": "https://dc.lft.to/lastmile_qr_scan"}, "lat": 38.92860783333333, "is_disabled": 0, "bike_id": "7809f279941eb8eae36216c2635dc820", "name": "7809f279941eb8eae36216c2635dc820", "type": "electric_scooter", "fusion_lon": 0.0, "is_reserved": 0, "fusion_lat": 0.0, "lon": -77.034725}, {"rental_uris": {"ios": "https://dc.lft.to/lastmile_qr_scan", "android": "https://dc.lft.to/lastmile_qr_scan"}, "lat": 38.903155166666664, "is_disabled": 0, "bike_id": "b1d3424d3c1cb43185dfb45bfa2db45b", "name": "b1d3424d3c1cb43185dfb45bfa2db45b", "type": "electric_scooter", "fusion_lon": 0.0, "is_reserved": 0, "fusion_lat": 0.0, "lon": -77.01141666666666}, {"rental_uris": {"ios": "https://dc.lft.to/lastmile_qr_scan", "android": "https://dc.lft.to/lastmile_qr_scan"}, "lat": 38.930180666666665, "is_disabled": 0, "bike_id": "df78f704f4baa57b973d6b6351656bba", "name": "df78f704f4baa57b973d6b6351656bba", "type": "electric_scooter", "fusion_lon": 0.0, "is_reserved": 0, "fusion_lat": 0.0, "lon": -77.06189616666667}, {"rental_uris": {"ios": "https://dc.lft.to/lastmile_qr_scan", "android": "https://dc.lft.to/lastmile_qr_scan"}, "lat": 39.053466, "is_disabled": 0, "bike_id": "fe2d9b4649e977f602608145e403bc4e", "name": "fe2d9b4649e977f602608145e403bc4e", "type": "electric_bike", "fusion_lon": 0.0, "is_reserved": 0, "fusion_lat": 0.0, "lon": -77.13597666666666}, {"rental_uris": {"ios": "https://dc.lft.to/lastmile_qr_scan", "android": "https://dc.lft.to/lastmile_qr_scan"}, "lat": 38.8777995, "is_disabled": 0, "bike_id": "1e60f1e438d6093fda56a7f01357fa72", "name": "1e60f1e438d6093fda56a7f01357fa72", "type": "electric_scooter", "fusion_lon": 0.0, "is_reserved": 0, "fusion_lat": 0.0, "lon": -77.01441433333333}, {"rental_uris": {"ios": "https://dc.lft.to/lastmile_qr_scan", "android": "https://dc.lft.to/lastmile_qr_scan"}, "lat": 38.844991, "is_disabled": 0, "bike_id": "b1d46c780451f8ccb0573c9865475fb8", "name": "b1d46c780451f8ccb0573c9865475fb8", "type": "electric_scooter", "fusion_lon": 0.0, "is_reserved": 0, "fusion_lat": 0.0, "lon": -76.98758416666666}, {"rental_uris": {"ios": "https://dc.lft.to/lastmile_qr_scan", "android": "https://dc.lft.to/lastmile_qr_scan"}, "lat": 38.921095333333334, "is_disabled": 0, "bike_id": "46a3a7c2c26c1645c251cd8c56937f98", "name": "46a3a7c2c26c1645c251cd8c56937f98", "type": "electric_scooter", "fusion_lon": 0.0, "is_reserved": 0, "fusion_lat": 0.0, "lon": -77.01761516666667}, {"rental_uris": {"ios": "https://dc.lft.to/lastmile_qr_scan", "android": "https://dc.lft.to/lastmile_qr_scan"}, "lat": 38.90771433333333, "is_disabled": 0, "bike_id": "0c822b1c830c226145f664bb0cd233ee", "name": "0c822b1c830c226145f664bb0cd233ee", "type": "electric_scooter", "fusion_lon": 0.0, "is_reserved": 0, "fusion_lat": 0.0, "lon": -77.03193083333333}, {"rental_uris": {"ios": "https://dc.lft.to/lastmile_qr_scan", "android": "https://dc.lft.to/lastmile_qr_scan"}, "lat": 38.87922966666667, "is_disabled": 0, "bike_id": "6205cbb0f41facb1ae7c908c0e93d086", "name": "6205cbb0f41facb1ae7c908c0e93d086", "type": "electric_scooter", "fusion_lon": 0.0, "is_reserved": 0, "fusion_lat": 0.0, "lon": -76.991715}, {"rental_uris": {"ios": "https://dc.lft.to/lastmile_qr_scan", "android": "https://dc.lft.to/lastmile_qr_scan"}, "lat": 38.89225166666667, "is_disabled": 0, "bike_id": "b033c046233c402edcff926096333c90", "name": "b033c046233c402edcff926096333c90", "type": "electric_scooter", "fusion_lon": 0.0, "is_reserved": 0, "fusion_lat": 0.0, "lon": -77.04325433333334}, {"rental_uris": {"ios": "https://dc.lft.to/lastmile_qr_scan", "android": "https://dc.lft.to/lastmile_qr_scan"}, "lat": 38.903302, "is_disabled": 0, "bike_id": "19344b7bb3bf3f9cca18facaf3b15c03", "name": "19344b7bb3bf3f9cca18facaf3b15c03", "type": "electric_scooter", "fusion_lon": 0.0, "is_reserved": 0, "fusion_lat": 0.0, "lon": -77.033046}, {"rental_uris": {"ios": "https://dc.lft.to/lastmile_qr_scan", "android": "https://dc.lft.to/lastmile_qr_scan"}, "lat": 38.892313333333334, "is_disabled": 0, "bike_id": "0bc26b8657078ff6d708d54125d429aa", "name": "0bc26b8657078ff6d708d54125d429aa", "type": "electric_scooter", "fusion_lon": 0.0, "is_reserved": 0, "fusion_lat": 0.0, "lon": -77.02818616666667}, {"rental_uris": {"ios": "https://dc.lft.to/lastmile_qr_scan", "android": "https://dc.lft.to/lastmile_qr_scan"}, "lat": 38.921582, "is_disabled": 0, "bike_id": "fc7990d563d6b83faf8bdc3a507bf518", "name": "fc7990d563d6b83faf8bdc3a507bf518", "type": "electric_scooter", "fusion_lon": 0.0, "is_reserved": 0, "fusion_lat": 0.0, "lon": -77.0346745}, {"rental_uris": {"ios": "https://dc.lft.to/lastmile_qr_scan", "android": "https://dc.lft.to/lastmile_qr_scan"}, "lat": 38.9002795, "is_disabled": 0, "bike_id": "0c4a4f8b4e6abf0a2ff275902b7d49fe", "name": "0c4a4f8b4e6abf0a2ff275902b7d49fe", "type": "electric_scooter", "fusion_lon": 0.0, "is_reserved": 0, "fusion_lat": 0.0, "lon": -77.019695}, {"rental_uris": {"ios": "https://dc.lft.to/lastmile_qr_scan", "android": "https://dc.lft.to/lastmile_qr_scan"}, "lat": 38.908429, "is_disabled": 0, "bike_id": "ff36101882bd57ed25266a7c42556b5b", "name": "ff36101882bd57ed25266a7c42556b5b", "type": "electric_scooter", "fusion_lon": 0.0, "is_reserved": 0, "fusion_lat": 0.0, "lon": -77.04364066666666}, {"rental_uris": {"ios": "https://dc.lft.to/lastmile_qr_scan", "android": "https://dc.lft.to/lastmile_qr_scan"}, "lat": 38.8922125, "is_disabled": 0, "bike_id": "f3c03b33a571b136834847c2e22611ac", "name": "f3c03b33a571b136834847c2e22611ac", "type": "electric_scooter", "fusion_lon": 0.0, "is_reserved": 0, "fusion_lat": 0.0, "lon": -77.02720166666667}, {"rental_uris": {"ios": "https://dc.lft.to/lastmile_qr_scan", "android": "https://dc.lft.to/lastmile_qr_scan"}, "lat": 38.97384066666667, "is_disabled": 0, "bike_id": "54356c29530b8b81e45abbe1664bc442", "name": "54356c29530b8b81e45abbe1664bc442", "type": "electric_bike", "fusion_lon": 0.0, "is_reserved": 0, "fusion_lat": 0.0, "lon": -77.06475866666666}, {"rental_uris": {"ios": "https://dc.lft.to/lastmile_qr_scan", "android": "https://dc.lft.to/lastmile_qr_scan"}, "lat": 38.898747166666666, "is_disabled": 0, "bike_id": "d403eacd267562bf5fc7ea062b639d4b", "name": "d403eacd267562bf5fc7ea062b639d4b", "type": "electric_scooter", "fusion_lon": 0.0, "is_reserved": 0, "fusion_lat": 0.0, "lon": -77.03281516666667}, {"rental_uris": {"ios": "https://dc.lft.to/lastmile_qr_scan", "android": "https://dc.lft.to/lastmile_qr_scan"}, "lat": 38.92986666666667, "is_disabled": 0, "bike_id": "cbac7f78ac2253ddeaf7a900f5f50512", "name": "cbac7f78ac2253ddeaf7a900f5f50512", "type": "electric_scooter", "fusion_lon": 0.0, "is_reserved": 0, "fusion_lat": 0.0, "lon": -77.01054233333333}, {"rental_uris": {"ios": "https://dc.lft.to/lastmile_qr_scan", "android": "https://dc.lft.to/lastmile_qr_scan"}, "lat": 38.9351585, "is_disabled": 0, "bike_id": "12cac987bad45e2542f921bb018153bc", "name": "12cac987bad45e2542f921bb018153bc", "type": "electric_scooter", "fusion_lon": 0.0, "is_reserved": 0, "fusion_lat": 0.0, "lon": -77.08201683333333}, {"rental_uris": {"ios": "https://dc.lft.to/lastmile_qr_scan", "android": "https://dc.lft.to/lastmile_qr_scan"}, "lat": 38.957343333333334, "is_disabled": 0, "bike_id": "99c4f45150286e8cb3dacf408f3969b6", "name": "99c4f45150286e8cb3dacf408f3969b6", "type": "electric_scooter", "fusion_lon": 0.0, "is_reserved": 0, "fusion_lat": 0.0, "lon": -77.0239085}, {"rental_uris": {"ios": "https://dc.lft.to/lastmile_qr_scan", "android": "https://dc.lft.to/lastmile_qr_scan"}, "lat": 38.864022, "is_disabled": 0, "bike_id": "0eec1ed76e1ba2d4bc7639e8b39499d1", "name": "0eec1ed76e1ba2d4bc7639e8b39499d1", "type": "electric_scooter", "fusion_lon": 0.0, "is_reserved": 0, "fusion_lat": 0.0, "lon": -76.99023483333333}, {"rental_uris": {"ios": "https://dc.lft.to/lastmile_qr_scan", "android": "https://dc.lft.to/lastmile_qr_scan"}, "lat": 38.8924745, "is_disabled": 0, "bike_id": "ebb5c4664a7f2a176d119a835de77de3", "name": "ebb5c4664a7f2a176d119a835de77de3", "type": "electric_scooter", "fusion_lon": 0.0, "is_reserved": 0, "fusion_lat": 0.0, "lon": -77.02180983333334}, {"rental_uris": {"ios": "https://dc.lft.to/lastmile_qr_scan", "android": "https://dc.lft.to/lastmile_qr_scan"}, "lat": 38.93138733333333, "is_disabled": 0, "bike_id": "4d61a58b7eb347964e9ea3e0dcc2cbf1", "name": "4d61a58b7eb347964e9ea3e0dcc2cbf1", "type": "electric_scooter", "fusion_lon": 0.0, "is_reserved": 0, "fusion_lat": 0.0, "lon": -77.02350433333334}, {"rental_uris": {"ios": "https://dc.lft.to/lastmile_qr_scan", "android": "https://dc.lft.to/lastmile_qr_scan"}, "lat": 38.90030216666667, "is_disabled": 0, "bike_id": "09c65037d34b3e9ecce87d42d3611cd0", "name": "09c65037d34b3e9ecce87d42d3611cd0", "type": "electric_scooter", "fusion_lon": 0.0, "is_reserved": 0, "fusion_lat": 0.0, "lon": -76.98783}, {"rental_uris": {"ios": "https://dc.lft.to/lastmile_qr_scan", "android": "https://dc.lft.to/lastmile_qr_scan"}, "lat": 38.91255316666667, "is_disabled": 0, "bike_id": "1ab461e3c8bf24b9186b044470e81a44", "name": "1ab461e3c8bf24b9186b044470e81a44", "type": "electric_scooter", "fusion_lon": 0.0, "is_reserved": 0, "fusion_lat": 0.0, "lon": -77.04967}, {"rental_uris": {"ios": "https://dc.lft.to/lastmile_qr_scan", "android": "https://dc.lft.to/lastmile_qr_scan"}, "lat": 38.89609466666667, "is_disabled": 0, "bike_id": "067b73a576c27144b7bb397d15f077e7", "name": "067b73a576c27144b7bb397d15f077e7", "type": "electric_scooter", "fusion_lon": 0.0, "is_reserved": 0, "fusion_lat": 0.0, "lon": -77.04720333333333}, {"rental_uris": {"ios": "https://dc.lft.to/lastmile_qr_scan", "android": "https://dc.lft.to/lastmile_qr_scan"}, "lat": 38.89696033333333, "is_disabled": 0, "bike_id": "b1da27851ab3fc9f15de1b5fd5af03c8", "name": "b1da27851ab3fc9f15de1b5fd5af03c8", "type": "electric_scooter", "fusion_lon": 0.0, "is_reserved": 0, "fusion_lat": 0.0, "lon": -77.02664216666666}, {"rental_uris": {"ios": "https://dc.lft.to/lastmile_qr_scan", "android": "https://dc.lft.to/lastmile_qr_scan"}, "lat": 38.9059465, "is_disabled": 0, "bike_id": "e2a23a4a96087c8567a3c841a3a7d0b9", "name": "e2a23a4a96087c8567a3c841a3a7d0b9", "type": "electric_scooter", "fusion_lon": 0.0, "is_reserved": 0, "fusion_lat": 0.0, "lon": -77.07014566666666}, {"rental_uris": {"ios": "https://dc.lft.to/lastmile_qr_scan", "android": "https://dc.lft.to/lastmile_qr_scan"}, "lat": 38.88744333333333, "is_disabled": 0, "bike_id": "949050c6a35717a9d5c0c10ca856565d", "name": "949050c6a35717a9d5c0c10ca856565d", "type": "electric_scooter", "fusion_lon": 0.0, "is_reserved": 0, "fusion_lat": 0.0, "lon": -77.02175083333333}, {"rental_uris": {"ios": "https://dc.lft.to/lastmile_qr_scan", "android": "https://dc.lft.to/lastmile_qr_scan"}, "lat": 38.94202333333333, "is_disabled": 0, "bike_id": "4e9b35f3f6e14d79005ca04ff2d064c9", "name": "4e9b35f3f6e14d79005ca04ff2d064c9", "type": "electric_scooter", "fusion_lon": 0.0, "is_reserved": 0, "fusion_lat": 0.0, "lon": -77.0250385}, {"rental_uris": {"ios": "https://dc.lft.to/lastmile_qr_scan", "android": "https://dc.lft.to/lastmile_qr_scan"}, "lat": 38.903578333333336, "is_disabled": 0, "bike_id": "9e5e7fa94007fbae3bc8fe286f30453d", "name": "9e5e7fa94007fbae3bc8fe286f30453d", "type": "electric_scooter", "fusion_lon": 0.0, "is_reserved": 0, "fusion_lat": 0.0, "lon": -77.0332545}, {"rental_uris": {"ios": "https://dc.lft.to/lastmile_qr_scan", "android": "https://dc.lft.to/lastmile_qr_scan"}, "lat": 38.91256083333333, "is_disabled": 0, "bike_id": "046a990e037afd3f7b63ceeeb8df54cc", "name": "046a990e037afd3f7b63ceeeb8df54cc", "type": "electric_scooter", "fusion_lon": 0.0, "is_reserved": 0, "fusion_lat": 0.0, "lon": -77.04434966666666}, {"rental_uris": {"ios": "https://dc.lft.to/lastmile_qr_scan", "android": "https://dc.lft.to/lastmile_qr_scan"}, "lat": 38.911442, "is_disabled": 0, "bike_id": "0f26b73b06a9d952bebd1dd456369570", "name": "0f26b73b06a9d952bebd1dd456369570", "type": "electric_scooter", "fusion_lon": 0.0, "is_reserved": 0, "fusion_lat": 0.0, "lon": -77.02804683333333}, {"rental_uris": {"ios": "https://dc.lft.to/lastmile_qr_scan", "android": "https://dc.lft.to/lastmile_qr_scan"}, "lat": 38.903157, "is_disabled": 0, "bike_id": "11430ac5694bcf87bf6e670db38d2d6c", "name": "11430ac5694bcf87bf6e670db38d2d6c", "type": "electric_scooter", "fusion_lon": 0.0, "is_reserved": 0, "fusion_lat": 0.0, "lon": -77.043397}, {"rental_uris": {"ios": "https://dc.lft.to/lastmile_qr_scan", "android": "https://dc.lft.to/lastmile_qr_scan"}, "lat": 38.85061733333333, "is_disabled": 0, "bike_id": "47790a244f7466e0795e9b550645a42b", "name": "47790a244f7466e0795e9b550645a42b", "type": "electric_bike", "fusion_lon": 0.0, "is_reserved": 0, "fusion_lat": 0.0, "lon": -76.973344}, {"rental_uris": {"ios": "https://dc.lft.to/lastmile_qr_scan", "android": "https://dc.lft.to/lastmile_qr_scan"}, "lat": 38.906200166666665, "is_disabled": 0, "bike_id": "65c594d5905a8a1dd6b457c47a1a498d", "name": "65c594d5905a8a1dd6b457c47a1a498d", "type": "electric_scooter", "fusion_lon": 0.0, "is_reserved": 0, "fusion_lat": 0.0, "lon": -77.03965533333333}, {"rental_uris": {"ios": "https://dc.lft.to/lastmile_qr_scan", "android": "https://dc.lft.to/lastmile_qr_scan"}, "lat": 38.91042916666667, "is_disabled": 0, "bike_id": "11f483714343ab335694611e8edaeccd", "name": "11f483714343ab335694611e8edaeccd", "type": "electric_scooter", "fusion_lon": 0.0, "is_reserved": 0, "fusion_lat": 0.0, "lon": -77.03207316666666}, {"rental_uris": {"ios": "https://dc.lft.to/lastmile_qr_scan", "android": "https://dc.lft.to/lastmile_qr_scan"}, "lat": 38.918774, "is_disabled": 0, "bike_id": "94a5d1d93dd726d81068742ceedf7efa", "name": "94a5d1d93dd726d81068742ceedf7efa", "type": "electric_scooter", "fusion_lon": 0.0, "is_reserved": 0, "fusion_lat": 0.0, "lon": -77.03763716666667}, {"rental_uris": {"ios": "https://dc.lft.to/lastmile_qr_scan", "android": "https://dc.lft.to/lastmile_qr_scan"}, "lat": 38.9351295, "is_disabled": 0, "bike_id": "ac928882163eb86c10ee058794d35ed7", "name": "ac928882163eb86c10ee058794d35ed7", "type": "electric_scooter", "fusion_lon": 0.0, "is_reserved": 0, "fusion_lat": 0.0, "lon": -77.02547666666666}, {"rental_uris": {"ios": "https://dc.lft.to/lastmile_qr_scan", "android": "https://dc.lft.to/lastmile_qr_scan"}, "lat": 38.985626333333336, "is_disabled": 0, "bike_id": "29504d740b2dfd419ecce62ccd00cdc1", "name": "29504d740b2dfd419ecce62ccd00cdc1", "type": "electric_bike", "fusion_lon": 0.0, "is_reserved": 0, "fusion_lat": 0.0, "lon": -76.988299}, {"rental_uris": {"ios": "https://dc.lft.to/lastmile_qr_scan", "android": "https://dc.lft.to/lastmile_qr_scan"}, "lat": 38.904133, "is_disabled": 0, "bike_id": "7c73c8570053b11daa04e6221364f41c", "name": "7c73c8570053b11daa04e6221364f41c", "type": "electric_scooter", "fusion_lon": 0.0, "is_reserved": 0, "fusion_lat": 0.0, "lon": -77.02683266666666}, {"rental_uris": {"ios": "https://dc.lft.to/lastmile_qr_scan", "android": "https://dc.lft.to/lastmile_qr_scan"}, "lat": 38.892610166666664, "is_disabled": 0, "bike_id": "136640eb0760a63bb249b0d768dcbfbd", "name": "136640eb0760a63bb249b0d768dcbfbd", "type": "electric_scooter", "fusion_lon": 0.0, "is_reserved": 0, "fusion_lat": 0.0, "lon": -77.026337}, {"rental_uris": {"ios": "https://dc.lft.to/lastmile_qr_scan", "android": "https://dc.lft.to/lastmile_qr_scan"}, "lat": 38.89233466666667, "is_disabled": 0, "bike_id": "63b8994374d8db019f9fa60638adbbaf", "name": "63b8994374d8db019f9fa60638adbbaf", "type": "electric_scooter", "fusion_lon": 0.0, "is_reserved": 0, "fusion_lat": 0.0, "lon": -77.02827683333334}, {"rental_uris": {"ios": "https://dc.lft.to/lastmile_qr_scan", "android": "https://dc.lft.to/lastmile_qr_scan"}, "lat": 38.921341, "is_disabled": 0, "bike_id": "4ae81ef463936e41358e89508f0ee193", "name": "4ae81ef463936e41358e89508f0ee193", "type": "electric_scooter", "fusion_lon": 0.0, "is_reserved": 0, "fusion_lat": 0.0, "lon": -77.04595166666667}, {"rental_uris": {"ios": "https://dc.lft.to/lastmile_qr_scan", "android": "https://dc.lft.to/lastmile_qr_scan"}, "lat": 38.90646916666667, "is_disabled": 0, "bike_id": "14f5bc94af493b125c89b3c533d961c2", "name": "14f5bc94af493b125c89b3c533d961c2", "type": "electric_scooter", "fusion_lon": 0.0, "is_reserved": 0, "fusion_lat": 0.0, "lon": -77.01793016666667}, {"rental_uris": {"ios": "https://dc.lft.to/lastmile_qr_scan", "android": "https://dc.lft.to/lastmile_qr_scan"}, "lat": 38.8579215, "is_disabled": 0, "bike_id": "3ad892f6e7665d79e74bcef407a614f3", "name": "3ad892f6e7665d79e74bcef407a614f3", "type": "electric_bike", "fusion_lon": 0.0, "is_reserved": 0, "fusion_lat": 0.0, "lon": -77.0996215}, {"rental_uris": {"ios": "https://dc.lft.to/lastmile_qr_scan", "android": "https://dc.lft.to/lastmile_qr_scan"}, "lat": 38.900672166666666, "is_disabled": 0, "bike_id": "822e02a0583ce8364e5b3e29178cdd0d", "name": "822e02a0583ce8364e5b3e29178cdd0d", "type": "electric_scooter", "fusion_lon": 0.0, "is_reserved": 0, "fusion_lat": 0.0, "lon": -77.0481885}, {"rental_uris": {"ios": "https://dc.lft.to/lastmile_qr_scan", "android": "https://dc.lft.to/lastmile_qr_scan"}, "lat": 38.927427333333334, "is_disabled": 0, "bike_id": "fa185acec46673bb2eb71d8c70201cea", "name": "fa185acec46673bb2eb71d8c70201cea", "type": "electric_scooter", "fusion_lon": 0.0, "is_reserved": 0, "fusion_lat": 0.0, "lon": -77.02542316666667}, {"rental_uris": {"ios": "https://dc.lft.to/lastmile_qr_scan", "android": "https://dc.lft.to/lastmile_qr_scan"}, "lat": 38.89228383333333, "is_disabled": 0, "bike_id": "2d0045c6fc6beabbc37532f0a3840bb0", "name": "2d0045c6fc6beabbc37532f0a3840bb0", "type": "electric_scooter", "fusion_lon": 0.0, "is_reserved": 0, "fusion_lat": 0.0, "lon": -77.05008666666667}, {"rental_uris": {"ios": "https://dc.lft.to/lastmile_qr_scan", "android": "https://dc.lft.to/lastmile_qr_scan"}, "lat": 38.93325516666667, "is_disabled": 0, "bike_id": "c825df13eed2481f128f6af3487cb615", "name": "c825df13eed2481f128f6af3487cb615", "type": "electric_scooter", "fusion_lon": 0.0, "is_reserved": 0, "fusion_lat": 0.0, "lon": -77.02349216666667}, {"rental_uris": {"ios": "https://dc.lft.to/lastmile_qr_scan", "android": "https://dc.lft.to/lastmile_qr_scan"}, "lat": 38.92569916666667, "is_disabled": 0, "bike_id": "79005cc73bdc7d306d1bbcb2ad6dc9a6", "name": "79005cc73bdc7d306d1bbcb2ad6dc9a6", "type": "electric_scooter", "fusion_lon": 0.0, "is_reserved": 0, "fusion_lat": 0.0, "lon": -77.03076366666667}, {"rental_uris": {"ios": "https://dc.lft.to/lastmile_qr_scan", "android": "https://dc.lft.to/lastmile_qr_scan"}, "lat": 38.8745905, "is_disabled": 0, "bike_id": "9fb3de34a6d8986f076515d65a7bd748", "name": "9fb3de34a6d8986f076515d65a7bd748", "type": "electric_scooter", "fusion_lon": 0.0, "is_reserved": 0, "fusion_lat": 0.0, "lon": -77.00603166666667}, {"rental_uris": {"ios": "https://dc.lft.to/lastmile_qr_scan", "android": "https://dc.lft.to/lastmile_qr_scan"}, "lat": 38.92989766666667, "is_disabled": 0, "bike_id": "ea203dd14c87a85c3d9343bd49f46fe9", "name": "ea203dd14c87a85c3d9343bd49f46fe9", "type": "electric_scooter", "fusion_lon": 0.0, "is_reserved": 0, "fusion_lat": 0.0, "lon": -77.02346533333333}, {"rental_uris": {"ios": "https://dc.lft.to/lastmile_qr_scan", "android": "https://dc.lft.to/lastmile_qr_scan"}, "lat": 38.93879483333333, "is_disabled": 0, "bike_id": "a5e64b7e89b640058e71ffb3bf59f39d", "name": "a5e64b7e89b640058e71ffb3bf59f39d", "type": "electric_scooter", "fusion_lon": 0.0, "is_reserved": 0, "fusion_lat": 0.0, "lon": -77.02480283333334}, {"rental_uris": {"ios": "https://dc.lft.to/lastmile_qr_scan", "android": "https://dc.lft.to/lastmile_qr_scan"}, "lat": 38.90943, "is_disabled": 0, "bike_id": "b38877f856e647cd69c3e3ca67b8bbfa", "name": "b38877f856e647cd69c3e3ca67b8bbfa", "type": "electric_scooter", "fusion_lon": 0.0, "is_reserved": 0, "fusion_lat": 0.0, "lon": -77.018925}, {"rental_uris": {"ios": "https://dc.lft.to/lastmile_qr_scan", "android": "https://dc.lft.to/lastmile_qr_scan"}, "lat": 38.943125333333334, "is_disabled": 0, "bike_id": "63cdc4679cb8c2e693fd57ad4b82afd9", "name": "63cdc4679cb8c2e693fd57ad4b82afd9", "type": "electric_scooter", "fusion_lon": 0.0, "is_reserved": 0, "fusion_lat": 0.0, "lon": -77.01540933333334}, {"rental_uris": {"ios": "https://dc.lft.to/lastmile_qr_scan", "android": "https://dc.lft.to/lastmile_qr_scan"}, "lat": 38.90366, "is_disabled": 0, "bike_id": "b98b308a615351829336ac702a77f792", "name": "b98b308a615351829336ac702a77f792", "type": "electric_scooter", "fusion_lon": 0.0, "is_reserved": 0, "fusion_lat": 0.0, "lon": -77.00052866666667}, {"rental_uris": {"ios": "https://dc.lft.to/lastmile_qr_scan", "android": "https://dc.lft.to/lastmile_qr_scan"}, "lat": 38.88485166666667, "is_disabled": 0, "bike_id": "a7e655a68489bc5573ae83c14d43d888", "name": "a7e655a68489bc5573ae83c14d43d888", "type": "electric_scooter", "fusion_lon": 0.0, "is_reserved": 0, "fusion_lat": 0.0, "lon": -76.94927916666667}, {"rental_uris": {"ios": "https://dc.lft.to/lastmile_qr_scan", "android": "https://dc.lft.to/lastmile_qr_scan"}, "lat": 38.84621166666667, "is_disabled": 0, "bike_id": "90975fbbd87c089b8fd3e1c501469a41", "name": "90975fbbd87c089b8fd3e1c501469a41", "type": "electric_scooter", "fusion_lon": 0.0, "is_reserved": 0, "fusion_lat": 0.0, "lon": -76.9963035}, {"rental_uris": {"ios": "https://dc.lft.to/lastmile_qr_scan", "android": "https://dc.lft.to/lastmile_qr_scan"}, "lat": 38.91951533333334, "is_disabled": 0, "bike_id": "5790743f271c7793363113335f1280a3", "name": "5790743f271c7793363113335f1280a3", "type": "electric_scooter", "fusion_lon": 0.0, "is_reserved": 0, "fusion_lat": 0.0, "lon": -77.0138325}, {"rental_uris": {"ios": "https://dc.lft.to/lastmile_qr_scan", "android": "https://dc.lft.to/lastmile_qr_scan"}, "lat": 38.86115733333333, "is_disabled": 0, "bike_id": "a53675bc7f2129830f87b568fca1db5d", "name": "a53675bc7f2129830f87b568fca1db5d", "type": "electric_scooter", "fusion_lon": 0.0, "is_reserved": 0, "fusion_lat": 0.0, "lon": -76.99015633333333}, {"rental_uris": {"ios": "https://dc.lft.to/lastmile_qr_scan", "android": "https://dc.lft.to/lastmile_qr_scan"}, "lat": 38.89525883333334, "is_disabled": 0, "bike_id": "e9d7719a52fa95980307cb3422a59243", "name": "e9d7719a52fa95980307cb3422a59243", "type": "electric_scooter", "fusion_lon": 0.0, "is_reserved": 0, "fusion_lat": 0.0, "lon": -76.9489395}, {"rental_uris": {"ios": "https://dc.lft.to/lastmile_qr_scan", "android": "https://dc.lft.to/lastmile_qr_scan"}, "lat": 38.898095166666664, "is_disabled": 0, "bike_id": "f339162b27dd7a26592c1a80e148f238", "name": "f339162b27dd7a26592c1a80e148f238", "type": "electric_scooter", "fusion_lon": 0.0, "is_reserved": 0, "fusion_lat": 0.0, "lon": -77.027944}, {"rental_uris": {"ios": "https://dc.lft.to/lastmile_qr_scan", "android": "https://dc.lft.to/lastmile_qr_scan"}, "lat": 38.90430883333333, "is_disabled": 0, "bike_id": "f4041075b3b086119123e36ab8b045c6", "name": "f4041075b3b086119123e36ab8b045c6", "type": "electric_scooter", "fusion_lon": 0.0, "is_reserved": 0, "fusion_lat": 0.0, "lon": -77.03451133333333}, {"rental_uris": {"ios": "https://dc.lft.to/lastmile_qr_scan", "android": "https://dc.lft.to/lastmile_qr_scan"}, "lat": 38.90265133333333, "is_disabled": 0, "bike_id": "833ea37892ee515bccfd0c96759532a8", "name": "833ea37892ee515bccfd0c96759532a8", "type": "electric_scooter", "fusion_lon": 0.0, "is_reserved": 0, "fusion_lat": 0.0, "lon": -77.03211166666667}, {"rental_uris": {"ios": "https://dc.lft.to/lastmile_qr_scan", "android": "https://dc.lft.to/lastmile_qr_scan"}, "lat": 38.9498095, "is_disabled": 0, "bike_id": "f8275d3c0e635951dcd812e63a031589", "name": "f8275d3c0e635951dcd812e63a031589", "type": "electric_scooter", "fusion_lon": 0.0, "is_reserved": 0, "fusion_lat": 0.0, "lon": -77.06762183333333}, {"rental_uris": {"ios": "https://dc.lft.to/lastmile_qr_scan", "android": "https://dc.lft.to/lastmile_qr_scan"}, "lat": 38.91996866666667, "is_disabled": 0, "bike_id": "e61bb3f02d2f697f1ab48bc737ce31b7", "name": "e61bb3f02d2f697f1ab48bc737ce31b7", "type": "electric_scooter", "fusion_lon": 0.0, "is_reserved": 0, "fusion_lat": 0.0, "lon": -77.01856}, {"rental_uris": {"ios": "https://dc.lft.to/lastmile_qr_scan", "android": "https://dc.lft.to/lastmile_qr_scan"}, "lat": 38.899817, "is_disabled": 0, "bike_id": "af4e0a036d4b0b7340bc75b86b8c6db1", "name": "af4e0a036d4b0b7340bc75b86b8c6db1", "type": "electric_scooter", "fusion_lon": 0.0, "is_reserved": 0, "fusion_lat": 0.0, "lon": -77.03177833333334}, {"rental_uris": {"ios": "https://dc.lft.to/lastmile_qr_scan", "android": "https://dc.lft.to/lastmile_qr_scan"}, "lat": 38.932718333333334, "is_disabled": 0, "bike_id": "6c78823cad6496bf92bc699c7fa4d0f7", "name": "6c78823cad6496bf92bc699c7fa4d0f7", "type": "electric_scooter", "fusion_lon": 0.0, "is_reserved": 0, "fusion_lat": 0.0, "lon": -77.03916016666666}, {"rental_uris": {"ios": "https://dc.lft.to/lastmile_qr_scan", "android": "https://dc.lft.to/lastmile_qr_scan"},