{"data": {"bikes": [{"lon": -77.04333683333333, "bike_id": "232de8c51cc219400bcf1f3fb0373b12", "lat": 38.8922185, "fusion_lon": 0.0, "fusion_lat": 0.0, "type": "electric_scooter", "name": "232de8c51cc219400bcf1f3fb0373b12", "is_disabled": 0, "rental_uris": {"ios": "https://dc.lft.to/lastmile_qr_scan", "android": "https://dc.lft.to/lastmile_qr_scan"}, "is_reserved": 0}, {"lon": -77.01977266666667, "bike_id": "4b381c5dd5d1b602585d4d6cdb096bd6", "lat": 38.88395033333333, "fusion_lon": 0.0, "fusion_lat": 0.0, "type": "electric_scooter", "name": "4b381c5dd5d1b602585d4d6cdb096bd6", "is_disabled": 0, "rental_uris": {"ios": "https://dc.lft.to/lastmile_qr_scan", "android": "https://dc.lft.to/lastmile_qr_scan"}, "is_reserved": 0}, {"lon": -76.99003966666666, "bike_id": "faadeff7fdb2225cb7b38dc0d4749191", "lat": 38.86509266666667, "fusion_lon": 0.0, "fusion_lat": 0.0, "type": "electric_scooter", "name": "faadeff7fdb2225cb7b38dc0d4749191", "is_disabled": 0, "rental_uris": {"ios": "https://dc.lft.to/lastmile_qr_scan", "android": "https://dc.lft.to/lastmile_qr_scan"}, "is_reserved": 0}, {"lon": -77.03700216666667, "bike_id": "581e8c8aed15af22b320ffebed7503a2", "lat": 38.93529633333333, "fusion_lon": 0.0, "fusion_lat": 0.0, "type": "electric_scooter", "name": "581e8c8aed15af22b320ffebed7503a2", "is_disabled": 0, "rental_uris": {"ios": "https://dc.lft.to/lastmile_qr_scan", "android": "https://dc.lft.to/lastmile_qr_scan"}, "is_reserved": 0}, {"lon": -76.9936855, "bike_id": "6a455bba2b207e7e97515caed8de70eb", "lat": 38.87973933333333, "fusion_lon": 0.0, "fusion_lat": 0.0, "type": "electric_scooter", "name": "6a455bba2b207e7e97515caed8de70eb", "is_disabled": 0, "rental_uris": {"ios": "https://dc.lft.to/lastmile_qr_scan", "android": "https://dc.lft.to/lastmile_qr_scan"}, "is_reserved": 0}, {"lon": -76.98907083333333, "bike_id": "fe77f377901ab76ff12f1b512b53aa5c", "lat": 38.866699833333335, "fusion_lon": 0.0, "fusion_lat": 0.0, "type": "electric_scooter", "name": "fe77f377901ab76ff12f1b512b53aa5c", "is_disabled": 0, "rental_uris": {"ios": "https://dc.lft.to/lastmile_qr_scan", "android": "https://dc.lft.to/lastmile_qr_scan"}, "is_reserved": 0}, {"lon": -77.03120783333334, "bike_id": "55cd3a67ab9464e11e5c37adf753c5a6", "lat": 38.923907666666665, "fusion_lon": 0.0, "fusion_lat": 0.0, "type": "electric_scooter", "name": "55cd3a67ab9464e11e5c37adf753c5a6", "is_disabled": 0, "rental_uris": {"ios": "https://dc.lft.to/lastmile_qr_scan", "android": "https://dc.lft.to/lastmile_qr_scan"}, "is_reserved": 0}, {"lon": -76.99813166666667, "bike_id": "78734c0e94ae4661413660b3eb84789d", "lat": 38.900309666666665, "fusion_lon": 0.0, "fusion_lat": 0.0, "type": "electric_scooter", "name": "78734c0e94ae4661413660b3eb84789d", "is_disabled": 0, "rental_uris": {"ios": "https://dc.lft.to/lastmile_qr_scan", "android": "https://dc.lft.to/lastmile_qr_scan"}, "is_reserved": 0}, {"lon": -77.02933633333333, "bike_id": "b80eebde798ff5c30ab00c60d820efb6", "lat": 38.9170445, "fusion_lon": 0.0, "fusion_lat": 0.0, "type": "electric_bike", "name": "b80eebde798ff5c30ab00c60d820efb6", "is_disabled": 0, "rental_uris": {"ios": "https://dc.lft.to/lastmile_qr_scan", "android": "https://dc.lft.to/lastmile_qr_scan"}, "is_reserved": 0}, {"lon": -77.0274355, "bike_id": "184d73c7a114b7c886ab819f235a55ed", "lat": 38.89752716666667, "fusion_lon": 0.0, "fusion_lat": 0.0, "type": "electric_scooter", "name": "184d73c7a114b7c886ab819f235a55ed", "is_disabled": 0, "rental_uris": {"ios": "https://dc.lft.to/lastmile_qr_scan", "android": "https://dc.lft.to/lastmile_qr_scan"}, "is_reserved": 0}, {"lon": -77.01914, "bike_id": "f064c01aab977389f149bbe84c429322", "lat": 38.903182666666666, "fusion_lon": 0.0, "fusion_lat": 0.0, "type": "electric_scooter", "name": "f064c01aab977389f149bbe84c429322", "is_disabled": 0, "rental_uris": {"ios": "https://dc.lft.to/lastmile_qr_scan", "android": "https://dc.lft.to/lastmile_qr_scan"}, "is_reserved": 0}, {"lon": -77.0396705, "bike_id": "35f34836e543a1decac65021bd26474e", "lat": 38.8922215, "fusion_lon": 0.0, "fusion_lat": 0.0, "type": "electric_scooter", "name": "35f34836e543a1decac65021bd26474e", "is_disabled": 0, "rental_uris": {"ios": "https://dc.lft.to/lastmile_qr_scan", "android": "https://dc.lft.to/lastmile_qr_scan"}, "is_reserved": 0}, {"lon": -77.02127183333333, "bike_id": "367123a34bb45f4f89e7f3d741ff4f52", "lat": 38.8999855, "fusion_lon": 0.0, "fusion_lat": 0.0, "type": "electric_scooter", "name": "367123a34bb45f4f89e7f3d741ff4f52", "is_disabled": 0, "rental_uris": {"ios": "https://dc.lft.to/lastmile_qr_scan", "android": "https://dc.lft.to/lastmile_qr_scan"}, "is_reserved": 0}, {"lon": -77.0221325, "bike_id": "13bad41615d206b645948304ba6e8c00", "lat": 38.878918666666664, "fusion_lon": 0.0, "fusion_lat": 0.0, "type": "electric_scooter", "name": "13bad41615d206b645948304ba6e8c00", "is_disabled": 0, "rental_uris": {"ios": "https://dc.lft.to/lastmile_qr_scan", "android": "https://dc.lft.to/lastmile_qr_scan"}, "is_reserved": 0}, {"lon": -77.03742483333333, "bike_id": "618b08fce407c87e0b98af8723eaf726", "lat": 38.918107, "fusion_lon": 0.0, "fusion_lat": 0.0, "type": "electric_scooter", "name": "618b08fce407c87e0b98af8723eaf726", "is_disabled": 0, "rental_uris": {"ios": "https://dc.lft.to/lastmile_qr_scan", "android": "https://dc.lft.to/lastmile_qr_scan"}, "is_reserved": 0}, {"lon": -77.00567883333333, "bike_id": "cf20d9b26ed0126868190c526b8d7413", "lat": 38.90561483333333, "fusion_lon": 0.0, "fusion_lat": 0.0, "type": "electric_scooter", "name": "cf20d9b26ed0126868190c526b8d7413", "is_disabled": 0, "rental_uris": {"ios": "https://dc.lft.to/lastmile_qr_scan", "android": "https://dc.lft.to/lastmile_qr_scan"}, "is_reserved": 0}, {"lon": -77.00376083333333, "bike_id": "008bbe870c89bc49d49eb9deab0f0f0a", "lat": 38.897300333333334, "fusion_lon": 0.0, "fusion_lat": 0.0, "type": "electric_scooter", "name": "008bbe870c89bc49d49eb9deab0f0f0a", "is_disabled": 0, "rental_uris": {"ios": "https://dc.lft.to/lastmile_qr_scan", "android": "https://dc.lft.to/lastmile_qr_scan"}, "is_reserved": 0}, {"lon": -76.98036066666667, "bike_id": "cf222cad4d92d25fd9dd6c1670136ebf", "lat": 38.889683, "fusion_lon": 0.0, "fusion_lat": 0.0, "type": "electric_scooter", "name": "cf222cad4d92d25fd9dd6c1670136ebf", "is_disabled": 0, "rental_uris": {"ios": "https://dc.lft.to/lastmile_qr_scan", "android": "https://dc.lft.to/lastmile_qr_scan"}, "is_reserved": 0}, {"lon": -77.0238995, "bike_id": "b81a0ca00a428c41ab99e31275d5e5e8", "lat": 38.9143715, "fusion_lon": 0.0, "fusion_lat": 0.0, "type": "electric_scooter", "name": "b81a0ca00a428c41ab99e31275d5e5e8", "is_disabled": 0, "rental_uris": {"ios": "https://dc.lft.to/lastmile_qr_scan", "android": "https://dc.lft.to/lastmile_qr_scan"}, "is_reserved": 0}, {"lon": -77.00575383333333, "bike_id": "d35d765a57d1f3d40dd22dff08e32f0a", "lat": 38.905522166666664, "fusion_lon": 0.0, "fusion_lat": 0.0, "type": "electric_scooter", "name": "d35d765a57d1f3d40dd22dff08e32f0a", "is_disabled": 0, "rental_uris": {"ios": "https://dc.lft.to/lastmile_qr_scan", "android": "https://dc.lft.to/lastmile_qr_scan"}, "is_reserved": 0}, {"lon": -77.03283266666666, "bike_id": "ec6100fdd3d7234d67c485d5d269b1ce", "lat": 38.90727483333333, "fusion_lon": 0.0, "fusion_lat": 0.0, "type": "electric_scooter", "name": "ec6100fdd3d7234d67c485d5d269b1ce", "is_disabled": 0, "rental_uris": {"ios": "https://dc.lft.to/lastmile_qr_scan", "android": "https://dc.lft.to/lastmile_qr_scan"}, "is_reserved": 0}, {"lon": -76.98394966666666, "bike_id": "1733e6007276414ec292b45f73f63ae4", "lat": 38.866362, "fusion_lon": 0.0, "fusion_lat": 0.0, "type": "electric_scooter", "name": "1733e6007276414ec292b45f73f63ae4", "is_disabled": 0, "rental_uris": {"ios": "https://dc.lft.to/lastmile_qr_scan", "android": "https://dc.lft.to/lastmile_qr_scan"}, "is_reserved": 0}, {"lon": -77.036059, "bike_id": "aab6e102d07e9ad2f6199178e2e26a16", "lat": 38.934849666666665, "fusion_lon": 0.0, "fusion_lat": 0.0, "type": "electric_scooter", "name": "aab6e102d07e9ad2f6199178e2e26a16", "is_disabled": 0, "rental_uris": {"ios": "https://dc.lft.to/lastmile_qr_scan", "android": "https://dc.lft.to/lastmile_qr_scan"}, "is_reserved": 0}, {"lon": -77.014999, "bike_id": "e33cbd098ce50ac48aebfe0735866c10", "lat": 38.917589, "fusion_lon": 0.0, "fusion_lat": 0.0, "type": "electric_scooter", "name": "e33cbd098ce50ac48aebfe0735866c10", "is_disabled": 0, "rental_uris": {"ios": "https://dc.lft.to/lastmile_qr_scan", "android": "https://dc.lft.to/lastmile_qr_scan"}, "is_reserved": 0}, {"lon": -76.9220305, "bike_id": "ad9edff48414c5b9c7d0efdf5eb15945", "lat": 38.89503716666667, "fusion_lon": 0.0, "fusion_lat": 0.0, "type": "electric_bike", "name": "ad9edff48414c5b9c7d0efdf5eb15945", "is_disabled": 0, "rental_uris": {"ios": "https://dc.lft.to/lastmile_qr_scan", "android": "https://dc.lft.to/lastmile_qr_scan"}, "is_reserved": 0}, {"lon": -77.08000566666666, "bike_id": "3255a678a12c57c0efb0709e9257b603", "lat": 38.964848833333335, "fusion_lon": 0.0, "fusion_lat": 0.0, "type": "electric_scooter", "name": "3255a678a12c57c0efb0709e9257b603", "is_disabled": 0, "rental_uris": {"ios": "https://dc.lft.to/lastmile_qr_scan", "android": "https://dc.lft.to/lastmile_qr_scan"}, "is_reserved": 0}, {"lon": -77.079079, "bike_id": "94c741bf248b8ce8376bae207856a205", "lat": 38.83937233333333, "fusion_lon": 0.0, "fusion_lat": 0.0, "type": "electric_bike", "name": "94c741bf248b8ce8376bae207856a205", "is_disabled": 0, "rental_uris": {"ios": "https://dc.lft.to/lastmile_qr_scan", "android": "https://dc.lft.to/lastmile_qr_scan"}, "is_reserved": 0}, {"lon": -76.9318895, "bike_id": "9040d536c4075201a3d46f9fe5da4361", "lat": 38.8987695, "fusion_lon": 0.0, "fusion_lat": 0.0, "type": "electric_scooter", "name": "9040d536c4075201a3d46f9fe5da4361", "is_disabled": 0, "rental_uris": {"ios": "https://dc.lft.to/lastmile_qr_scan", "android": "https://dc.lft.to/lastmile_qr_scan"}, "is_reserved": 0}, {"lon": -76.99017333333333, "bike_id": "b9c9fe14fffa5496eb5a0c9a70dfc8c9", "lat": 38.882741833333334, "fusion_lon": 0.0, "fusion_lat": 0.0, "type": "electric_scooter", "name": "b9c9fe14fffa5496eb5a0c9a70dfc8c9", "is_disabled": 0, "rental_uris": {"ios": "https://dc.lft.to/lastmile_qr_scan", "android": "https://dc.lft.to/lastmile_qr_scan"}, "is_reserved": 0}, {"lon": -77.04877683333333, "bike_id": "40e68db2793808cdec0f9c9f8964af58", "lat": 38.8923465, "fusion_lon": 0.0, "fusion_lat": 0.0, "type": "electric_scooter", "name": "40e68db2793808cdec0f9c9f8964af58", "is_disabled": 0, "rental_uris": {"ios": "https://dc.lft.to/lastmile_qr_scan", "android": "https://dc.lft.to/lastmile_qr_scan"}, "is_reserved": 0}, {"lon": -76.98828566666667, "bike_id": "18110dd87e22bca2151a8508c9d98667", "lat": 38.9013345, "fusion_lon": 0.0, "fusion_lat": 0.0, "type": "electric_scooter", "name": "18110dd87e22bca2151a8508c9d98667", "is_disabled": 0, "rental_uris": {"ios": "https://dc.lft.to/lastmile_qr_scan", "android": "https://dc.lft.to/lastmile_qr_scan"}, "is_reserved": 0}, {"lon": -77.0362885, "bike_id": "10c948ebe1fbf2e807b7fb2c5be04cf6", "lat": 38.924574, "fusion_lon": 0.0, "fusion_lat": 0.0, "type": "electric_scooter", "name": "10c948ebe1fbf2e807b7fb2c5be04cf6", "is_disabled": 0, "rental_uris": {"ios": "https://dc.lft.to/lastmile_qr_scan", "android": "https://dc.lft.to/lastmile_qr_scan"}, "is_reserved": 0}, {"lon": -77.02392133333333, "bike_id": "8e436afc77266df8f1775788c0e027d5", "lat": 38.906977166666664, "fusion_lon": 0.0, "fusion_lat": 0.0, "type": "electric_scooter", "name": "8e436afc77266df8f1775788c0e027d5", "is_disabled": 0, "rental_uris": {"ios": "https://dc.lft.to/lastmile_qr_scan", "android": "https://dc.lft.to/lastmile_qr_scan"}, "is_reserved": 0}, {"lon": -77.0446985, "bike_id": "349d1227e0a7f0a2b3cdf162df212340", "lat": 38.89223666666667, "fusion_lon": 0.0, "fusion_lat": 0.0, "type": "electric_scooter", "name": "349d1227e0a7f0a2b3cdf162df212340", "is_disabled": 0, "rental_uris": {"ios": "https://dc.lft.to/lastmile_qr_scan", "android": "https://dc.lft.to/lastmile_qr_scan"}, "is_reserved": 0}, {"lon": -77.0208965, "bike_id": "f2b8c278f3eb61459743250ff02419e7", "lat": 38.927158, "fusion_lon": 0.0, "fusion_lat": 0.0, "type": "electric_scooter", "name": "f2b8c278f3eb61459743250ff02419e7", "is_disabled": 0, "rental_uris": {"ios": "https://dc.lft.to/lastmile_qr_scan", "android": "https://dc.lft.to/lastmile_qr_scan"}, "is_reserved": 0}, {"lon": -77.02961683333334, "bike_id": "1305a491bf445e83bc4a4d348e2e4ecb", "lat": 38.9050135, "fusion_lon": 0.0, "fusion_lat": 0.0, "type": "electric_scooter", "name": "1305a491bf445e83bc4a4d348e2e4ecb", "is_disabled": 0, "rental_uris": {"ios": "https://dc.lft.to/lastmile_qr_scan", "android": "https://dc.lft.to/lastmile_qr_scan"}, "is_reserved": 0}, {"lon": -77.01480183333334, "bike_id": "3cc680a5be798bffb7d9e86476267349", "lat": 38.91916483333333, "fusion_lon": 0.0, "fusion_lat": 0.0, "type": "electric_scooter", "name": "3cc680a5be798bffb7d9e86476267349", "is_disabled": 0, "rental_uris": {"ios": "https://dc.lft.to/lastmile_qr_scan", "android": "https://dc.lft.to/lastmile_qr_scan"}, "is_reserved": 0}, {"lon": -77.0949285, "bike_id": "9cc7fd4b8865224b5cf12ce637f1481e", "lat": 38.8076335, "fusion_lon": 0.0, "fusion_lat": 0.0, "type": "electric_bike", "name": "9cc7fd4b8865224b5cf12ce637f1481e", "is_disabled": 0, "rental_uris": {"ios": "https://dc.lft.to/lastmile_qr_scan", "android": "https://dc.lft.to/lastmile_qr_scan"}, "is_reserved": 0}, {"lon": -77.00603516666666, "bike_id": "cc14ff851d9ee0bf0545843e311b7ec5", "lat": 38.872962666666666, "fusion_lon": 0.0, "fusion_lat": 0.0, "type": "electric_scooter", "name": "cc14ff851d9ee0bf0545843e311b7ec5", "is_disabled": 0, "rental_uris": {"ios": "https://dc.lft.to/lastmile_qr_scan", "android": "https://dc.lft.to/lastmile_qr_scan"}, "is_reserved": 0}, {"lon": -77.016199, "bike_id": "abc184208476eb1284d1589e8cdc6731", "lat": 38.906889666666665, "fusion_lon": 0.0, "fusion_lat": 0.0, "type": "electric_scooter", "name": "abc184208476eb1284d1589e8cdc6731", "is_disabled": 0, "rental_uris": {"ios": "https://dc.lft.to/lastmile_qr_scan", "android": "https://dc.lft.to/lastmile_qr_scan"}, "is_reserved": 0}, {"lon": -77.00570066666667, "bike_id": "85ac95593c1f7e7d4cc669125e74e875", "lat": 38.90549383333333, "fusion_lon": 0.0, "fusion_lat": 0.0, "type": "electric_scooter", "name": "85ac95593c1f7e7d4cc669125e74e875", "is_disabled": 0, "rental_uris": {"ios": "https://dc.lft.to/lastmile_qr_scan", "android": "https://dc.lft.to/lastmile_qr_scan"}, "is_reserved": 0}, {"lon": -76.98931583333334, "bike_id": "2414ad84d931373c2c5a407e5dcb6985", "lat": 38.86579166666667, "fusion_lon": 0.0, "fusion_lat": 0.0, "type": "electric_scooter", "name": "2414ad84d931373c2c5a407e5dcb6985", "is_disabled": 0, "rental_uris": {"ios": "https://dc.lft.to/lastmile_qr_scan", "android": "https://dc.lft.to/lastmile_qr_scan"}, "is_reserved": 0}, {"lon": -77.02294516666667, "bike_id": "b1546fda63c9a1e3913bf0e2e422a034", "lat": 38.91077583333333, "fusion_lon": 0.0, "fusion_lat": 0.0, "type": "electric_scooter", "name": "b1546fda63c9a1e3913bf0e2e422a034", "is_disabled": 0, "rental_uris": {"ios": "https://dc.lft.to/lastmile_qr_scan", "android": "https://dc.lft.to/lastmile_qr_scan"}, "is_reserved": 0}, {"lon": -76.98705583333333, "bike_id": "a663b357898adb0272bb996ee78e9d35", "lat": 38.9070805, "fusion_lon": 0.0, "fusion_lat": 0.0, "type": "electric_scooter", "name": "a663b357898adb0272bb996ee78e9d35", "is_disabled": 0, "rental_uris": {"ios": "https://dc.lft.to/lastmile_qr_scan", "android": "https://dc.lft.to/lastmile_qr_scan"}, "is_reserved": 0}, {"lon": -77.01171433333333, "bike_id": "33770aec7b10b17222ee2fccd3003e69", "lat": 38.8723985, "fusion_lon": 0.0, "fusion_lat": 0.0, "type": "electric_bike", "name": "33770aec7b10b17222ee2fccd3003e69", "is_disabled": 0, "rental_uris": {"ios": "https://dc.lft.to/lastmile_qr_scan", "android": "https://dc.lft.to/lastmile_qr_scan"}, "is_reserved": 0}, {"lon": -77.09469533333333, "bike_id": "2786268f9020db89edabfcf4b28f4a48", "lat": 38.80764533333333, "fusion_lon": 0.0, "fusion_lat": 0.0, "type": "electric_bike", "name": "2786268f9020db89edabfcf4b28f4a48", "is_disabled": 0, "rental_uris": {"ios": "https://dc.lft.to/lastmile_qr_scan", "android": "https://dc.lft.to/lastmile_qr_scan"}, "is_reserved": 0}, {"lon": -77.023851, "bike_id": "42a4ead31624ac5be92ba64a241d4b8e", "lat": 38.909547833333335, "fusion_lon": 0.0, "fusion_lat": 0.0, "type": "electric_scooter", "name": "42a4ead31624ac5be92ba64a241d4b8e", "is_disabled": 0, "rental_uris": {"ios": "https://dc.lft.to/lastmile_qr_scan", "android": "https://dc.lft.to/lastmile_qr_scan"}, "is_reserved": 0}, {"lon": -76.98263116666666, "bike_id": "2278711df5922911ceb2e7ee01b0b485", "lat": 38.908565833333334, "fusion_lon": 0.0, "fusion_lat": 0.0, "type": "electric_scooter", "name": "2278711df5922911ceb2e7ee01b0b485", "is_disabled": 0, "rental_uris": {"ios": "https://dc.lft.to/lastmile_qr_scan", "android": "https://dc.lft.to/lastmile_qr_scan"}, "is_reserved": 0}, {"lon": -76.98899483333334, "bike_id": "12d2ab30c21e6bc8a2b87f85d2d7c4ac", "lat": 38.9134465, "fusion_lon": 0.0, "fusion_lat": 0.0, "type": "electric_scooter", "name": "12d2ab30c21e6bc8a2b87f85d2d7c4ac", "is_disabled": 0, "rental_uris": {"ios": "https://dc.lft.to/lastmile_qr_scan", "android": "https://dc.lft.to/lastmile_qr_scan"}, "is_reserved": 0}, {"lon": -76.94290466666666, "bike_id": "c863428071afb67055db934ddac90682", "lat": 38.93869333333333, "fusion_lon": 0.0, "fusion_lat": 0.0, "type": "electric_bike", "name": "c863428071afb67055db934ddac90682", "is_disabled": 0, "rental_uris": {"ios": "https://dc.lft.to/lastmile_qr_scan", "android": "https://dc.lft.to/lastmile_qr_scan"}, "is_reserved": 0}, {"lon": -76.9547975, "bike_id": "56989f33479dcc3e92391fbf7ba773df", "lat": 38.88472933333333, "fusion_lon": 0.0, "fusion_lat": 0.0, "type": "electric_scooter", "name": "56989f33479dcc3e92391fbf7ba773df", "is_disabled": 0, "rental_uris": {"ios": "https://dc.lft.to/lastmile_qr_scan", "android": "https://dc.lft.to/lastmile_qr_scan"}, "is_reserved": 0}, {"lon": -76.99029716666666, "bike_id": "5e4a7166e2973955e91e948cab789b65", "lat": 38.89178316666667, "fusion_lon": 0.0, "fusion_lat": 0.0, "type": "electric_scooter", "name": "5e4a7166e2973955e91e948cab789b65", "is_disabled": 0, "rental_uris": {"ios": "https://dc.lft.to/lastmile_qr_scan", "android": "https://dc.lft.to/lastmile_qr_scan"}, "is_reserved": 0}, {"lon": -77.0419025, "bike_id": "7afef9e48789bf1a5a7a7115537aea39", "lat": 38.89979316666667, "fusion_lon": 0.0, "fusion_lat": 0.0, "type": "electric_scooter", "name": "7afef9e48789bf1a5a7a7115537aea39", "is_disabled": 0, "rental_uris": {"ios": "https://dc.lft.to/lastmile_qr_scan", "android": "https://dc.lft.to/lastmile_qr_scan"}, "is_reserved": 0}, {"lon": -77.0353355, "bike_id": "ef0d5a13a76d1c94d746ec50070089d5", "lat": 38.92630966666667, "fusion_lon": 0.0, "fusion_lat": 0.0, "type": "electric_scooter", "name": "ef0d5a13a76d1c94d746ec50070089d5", "is_disabled": 0, "rental_uris": {"ios": "https://dc.lft.to/lastmile_qr_scan", "android": "https://dc.lft.to/lastmile_qr_scan"}, "is_reserved": 0}, {"lon": -77.0262555, "bike_id": "1bc220fd40e18a016d5d04a2ba09e822", "lat": 38.962202833333336, "fusion_lon": 0.0, "fusion_lat": 0.0, "type": "electric_bike", "name": "1bc220fd40e18a016d5d04a2ba09e822", "is_disabled": 0, "rental_uris": {"ios": "https://dc.lft.to/lastmile_qr_scan", "android": "https://dc.lft.to/lastmile_qr_scan"}, "is_reserved": 0}, {"lon": -77.06254366666667, "bike_id": "9a2c524b94b50bbc240d12b67a0fb60a", "lat": 38.944162666666664, "fusion_lon": 0.0, "fusion_lat": 0.0, "type": "electric_scooter", "name": "9a2c524b94b50bbc240d12b67a0fb60a", "is_disabled": 0, "rental_uris": {"ios": "https://dc.lft.to/lastmile_qr_scan", "android": "https://dc.lft.to/lastmile_qr_scan"}, "is_reserved": 0}, {"lon": -77.02173883333333, "bike_id": "f041a73a92c5c4d63cf4786abbd2bd06", "lat": 38.8872515, "fusion_lon": 0.0, "fusion_lat": 0.0, "type": "electric_scooter", "name": "f041a73a92c5c4d63cf4786abbd2bd06", "is_disabled": 0, "rental_uris": {"ios": "https://dc.lft.to/lastmile_qr_scan", "android": "https://dc.lft.to/lastmile_qr_scan"}, "is_reserved": 0}, {"lon": -77.032603, "bike_id": "459f70a54f20af043c1e00baee3bd04c", "lat": 38.935469, "fusion_lon": 0.0, "fusion_lat": 0.0, "type": "electric_scooter", "name": "459f70a54f20af043c1e00baee3bd04c", "is_disabled": 0, "rental_uris": {"ios": "https://dc.lft.to/lastmile_qr_scan", "android": "https://dc.lft.to/lastmile_qr_scan"}, "is_reserved": 0}, {"lon": -77.10087283333333, "bike_id": "4feb1ee608e7e3e4e9ec998f140c9e93", "lat": 38.959571, "fusion_lon": 0.0, "fusion_lat": 0.0, "type": "electric_bike", "name": "4feb1ee608e7e3e4e9ec998f140c9e93", "is_disabled": 0, "rental_uris": {"ios": "https://dc.lft.to/lastmile_qr_scan", "android": "https://dc.lft.to/lastmile_qr_scan"}, "is_reserved": 0}, {"lon": -76.99544766666666, "bike_id": "30b9a8964790fe333fa058d2590c5b8f", "lat": 38.8316005, "fusion_lon": 0.0, "fusion_lat": 0.0, "type": "electric_bike", "name": "30b9a8964790fe333fa058d2590c5b8f", "is_disabled": 0, "rental_uris": {"ios": "https://dc.lft.to/lastmile_qr_scan", "android": "https://dc.lft.to/lastmile_qr_scan"}, "is_reserved": 0}, {"lon": -76.975166, "bike_id": "bbfcd82a2df1f6ed07410671375f3d7a", "lat": 38.9669785, "fusion_lon": 0.0, "fusion_lat": 0.0, "type": "electric_bike", "name": "bbfcd82a2df1f6ed07410671375f3d7a", "is_disabled": 0, "rental_uris": {"ios": "https://dc.lft.to/lastmile_qr_scan", "android": "https://dc.lft.to/lastmile_qr_scan"}, "is_reserved": 0}, {"lon": -76.99648816666667, "bike_id": "9a87710323acfba05d47a1d9ec3f19b9", "lat": 38.98831033333333, "fusion_lon": 0.0, "fusion_lat": 0.0, "type": "electric_bike", "name": "9a87710323acfba05d47a1d9ec3f19b9", "is_disabled": 0, "rental_uris": {"ios": "https://dc.lft.to/lastmile_qr_scan", "android": "https://dc.lft.to/lastmile_qr_scan"}, "is_reserved": 0}, {"lon": -77.04080883333333, "bike_id": "5c8309573f831901ffa4ae9728b8e0ee", "lat": 38.9072985, "fusion_lon": 0.0, "fusion_lat": 0.0, "type": "electric_scooter", "name": "5c8309573f831901ffa4ae9728b8e0ee", "is_disabled": 0, "rental_uris": {"ios": "https://dc.lft.to/lastmile_qr_scan", "android": "https://dc.lft.to/lastmile_qr_scan"}, "is_reserved": 0}, {"lon": -77.03447783333333, "bike_id": "b964681d3fd38b54dc36dc18fa4b993d", "lat": 38.91810916666667, "fusion_lon": 0.0, "fusion_lat": 0.0, "type": "electric_scooter", "name": "b964681d3fd38b54dc36dc18fa4b993d", "is_disabled": 0, "rental_uris": {"ios": "https://dc.lft.to/lastmile_qr_scan", "android": "https://dc.lft.to/lastmile_qr_scan"}, "is_reserved": 0}, {"lon": -77.05050666666666, "bike_id": "87b86c72f0173707ea2cbe9edbe7b947", "lat": 38.90041083333333, "fusion_lon": 0.0, "fusion_lat": 0.0, "type": "electric_scooter", "name": "87b86c72f0173707ea2cbe9edbe7b947", "is_disabled": 0, "rental_uris": {"ios": "https://dc.lft.to/lastmile_qr_scan", "android": "https://dc.lft.to/lastmile_qr_scan"}, "is_reserved": 0}, {"lon": -77.02372516666667, "bike_id": "77c6d393e503642b10c705682ed21a23", "lat": 38.8921885, "fusion_lon": 0.0, "fusion_lat": 0.0, "type": "electric_scooter", "name": "77c6d393e503642b10c705682ed21a23", "is_disabled": 0, "rental_uris": {"ios": "https://dc.lft.to/lastmile_qr_scan", "android": "https://dc.lft.to/lastmile_qr_scan"}, "is_reserved": 0}, {"lon": -77.02088033333334, "bike_id": "f0cf76cceac116eeb256938e29bf3960", "lat": 38.9575115, "fusion_lon": 0.0, "fusion_lat": 0.0, "type": "electric_scooter", "name": "f0cf76cceac116eeb256938e29bf3960", "is_disabled": 0, "rental_uris": {"ios": "https://dc.lft.to/lastmile_qr_scan", "android": "https://dc.lft.to/lastmile_qr_scan"}, "is_reserved": 0}, {"lon": -77.018355, "bike_id": "f2ba3cdca850e19f3c1f075f98e11220", "lat": 38.90244933333334, "fusion_lon": 0.0, "fusion_lat": 0.0, "type": "electric_scooter", "name": "f2ba3cdca850e19f3c1f075f98e11220", "is_disabled": 0, "rental_uris": {"ios": "https://dc.lft.to/lastmile_qr_scan", "android": "https://dc.lft.to/lastmile_qr_scan"}, "is_reserved": 0}, {"lon": -77.03207816666666, "bike_id": "cfcf0ce910d2b4a976dece7fc582b691", "lat": 38.914979833333334, "fusion_lon": 0.0, "fusion_lat": 0.0, "type": "electric_scooter", "name": "cfcf0ce910d2b4a976dece7fc582b691", "is_disabled": 0, "rental_uris": {"ios": "https://dc.lft.to/lastmile_qr_scan", "android": "https://dc.lft.to/lastmile_qr_scan"}, "is_reserved": 0}, {"lon": -77.03862116666667, "bike_id": "e08787382852ca509ccc9973e34406ea", "lat": 38.911883333333336, "fusion_lon": 0.0, "fusion_lat": 0.0, "type": "electric_scooter", "name": "e08787382852ca509ccc9973e34406ea", "is_disabled": 0, "rental_uris": {"ios": "https://dc.lft.to/lastmile_qr_scan", "android": "https://dc.lft.to/lastmile_qr_scan"}, "is_reserved": 0}, {"lon": -76.99672483333333, "bike_id": "019cb427bd1750d5f66db1c5798102e5", "lat": 38.8602555, "fusion_lon": 0.0, "fusion_lat": 0.0, "type": "electric_scooter", "name": "019cb427bd1750d5f66db1c5798102e5", "is_disabled": 0, "rental_uris": {"ios": "https://dc.lft.to/lastmile_qr_scan", "android": "https://dc.lft.to/lastmile_qr_scan"}, "is_reserved": 0}, {"lon": -77.08286266666667, "bike_id": "538edf9257820ae5496006b69cfe2bcd", "lat": 38.93581433333333, "fusion_lon": 0.0, "fusion_lat": 0.0, "type": "electric_scooter", "name": "538edf9257820ae5496006b69cfe2bcd", "is_disabled": 0, "rental_uris": {"ios": "https://dc.lft.to/lastmile_qr_scan", "android": "https://dc.lft.to/lastmile_qr_scan"}, "is_reserved": 0}, {"lon": -77.03227666666666, "bike_id": "bc9cda5e9f9e3a527652005251b2bf81", "lat": 38.897684, "fusion_lon": 0.0, "fusion_lat": 0.0, "type": "electric_scooter", "name": "bc9cda5e9f9e3a527652005251b2bf81", "is_disabled": 0, "rental_uris": {"ios": "https://dc.lft.to/lastmile_qr_scan", "android": "https://dc.lft.to/lastmile_qr_scan"}, "is_reserved": 0}, {"lon": -77.03435733333333, "bike_id": "ad6944470c42e6d9fd5bcb168634929c", "lat": 38.909765, "fusion_lon": 0.0, "fusion_lat": 0.0, "type": "electric_scooter", "name": "ad6944470c42e6d9fd5bcb168634929c", "is_disabled": 0, "rental_uris": {"ios": "https://dc.lft.to/lastmile_qr_scan", "android": "https://dc.lft.to/lastmile_qr_scan"}, "is_reserved": 0}, {"lon": -77.1252995, "bike_id": "ccb5b9d6c47a4a0eef36a8c5b001eb0b", "lat": 39.05639566666667, "fusion_lon": 0.0, "fusion_lat": 0.0, "type": "electric_bike", "name": "ccb5b9d6c47a4a0eef36a8c5b001eb0b", "is_disabled": 0, "rental_uris": {"ios": "https://dc.lft.to/lastmile_qr_scan", "android": "https://dc.lft.to/lastmile_qr_scan"}, "is_reserved": 0}, {"lon": -77.04373933333333, "bike_id": "4add6b639c86ee4bd8209b2e8e4f522f", "lat": 38.8922505, "fusion_lon": 0.0, "fusion_lat": 0.0, "type": "electric_scooter", "name": "4add6b639c86ee4bd8209b2e8e4f522f", "is_disabled": 0, "rental_uris": {"ios": "https://dc.lft.to/lastmile_qr_scan", "android": "https://dc.lft.to/lastmile_qr_scan"}, "is_reserved": 0}, {"lon": -77.01305133333334, "bike_id": "0c14a0cd372452c203903b181b2b41a3", "lat": 38.9143445, "fusion_lon": 0.0, "fusion_lat": 0.0, "type": "electric_scooter", "name": "0c14a0cd372452c203903b181b2b41a3", "is_disabled": 0, "rental_uris": {"ios": "https://dc.lft.to/lastmile_qr_scan", "android": "https://dc.lft.to/lastmile_qr_scan"}, "is_reserved": 0}, {"lon": -76.9993485, "bike_id": "0bdaca3eb600d85785a984b78c20ffd8", "lat": 38.84316033333333, "fusion_lon": 0.0, "fusion_lat": 0.0, "type": "electric_scooter", "name": "0bdaca3eb600d85785a984b78c20ffd8", "is_disabled": 0, "rental_uris": {"ios": "https://dc.lft.to/lastmile_qr_scan", "android": "https://dc.lft.to/lastmile_qr_scan"}, "is_reserved": 0}, {"lon": -77.03440683333334, "bike_id": "b4fd87ec35bc8d95dbb7126e0b35d955", "lat": 38.905564166666665, "fusion_lon": 0.0, "fusion_lat": 0.0, "type": "electric_scooter", "name": "b4fd87ec35bc8d95dbb7126e0b35d955", "is_disabled": 0, "rental_uris": {"ios": "https://dc.lft.to/lastmile_qr_scan", "android": "https://dc.lft.to/lastmile_qr_scan"}, "is_reserved": 0}, {"lon": -77.02844616666667, "bike_id": "9185aabdd942c0723782982ed7c752ba", "lat": 38.934175333333336, "fusion_lon": 0.0, "fusion_lat": 0.0, "type": "electric_scooter", "name": "9185aabdd942c0723782982ed7c752ba", "is_disabled": 0, "rental_uris": {"ios": "https://dc.lft.to/lastmile_qr_scan", "android": "https://dc.lft.to/lastmile_qr_scan"}, "is_reserved": 0}, {"lon": -77.04340116666667, "bike_id": "5698ee1c6b81eb0b63c95c2a5f75176b", "lat": 38.89224266666667, "fusion_lon": 0.0, "fusion_lat": 0.0, "type": "electric_scooter", "name": "5698ee1c6b81eb0b63c95c2a5f75176b", "is_disabled": 0, "rental_uris": {"ios": "https://dc.lft.to/lastmile_qr_scan", "android": "https://dc.lft.to/lastmile_qr_scan"}, "is_reserved": 0}, {"lon": -77.07451566666667, "bike_id": "cb363156856300ae9c9e9b151fe53a7a", "lat": 38.9451495, "fusion_lon": 0.0, "fusion_lat": 0.0, "type": "electric_scooter", "name": "cb363156856300ae9c9e9b151fe53a7a", "is_disabled": 0, "rental_uris": {"ios": "https://dc.lft.to/lastmile_qr_scan", "android": "https://dc.lft.to/lastmile_qr_scan"}, "is_reserved": 0}, {"lon": -76.93731866666667, "bike_id": "ff17e36453a54cecbeab4cb69517e3ed", "lat": 38.890164166666665, "fusion_lon": 0.0, "fusion_lat": 0.0, "type": "electric_scooter", "name": "ff17e36453a54cecbeab4cb69517e3ed", "is_disabled": 0, "rental_uris": {"ios": "https://dc.lft.to/lastmile_qr_scan", "android": "https://dc.lft.to/lastmile_qr_scan"}, "is_reserved": 0}, {"lon": -77.01601266666667, "bike_id": "60d08074e8a55d74be2b598d5b38758a", "lat": 38.8997225, "fusion_lon": 0.0, "fusion_lat": 0.0, "type": "electric_scooter", "name": "60d08074e8a55d74be2b598d5b38758a", "is_disabled": 0, "rental_uris": {"ios": "https://dc.lft.to/lastmile_qr_scan", "android": "https://dc.lft.to/lastmile_qr_scan"}, "is_reserved": 0}, {"lon": -77.03456016666667, "bike_id": "2b81df013af6c4da68afc06414cf6e20", "lat": 38.90268916666667, "fusion_lon": 0.0, "fusion_lat": 0.0, "type": "electric_scooter", "name": "2b81df013af6c4da68afc06414cf6e20", "is_disabled": 0, "rental_uris": {"ios": "https://dc.lft.to/lastmile_qr_scan", "android": "https://dc.lft.to/lastmile_qr_scan"}, "is_reserved": 0}, {"lon": -77.01221183333334, "bike_id": "d58a732fba971dd2ae442226cde0459d", "lat": 38.9153995, "fusion_lon": 0.0, "fusion_lat": 0.0, "type": "electric_scooter", "name": "d58a732fba971dd2ae442226cde0459d", "is_disabled": 0, "rental_uris": {"ios": "https://dc.lft.to/lastmile_qr_scan", "android": "https://dc.lft.to/lastmile_qr_scan"}, "is_reserved": 0}, {"lon": -77.046771, "bike_id": "efceebee763599653cf52d6d5133c009", "lat": 38.892325666666665, "fusion_lon": 0.0, "fusion_lat": 0.0, "type": "electric_scooter", "name": "efceebee763599653cf52d6d5133c009", "is_disabled": 0, "rental_uris": {"ios": "https://dc.lft.to/lastmile_qr_scan", "android": "https://dc.lft.to/lastmile_qr_scan"}, "is_reserved": 0}, {"lon": -77.02487583333334, "bike_id": "c3d99d69ce15de5357033a15cd6c6ad4", "lat": 38.916946333333335, "fusion_lon": 0.0, "fusion_lat": 0.0, "type": "electric_scooter", "name": "c3d99d69ce15de5357033a15cd6c6ad4", "is_disabled": 0, "rental_uris": {"ios": "https://dc.lft.to/lastmile_qr_scan", "android": "https://dc.lft.to/lastmile_qr_scan"}, "is_reserved": 0}, {"lon": -77.01380716666667, "bike_id": "e1bb65b384a5931050fe9d73d0bcea3c", "lat": 38.91221916666667, "fusion_lon": 0.0, "fusion_lat": 0.0, "type": "electric_scooter", "name": "e1bb65b384a5931050fe9d73d0bcea3c", "is_disabled": 0, "rental_uris": {"ios": "https://dc.lft.to/lastmile_qr_scan", "android": "https://dc.lft.to/lastmile_qr_scan"}, "is_reserved": 0}, {"lon": -77.052773, "bike_id": "ad8ca6179cfdf31a8274e735b47f9688", "lat": 38.92564616666667, "fusion_lon": 0.0, "fusion_lat": 0.0, "type": "electric_scooter", "name": "ad8ca6179cfdf31a8274e735b47f9688", "is_disabled": 0, "rental_uris": {"ios": "https://dc.lft.to/lastmile_qr_scan", "android": "https://dc.lft.to/lastmile_qr_scan"}, "is_reserved": 0}, {"lon": -77.0207835, "bike_id": "3dc5ff84923adb58927f009695eb51d1", "lat": 38.89995016666667, "fusion_lon": 0.0, "fusion_lat": 0.0, "type": "electric_scooter", "name": "3dc5ff84923adb58927f009695eb51d1", "is_disabled": 0, "rental_uris": {"ios": "https://dc.lft.to/lastmile_qr_scan", "android": "https://dc.lft.to/lastmile_qr_scan"}, "is_reserved": 0}, {"lon": -76.98525466666666, "bike_id": "9745b60131ff93e7610eeb4a5d07f392", "lat": 38.86686266666667, "fusion_lon": 0.0, "fusion_lat": 0.0, "type": "electric_scooter", "name": "9745b60131ff93e7610eeb4a5d07f392", "is_disabled": 0, "rental_uris": {"ios": "https://dc.lft.to/lastmile_qr_scan", "android": "https://dc.lft.to/lastmile_qr_scan"}, "is_reserved": 0}, {"lon": -77.02227633333334, "bike_id": "992cef534df6ba439c5979865a948edb", "lat": 38.912531, "fusion_lon": 0.0, "fusion_lat": 0.0, "type": "electric_scooter", "name": "992cef534df6ba439c5979865a948edb", "is_disabled": 0, "rental_uris": {"ios": "https://dc.lft.to/lastmile_qr_scan", "android": "https://dc.lft.to/lastmile_qr_scan"}, "is_reserved": 0}, {"lon": -76.9305765, "bike_id": "b606a7c70ce33b2e643b0b7703d4cfb0", "lat": 38.88386966666667, "fusion_lon": 0.0, "fusion_lat": 0.0, "type": "electric_scooter", "name": "b606a7c70ce33b2e643b0b7703d4cfb0", "is_disabled": 0, "rental_uris": {"ios": "https://dc.lft.to/lastmile_qr_scan", "android": "https://dc.lft.to/lastmile_qr_scan"}, "is_reserved": 0}, {"lon": -77.02040216666667, "bike_id": "3ecf872182cb08f256075f0d20c7bd26", "lat": 38.90861816666666, "fusion_lon": 0.0, "fusion_lat": 0.0, "type": "electric_scooter", "name": "3ecf872182cb08f256075f0d20c7bd26", "is_disabled": 0, "rental_uris": {"ios": "https://dc.lft.to/lastmile_qr_scan", "android": "https://dc.lft.to/lastmile_qr_scan"}, "is_reserved": 0}, {"lon": -77.02657683333334, "bike_id": "f5898b155a09b08f240b8d4adad09d73", "lat": 38.91696133333333, "fusion_lon": 0.0, "fusion_lat": 0.0, "type": "electric_scooter", "name": "f5898b155a09b08f240b8d4adad09d73", "is_disabled": 0, "rental_uris": {"ios": "https://dc.lft.to/lastmile_qr_scan", "android": "https://dc.lft.to/lastmile_qr_scan"}, "is_reserved": 0}, {"lon": -77.014763, "bike_id": "c411aa7826bfca5d3466bd9e26ecf991", "lat": 38.94065716666667, "fusion_lon": 0.0, "fusion_lat": 0.0, "type": "electric_bike", "name": "c411aa7826bfca5d3466bd9e26ecf991", "is_disabled": 0, "rental_uris": {"ios": "https://dc.lft.to/lastmile_qr_scan", "android": "https://dc.lft.to/lastmile_qr_scan"}, "is_reserved": 0}, {"lon": -77.02661866666666, "bike_id": "bba98ad94838560a5d8e4d0a2f862310", "lat": 38.9218035, "fusion_lon": 0.0, "fusion_lat": 0.0, "type": "electric_scooter", "name": "bba98ad94838560a5d8e4d0a2f862310", "is_disabled": 0, "rental_uris": {"ios": "https://dc.lft.to/lastmile_qr_scan", "android": "https://dc.lft.to/lastmile_qr_scan"}, "is_reserved": 0}, {"lon": -77.0034755, "bike_id": "e94b264cfefdfd4610316b38b05023b1", "lat": 38.899370166666664, "fusion_lon": 0.0, "fusion_lat": 0.0, "type": "electric_scooter", "name": "e94b264cfefdfd4610316b38b05023b1", "is_disabled": 0, "rental_uris": {"ios": "https://dc.lft.to/lastmile_qr_scan", "android": "https://dc.lft.to/lastmile_qr_scan"}, "is_reserved": 0}, {"lon": -77.04357183333333, "bike_id": "c1df35b8a46bdd1f121994c5e29c4379", "lat": 38.9217115, "fusion_lon": 0.0, "fusion_lat": 0.0, "type": "electric_scooter", "name": "c1df35b8a46bdd1f121994c5e29c4379", "is_disabled": 0, "rental_uris": {"ios": "https://dc.lft.to/lastmile_qr_scan", "android": "https://dc.lft.to/lastmile_qr_scan"}, "is_reserved": 0}, {"lon": -77.03182816666667, "bike_id": "2c0038fc0742dc0568197ec189249edf", "lat": 38.89199883333333, "fusion_lon": 0.0, "fusion_lat": 0.0, "type": "electric_scooter", "name": "2c0038fc0742dc0568197ec189249edf", "is_disabled": 0, "rental_uris": {"ios": "https://dc.lft.to/lastmile_qr_scan", "android": "https://dc.lft.to/lastmile_qr_scan"}, "is_reserved": 0}, {"lon": -77.02692633333334, "bike_id": "1317d6739d4e9e83de07f9865902ca39", "lat": 38.92666333333333, "fusion_lon": 0.0, "fusion_lat": 0.0, "type": "electric_scooter", "name": "1317d6739d4e9e83de07f9865902ca39", "is_disabled": 0, "rental_uris": {"ios": "https://dc.lft.to/lastmile_qr_scan", "android": "https://dc.lft.to/lastmile_qr_scan"}, "is_reserved": 0}, {"lon": -77.02268716666667, "bike_id": "0b96244463b81d50a386a7daecfa0588", "lat": 38.937642333333336, "fusion_lon": 0.0, "fusion_lat": 0.0, "type": "electric_scooter", "name": "0b96244463b81d50a386a7daecfa0588", "is_disabled": 0, "rental_uris": {"ios": "https://dc.lft.to/lastmile_qr_scan", "android": "https://dc.lft.to/lastmile_qr_scan"}, "is_reserved": 0}, {"lon": -77.04486483333334, "bike_id": "466a8005886bfa4910a779dd82b26750", "lat": 38.89238783333333, "fusion_lon": 0.0, "fusion_lat": 0.0, "type": "electric_scooter", "name": "466a8005886bfa4910a779dd82b26750", "is_disabled": 0, "rental_uris": {"ios": "https://dc.lft.to/lastmile_qr_scan", "android": "https://dc.lft.to/lastmile_qr_scan"}, "is_reserved": 0}, {"lon": -77.01278166666667, "bike_id": "9576e1de081fc4dea793d7be758fd520", "lat": 38.915643833333334, "fusion_lon": 0.0, "fusion_lat": 0.0, "type": "electric_scooter", "name": "9576e1de081fc4dea793d7be758fd520", "is_disabled": 0, "rental_uris": {"ios": "https://dc.lft.to/lastmile_qr_scan", "android": "https://dc.lft.to/lastmile_qr_scan"}, "is_reserved": 0}, {"lon": -77.0052765, "bike_id": "b1f7a67a01e768253a5bc1a8c11831d2", "lat": 38.929753, "fusion_lon": 0.0, "fusion_lat": 0.0, "type": "electric_scooter", "name": "b1f7a67a01e768253a5bc1a8c11831d2", "is_disabled": 0, "rental_uris": {"ios": "https://dc.lft.to/lastmile_qr_scan", "android": "https://dc.lft.to/lastmile_qr_scan"}, "is_reserved": 0}, {"lon": -77.024724, "bike_id": "5a92a5f29c7963512fe91938e0f9bf32", "lat": 38.918218833333334, "fusion_lon": 0.0, "fusion_lat": 0.0, "type": "electric_scooter", "name": "5a92a5f29c7963512fe91938e0f9bf32", "is_disabled": 0, "rental_uris": {"ios": "https://dc.lft.to/lastmile_qr_scan", "android": "https://dc.lft.to/lastmile_qr_scan"}, "is_reserved": 0}, {"lon": -77.0120905, "bike_id": "612daabb8ca1fcd8bd92603509e961cf", "lat": 38.92121083333333, "fusion_lon": 0.0, "fusion_lat": 0.0, "type": "electric_scooter", "name": "612daabb8ca1fcd8bd92603509e961cf", "is_disabled": 0, "rental_uris": {"ios": "https://dc.lft.to/lastmile_qr_scan", "android": "https://dc.lft.to/lastmile_qr_scan"}, "is_reserved": 0}, {"lon": -77.02303666666667, "bike_id": "9f09c48acdd92e233a8fc5eb6757b8c7", "lat": 38.91696483333333, "fusion_lon": 0.0, "fusion_lat": 0.0, "type": "electric_scooter", "name": "9f09c48acdd92e233a8fc5eb6757b8c7", "is_disabled": 0, "rental_uris": {"ios": "https://dc.lft.to/lastmile_qr_scan", "android": "https://dc.lft.to/lastmile_qr_scan"}, "is_reserved": 0}, {"lon": -77.04181133333333, "bike_id": "a2929674ff138ef8a8c96a0d98a0f183", "lat": 38.892263166666666, "fusion_lon": 0.0, "fusion_lat": 0.0, "type": "electric_scooter", "name": "a2929674ff138ef8a8c96a0d98a0f183", "is_disabled": 0, "rental_uris": {"ios": "https://dc.lft.to/lastmile_qr_scan", "android": "https://dc.lft.to/lastmile_qr_scan"}, "is_reserved": 0}, {"lon": -76.98225833333333, "bike_id": "ada3003849fb3236d60324f060945113", "lat": 38.866498666666665, "fusion_lon": 0.0, "fusion_lat": 0.0, "type": "electric_scooter", "name": "ada3003849fb3236d60324f060945113", "is_disabled": 0, "rental_uris": {"ios": "https://dc.lft.to/lastmile_qr_scan", "android": "https://dc.lft.to/lastmile_qr_scan"}, "is_reserved": 0}, {"lon": -77.04353883333333, "bike_id": "2a0b9c6b701246c83c3e55afdb4d9ac1", "lat": 38.901309, "fusion_lon": 0.0, "fusion_lat": 0.0, "type": "electric_scooter", "name": "2a0b9c6b701246c83c3e55afdb4d9ac1", "is_disabled": 0, "rental_uris": {"ios": "https://dc.lft.to/lastmile_qr_scan", "android": "https://dc.lft.to/lastmile_qr_scan"}, "is_reserved": 0}, {"lon": -77.0515965, "bike_id": "16486d051883576f323a47cd8ca2b9bc", "lat": 39.04305683333333, "fusion_lon": 0.0, "fusion_lat": 0.0, "type": "electric_bike", "name": "16486d051883576f323a47cd8ca2b9bc", "is_disabled": 0, "rental_uris": {"ios": "https://dc.lft.to/lastmile_qr_scan", "android": "https://dc.lft.to/lastmile_qr_scan"}, "is_reserved": 0}, {"lon": -77.03826066666667, "bike_id": "6e0a6b05fc67cafe9d4ebc976f0ea1a0", "lat": 38.91119583333333, "fusion_lon": 0.0, "fusion_lat": 0.0, "type": "electric_scooter", "name": "6e0a6b05fc67cafe9d4ebc976f0ea1a0", "is_disabled": 0, "rental_uris": {"ios": "https://dc.lft.to/lastmile_qr_scan", "android": "https://dc.lft.to/lastmile_qr_scan"}, "is_reserved": 0}, {"lon": -76.93004316666666, "bike_id": "1e386646550ecd06203a1609bb3aefd8", "lat": 38.89196, "fusion_lon": 0.0, "fusion_lat": 0.0, "type": "electric_scooter", "name": "1e386646550ecd06203a1609bb3aefd8", "is_disabled": 0, "rental_uris": {"ios": "https://dc.lft.to/lastmile_qr_scan", "android": "https://dc.lft.to/lastmile_qr_scan"}, "is_reserved": 0}, {"lon": -77.00066283333334, "bike_id": "f14ea730ac0cebf750b2163a339918dd", "lat": 38.8949925, "fusion_lon": 0.0, "fusion_lat": 0.0, "type": "electric_scooter", "name": "f14ea730ac0cebf750b2163a339918dd", "is_disabled": 0, "rental_uris": {"ios": "https://dc.lft.to/lastmile_qr_scan", "android": "https://dc.lft.to/lastmile_qr_scan"}, "is_reserved": 0}, {"lon": -77.057243, "bike_id": "8ece00a72b0288232da6424030313122", "lat": 38.93365983333333, "fusion_lon": 0.0, "fusion_lat": 0.0, "type": "electric_scooter", "name": "8ece00a72b0288232da6424030313122", "is_disabled": 0, "rental_uris": {"ios": "https://dc.lft.to/lastmile_qr_scan", "android": "https://dc.lft.to/lastmile_qr_scan"}, "is_reserved": 0}, {"lon": -77.0415665, "bike_id": "43870bf1ea838089894c1822c0f8ad4b", "lat": 38.914153666666664, "fusion_lon": 0.0, "fusion_lat": 0.0, "type": "electric_scooter", "name": "43870bf1ea838089894c1822c0f8ad4b", "is_disabled": 0, "rental_uris": {"ios": "https://dc.lft.to/lastmile_qr_scan", "android": "https://dc.lft.to/lastmile_qr_scan"}, "is_reserved": 0}, {"lon": -77.05698683333334, "bike_id": "69e6571ad8f5049bffee93426e15ff3f", "lat": 38.9371615, "fusion_lon": 0.0, "fusion_lat": 0.0, "type": "electric_scooter", "name": "69e6571ad8f5049bffee93426e15ff3f", "is_disabled": 0, "rental_uris": {"ios": "https://dc.lft.to/lastmile_qr_scan", "android": "https://dc.lft.to/lastmile_qr_scan"}, "is_reserved": 0}, {"lon": -77.02779516666666, "bike_id": "4af9804e0b02f7f525320c3234c7e76a", "lat": 38.892244166666664, "fusion_lon": 0.0, "fusion_lat": 0.0, "type": "electric_scooter", "name": "4af9804e0b02f7f525320c3234c7e76a", "is_disabled": 0, "rental_uris": {"ios": "https://dc.lft.to/lastmile_qr_scan", "android": "https://dc.lft.to/lastmile_qr_scan"}, "is_reserved": 0}, {"lon": -77.02779366666667, "bike_id": "608c690dd561a4ea492130b3a1ff05ec", "lat": 38.89221033333333, "fusion_lon": 0.0, "fusion_lat": 0.0, "type": "electric_scooter", "name": "608c690dd561a4ea492130b3a1ff05ec", "is_disabled": 0, "rental_uris": {"ios": "https://dc.lft.to/lastmile_qr_scan", "android": "https://dc.lft.to/lastmile_qr_scan"}, "is_reserved": 0}, {"lon": -76.98233083333334, "bike_id": "6fea0d693d9d3beff69c4aa9d44c03f0", "lat": 38.886478, "fusion_lon": 0.0, "fusion_lat": 0.0, "type": "electric_scooter", "name": "6fea0d693d9d3beff69c4aa9d44c03f0", "is_disabled": 0, "rental_uris": {"ios": "https://dc.lft.to/lastmile_qr_scan", "android": "https://dc.lft.to/lastmile_qr_scan"}, "is_reserved": 0}, {"lon": -77.1118415, "bike_id": "9dce007f388f02a57f0ef3c553758340", "lat": 38.855268833333334, "fusion_lon": 0.0, "fusion_lat": 0.0, "type": "electric_bike", "name": "9dce007f388f02a57f0ef3c553758340", "is_disabled": 0, "rental_uris": {"ios": "https://dc.lft.to/lastmile_qr_scan", "android": "https://dc.lft.to/lastmile_qr_scan"}, "is_reserved": 0}, {"lon": -77.1048995, "bike_id": "0e7cecaa3144591da8345ecdc8fe22dc", "lat": 38.856095833333335, "fusion_lon": 0.0, "fusion_lat": 0.0, "type": "electric_bike", "name": "0e7cecaa3144591da8345ecdc8fe22dc", "is_disabled": 0, "rental_uris": {"ios": "https://dc.lft.to/lastmile_qr_scan", "android": "https://dc.lft.to/lastmile_qr_scan"}, "is_reserved": 0}, {"lon": -77.0215725, "bike_id": "ae738b26af69745cef7d3d21ae36502e", "lat": 38.9036485, "fusion_lon": 0.0, "fusion_lat": 0.0, "type": "electric_scooter", "name": "ae738b26af69745cef7d3d21ae36502e", "is_disabled": 0, "rental_uris": {"ios": "https://dc.lft.to/lastmile_qr_scan", "android": "https://dc.lft.to/lastmile_qr_scan"}, "is_reserved": 0}, {"lon": -77.0433995, "bike_id": "b99e43d726974661b396890ea0a91dc3", "lat": 38.922234, "fusion_lon": 0.0, "fusion_lat": 0.0, "type": "electric_scooter", "name": "b99e43d726974661b396890ea0a91dc3", "is_disabled": 0, "rental_uris": {"ios": "https://dc.lft.to/lastmile_qr_scan", "android": "https://dc.lft.to/lastmile_qr_scan"}, "is_reserved": 0}, {"lon": -77.04000783333333, "bike_id": "6b754a85b5e4915299d5271464b4ef0e", "lat": 38.91404266666667, "fusion_lon": 0.0, "fusion_lat": 0.0, "type": "electric_scooter", "name": "6b754a85b5e4915299d5271464b4ef0e", "is_disabled": 0, "rental_uris": {"ios": "https://dc.lft.to/lastmile_qr_scan", "android": "https://dc.lft.to/lastmile_qr_scan"}, "is_reserved": 0}, {"lon": -77.04279266666667, "bike_id": "f1bea57f5fb39ed77825aeaf78a7b055", "lat": 38.907324833333334, "fusion_lon": 0.0, "fusion_lat": 0.0, "type": "electric_scooter", "name": "f1bea57f5fb39ed77825aeaf78a7b055", "is_disabled": 0, "rental_uris": {"ios": "https://dc.lft.to/lastmile_qr_scan", "android": "https://dc.lft.to/lastmile_qr_scan"}, "is_reserved": 0}, {"lon": -77.03442533333333, "bike_id": "3dc360485bb345e4de3faa8cb3e56c84", "lat": 38.90553166666667, "fusion_lon": 0.0, "fusion_lat": 0.0, "type": "electric_scooter", "name": "3dc360485bb345e4de3faa8cb3e56c84", "is_disabled": 0, "rental_uris": {"ios": "https://dc.lft.to/lastmile_qr_scan", "android": "https://dc.lft.to/lastmile_qr_scan"}, "is_reserved": 0}, {"lon": -76.98597566666666, "bike_id": "f9492defc5b8fe9d68966f851a7501af", "lat": 38.866851, "fusion_lon": 0.0, "fusion_lat": 0.0, "type": "electric_scooter", "name": "f9492defc5b8fe9d68966f851a7501af", "is_disabled": 0, "rental_uris": {"ios": "https://dc.lft.to/lastmile_qr_scan", "android": "https://dc.lft.to/lastmile_qr_scan"}, "is_reserved": 0}, {"lon": -77.04895666666667, "bike_id": "1dbffbe54749098f9c5869ad44f73c97", "lat": 38.8922805, "fusion_lon": 0.0, "fusion_lat": 0.0, "type": "electric_scooter", "name": "1dbffbe54749098f9c5869ad44f73c97", "is_disabled": 0, "rental_uris": {"ios": "https://dc.lft.to/lastmile_qr_scan", "android": "https://dc.lft.to/lastmile_qr_scan"}, "is_reserved": 0}, {"lon": -77.02523516666666, "bike_id": "5a29300e79c0afb88709ed5ecc8a9a70", "lat": 38.920805, "fusion_lon": 0.0, "fusion_lat": 0.0, "type": "electric_scooter", "name": "5a29300e79c0afb88709ed5ecc8a9a70", "is_disabled": 0, "rental_uris": {"ios": "https://dc.lft.to/lastmile_qr_scan", "android": "https://dc.lft.to/lastmile_qr_scan"}, "is_reserved": 0}, {"lon": -77.02219716666667, "bike_id": "070f81bb2550eba343c9307eb0898aaa", "lat": 38.892212, "fusion_lon": 0.0, "fusion_lat": 0.0, "type": "electric_scooter", "name": "070f81bb2550eba343c9307eb0898aaa", "is_disabled": 0, "rental_uris": {"ios": "https://dc.lft.to/lastmile_qr_scan", "android": "https://dc.lft.to/lastmile_qr_scan"}, "is_reserved": 0}, {"lon": -76.98938566666666, "bike_id": "a231ee79524f57bad339f152fe3c8d74", "lat": 38.86706233333334, "fusion_lon": 0.0, "fusion_lat": 0.0, "type": "electric_bike", "name": "a231ee79524f57bad339f152fe3c8d74", "is_disabled": 0, "rental_uris": {"ios": "https://dc.lft.to/lastmile_qr_scan", "android": "https://dc.lft.to/lastmile_qr_scan"}, "is_reserved": 0}, {"lon": -77.02654383333333, "bike_id": "6e163c1595e14dc9e85167bc3a361aed", "lat": 38.89986416666667, "fusion_lon": 0.0, "fusion_lat": 0.0, "type": "electric_scooter", "name": "6e163c1595e14dc9e85167bc3a361aed", "is_disabled": 0, "rental_uris": {"ios": "https://dc.lft.to/lastmile_qr_scan", "android": "https://dc.lft.to/lastmile_qr_scan"}, "is_reserved": 0}, {"lon": -77.000506, "bike_id": "aadc19d2546278baac7c6017a895465a", "lat": 38.87513916666666, "fusion_lon": 0.0, "fusion_lat": 0.0, "type": "electric_scooter", "name": "aadc19d2546278baac7c6017a895465a", "is_disabled": 0, "rental_uris": {"ios": "https://dc.lft.to/lastmile_qr_scan", "android": "https://dc.lft.to/lastmile_qr_scan"}, "is_reserved": 0}, {"lon": -77.0262295, "bike_id": "8148842dddd30ffcc648e1a2ffc8c818", "lat": 38.8922135, "fusion_lon": 0.0, "fusion_lat": 0.0, "type": "electric_scooter", "name": "8148842dddd30ffcc648e1a2ffc8c818", "is_disabled": 0, "rental_uris": {"ios": "https://dc.lft.to/lastmile_qr_scan", "android": "https://dc.lft.to/lastmile_qr_scan"}, "is_reserved": 0}, {"lon": -77.05822016666667, "bike_id": "07974829b3f9153f5797cb887b8498c0", "lat": 38.93498266666667, "fusion_lon": 0.0, "fusion_lat": 0.0, "type": "electric_scooter", "name": "07974829b3f9153f5797cb887b8498c0", "is_disabled": 0, "rental_uris": {"ios": "https://dc.lft.to/lastmile_qr_scan", "android": "https://dc.lft.to/lastmile_qr_scan"}, "is_reserved": 0}, {"lon": -77.03185033333334, "bike_id": "40a96be9a6999e36a63d5f5310366622", "lat": 38.89221333333333, "fusion_lon": 0.0, "fusion_lat": 0.0, "type": "electric_scooter", "name": "40a96be9a6999e36a63d5f5310366622", "is_disabled": 0, "rental_uris": {"ios": "https://dc.lft.to/lastmile_qr_scan", "android": "https://dc.lft.to/lastmile_qr_scan"}, "is_reserved": 0}, {"lon": -77.0318475, "bike_id": "b4629c8f47a29e3d1eab7be4b020e718", "lat": 38.892258, "fusion_lon": 0.0, "fusion_lat": 0.0, "type": "electric_scooter", "name": "b4629c8f47a29e3d1eab7be4b020e718", "is_disabled": 0, "rental_uris": {"ios": "https://dc.lft.to/lastmile_qr_scan", "android": "https://dc.lft.to/lastmile_qr_scan"}, "is_reserved": 0}, {"lon": -76.93172533333333, "bike_id": "764aa3825917cda332594eeebc0dacda", "lat": 38.903730833333334, "fusion_lon": 0.0, "fusion_lat": 0.0, "type": "electric_scooter", "name": "764aa3825917cda332594eeebc0dacda", "is_disabled": 0, "rental_uris": {"ios": "https://dc.lft.to/lastmile_qr_scan", "android": "https://dc.lft.to/lastmile_qr_scan"}, "is_reserved": 0}, {"lon": -77.02974283333333, "bike_id": "9e6c7ffd1e20952d67c57c3d222cbc83", "lat": 38.916821, "fusion_lon": 0.0, "fusion_lat": 0.0, "type": "electric_scooter", "name": "9e6c7ffd1e20952d67c57c3d222cbc83", "is_disabled": 0, "rental_uris": {"ios": "https://dc.lft.to/lastmile_qr_scan", "android": "https://dc.lft.to/lastmile_qr_scan"}, "is_reserved": 0}, {"lon": -77.04349583333334, "bike_id": "ec96e23df48df6a02f492cd8758ecdf7", "lat": 38.90826366666667, "fusion_lon": 0.0, "fusion_lat": 0.0, "type": "electric_scooter", "name": "ec96e23df48df6a02f492cd8758ecdf7", "is_disabled": 0, "rental_uris": {"ios": "https://dc.lft.to/lastmile_qr_scan", "android": "https://dc.lft.to/lastmile_qr_scan"}, "is_reserved": 0}, {"lon": -77.0295765, "bike_id": "8b2b795c372de74ee0b1a1a3d723755c", "lat": 38.9167485, "fusion_lon": 0.0, "fusion_lat": 0.0, "type": "electric_scooter", "name": "8b2b795c372de74ee0b1a1a3d723755c", "is_disabled": 0, "rental_uris": {"ios": "https://dc.lft.to/lastmile_qr_scan", "android": "https://dc.lft.to/lastmile_qr_scan"}, "is_reserved": 0}, {"lon": -77.04660433333333, "bike_id": "692200ef1048dec275e3357326d78c4a", "lat": 38.905462, "fusion_lon": 0.0, "fusion_lat": 0.0, "type": "electric_scooter", "name": "692200ef1048dec275e3357326d78c4a", "is_disabled": 0, "rental_uris": {"ios": "https://dc.lft.to/lastmile_qr_scan", "android": "https://dc.lft.to/lastmile_qr_scan"}, "is_reserved": 0}, {"lon": -77.03345133333333, "bike_id": "43cb72c238a11bf40539cacadde8edc5", "lat": 38.901460166666666, "fusion_lon": 0.0, "fusion_lat": 0.0, "type": "electric_scooter", "name": "43cb72c238a11bf40539cacadde8edc5", "is_disabled": 0, "rental_uris": {"ios": "https://dc.lft.to/lastmile_qr_scan", "android": "https://dc.lft.to/lastmile_qr_scan"}, "is_reserved": 0}, {"lon": -77.02010416666667, "bike_id": "43fca1d3ea446ee1e8b8f873cc02e8fc", "lat": 38.9026385, "fusion_lon": 0.0, "fusion_lat": 0.0, "type": "electric_scooter", "name": "43fca1d3ea446ee1e8b8f873cc02e8fc", "is_disabled": 0, "rental_uris": {"ios": "https://dc.lft.to/lastmile_qr_scan", "android": "https://dc.lft.to/lastmile_qr_scan"}, "is_reserved": 0}, {"lon": -77.04266216666667, "bike_id": "f0ff1677595eff3d17b9eee40430b7a9", "lat": 38.92236883333333, "fusion_lon": 0.0, "fusion_lat": 0.0, "type": "electric_scooter", "name": "f0ff1677595eff3d17b9eee40430b7a9", "is_disabled": 0, "rental_uris": {"ios": "https://dc.lft.to/lastmile_qr_scan", "android": "https://dc.lft.to/lastmile_qr_scan"}, "is_reserved": 0}, {"lon": -77.02726366666667, "bike_id": "2d884001e356652f7c140abe7cf06460", "lat": 38.897716833333334, "fusion_lon": 0.0, "fusion_lat": 0.0, "type": "electric_scooter", "name": "2d884001e356652f7c140abe7cf06460", "is_disabled": 0, "rental_uris": {"ios": "https://dc.lft.to/lastmile_qr_scan", "android": "https://dc.lft.to/lastmile_qr_scan"}, "is_reserved": 0}, {"lon": -77.0500595, "bike_id": "d0e4feea301f8b03c98da8800385efef", "lat": 38.89197683333333, "fusion_lon": 0.0, "fusion_lat": 0.0, "type": "electric_scooter", "name": "d0e4feea301f8b03c98da8800385efef", "is_disabled": 0, "rental_uris": {"ios": "https://dc.lft.to/lastmile_qr_scan", "android": "https://dc.lft.to/lastmile_qr_scan"}, "is_reserved": 0}, {"lon": -77.02191583333334, "bike_id": "3159679df92d6705aca7fe36491ea409", "lat": 38.933072, "fusion_lon": 0.0, "fusion_lat": 0.0, "type": "electric_scooter", "name": "3159679df92d6705aca7fe36491ea409", "is_disabled": 0, "rental_uris": {"ios": "https://dc.lft.to/lastmile_qr_scan", "android": "https://dc.lft.to/lastmile_qr_scan"}, "is_reserved": 0}, {"lon": -77.0119125, "bike_id": "3e684d28f9ae26ec46d04a0e155182b8", "lat": 38.9002955, "fusion_lon": 0.0, "fusion_lat": 0.0, "type": "electric_scooter", "name": "3e684d28f9ae26ec46d04a0e155182b8", "is_disabled": 0, "rental_uris": {"ios": "https://dc.lft.to/lastmile_qr_scan", "android": "https://dc.lft.to/lastmile_qr_scan"}, "is_reserved": 0}, {"lon": -76.93352416666667, "bike_id": "6f4b3f085dcecf6e72ec4da0a21d2f0a", "lat": 38.88791966666667, "fusion_lon": 0.0, "fusion_lat": 0.0, "type": "electric_scooter", "name": "6f4b3f085dcecf6e72ec4da0a21d2f0a", "is_disabled": 0, "rental_uris": {"ios": "https://dc.lft.to/lastmile_qr_scan", "android": "https://dc.lft.to/lastmile_qr_scan"}, "is_reserved": 0}, {"lon": -77.045615, "bike_id": "fc88298642d16ec08a70e20f248d1a62", "lat": 38.91599333333333, "fusion_lon": 0.0, "fusion_lat": 0.0, "type": "electric_scooter", "name": "fc88298642d16ec08a70e20f248d1a62", "is_disabled": 0, "rental_uris": {"ios": "https://dc.lft.to/lastmile_qr_scan", "android": "https://dc.lft.to/lastmile_qr_scan"}, "is_reserved": 0}, {"lon": -77.0382935, "bike_id": "a5d6f4a93279459e03dff6143a54dc2f", "lat": 38.906732, "fusion_lon": 0.0, "fusion_lat": 0.0, "type": "electric_scooter", "name": "a5d6f4a93279459e03dff6143a54dc2f", "is_disabled": 0, "rental_uris": {"ios": "https://dc.lft.to/lastmile_qr_scan", "android": "https://dc.lft.to/lastmile_qr_scan"}, "is_reserved": 0}, {"lon": -77.005118, "bike_id": "f1fc906d5712f205bd47e9dbcc14ccc8", "lat": 38.91264683333333, "fusion_lon": 0.0, "fusion_lat": 0.0, "type": "electric_scooter", "name": "f1fc906d5712f205bd47e9dbcc14ccc8", "is_disabled": 0, "rental_uris": {"ios": "https://dc.lft.to/lastmile_qr_scan", "android": "https://dc.lft.to/lastmile_qr_scan"}, "is_reserved": 0}, {"lon": -77.04651583333333, "bike_id": "b23fa61f2ef5671966e24949a28ee3ed", "lat": 38.91596533333333, "fusion_lon": 0.0, "fusion_lat": 0.0, "type": "electric_scooter", "name": "b23fa61f2ef5671966e24949a28ee3ed", "is_disabled": 0, "rental_uris": {"ios": "https://dc.lft.to/lastmile_qr_scan", "android": "https://dc.lft.to/lastmile_qr_scan"}, "is_reserved": 0}, {"lon": -77.020586, "bike_id": "f31f5a78364a5bd1df3ca00e8f9f9121", "lat": 38.90970766666667, "fusion_lon": 0.0, "fusion_lat": 0.0, "type": "electric_scooter", "name": "f31f5a78364a5bd1df3ca00e8f9f9121", "is_disabled": 0, "rental_uris": {"ios": "https://dc.lft.to/lastmile_qr_scan", "android": "https://dc.lft.to/lastmile_qr_scan"}, "is_reserved": 0}, {"lon": -77.02362983333333, "bike_id": "181b0d2b0a62b79cf733a53c72f260d8", "lat": 38.8922065, "fusion_lon": 0.0, "fusion_lat": 0.0, "type": "electric_scooter", "name": "181b0d2b0a62b79cf733a53c72f260d8", "is_disabled": 0, "rental_uris": {"ios": "https://dc.lft.to/lastmile_qr_scan", "android": "https://dc.lft.to/lastmile_qr_scan"}, "is_reserved": 0}, {"lon": -77.03659866666666, "bike_id": "73a00affd7aba81f33c10df8e421c4fe", "lat": 38.922822, "fusion_lon": 0.0, "fusion_lat": 0.0, "type": "electric_scooter", "name": "73a00affd7aba81f33c10df8e421c4fe", "is_disabled": 0, "rental_uris": {"ios": "https://dc.lft.to/lastmile_qr_scan", "android": "https://dc.lft.to/lastmile_qr_scan"}, "is_reserved": 0}, {"lon": -77.0239995, "bike_id": "d536f09c2dfb25367c77a91a8c663d88", "lat": 38.9167325, "fusion_lon": 0.0, "fusion_lat": 0.0, "type": "electric_scooter", "name": "d536f09c2dfb25367c77a91a8c663d88", "is_disabled": 0, "rental_uris": {"ios": "https://dc.lft.to/lastmile_qr_scan", "android": "https://dc.lft.to/lastmile_qr_scan"}, "is_reserved": 0}, {"lon": -77.05863233333334, "bike_id": "4f0cedc0c85ad908f2b00eb4d4f6950f", "lat": 38.936058333333335, "fusion_lon": 0.0, "fusion_lat": 0.0, "type": "electric_scooter", "name": "4f0cedc0c85ad908f2b00eb4d4f6950f", "is_disabled": 0, "rental_uris": {"ios": "https://dc.lft.to/lastmile_qr_scan", "android": "https://dc.lft.to/lastmile_qr_scan"}, "is_reserved": 0}, {"lon": -77.03414733333334, "bike_id": "7ca98ae0b4784da2da6046b21b556c0d", "lat": 38.923216, "fusion_lon": 0.0, "fusion_lat": 0.0, "type": "electric_scooter", "name": "7ca98ae0b4784da2da6046b21b556c0d", "is_disabled": 0, "rental_uris": {"ios": "https://dc.lft.to/lastmile_qr_scan", "android": "https://dc.lft.to/lastmile_qr_scan"}, "is_reserved": 0}, {"lon": -77.04328466666666, "bike_id": "8e5bd33f50de8f3e010d71209a09c3c6", "lat": 38.902382333333335, "fusion_lon": 0.0, "fusion_lat": 0.0, "type": "electric_scooter", "name": "8e5bd33f50de8f3e010d71209a09c3c6", "is_disabled": 0, "rental_uris": {"ios": "https://dc.lft.to/lastmile_qr_scan", "android": "https://dc.lft.to/lastmile_qr_scan"}, "is_reserved": 0}, {"lon": -77.02484216666667, "bike_id": "296d0746e378b478e181ead506c4e602", "lat": 38.90093733333333, "fusion_lon": 0.0, "fusion_lat": 0.0, "type": "electric_scooter", "name": "296d0746e378b478e181ead506c4e602", "is_disabled": 0, "rental_uris": {"ios": "https://dc.lft.to/lastmile_qr_scan", "android": "https://dc.lft.to/lastmile_qr_scan"}, "is_reserved": 0}, {"lon": -77.0526575, "bike_id": "2b2eec779cb73c849225f4a18d064771", "lat": 38.927777166666665, "fusion_lon": 0.0, "fusion_lat": 0.0, "type": "electric_scooter", "name": "2b2eec779cb73c849225f4a18d064771", "is_disabled": 0, "rental_uris": {"ios": "https://dc.lft.to/lastmile_qr_scan", "android": "https://dc.lft.to/lastmile_qr_scan"}, "is_reserved": 0}, {"lon": -77.018442, "bike_id": "e58323bc3a8ccdfbea559f96a6cc4171", "lat": 38.914916833333336, "fusion_lon": 0.0, "fusion_lat": 0.0, "type": "electric_scooter", "name": "e58323bc3a8ccdfbea559f96a6cc4171", "is_disabled": 0, "rental_uris": {"ios": "https://dc.lft.to/lastmile_qr_scan", "android": "https://dc.lft.to/lastmile_qr_scan"}, "is_reserved": 0}, {"lon": -77.02760833333333, "bike_id": "e6a1a397d3902cd51f216ec680c72cc8", "lat": 38.944068666666666, "fusion_lon": 0.0, "fusion_lat": 0.0, "type": "electric_scooter", "name": "e6a1a397d3902cd51f216ec680c72cc8", "is_disabled": 0, "rental_uris": {"ios": "https://dc.lft.to/lastmile_qr_scan", "android": "https://dc.lft.to/lastmile_qr_scan"}, "is_reserved": 0}, {"lon": -77.02504983333333, "bike_id": "fa17f3212ab68c1c36173ed0ad45a41b", "lat": 38.92073666666667, "fusion_lon": 0.0, "fusion_lat": 0.0, "type": "electric_scooter", "name": "fa17f3212ab68c1c36173ed0ad45a41b", "is_disabled": 0, "rental_uris": {"ios": "https://dc.lft.to/lastmile_qr_scan", "android": "https://dc.lft.to/lastmile_qr_scan"}, "is_reserved": 0}, {"lon": -76.979136, "bike_id": "4dc10671b3b3526620bf5d371d7d329b", "lat": 38.863599, "fusion_lon": 0.0, "fusion_lat": 0.0, "type": "electric_scooter", "name": "4dc10671b3b3526620bf5d371d7d329b", "is_disabled": 0, "rental_uris": {"ios": "https://dc.lft.to/lastmile_qr_scan", "android": "https://dc.lft.to/lastmile_qr_scan"}, "is_reserved": 0}, {"lon": -77.03721733333333, "bike_id": "b57f16c98e958516c7d3e3ffa0f492c6", "lat": 38.931871, "fusion_lon": 0.0, "fusion_lat": 0.0, "type": "electric_scooter", "name": "b57f16c98e958516c7d3e3ffa0f492c6", "is_disabled": 0, "rental_uris": {"ios": "https://dc.lft.to/lastmile_qr_scan", "android": "https://dc.lft.to/lastmile_qr_scan"}, "is_reserved": 0}, {"lon": -77.0306115, "bike_id": "818784274b291b6a16e6750c7f2b2d09", "lat": 38.88755533333333, "fusion_lon": 0.0, "fusion_lat": 0.0, "type": "electric_scooter", "name": "818784274b291b6a16e6750c7f2b2d09", "is_disabled": 0, "rental_uris": {"ios": "https://dc.lft.to/lastmile_qr_scan", "android": "https://dc.lft.to/lastmile_qr_scan"}, "is_reserved": 0}, {"lon": -77.03173516666666, "bike_id": "1b2b983fac216a06414274929170d6e4", "lat": 38.91420866666667, "fusion_lon": 0.0, "fusion_lat": 0.0, "type": "electric_scooter", "name": "1b2b983fac216a06414274929170d6e4", "is_disabled": 0, "rental_uris": {"ios": "https://dc.lft.to/lastmile_qr_scan", "android": "https://dc.lft.to/lastmile_qr_scan"}, "is_reserved": 0}, {"lon": -77.024879, "bike_id": "e12e23a5ea5d5d158f8bfe5f39c151ec", "lat": 38.91693333333333, "fusion_lon": 0.0, "fusion_lat": 0.0, "type": "electric_scooter", "name": "e12e23a5ea5d5d158f8bfe5f39c151ec", "is_disabled": 0, "rental_uris": {"ios": "https://dc.lft.to/lastmile_qr_scan", "android": "https://dc.lft.to/lastmile_qr_scan"}, "is_reserved": 0}, {"lon": -76.994734, "bike_id": "2b3b7a9b6acc58d2ae85a5b9808ad462", "lat": 38.86230966666667, "fusion_lon": 0.0, "fusion_lat": 0.0, "type": "electric_scooter", "name": "2b3b7a9b6acc58d2ae85a5b9808ad462", "is_disabled": 0, "rental_uris": {"ios": "https://dc.lft.to/lastmile_qr_scan", "android": "https://dc.lft.to/lastmile_qr_scan"}, "is_reserved": 0}, {"lon": -76.92768083333333, "bike_id": "8d306005b00e118a20aee366326fd2e9", "lat": 38.900905, "fusion_lon": 0.0, "fusion_lat": 0.0, "type": "electric_scooter", "name": "8d306005b00e118a20aee366326fd2e9", "is_disabled": 0, "rental_uris": {"ios": "https://dc.lft.to/lastmile_qr_scan", "android": "https://dc.lft.to/lastmile_qr_scan"}, "is_reserved": 0}, {"lon": -77.00204, "bike_id": "f803b84b3c517f6d2b5257b7156eec22", "lat": 38.988505, "fusion_lon": 0.0, "fusion_lat": 0.0, "type": "electric_bike", "name": "f803b84b3c517f6d2b5257b7156eec22", "is_disabled": 0, "rental_uris": {"ios": "https://dc.lft.to/lastmile_qr_scan", "android": "https://dc.lft.to/lastmile_qr_scan"}, "is_reserved": 0}, {"lon": -77.00198116666667, "bike_id": "1f861a66677b140f86c9bb8bf637e15e", "lat": 38.900430166666666, "fusion_lon": 0.0, "fusion_lat": 0.0, "type": "electric_scooter", "name": "1f861a66677b140f86c9bb8bf637e15e", "is_disabled": 0, "rental_uris": {"ios": "https://dc.lft.to/lastmile_qr_scan", "android": "https://dc.lft.to/lastmile_qr_scan"}, "is_reserved": 0}, {"lon": -76.927744, "bike_id": "5b5676575cf9906ce339e08e8a3755e0", "lat": 38.9692615, "fusion_lon": 0.0, "fusion_lat": 0.0, "type": "electric_bike", "name": "5b5676575cf9906ce339e08e8a3755e0", "is_disabled": 0, "rental_uris": {"ios": "https://dc.lft.to/lastmile_qr_scan", "android": "https://dc.lft.to/lastmile_qr_scan"}, "is_reserved": 0}, {"lon": -76.98890866666666, "bike_id": "587a48ba86b551f28a0ec3e57d5de5a7", "lat": 38.8665985, "fusion_lon": 0.0, "fusion_lat": 0.0, "type": "electric_scooter", "name": "587a48ba86b551f28a0ec3e57d5de5a7", "is_disabled": 0, "rental_uris": {"ios": "https://dc.lft.to/lastmile_qr_scan", "android": "https://dc.lft.to/lastmile_qr_scan"}, "is_reserved": 0}, {"lon": -76.98717766666667, "bike_id": "8e4c0fdf74f69b5be77a892309f48159", "lat": 38.866305833333335, "fusion_lon": 0.0, "fusion_lat": 0.0, "type": "electric_scooter", "name": "8e4c0fdf74f69b5be77a892309f48159", "is_disabled": 0, "rental_uris": {"ios": "https://dc.lft.to/lastmile_qr_scan", "android": "https://dc.lft.to/lastmile_qr_scan"}, "is_reserved": 0}, {"lon": -77.03668233333333, "bike_id": "c6e88ac404806c63d478d4ccb0972a8c", "lat": 38.91775033333333, "fusion_lon": 0.0, "fusion_lat": 0.0, "type": "electric_scooter", "name": "c6e88ac404806c63d478d4ccb0972a8c", "is_disabled": 0, "rental_uris": {"ios": "https://dc.lft.to/lastmile_qr_scan", "android": "https://dc.lft.to/lastmile_qr_scan"}, "is_reserved": 0}, {"lon": -77.0284605, "bike_id": "4b4092b39d00bdbcf6c2e1aac90070f7", "lat": 38.9257505, "fusion_lon": 0.0, "fusion_lat": 0.0, "type": "electric_scooter", "name": "4b4092b39d00bdbcf6c2e1aac90070f7", "is_disabled": 0, "rental_uris": {"ios": "https://dc.lft.to/lastmile_qr_scan", "android": "https://dc.lft.to/lastmile_qr_scan"}, "is_reserved": 0}, {"lon": -76.98542983333333, "bike_id": "aa8a7f87885540806219d8ee2cd1a298", "lat": 38.920162833333336, "fusion_lon": 0.0, "fusion_lat": 0.0, "type": "electric_scooter", "name": "aa8a7f87885540806219d8ee2cd1a298", "is_disabled": 0, "rental_uris": {"ios": "https://dc.lft.to/lastmile_qr_scan", "android": "https://dc.lft.to/lastmile_qr_scan"}, "is_reserved": 0}, {"lon": -76.98925166666666, "bike_id": "99ccf2a73c0f22ce345af6792c031cfe", "lat": 38.858106666666664, "fusion_lon": 0.0, "fusion_lat": 0.0, "type": "electric_scooter", "name": "99ccf2a73c0f22ce345af6792c031cfe", "is_disabled": 0, "rental_uris": {"ios": "https://dc.lft.to/lastmile_qr_scan", "android": "https://dc.lft.to/lastmile_qr_scan"}, "is_reserved": 0}, {"lon": -77.02238783333334, "bike_id": "716c8f50c3855febffca7b593b78741d", "lat": 38.92615716666667, "fusion_lon": 0.0, "fusion_lat": 0.0, "type": "electric_scooter", "name": "716c8f50c3855febffca7b593b78741d", "is_disabled": 0, "rental_uris": {"ios": "https://dc.lft.to/lastmile_qr_scan", "android": "https://dc.lft.to/lastmile_qr_scan"}, "is_reserved": 0}, {"lon": -77.02514883333333, "bike_id": "ed28c8c9900d1aba44ccd7ad3daa22af", "lat": 38.9208475, "fusion_lon": 0.0, "fusion_lat": 0.0, "type": "electric_scooter", "name": "ed28c8c9900d1aba44ccd7ad3daa22af", "is_disabled": 0, "rental_uris": {"ios": "https://dc.lft.to/lastmile_qr_scan", "android": "https://dc.lft.to/lastmile_qr_scan"}, "is_reserved": 0}, {"lon": -77.03207766666667, "bike_id": "a710b0ffedd31fc92b0149e492ab747f", "lat": 38.912483333333334, "fusion_lon": 0.0, "fusion_lat": 0.0, "type": "electric_scooter", "name": "a710b0ffedd31fc92b0149e492ab747f", "is_disabled": 0, "rental_uris": {"ios": "https://dc.lft.to/lastmile_qr_scan", "android": "https://dc.lft.to/lastmile_qr_scan"}, "is_reserved": 0}, {"lon": -77.04660066666666, "bike_id": "88a7dc1010f0b3b3fa58e5c6fcea3af1", "lat": 38.898280166666666, "fusion_lon": 0.0, "fusion_lat": 0.0, "type": "electric_scooter", "name": "88a7dc1010f0b3b3fa58e5c6fcea3af1", "is_disabled": 0, "rental_uris": {"ios": "https://dc.lft.to/lastmile_qr_scan", "android": "https://dc.lft.to/lastmile_qr_scan"}, "is_reserved": 0}, {"lon": -77.02432266666666, "bike_id": "19a82d8b2b2618b57a34f872c147737c", "lat": 38.9204835, "fusion_lon": 0.0, "fusion_lat": 0.0, "type": "electric_scooter", "name": "19a82d8b2b2618b57a34f872c147737c", "is_disabled": 0, "rental_uris": {"ios": "https://dc.lft.to/lastmile_qr_scan", "android": "https://dc.lft.to/lastmile_qr_scan"}, "is_reserved": 0}, {"lon": -77.02238266666667, "bike_id": "46a910d443f7e82d64050997a0478c1a", "lat": 38.96215866666667, "fusion_lon": 0.0, "fusion_lat": 0.0, "type": "electric_bike", "name": "46a910d443f7e82d64050997a0478c1a", "is_disabled": 0, "rental_uris": {"ios": "https://dc.lft.to/lastmile_qr_scan", "android": "https://dc.lft.to/lastmile_qr_scan"}, "is_reserved": 0}, {"lon": -77.0439075, "bike_id": "68201c9dd7a656e9d6720f7816d3f5b3", "lat": 39.04712, "fusion_lon": 0.0, "fusion_lat": 0.0, "type": "electric_bike", "name": "68201c9dd7a656e9d6720f7816d3f5b3", "is_disabled": 0, "rental_uris": {"ios": "https://dc.lft.to/lastmile_qr_scan", "android": "https://dc.lft.to/lastmile_qr_scan"}, "is_reserved": 0}, {"lon": -77.00254533333333, "bike_id": "eb5b3a5eb55752f7b5700d534c71278b", "lat": 38.91112666666667, "fusion_lon": 0.0, "fusion_lat": 0.0, "type": "electric_scooter", "name": "eb5b3a5eb55752f7b5700d534c71278b", "is_disabled": 0, "rental_uris": {"ios": "https://dc.lft.to/lastmile_qr_scan", "android": "https://dc.lft.to/lastmile_qr_scan"}, "is_reserved": 0}, {"lon": -77.04499, "bike_id": "05fb03362a294048bab0bedea9829e03", "lat": 38.89753016666667, "fusion_lon": 0.0, "fusion_lat": 0.0, "type": "electric_scooter", "name": "05fb03362a294048bab0bedea9829e03", "is_disabled": 0, "rental_uris": {"ios": "https://dc.lft.to/lastmile_qr_scan", "android": "https://dc.lft.to/lastmile_qr_scan"}, "is_reserved": 0}, {"lon": -77.018464, "bike_id": "ae6e0962e2acd9c372350e208ce3d828", "lat": 38.9399905, "fusion_lon": 0.0, "fusion_lat": 0.0, "type": "electric_scooter", "name": "ae6e0962e2acd9c372350e208ce3d828", "is_disabled": 0, "rental_uris": {"ios": "https://dc.lft.to/lastmile_qr_scan", "android": "https://dc.lft.to/lastmile_qr_scan"}, "is_reserved": 0}, {"lon": -77.073436, "bike_id": "09512b76e0c15699326e72bb78383dde", "lat": 38.910016, "fusion_lon": 0.0, "fusion_lat": 0.0, "type": "electric_scooter", "name": "09512b76e0c15699326e72bb78383dde", "is_disabled": 0, "rental_uris": {"ios": "https://dc.lft.to/lastmile_qr_scan", "android": "https://dc.lft.to/lastmile_qr_scan"}, "is_reserved": 0}, {"lon": -77.00118633333334, "bike_id": "87d296c5cedd214b488ba673a320ba22", "lat": 38.87484583333333, "fusion_lon": 0.0, "fusion_lat": 0.0, "type": "electric_scooter", "name": "87d296c5cedd214b488ba673a320ba22", "is_disabled": 0, "rental_uris": {"ios": "https://dc.lft.to/lastmile_qr_scan", "android": "https://dc.lft.to/lastmile_qr_scan"}, "is_reserved": 0}, {"lon": -76.95573333333333, "bike_id": "7b2372abae5cb1005cef7466bd498f3d", "lat": 38.8876995, "fusion_lon": 0.0, "fusion_lat": 0.0, "type": "electric_scooter", "name": "7b2372abae5cb1005cef7466bd498f3d", "is_disabled": 0, "rental_uris": {"ios": "https://dc.lft.to/lastmile_qr_scan", "android": "https://dc.lft.to/lastmile_qr_scan"}, "is_reserved": 0}, {"lon": -77.00599566666666, "bike_id": "6368cd047db1810de3c73a67df298858", "lat": 38.8718885, "fusion_lon": 0.0, "fusion_lat": 0.0, "type": "electric_scooter", "name": "6368cd047db1810de3c73a67df298858", "is_disabled": 0, "rental_uris": {"ios": "https://dc.lft.to/lastmile_qr_scan", "android": "https://dc.lft.to/lastmile_qr_scan"}, "is_reserved": 0}, {"lon": -77.02180733333333, "bike_id": "43d0915825894805685733c8c65c4c15", "lat": 38.88717, "fusion_lon": 0.0, "fusion_lat": 0.0, "type": "electric_scooter", "name": "43d0915825894805685733c8c65c4c15", "is_disabled": 0, "rental_uris": {"ios": "https://dc.lft.to/lastmile_qr_scan", "android": "https://dc.lft.to/lastmile_qr_scan"}, "is_reserved": 0}, {"lon": -77.02362333333333, "bike_id": "ed6f7851dcf8b07c74a8df92c9161f48", "lat": 38.892186, "fusion_lon": 0.0, "fusion_lat": 0.0, "type": "electric_scooter", "name": "ed6f7851dcf8b07c74a8df92c9161f48", "is_disabled": 0, "rental_uris": {"ios": "https://dc.lft.to/lastmile_qr_scan", "android": "https://dc.lft.to/lastmile_qr_scan"}, "is_reserved": 0}, {"lon": -77.06008583333333, "bike_id": "363acc16e3ce397cd9bcf31d6f83bead", "lat": 38.90114883333333, "fusion_lon": 0.0, "fusion_lat": 0.0, "type": "electric_scooter", "name": "363acc16e3ce397cd9bcf31d6f83bead", "is_disabled": 0, "rental_uris": {"ios": "https://dc.lft.to/lastmile_qr_scan", "android": "https://dc.lft.to/lastmile_qr_scan"}, "is_reserved": 0}, {"lon": -77.008079, "bike_id": "177daa81cf25db6e150931edd7aa812e", "lat": 38.905916, "fusion_lon": 0.0, "fusion_lat": 0.0, "type": "electric_scooter", "name": "177daa81cf25db6e150931edd7aa812e", "is_disabled": 0, "rental_uris": {"ios": "https://dc.lft.to/lastmile_qr_scan", "android": "https://dc.lft.to/lastmile_qr_scan"}, "is_reserved": 0}, {"lon": -77.05049633333333, "bike_id": "20134f257bbc0f0c39f2dbc392e2bc0f", "lat": 38.923642, "fusion_lon": 0.0, "fusion_lat": 0.0, "type": "electric_scooter", "name": "20134f257bbc0f0c39f2dbc392e2bc0f", "is_disabled": 0, "rental_uris": {"ios": "https://dc.lft.to/lastmile_qr_scan", "android": "https://dc.lft.to/lastmile_qr_scan"}, "is_reserved": 0}, {"lon": -77.0319375, "bike_id": "dc289456b9d46231aa58c190e57a3c32", "lat": 38.91630033333333, "fusion_lon": 0.0, "fusion_lat": 0.0, "type": "electric_scooter", "name": "dc289456b9d46231aa58c190e57a3c32", "is_disabled": 0, "rental_uris": {"ios": "https://dc.lft.to/lastmile_qr_scan", "android": "https://dc.lft.to/lastmile_qr_scan"}, "is_reserved": 0}, {"lon": -77.03260333333333, "bike_id": "2de2f9280b280df1b0eb93054ee1835c", "lat": 38.93772233333333, "fusion_lon": 0.0, "fusion_lat": 0.0, "type": "electric_scooter", "name": "2de2f9280b280df1b0eb93054ee1835c", "is_disabled": 0, "rental_uris": {"ios": "https://dc.lft.to/lastmile_qr_scan", "android": "https://dc.lft.to/lastmile_qr_scan"}, "is_reserved": 0}, {"lon": -77.02193716666666, "bike_id": "f1334f19387d11de1e846b610afa39b1", "lat": 38.92918, "fusion_lon": 0.0, "fusion_lat": 0.0, "type": "electric_scooter", "name": "f1334f19387d11de1e846b610afa39b1", "is_disabled": 0, "rental_uris": {"ios": "https://dc.lft.to/lastmile_qr_scan", "android": "https://dc.lft.to/lastmile_qr_scan"}, "is_reserved": 0}, {"lon": -77.05922933333333, "bike_id": "44690e36e389ef179f1dfaca0c20fdbd", "lat": 38.903745, "fusion_lon": 0.0, "fusion_lat": 0.0, "type": "electric_bike", "name": "44690e36e389ef179f1dfaca0c20fdbd", "is_disabled": 0, "rental_uris": {"ios": "https://dc.lft.to/lastmile_qr_scan", "android": "https://dc.lft.to/lastmile_qr_scan"}, "is_reserved": 0}, {"lon": -77.03448966666667, "bike_id": "79ba0e0d7d97d0a57b2feaa762fb0ee7", "lat": 38.908757666666666, "fusion_lon": 0.0, "fusion_lat": 0.0, "type": "electric_scooter", "name": "79ba0e0d7d97d0a57b2feaa762fb0ee7", "is_disabled": 0, "rental_uris": {"ios": "https://dc.lft.to/lastmile_qr_scan", "android": "https://dc.lft.to/lastmile_qr_scan"}, "is_reserved": 0}, {"lon": -76.989068, "bike_id": "121b6012a599abd1748129cff872ab1f", "lat": 38.866697333333335, "fusion_lon": 0.0, "fusion_lat": 0.0, "type": "electric_scooter", "name": "121b6012a599abd1748129cff872ab1f", "is_disabled": 0, "rental_uris": {"ios": "https://dc.lft.to/lastmile_qr_scan", "android": "https://dc.lft.to/lastmile_qr_scan"}, "is_reserved": 0}, {"lon": -77.044911, "bike_id": "c75f73832e4651f8ce7dfcfd87294e36", "lat": 38.9136195, "fusion_lon": 0.0, "fusion_lat": 0.0, "type": "electric_scooter", "name": "c75f73832e4651f8ce7dfcfd87294e36", "is_disabled": 0, "rental_uris": {"ios": "https://dc.lft.to/lastmile_qr_scan", "android": "https://dc.lft.to/lastmile_qr_scan"}, "is_reserved": 0}, {"lon": -77.018924, "bike_id": "1e4280250a597d01925e0025e48eea8e", "lat": 38.90890816666667, "fusion_lon": 0.0, "fusion_lat": 0.0, "type": "electric_scooter", "name": "1e4280250a597d01925e0025e48eea8e", "is_disabled": 0, "rental_uris": {"ios": "https://dc.lft.to/lastmile_qr_scan", "android": "https://dc.lft.to/lastmile_qr_scan"}, "is_reserved": 0}, {"lon": -76.96525166666666, "bike_id": "cf5cd37260c01b4ec1e57341e07dd115", "lat": 38.876258166666666, "fusion_lon": 0.0, "fusion_lat": 0.0, "type": "electric_scooter", "name": "cf5cd37260c01b4ec1e57341e07dd115", "is_disabled": 0, "rental_uris": {"ios": "https://dc.lft.to/lastmile_qr_scan", "android": "https://dc.lft.to/lastmile_qr_scan"}, "is_reserved": 0}, {"lon": -77.02516233333333, "bike_id": "2aa199fbd24018c951686836747ba31d", "lat": 38.9126245, "fusion_lon": 0.0, "fusion_lat": 0.0, "type": "electric_scooter", "name": "2aa199fbd24018c951686836747ba31d", "is_disabled": 0, "rental_uris": {"ios": "https://dc.lft.to/lastmile_qr_scan", "android": "https://dc.lft.to/lastmile_qr_scan"}, "is_reserved": 0}, {"lon": -77.0417995, "bike_id": "7fc9b5fd5865b5421f9fb317280d73f1", "lat": 38.919798, "fusion_lon": 0.0, "fusion_lat": 0.0, "type": "electric_scooter", "name": "7fc9b5fd5865b5421f9fb317280d73f1", "is_disabled": 0, "rental_uris": {"ios": "https://dc.lft.to/lastmile_qr_scan", "android": "https://dc.lft.to/lastmile_qr_scan"}, "is_reserved": 0}, {"lon": -76.9849465, "bike_id": "31cc5c74f55dd5fc9746b086bd1c89d3", "lat": 38.878376333333335, "fusion_lon": 0.0, "fusion_lat": 0.0, "type": "electric_scooter", "name": "31cc5c74f55dd5fc9746b086bd1c89d3", "is_disabled": 0, "rental_uris": {"ios": "https://dc.lft.to/lastmile_qr_scan", "android": "https://dc.lft.to/lastmile_qr_scan"}, "is_reserved": 0}, {"lon": -77.017668, "bike_id": "023c4eb9fa4537723bb1c6b8c4e2e25d", "lat": 38.88594966666667, "fusion_lon": 0.0, "fusion_lat": 0.0, "type": "electric_scooter", "name": "023c4eb9fa4537723bb1c6b8c4e2e25d", "is_disabled": 0, "rental_uris": {"ios": "https://dc.lft.to/lastmile_qr_scan", "android": "https://dc.lft.to/lastmile_qr_scan"}, "is_reserved": 0}, {"lon": -77.03233066666667, "bike_id": "df79d035604a63d4799dc96e1feced94", "lat": 38.898689833333336, "fusion_lon": 0.0, "fusion_lat": 0.0, "type": "electric_scooter", "name": "df79d035604a63d4799dc96e1feced94", "is_disabled": 0, "rental_uris": {"ios": "https://dc.lft.to/lastmile_qr_scan", "android": "https://dc.lft.to/lastmile_qr_scan"}, "is_reserved": 0}, {"lon": -77.0380725, "bike_id": "f6bf60a379f4bc70b295eb100eaf1bd7", "lat": 38.92067216666667, "fusion_lon": 0.0, "fusion_lat": 0.0, "type": "electric_scooter", "name": "f6bf60a379f4bc70b295eb100eaf1bd7", "is_disabled": 0, "rental_uris": {"ios": "https://dc.lft.to/lastmile_qr_scan", "android": "https://dc.lft.to/lastmile_qr_scan"}, "is_reserved": 0}, {"lon": -77.0246155, "bike_id": "7529745f2873e9e51a9a771ffd2125d4", "lat": 38.93870666666667, "fusion_lon": 0.0, "fusion_lat": 0.0, "type": "electric_scooter", "name": "7529745f2873e9e51a9a771ffd2125d4", "is_disabled": 0, "rental_uris": {"ios": "https://dc.lft.to/lastmile_qr_scan", "android": "https://dc.lft.to/lastmile_qr_scan"}, "is_reserved": 0}, {"lon": -76.97767133333333, "bike_id": "23a8751f6de462f4096e69e4382d0d8a", "lat": 38.951497833333335, "fusion_lon": 0.0, "fusion_lat": 0.0, "type": "electric_bike", "name": "23a8751f6de462f4096e69e4382d0d8a", "is_disabled": 0, "rental_uris": {"ios": "https://dc.lft.to/lastmile_qr_scan", "android": "https://dc.lft.to/lastmile_qr_scan"}, "is_reserved": 0}, {"lon": -77.0259245, "bike_id": "34991357f9d22993bb91fe8bb05aaf87", "lat": 38.9419795, "fusion_lon": 0.0, "fusion_lat": 0.0, "type": "electric_scooter", "name": "34991357f9d22993bb91fe8bb05aaf87", "is_disabled": 0, "rental_uris": {"ios": "https://dc.lft.to/lastmile_qr_scan", "android": "https://dc.lft.to/lastmile_qr_scan"}, "is_reserved": 0}, {"lon": -77.04380783333333, "bike_id": "74f3fd505eeed9b6bef1a419927e6e96", "lat": 38.92095116666667, "fusion_lon": 0.0, "fusion_lat": 0.0, "type": "electric_scooter", "name": "74f3fd505eeed9b6bef1a419927e6e96", "is_disabled": 0, "rental_uris": {"ios": "https://dc.lft.to/lastmile_qr_scan", "android": "https://dc.lft.to/lastmile_qr_scan"}, "is_reserved": 0}, {"lon": -77.02385883333334, "bike_id": "5b2fb1651da3d21af01aeb02829a4787", "lat": 38.9170505, "fusion_lon": 0.0, "fusion_lat": 0.0, "type": "electric_scooter", "name": "5b2fb1651da3d21af01aeb02829a4787", "is_disabled": 0, "rental_uris": {"ios": "https://dc.lft.to/lastmile_qr_scan", "android": "https://dc.lft.to/lastmile_qr_scan"}, "is_reserved": 0}, {"lon": -76.94634183333334, "bike_id": "2d705aa039f3b52f161b2be9ed962dbe", "lat": 38.89833316666667, "fusion_lon": 0.0, "fusion_lat": 0.0, "type": "electric_scooter", "name": "2d705aa039f3b52f161b2be9ed962dbe", "is_disabled": 0, "rental_uris": {"ios": "https://dc.lft.to/lastmile_qr_scan", "android": "https://dc.lft.to/lastmile_qr_scan"}, "is_reserved": 0}, {"lon": -77.02923516666667, "bike_id": "a6b2b16d16d547751bac360be6caa5af", "lat": 38.916950166666666, "fusion_lon": 0.0, "fusion_lat": 0.0, "type": "electric_scooter", "name": "a6b2b16d16d547751bac360be6caa5af", "is_disabled": 0, "rental_uris": {"ios": "https://dc.lft.to/lastmile_qr_scan", "android": "https://dc.lft.to/lastmile_qr_scan"}, "is_reserved": 0}, {"lon": -77.0239315, "bike_id": "955436984265cfff2038c387f801b6ec", "lat": 38.919639, "fusion_lon": 0.0, "fusion_lat": 0.0, "type": "electric_scooter", "name": "955436984265cfff2038c387f801b6ec", "is_disabled": 0, "rental_uris": {"ios": "https://dc.lft.to/lastmile_qr_scan", "android": "https://dc.lft.to/lastmile_qr_scan"}, "is_reserved": 0}, {"lon": -77.00749616666667, "bike_id": "9c6cdf50464ba071e4b494ff628df3c5", "lat": 38.871121333333335, "fusion_lon": 0.0, "fusion_lat": 0.0, "type": "electric_scooter", "name": "9c6cdf50464ba071e4b494ff628df3c5", "is_disabled": 0, "rental_uris": {"ios": "https://dc.lft.to/lastmile_qr_scan", "android": "https://dc.lft.to/lastmile_qr_scan"}, "is_reserved": 0}, {"lon": -77.05704433333334, "bike_id": "11699f4c0556d6600ebc1f3cea5f8969", "lat": 38.90486883333333, "fusion_lon": 0.0, "fusion_lat": 0.0, "type": "electric_scooter", "name": "11699f4c0556d6600ebc1f3cea5f8969", "is_disabled": 0, "rental_uris": {"ios": "https://dc.lft.to/lastmile_qr_scan", "android": "https://dc.lft.to/lastmile_qr_scan"}, "is_reserved": 0}, {"lon": -76.99544233333333, "bike_id": "81cffbc500764a591392e61e08d1b40f", "lat": 38.88375683333334, "fusion_lon": 0.0, "fusion_lat": 0.0, "type": "electric_scooter", "name": "81cffbc500764a591392e61e08d1b40f", "is_disabled": 0, "rental_uris": {"ios": "https://dc.lft.to/lastmile_qr_scan", "android": "https://dc.lft.to/lastmile_qr_scan"}, "is_reserved": 0}, {"lon": -76.96515516666666, "bike_id": "00033d57a38a94488308f233a2ae01a6", "lat": 38.87477483333333, "fusion_lon": 0.0, "fusion_lat": 0.0, "type": "electric_scooter", "name": "00033d57a38a94488308f233a2ae01a6", "is_disabled": 0, "rental_uris": {"ios": "https://dc.lft.to/lastmile_qr_scan", "android": "https://dc.lft.to/lastmile_qr_scan"}, "is_reserved": 0}, {"lon": -77.0393155, "bike_id": "bf407d950570193f9a60be7559691623", "lat": 38.89965433333333, "fusion_lon": 0.0, "fusion_lat": 0.0, "type": "electric_scooter", "name": "bf407d950570193f9a60be7559691623", "is_disabled": 0, "rental_uris": {"ios": "https://dc.lft.to/lastmile_qr_scan", "android": "https://dc.lft.to/lastmile_qr_scan"}, "is_reserved": 0}, {"lon": -77.04858366666667, "bike_id": "69d2e09e9c7ce0e4a60b45c7892f7520", "lat": 38.900915499999996, "fusion_lon": 0.0, "fusion_lat": 0.0, "type": "electric_scooter", "name": "69d2e09e9c7ce0e4a60b45c7892f7520", "is_disabled": 0, "rental_uris": {"ios": "https://dc.lft.to/lastmile_qr_scan", "android": "https://dc.lft.to/lastmile_qr_scan"}, "is_reserved": 0}, {"lon": -77.025649, "bike_id": "33ba42bcb4e96a4c21deeb623bf7d8e1", "lat": 38.933538, "fusion_lon": 0.0, "fusion_lat": 0.0, "type": "electric_scooter", "name": "33ba42bcb4e96a4c21deeb623bf7d8e1", "is_disabled": 0, "rental_uris": {"ios": "https://dc.lft.to/lastmile_qr_scan", "android": "https://dc.lft.to/lastmile_qr_scan"}, "is_reserved": 0}, {"lon": -77.03518066666666, "bike_id": "2263d534699a493e383541d34330afd6", "lat": 38.92259983333334, "fusion_lon": 0.0, "fusion_lat": 0.0, "type": "electric_scooter", "name": "2263d534699a493e383541d34330afd6", "is_disabled": 0, "rental_uris": {"ios": "https://dc.lft.to/lastmile_qr_scan", "android": "https://dc.lft.to/lastmile_qr_scan"}, "is_reserved": 0}, {"lon": -77.021443, "bike_id": "6a9dd896614a9e32a007f3ae3d825c11", "lat": 38.89495016666667, "fusion_lon": 0.0, "fusion_lat": 0.0, "type": "electric_scooter", "name": "6a9dd896614a9e32a007f3ae3d825c11", "is_disabled": 0, "rental_uris": {"ios": "https://dc.lft.to/lastmile_qr_scan", "android": "https://dc.lft.to/lastmile_qr_scan"}, "is_reserved": 0}, {"lon": -77.03275133333334, "bike_id": "4cd248e78c8567f1ce4e1305a1c334fc", "lat": 38.9409095, "fusion_lon": 0.0, "fusion_lat": 0.0, "type": "electric_bike", "name": "4cd248e78c8567f1ce4e1305a1c334fc", "is_disabled": 0, "rental_uris": {"ios": "https://dc.lft.to/lastmile_qr_scan", "android": "https://dc.lft.to/lastmile_qr_scan"}, "is_reserved": 0}, {"lon": -77.02959433333334, "bike_id": "d8dbc08368d933baba2809cb613c3a33", "lat": 38.906935, "fusion_lon": 0.0, "fusion_lat": 0.0, "type": "electric_scooter", "name": "d8dbc08368d933baba2809cb613c3a33", "is_disabled": 0, "rental_uris": {"ios": "https://dc.lft.to/lastmile_qr_scan", "android": "https://dc.lft.to/lastmile_qr_scan"}, "is_reserved": 0}, {"lon": -77.01914366666666, "bike_id": "49d0727a7b42bef72b54d56363feed5f", "lat": 38.902339833333336, "fusion_lon": 0.0, "fusion_lat": 0.0, "type": "electric_scooter", "name": "49d0727a7b42bef72b54d56363feed5f", "is_disabled": 0, "rental_uris": {"ios": "https://dc.lft.to/lastmile_qr_scan", "android": "https://dc.lft.to/lastmile_qr_scan"}, "is_reserved": 0}, {"lon": -77.033807, "bike_id": "25cfd1b769bde52ce4e98041501601d9", "lat": 38.921524833333336, "fusion_lon": 0.0, "fusion_lat": 0.0, "type": "electric_scooter", "name": "25cfd1b769bde52ce4e98041501601d9", "is_disabled": 0, "rental_uris": {"ios": "https://dc.lft.to/lastmile_qr_scan", "android": "https://dc.lft.to/lastmile_qr_scan"}, "is_reserved": 0}, {"lon": -77.03479333333334, "bike_id": "056ffd1f09847dd6e0ea2d87163f34ae", "lat": 38.9072755, "fusion_lon": 0.0, "fusion_lat": 0.0, "type": "electric_scooter", "name": "056ffd1f09847dd6e0ea2d87163f34ae", "is_disabled": 0, "rental_uris": {"ios": "https://dc.lft.to/lastmile_qr_scan", "android": "https://dc.lft.to/lastmile_qr_scan"}, "is_reserved": 0}, {"lon": -77.04486383333334, "bike_id": "05d4a98a13e1634d8a05aca83e518e51", "lat": 38.90084816666667, "fusion_lon": 0.0, "fusion_lat": 0.0, "type": "electric_scooter", "name": "05d4a98a13e1634d8a05aca83e518e51", "is_disabled": 0, "rental_uris": {"ios": "https://dc.lft.to/lastmile_qr_scan", "android": "https://dc.lft.to/lastmile_qr_scan"}, "is_reserved": 0}, {"lon": -77.03413166666667, "bike_id": "550740541591ab9aa4a395ea51ae53e7", "lat": 38.93427033333333, "fusion_lon": 0.0, "fusion_lat": 0.0, "type": "electric_scooter", "name": "550740541591ab9aa4a395ea51ae53e7", "is_disabled": 0, "rental_uris": {"ios": "https://dc.lft.to/lastmile_qr_scan", "android": "https://dc.lft.to/lastmile_qr_scan"}, "is_reserved": 0}, {"lon": -77.03178533333333, "bike_id": "0424262e3d3b08b04059ae0c92faa264", "lat": 38.91263166666667, "fusion_lon": 0.0, "fusion_lat": 0.0, "type": "electric_scooter", "name": "0424262e3d3b08b04059ae0c92faa264", "is_disabled": 0, "rental_uris": {"ios": "https://dc.lft.to/lastmile_qr_scan", "android": "https://dc.lft.to/lastmile_qr_scan"}, "is_reserved": 0}, {"lon": -77.03661833333334, "bike_id": "3dd260515a9d303b2387cd9cfd071b92", "lat": 38.90464716666666, "fusion_lon": 0.0, "fusion_lat": 0.0, "type": "electric_scooter", "name": "3dd260515a9d303b2387cd9cfd071b92", "is_disabled": 0, "rental_uris": {"ios": "https://dc.lft.to/lastmile_qr_scan", "android": "https://dc.lft.to/lastmile_qr_scan"}, "is_reserved": 0}, {"lon": -77.04272433333334, "bike_id": "fd978faff53ca9ff9feab0c21feb0f57", "lat": 38.90867133333333, "fusion_lon": 0.0, "fusion_lat": 0.0, "type": "electric_scooter", "name": "fd978faff53ca9ff9feab0c21feb0f57", "is_disabled": 0, "rental_uris": {"ios": "https://dc.lft.to/lastmile_qr_scan", "android": "https://dc.lft.to/lastmile_qr_scan"}, "is_reserved": 0}, {"lon": -77.02713933333334, "bike_id": "af5825baead8fda02b2bfbc92b6194aa", "lat": 38.9113655, "fusion_lon": 0.0, "fusion_lat": 0.0, "type": "electric_scooter", "name": "af5825baead8fda02b2bfbc92b6194aa", "is_disabled": 0, "rental_uris": {"ios": "https://dc.lft.to/lastmile_qr_scan", "android": "https://dc.lft.to/lastmile_qr_scan"}, "is_reserved": 0}, {"lon": -77.046425, "bike_id": "c7326ee0be0e7ce281da218ecd62900b", "lat": 38.921203, "fusion_lon": 0.0, "fusion_lat": 0.0, "type": "electric_scooter", "name": "c7326ee0be0e7ce281da218ecd62900b", "is_disabled": 0, "rental_uris": {"ios": "https://dc.lft.to/lastmile_qr_scan", "android": "https://dc.lft.to/lastmile_qr_scan"}, "is_reserved": 0}, {"lon": -77.04036933333333, "bike_id": "9bf84f62843d2accdb8ff604c172144a", "lat": 38.92565466666667, "fusion_lon": 0.0, "fusion_lat": 0.0, "type": "electric_scooter", "name": "9bf84f62843d2accdb8ff604c172144a", "is_disabled": 0, "rental_uris": {"ios": "https://dc.lft.to/lastmile_qr_scan", "android": "https://dc.lft.to/lastmile_qr_scan"}, "is_reserved": 0}, {"lon": -76.94884066666667, "bike_id": "928bade87d4eb5284d17b36fefed881a", "lat": 38.895110833333334, "fusion_lon": 0.0, "fusion_lat": 0.0, "type": "electric_scooter", "name": "928bade87d4eb5284d17b36fefed881a", "is_disabled": 0, "rental_uris": {"ios": "https://dc.lft.to/lastmile_qr_scan", "android": "https://dc.lft.to/lastmile_qr_scan"}, "is_reserved": 0}, {"lon": -77.07771383333333, "bike_id": "311a805cec89af12a5a69ea2b57b4b13", "lat": 38.9304785, "fusion_lon": 0.0, "fusion_lat": 0.0, "type": "electric_scooter", "name": "311a805cec89af12a5a69ea2b57b4b13", "is_disabled": 0, "rental_uris": {"ios": "https://dc.lft.to/lastmile_qr_scan", "android": "https://dc.lft.to/lastmile_qr_scan"}, "is_reserved": 0}, {"lon": -77.02422133333333, "bike_id": "7441a872b99ff3c28e277d321c9df461", "lat": 38.93506416666666, "fusion_lon": 0.0, "fusion_lat": 0.0, "type": "electric_scooter", "name": "7441a872b99ff3c28e277d321c9df461", "is_disabled": 0, "rental_uris": {"ios": "https://dc.lft.to/lastmile_qr_scan", "android": "https://dc.lft.to/lastmile_qr_scan"}, "is_reserved": 0}, {"lon": -77.06106266666667, "bike_id": "214a36abbc0e1c1bec0ba86954d98093", "lat": 38.93706983333333, "fusion_lon": 0.0, "fusion_lat": 0.0, "type": "electric_scooter", "name": "214a36abbc0e1c1bec0ba86954d98093", "is_disabled": 0, "rental_uris": {"ios": "https://dc.lft.to/lastmile_qr_scan", "android": "https://dc.lft.to/lastmile_qr_scan"}, "is_reserved": 0}, {"lon": -77.02711483333333, "bike_id": "10b47f4527d522504792dd4df4d5f721", "lat": 38.94986383333333, "fusion_lon": 0.0, "fusion_lat": 0.0, "type": "electric_scooter", "name": "10b47f4527d522504792dd4df4d5f721", "is_disabled": 0, "rental_uris": {"ios": "https://dc.lft.to/lastmile_qr_scan", "android": "https://dc.lft.to/lastmile_qr_scan"}, "is_reserved": 0}, {"lon": -77.03698116666666, "bike_id": "03232fc23652a86fd3bb12e92299f835", "lat": 38.93649933333333, "fusion_lon": 0.0, "fusion_lat": 0.0, "type": "electric_bike", "name": "03232fc23652a86fd3bb12e92299f835", "is_disabled": 0, "rental_uris": {"ios": "https://dc.lft.to/lastmile_qr_scan", "android": "https://dc.lft.to/lastmile_qr_scan"}, "is_reserved": 0}, {"lon": -77.02360283333333, "bike_id": "856a91eee06068d2924574a35884918a", "lat": 38.9205215, "fusion_lon": 0.0, "fusion_lat": 0.0, "type": "electric_scooter", "name": "856a91eee06068d2924574a35884918a", "is_disabled": 0, "rental_uris": {"ios": "https://dc.lft.to/lastmile_qr_scan", "android": "https://dc.lft.to/lastmile_qr_scan"}, "is_reserved": 0}, {"lon": -77.04154266666667, "bike_id": "7b79c25f4a58b41a74cb93286d2fdffa", "lat": 38.918142333333336, "fusion_lon": 0.0, "fusion_lat": 0.0, "type": "electric_scooter", "name": "7b79c25f4a58b41a74cb93286d2fdffa", "is_disabled": 0, "rental_uris": {"ios": "https://dc.lft.to/lastmile_qr_scan", "android": "https://dc.lft.to/lastmile_qr_scan"}, "is_reserved": 0}, {"lon": -77.0449945, "bike_id": "52aed6a8dde680155b5a6067041a91ca", "lat": 38.90728883333333, "fusion_lon": 0.0, "fusion_lat": 0.0, "type": "electric_scooter", "name": "52aed6a8dde680155b5a6067041a91ca", "is_disabled": 0, "rental_uris": {"ios": "https://dc.lft.to/lastmile_qr_scan", "android": "https://dc.lft.to/lastmile_qr_scan"}, "is_reserved": 0}, {"lon": -76.98374416666667, "bike_id": "a5688ea3aa7e0637c8e004ebb2e1cefe", "lat": 38.889642, "fusion_lon": 0.0, "fusion_lat": 0.0, "type": "electric_scooter", "name": "a5688ea3aa7e0637c8e004ebb2e1cefe", "is_disabled": 0, "rental_uris": {"ios": "https://dc.lft.to/lastmile_qr_scan", "android": "https://dc.lft.to/lastmile_qr_scan"}, "is_reserved": 0}, {"lon": -77.03337866666666, "bike_id": "cb9bb3fb22ca67cdf8fd3ae80f1432ba", "lat": 38.919236, "fusion_lon": 0.0, "fusion_lat": 0.0, "type": "electric_scooter", "name": "cb9bb3fb22ca67cdf8fd3ae80f1432ba", "is_disabled": 0, "rental_uris": {"ios": "https://dc.lft.to/lastmile_qr_scan", "android": "https://dc.lft.to/lastmile_qr_scan"}, "is_reserved": 0}, {"lon": -77.0234025, "bike_id": "ccdf8759a7de360e57699babca106452", "lat": 38.920776833333335, "fusion_lon": 0.0, "fusion_lat": 0.0, "type": "electric_scooter", "name": "ccdf8759a7de360e57699babca106452", "is_disabled": 0, "rental_uris": {"ios": "https://dc.lft.to/lastmile_qr_scan", "android": "https://dc.lft.to/lastmile_qr_scan"}, "is_reserved": 0}, {"lon": -77.014536, "bike_id": "f5314d8bb2819ef90249a7928925c2a8", "lat": 38.92071216666667, "fusion_lon": 0.0, "fusion_lat": 0.0, "type": "electric_scooter", "name": "f5314d8bb2819ef90249a7928925c2a8", "is_disabled": 0, "rental_uris": {"ios": "https://dc.lft.to/lastmile_qr_scan", "android": "https://dc.lft.to/lastmile_qr_scan"}, "is_reserved": 0}, {"lon": -76.98844266666667, "bike_id": "408b3f3e44451045a5eeeb4409e7e0eb", "lat": 38.9008025, "fusion_lon": 0.0, "fusion_lat": 0.0, "type": "electric_scooter", "name": "408b3f3e44451045a5eeeb4409e7e0eb", "is_disabled": 0, "rental_uris": {"ios": "https://dc.lft.to/lastmile_qr_scan", "android": "https://dc.lft.to/lastmile_qr_scan"}, "is_reserved": 0}, {"lon": -77.05049216666667, "bike_id": "e1383306ab7ab0d34caf370f618785ac", "lat": 38.923633333333335, "fusion_lon": 0.0, "fusion_lat": 0.0, "type": "electric_scooter", "name": "e1383306ab7ab0d34caf370f618785ac", "is_disabled": 0, "rental_uris": {"ios": "https://dc.lft.to/lastmile_qr_scan", "android": "https://dc.lft.to/lastmile_qr_scan"}, "is_reserved": 0}, {"lon": -76.9947665, "bike_id": "17e913142ca342fab30c83af21fff9a7", "lat": 38.862171000000004, "fusion_lon": 0.0, "fusion_lat": 0.0, "type": "electric_scooter", "name": "17e913142ca342fab30c83af21fff9a7", "is_disabled": 0, "rental_uris": {"ios": "https://dc.lft.to/lastmile_qr_scan", "android": "https://dc.lft.to/lastmile_qr_scan"}, "is_reserved": 0}, {"lon": -77.03385116666666, "bike_id": "b6673cb088673c4ade35b5d13479e318", "lat": 38.92160166666667, "fusion_lon": 0.0, "fusion_lat": 0.0, "type": "electric_scooter", "name": "b6673cb088673c4ade35b5d13479e318", "is_disabled": 0, "rental_uris": {"ios": "https://dc.lft.to/lastmile_qr_scan", "android": "https://dc.lft.to/lastmile_qr_scan"}, "is_reserved": 0}, {"lon": -77.042353, "bike_id": "9f9283cb05a96a0b0a4f8a4489f174df", "lat": 38.916373666666665, "fusion_lon": 0.0, "fusion_lat": 0.0, "type": "electric_scooter", "name": "9f9283cb05a96a0b0a4f8a4489f174df", "is_disabled": 0, "rental_uris": {"ios": "https://dc.lft.to/lastmile_qr_scan", "android": "https://dc.lft.to/lastmile_qr_scan"}, "is_reserved": 0}, {"lon": -77.023783, "bike_id": "bd1ed4f32804c5a2f8dd9404de27c510", "lat": 38.88495416666667, "fusion_lon": 0.0, "fusion_lat": 0.0, "type": "electric_scooter", "name": "bd1ed4f32804c5a2f8dd9404de27c510", "is_disabled": 0, "rental_uris": {"ios": "https://dc.lft.to/lastmile_qr_scan", "android": "https://dc.lft.to/lastmile_qr_scan"}, "is_reserved": 0}, {"lon": -77.05614066666666, "bike_id": "5e9de2985f238a21f4638d07c0b0b698", "lat": 38.93165366666667, "fusion_lon": 0.0, "fusion_lat": 0.0, "type": "electric_scooter", "name": "5e9de2985f238a21f4638d07c0b0b698", "is_disabled": 0, "rental_uris": {"ios": "https://dc.lft.to/lastmile_qr_scan", "android": "https://dc.lft.to/lastmile_qr_scan"}, "is_reserved": 0}, {"lon": -77.0610735, "bike_id": "f474a13a391eb3907cf0b35c388d5bf6", "lat": 38.94362016666667, "fusion_lon": 0.0, "fusion_lat": 0.0, "type": "electric_scooter", "name": "f474a13a391eb3907cf0b35c388d5bf6", "is_disabled": 0, "rental_uris": {"ios": "https://dc.lft.to/lastmile_qr_scan", "android": "https://dc.lft.to/lastmile_qr_scan"}, "is_reserved": 0}, {"lon": -77.06775583333334, "bike_id": "4360c0ab37c8edf242dd669553e78629", "lat": 38.9044925, "fusion_lon": 0.0, "fusion_lat": 0.0, "type": "electric_scooter", "name": "4360c0ab37c8edf242dd669553e78629", "is_disabled": 0, "rental_uris": {"ios": "https://dc.lft.to/lastmile_qr_scan", "android": "https://dc.lft.to/lastmile_qr_scan"}, "is_reserved": 0}, {"lon": -77.03258066666666, "bike_id": "7249f66da4de29488672f155658247ce", "lat": 38.909702333333335, "fusion_lon": 0.0, "fusion_lat": 0.0, "type": "electric_scooter", "name": "7249f66da4de29488672f155658247ce", "is_disabled": 0, "rental_uris": {"ios": "https://dc.lft.to/lastmile_qr_scan", "android": "https://dc.lft.to/lastmile_qr_scan"}, "is_reserved": 0}, {"lon": -77.01847716666667, "bike_id": "2e4d1b5dd2d2a500541bb5d0a8b89185", "lat": 38.9039295, "fusion_lon": 0.0, "fusion_lat": 0.0, "type": "electric_scooter", "name": "2e4d1b5dd2d2a500541bb5d0a8b89185", "is_disabled": 0, "rental_uris": {"ios": "https://dc.lft.to/lastmile_qr_scan", "android": "https://dc.lft.to/lastmile_qr_scan"}, "is_reserved": 0}, {"lon": -77.03852233333333, "bike_id": "7436f131c2f734e0e4d6930e63aef83e", "lat": 38.91548683333333, "fusion_lon": 0.0, "fusion_lat": 0.0, "type": "electric_scooter", "name": "7436f131c2f734e0e4d6930e63aef83e", "is_disabled": 0, "rental_uris": {"ios": "https://dc.lft.to/lastmile_qr_scan", "android": "https://dc.lft.to/lastmile_qr_scan"}, "is_reserved": 0}, {"lon": -77.04172483333333, "bike_id": "488f9a3b3e29ba57ad9b51b947bb45f9", "lat": 38.917919, "fusion_lon": 0.0, "fusion_lat": 0.0, "type": "electric_scooter", "name": "488f9a3b3e29ba57ad9b51b947bb45f9", "is_disabled": 0, "rental_uris": {"ios": "https://dc.lft.to/lastmile_qr_scan", "android": "https://dc.lft.to/lastmile_qr_scan"}, "is_reserved": 0}, {"lon": -77.04662633333334, "bike_id": "800e598a3f2a1ea03a6f63e454c45593", "lat": 38.9054055, "fusion_lon": 0.0, "fusion_lat": 0.0, "type": "electric_scooter", "name": "800e598a3f2a1ea03a6f63e454c45593", "is_disabled": 0, "rental_uris": {"ios": "https://dc.lft.to/lastmile_qr_scan", "android": "https://dc.lft.to/lastmile_qr_scan"}, "is_reserved": 0}, {"lon": -77.025271, "bike_id": "d15632f9d8077e1309cf12db46a35ef9", "lat": 38.919248, "fusion_lon": 0.0, "fusion_lat": 0.0, "type": "electric_scooter", "name": "d15632f9d8077e1309cf12db46a35ef9", "is_disabled": 0, "rental_uris": {"ios": "https://dc.lft.to/lastmile_qr_scan", "android": "https://dc.lft.to/lastmile_qr_scan"}, "is_reserved": 0}, {"lon": -77.0272045, "bike_id": "261c2a482f5694aa3028c6910ac65c2a", "lat": 38.91679383333334, "fusion_lon": 0.0, "fusion_lat": 0.0, "type": "electric_scooter", "name": "261c2a482f5694aa3028c6910ac65c2a", "is_disabled": 0, "rental_uris": {"ios": "https://dc.lft.to/lastmile_qr_scan", "android": "https://dc.lft.to/lastmile_qr_scan"}, "is_reserved": 0}, {"lon": -77.01928483333333, "bike_id": "b5421d744c3830d9eac37b0a458b8777", "lat": 38.92221716666667, "fusion_lon": 0.0, "fusion_lat": 0.0, "type": "electric_scooter", "name": "b5421d744c3830d9eac37b0a458b8777", "is_disabled": 0, "rental_uris": {"ios": "https://dc.lft.to/lastmile_qr_scan", "android": "https://dc.lft.to/lastmile_qr_scan"}, "is_reserved": 0}, {"lon": -76.99602066666667, "bike_id": "293f5b190e1f1d1c4c5069d033a5e27d", "lat": 38.884229166666664, "fusion_lon": 0.0, "fusion_lat": 0.0, "type": "electric_scooter", "name": "293f5b190e1f1d1c4c5069d033a5e27d", "is_disabled": 0, "rental_uris": {"ios": "https://dc.lft.to/lastmile_qr_scan", "android": "https://dc.lft.to/lastmile_qr_scan"}, "is_reserved": 0}, {"lon": -77.03220966666666, "bike_id": "e1f3afdda0edf9eb0762cf3f5bfc612f", "lat": 38.897363166666665, "fusion_lon": 0.0, "fusion_lat": 0.0, "type": "electric_scooter", "name": "e1f3afdda0edf9eb0762cf3f5bfc612f", "is_disabled": 0, "rental_uris": {"ios": "https://dc.lft.to/lastmile_qr_scan", "android": "https://dc.lft.to/lastmile_qr_scan"}, "is_reserved": 0}, {"lon": -77.01527733333333, "bike_id": "52ad4181e1202b7bc4c5281bdf865ed5", "lat": 38.90266, "fusion_lon": 0.0, "fusion_lat": 0.0, "type": "electric_scooter", "name": "52ad4181e1202b7bc4c5281bdf865ed5", "is_disabled": 0, "rental_uris": {"ios": "https://dc.lft.to/lastmile_qr_scan", "android": "https://dc.lft.to/lastmile_qr_scan"}, "is_reserved": 0},