{"data": {"bikes": [{"lat": 38.90733, "fusion_lat": 0.0, "type": "electric_scooter", "bike_id": "59fc772f61aa82c00ffe2dcc7c462f36", "is_reserved": 0, "rental_uris": {"ios": "https://dc.lft.to/lastmile_qr_scan", "android": "https://dc.lft.to/lastmile_qr_scan"}, "is_disabled": 0, "lon": -77.0297485, "name": "59fc772f61aa82c00ffe2dcc7c462f36", "fusion_lon": 0.0}, {"lat": 38.89327266666667, "fusion_lat": 0.0, "type": "electric_scooter", "bike_id": "7dd117479b528d0d39d81812ba6c1d6c", "is_reserved": 0, "rental_uris": {"ios": "https://dc.lft.to/lastmile_qr_scan", "android": "https://dc.lft.to/lastmile_qr_scan"}, "is_disabled": 0, "lon": -77.04877266666666, "name": "7dd117479b528d0d39d81812ba6c1d6c", "fusion_lon": 0.0}, {"lat": 38.91854466666667, "fusion_lat": 0.0, "type": "electric_scooter", "bike_id": "47b88134beff5d5e4e9b764f13caa8f6", "is_reserved": 0, "rental_uris": {"ios": "https://dc.lft.to/lastmile_qr_scan", "android": "https://dc.lft.to/lastmile_qr_scan"}, "is_disabled": 0, "lon": -77.04493966666666, "name": "47b88134beff5d5e4e9b764f13caa8f6", "fusion_lon": 0.0}, {"lat": 38.898938333333334, "fusion_lat": 0.0, "type": "electric_scooter", "bike_id": "881b24cffba064ce8a4b194d246e09d8", "is_reserved": 0, "rental_uris": {"ios": "https://dc.lft.to/lastmile_qr_scan", "android": "https://dc.lft.to/lastmile_qr_scan"}, "is_disabled": 0, "lon": -77.01505416666667, "name": "881b24cffba064ce8a4b194d246e09d8", "fusion_lon": 0.0}, {"lat": 38.916387666666665, "fusion_lat": 0.0, "type": "electric_scooter", "bike_id": "cc0624164c05292f96b1240417240268", "is_reserved": 0, "rental_uris": {"ios": "https://dc.lft.to/lastmile_qr_scan", "android": "https://dc.lft.to/lastmile_qr_scan"}, "is_disabled": 0, "lon": -77.04242066666667, "name": "cc0624164c05292f96b1240417240268", "fusion_lon": 0.0}, {"lat": 38.874158, "fusion_lat": 0.0, "type": "electric_scooter", "bike_id": "76462c386a6c5d1dd9e8a52a34c81b8e", "is_reserved": 0, "rental_uris": {"ios": "https://dc.lft.to/lastmile_qr_scan", "android": "https://dc.lft.to/lastmile_qr_scan"}, "is_disabled": 0, "lon": -76.97121066666666, "name": "76462c386a6c5d1dd9e8a52a34c81b8e", "fusion_lon": 0.0}, {"lat": 38.95152866666667, "fusion_lat": 0.0, "type": "electric_scooter", "bike_id": "2fc24a36a7d6da480e5d104615621705", "is_reserved": 0, "rental_uris": {"ios": "https://dc.lft.to/lastmile_qr_scan", "android": "https://dc.lft.to/lastmile_qr_scan"}, "is_disabled": 0, "lon": -77.0186695, "name": "2fc24a36a7d6da480e5d104615621705", "fusion_lon": 0.0}, {"lat": 38.901035666666665, "fusion_lat": 0.0, "type": "electric_scooter", "bike_id": "2195dd43e63f60290f17e8f28b17e88c", "is_reserved": 0, "rental_uris": {"ios": "https://dc.lft.to/lastmile_qr_scan", "android": "https://dc.lft.to/lastmile_qr_scan"}, "is_disabled": 0, "lon": -77.0240595, "name": "2195dd43e63f60290f17e8f28b17e88c", "fusion_lon": 0.0}, {"lat": 38.9216915, "fusion_lat": 0.0, "type": "electric_scooter", "bike_id": "305101e84671a5a407536f3848ed1826", "is_reserved": 0, "rental_uris": {"ios": "https://dc.lft.to/lastmile_qr_scan", "android": "https://dc.lft.to/lastmile_qr_scan"}, "is_disabled": 0, "lon": -77.04028733333334, "name": "305101e84671a5a407536f3848ed1826", "fusion_lon": 0.0}, {"lat": 38.914198666666664, "fusion_lat": 0.0, "type": "electric_scooter", "bike_id": "a303396368cfd1db3a580ce13f9b11d6", "is_reserved": 0, "rental_uris": {"ios": "https://dc.lft.to/lastmile_qr_scan", "android": "https://dc.lft.to/lastmile_qr_scan"}, "is_disabled": 0, "lon": -77.03904166666666, "name": "a303396368cfd1db3a580ce13f9b11d6", "fusion_lon": 0.0}, {"lat": 38.82381133333333, "fusion_lat": 0.0, "type": "electric_bike", "bike_id": "a8b77c2b259d016b599e64e336eee808", "is_reserved": 0, "rental_uris": {"ios": "https://dc.lft.to/lastmile_qr_scan", "android": "https://dc.lft.to/lastmile_qr_scan"}, "is_disabled": 0, "lon": -77.00227383333333, "name": "a8b77c2b259d016b599e64e336eee808", "fusion_lon": 0.0}, {"lat": 38.89358983333333, "fusion_lat": 0.0, "type": "electric_scooter", "bike_id": "7965a21d334111fbbcd7ff33922adfbd", "is_reserved": 0, "rental_uris": {"ios": "https://dc.lft.to/lastmile_qr_scan", "android": "https://dc.lft.to/lastmile_qr_scan"}, "is_disabled": 0, "lon": -76.9493565, "name": "7965a21d334111fbbcd7ff33922adfbd", "fusion_lon": 0.0}, {"lat": 38.91572816666667, "fusion_lat": 0.0, "type": "electric_scooter", "bike_id": "b26aa54e3953c678bae9b0a92ee602b4", "is_reserved": 0, "rental_uris": {"ios": "https://dc.lft.to/lastmile_qr_scan", "android": "https://dc.lft.to/lastmile_qr_scan"}, "is_disabled": 0, "lon": -77.03199233333333, "name": "b26aa54e3953c678bae9b0a92ee602b4", "fusion_lon": 0.0}, {"lat": 38.9212135, "fusion_lat": 0.0, "type": "electric_scooter", "bike_id": "8504bf82e925fff6f15b16b12c43620b", "is_reserved": 0, "rental_uris": {"ios": "https://dc.lft.to/lastmile_qr_scan", "android": "https://dc.lft.to/lastmile_qr_scan"}, "is_disabled": 0, "lon": -77.04426766666667, "name": "8504bf82e925fff6f15b16b12c43620b", "fusion_lon": 0.0}, {"lat": 38.877191833333335, "fusion_lat": 0.0, "type": "electric_scooter", "bike_id": "645e5c2b74f4efefb5522fd541a672cc", "is_reserved": 0, "rental_uris": {"ios": "https://dc.lft.to/lastmile_qr_scan", "android": "https://dc.lft.to/lastmile_qr_scan"}, "is_disabled": 0, "lon": -77.01768233333334, "name": "645e5c2b74f4efefb5522fd541a672cc", "fusion_lon": 0.0}, {"lat": 38.820522833333335, "fusion_lat": 0.0, "type": "electric_bike", "bike_id": "91bd1f0c7c4fe2fa011a0096a7ac348b", "is_reserved": 0, "rental_uris": {"ios": "https://dc.lft.to/lastmile_qr_scan", "android": "https://dc.lft.to/lastmile_qr_scan"}, "is_disabled": 0, "lon": -77.05310433333334, "name": "91bd1f0c7c4fe2fa011a0096a7ac348b", "fusion_lon": 0.0}, {"lat": 38.91539733333333, "fusion_lat": 0.0, "type": "electric_scooter", "bike_id": "34c28453076d346efa0051f591aff6a1", "is_reserved": 0, "rental_uris": {"ios": "https://dc.lft.to/lastmile_qr_scan", "android": "https://dc.lft.to/lastmile_qr_scan"}, "is_disabled": 0, "lon": -76.970128, "name": "34c28453076d346efa0051f591aff6a1", "fusion_lon": 0.0}, {"lat": 38.92168566666667, "fusion_lat": 0.0, "type": "electric_scooter", "bike_id": "0377e37b462329f0320065b500361e1d", "is_reserved": 0, "rental_uris": {"ios": "https://dc.lft.to/lastmile_qr_scan", "android": "https://dc.lft.to/lastmile_qr_scan"}, "is_disabled": 0, "lon": -77.03249516666666, "name": "0377e37b462329f0320065b500361e1d", "fusion_lon": 0.0}, {"lat": 38.882409, "fusion_lat": 0.0, "type": "electric_bike", "bike_id": "af0e8f5298e4fe70d156633d5f7daaed", "is_reserved": 0, "rental_uris": {"ios": "https://dc.lft.to/lastmile_qr_scan", "android": "https://dc.lft.to/lastmile_qr_scan"}, "is_disabled": 0, "lon": -76.96254316666666, "name": "af0e8f5298e4fe70d156633d5f7daaed", "fusion_lon": 0.0}, {"lat": 38.90660116666667, "fusion_lat": 0.0, "type": "electric_scooter", "bike_id": "79f731ea255d7ee474986498f65c5a45", "is_reserved": 0, "rental_uris": {"ios": "https://dc.lft.to/lastmile_qr_scan", "android": "https://dc.lft.to/lastmile_qr_scan"}, "is_disabled": 0, "lon": -77.04157016666667, "name": "79f731ea255d7ee474986498f65c5a45", "fusion_lon": 0.0}, {"lat": 38.900105, "fusion_lat": 0.0, "type": "electric_scooter", "bike_id": "b416bc0adf193c479cf6616d7955bb5e", "is_reserved": 0, "rental_uris": {"ios": "https://dc.lft.to/lastmile_qr_scan", "android": "https://dc.lft.to/lastmile_qr_scan"}, "is_disabled": 0, "lon": -76.996221, "name": "b416bc0adf193c479cf6616d7955bb5e", "fusion_lon": 0.0}, {"lat": 39.04314383333333, "fusion_lat": 0.0, "type": "electric_bike", "bike_id": "e263900cd4aa87740cac50d82c7f09a5", "is_reserved": 0, "rental_uris": {"ios": "https://dc.lft.to/lastmile_qr_scan", "android": "https://dc.lft.to/lastmile_qr_scan"}, "is_disabled": 0, "lon": -77.05155733333334, "name": "e263900cd4aa87740cac50d82c7f09a5", "fusion_lon": 0.0}, {"lat": 38.917471, "fusion_lat": 0.0, "type": "electric_scooter", "bike_id": "ac4d55bed32c15029bd4192f933e6cc5", "is_reserved": 0, "rental_uris": {"ios": "https://dc.lft.to/lastmile_qr_scan", "android": "https://dc.lft.to/lastmile_qr_scan"}, "is_disabled": 0, "lon": -77.0418315, "name": "ac4d55bed32c15029bd4192f933e6cc5", "fusion_lon": 0.0}, {"lat": 38.90662416666667, "fusion_lat": 0.0, "type": "electric_scooter", "bike_id": "31da965a4ce8cf69ee1ad8cb652ed941", "is_reserved": 0, "rental_uris": {"ios": "https://dc.lft.to/lastmile_qr_scan", "android": "https://dc.lft.to/lastmile_qr_scan"}, "is_disabled": 0, "lon": -77.0712555, "name": "31da965a4ce8cf69ee1ad8cb652ed941", "fusion_lon": 0.0}, {"lat": 38.936979, "fusion_lat": 0.0, "type": "electric_bike", "bike_id": "4d068e2b96b48d4485d55f8bdc811d0b", "is_reserved": 0, "rental_uris": {"ios": "https://dc.lft.to/lastmile_qr_scan", "android": "https://dc.lft.to/lastmile_qr_scan"}, "is_disabled": 0, "lon": -77.02981633333333, "name": "4d068e2b96b48d4485d55f8bdc811d0b", "fusion_lon": 0.0}, {"lat": 39.05496433333333, "fusion_lat": 0.0, "type": "electric_bike", "bike_id": "a61daca7548bc139b917217d201b8615", "is_reserved": 0, "rental_uris": {"ios": "https://dc.lft.to/lastmile_qr_scan", "android": "https://dc.lft.to/lastmile_qr_scan"}, "is_disabled": 0, "lon": -77.11787666666666, "name": "a61daca7548bc139b917217d201b8615", "fusion_lon": 0.0}, {"lat": 38.913834, "fusion_lat": 0.0, "type": "electric_scooter", "bike_id": "e15fbd70258016fb93e45c9cb523f125", "is_reserved": 0, "rental_uris": {"ios": "https://dc.lft.to/lastmile_qr_scan", "android": "https://dc.lft.to/lastmile_qr_scan"}, "is_disabled": 0, "lon": -77.04597183333334, "name": "e15fbd70258016fb93e45c9cb523f125", "fusion_lon": 0.0}, {"lat": 38.90666016666667, "fusion_lat": 0.0, "type": "electric_scooter", "bike_id": "099124b17ddeac2f51941a81d082d88a", "is_reserved": 0, "rental_uris": {"ios": "https://dc.lft.to/lastmile_qr_scan", "android": "https://dc.lft.to/lastmile_qr_scan"}, "is_disabled": 0, "lon": -77.009079, "name": "099124b17ddeac2f51941a81d082d88a", "fusion_lon": 0.0}, {"lat": 38.9288485, "fusion_lat": 0.0, "type": "electric_scooter", "bike_id": "df84474562cf19f09d8d223a57bee348", "is_reserved": 0, "rental_uris": {"ios": "https://dc.lft.to/lastmile_qr_scan", "android": "https://dc.lft.to/lastmile_qr_scan"}, "is_disabled": 0, "lon": -77.01357933333334, "name": "df84474562cf19f09d8d223a57bee348", "fusion_lon": 0.0}, {"lat": 38.8859825, "fusion_lat": 0.0, "type": "electric_scooter", "bike_id": "3b847d6b877374ee7365cbb5c4ceea2b", "is_reserved": 0, "rental_uris": {"ios": "https://dc.lft.to/lastmile_qr_scan", "android": "https://dc.lft.to/lastmile_qr_scan"}, "is_disabled": 0, "lon": -76.99607283333333, "name": "3b847d6b877374ee7365cbb5c4ceea2b", "fusion_lon": 0.0}, {"lat": 39.038828, "fusion_lat": 0.0, "type": "electric_bike", "bike_id": "e9db05fb32078ca3ccf7a89dba90934d", "is_reserved": 0, "rental_uris": {"ios": "https://dc.lft.to/lastmile_qr_scan", "android": "https://dc.lft.to/lastmile_qr_scan"}, "is_disabled": 0, "lon": -77.05064133333333, "name": "e9db05fb32078ca3ccf7a89dba90934d", "fusion_lon": 0.0}, {"lat": 38.935962, "fusion_lat": 0.0, "type": "electric_bike", "bike_id": "8e6c82b089fb53343bbb86319ce62f74", "is_reserved": 0, "rental_uris": {"ios": "https://dc.lft.to/lastmile_qr_scan", "android": "https://dc.lft.to/lastmile_qr_scan"}, "is_disabled": 0, "lon": -77.03026083333333, "name": "8e6c82b089fb53343bbb86319ce62f74", "fusion_lon": 0.0}, {"lat": 38.92328216666667, "fusion_lat": 0.0, "type": "electric_scooter", "bike_id": "a61604778d66a4f6a9bb67cdf772d6f4", "is_reserved": 0, "rental_uris": {"ios": "https://dc.lft.to/lastmile_qr_scan", "android": "https://dc.lft.to/lastmile_qr_scan"}, "is_disabled": 0, "lon": -77.02272383333333, "name": "a61604778d66a4f6a9bb67cdf772d6f4", "fusion_lon": 0.0}, {"lat": 38.916219, "fusion_lat": 0.0, "type": "electric_scooter", "bike_id": "620e2330dab50cadb3c16e734c56d44f", "is_reserved": 0, "rental_uris": {"ios": "https://dc.lft.to/lastmile_qr_scan", "android": "https://dc.lft.to/lastmile_qr_scan"}, "is_disabled": 0, "lon": -77.03744583333334, "name": "620e2330dab50cadb3c16e734c56d44f", "fusion_lon": 0.0}, {"lat": 38.90837, "fusion_lat": 0.0, "type": "electric_scooter", "bike_id": "4e8a0c1003a918c00c19aad885dea2f2", "is_reserved": 0, "rental_uris": {"ios": "https://dc.lft.to/lastmile_qr_scan", "android": "https://dc.lft.to/lastmile_qr_scan"}, "is_disabled": 0, "lon": -77.009381, "name": "4e8a0c1003a918c00c19aad885dea2f2", "fusion_lon": 0.0}, {"lat": 38.9306655, "fusion_lat": 0.0, "type": "electric_scooter", "bike_id": "00d98657d6ec7ecdb45dc1902c5380d2", "is_reserved": 0, "rental_uris": {"ios": "https://dc.lft.to/lastmile_qr_scan", "android": "https://dc.lft.to/lastmile_qr_scan"}, "is_disabled": 0, "lon": -77.0216735, "name": "00d98657d6ec7ecdb45dc1902c5380d2", "fusion_lon": 0.0}, {"lat": 38.86712433333334, "fusion_lat": 0.0, "type": "electric_scooter", "bike_id": "53782c39b733959cdf2ed1c0748e6b97", "is_reserved": 0, "rental_uris": {"ios": "https://dc.lft.to/lastmile_qr_scan", "android": "https://dc.lft.to/lastmile_qr_scan"}, "is_disabled": 0, "lon": -76.98724633333333, "name": "53782c39b733959cdf2ed1c0748e6b97", "fusion_lon": 0.0}, {"lat": 38.92016233333333, "fusion_lat": 0.0, "type": "electric_scooter", "bike_id": "9756d1c76cea446afe687bb6a56e09b4", "is_reserved": 0, "rental_uris": {"ios": "https://dc.lft.to/lastmile_qr_scan", "android": "https://dc.lft.to/lastmile_qr_scan"}, "is_disabled": 0, "lon": -77.02044916666667, "name": "9756d1c76cea446afe687bb6a56e09b4", "fusion_lon": 0.0}, {"lat": 38.956839333333335, "fusion_lat": 0.0, "type": "electric_scooter", "bike_id": "c33d059eafec1185b5f2f976425bf413", "is_reserved": 0, "rental_uris": {"ios": "https://dc.lft.to/lastmile_qr_scan", "android": "https://dc.lft.to/lastmile_qr_scan"}, "is_disabled": 0, "lon": -77.02405466666667, "name": "c33d059eafec1185b5f2f976425bf413", "fusion_lon": 0.0}, {"lat": 38.884825666666664, "fusion_lat": 0.0, "type": "electric_scooter", "bike_id": "11949b57103bb566266d40fcb06a9caa", "is_reserved": 0, "rental_uris": {"ios": "https://dc.lft.to/lastmile_qr_scan", "android": "https://dc.lft.to/lastmile_qr_scan"}, "is_disabled": 0, "lon": -77.015274, "name": "11949b57103bb566266d40fcb06a9caa", "fusion_lon": 0.0}, {"lat": 38.924360666666665, "fusion_lat": 0.0, "type": "electric_scooter", "bike_id": "f9b528a0e974957b75efc2ce394a2a9d", "is_reserved": 0, "rental_uris": {"ios": "https://dc.lft.to/lastmile_qr_scan", "android": "https://dc.lft.to/lastmile_qr_scan"}, "is_disabled": 0, "lon": -77.022421, "name": "f9b528a0e974957b75efc2ce394a2a9d", "fusion_lon": 0.0}, {"lat": 38.917076333333334, "fusion_lat": 0.0, "type": "electric_scooter", "bike_id": "bf026dbef962f027c25fcde9e1dd1802", "is_reserved": 0, "rental_uris": {"ios": "https://dc.lft.to/lastmile_qr_scan", "android": "https://dc.lft.to/lastmile_qr_scan"}, "is_disabled": 0, "lon": -77.02464666666667, "name": "bf026dbef962f027c25fcde9e1dd1802", "fusion_lon": 0.0}, {"lat": 38.874695333333335, "fusion_lat": 0.0, "type": "electric_scooter", "bike_id": "ba32276e9f0423482ae2d96a943ef617", "is_reserved": 0, "rental_uris": {"ios": "https://dc.lft.to/lastmile_qr_scan", "android": "https://dc.lft.to/lastmile_qr_scan"}, "is_disabled": 0, "lon": -77.0189335, "name": "ba32276e9f0423482ae2d96a943ef617", "fusion_lon": 0.0}, {"lat": 38.90247683333333, "fusion_lat": 0.0, "type": "electric_scooter", "bike_id": "395ad1f9216e925c84f2bcfe36ff93c5", "is_reserved": 0, "rental_uris": {"ios": "https://dc.lft.to/lastmile_qr_scan", "android": "https://dc.lft.to/lastmile_qr_scan"}, "is_disabled": 0, "lon": -77.0324925, "name": "395ad1f9216e925c84f2bcfe36ff93c5", "fusion_lon": 0.0}, {"lat": 38.90983966666667, "fusion_lat": 0.0, "type": "electric_scooter", "bike_id": "dd052440e9abd7dc3b2aebf60f3203cc", "is_reserved": 0, "rental_uris": {"ios": "https://dc.lft.to/lastmile_qr_scan", "android": "https://dc.lft.to/lastmile_qr_scan"}, "is_disabled": 0, "lon": -77.02168733333333, "name": "dd052440e9abd7dc3b2aebf60f3203cc", "fusion_lon": 0.0}, {"lat": 38.862195, "fusion_lat": 0.0, "type": "electric_scooter", "bike_id": "859d12f416b8cdf3c0fc90d59dec5fe6", "is_reserved": 0, "rental_uris": {"ios": "https://dc.lft.to/lastmile_qr_scan", "android": "https://dc.lft.to/lastmile_qr_scan"}, "is_disabled": 0, "lon": -76.994783, "name": "859d12f416b8cdf3c0fc90d59dec5fe6", "fusion_lon": 0.0}, {"lat": 38.8746165, "fusion_lat": 0.0, "type": "electric_scooter", "bike_id": "0efbb4694fd6100458aa4dc2b16b1635", "is_reserved": 0, "rental_uris": {"ios": "https://dc.lft.to/lastmile_qr_scan", "android": "https://dc.lft.to/lastmile_qr_scan"}, "is_disabled": 0, "lon": -77.0054365, "name": "0efbb4694fd6100458aa4dc2b16b1635", "fusion_lon": 0.0}, {"lat": 38.887713166666664, "fusion_lat": 0.0, "type": "electric_scooter", "bike_id": "ea3ae1a67f5e67434eda68843f6bb8ce", "is_reserved": 0, "rental_uris": {"ios": "https://dc.lft.to/lastmile_qr_scan", "android": "https://dc.lft.to/lastmile_qr_scan"}, "is_disabled": 0, "lon": -77.02269333333334, "name": "ea3ae1a67f5e67434eda68843f6bb8ce", "fusion_lon": 0.0}, {"lat": 38.90038, "fusion_lat": 0.0, "type": "electric_scooter", "bike_id": "1be47acf8b425ac48a3fead0eb300051", "is_reserved": 0, "rental_uris": {"ios": "https://dc.lft.to/lastmile_qr_scan", "android": "https://dc.lft.to/lastmile_qr_scan"}, "is_disabled": 0, "lon": -76.98057666666666, "name": "1be47acf8b425ac48a3fead0eb300051", "fusion_lon": 0.0}, {"lat": 38.92973466666667, "fusion_lat": 0.0, "type": "electric_scooter", "bike_id": "2e6b20ba8f63cf3c4ce4b16752aa4d46", "is_reserved": 0, "rental_uris": {"ios": "https://dc.lft.to/lastmile_qr_scan", "android": "https://dc.lft.to/lastmile_qr_scan"}, "is_disabled": 0, "lon": -76.99072916666667, "name": "2e6b20ba8f63cf3c4ce4b16752aa4d46", "fusion_lon": 0.0}, {"lat": 38.9115115, "fusion_lat": 0.0, "type": "electric_scooter", "bike_id": "242e18200bd8e37963495f8444dd73ed", "is_reserved": 0, "rental_uris": {"ios": "https://dc.lft.to/lastmile_qr_scan", "android": "https://dc.lft.to/lastmile_qr_scan"}, "is_disabled": 0, "lon": -77.03842533333334, "name": "242e18200bd8e37963495f8444dd73ed", "fusion_lon": 0.0}, {"lat": 38.921183666666664, "fusion_lat": 0.0, "type": "electric_scooter", "bike_id": "5dd8e2d1b0a0b2677bac12ce020af878", "is_reserved": 0, "rental_uris": {"ios": "https://dc.lft.to/lastmile_qr_scan", "android": "https://dc.lft.to/lastmile_qr_scan"}, "is_disabled": 0, "lon": -77.03325783333334, "name": "5dd8e2d1b0a0b2677bac12ce020af878", "fusion_lon": 0.0}, {"lat": 38.902383666666665, "fusion_lat": 0.0, "type": "electric_scooter", "bike_id": "b43575f5167e1533c72e7b0723aeb4dd", "is_reserved": 0, "rental_uris": {"ios": "https://dc.lft.to/lastmile_qr_scan", "android": "https://dc.lft.to/lastmile_qr_scan"}, "is_disabled": 0, "lon": -76.974132, "name": "b43575f5167e1533c72e7b0723aeb4dd", "fusion_lon": 0.0}, {"lat": 38.90481183333333, "fusion_lat": 0.0, "type": "electric_scooter", "bike_id": "c2db1e82543dc37570756172f14c4ebe", "is_reserved": 0, "rental_uris": {"ios": "https://dc.lft.to/lastmile_qr_scan", "android": "https://dc.lft.to/lastmile_qr_scan"}, "is_disabled": 0, "lon": -77.03952283333334, "name": "c2db1e82543dc37570756172f14c4ebe", "fusion_lon": 0.0}, {"lat": 38.9337645, "fusion_lat": 0.0, "type": "electric_scooter", "bike_id": "03447973e4ee4238b67c227f71fe0234", "is_reserved": 0, "rental_uris": {"ios": "https://dc.lft.to/lastmile_qr_scan", "android": "https://dc.lft.to/lastmile_qr_scan"}, "is_disabled": 0, "lon": -77.0576205, "name": "03447973e4ee4238b67c227f71fe0234", "fusion_lon": 0.0}, {"lat": 38.90765, "fusion_lat": 0.0, "type": "electric_scooter", "bike_id": "f78244c844141cbe682a5e5a5ba7132a", "is_reserved": 0, "rental_uris": {"ios": "https://dc.lft.to/lastmile_qr_scan", "android": "https://dc.lft.to/lastmile_qr_scan"}, "is_disabled": 0, "lon": -77.03210216666666, "name": "f78244c844141cbe682a5e5a5ba7132a", "fusion_lon": 0.0}, {"lat": 38.914817, "fusion_lat": 0.0, "type": "electric_scooter", "bike_id": "2f67d65799dce01cddd61f09f205e82b", "is_reserved": 0, "rental_uris": {"ios": "https://dc.lft.to/lastmile_qr_scan", "android": "https://dc.lft.to/lastmile_qr_scan"}, "is_disabled": 0, "lon": -76.985719, "name": "2f67d65799dce01cddd61f09f205e82b", "fusion_lon": 0.0}, {"lat": 38.9199345, "fusion_lat": 0.0, "type": "electric_scooter", "bike_id": "c183d23113d292cc060c571bdbb24d16", "is_reserved": 0, "rental_uris": {"ios": "https://dc.lft.to/lastmile_qr_scan", "android": "https://dc.lft.to/lastmile_qr_scan"}, "is_disabled": 0, "lon": -76.9730335, "name": "c183d23113d292cc060c571bdbb24d16", "fusion_lon": 0.0}, {"lat": 38.90243183333333, "fusion_lat": 0.0, "type": "electric_scooter", "bike_id": "28457a0b78d88afb3c67b495955aba29", "is_reserved": 0, "rental_uris": {"ios": "https://dc.lft.to/lastmile_qr_scan", "android": "https://dc.lft.to/lastmile_qr_scan"}, "is_disabled": 0, "lon": -77.038418, "name": "28457a0b78d88afb3c67b495955aba29", "fusion_lon": 0.0}, {"lat": 38.90867933333333, "fusion_lat": 0.0, "type": "electric_scooter", "bike_id": "3aa2305802e20768cba5f91c7ed4c72e", "is_reserved": 0, "rental_uris": {"ios": "https://dc.lft.to/lastmile_qr_scan", "android": "https://dc.lft.to/lastmile_qr_scan"}, "is_disabled": 0, "lon": -77.0441875, "name": "3aa2305802e20768cba5f91c7ed4c72e", "fusion_lon": 0.0}, {"lat": 38.934928666666664, "fusion_lat": 0.0, "type": "electric_scooter", "bike_id": "c9af281a8b63c44250e26342e1006266", "is_reserved": 0, "rental_uris": {"ios": "https://dc.lft.to/lastmile_qr_scan", "android": "https://dc.lft.to/lastmile_qr_scan"}, "is_disabled": 0, "lon": -77.03285333333334, "name": "c9af281a8b63c44250e26342e1006266", "fusion_lon": 0.0}, {"lat": 38.91079766666667, "fusion_lat": 0.0, "type": "electric_scooter", "bike_id": "95dff9f3f796d87c96b0fb7c46f6e118", "is_reserved": 0, "rental_uris": {"ios": "https://dc.lft.to/lastmile_qr_scan", "android": "https://dc.lft.to/lastmile_qr_scan"}, "is_disabled": 0, "lon": -77.008547, "name": "95dff9f3f796d87c96b0fb7c46f6e118", "fusion_lon": 0.0}, {"lat": 38.91747466666666, "fusion_lat": 0.0, "type": "electric_scooter", "bike_id": "fe9b8b2f528ad6ebd9ddbac000df5d67", "is_reserved": 0, "rental_uris": {"ios": "https://dc.lft.to/lastmile_qr_scan", "android": "https://dc.lft.to/lastmile_qr_scan"}, "is_disabled": 0, "lon": -77.04184483333333, "name": "fe9b8b2f528ad6ebd9ddbac000df5d67", "fusion_lon": 0.0}, {"lat": 38.9260555, "fusion_lat": 0.0, "type": "electric_scooter", "bike_id": "00f889d9d4c493a58dd50edfda1338bf", "is_reserved": 0, "rental_uris": {"ios": "https://dc.lft.to/lastmile_qr_scan", "android": "https://dc.lft.to/lastmile_qr_scan"}, "is_disabled": 0, "lon": -77.021662, "name": "00f889d9d4c493a58dd50edfda1338bf", "fusion_lon": 0.0}, {"lat": 38.925811, "fusion_lat": 0.0, "type": "electric_scooter", "bike_id": "928c56cec3ee7110d05d4b6c75009401", "is_reserved": 0, "rental_uris": {"ios": "https://dc.lft.to/lastmile_qr_scan", "android": "https://dc.lft.to/lastmile_qr_scan"}, "is_disabled": 0, "lon": -77.02757716666666, "name": "928c56cec3ee7110d05d4b6c75009401", "fusion_lon": 0.0}, {"lat": 38.89913466666667, "fusion_lat": 0.0, "type": "electric_scooter", "bike_id": "f2f2c6ec3b944ed3ee7a91b2b3b2bb03", "is_reserved": 0, "rental_uris": {"ios": "https://dc.lft.to/lastmile_qr_scan", "android": "https://dc.lft.to/lastmile_qr_scan"}, "is_disabled": 0, "lon": -76.93408166666667, "name": "f2f2c6ec3b944ed3ee7a91b2b3b2bb03", "fusion_lon": 0.0}, {"lat": 38.9371365, "fusion_lat": 0.0, "type": "electric_scooter", "bike_id": "aff366645472b84f0cc3eb05c846a2f0", "is_reserved": 0, "rental_uris": {"ios": "https://dc.lft.to/lastmile_qr_scan", "android": "https://dc.lft.to/lastmile_qr_scan"}, "is_disabled": 0, "lon": -77.0363405, "name": "aff366645472b84f0cc3eb05c846a2f0", "fusion_lon": 0.0}, {"lat": 38.83367633333334, "fusion_lat": 0.0, "type": "electric_scooter", "bike_id": "08201eade50cdf93fec3ec7bc4dc9c32", "is_reserved": 0, "rental_uris": {"ios": "https://dc.lft.to/lastmile_qr_scan", "android": "https://dc.lft.to/lastmile_qr_scan"}, "is_disabled": 0, "lon": -76.99665233333333, "name": "08201eade50cdf93fec3ec7bc4dc9c32", "fusion_lon": 0.0}, {"lat": 38.926696, "fusion_lat": 0.0, "type": "electric_scooter", "bike_id": "a5d3e4fc05e40e0981c95671b18f4049", "is_reserved": 0, "rental_uris": {"ios": "https://dc.lft.to/lastmile_qr_scan", "android": "https://dc.lft.to/lastmile_qr_scan"}, "is_disabled": 0, "lon": -77.05323683333333, "name": "a5d3e4fc05e40e0981c95671b18f4049", "fusion_lon": 0.0}, {"lat": 38.909690166666664, "fusion_lat": 0.0, "type": "electric_scooter", "bike_id": "fb94d34084ff41010f20b90bfec8da5d", "is_reserved": 0, "rental_uris": {"ios": "https://dc.lft.to/lastmile_qr_scan", "android": "https://dc.lft.to/lastmile_qr_scan"}, "is_disabled": 0, "lon": -77.0399075, "name": "fb94d34084ff41010f20b90bfec8da5d", "fusion_lon": 0.0}, {"lat": 38.8764045, "fusion_lat": 0.0, "type": "electric_scooter", "bike_id": "19c277310a82dda30b3873c369a7b723", "is_reserved": 0, "rental_uris": {"ios": "https://dc.lft.to/lastmile_qr_scan", "android": "https://dc.lft.to/lastmile_qr_scan"}, "is_disabled": 0, "lon": -77.00453333333333, "name": "19c277310a82dda30b3873c369a7b723", "fusion_lon": 0.0}, {"lat": 38.933200166666666, "fusion_lat": 0.0, "type": "electric_scooter", "bike_id": "39fd787f07e5bebadcda00aee4fabb6c", "is_reserved": 0, "rental_uris": {"ios": "https://dc.lft.to/lastmile_qr_scan", "android": "https://dc.lft.to/lastmile_qr_scan"}, "is_disabled": 0, "lon": -77.027594, "name": "39fd787f07e5bebadcda00aee4fabb6c", "fusion_lon": 0.0}, {"lat": 38.905378666666664, "fusion_lat": 0.0, "type": "electric_scooter", "bike_id": "1408d193bbaeff9bf1b8c4d7c4768ad7", "is_reserved": 0, "rental_uris": {"ios": "https://dc.lft.to/lastmile_qr_scan", "android": "https://dc.lft.to/lastmile_qr_scan"}, "is_disabled": 0, "lon": -76.98470916666666, "name": "1408d193bbaeff9bf1b8c4d7c4768ad7", "fusion_lon": 0.0}, {"lat": 38.9026015, "fusion_lat": 0.0, "type": "electric_scooter", "bike_id": "cf99fead5f67ec86dafaa9280eea9b8b", "is_reserved": 0, "rental_uris": {"ios": "https://dc.lft.to/lastmile_qr_scan", "android": "https://dc.lft.to/lastmile_qr_scan"}, "is_disabled": 0, "lon": -77.01611716666666, "name": "cf99fead5f67ec86dafaa9280eea9b8b", "fusion_lon": 0.0}, {"lat": 38.91702866666667, "fusion_lat": 0.0, "type": "electric_scooter", "bike_id": "b50ebe30b991587e4ebba8c396ad38d1", "is_reserved": 0, "rental_uris": {"ios": "https://dc.lft.to/lastmile_qr_scan", "android": "https://dc.lft.to/lastmile_qr_scan"}, "is_disabled": 0, "lon": -77.02449216666666, "name": "b50ebe30b991587e4ebba8c396ad38d1", "fusion_lon": 0.0}, {"lat": 38.9209715, "fusion_lat": 0.0, "type": "electric_scooter", "bike_id": "9da13c76b280cf1c3f06260ac89bbc39", "is_reserved": 0, "rental_uris": {"ios": "https://dc.lft.to/lastmile_qr_scan", "android": "https://dc.lft.to/lastmile_qr_scan"}, "is_disabled": 0, "lon": -77.01707866666666, "name": "9da13c76b280cf1c3f06260ac89bbc39", "fusion_lon": 0.0}, {"lat": 38.92007383333333, "fusion_lat": 0.0, "type": "electric_scooter", "bike_id": "68c1e68fa35fafe255cc18a8ec89c97b", "is_reserved": 0, "rental_uris": {"ios": "https://dc.lft.to/lastmile_qr_scan", "android": "https://dc.lft.to/lastmile_qr_scan"}, "is_disabled": 0, "lon": -77.03294033333333, "name": "68c1e68fa35fafe255cc18a8ec89c97b", "fusion_lon": 0.0}, {"lat": 38.916056833333336, "fusion_lat": 0.0, "type": "electric_scooter", "bike_id": "3a5530a22c9b6b04273ae7c592f45662", "is_reserved": 0, "rental_uris": {"ios": "https://dc.lft.to/lastmile_qr_scan", "android": "https://dc.lft.to/lastmile_qr_scan"}, "is_disabled": 0, "lon": -77.024018, "name": "3a5530a22c9b6b04273ae7c592f45662", "fusion_lon": 0.0}, {"lat": 38.92093666666667, "fusion_lat": 0.0, "type": "electric_scooter", "bike_id": "63c2afbeb6b9648e83df3d68c9a42ba7", "is_reserved": 0, "rental_uris": {"ios": "https://dc.lft.to/lastmile_qr_scan", "android": "https://dc.lft.to/lastmile_qr_scan"}, "is_disabled": 0, "lon": -77.04217266666667, "name": "63c2afbeb6b9648e83df3d68c9a42ba7", "fusion_lon": 0.0}, {"lat": 38.88707266666667, "fusion_lat": 0.0, "type": "electric_scooter", "bike_id": "0348631e2e683ea020bb5d5b43a90dca", "is_reserved": 0, "rental_uris": {"ios": "https://dc.lft.to/lastmile_qr_scan", "android": "https://dc.lft.to/lastmile_qr_scan"}, "is_disabled": 0, "lon": -77.00351033333334, "name": "0348631e2e683ea020bb5d5b43a90dca", "fusion_lon": 0.0}, {"lat": 38.90831, "fusion_lat": 0.0, "type": "electric_scooter", "bike_id": "72a0c9fdfea4cd35954c9089e6cf69cf", "is_reserved": 0, "rental_uris": {"ios": "https://dc.lft.to/lastmile_qr_scan", "android": "https://dc.lft.to/lastmile_qr_scan"}, "is_disabled": 0, "lon": -77.0394215, "name": "72a0c9fdfea4cd35954c9089e6cf69cf", "fusion_lon": 0.0}, {"lat": 38.914065, "fusion_lat": 0.0, "type": "electric_scooter", "bike_id": "9db23b0d069382299e3ec35c483e6aac", "is_reserved": 0, "rental_uris": {"ios": "https://dc.lft.to/lastmile_qr_scan", "android": "https://dc.lft.to/lastmile_qr_scan"}, "is_disabled": 0, "lon": -77.02656066666667, "name": "9db23b0d069382299e3ec35c483e6aac", "fusion_lon": 0.0}, {"lat": 38.91155533333333, "fusion_lat": 0.0, "type": "electric_scooter", "bike_id": "bd9c39c516043eb080a80758a08202fc", "is_reserved": 0, "rental_uris": {"ios": "https://dc.lft.to/lastmile_qr_scan", "android": "https://dc.lft.to/lastmile_qr_scan"}, "is_disabled": 0, "lon": -77.02288816666666, "name": "bd9c39c516043eb080a80758a08202fc", "fusion_lon": 0.0}, {"lat": 38.9006255, "fusion_lat": 0.0, "type": "electric_scooter", "bike_id": "cdeb1252dadd971772fe210ec5e94e89", "is_reserved": 0, "rental_uris": {"ios": "https://dc.lft.to/lastmile_qr_scan", "android": "https://dc.lft.to/lastmile_qr_scan"}, "is_disabled": 0, "lon": -76.92746133333333, "name": "cdeb1252dadd971772fe210ec5e94e89", "fusion_lon": 0.0}, {"lat": 38.8819925, "fusion_lat": 0.0, "type": "electric_bike", "bike_id": "cf360e3c6f5865c402d70f34671323e0", "is_reserved": 0, "rental_uris": {"ios": "https://dc.lft.to/lastmile_qr_scan", "android": "https://dc.lft.to/lastmile_qr_scan"}, "is_disabled": 0, "lon": -76.989313, "name": "cf360e3c6f5865c402d70f34671323e0", "fusion_lon": 0.0}, {"lat": 38.966196333333336, "fusion_lat": 0.0, "type": "electric_bike", "bike_id": "c5106352602b2da185718005cf367674", "is_reserved": 0, "rental_uris": {"ios": "https://dc.lft.to/lastmile_qr_scan", "android": "https://dc.lft.to/lastmile_qr_scan"}, "is_disabled": 0, "lon": -77.034327, "name": "c5106352602b2da185718005cf367674", "fusion_lon": 0.0}, {"lat": 38.846169, "fusion_lat": 0.0, "type": "electric_scooter", "bike_id": "084ce38e53940e5334ae24d77f2aa0ec", "is_reserved": 0, "rental_uris": {"ios": "https://dc.lft.to/lastmile_qr_scan", "android": "https://dc.lft.to/lastmile_qr_scan"}, "is_disabled": 0, "lon": -76.98150116666666, "name": "084ce38e53940e5334ae24d77f2aa0ec", "fusion_lon": 0.0}, {"lat": 38.9058585, "fusion_lat": 0.0, "type": "electric_scooter", "bike_id": "bbd086972fe34648769074061f7b9cf7", "is_reserved": 0, "rental_uris": {"ios": "https://dc.lft.to/lastmile_qr_scan", "android": "https://dc.lft.to/lastmile_qr_scan"}, "is_disabled": 0, "lon": -77.0702215, "name": "bbd086972fe34648769074061f7b9cf7", "fusion_lon": 0.0}, {"lat": 38.912923666666664, "fusion_lat": 0.0, "type": "electric_scooter", "bike_id": "c5360596bc48472f2db38642aa9180af", "is_reserved": 0, "rental_uris": {"ios": "https://dc.lft.to/lastmile_qr_scan", "android": "https://dc.lft.to/lastmile_qr_scan"}, "is_disabled": 0, "lon": -77.01975816666666, "name": "c5360596bc48472f2db38642aa9180af", "fusion_lon": 0.0}, {"lat": 38.93687583333333, "fusion_lat": 0.0, "type": "electric_scooter", "bike_id": "4e877b46e38bf87d4c7910c84cc4a178", "is_reserved": 0, "rental_uris": {"ios": "https://dc.lft.to/lastmile_qr_scan", "android": "https://dc.lft.to/lastmile_qr_scan"}, "is_disabled": 0, "lon": -77.03280566666666, "name": "4e877b46e38bf87d4c7910c84cc4a178", "fusion_lon": 0.0}, {"lat": 38.92406, "fusion_lat": 0.0, "type": "electric_scooter", "bike_id": "53bd487a18f4d4fbb4f18d0d6df960d7", "is_reserved": 0, "rental_uris": {"ios": "https://dc.lft.to/lastmile_qr_scan", "android": "https://dc.lft.to/lastmile_qr_scan"}, "is_disabled": 0, "lon": -77.02093316666667, "name": "53bd487a18f4d4fbb4f18d0d6df960d7", "fusion_lon": 0.0}, {"lat": 38.856960666666666, "fusion_lat": 0.0, "type": "electric_scooter", "bike_id": "9b6a4803887f9c6bad9fe8bcd1aa3983", "is_reserved": 0, "rental_uris": {"ios": "https://dc.lft.to/lastmile_qr_scan", "android": "https://dc.lft.to/lastmile_qr_scan"}, "is_disabled": 0, "lon": -76.9896005, "name": "9b6a4803887f9c6bad9fe8bcd1aa3983", "fusion_lon": 0.0}, {"lat": 38.930087666666665, "fusion_lat": 0.0, "type": "electric_scooter", "bike_id": "3ebc0da4fa2a744a0112ac4ce84d7f0c", "is_reserved": 0, "rental_uris": {"ios": "https://dc.lft.to/lastmile_qr_scan", "android": "https://dc.lft.to/lastmile_qr_scan"}, "is_disabled": 0, "lon": -77.01433516666667, "name": "3ebc0da4fa2a744a0112ac4ce84d7f0c", "fusion_lon": 0.0}, {"lat": 38.90572916666667, "fusion_lat": 0.0, "type": "electric_scooter", "bike_id": "a879bba539d3c39a46e072d5ffd7aa98", "is_reserved": 0, "rental_uris": {"ios": "https://dc.lft.to/lastmile_qr_scan", "android": "https://dc.lft.to/lastmile_qr_scan"}, "is_disabled": 0, "lon": -77.02215016666666, "name": "a879bba539d3c39a46e072d5ffd7aa98", "fusion_lon": 0.0}, {"lat": 38.900602166666665, "fusion_lat": 0.0, "type": "electric_scooter", "bike_id": "e6fb1de3b460ae934f5cb2b7edbe4183", "is_reserved": 0, "rental_uris": {"ios": "https://dc.lft.to/lastmile_qr_scan", "android": "https://dc.lft.to/lastmile_qr_scan"}, "is_disabled": 0, "lon": -76.9347295, "name": "e6fb1de3b460ae934f5cb2b7edbe4183", "fusion_lon": 0.0}, {"lat": 39.05793416666667, "fusion_lat": 0.0, "type": "electric_bike", "bike_id": "8017fbe763f7254a37240363e4caffb4", "is_reserved": 0, "rental_uris": {"ios": "https://dc.lft.to/lastmile_qr_scan", "android": "https://dc.lft.to/lastmile_qr_scan"}, "is_disabled": 0, "lon": -77.150263, "name": "8017fbe763f7254a37240363e4caffb4", "fusion_lon": 0.0}, {"lat": 38.8682355, "fusion_lat": 0.0, "type": "electric_bike", "bike_id": "1488ee4f014a360ce6860d3566652b26", "is_reserved": 0, "rental_uris": {"ios": "https://dc.lft.to/lastmile_qr_scan", "android": "https://dc.lft.to/lastmile_qr_scan"}, "is_disabled": 0, "lon": -76.98027383333333, "name": "1488ee4f014a360ce6860d3566652b26", "fusion_lon": 0.0}, {"lat": 38.91065033333334, "fusion_lat": 0.0, "type": "electric_scooter", "bike_id": "57c074a4a04a90ce814e0a2e7ba7e8ca", "is_reserved": 0, "rental_uris": {"ios": "https://dc.lft.to/lastmile_qr_scan", "android": "https://dc.lft.to/lastmile_qr_scan"}, "is_disabled": 0, "lon": -77.03093216666667, "name": "57c074a4a04a90ce814e0a2e7ba7e8ca", "fusion_lon": 0.0}, {"lat": 38.91037266666667, "fusion_lat": 0.0, "type": "electric_scooter", "bike_id": "cafce062af8f538f9cf215aaa55b018b", "is_reserved": 0, "rental_uris": {"ios": "https://dc.lft.to/lastmile_qr_scan", "android": "https://dc.lft.to/lastmile_qr_scan"}, "is_disabled": 0, "lon": -77.0454945, "name": "cafce062af8f538f9cf215aaa55b018b", "fusion_lon": 0.0}, {"lat": 38.917038, "fusion_lat": 0.0, "type": "electric_scooter", "bike_id": "240fd1e79602afa4a5287a66ba6fddff", "is_reserved": 0, "rental_uris": {"ios": "https://dc.lft.to/lastmile_qr_scan", "android": "https://dc.lft.to/lastmile_qr_scan"}, "is_disabled": 0, "lon": -77.00795066666667, "name": "240fd1e79602afa4a5287a66ba6fddff", "fusion_lon": 0.0}, {"lat": 38.901057, "fusion_lat": 0.0, "type": "electric_scooter", "bike_id": "e24122f4b7941622e0e3876c611c55a0", "is_reserved": 0, "rental_uris": {"ios": "https://dc.lft.to/lastmile_qr_scan", "android": "https://dc.lft.to/lastmile_qr_scan"}, "is_disabled": 0, "lon": -77.019947, "name": "e24122f4b7941622e0e3876c611c55a0", "fusion_lon": 0.0}, {"lat": 38.91865033333333, "fusion_lat": 0.0, "type": "electric_scooter", "bike_id": "3c85c5b9d938e53d50073265e1910512", "is_reserved": 0, "rental_uris": {"ios": "https://dc.lft.to/lastmile_qr_scan", "android": "https://dc.lft.to/lastmile_qr_scan"}, "is_disabled": 0, "lon": -77.04168333333334, "name": "3c85c5b9d938e53d50073265e1910512", "fusion_lon": 0.0}, {"lat": 38.87184883333333, "fusion_lat": 0.0, "type": "electric_scooter", "bike_id": "4f072fca0d487f951c9b2b7f02474105", "is_reserved": 0, "rental_uris": {"ios": "https://dc.lft.to/lastmile_qr_scan", "android": "https://dc.lft.to/lastmile_qr_scan"}, "is_disabled": 0, "lon": -77.01222433333334, "name": "4f072fca0d487f951c9b2b7f02474105", "fusion_lon": 0.0}, {"lat": 38.909758833333335, "fusion_lat": 0.0, "type": "electric_scooter", "bike_id": "dbf798e55beae27c9798a080ea17bd6c", "is_reserved": 0, "rental_uris": {"ios": "https://dc.lft.to/lastmile_qr_scan", "android": "https://dc.lft.to/lastmile_qr_scan"}, "is_disabled": 0, "lon": -77.03943066666666, "name": "dbf798e55beae27c9798a080ea17bd6c", "fusion_lon": 0.0}, {"lat": 38.903934, "fusion_lat": 0.0, "type": "electric_scooter", "bike_id": "26e8522dd102acf8d8bdb4df494e65ea", "is_reserved": 0, "rental_uris": {"ios": "https://dc.lft.to/lastmile_qr_scan", "android": "https://dc.lft.to/lastmile_qr_scan"}, "is_disabled": 0, "lon": -76.98207833333333, "name": "26e8522dd102acf8d8bdb4df494e65ea", "fusion_lon": 0.0}, {"lat": 38.932560333333335, "fusion_lat": 0.0, "type": "electric_scooter", "bike_id": "6c220a7f91e4adb1cfd2bc9743763cd3", "is_reserved": 0, "rental_uris": {"ios": "https://dc.lft.to/lastmile_qr_scan", "android": "https://dc.lft.to/lastmile_qr_scan"}, "is_disabled": 0, "lon": -77.032716, "name": "6c220a7f91e4adb1cfd2bc9743763cd3", "fusion_lon": 0.0}, {"lat": 38.932808333333334, "fusion_lat": 0.0, "type": "electric_scooter", "bike_id": "b32ee0e53b2f2db5c78267ee6633bc9a", "is_reserved": 0, "rental_uris": {"ios": "https://dc.lft.to/lastmile_qr_scan", "android": "https://dc.lft.to/lastmile_qr_scan"}, "is_disabled": 0, "lon": -77.04532433333334, "name": "b32ee0e53b2f2db5c78267ee6633bc9a", "fusion_lon": 0.0}, {"lat": 38.930832833333334, "fusion_lat": 0.0, "type": "electric_scooter", "bike_id": "ae6a2e5bae7e190aa61711978daeab30", "is_reserved": 0, "rental_uris": {"ios": "https://dc.lft.to/lastmile_qr_scan", "android": "https://dc.lft.to/lastmile_qr_scan"}, "is_disabled": 0, "lon": -77.02808783333333, "name": "ae6a2e5bae7e190aa61711978daeab30", "fusion_lon": 0.0}, {"lat": 38.9008345, "fusion_lat": 0.0, "type": "electric_scooter", "bike_id": "f1949f09359841aca9d3dd5f080dbac4", "is_reserved": 0, "rental_uris": {"ios": "https://dc.lft.to/lastmile_qr_scan", "android": "https://dc.lft.to/lastmile_qr_scan"}, "is_disabled": 0, "lon": -77.00916283333333, "name": "f1949f09359841aca9d3dd5f080dbac4", "fusion_lon": 0.0}, {"lat": 38.908256333333334, "fusion_lat": 0.0, "type": "electric_scooter", "bike_id": "a9986dfc7339f7d03731b81134204953", "is_reserved": 0, "rental_uris": {"ios": "https://dc.lft.to/lastmile_qr_scan", "android": "https://dc.lft.to/lastmile_qr_scan"}, "is_disabled": 0, "lon": -77.043434, "name": "a9986dfc7339f7d03731b81134204953", "fusion_lon": 0.0}, {"lat": 38.913995166666666, "fusion_lat": 0.0, "type": "electric_scooter", "bike_id": "cecfc5b6276898b59a2d64acb43515eb", "is_reserved": 0, "rental_uris": {"ios": "https://dc.lft.to/lastmile_qr_scan", "android": "https://dc.lft.to/lastmile_qr_scan"}, "is_disabled": 0, "lon": -77.0318355, "name": "cecfc5b6276898b59a2d64acb43515eb", "fusion_lon": 0.0}, {"lat": 38.9163515, "fusion_lat": 0.0, "type": "electric_scooter", "bike_id": "cb17b2cb6adcfcc87ab6eeb25e305873", "is_reserved": 0, "rental_uris": {"ios": "https://dc.lft.to/lastmile_qr_scan", "android": "https://dc.lft.to/lastmile_qr_scan"}, "is_disabled": 0, "lon": -77.0256225, "name": "cb17b2cb6adcfcc87ab6eeb25e305873", "fusion_lon": 0.0}, {"lat": 38.891804666666665, "fusion_lat": 0.0, "type": "electric_scooter", "bike_id": "5d0e7683a81d9fd73e4b082f8fc9e063", "is_reserved": 0, "rental_uris": {"ios": "https://dc.lft.to/lastmile_qr_scan", "android": "https://dc.lft.to/lastmile_qr_scan"}, "is_disabled": 0, "lon": -77.02207233333333, "name": "5d0e7683a81d9fd73e4b082f8fc9e063", "fusion_lon": 0.0}, {"lat": 38.91022433333333, "fusion_lat": 0.0, "type": "electric_scooter", "bike_id": "bf280d6ae3391b9f1fefcd06097bdaa5", "is_reserved": 0, "rental_uris": {"ios": "https://dc.lft.to/lastmile_qr_scan", "android": "https://dc.lft.to/lastmile_qr_scan"}, "is_disabled": 0, "lon": -77.03663033333333, "name": "bf280d6ae3391b9f1fefcd06097bdaa5", "fusion_lon": 0.0}, {"lat": 38.906498166666665, "fusion_lat": 0.0, "type": "electric_scooter", "bike_id": "98ee30f2ff6a0e0326fcea427f77827d", "is_reserved": 0, "rental_uris": {"ios": "https://dc.lft.to/lastmile_qr_scan", "android": "https://dc.lft.to/lastmile_qr_scan"}, "is_disabled": 0, "lon": -77.00196066666666, "name": "98ee30f2ff6a0e0326fcea427f77827d", "fusion_lon": 0.0}, {"lat": 38.92493116666667, "fusion_lat": 0.0, "type": "electric_scooter", "bike_id": "7d2fea67c624dc7102c86320df533ccc", "is_reserved": 0, "rental_uris": {"ios": "https://dc.lft.to/lastmile_qr_scan", "android": "https://dc.lft.to/lastmile_qr_scan"}, "is_disabled": 0, "lon": -77.0525165, "name": "7d2fea67c624dc7102c86320df533ccc", "fusion_lon": 0.0}, {"lat": 38.903556, "fusion_lat": 0.0, "type": "electric_scooter", "bike_id": "0c382348ecdc65c6333382fb9d9e9778", "is_reserved": 0, "rental_uris": {"ios": "https://dc.lft.to/lastmile_qr_scan", "android": "https://dc.lft.to/lastmile_qr_scan"}, "is_disabled": 0, "lon": -77.02588866666666, "name": "0c382348ecdc65c6333382fb9d9e9778", "fusion_lon": 0.0}, {"lat": 38.90378466666667, "fusion_lat": 0.0, "type": "electric_scooter", "bike_id": "f327ccba197ffa17c3d75685c08e8e4c", "is_reserved": 0, "rental_uris": {"ios": "https://dc.lft.to/lastmile_qr_scan", "android": "https://dc.lft.to/lastmile_qr_scan"}, "is_disabled": 0, "lon": -77.0425525, "name": "f327ccba197ffa17c3d75685c08e8e4c", "fusion_lon": 0.0}, {"lat": 38.90206833333333, "fusion_lat": 0.0, "type": "electric_scooter", "bike_id": "ff389d2dc2b609dbd3db9820fe1b8209", "is_reserved": 0, "rental_uris": {"ios": "https://dc.lft.to/lastmile_qr_scan", "android": "https://dc.lft.to/lastmile_qr_scan"}, "is_disabled": 0, "lon": -77.02320716666667, "name": "ff389d2dc2b609dbd3db9820fe1b8209", "fusion_lon": 0.0}, {"lat": 38.932572, "fusion_lat": 0.0, "type": "electric_scooter", "bike_id": "def94b092f4e1e8bcc657be46b38c972", "is_reserved": 0, "rental_uris": {"ios": "https://dc.lft.to/lastmile_qr_scan", "android": "https://dc.lft.to/lastmile_qr_scan"}, "is_disabled": 0, "lon": -77.03270233333333, "name": "def94b092f4e1e8bcc657be46b38c972", "fusion_lon": 0.0}, {"lat": 38.92148, "fusion_lat": 0.0, "type": "electric_scooter", "bike_id": "0d51ad2cc19f97765cb49f49cce62ef1", "is_reserved": 0, "rental_uris": {"ios": "https://dc.lft.to/lastmile_qr_scan", "android": "https://dc.lft.to/lastmile_qr_scan"}, "is_disabled": 0, "lon": -77.01813316666667, "name": "0d51ad2cc19f97765cb49f49cce62ef1", "fusion_lon": 0.0}, {"lat": 38.90721166666667, "fusion_lat": 0.0, "type": "electric_scooter", "bike_id": "837ed6789006734b9a28f061f4b50925", "is_reserved": 0, "rental_uris": {"ios": "https://dc.lft.to/lastmile_qr_scan", "android": "https://dc.lft.to/lastmile_qr_scan"}, "is_disabled": 0, "lon": -76.98923233333333, "name": "837ed6789006734b9a28f061f4b50925", "fusion_lon": 0.0}, {"lat": 38.82947716666666, "fusion_lat": 0.0, "type": "electric_bike", "bike_id": "7be559db4a922f6663aa37be57b20076", "is_reserved": 0, "rental_uris": {"ios": "https://dc.lft.to/lastmile_qr_scan", "android": "https://dc.lft.to/lastmile_qr_scan"}, "is_disabled": 0, "lon": -77.1235665, "name": "7be559db4a922f6663aa37be57b20076", "fusion_lon": 0.0}, {"lat": 38.859244, "fusion_lat": 0.0, "type": "electric_scooter", "bike_id": "6c720190286350623c2512544e9c796a", "is_reserved": 0, "rental_uris": {"ios": "https://dc.lft.to/lastmile_qr_scan", "android": "https://dc.lft.to/lastmile_qr_scan"}, "is_disabled": 0, "lon": -76.98980266666666, "name": "6c720190286350623c2512544e9c796a", "fusion_lon": 0.0}, {"lat": 38.905909, "fusion_lat": 0.0, "type": "electric_scooter", "bike_id": "1c4de7be5100357f277e931bf1cdd68a", "is_reserved": 0, "rental_uris": {"ios": "https://dc.lft.to/lastmile_qr_scan", "android": "https://dc.lft.to/lastmile_qr_scan"}, "is_disabled": 0, "lon": -77.05126916666667, "name": "1c4de7be5100357f277e931bf1cdd68a", "fusion_lon": 0.0}, {"lat": 38.9363925, "fusion_lat": 0.0, "type": "electric_scooter", "bike_id": "dd39ccddf1ab1926570dc6ce2bb2b425", "is_reserved": 0, "rental_uris": {"ios": "https://dc.lft.to/lastmile_qr_scan", "android": "https://dc.lft.to/lastmile_qr_scan"}, "is_disabled": 0, "lon": -77.03271816666667, "name": "dd39ccddf1ab1926570dc6ce2bb2b425", "fusion_lon": 0.0}, {"lat": 38.896062, "fusion_lat": 0.0, "type": "electric_scooter", "bike_id": "31eabfe137f4fcadd6e0fa967a65d307", "is_reserved": 0, "rental_uris": {"ios": "https://dc.lft.to/lastmile_qr_scan", "android": "https://dc.lft.to/lastmile_qr_scan"}, "is_disabled": 0, "lon": -77.02976566666666, "name": "31eabfe137f4fcadd6e0fa967a65d307", "fusion_lon": 0.0}, {"lat": 38.897475, "fusion_lat": 0.0, "type": "electric_scooter", "bike_id": "ce60661aac4f12a1213e79da3846aff3", "is_reserved": 0, "rental_uris": {"ios": "https://dc.lft.to/lastmile_qr_scan", "android": "https://dc.lft.to/lastmile_qr_scan"}, "is_disabled": 0, "lon": -77.02963933333334, "name": "ce60661aac4f12a1213e79da3846aff3", "fusion_lon": 0.0}, {"lat": 38.899880333333336, "fusion_lat": 0.0, "type": "electric_scooter", "bike_id": "f97e59bc72153b543ea6a8c24eabbd3b", "is_reserved": 0, "rental_uris": {"ios": "https://dc.lft.to/lastmile_qr_scan", "android": "https://dc.lft.to/lastmile_qr_scan"}, "is_disabled": 0, "lon": -77.02235966666667, "name": "f97e59bc72153b543ea6a8c24eabbd3b", "fusion_lon": 0.0}, {"lat": 38.91739416666667, "fusion_lat": 0.0, "type": "electric_scooter", "bike_id": "414c5232a8c204662420939c3a95ea6e", "is_reserved": 0, "rental_uris": {"ios": "https://dc.lft.to/lastmile_qr_scan", "android": "https://dc.lft.to/lastmile_qr_scan"}, "is_disabled": 0, "lon": -77.04176166666667, "name": "414c5232a8c204662420939c3a95ea6e", "fusion_lon": 0.0}, {"lat": 38.92160633333334, "fusion_lat": 0.0, "type": "electric_scooter", "bike_id": "7e36fa2d3c013cce196fcae07c8e49c7", "is_reserved": 0, "rental_uris": {"ios": "https://dc.lft.to/lastmile_qr_scan", "android": "https://dc.lft.to/lastmile_qr_scan"}, "is_disabled": 0, "lon": -77.04337233333334, "name": "7e36fa2d3c013cce196fcae07c8e49c7", "fusion_lon": 0.0}, {"lat": 38.892926833333334, "fusion_lat": 0.0, "type": "electric_bike", "bike_id": "de2b1f9eb9db763a9525c80a0af54ba4", "is_reserved": 0, "rental_uris": {"ios": "https://dc.lft.to/lastmile_qr_scan", "android": "https://dc.lft.to/lastmile_qr_scan"}, "is_disabled": 0, "lon": -76.97616683333334, "name": "de2b1f9eb9db763a9525c80a0af54ba4", "fusion_lon": 0.0}, {"lat": 38.90836566666667, "fusion_lat": 0.0, "type": "electric_scooter", "bike_id": "69122bbb0e634e992d1ac018c10259c9", "is_reserved": 0, "rental_uris": {"ios": "https://dc.lft.to/lastmile_qr_scan", "android": "https://dc.lft.to/lastmile_qr_scan"}, "is_disabled": 0, "lon": -77.0011115, "name": "69122bbb0e634e992d1ac018c10259c9", "fusion_lon": 0.0}, {"lat": 38.90308, "fusion_lat": 0.0, "type": "electric_scooter", "bike_id": "010f9e27f42486bafb0f089de69e59e7", "is_reserved": 0, "rental_uris": {"ios": "https://dc.lft.to/lastmile_qr_scan", "android": "https://dc.lft.to/lastmile_qr_scan"}, "is_disabled": 0, "lon": -77.022174, "name": "010f9e27f42486bafb0f089de69e59e7", "fusion_lon": 0.0}, {"lat": 38.911999, "fusion_lat": 0.0, "type": "electric_scooter", "bike_id": "0bf7eec626ea44536e7f28eba503246b", "is_reserved": 0, "rental_uris": {"ios": "https://dc.lft.to/lastmile_qr_scan", "android": "https://dc.lft.to/lastmile_qr_scan"}, "is_disabled": 0, "lon": -77.0385595, "name": "0bf7eec626ea44536e7f28eba503246b", "fusion_lon": 0.0}, {"lat": 38.862384166666665, "fusion_lat": 0.0, "type": "electric_scooter", "bike_id": "e42e99bb1c92c6cfd027fd32e412eb1b", "is_reserved": 0, "rental_uris": {"ios": "https://dc.lft.to/lastmile_qr_scan", "android": "https://dc.lft.to/lastmile_qr_scan"}, "is_disabled": 0, "lon": -76.99515983333333, "name": "e42e99bb1c92c6cfd027fd32e412eb1b", "fusion_lon": 0.0}, {"lat": 38.886032, "fusion_lat": 0.0, "type": "electric_scooter", "bike_id": "d8ea8b06c0c4ced6359e009c5942bf4e", "is_reserved": 0, "rental_uris": {"ios": "https://dc.lft.to/lastmile_qr_scan", "android": "https://dc.lft.to/lastmile_qr_scan"}, "is_disabled": 0, "lon": -77.019867, "name": "d8ea8b06c0c4ced6359e009c5942bf4e", "fusion_lon": 0.0}, {"lat": 38.90677733333333, "fusion_lat": 0.0, "type": "electric_scooter", "bike_id": "32de62ea829520f98cb93372f13aed00", "is_reserved": 0, "rental_uris": {"ios": "https://dc.lft.to/lastmile_qr_scan", "android": "https://dc.lft.to/lastmile_qr_scan"}, "is_disabled": 0, "lon": -77.07170366666666, "name": "32de62ea829520f98cb93372f13aed00", "fusion_lon": 0.0}, {"lat": 38.96226383333333, "fusion_lat": 0.0, "type": "electric_bike", "bike_id": "3c0033899e8a7a86e6d14b51a8a3d4b9", "is_reserved": 0, "rental_uris": {"ios": "https://dc.lft.to/lastmile_qr_scan", "android": "https://dc.lft.to/lastmile_qr_scan"}, "is_disabled": 0, "lon": -77.02627483333333, "name": "3c0033899e8a7a86e6d14b51a8a3d4b9", "fusion_lon": 0.0}, {"lat": 38.92043016666667, "fusion_lat": 0.0, "type": "electric_scooter", "bike_id": "4f6c5c8867de79be26f6f14742ab85cc", "is_reserved": 0, "rental_uris": {"ios": "https://dc.lft.to/lastmile_qr_scan", "android": "https://dc.lft.to/lastmile_qr_scan"}, "is_disabled": 0, "lon": -77.0298545, "name": "4f6c5c8867de79be26f6f14742ab85cc", "fusion_lon": 0.0}, {"lat": 38.879332833333336, "fusion_lat": 0.0, "type": "electric_scooter", "bike_id": "e2e854bcf4095ad09ca3a9046ed42975", "is_reserved": 0, "rental_uris": {"ios": "https://dc.lft.to/lastmile_qr_scan", "android": "https://dc.lft.to/lastmile_qr_scan"}, "is_disabled": 0, "lon": -77.01467666666667, "name": "e2e854bcf4095ad09ca3a9046ed42975", "fusion_lon": 0.0}, {"lat": 38.89974133333333, "fusion_lat": 0.0, "type": "electric_scooter", "bike_id": "48a868e8db6e4f526f328de79c5026bb", "is_reserved": 0, "rental_uris": {"ios": "https://dc.lft.to/lastmile_qr_scan", "android": "https://dc.lft.to/lastmile_qr_scan"}, "is_disabled": 0, "lon": -77.032103, "name": "48a868e8db6e4f526f328de79c5026bb", "fusion_lon": 0.0}, {"lat": 38.93340766666667, "fusion_lat": 0.0, "type": "electric_scooter", "bike_id": "19ec33eca0603db9dde74d8167ecc2aa", "is_reserved": 0, "rental_uris": {"ios": "https://dc.lft.to/lastmile_qr_scan", "android": "https://dc.lft.to/lastmile_qr_scan"}, "is_disabled": 0, "lon": -77.03881533333333, "name": "19ec33eca0603db9dde74d8167ecc2aa", "fusion_lon": 0.0}, {"lat": 38.904336666666666, "fusion_lat": 0.0, "type": "electric_scooter", "bike_id": "fbf1743d2924fb14096f665b91a051c5", "is_reserved": 0, "rental_uris": {"ios": "https://dc.lft.to/lastmile_qr_scan", "android": "https://dc.lft.to/lastmile_qr_scan"}, "is_disabled": 0, "lon": -77.0434855, "name": "fbf1743d2924fb14096f665b91a051c5", "fusion_lon": 0.0}, {"lat": 38.901161333333334, "fusion_lat": 0.0, "type": "electric_scooter", "bike_id": "35f9fcd730b2d0b39c536ffe0ff282b6", "is_reserved": 0, "rental_uris": {"ios": "https://dc.lft.to/lastmile_qr_scan", "android": "https://dc.lft.to/lastmile_qr_scan"}, "is_disabled": 0, "lon": -77.0267935, "name": "35f9fcd730b2d0b39c536ffe0ff282b6", "fusion_lon": 0.0}, {"lat": 38.9223345, "fusion_lat": 0.0, "type": "electric_scooter", "bike_id": "e885af69109f0dd00308401e9c8fa757", "is_reserved": 0, "rental_uris": {"ios": "https://dc.lft.to/lastmile_qr_scan", "android": "https://dc.lft.to/lastmile_qr_scan"}, "is_disabled": 0, "lon": -77.0352465, "name": "e885af69109f0dd00308401e9c8fa757", "fusion_lon": 0.0}, {"lat": 38.91419583333333, "fusion_lat": 0.0, "type": "electric_scooter", "bike_id": "4e117eaa056e0eafbc100a8d912ac000", "is_reserved": 0, "rental_uris": {"ios": "https://dc.lft.to/lastmile_qr_scan", "android": "https://dc.lft.to/lastmile_qr_scan"}, "is_disabled": 0, "lon": -77.03907933333333, "name": "4e117eaa056e0eafbc100a8d912ac000", "fusion_lon": 0.0}, {"lat": 38.88057233333333, "fusion_lat": 0.0, "type": "electric_scooter", "bike_id": "bf0df306caeaa9f3284eb8adb0d2e201", "is_reserved": 0, "rental_uris": {"ios": "https://dc.lft.to/lastmile_qr_scan", "android": "https://dc.lft.to/lastmile_qr_scan"}, "is_disabled": 0, "lon": -76.932163, "name": "bf0df306caeaa9f3284eb8adb0d2e201", "fusion_lon": 0.0}, {"lat": 38.93226683333334, "fusion_lat": 0.0, "type": "electric_scooter", "bike_id": "ec556ed7306d0e67ab78f75511530b4d", "is_reserved": 0, "rental_uris": {"ios": "https://dc.lft.to/lastmile_qr_scan", "android": "https://dc.lft.to/lastmile_qr_scan"}, "is_disabled": 0, "lon": -76.9960485, "name": "ec556ed7306d0e67ab78f75511530b4d", "fusion_lon": 0.0}, {"lat": 38.928637, "fusion_lat": 0.0, "type": "electric_scooter", "bike_id": "7da9995be7b8415cba417c5184caef17", "is_reserved": 0, "rental_uris": {"ios": "https://dc.lft.to/lastmile_qr_scan", "android": "https://dc.lft.to/lastmile_qr_scan"}, "is_disabled": 0, "lon": -77.030996, "name": "7da9995be7b8415cba417c5184caef17", "fusion_lon": 0.0}, {"lat": 38.90509816666667, "fusion_lat": 0.0, "type": "electric_scooter", "bike_id": "50e826e3d0924e6a0fc8de196fd3e10f", "is_reserved": 0, "rental_uris": {"ios": "https://dc.lft.to/lastmile_qr_scan", "android": "https://dc.lft.to/lastmile_qr_scan"}, "is_disabled": 0, "lon": -77.04649366666666, "name": "50e826e3d0924e6a0fc8de196fd3e10f", "fusion_lon": 0.0}, {"lat": 38.92655516666667, "fusion_lat": 0.0, "type": "electric_scooter", "bike_id": "767d1d654ff316bb011c83903400ec5b", "is_reserved": 0, "rental_uris": {"ios": "https://dc.lft.to/lastmile_qr_scan", "android": "https://dc.lft.to/lastmile_qr_scan"}, "is_disabled": 0, "lon": -77.03842066666667, "name": "767d1d654ff316bb011c83903400ec5b", "fusion_lon": 0.0}, {"lat": 38.906201, "fusion_lat": 0.0, "type": "electric_scooter", "bike_id": "32a39f24e4b4e75ac010bb748edce534", "is_reserved": 0, "rental_uris": {"ios": "https://dc.lft.to/lastmile_qr_scan", "android": "https://dc.lft.to/lastmile_qr_scan"}, "is_disabled": 0, "lon": -77.02470466666666, "name": "32a39f24e4b4e75ac010bb748edce534", "fusion_lon": 0.0}, {"lat": 38.90312083333333, "fusion_lat": 0.0, "type": "electric_scooter", "bike_id": "2cf9030d9d1d719c53a04d8efdc43ef2", "is_reserved": 0, "rental_uris": {"ios": "https://dc.lft.to/lastmile_qr_scan", "android": "https://dc.lft.to/lastmile_qr_scan"}, "is_disabled": 0, "lon": -76.978042, "name": "2cf9030d9d1d719c53a04d8efdc43ef2", "fusion_lon": 0.0}, {"lat": 38.913345666666665, "fusion_lat": 0.0, "type": "electric_scooter", "bike_id": "7cb0534fe96a025b9db34a627212eb0f", "is_reserved": 0, "rental_uris": {"ios": "https://dc.lft.to/lastmile_qr_scan", "android": "https://dc.lft.to/lastmile_qr_scan"}, "is_disabled": 0, "lon": -77.04236866666666, "name": "7cb0534fe96a025b9db34a627212eb0f", "fusion_lon": 0.0}, {"lat": 38.922329833333336, "fusion_lat": 0.0, "type": "electric_scooter", "bike_id": "c0a369bf6ec19a0c966b105c0cf26549", "is_reserved": 0, "rental_uris": {"ios": "https://dc.lft.to/lastmile_qr_scan", "android": "https://dc.lft.to/lastmile_qr_scan"}, "is_disabled": 0, "lon": -77.02977616666666, "name": "c0a369bf6ec19a0c966b105c0cf26549", "fusion_lon": 0.0}, {"lat": 38.90855583333333, "fusion_lat": 0.0, "type": "electric_scooter", "bike_id": "5d72dea190e4927397bdd02af1644aa1", "is_reserved": 0, "rental_uris": {"ios": "https://dc.lft.to/lastmile_qr_scan", "android": "https://dc.lft.to/lastmile_qr_scan"}, "is_disabled": 0, "lon": -77.04763783333334, "name": "5d72dea190e4927397bdd02af1644aa1", "fusion_lon": 0.0}, {"lat": 38.9072735, "fusion_lat": 0.0, "type": "electric_scooter", "bike_id": "81579b132bc891c3f9fa89f494ed267d", "is_reserved": 0, "rental_uris": {"ios": "https://dc.lft.to/lastmile_qr_scan", "android": "https://dc.lft.to/lastmile_qr_scan"}, "is_disabled": 0, "lon": -77.02372083333333, "name": "81579b132bc891c3f9fa89f494ed267d", "fusion_lon": 0.0}, {"lat": 38.929303833333336, "fusion_lat": 0.0, "type": "electric_scooter", "bike_id": "8ff5a8a4cf22ade29e9b162350673159", "is_reserved": 0, "rental_uris": {"ios": "https://dc.lft.to/lastmile_qr_scan", "android": "https://dc.lft.to/lastmile_qr_scan"}, "is_disabled": 0, "lon": -77.037624, "name": "8ff5a8a4cf22ade29e9b162350673159", "fusion_lon": 0.0}, {"lat": 38.908680333333336, "fusion_lat": 0.0, "type": "electric_scooter", "bike_id": "60ca8ea359b958e120fc6b518729cf59", "is_reserved": 0, "rental_uris": {"ios": "https://dc.lft.to/lastmile_qr_scan", "android": "https://dc.lft.to/lastmile_qr_scan"}, "is_disabled": 0, "lon": -77.02419283333333, "name": "60ca8ea359b958e120fc6b518729cf59", "fusion_lon": 0.0}, {"lat": 38.947039833333335, "fusion_lat": 0.0, "type": "electric_scooter", "bike_id": "de7b0e350e4523b39d5b542ce7c89ba4", "is_reserved": 0, "rental_uris": {"ios": "https://dc.lft.to/lastmile_qr_scan", "android": "https://dc.lft.to/lastmile_qr_scan"}, "is_disabled": 0, "lon": -77.03290933333334, "name": "de7b0e350e4523b39d5b542ce7c89ba4", "fusion_lon": 0.0}, {"lat": 38.906127166666664, "fusion_lat": 0.0, "type": "electric_scooter", "bike_id": "dcb963792d2878a833e5ccee8cd25d56", "is_reserved": 0, "rental_uris": {"ios": "https://dc.lft.to/lastmile_qr_scan", "android": "https://dc.lft.to/lastmile_qr_scan"}, "is_disabled": 0, "lon": -76.99271866666666, "name": "dcb963792d2878a833e5ccee8cd25d56", "fusion_lon": 0.0}, {"lat": 38.8845725, "fusion_lat": 0.0, "type": "electric_scooter", "bike_id": "eaf776e0e88593db09dc5ac9f6d81eb5", "is_reserved": 0, "rental_uris": {"ios": "https://dc.lft.to/lastmile_qr_scan", "android": "https://dc.lft.to/lastmile_qr_scan"}, "is_disabled": 0, "lon": -76.95747033333333, "name": "eaf776e0e88593db09dc5ac9f6d81eb5", "fusion_lon": 0.0}, {"lat": 38.89851066666667, "fusion_lat": 0.0, "type": "electric_scooter", "bike_id": "ceb0a7af7a7a4d068b73d6936df78268", "is_reserved": 0, "rental_uris": {"ios": "https://dc.lft.to/lastmile_qr_scan", "android": "https://dc.lft.to/lastmile_qr_scan"}, "is_disabled": 0, "lon": -77.03951116666667, "name": "ceb0a7af7a7a4d068b73d6936df78268", "fusion_lon": 0.0}, {"lat": 38.919479, "fusion_lat": 0.0, "type": "electric_scooter", "bike_id": "fd6d659f20cbb5f3f951a1abe4d3ce73", "is_reserved": 0, "rental_uris": {"ios": "https://dc.lft.to/lastmile_qr_scan", "android": "https://dc.lft.to/lastmile_qr_scan"}, "is_disabled": 0, "lon": -77.04493366666667, "name": "fd6d659f20cbb5f3f951a1abe4d3ce73", "fusion_lon": 0.0}, {"lat": 38.85896183333333, "fusion_lat": 0.0, "type": "electric_bike", "bike_id": "a4377136cf4a1796fe206f2b3e4a7d51", "is_reserved": 0, "rental_uris": {"ios": "https://dc.lft.to/lastmile_qr_scan", "android": "https://dc.lft.to/lastmile_qr_scan"}, "is_disabled": 0, "lon": -77.118667, "name": "a4377136cf4a1796fe206f2b3e4a7d51", "fusion_lon": 0.0}, {"lat": 38.910393666666664, "fusion_lat": 0.0, "type": "electric_scooter", "bike_id": "fff10f1a13fd732360fa70d62728d1d9", "is_reserved": 0, "rental_uris": {"ios": "https://dc.lft.to/lastmile_qr_scan", "android": "https://dc.lft.to/lastmile_qr_scan"}, "is_disabled": 0, "lon": -77.01284866666667, "name": "fff10f1a13fd732360fa70d62728d1d9", "fusion_lon": 0.0}, {"lat": 38.951724166666665, "fusion_lat": 0.0, "type": "electric_bike", "bike_id": "fd54729b15a67082fbf02ff6f724adb0", "is_reserved": 0, "rental_uris": {"ios": "https://dc.lft.to/lastmile_qr_scan", "android": "https://dc.lft.to/lastmile_qr_scan"}, "is_disabled": 0, "lon": -76.97730933333334, "name": "fd54729b15a67082fbf02ff6f724adb0", "fusion_lon": 0.0}, {"lat": 38.904873, "fusion_lat": 0.0, "type": "electric_scooter", "bike_id": "cdcb6b6eaaa7dbab53642e1aff6c0b3e", "is_reserved": 0, "rental_uris": {"ios": "https://dc.lft.to/lastmile_qr_scan", "android": "https://dc.lft.to/lastmile_qr_scan"}, "is_disabled": 0, "lon": -76.949729, "name": "cdcb6b6eaaa7dbab53642e1aff6c0b3e", "fusion_lon": 0.0}, {"lat": 38.922517166666665, "fusion_lat": 0.0, "type": "electric_scooter", "bike_id": "9d9c342b3189bb718ff6764bfa3c3f47", "is_reserved": 0, "rental_uris": {"ios": "https://dc.lft.to/lastmile_qr_scan", "android": "https://dc.lft.to/lastmile_qr_scan"}, "is_disabled": 0, "lon": -77.02134183333334, "name": "9d9c342b3189bb718ff6764bfa3c3f47", "fusion_lon": 0.0}, {"lat": 38.9185355, "fusion_lat": 0.0, "type": "electric_scooter", "bike_id": "18bf9c505407a6b32cef79acab63f4d4", "is_reserved": 0, "rental_uris": {"ios": "https://dc.lft.to/lastmile_qr_scan", "android": "https://dc.lft.to/lastmile_qr_scan"}, "is_disabled": 0, "lon": -76.965505, "name": "18bf9c505407a6b32cef79acab63f4d4", "fusion_lon": 0.0}, {"lat": 38.90954833333333, "fusion_lat": 0.0, "type": "electric_scooter", "bike_id": "88b34dc9a63d9693aa7d3da9246d0944", "is_reserved": 0, "rental_uris": {"ios": "https://dc.lft.to/lastmile_qr_scan", "android": "https://dc.lft.to/lastmile_qr_scan"}, "is_disabled": 0, "lon": -76.998801, "name": "88b34dc9a63d9693aa7d3da9246d0944", "fusion_lon": 0.0}, {"lat": 38.9368095, "fusion_lat": 0.0, "type": "electric_scooter", "bike_id": "2a9924e94afad13c0f42c9c55286c639", "is_reserved": 0, "rental_uris": {"ios": "https://dc.lft.to/lastmile_qr_scan", "android": "https://dc.lft.to/lastmile_qr_scan"}, "is_disabled": 0, "lon": -77.035707, "name": "2a9924e94afad13c0f42c9c55286c639", "fusion_lon": 0.0}, {"lat": 38.862486, "fusion_lat": 0.0, "type": "electric_scooter", "bike_id": "73e31417c7785deac0410fea191d8390", "is_reserved": 0, "rental_uris": {"ios": "https://dc.lft.to/lastmile_qr_scan", "android": "https://dc.lft.to/lastmile_qr_scan"}, "is_disabled": 0, "lon": -76.99503966666667, "name": "73e31417c7785deac0410fea191d8390", "fusion_lon": 0.0}, {"lat": 38.928549333333336, "fusion_lat": 0.0, "type": "electric_scooter", "bike_id": "9c2ed3a1b85176337e913ea2729b6ce0", "is_reserved": 0, "rental_uris": {"ios": "https://dc.lft.to/lastmile_qr_scan", "android": "https://dc.lft.to/lastmile_qr_scan"}, "is_disabled": 0, "lon": -77.01379133333333, "name": "9c2ed3a1b85176337e913ea2729b6ce0", "fusion_lon": 0.0}, {"lat": 38.945289833333334, "fusion_lat": 0.0, "type": "electric_scooter", "bike_id": "d0bd4b1f56badaaebcf232a2568bc777", "is_reserved": 0, "rental_uris": {"ios": "https://dc.lft.to/lastmile_qr_scan", "android": "https://dc.lft.to/lastmile_qr_scan"}, "is_disabled": 0, "lon": -77.02092533333334, "name": "d0bd4b1f56badaaebcf232a2568bc777", "fusion_lon": 0.0}, {"lat": 38.8624225, "fusion_lat": 0.0, "type": "electric_scooter", "bike_id": "1a669c303a82c2bcc316cfe1fbafc926", "is_reserved": 0, "rental_uris": {"ios": "https://dc.lft.to/lastmile_qr_scan", "android": "https://dc.lft.to/lastmile_qr_scan"}, "is_disabled": 0, "lon": -76.99491133333333, "name": "1a669c303a82c2bcc316cfe1fbafc926", "fusion_lon": 0.0}, {"lat": 38.912401333333335, "fusion_lat": 0.0, "type": "electric_scooter", "bike_id": "b28ee102d7d575299192109198dd2fc6", "is_reserved": 0, "rental_uris": {"ios": "https://dc.lft.to/lastmile_qr_scan", "android": "https://dc.lft.to/lastmile_qr_scan"}, "is_disabled": 0, "lon": -77.00916633333334, "name": "b28ee102d7d575299192109198dd2fc6", "fusion_lon": 0.0}, {"lat": 38.89745333333333, "fusion_lat": 0.0, "type": "electric_bike", "bike_id": "ce0ca8dc669c0699e2ae7d5969168d48", "is_reserved": 0, "rental_uris": {"ios": "https://dc.lft.to/lastmile_qr_scan", "android": "https://dc.lft.to/lastmile_qr_scan"}, "is_disabled": 0, "lon": -76.92046066666667, "name": "ce0ca8dc669c0699e2ae7d5969168d48", "fusion_lon": 0.0}, {"lat": 38.9169795, "fusion_lat": 0.0, "type": "electric_scooter", "bike_id": "42cfbe5ff857ba7ca4ae2470a39746c4", "is_reserved": 0, "rental_uris": {"ios": "https://dc.lft.to/lastmile_qr_scan", "android": "https://dc.lft.to/lastmile_qr_scan"}, "is_disabled": 0, "lon": -77.00494716666667, "name": "42cfbe5ff857ba7ca4ae2470a39746c4", "fusion_lon": 0.0}, {"lat": 38.88748066666667, "fusion_lat": 0.0, "type": "electric_scooter", "bike_id": "296d6e4b6a13e15d2fce4bec772a599c", "is_reserved": 0, "rental_uris": {"ios": "https://dc.lft.to/lastmile_qr_scan", "android": "https://dc.lft.to/lastmile_qr_scan"}, "is_disabled": 0, "lon": -77.02842033333333, "name": "296d6e4b6a13e15d2fce4bec772a599c", "fusion_lon": 0.0}, {"lat": 38.91738733333333, "fusion_lat": 0.0, "type": "electric_scooter", "bike_id": "48539d604c7248d683c962b16deffaff", "is_reserved": 0, "rental_uris": {"ios": "https://dc.lft.to/lastmile_qr_scan", "android": "https://dc.lft.to/lastmile_qr_scan"}, "is_disabled": 0, "lon": -77.041673, "name": "48539d604c7248d683c962b16deffaff", "fusion_lon": 0.0}, {"lat": 38.90946816666667, "fusion_lat": 0.0, "type": "electric_scooter", "bike_id": "b67ca2b2342a11d7bdbc844e96d4bde2", "is_reserved": 0, "rental_uris": {"ios": "https://dc.lft.to/lastmile_qr_scan", "android": "https://dc.lft.to/lastmile_qr_scan"}, "is_disabled": 0, "lon": -77.0318585, "name": "b67ca2b2342a11d7bdbc844e96d4bde2", "fusion_lon": 0.0}, {"lat": 38.875975333333336, "fusion_lat": 0.0, "type": "electric_scooter", "bike_id": "93295ba8bf86d33db0004c259aef7d90", "is_reserved": 0, "rental_uris": {"ios": "https://dc.lft.to/lastmile_qr_scan", "android": "https://dc.lft.to/lastmile_qr_scan"}, "is_disabled": 0, "lon": -77.01639083333333, "name": "93295ba8bf86d33db0004c259aef7d90", "fusion_lon": 0.0}, {"lat": 38.89222516666667, "fusion_lat": 0.0, "type": "electric_scooter", "bike_id": "3ab83aee3395104a7933cb6f2a3bffdf", "is_reserved": 0, "rental_uris": {"ios": "https://dc.lft.to/lastmile_qr_scan", "android": "https://dc.lft.to/lastmile_qr_scan"}, "is_disabled": 0, "lon": -77.02578916666667, "name": "3ab83aee3395104a7933cb6f2a3bffdf", "fusion_lon": 0.0}, {"lat": 38.907203833333334, "fusion_lat": 0.0, "type": "electric_scooter", "bike_id": "7ba73795cee61d469f66ffcd1a8962fa", "is_reserved": 0, "rental_uris": {"ios": "https://dc.lft.to/lastmile_qr_scan", "android": "https://dc.lft.to/lastmile_qr_scan"}, "is_disabled": 0, "lon": -77.02371083333334, "name": "7ba73795cee61d469f66ffcd1a8962fa", "fusion_lon": 0.0}, {"lat": 38.922173, "fusion_lat": 0.0, "type": "electric_scooter", "bike_id": "2d455b9e8053a5ff1b3963b714ccd2b9", "is_reserved": 0, "rental_uris": {"ios": "https://dc.lft.to/lastmile_qr_scan", "android": "https://dc.lft.to/lastmile_qr_scan"}, "is_disabled": 0, "lon": -77.032878, "name": "2d455b9e8053a5ff1b3963b714ccd2b9", "fusion_lon": 0.0}, {"lat": 38.9059535, "fusion_lat": 0.0, "type": "electric_scooter", "bike_id": "717a6977da04880ad5a33a247c9c7c41", "is_reserved": 0, "rental_uris": {"ios": "https://dc.lft.to/lastmile_qr_scan", "android": "https://dc.lft.to/lastmile_qr_scan"}, "is_disabled": 0, "lon": -77.06718366666666, "name": "717a6977da04880ad5a33a247c9c7c41", "fusion_lon": 0.0}, {"lat": 38.917092333333336, "fusion_lat": 0.0, "type": "electric_scooter", "bike_id": "fc969465e5f3422bec8fdc3ead6f0f6f", "is_reserved": 0, "rental_uris": {"ios": "https://dc.lft.to/lastmile_qr_scan", "android": "https://dc.lft.to/lastmile_qr_scan"}, "is_disabled": 0, "lon": -77.02461216666667, "name": "fc969465e5f3422bec8fdc3ead6f0f6f", "fusion_lon": 0.0}, {"lat": 38.92159383333333, "fusion_lat": 0.0, "type": "electric_scooter", "bike_id": "e2d545be5a3710a7b658621dcab8e888", "is_reserved": 0, "rental_uris": {"ios": "https://dc.lft.to/lastmile_qr_scan", "android": "https://dc.lft.to/lastmile_qr_scan"}, "is_disabled": 0, "lon": -77.03338116666667, "name": "e2d545be5a3710a7b658621dcab8e888", "fusion_lon": 0.0}, {"lat": 38.9167765, "fusion_lat": 0.0, "type": "electric_scooter", "bike_id": "51a48025c2013fdca6943ead96de105b", "is_reserved": 0, "rental_uris": {"ios": "https://dc.lft.to/lastmile_qr_scan", "android": "https://dc.lft.to/lastmile_qr_scan"}, "is_disabled": 0, "lon": -77.02719733333333, "name": "51a48025c2013fdca6943ead96de105b", "fusion_lon": 0.0}, {"lat": 38.906293, "fusion_lat": 0.0, "type": "electric_scooter", "bike_id": "e918bdf06b70aa1394ba4065f9577655", "is_reserved": 0, "rental_uris": {"ios": "https://dc.lft.to/lastmile_qr_scan", "android": "https://dc.lft.to/lastmile_qr_scan"}, "is_disabled": 0, "lon": -76.99313333333333, "name": "e918bdf06b70aa1394ba4065f9577655", "fusion_lon": 0.0}, {"lat": 38.914871166666664, "fusion_lat": 0.0, "type": "electric_scooter", "bike_id": "a18f34f6cbf0d1818d32b65bf2e702fa", "is_reserved": 0, "rental_uris": {"ios": "https://dc.lft.to/lastmile_qr_scan", "android": "https://dc.lft.to/lastmile_qr_scan"}, "is_disabled": 0, "lon": -77.03272766666667, "name": "a18f34f6cbf0d1818d32b65bf2e702fa", "fusion_lon": 0.0}, {"lat": 38.969642666666665, "fusion_lat": 0.0, "type": "electric_bike", "bike_id": "a578fd072b5eee6a4c698579da5bf258", "is_reserved": 0, "rental_uris": {"ios": "https://dc.lft.to/lastmile_qr_scan", "android": "https://dc.lft.to/lastmile_qr_scan"}, "is_disabled": 0, "lon": -76.957502, "name": "a578fd072b5eee6a4c698579da5bf258", "fusion_lon": 0.0}, {"lat": 38.932356166666665, "fusion_lat": 0.0, "type": "electric_scooter", "bike_id": "b161a6cd317a6b5b2d451c8756f349be", "is_reserved": 0, "rental_uris": {"ios": "https://dc.lft.to/lastmile_qr_scan", "android": "https://dc.lft.to/lastmile_qr_scan"}, "is_disabled": 0, "lon": -76.9953845, "name": "b161a6cd317a6b5b2d451c8756f349be", "fusion_lon": 0.0}, {"lat": 38.92309616666667, "fusion_lat": 0.0, "type": "electric_scooter", "bike_id": "d35e71216e305bd1dd3d1041d748362b", "is_reserved": 0, "rental_uris": {"ios": "https://dc.lft.to/lastmile_qr_scan", "android": "https://dc.lft.to/lastmile_qr_scan"}, "is_disabled": 0, "lon": -77.04129916666666, "name": "d35e71216e305bd1dd3d1041d748362b", "fusion_lon": 0.0}, {"lat": 38.90236783333334, "fusion_lat": 0.0, "type": "electric_scooter", "bike_id": "59638bfdcbdc1e45b96606ab90a3fe1d", "is_reserved": 0, "rental_uris": {"ios": "https://dc.lft.to/lastmile_qr_scan", "android": "https://dc.lft.to/lastmile_qr_scan"}, "is_disabled": 0, "lon": -77.039241, "name": "59638bfdcbdc1e45b96606ab90a3fe1d", "fusion_lon": 0.0}, {"lat": 38.91307783333333, "fusion_lat": 0.0, "type": "electric_scooter", "bike_id": "1c2f0daa692be6e853f3f24becc22263", "is_reserved": 0, "rental_uris": {"ios": "https://dc.lft.to/lastmile_qr_scan", "android": "https://dc.lft.to/lastmile_qr_scan"}, "is_disabled": 0, "lon": -77.04531316666667, "name": "1c2f0daa692be6e853f3f24becc22263", "fusion_lon": 0.0}, {"lat": 38.8647705, "fusion_lat": 0.0, "type": "electric_scooter", "bike_id": "3c67ca81430f9f8a1c66ece5de297cf7", "is_reserved": 0, "rental_uris": {"ios": "https://dc.lft.to/lastmile_qr_scan", "android": "https://dc.lft.to/lastmile_qr_scan"}, "is_disabled": 0, "lon": -76.977378, "name": "3c67ca81430f9f8a1c66ece5de297cf7", "fusion_lon": 0.0}, {"lat": 38.882996166666665, "fusion_lat": 0.0, "type": "electric_scooter", "bike_id": "64b18c4b02326d3b3394db3f947630a2", "is_reserved": 0, "rental_uris": {"ios": "https://dc.lft.to/lastmile_qr_scan", "android": "https://dc.lft.to/lastmile_qr_scan"}, "is_disabled": 0, "lon": -76.94854666666667, "name": "64b18c4b02326d3b3394db3f947630a2", "fusion_lon": 0.0}, {"lat": 38.92074933333333, "fusion_lat": 0.0, "type": "electric_scooter", "bike_id": "a6fd8752cf8f1b60e915fff73902a658", "is_reserved": 0, "rental_uris": {"ios": "https://dc.lft.to/lastmile_qr_scan", "android": "https://dc.lft.to/lastmile_qr_scan"}, "is_disabled": 0, "lon": -77.02407366666667, "name": "a6fd8752cf8f1b60e915fff73902a658", "fusion_lon": 0.0}, {"lat": 38.904992166666666, "fusion_lat": 0.0, "type": "electric_bike", "bike_id": "e8fdebc982ac8011b797b0de78b7747b", "is_reserved": 0, "rental_uris": {"ios": "https://dc.lft.to/lastmile_qr_scan", "android": "https://dc.lft.to/lastmile_qr_scan"}, "is_disabled": 0, "lon": -77.06536716666666, "name": "e8fdebc982ac8011b797b0de78b7747b", "fusion_lon": 0.0}, {"lat": 38.9158935, "fusion_lat": 0.0, "type": "electric_scooter", "bike_id": "a19fd284116b58fcd102a51cdd593525", "is_reserved": 0, "rental_uris": {"ios": "https://dc.lft.to/lastmile_qr_scan", "android": "https://dc.lft.to/lastmile_qr_scan"}, "is_disabled": 0, "lon": -77.04479316666666, "name": "a19fd284116b58fcd102a51cdd593525", "fusion_lon": 0.0}, {"lat": 38.91683316666666, "fusion_lat": 0.0, "type": "electric_scooter", "bike_id": "ee0beaa313f21d03b04d5b6fa8e1abf1", "is_reserved": 0, "rental_uris": {"ios": "https://dc.lft.to/lastmile_qr_scan", "android": "https://dc.lft.to/lastmile_qr_scan"}, "is_disabled": 0, "lon": -77.02698533333333, "name": "ee0beaa313f21d03b04d5b6fa8e1abf1", "fusion_lon": 0.0}, {"lat": 38.91231666666667, "fusion_lat": 0.0, "type": "electric_scooter", "bike_id": "6807eb0753f136722a9c27adbdbf7dca", "is_reserved": 0, "rental_uris": {"ios": "https://dc.lft.to/lastmile_qr_scan", "android": "https://dc.lft.to/lastmile_qr_scan"}, "is_disabled": 0, "lon": -77.04511933333333, "name": "6807eb0753f136722a9c27adbdbf7dca", "fusion_lon": 0.0}, {"lat": 38.935442333333334, "fusion_lat": 0.0, "type": "electric_scooter", "bike_id": "4193207f2dad2173c53a3103c72173d9", "is_reserved": 0, "rental_uris": {"ios": "https://dc.lft.to/lastmile_qr_scan", "android": "https://dc.lft.to/lastmile_qr_scan"}, "is_disabled": 0, "lon": -77.058609, "name": "4193207f2dad2173c53a3103c72173d9", "fusion_lon": 0.0}, {"lat": 38.91367866666667, "fusion_lat": 0.0, "type": "electric_scooter", "bike_id": "6fced48c415cb2274b584ce07cb11b3d", "is_reserved": 0, "rental_uris": {"ios": "https://dc.lft.to/lastmile_qr_scan", "android": "https://dc.lft.to/lastmile_qr_scan"}, "is_disabled": 0, "lon": -77.06620816666667, "name": "6fced48c415cb2274b584ce07cb11b3d", "fusion_lon": 0.0}, {"lat": 38.907832666666664, "fusion_lat": 0.0, "type": "electric_scooter", "bike_id": "4fc2ecc008188cc0c46d3a2472e63355", "is_reserved": 0, "rental_uris": {"ios": "https://dc.lft.to/lastmile_qr_scan", "android": "https://dc.lft.to/lastmile_qr_scan"}, "is_disabled": 0, "lon": -77.03831016666666, "name": "4fc2ecc008188cc0c46d3a2472e63355", "fusion_lon": 0.0}, {"lat": 38.8961005, "fusion_lat": 0.0, "type": "electric_scooter", "bike_id": "e0e09a7d199ba6a3010a712eee030058", "is_reserved": 0, "rental_uris": {"ios": "https://dc.lft.to/lastmile_qr_scan", "android": "https://dc.lft.to/lastmile_qr_scan"}, "is_disabled": 0, "lon": -77.0543855, "name": "e0e09a7d199ba6a3010a712eee030058", "fusion_lon": 0.0}, {"lat": 38.917678, "fusion_lat": 0.0, "type": "electric_scooter", "bike_id": "a96fedf3b1884000448022833169ba2b", "is_reserved": 0, "rental_uris": {"ios": "https://dc.lft.to/lastmile_qr_scan", "android": "https://dc.lft.to/lastmile_qr_scan"}, "is_disabled": 0, "lon": -77.040639, "name": "a96fedf3b1884000448022833169ba2b", "fusion_lon": 0.0}, {"lat": 38.87638483333333, "fusion_lat": 0.0, "type": "electric_scooter", "bike_id": "8567e1d546b3b8fd776ed49a264382e5", "is_reserved": 0, "rental_uris": {"ios": "https://dc.lft.to/lastmile_qr_scan", "android": "https://dc.lft.to/lastmile_qr_scan"}, "is_disabled": 0, "lon": -77.00453733333333, "name": "8567e1d546b3b8fd776ed49a264382e5", "fusion_lon": 0.0}, {"lat": 38.909534666666666, "fusion_lat": 0.0, "type": "electric_scooter", "bike_id": "e79613b3947d19004138613f249c21ca", "is_reserved": 0, "rental_uris": {"ios": "https://dc.lft.to/lastmile_qr_scan", "android": "https://dc.lft.to/lastmile_qr_scan"}, "is_disabled": 0, "lon": -77.03446516666666, "name": "e79613b3947d19004138613f249c21ca", "fusion_lon": 0.0}, {"lat": 38.90610016666667, "fusion_lat": 0.0, "type": "electric_scooter", "bike_id": "574e206f7e8d403148b6311d9086110a", "is_reserved": 0, "rental_uris": {"ios": "https://dc.lft.to/lastmile_qr_scan", "android": "https://dc.lft.to/lastmile_qr_scan"}, "is_disabled": 0, "lon": -77.04165666666667, "name": "574e206f7e8d403148b6311d9086110a", "fusion_lon": 0.0}, {"lat": 38.932264, "fusion_lat": 0.0, "type": "electric_bike", "bike_id": "098bc0e60a33b616e01208a49ec86ad4", "is_reserved": 0, "rental_uris": {"ios": "https://dc.lft.to/lastmile_qr_scan", "android": "https://dc.lft.to/lastmile_qr_scan"}, "is_disabled": 0, "lon": -77.181228, "name": "098bc0e60a33b616e01208a49ec86ad4", "fusion_lon": 0.0}, {"lat": 38.89904666666666, "fusion_lat": 0.0, "type": "electric_scooter", "bike_id": "9434a6b1eb835ce93b1d33553219c224", "is_reserved": 0, "rental_uris": {"ios": "https://dc.lft.to/lastmile_qr_scan", "android": "https://dc.lft.to/lastmile_qr_scan"}, "is_disabled": 0, "lon": -77.02164383333333, "name": "9434a6b1eb835ce93b1d33553219c224", "fusion_lon": 0.0}, {"lat": 38.91334166666667, "fusion_lat": 0.0, "type": "electric_scooter", "bike_id": "7799d6f2e61e15d754dfc0d1ef3e9b1a", "is_reserved": 0, "rental_uris": {"ios": "https://dc.lft.to/lastmile_qr_scan", "android": "https://dc.lft.to/lastmile_qr_scan"}, "is_disabled": 0, "lon": -77.03264516666667, "name": "7799d6f2e61e15d754dfc0d1ef3e9b1a", "fusion_lon": 0.0}, {"lat": 38.913175833333334, "fusion_lat": 0.0, "type": "electric_scooter", "bike_id": "199c4e04a3eee301e53484158043fd51", "is_reserved": 0, "rental_uris": {"ios": "https://dc.lft.to/lastmile_qr_scan", "android": "https://dc.lft.to/lastmile_qr_scan"}, "is_disabled": 0, "lon": -77.06254733333333, "name": "199c4e04a3eee301e53484158043fd51", "fusion_lon": 0.0}, {"lat": 38.86620416666667, "fusion_lat": 0.0, "type": "electric_scooter", "bike_id": "90a5f676acd431f5ba6a67f9b022bb7a", "is_reserved": 0, "rental_uris": {"ios": "https://dc.lft.to/lastmile_qr_scan", "android": "https://dc.lft.to/lastmile_qr_scan"}, "is_disabled": 0, "lon": -77.08785433333334, "name": "90a5f676acd431f5ba6a67f9b022bb7a", "fusion_lon": 0.0}, {"lat": 38.934150833333334, "fusion_lat": 0.0, "type": "electric_scooter", "bike_id": "41b6d81435bd2acb918f021cc3660f2f", "is_reserved": 0, "rental_uris": {"ios": "https://dc.lft.to/lastmile_qr_scan", "android": "https://dc.lft.to/lastmile_qr_scan"}, "is_disabled": 0, "lon": -77.041506, "name": "41b6d81435bd2acb918f021cc3660f2f", "fusion_lon": 0.0}, {"lat": 38.92876783333333, "fusion_lat": 0.0, "type": "electric_scooter", "bike_id": "c6c5777e9b9b4af5aa0e6eb44dec5fe9", "is_reserved": 0, "rental_uris": {"ios": "https://dc.lft.to/lastmile_qr_scan", "android": "https://dc.lft.to/lastmile_qr_scan"}, "is_disabled": 0, "lon": -77.02823416666666, "name": "c6c5777e9b9b4af5aa0e6eb44dec5fe9", "fusion_lon": 0.0}, {"lat": 38.9212185, "fusion_lat": 0.0, "type": "electric_scooter", "bike_id": "dfaa702f2ff74735970dffbf35c318cb", "is_reserved": 0, "rental_uris": {"ios": "https://dc.lft.to/lastmile_qr_scan", "android": "https://dc.lft.to/lastmile_qr_scan"}, "is_disabled": 0, "lon": -77.04376316666666, "name": "dfaa702f2ff74735970dffbf35c318cb", "fusion_lon": 0.0}, {"lat": 38.922376166666666, "fusion_lat": 0.0, "type": "electric_scooter", "bike_id": "ee8948a9e9c3067613afa83e67996572", "is_reserved": 0, "rental_uris": {"ios": "https://dc.lft.to/lastmile_qr_scan", "android": "https://dc.lft.to/lastmile_qr_scan"}, "is_disabled": 0, "lon": -77.04226333333334, "name": "ee8948a9e9c3067613afa83e67996572", "fusion_lon": 0.0}, {"lat": 38.90861133333333, "fusion_lat": 0.0, "type": "electric_bike", "bike_id": "b1ef360eae1a8d22d2024a353b1afb1f", "is_reserved": 0, "rental_uris": {"ios": "https://dc.lft.to/lastmile_qr_scan", "android": "https://dc.lft.to/lastmile_qr_scan"}, "is_disabled": 0, "lon": -77.029152, "name": "b1ef360eae1a8d22d2024a353b1afb1f", "fusion_lon": 0.0}, {"lat": 38.911213833333335, "fusion_lat": 0.0, "type": "electric_scooter", "bike_id": "48cacafd9770972a7b09bc29f6504966", "is_reserved": 0, "rental_uris": {"ios": "https://dc.lft.to/lastmile_qr_scan", "android": "https://dc.lft.to/lastmile_qr_scan"}, "is_disabled": 0, "lon": -77.03315033333334, "name": "48cacafd9770972a7b09bc29f6504966", "fusion_lon": 0.0}, {"lat": 38.915010333333335, "fusion_lat": 0.0, "type": "electric_scooter", "bike_id": "ad4e28fb7634394e4096946a09da40b8", "is_reserved": 0, "rental_uris": {"ios": "https://dc.lft.to/lastmile_qr_scan", "android": "https://dc.lft.to/lastmile_qr_scan"}, "is_disabled": 0, "lon": -77.045466, "name": "ad4e28fb7634394e4096946a09da40b8", "fusion_lon": 0.0}, {"lat": 38.9113635, "fusion_lat": 0.0, "type": "electric_scooter", "bike_id": "82d555856a36ba7436573a4c41b79c16", "is_reserved": 0, "rental_uris": {"ios": "https://dc.lft.to/lastmile_qr_scan", "android": "https://dc.lft.to/lastmile_qr_scan"}, "is_disabled": 0, "lon": -77.03203166666667, "name": "82d555856a36ba7436573a4c41b79c16", "fusion_lon": 0.0}, {"lat": 38.90172283333333, "fusion_lat": 0.0, "type": "electric_scooter", "bike_id": "166192bd7d0fffb1cbcdc39b27c86fb1", "is_reserved": 0, "rental_uris": {"ios": "https://dc.lft.to/lastmile_qr_scan", "android": "https://dc.lft.to/lastmile_qr_scan"}, "is_disabled": 0, "lon": -76.983012, "name": "166192bd7d0fffb1cbcdc39b27c86fb1", "fusion_lon": 0.0}, {"lat": 38.91557316666667, "fusion_lat": 0.0, "type": "electric_scooter", "bike_id": "c876142749e9562a4f5ce89366d9c379", "is_reserved": 0, "rental_uris": {"ios": "https://dc.lft.to/lastmile_qr_scan", "android": "https://dc.lft.to/lastmile_qr_scan"}, "is_disabled": 0, "lon": -77.0369425, "name": "c876142749e9562a4f5ce89366d9c379", "fusion_lon": 0.0}, {"lat": 38.91125733333333, "fusion_lat": 0.0, "type": "electric_scooter", "bike_id": "127fa113ba7808594cf43ad93107dd8a", "is_reserved": 0, "rental_uris": {"ios": "https://dc.lft.to/lastmile_qr_scan", "android": "https://dc.lft.to/lastmile_qr_scan"}, "is_disabled": 0, "lon": -77.03325033333333, "name": "127fa113ba7808594cf43ad93107dd8a", "fusion_lon": 0.0}, {"lat": 38.928579666666664, "fusion_lat": 0.0, "type": "electric_scooter", "bike_id": "0bc9a9815ec58037691315a54c6e630d", "is_reserved": 0, "rental_uris": {"ios": "https://dc.lft.to/lastmile_qr_scan", "android": "https://dc.lft.to/lastmile_qr_scan"}, "is_disabled": 0, "lon": -77.02961216666667, "name": "0bc9a9815ec58037691315a54c6e630d", "fusion_lon": 0.0}, {"lat": 38.91993033333333, "fusion_lat": 0.0, "type": "electric_scooter", "bike_id": "fca2753839e4f143fcf6199e8797f67f", "is_reserved": 0, "rental_uris": {"ios": "https://dc.lft.to/lastmile_qr_scan", "android": "https://dc.lft.to/lastmile_qr_scan"}, "is_disabled": 0, "lon": -77.02401166666667, "name": "fca2753839e4f143fcf6199e8797f67f", "fusion_lon": 0.0}, {"lat": 38.9073425, "fusion_lat": 0.0, "type": "electric_scooter", "bike_id": "3848c3f075da350fcb5717b8f7462cd4", "is_reserved": 0, "rental_uris": {"ios": "https://dc.lft.to/lastmile_qr_scan", "android": "https://dc.lft.to/lastmile_qr_scan"}, "is_disabled": 0, "lon": -77.02810083333334, "name": "3848c3f075da350fcb5717b8f7462cd4", "fusion_lon": 0.0}, {"lat": 38.912593, "fusion_lat": 0.0, "type": "electric_scooter", "bike_id": "9cc6c6f77817e5760c201a2e0553bbca", "is_reserved": 0, "rental_uris": {"ios": "https://dc.lft.to/lastmile_qr_scan", "android": "https://dc.lft.to/lastmile_qr_scan"}, "is_disabled": 0, "lon": -77.03867766666667, "name": "9cc6c6f77817e5760c201a2e0553bbca", "fusion_lon": 0.0}, {"lat": 38.865167666666665, "fusion_lat": 0.0, "type": "electric_bike", "bike_id": "ff8163207a0f690cb315f32f7596db06", "is_reserved": 0, "rental_uris": {"ios": "https://dc.lft.to/lastmile_qr_scan", "android": "https://dc.lft.to/lastmile_qr_scan"}, "is_disabled": 0, "lon": -76.97344233333334, "name": "ff8163207a0f690cb315f32f7596db06", "fusion_lon": 0.0}, {"lat": 38.896147166666665, "fusion_lat": 0.0, "type": "electric_scooter", "bike_id": "3b56154396158175ea05f01c64db28d6", "is_reserved": 0, "rental_uris": {"ios": "https://dc.lft.to/lastmile_qr_scan", "android": "https://dc.lft.to/lastmile_qr_scan"}, "is_disabled": 0, "lon": -76.98170766666667, "name": "3b56154396158175ea05f01c64db28d6", "fusion_lon": 0.0}, {"lat": 38.913521333333335, "fusion_lat": 0.0, "type": "electric_scooter", "bike_id": "e93f1aef6f659af61a2ce54725a3a4a2", "is_reserved": 0, "rental_uris": {"ios": "https://dc.lft.to/lastmile_qr_scan", "android": "https://dc.lft.to/lastmile_qr_scan"}, "is_disabled": 0, "lon": -77.02566866666666, "name": "e93f1aef6f659af61a2ce54725a3a4a2", "fusion_lon": 0.0}, {"lat": 38.915788, "fusion_lat": 0.0, "type": "electric_scooter", "bike_id": "defa0e31928b645a5a7c50c16648503a", "is_reserved": 0, "rental_uris": {"ios": "https://dc.lft.to/lastmile_qr_scan", "android": "https://dc.lft.to/lastmile_qr_scan"}, "is_disabled": 0, "lon": -77.03464416666667, "name": "defa0e31928b645a5a7c50c16648503a", "fusion_lon": 0.0}, {"lat": 38.91769766666667, "fusion_lat": 0.0, "type": "electric_scooter", "bike_id": "d8ccd5ea897e32d5d443faa14c4d9bd0", "is_reserved": 0, "rental_uris": {"ios": "https://dc.lft.to/lastmile_qr_scan", "android": "https://dc.lft.to/lastmile_qr_scan"}, "is_disabled": 0, "lon": -77.04768216666666, "name": "d8ccd5ea897e32d5d443faa14c4d9bd0", "fusion_lon": 0.0}, {"lat": 38.9025935, "fusion_lat": 0.0, "type": "electric_scooter", "bike_id": "8298316c8aa39471db9b806088653be5", "is_reserved": 0, "rental_uris": {"ios": "https://dc.lft.to/lastmile_qr_scan", "android": "https://dc.lft.to/lastmile_qr_scan"}, "is_disabled": 0, "lon": -77.01688883333334, "name": "8298316c8aa39471db9b806088653be5", "fusion_lon": 0.0}, {"lat": 38.9096195, "fusion_lat": 0.0, "type": "electric_scooter", "bike_id": "ac0cfcf09386af63ae3d8faa367d8c15", "is_reserved": 0, "rental_uris": {"ios": "https://dc.lft.to/lastmile_qr_scan", "android": "https://dc.lft.to/lastmile_qr_scan"}, "is_disabled": 0, "lon": -77.04799366666667, "name": "ac0cfcf09386af63ae3d8faa367d8c15", "fusion_lon": 0.0}, {"lat": 38.9004145, "fusion_lat": 0.0, "type": "electric_scooter", "bike_id": "a4ba18a3532fb1a43b22a09204268261", "is_reserved": 0, "rental_uris": {"ios": "https://dc.lft.to/lastmile_qr_scan", "android": "https://dc.lft.to/lastmile_qr_scan"}, "is_disabled": 0, "lon": -77.05084116666667, "name": "a4ba18a3532fb1a43b22a09204268261", "fusion_lon": 0.0}, {"lat": 38.884828666666664, "fusion_lat": 0.0, "type": "electric_scooter", "bike_id": "850c558f040e68ade4b2fb02a0ed88b5", "is_reserved": 0, "rental_uris": {"ios": "https://dc.lft.to/lastmile_qr_scan", "android": "https://dc.lft.to/lastmile_qr_scan"}, "is_disabled": 0, "lon": -77.02654116666666, "name": "850c558f040e68ade4b2fb02a0ed88b5", "fusion_lon": 0.0}, {"lat": 38.919816, "fusion_lat": 0.0, "type": "electric_scooter", "bike_id": "dbbfd700d2fb4df9dbcb9fe6243770dd", "is_reserved": 0, "rental_uris": {"ios": "https://dc.lft.to/lastmile_qr_scan", "android": "https://dc.lft.to/lastmile_qr_scan"}, "is_disabled": 0, "lon": -77.0325635, "name": "dbbfd700d2fb4df9dbcb9fe6243770dd", "fusion_lon": 0.0}, {"lat": 38.91964083333333, "fusion_lat": 0.0, "type": "electric_scooter", "bike_id": "49a1d1ec44281ae7bf62bef68856eca7", "is_reserved": 0, "rental_uris": {"ios": "https://dc.lft.to/lastmile_qr_scan", "android": "https://dc.lft.to/lastmile_qr_scan"}, "is_disabled": 0, "lon": -77.03199816666667, "name": "49a1d1ec44281ae7bf62bef68856eca7", "fusion_lon": 0.0}, {"lat": 38.913652, "fusion_lat": 0.0, "type": "electric_scooter", "bike_id": "c5186b87b5b1ece515ceb8f82c288c80", "is_reserved": 0, "rental_uris": {"ios": "https://dc.lft.to/lastmile_qr_scan", "android": "https://dc.lft.to/lastmile_qr_scan"}, "is_disabled": 0, "lon": -77.04488933333333, "name": "c5186b87b5b1ece515ceb8f82c288c80", "fusion_lon": 0.0}, {"lat": 38.921319, "fusion_lat": 0.0, "type": "electric_scooter", "bike_id": "01237870d1353a7fec46bdd0836962c4", "is_reserved": 0, "rental_uris": {"ios": "https://dc.lft.to/lastmile_qr_scan", "android": "https://dc.lft.to/lastmile_qr_scan"}, "is_disabled": 0, "lon": -77.0252465, "name": "01237870d1353a7fec46bdd0836962c4", "fusion_lon": 0.0}, {"lat": 38.899721666666665, "fusion_lat": 0.0, "type": "electric_scooter", "bike_id": "cf97f4d715e977ea94c4327e5783d073", "is_reserved": 0, "rental_uris": {"ios": "https://dc.lft.to/lastmile_qr_scan", "android": "https://dc.lft.to/lastmile_qr_scan"}, "is_disabled": 0, "lon": -77.05268116666667, "name": "cf97f4d715e977ea94c4327e5783d073", "fusion_lon": 0.0}, {"lat": 38.91561866666667, "fusion_lat": 0.0, "type": "electric_scooter", "bike_id": "159581c95c2fd6a8fc83d2cd33741e0e", "is_reserved": 0, "rental_uris": {"ios": "https://dc.lft.to/lastmile_qr_scan", "android": "https://dc.lft.to/lastmile_qr_scan"}, "is_disabled": 0, "lon": -77.03874433333333, "name": "159581c95c2fd6a8fc83d2cd33741e0e", "fusion_lon": 0.0}, {"lat": 38.92237566666667, "fusion_lat": 0.0, "type": "electric_scooter", "bike_id": "4402280510c6696267363800e71c79af", "is_reserved": 0, "rental_uris": {"ios": "https://dc.lft.to/lastmile_qr_scan", "android": "https://dc.lft.to/lastmile_qr_scan"}, "is_disabled": 0, "lon": -77.03908966666667, "name": "4402280510c6696267363800e71c79af", "fusion_lon": 0.0}, {"lat": 38.900241333333334, "fusion_lat": 0.0, "type": "electric_scooter", "bike_id": "97db4551c77cf6f6ee639ca4745897cb", "is_reserved": 0, "rental_uris": {"ios": "https://dc.lft.to/lastmile_qr_scan", "android": "https://dc.lft.to/lastmile_qr_scan"}, "is_disabled": 0, "lon": -77.00098033333333, "name": "97db4551c77cf6f6ee639ca4745897cb", "fusion_lon": 0.0}, {"lat": 38.902102166666666, "fusion_lat": 0.0, "type": "electric_scooter", "bike_id": "127edd3768501e419174ddc858836a47", "is_reserved": 0, "rental_uris": {"ios": "https://dc.lft.to/lastmile_qr_scan", "android": "https://dc.lft.to/lastmile_qr_scan"}, "is_disabled": 0, "lon": -77.061275, "name": "127edd3768501e419174ddc858836a47", "fusion_lon": 0.0}, {"lat": 38.911933, "fusion_lat": 0.0, "type": "electric_scooter", "bike_id": "ea2f47ee47d33eedacc6c82067690060", "is_reserved": 0, "rental_uris": {"ios": "https://dc.lft.to/lastmile_qr_scan", "android": "https://dc.lft.to/lastmile_qr_scan"}, "is_disabled": 0, "lon": -77.03287283333333, "name": "ea2f47ee47d33eedacc6c82067690060", "fusion_lon": 0.0}, {"lat": 38.90333533333333, "fusion_lat": 0.0, "type": "electric_scooter", "bike_id": "db26956a68ea8796f85fed90174fe684", "is_reserved": 0, "rental_uris": {"ios": "https://dc.lft.to/lastmile_qr_scan", "android": "https://dc.lft.to/lastmile_qr_scan"}, "is_disabled": 0, "lon": -76.97589766666667, "name": "db26956a68ea8796f85fed90174fe684", "fusion_lon": 0.0}, {"lat": 38.91705483333333, "fusion_lat": 0.0, "type": "electric_scooter", "bike_id": "2bbd849c7a127bc62758fb4da0586c7a", "is_reserved": 0, "rental_uris": {"ios": "https://dc.lft.to/lastmile_qr_scan", "android": "https://dc.lft.to/lastmile_qr_scan"}, "is_disabled": 0, "lon": -77.04178216666666, "name": "2bbd849c7a127bc62758fb4da0586c7a", "fusion_lon": 0.0}, {"lat": 38.87075266666667, "fusion_lat": 0.0, "type": "electric_scooter", "bike_id": "211ff8075b7bb92e2a483a0176431725", "is_reserved": 0, "rental_uris": {"ios": "https://dc.lft.to/lastmile_qr_scan", "android": "https://dc.lft.to/lastmile_qr_scan"}, "is_disabled": 0, "lon": -76.98929883333334, "name": "211ff8075b7bb92e2a483a0176431725", "fusion_lon": 0.0}, {"lat": 38.92377283333333, "fusion_lat": 0.0, "type": "electric_scooter", "bike_id": "341dce9ad2d52b405ae715c4f1841b78", "is_reserved": 0, "rental_uris": {"ios": "https://dc.lft.to/lastmile_qr_scan", "android": "https://dc.lft.to/lastmile_qr_scan"}, "is_disabled": 0, "lon": -77.043127, "name": "341dce9ad2d52b405ae715c4f1841b78", "fusion_lon": 0.0}, {"lat": 38.89668416666667, "fusion_lat": 0.0, "type": "electric_scooter", "bike_id": "ebca239175f024694d31837a2577edc3", "is_reserved": 0, "rental_uris": {"ios": "https://dc.lft.to/lastmile_qr_scan", "android": "https://dc.lft.to/lastmile_qr_scan"}, "is_disabled": 0, "lon": -76.98816133333334, "name": "ebca239175f024694d31837a2577edc3", "fusion_lon": 0.0}, {"lat": 38.92831016666667, "fusion_lat": 0.0, "type": "electric_scooter", "bike_id": "ee2af2698dd04508ad3e48b17c81b7f6", "is_reserved": 0, "rental_uris": {"ios": "https://dc.lft.to/lastmile_qr_scan", "android": "https://dc.lft.to/lastmile_qr_scan"}, "is_disabled": 0, "lon": -77.02254066666667, "name": "ee2af2698dd04508ad3e48b17c81b7f6", "fusion_lon": 0.0}, {"lat": 38.90682316666667, "fusion_lat": 0.0, "type": "electric_scooter", "bike_id": "cfe62c39165cc24fb517081babbc6dc4", "is_reserved": 0, "rental_uris": {"ios": "https://dc.lft.to/lastmile_qr_scan", "android": "https://dc.lft.to/lastmile_qr_scan"}, "is_disabled": 0, "lon": -77.07156183333333, "name": "cfe62c39165cc24fb517081babbc6dc4", "fusion_lon": 0.0}, {"lat": 38.921087666666665, "fusion_lat": 0.0, "type": "electric_scooter", "bike_id": "a9385ef8ebe83cf387d9140f5334235f", "is_reserved": 0, "rental_uris": {"ios": "https://dc.lft.to/lastmile_qr_scan", "android": "https://dc.lft.to/lastmile_qr_scan"}, "is_disabled": 0, "lon": -77.03051266666667, "name": "a9385ef8ebe83cf387d9140f5334235f", "fusion_lon": 0.0}, {"lat": 38.901661, "fusion_lat": 0.0, "type": "electric_scooter", "bike_id": "6c0afa4fd887ac8c6232b2a664c768bd", "is_reserved": 0, "rental_uris": {"ios": "https://dc.lft.to/lastmile_qr_scan", "android": "https://dc.lft.to/lastmile_qr_scan"}, "is_disabled": 0, "lon": -77.04928783333334, "name": "6c0afa4fd887ac8c6232b2a664c768bd", "fusion_lon": 0.0}, {"lat": 38.91931, "fusion_lat": 0.0, "type": "electric_scooter", "bike_id": "dc284f7608b1297f0d7a99347d16e203", "is_reserved": 0, "rental_uris": {"ios": "https://dc.lft.to/lastmile_qr_scan", "android": "https://dc.lft.to/lastmile_qr_scan"}, "is_disabled": 0, "lon": -77.03212033333334, "name": "dc284f7608b1297f0d7a99347d16e203", "fusion_lon": 0.0}, {"lat": 38.957312333333334, "fusion_lat": 0.0, "type": "electric_scooter", "bike_id": "0cf2b6f8afba02f0d18b76e59fafb4f3", "is_reserved": 0, "rental_uris": {"ios": "https://dc.lft.to/lastmile_qr_scan", "android": "https://dc.lft.to/lastmile_qr_scan"}, "is_disabled": 0, "lon": -77.02403616666666, "name": "0cf2b6f8afba02f0d18b76e59fafb4f3", "fusion_lon": 0.0}, {"lat": 38.90717183333334, "fusion_lat": 0.0, "type": "electric_scooter", "bike_id": "a02026442dca8a85487c462cba67b34d", "is_reserved": 0, "rental_uris": {"ios": "https://dc.lft.to/lastmile_qr_scan", "android": "https://dc.lft.to/lastmile_qr_scan"}, "is_disabled": 0, "lon": -77.02885366666666, "name": "a02026442dca8a85487c462cba67b34d", "fusion_lon": 0.0}, {"lat": 38.91621716666667, "fusion_lat": 0.0, "type": "electric_scooter", "bike_id": "1b762f5af525751cb234a19ebadc3453", "is_reserved": 0, "rental_uris": {"ios": "https://dc.lft.to/lastmile_qr_scan", "android": "https://dc.lft.to/lastmile_qr_scan"}, "is_disabled": 0, "lon": -77.046092, "name": "1b762f5af525751cb234a19ebadc3453", "fusion_lon": 0.0}, {"lat": 38.8824605, "fusion_lat": 0.0, "type": "electric_scooter", "bike_id": "e6e5cafe3e1de691101fd583c53f3662", "is_reserved": 0, "rental_uris": {"ios": "https://dc.lft.to/lastmile_qr_scan", "android": "https://dc.lft.to/lastmile_qr_scan"}, "is_disabled": 0, "lon": -76.9912245, "name": "e6e5cafe3e1de691101fd583c53f3662", "fusion_lon": 0.0}, {"lat": 38.902611666666665, "fusion_lat": 0.0, "type": "electric_scooter", "bike_id": "0ca3058a990c1671d03e90106b15ae4e", "is_reserved": 0, "rental_uris": {"ios": "https://dc.lft.to/lastmile_qr_scan", "android": "https://dc.lft.to/lastmile_qr_scan"}, "is_disabled": 0, "lon": -77.03971933333334, "name": "0ca3058a990c1671d03e90106b15ae4e", "fusion_lon": 0.0}, {"lat": 38.9126835, "fusion_lat": 0.0, "type": "electric_scooter", "bike_id": "82a5a3b59abc7e818969f66c43c041ed", "is_reserved": 0, "rental_uris": {"ios": "https://dc.lft.to/lastmile_qr_scan", "android": "https://dc.lft.to/lastmile_qr_scan"}, "is_disabled": 0, "lon": -77.07349466666666, "name": "82a5a3b59abc7e818969f66c43c041ed", "fusion_lon": 0.0}, {"lat": 38.87680433333333, "fusion_lat": 0.0, "type": "electric_scooter", "bike_id": "543be5a67650cfb0d6f9e01dd7ef2ccf", "is_reserved": 0, "rental_uris": {"ios": "https://dc.lft.to/lastmile_qr_scan", "android": "https://dc.lft.to/lastmile_qr_scan"}, "is_disabled": 0, "lon": -77.01792283333333, "name": "543be5a67650cfb0d6f9e01dd7ef2ccf", "fusion_lon": 0.0}, {"lat": 38.917116, "fusion_lat": 0.0, "type": "electric_scooter", "bike_id": "4cd5e4aa505080a243be8c731bfb6792", "is_reserved": 0, "rental_uris": {"ios": "https://dc.lft.to/lastmile_qr_scan", "android": "https://dc.lft.to/lastmile_qr_scan"}, "is_disabled": 0, "lon": -77.029779, "name": "4cd5e4aa505080a243be8c731bfb6792", "fusion_lon": 0.0}, {"lat": 38.884979, "fusion_lat": 0.0, "type": "electric_scooter", "bike_id": "f7de84c730c07f4f0aca8d64bacf0703", "is_reserved": 0, "rental_uris": {"ios": "https://dc.lft.to/lastmile_qr_scan", "android": "https://dc.lft.to/lastmile_qr_scan"}, "is_disabled": 0, "lon": -77.01716916666666, "name": "f7de84c730c07f4f0aca8d64bacf0703", "fusion_lon": 0.0}, {"lat": 38.90608666666667, "fusion_lat": 0.0, "type": "electric_scooter", "bike_id": "0f059fd7a0e5833f18a71435ae854600", "is_reserved": 0, "rental_uris": {"ios": "https://dc.lft.to/lastmile_qr_scan", "android": "https://dc.lft.to/lastmile_qr_scan"}, "is_disabled": 0, "lon": -77.04670633333333, "name": "0f059fd7a0e5833f18a71435ae854600", "fusion_lon": 0.0}, {"lat": 38.878012166666664, "fusion_lat": 0.0, "type": "electric_scooter", "bike_id": "37ff2cc365c70feda24ed4edad2f510b", "is_reserved": 0, "rental_uris": {"ios": "https://dc.lft.to/lastmile_qr_scan", "android": "https://dc.lft.to/lastmile_qr_scan"}, "is_disabled": 0, "lon": -77.0073855, "name": "37ff2cc365c70feda24ed4edad2f510b", "fusion_lon": 0.0}, {"lat": 38.9376795, "fusion_lat": 0.0, "type": "electric_scooter", "bike_id": "7bd87533989afa99198d55e62e7846de", "is_reserved": 0, "rental_uris": {"ios": "https://dc.lft.to/lastmile_qr_scan", "android": "https://dc.lft.to/lastmile_qr_scan"}, "is_disabled": 0, "lon": -77.03238916666666, "name": "7bd87533989afa99198d55e62e7846de", "fusion_lon": 0.0}, {"lat": 38.796098666666666, "fusion_lat": 0.0, "type": "electric_bike", "bike_id": "f92ca007906135b63d8cdf4985efd386", "is_reserved": 0, "rental_uris": {"ios": "https://dc.lft.to/lastmile_qr_scan", "android": "https://dc.lft.to/lastmile_qr_scan"}, "is_disabled": 0, "lon": -76.99745583333333, "name": "f92ca007906135b63d8cdf4985efd386", "fusion_lon": 0.0}, {"lat": 38.97681133333333, "fusion_lat": 0.0, "type": "electric_scooter", "bike_id": "f812592e016355572dd5c3278c1ca38e", "is_reserved": 0, "rental_uris": {"ios": "https://dc.lft.to/lastmile_qr_scan", "android": "https://dc.lft.to/lastmile_qr_scan"}, "is_disabled": 0, "lon": -77.01655016666666, "name": "f812592e016355572dd5c3278c1ca38e", "fusion_lon": 0.0}, {"lat": 38.900303666666666, "fusion_lat": 0.0, "type": "electric_scooter", "bike_id": "502e1d116048b0555b5f270fc5935bc5", "is_reserved": 0, "rental_uris": {"ios": "https://dc.lft.to/lastmile_qr_scan", "android": "https://dc.lft.to/lastmile_qr_scan"}, "is_disabled": 0, "lon": -77.00194183333333, "name": "502e1d116048b0555b5f270fc5935bc5", "fusion_lon": 0.0}, {"lat": 38.90360233333333, "fusion_lat": 0.0, "type": "electric_scooter", "bike_id": "988ed8c2a69deb44f0cfcbd02b00a3e4", "is_reserved": 0, "rental_uris": {"ios": "https://dc.lft.to/lastmile_qr_scan", "android": "https://dc.lft.to/lastmile_qr_scan"}, "is_disabled": 0, "lon": -77.026928, "name": "988ed8c2a69deb44f0cfcbd02b00a3e4", "fusion_lon": 0.0}, {"lat": 38.8875055, "fusion_lat": 0.0, "type": "electric_scooter", "bike_id": "ce43079974fc7de5147ee6e466763dec", "is_reserved": 0, "rental_uris": {"ios": "https://dc.lft.to/lastmile_qr_scan", "android": "https://dc.lft.to/lastmile_qr_scan"}, "is_disabled": 0, "lon": -77.025537, "name": "ce43079974fc7de5147ee6e466763dec", "fusion_lon": 0.0}, {"lat": 38.92415, "fusion_lat": 0.0, "type": "electric_scooter", "bike_id": "e9d903e88983b3622a770ba28c0ec65f", "is_reserved": 0, "rental_uris": {"ios": "https://dc.lft.to/lastmile_qr_scan", "android": "https://dc.lft.to/lastmile_qr_scan"}, "is_disabled": 0, "lon": -77.05059216666666, "name": "e9d903e88983b3622a770ba28c0ec65f", "fusion_lon": 0.0}, {"lat": 38.88885883333333, "fusion_lat": 0.0, "type": "electric_scooter", "bike_id": "6cf552c48b89def818dc8247704b5953", "is_reserved": 0, "rental_uris": {"ios": "https://dc.lft.to/lastmile_qr_scan", "android": "https://dc.lft.to/lastmile_qr_scan"}, "is_disabled": 0, "lon": -76.94779316666667, "name": "6cf552c48b89def818dc8247704b5953", "fusion_lon": 0.0}, {"lat": 38.88394983333333, "fusion_lat": 0.0, "type": "electric_scooter", "bike_id": "b8a050210e41c38ca8cf6ae2f09aa30b", "is_reserved": 0, "rental_uris": {"ios": "https://dc.lft.to/lastmile_qr_scan", "android": "https://dc.lft.to/lastmile_qr_scan"}, "is_disabled": 0, "lon": -76.9544805, "name": "b8a050210e41c38ca8cf6ae2f09aa30b", "fusion_lon": 0.0},