{"data": {"bikes": [{"bike_id": "d8f96d5399489f989da3abbd32abb240", "fusion_lon": 0.0, "lon": -77.01669466666667, "name": "d8f96d5399489f989da3abbd32abb240", "is_disabled": 0, "rental_uris": {"android": "https://dc.lft.to/lastmile_qr_scan", "ios": "https://dc.lft.to/lastmile_qr_scan"}, "type": "electric_scooter", "lat": 38.881162, "is_reserved": 0, "fusion_lat": 0.0}, {"bike_id": "8a3621663b1f58614a23c6d9061d5ca3", "fusion_lon": 0.0, "lon": -77.01209916666667, "name": "8a3621663b1f58614a23c6d9061d5ca3", "is_disabled": 0, "rental_uris": {"android": "https://dc.lft.to/lastmile_qr_scan", "ios": "https://dc.lft.to/lastmile_qr_scan"}, "type": "electric_scooter", "lat": 38.8709015, "is_reserved": 0, "fusion_lat": 0.0}, {"bike_id": "fa75bd34f592a2558dd533ea831039f6", "fusion_lon": 0.0, "lon": -77.03245816666667, "name": "fa75bd34f592a2558dd533ea831039f6", "is_disabled": 0, "rental_uris": {"android": "https://dc.lft.to/lastmile_qr_scan", "ios": "https://dc.lft.to/lastmile_qr_scan"}, "type": "electric_bike", "lat": 38.9293545, "is_reserved": 0, "fusion_lat": 0.0}, {"bike_id": "1aee228cb124f249d9511c0610e84094", "fusion_lon": 0.0, "lon": -76.99398566666666, "name": "1aee228cb124f249d9511c0610e84094", "is_disabled": 0, "rental_uris": {"android": "https://dc.lft.to/lastmile_qr_scan", "ios": "https://dc.lft.to/lastmile_qr_scan"}, "type": "electric_scooter", "lat": 38.92164066666667, "is_reserved": 0, "fusion_lat": 0.0}, {"bike_id": "6d9d334068953ada588ed4fcd06cbe43", "fusion_lon": 0.0, "lon": -77.0454475, "name": "6d9d334068953ada588ed4fcd06cbe43", "is_disabled": 0, "rental_uris": {"android": "https://dc.lft.to/lastmile_qr_scan", "ios": "https://dc.lft.to/lastmile_qr_scan"}, "type": "electric_scooter", "lat": 38.9132595, "is_reserved": 0, "fusion_lat": 0.0}, {"bike_id": "fe7d69efe5d29037ba638535f9ce5d0d", "fusion_lon": 0.0, "lon": -77.06341716666667, "name": "fe7d69efe5d29037ba638535f9ce5d0d", "is_disabled": 0, "rental_uris": {"android": "https://dc.lft.to/lastmile_qr_scan", "ios": "https://dc.lft.to/lastmile_qr_scan"}, "type": "electric_scooter", "lat": 38.94454833333333, "is_reserved": 0, "fusion_lat": 0.0}, {"bike_id": "37d98125867b84babd1c821e6c5a5e5a", "fusion_lon": 0.0, "lon": -77.02767733333333, "name": "37d98125867b84babd1c821e6c5a5e5a", "is_disabled": 0, "rental_uris": {"android": "https://dc.lft.to/lastmile_qr_scan", "ios": "https://dc.lft.to/lastmile_qr_scan"}, "type": "electric_scooter", "lat": 38.95424, "is_reserved": 0, "fusion_lat": 0.0}, {"bike_id": "d2e5d61417a3ea59b6cbf6810195285c", "fusion_lon": 0.0, "lon": -76.9398705, "name": "d2e5d61417a3ea59b6cbf6810195285c", "is_disabled": 0, "rental_uris": {"android": "https://dc.lft.to/lastmile_qr_scan", "ios": "https://dc.lft.to/lastmile_qr_scan"}, "type": "electric_scooter", "lat": 38.899763, "is_reserved": 0, "fusion_lat": 0.0}, {"bike_id": "298343ba0fe32180243f83d3f7423773", "fusion_lon": 0.0, "lon": -76.99479116666667, "name": "298343ba0fe32180243f83d3f7423773", "is_disabled": 0, "rental_uris": {"android": "https://dc.lft.to/lastmile_qr_scan", "ios": "https://dc.lft.to/lastmile_qr_scan"}, "type": "electric_scooter", "lat": 38.86213333333333, "is_reserved": 0, "fusion_lat": 0.0}, {"bike_id": "0f047abd8fe3e5e43196a1ec5ba9070e", "fusion_lon": 0.0, "lon": -77.04448883333333, "name": "0f047abd8fe3e5e43196a1ec5ba9070e", "is_disabled": 0, "rental_uris": {"android": "https://dc.lft.to/lastmile_qr_scan", "ios": "https://dc.lft.to/lastmile_qr_scan"}, "type": "electric_scooter", "lat": 38.9302095, "is_reserved": 0, "fusion_lat": 0.0}, {"bike_id": "2b2d2600e30a08c2b99c01261bb17ba3", "fusion_lon": 0.0, "lon": -76.9993295, "name": "2b2d2600e30a08c2b99c01261bb17ba3", "is_disabled": 0, "rental_uris": {"android": "https://dc.lft.to/lastmile_qr_scan", "ios": "https://dc.lft.to/lastmile_qr_scan"}, "type": "electric_scooter", "lat": 38.89617916666667, "is_reserved": 0, "fusion_lat": 0.0}, {"bike_id": "6dd37d5005de170ee3051fcdf22b580b", "fusion_lon": 0.0, "lon": -76.97723866666666, "name": "6dd37d5005de170ee3051fcdf22b580b", "is_disabled": 0, "rental_uris": {"android": "https://dc.lft.to/lastmile_qr_scan", "ios": "https://dc.lft.to/lastmile_qr_scan"}, "type": "electric_scooter", "lat": 38.89515166666666, "is_reserved": 0, "fusion_lat": 0.0}, {"bike_id": "1416ebb4855f5b8040602d14943c5a72", "fusion_lon": 0.0, "lon": -77.03341083333333, "name": "1416ebb4855f5b8040602d14943c5a72", "is_disabled": 0, "rental_uris": {"android": "https://dc.lft.to/lastmile_qr_scan", "ios": "https://dc.lft.to/lastmile_qr_scan"}, "type": "electric_scooter", "lat": 38.93898883333333, "is_reserved": 0, "fusion_lat": 0.0}, {"bike_id": "98bfb616189bbbe0f76878fd25aa0f08", "fusion_lon": 0.0, "lon": -77.01615633333333, "name": "98bfb616189bbbe0f76878fd25aa0f08", "is_disabled": 0, "rental_uris": {"android": "https://dc.lft.to/lastmile_qr_scan", "ios": "https://dc.lft.to/lastmile_qr_scan"}, "type": "electric_scooter", "lat": 38.8953335, "is_reserved": 0, "fusion_lat": 0.0}, {"bike_id": "5ed4904554c6df34e51afd66b95ccac4", "fusion_lon": 0.0, "lon": -76.97331533333333, "name": "5ed4904554c6df34e51afd66b95ccac4", "is_disabled": 0, "rental_uris": {"android": "https://dc.lft.to/lastmile_qr_scan", "ios": "https://dc.lft.to/lastmile_qr_scan"}, "type": "electric_scooter", "lat": 38.90407416666667, "is_reserved": 0, "fusion_lat": 0.0}, {"bike_id": "fa59f5bad18ba2b051726aa3aa7e4233", "fusion_lon": 0.0, "lon": -77.063374, "name": "fa59f5bad18ba2b051726aa3aa7e4233", "is_disabled": 0, "rental_uris": {"android": "https://dc.lft.to/lastmile_qr_scan", "ios": "https://dc.lft.to/lastmile_qr_scan"}, "type": "electric_scooter", "lat": 38.906854, "is_reserved": 0, "fusion_lat": 0.0}, {"bike_id": "83d4eec4f4a03c4f3be7139d746f6f97", "fusion_lon": 0.0, "lon": -77.02064183333333, "name": "83d4eec4f4a03c4f3be7139d746f6f97", "is_disabled": 0, "rental_uris": {"android": "https://dc.lft.to/lastmile_qr_scan", "ios": "https://dc.lft.to/lastmile_qr_scan"}, "type": "electric_scooter", "lat": 38.8757295, "is_reserved": 0, "fusion_lat": 0.0}, {"bike_id": "ef4f0e5ee68a8cee9f69754fb31a7550", "fusion_lon": 0.0, "lon": -77.00663866666666, "name": "ef4f0e5ee68a8cee9f69754fb31a7550", "is_disabled": 0, "rental_uris": {"android": "https://dc.lft.to/lastmile_qr_scan", "ios": "https://dc.lft.to/lastmile_qr_scan"}, "type": "electric_scooter", "lat": 38.87682983333333, "is_reserved": 0, "fusion_lat": 0.0}, {"bike_id": "ff9cc2b0efa039edb8d7098d9601181a", "fusion_lon": 0.0, "lon": -77.03357533333333, "name": "ff9cc2b0efa039edb8d7098d9601181a", "is_disabled": 0, "rental_uris": {"android": "https://dc.lft.to/lastmile_qr_scan", "ios": "https://dc.lft.to/lastmile_qr_scan"}, "type": "electric_scooter", "lat": 38.91356, "is_reserved": 0, "fusion_lat": 0.0}, {"bike_id": "9f12ad1e17fcecbd6b977fb0516beac0", "fusion_lon": 0.0, "lon": -77.023668, "name": "9f12ad1e17fcecbd6b977fb0516beac0", "is_disabled": 0, "rental_uris": {"android": "https://dc.lft.to/lastmile_qr_scan", "ios": "https://dc.lft.to/lastmile_qr_scan"}, "type": "electric_scooter", "lat": 38.91739116666667, "is_reserved": 0, "fusion_lat": 0.0}, {"bike_id": "bbf0ca0b23ff048b0588ef2ab9007af6", "fusion_lon": 0.0, "lon": -76.98941916666666, "name": "bbf0ca0b23ff048b0588ef2ab9007af6", "is_disabled": 0, "rental_uris": {"android": "https://dc.lft.to/lastmile_qr_scan", "ios": "https://dc.lft.to/lastmile_qr_scan"}, "type": "electric_scooter", "lat": 38.90394766666667, "is_reserved": 0, "fusion_lat": 0.0}, {"bike_id": "4dfdc39be3cf1cf3a9c805ab0cb8cd16", "fusion_lon": 0.0, "lon": -77.04881116666667, "name": "4dfdc39be3cf1cf3a9c805ab0cb8cd16", "is_disabled": 0, "rental_uris": {"android": "https://dc.lft.to/lastmile_qr_scan", "ios": "https://dc.lft.to/lastmile_qr_scan"}, "type": "electric_scooter", "lat": 38.913417, "is_reserved": 0, "fusion_lat": 0.0}, {"bike_id": "ef7300a4fc4a47c4bc93a440213b5629", "fusion_lon": 0.0, "lon": -77.05819483333333, "name": "ef7300a4fc4a47c4bc93a440213b5629", "is_disabled": 0, "rental_uris": {"android": "https://dc.lft.to/lastmile_qr_scan", "ios": "https://dc.lft.to/lastmile_qr_scan"}, "type": "electric_scooter", "lat": 38.90472583333333, "is_reserved": 0, "fusion_lat": 0.0}, {"bike_id": "7f6aa881b655f43fd02492058c4051db", "fusion_lon": 0.0, "lon": -76.99524033333333, "name": "7f6aa881b655f43fd02492058c4051db", "is_disabled": 0, "rental_uris": {"android": "https://dc.lft.to/lastmile_qr_scan", "ios": "https://dc.lft.to/lastmile_qr_scan"}, "type": "electric_scooter", "lat": 38.9206695, "is_reserved": 0, "fusion_lat": 0.0}, {"bike_id": "e645fbfb371d46761b75fff0b7c306df", "fusion_lon": 0.0, "lon": -77.02718683333333, "name": "e645fbfb371d46761b75fff0b7c306df", "is_disabled": 0, "rental_uris": {"android": "https://dc.lft.to/lastmile_qr_scan", "ios": "https://dc.lft.to/lastmile_qr_scan"}, "type": "electric_scooter", "lat": 38.918138166666665, "is_reserved": 0, "fusion_lat": 0.0}, {"bike_id": "5413e6f759e766e5a8bd628dacb35269", "fusion_lon": 0.0, "lon": -77.03037966666666, "name": "5413e6f759e766e5a8bd628dacb35269", "is_disabled": 0, "rental_uris": {"android": "https://dc.lft.to/lastmile_qr_scan", "ios": "https://dc.lft.to/lastmile_qr_scan"}, "type": "electric_scooter", "lat": 38.884314333333336, "is_reserved": 0, "fusion_lat": 0.0}, {"bike_id": "7c0cc178c551d23d9f9bf42262752572", "fusion_lon": 0.0, "lon": -77.09481266666667, "name": "7c0cc178c551d23d9f9bf42262752572", "is_disabled": 0, "rental_uris": {"android": "https://dc.lft.to/lastmile_qr_scan", "ios": "https://dc.lft.to/lastmile_qr_scan"}, "type": "electric_bike", "lat": 39.030513166666665, "is_reserved": 0, "fusion_lat": 0.0}, {"bike_id": "d01b68b813516127fb8654d92e538a15", "fusion_lon": 0.0, "lon": -77.03387916666667, "name": "d01b68b813516127fb8654d92e538a15", "is_disabled": 0, "rental_uris": {"android": "https://dc.lft.to/lastmile_qr_scan", "ios": "https://dc.lft.to/lastmile_qr_scan"}, "type": "electric_scooter", "lat": 38.90982433333333, "is_reserved": 0, "fusion_lat": 0.0}, {"bike_id": "ed4c1dd878f7838f4c715cd74cc84e50", "fusion_lon": 0.0, "lon": -77.02012366666666, "name": "ed4c1dd878f7838f4c715cd74cc84e50", "is_disabled": 0, "rental_uris": {"android": "https://dc.lft.to/lastmile_qr_scan", "ios": "https://dc.lft.to/lastmile_qr_scan"}, "type": "electric_scooter", "lat": 38.8992, "is_reserved": 0, "fusion_lat": 0.0}, {"bike_id": "ea5dea7d020ad504f5e027ae0f413327", "fusion_lon": 0.0, "lon": -77.0180705, "name": "ea5dea7d020ad504f5e027ae0f413327", "is_disabled": 0, "rental_uris": {"android": "https://dc.lft.to/lastmile_qr_scan", "ios": "https://dc.lft.to/lastmile_qr_scan"}, "type": "electric_scooter", "lat": 38.92150083333333, "is_reserved": 0, "fusion_lat": 0.0}, {"bike_id": "cb055b29536d41e3db4658c615fe5331", "fusion_lon": 0.0, "lon": -77.02489816666667, "name": "cb055b29536d41e3db4658c615fe5331", "is_disabled": 0, "rental_uris": {"android": "https://dc.lft.to/lastmile_qr_scan", "ios": "https://dc.lft.to/lastmile_qr_scan"}, "type": "electric_scooter", "lat": 38.94182033333333, "is_reserved": 0, "fusion_lat": 0.0}, {"bike_id": "c7e4fef328750380cec974bfbaead65b", "fusion_lon": 0.0, "lon": -77.03295033333333, "name": "c7e4fef328750380cec974bfbaead65b", "is_disabled": 0, "rental_uris": {"android": "https://dc.lft.to/lastmile_qr_scan", "ios": "https://dc.lft.to/lastmile_qr_scan"}, "type": "electric_scooter", "lat": 38.9471285, "is_reserved": 0, "fusion_lat": 0.0}, {"bike_id": "8c283d73586cb4c53445f05a6fc78e37", "fusion_lon": 0.0, "lon": -77.032051, "name": "8c283d73586cb4c53445f05a6fc78e37", "is_disabled": 0, "rental_uris": {"android": "https://dc.lft.to/lastmile_qr_scan", "ios": "https://dc.lft.to/lastmile_qr_scan"}, "type": "electric_scooter", "lat": 38.89735783333333, "is_reserved": 0, "fusion_lat": 0.0}, {"bike_id": "df70401d9cfd105cdffda41df6701267", "fusion_lon": 0.0, "lon": -77.03325033333333, "name": "df70401d9cfd105cdffda41df6701267", "is_disabled": 0, "rental_uris": {"android": "https://dc.lft.to/lastmile_qr_scan", "ios": "https://dc.lft.to/lastmile_qr_scan"}, "type": "electric_scooter", "lat": 38.913555833333334, "is_reserved": 0, "fusion_lat": 0.0}, {"bike_id": "28cdbfa8871997547fbd5802ad6b5043", "fusion_lon": 0.0, "lon": -77.02717816666667, "name": "28cdbfa8871997547fbd5802ad6b5043", "is_disabled": 0, "rental_uris": {"android": "https://dc.lft.to/lastmile_qr_scan", "ios": "https://dc.lft.to/lastmile_qr_scan"}, "type": "electric_scooter", "lat": 38.917046166666665, "is_reserved": 0, "fusion_lat": 0.0}, {"bike_id": "8e7567b7e7d6b59733b80ad1b45f7c80", "fusion_lon": 0.0, "lon": -77.041856, "name": "8e7567b7e7d6b59733b80ad1b45f7c80", "is_disabled": 0, "rental_uris": {"android": "https://dc.lft.to/lastmile_qr_scan", "ios": "https://dc.lft.to/lastmile_qr_scan"}, "type": "electric_scooter", "lat": 38.892876333333334, "is_reserved": 0, "fusion_lat": 0.0}, {"bike_id": "52d619bc723ff73823b81de20c809143", "fusion_lon": 0.0, "lon": -76.99128283333333, "name": "52d619bc723ff73823b81de20c809143", "is_disabled": 0, "rental_uris": {"android": "https://dc.lft.to/lastmile_qr_scan", "ios": "https://dc.lft.to/lastmile_qr_scan"}, "type": "electric_scooter", "lat": 38.86203866666666, "is_reserved": 0, "fusion_lat": 0.0}, {"bike_id": "c63f3b0c656dc1d763f8c218f2165829", "fusion_lon": 0.0, "lon": -77.0652795, "name": "c63f3b0c656dc1d763f8c218f2165829", "is_disabled": 0, "rental_uris": {"android": "https://dc.lft.to/lastmile_qr_scan", "ios": "https://dc.lft.to/lastmile_qr_scan"}, "type": "electric_scooter", "lat": 38.903143666666665, "is_reserved": 0, "fusion_lat": 0.0}, {"bike_id": "60ace82e2a4a03ce5eae5e18a0a7fb8e", "fusion_lon": 0.0, "lon": -77.0057315, "name": "60ace82e2a4a03ce5eae5e18a0a7fb8e", "is_disabled": 0, "rental_uris": {"android": "https://dc.lft.to/lastmile_qr_scan", "ios": "https://dc.lft.to/lastmile_qr_scan"}, "type": "electric_scooter", "lat": 38.8725055, "is_reserved": 0, "fusion_lat": 0.0}, {"bike_id": "780aeffb2c2440c7f892d186b6ea38ea", "fusion_lon": 0.0, "lon": -77.04095233333334, "name": "780aeffb2c2440c7f892d186b6ea38ea", "is_disabled": 0, "rental_uris": {"android": "https://dc.lft.to/lastmile_qr_scan", "ios": "https://dc.lft.to/lastmile_qr_scan"}, "type": "electric_scooter", "lat": 38.905776833333334, "is_reserved": 0, "fusion_lat": 0.0}, {"bike_id": "fb4da49fbc7c224bd731167a254ac8fe", "fusion_lon": 0.0, "lon": -77.00360116666667, "name": "fb4da49fbc7c224bd731167a254ac8fe", "is_disabled": 0, "rental_uris": {"android": "https://dc.lft.to/lastmile_qr_scan", "ios": "https://dc.lft.to/lastmile_qr_scan"}, "type": "electric_scooter", "lat": 38.90126883333333, "is_reserved": 0, "fusion_lat": 0.0}, {"bike_id": "db83d01d9ac3ce82c0bc1681e5f34f91", "fusion_lon": 0.0, "lon": -77.04154, "name": "db83d01d9ac3ce82c0bc1681e5f34f91", "is_disabled": 0, "rental_uris": {"android": "https://dc.lft.to/lastmile_qr_scan", "ios": "https://dc.lft.to/lastmile_qr_scan"}, "type": "electric_scooter", "lat": 38.93416083333334, "is_reserved": 0, "fusion_lat": 0.0}, {"bike_id": "07766088dd26dde35cf4108502cf4662", "fusion_lon": 0.0, "lon": -77.0173695, "name": "07766088dd26dde35cf4108502cf4662", "is_disabled": 0, "rental_uris": {"android": "https://dc.lft.to/lastmile_qr_scan", "ios": "https://dc.lft.to/lastmile_qr_scan"}, "type": "electric_scooter", "lat": 38.91115216666667, "is_reserved": 0, "fusion_lat": 0.0}, {"bike_id": "fb982aa17227907c58970b680f98d0ee", "fusion_lon": 0.0, "lon": -77.1124175, "name": "fb982aa17227907c58970b680f98d0ee", "is_disabled": 0, "rental_uris": {"android": "https://dc.lft.to/lastmile_qr_scan", "ios": "https://dc.lft.to/lastmile_qr_scan"}, "type": "electric_bike", "lat": 38.855969, "is_reserved": 0, "fusion_lat": 0.0}, {"bike_id": "1f1f18b48918d9e64b095f8af03edab6", "fusion_lon": 0.0, "lon": -77.0329425, "name": "1f1f18b48918d9e64b095f8af03edab6", "is_disabled": 0, "rental_uris": {"android": "https://dc.lft.to/lastmile_qr_scan", "ios": "https://dc.lft.to/lastmile_qr_scan"}, "type": "electric_scooter", "lat": 38.919834, "is_reserved": 0, "fusion_lat": 0.0}, {"bike_id": "5b859de8ce0773eaba9f37ba76996082", "fusion_lon": 0.0, "lon": -77.03687016666667, "name": "5b859de8ce0773eaba9f37ba76996082", "is_disabled": 0, "rental_uris": {"android": "https://dc.lft.to/lastmile_qr_scan", "ios": "https://dc.lft.to/lastmile_qr_scan"}, "type": "electric_scooter", "lat": 38.916783, "is_reserved": 0, "fusion_lat": 0.0}, {"bike_id": "4e105027c86a4be769cbc741855b487d", "fusion_lon": 0.0, "lon": -77.02354916666667, "name": "4e105027c86a4be769cbc741855b487d", "is_disabled": 0, "rental_uris": {"android": "https://dc.lft.to/lastmile_qr_scan", "ios": "https://dc.lft.to/lastmile_qr_scan"}, "type": "electric_scooter", "lat": 38.898329833333335, "is_reserved": 0, "fusion_lat": 0.0}, {"bike_id": "3172f2a0314d6b35589bed95fdef3172", "fusion_lon": 0.0, "lon": -77.1207515, "name": "3172f2a0314d6b35589bed95fdef3172", "is_disabled": 0, "rental_uris": {"android": "https://dc.lft.to/lastmile_qr_scan", "ios": "https://dc.lft.to/lastmile_qr_scan"}, "type": "electric_bike", "lat": 38.85421783333334, "is_reserved": 0, "fusion_lat": 0.0}, {"bike_id": "b33d886efed033f12364f655d8ac7e9c", "fusion_lon": 0.0, "lon": -77.0539605, "name": "b33d886efed033f12364f655d8ac7e9c", "is_disabled": 0, "rental_uris": {"android": "https://dc.lft.to/lastmile_qr_scan", "ios": "https://dc.lft.to/lastmile_qr_scan"}, "type": "electric_scooter", "lat": 38.92809183333333, "is_reserved": 0, "fusion_lat": 0.0}, {"bike_id": "7cda511cb175b55b5c1f6850c43bc4e9", "fusion_lon": 0.0, "lon": -77.03277666666666, "name": "7cda511cb175b55b5c1f6850c43bc4e9", "is_disabled": 0, "rental_uris": {"android": "https://dc.lft.to/lastmile_qr_scan", "ios": "https://dc.lft.to/lastmile_qr_scan"}, "type": "electric_scooter", "lat": 38.93205666666667, "is_reserved": 0, "fusion_lat": 0.0}, {"bike_id": "f82be59e7ebf818132cd617d375e3d26", "fusion_lon": 0.0, "lon": -76.97946366666666, "name": "f82be59e7ebf818132cd617d375e3d26", "is_disabled": 0, "rental_uris": {"android": "https://dc.lft.to/lastmile_qr_scan", "ios": "https://dc.lft.to/lastmile_qr_scan"}, "type": "electric_scooter", "lat": 38.94522583333333, "is_reserved": 0, "fusion_lat": 0.0}, {"bike_id": "d98d5288d2a6d664e1c004d6c0429715", "fusion_lon": 0.0, "lon": -77.0266, "name": "d98d5288d2a6d664e1c004d6c0429715", "is_disabled": 0, "rental_uris": {"android": "https://dc.lft.to/lastmile_qr_scan", "ios": "https://dc.lft.to/lastmile_qr_scan"}, "type": "electric_scooter", "lat": 38.92216416666667, "is_reserved": 0, "fusion_lat": 0.0}, {"bike_id": "e9c345c4a78a2bf2fe55c8196f6fe14d", "fusion_lon": 0.0, "lon": -77.09955966666666, "name": "e9c345c4a78a2bf2fe55c8196f6fe14d", "is_disabled": 0, "rental_uris": {"android": "https://dc.lft.to/lastmile_qr_scan", "ios": "https://dc.lft.to/lastmile_qr_scan"}, "type": "electric_bike", "lat": 38.85790566666667, "is_reserved": 0, "fusion_lat": 0.0}, {"bike_id": "dbcfa5ba7ee75d6dc05d8c1793474f8c", "fusion_lon": 0.0, "lon": -77.03591816666666, "name": "dbcfa5ba7ee75d6dc05d8c1793474f8c", "is_disabled": 0, "rental_uris": {"android": "https://dc.lft.to/lastmile_qr_scan", "ios": "https://dc.lft.to/lastmile_qr_scan"}, "type": "electric_scooter", "lat": 38.912830666666665, "is_reserved": 0, "fusion_lat": 0.0}, {"bike_id": "1475d2cbaf2cde94708c29d22c5b6f12", "fusion_lon": 0.0, "lon": -77.04033666666666, "name": "1475d2cbaf2cde94708c29d22c5b6f12", "is_disabled": 0, "rental_uris": {"android": "https://dc.lft.to/lastmile_qr_scan", "ios": "https://dc.lft.to/lastmile_qr_scan"}, "type": "electric_scooter", "lat": 38.9186235, "is_reserved": 0, "fusion_lat": 0.0}, {"bike_id": "e7791cbed5ee442fe5066b93d9cc82d4", "fusion_lon": 0.0, "lon": -77.035191, "name": "e7791cbed5ee442fe5066b93d9cc82d4", "is_disabled": 0, "rental_uris": {"android": "https://dc.lft.to/lastmile_qr_scan", "ios": "https://dc.lft.to/lastmile_qr_scan"}, "type": "electric_scooter", "lat": 38.935966, "is_reserved": 0, "fusion_lat": 0.0}, {"bike_id": "cf0869ae21339cd15023f9b7e41a4ad7", "fusion_lon": 0.0, "lon": -77.09801333333333, "name": "cf0869ae21339cd15023f9b7e41a4ad7", "is_disabled": 0, "rental_uris": {"android": "https://dc.lft.to/lastmile_qr_scan", "ios": "https://dc.lft.to/lastmile_qr_scan"}, "type": "electric_bike", "lat": 38.850242, "is_reserved": 0, "fusion_lat": 0.0}, {"bike_id": "a6fb7ffb61f405b57855c78cf05b714d", "fusion_lon": 0.0, "lon": -77.03534383333333, "name": "a6fb7ffb61f405b57855c78cf05b714d", "is_disabled": 0, "rental_uris": {"android": "https://dc.lft.to/lastmile_qr_scan", "ios": "https://dc.lft.to/lastmile_qr_scan"}, "type": "electric_scooter", "lat": 38.922835166666665, "is_reserved": 0, "fusion_lat": 0.0}, {"bike_id": "5d8e52ee9c1a3eb1d94ec2a57e70b11c", "fusion_lon": 0.0, "lon": -77.024734, "name": "5d8e52ee9c1a3eb1d94ec2a57e70b11c", "is_disabled": 0, "rental_uris": {"android": "https://dc.lft.to/lastmile_qr_scan", "ios": "https://dc.lft.to/lastmile_qr_scan"}, "type": "electric_scooter", "lat": 38.909693, "is_reserved": 0, "fusion_lat": 0.0}, {"bike_id": "a566058b50c0bab08010e3d0eaba1ff4", "fusion_lon": 0.0, "lon": -77.04802833333333, "name": "a566058b50c0bab08010e3d0eaba1ff4", "is_disabled": 0, "rental_uris": {"android": "https://dc.lft.to/lastmile_qr_scan", "ios": "https://dc.lft.to/lastmile_qr_scan"}, "type": "electric_scooter", "lat": 38.90216016666667, "is_reserved": 0, "fusion_lat": 0.0}, {"bike_id": "0d5b249f35a4668980c7ddb2f50df417", "fusion_lon": 0.0, "lon": -76.928654, "name": "0d5b249f35a4668980c7ddb2f50df417", "is_disabled": 0, "rental_uris": {"android": "https://dc.lft.to/lastmile_qr_scan", "ios": "https://dc.lft.to/lastmile_qr_scan"}, "type": "electric_scooter", "lat": 38.885188166666666, "is_reserved": 0, "fusion_lat": 0.0}, {"bike_id": "5bb1d1aa7043e2b9511ac18282aba468", "fusion_lon": 0.0, "lon": -77.0206565, "name": "5bb1d1aa7043e2b9511ac18282aba468", "is_disabled": 0, "rental_uris": {"android": "https://dc.lft.to/lastmile_qr_scan", "ios": "https://dc.lft.to/lastmile_qr_scan"}, "type": "electric_bike", "lat": 38.96442916666667, "is_reserved": 0, "fusion_lat": 0.0}, {"bike_id": "0cb1a4647725157d2f32b2013edadb74", "fusion_lon": 0.0, "lon": -77.02970466666666, "name": "0cb1a4647725157d2f32b2013edadb74", "is_disabled": 0, "rental_uris": {"android": "https://dc.lft.to/lastmile_qr_scan", "ios": "https://dc.lft.to/lastmile_qr_scan"}, "type": "electric_scooter", "lat": 38.91682083333333, "is_reserved": 0, "fusion_lat": 0.0}, {"bike_id": "a3bffece16b9ba13b51949fb32d44dcc", "fusion_lon": 0.0, "lon": -77.01740683333334, "name": "a3bffece16b9ba13b51949fb32d44dcc", "is_disabled": 0, "rental_uris": {"android": "https://dc.lft.to/lastmile_qr_scan", "ios": "https://dc.lft.to/lastmile_qr_scan"}, "type": "electric_scooter", "lat": 38.877731, "is_reserved": 0, "fusion_lat": 0.0}, {"bike_id": "9b717aa78657d4e051ebd2c7ef4acfc5", "fusion_lon": 0.0, "lon": -77.02207233333333, "name": "9b717aa78657d4e051ebd2c7ef4acfc5", "is_disabled": 0, "rental_uris": {"android": "https://dc.lft.to/lastmile_qr_scan", "ios": "https://dc.lft.to/lastmile_qr_scan"}, "type": "electric_scooter", "lat": 38.91554466666667, "is_reserved": 0, "fusion_lat": 0.0}, {"bike_id": "6620727fec247ac279f01a986c485d09", "fusion_lon": 0.0, "lon": -76.9955445, "name": "6620727fec247ac279f01a986c485d09", "is_disabled": 0, "rental_uris": {"android": "https://dc.lft.to/lastmile_qr_scan", "ios": "https://dc.lft.to/lastmile_qr_scan"}, "type": "electric_scooter", "lat": 38.926662666666665, "is_reserved": 0, "fusion_lat": 0.0}, {"bike_id": "1c7544880144de3ac6a92aa024ab668e", "fusion_lon": 0.0, "lon": -77.02903383333333, "name": "1c7544880144de3ac6a92aa024ab668e", "is_disabled": 0, "rental_uris": {"android": "https://dc.lft.to/lastmile_qr_scan", "ios": "https://dc.lft.to/lastmile_qr_scan"}, "type": "electric_scooter", "lat": 38.928154, "is_reserved": 0, "fusion_lat": 0.0}, {"bike_id": "c6f43126e78beb97a2b10b7b5ef711af", "fusion_lon": 0.0, "lon": -77.01869933333333, "name": "c6f43126e78beb97a2b10b7b5ef711af", "is_disabled": 0, "rental_uris": {"android": "https://dc.lft.to/lastmile_qr_scan", "ios": "https://dc.lft.to/lastmile_qr_scan"}, "type": "electric_scooter", "lat": 38.9314255, "is_reserved": 0, "fusion_lat": 0.0}, {"bike_id": "ea6f26f3decb891122ee3c669a81ff7e", "fusion_lon": 0.0, "lon": -77.010111, "name": "ea6f26f3decb891122ee3c669a81ff7e", "is_disabled": 0, "rental_uris": {"android": "https://dc.lft.to/lastmile_qr_scan", "ios": "https://dc.lft.to/lastmile_qr_scan"}, "type": "electric_scooter", "lat": 38.8669725, "is_reserved": 0, "fusion_lat": 0.0}, {"bike_id": "5c6362d4d39659ad5078463a69dcfc93", "fusion_lon": 0.0, "lon": -77.03181633333334, "name": "5c6362d4d39659ad5078463a69dcfc93", "is_disabled": 0, "rental_uris": {"android": "https://dc.lft.to/lastmile_qr_scan", "ios": "https://dc.lft.to/lastmile_qr_scan"}, "type": "electric_scooter", "lat": 38.91736566666667, "is_reserved": 0, "fusion_lat": 0.0}, {"bike_id": "b7987e71c5bba6fd0eb36ee35f9831a7", "fusion_lon": 0.0, "lon": -77.01855733333333, "name": "b7987e71c5bba6fd0eb36ee35f9831a7", "is_disabled": 0, "rental_uris": {"android": "https://dc.lft.to/lastmile_qr_scan", "ios": "https://dc.lft.to/lastmile_qr_scan"}, "type": "electric_scooter", "lat": 38.9736775, "is_reserved": 0, "fusion_lat": 0.0}, {"bike_id": "bee7374850b8724b4a9320532a10a3d6", "fusion_lon": 0.0, "lon": -77.01917616666667, "name": "bee7374850b8724b4a9320532a10a3d6", "is_disabled": 0, "rental_uris": {"android": "https://dc.lft.to/lastmile_qr_scan", "ios": "https://dc.lft.to/lastmile_qr_scan"}, "type": "electric_scooter", "lat": 38.901309, "is_reserved": 0, "fusion_lat": 0.0}, {"bike_id": "06c00bb76ae52f87c17edff4e2a3fde6", "fusion_lon": 0.0, "lon": -77.03224633333333, "name": "06c00bb76ae52f87c17edff4e2a3fde6", "is_disabled": 0, "rental_uris": {"android": "https://dc.lft.to/lastmile_qr_scan", "ios": "https://dc.lft.to/lastmile_qr_scan"}, "type": "electric_scooter", "lat": 38.908665666666664, "is_reserved": 0, "fusion_lat": 0.0}, {"bike_id": "b65192e9e6caf20b9f60592cac0e37a7", "fusion_lon": 0.0, "lon": -77.036896, "name": "b65192e9e6caf20b9f60592cac0e37a7", "is_disabled": 0, "rental_uris": {"android": "https://dc.lft.to/lastmile_qr_scan", "ios": "https://dc.lft.to/lastmile_qr_scan"}, "type": "electric_scooter", "lat": 38.91676666666667, "is_reserved": 0, "fusion_lat": 0.0}, {"bike_id": "f5cdb0349dcdadf4730550225b03ae86", "fusion_lon": 0.0, "lon": -77.0092625, "name": "f5cdb0349dcdadf4730550225b03ae86", "is_disabled": 0, "rental_uris": {"android": "https://dc.lft.to/lastmile_qr_scan", "ios": "https://dc.lft.to/lastmile_qr_scan"}, "type": "electric_scooter", "lat": 38.897309666666665, "is_reserved": 0, "fusion_lat": 0.0}, {"bike_id": "0d2909403f17c7c8dda7a7d67a580b02", "fusion_lon": 0.0, "lon": -77.017768, "name": "0d2909403f17c7c8dda7a7d67a580b02", "is_disabled": 0, "rental_uris": {"android": "https://dc.lft.to/lastmile_qr_scan", "ios": "https://dc.lft.to/lastmile_qr_scan"}, "type": "electric_scooter", "lat": 38.90780633333333, "is_reserved": 0, "fusion_lat": 0.0}, {"bike_id": "21a9bb48cc6e71818987df540d0de76f", "fusion_lon": 0.0, "lon": -77.02195316666666, "name": "21a9bb48cc6e71818987df540d0de76f", "is_disabled": 0, "rental_uris": {"android": "https://dc.lft.to/lastmile_qr_scan", "ios": "https://dc.lft.to/lastmile_qr_scan"}, "type": "electric_scooter", "lat": 38.93295066666667, "is_reserved": 0, "fusion_lat": 0.0}, {"bike_id": "8747f3e23bfc1dbc1eb2797c1af50a79", "fusion_lon": 0.0, "lon": -77.01815216666667, "name": "8747f3e23bfc1dbc1eb2797c1af50a79", "is_disabled": 0, "rental_uris": {"android": "https://dc.lft.to/lastmile_qr_scan", "ios": "https://dc.lft.to/lastmile_qr_scan"}, "type": "electric_scooter", "lat": 38.91111083333333, "is_reserved": 0, "fusion_lat": 0.0}, {"bike_id": "44b04405a60e6021fcb86823ac2804e4", "fusion_lon": 0.0, "lon": -77.02318333333334, "name": "44b04405a60e6021fcb86823ac2804e4", "is_disabled": 0, "rental_uris": {"android": "https://dc.lft.to/lastmile_qr_scan", "ios": "https://dc.lft.to/lastmile_qr_scan"}, "type": "electric_scooter", "lat": 38.918395833333335, "is_reserved": 0, "fusion_lat": 0.0}, {"bike_id": "ddd81d0da9836068649bc40f0f4f84bd", "fusion_lon": 0.0, "lon": -77.02573833333334, "name": "ddd81d0da9836068649bc40f0f4f84bd", "is_disabled": 0, "rental_uris": {"android": "https://dc.lft.to/lastmile_qr_scan", "ios": "https://dc.lft.to/lastmile_qr_scan"}, "type": "electric_scooter", "lat": 38.9171075, "is_reserved": 0, "fusion_lat": 0.0}, {"bike_id": "e788ca003d2ee51975b728ccfefea233", "fusion_lon": 0.0, "lon": -77.0439715, "name": "e788ca003d2ee51975b728ccfefea233", "is_disabled": 0, "rental_uris": {"android": "https://dc.lft.to/lastmile_qr_scan", "ios": "https://dc.lft.to/lastmile_qr_scan"}, "type": "electric_scooter", "lat": 38.92067183333333, "is_reserved": 0, "fusion_lat": 0.0}, {"bike_id": "011a84d74150f6a3fd46939b1cc284c7", "fusion_lon": 0.0, "lon": -77.02355433333334, "name": "011a84d74150f6a3fd46939b1cc284c7", "is_disabled": 0, "rental_uris": {"android": "https://dc.lft.to/lastmile_qr_scan", "ios": "https://dc.lft.to/lastmile_qr_scan"}, "type": "electric_scooter", "lat": 38.93081016666667, "is_reserved": 0, "fusion_lat": 0.0}, {"bike_id": "239e7b8a746d5308efab624f631467e9", "fusion_lon": 0.0, "lon": -76.94941916666667, "name": "239e7b8a746d5308efab624f631467e9", "is_disabled": 0, "rental_uris": {"android": "https://dc.lft.to/lastmile_qr_scan", "ios": "https://dc.lft.to/lastmile_qr_scan"}, "type": "electric_scooter", "lat": 38.893471, "is_reserved": 0, "fusion_lat": 0.0}, {"bike_id": "94ec5a7ffc4cf01b86fcffc89552597f", "fusion_lon": 0.0, "lon": -77.08186483333333, "name": "94ec5a7ffc4cf01b86fcffc89552597f", "is_disabled": 0, "rental_uris": {"android": "https://dc.lft.to/lastmile_qr_scan", "ios": "https://dc.lft.to/lastmile_qr_scan"}, "type": "electric_bike", "lat": 38.8556145, "is_reserved": 0, "fusion_lat": 0.0}, {"bike_id": "1f6118035c490199bafb9d682b18ded0", "fusion_lon": 0.0, "lon": -76.989771, "name": "1f6118035c490199bafb9d682b18ded0", "is_disabled": 0, "rental_uris": {"android": "https://dc.lft.to/lastmile_qr_scan", "ios": "https://dc.lft.to/lastmile_qr_scan"}, "type": "electric_scooter", "lat": 38.864937, "is_reserved": 0, "fusion_lat": 0.0}, {"bike_id": "538bd75e8b156084f7592dc3de7fd3cc", "fusion_lon": 0.0, "lon": -77.05608366666667, "name": "538bd75e8b156084f7592dc3de7fd3cc", "is_disabled": 0, "rental_uris": {"android": "https://dc.lft.to/lastmile_qr_scan", "ios": "https://dc.lft.to/lastmile_qr_scan"}, "type": "electric_scooter", "lat": 38.93165183333333, "is_reserved": 0, "fusion_lat": 0.0}, {"bike_id": "852c95261a2473907c90b1d8ba42046d", "fusion_lon": 0.0, "lon": -77.0161, "name": "852c95261a2473907c90b1d8ba42046d", "is_disabled": 0, "rental_uris": {"android": "https://dc.lft.to/lastmile_qr_scan", "ios": "https://dc.lft.to/lastmile_qr_scan"}, "type": "electric_scooter", "lat": 38.895078, "is_reserved": 0, "fusion_lat": 0.0}, {"bike_id": "0036889dc66249219935070c2061d315", "fusion_lon": 0.0, "lon": -77.0640775, "name": "0036889dc66249219935070c2061d315", "is_disabled": 0, "rental_uris": {"android": "https://dc.lft.to/lastmile_qr_scan", "ios": "https://dc.lft.to/lastmile_qr_scan"}, "type": "electric_scooter", "lat": 38.913716, "is_reserved": 0, "fusion_lat": 0.0}, {"bike_id": "328a9fcf54615826464d5c6a21443907", "fusion_lon": 0.0, "lon": -77.02172783333333, "name": "328a9fcf54615826464d5c6a21443907", "is_disabled": 0, "rental_uris": {"android": "https://dc.lft.to/lastmile_qr_scan", "ios": "https://dc.lft.to/lastmile_qr_scan"}, "type": "electric_scooter", "lat": 38.924979, "is_reserved": 0, "fusion_lat": 0.0}, {"bike_id": "71a2ee4367b0f674a794d062734e7938", "fusion_lon": 0.0, "lon": -76.99949066666667, "name": "71a2ee4367b0f674a794d062734e7938", "is_disabled": 0, "rental_uris": {"android": "https://dc.lft.to/lastmile_qr_scan", "ios": "https://dc.lft.to/lastmile_qr_scan"}, "type": "electric_scooter", "lat": 38.842906666666664, "is_reserved": 0, "fusion_lat": 0.0}, {"bike_id": "68d25e4d4c892bf1a807c8f1a530fbe5", "fusion_lon": 0.0, "lon": -77.03213416666667, "name": "68d25e4d4c892bf1a807c8f1a530fbe5", "is_disabled": 0, "rental_uris": {"android": "https://dc.lft.to/lastmile_qr_scan", "ios": "https://dc.lft.to/lastmile_qr_scan"}, "type": "electric_scooter", "lat": 38.9072895, "is_reserved": 0, "fusion_lat": 0.0}, {"bike_id": "b67e1cf1e9adadf11a754c6e5b886834", "fusion_lon": 0.0, "lon": -77.00869116666667, "name": "b67e1cf1e9adadf11a754c6e5b886834", "is_disabled": 0, "rental_uris": {"android": "https://dc.lft.to/lastmile_qr_scan", "ios": "https://dc.lft.to/lastmile_qr_scan"}, "type": "electric_scooter", "lat": 38.879489666666665, "is_reserved": 0, "fusion_lat": 0.0}, {"bike_id": "d4dab0e84721edf94c3343dfa64f10e8", "fusion_lon": 0.0, "lon": -77.02721633333333, "name": "d4dab0e84721edf94c3343dfa64f10e8", "is_disabled": 0, "rental_uris": {"android": "https://dc.lft.to/lastmile_qr_scan", "ios": "https://dc.lft.to/lastmile_qr_scan"}, "type": "electric_scooter", "lat": 38.94957216666667, "is_reserved": 0, "fusion_lat": 0.0}, {"bike_id": "3b907d0efe98c83d3b006e01377fa799", "fusion_lon": 0.0, "lon": -77.04386783333334, "name": "3b907d0efe98c83d3b006e01377fa799", "is_disabled": 0, "rental_uris": {"android": "https://dc.lft.to/lastmile_qr_scan", "ios": "https://dc.lft.to/lastmile_qr_scan"}, "type": "electric_scooter", "lat": 38.916559666666664, "is_reserved": 0, "fusion_lat": 0.0}, {"bike_id": "39c63603191863d02d53ee830d5ec674", "fusion_lon": 0.0, "lon": -77.03065183333334, "name": "39c63603191863d02d53ee830d5ec674", "is_disabled": 0, "rental_uris": {"android": "https://dc.lft.to/lastmile_qr_scan", "ios": "https://dc.lft.to/lastmile_qr_scan"}, "type": "electric_scooter", "lat": 38.91742766666667, "is_reserved": 0, "fusion_lat": 0.0}, {"bike_id": "5121a6f0b728c3a34364624620b40ef8", "fusion_lon": 0.0, "lon": -77.038519, "name": "5121a6f0b728c3a34364624620b40ef8", "is_disabled": 0, "rental_uris": {"android": "https://dc.lft.to/lastmile_qr_scan", "ios": "https://dc.lft.to/lastmile_qr_scan"}, "type": "electric_scooter", "lat": 38.916148166666666, "is_reserved": 0, "fusion_lat": 0.0}, {"bike_id": "2464c16a6102c31c625d1ba2b256035b", "fusion_lon": 0.0, "lon": -77.0385375, "name": "2464c16a6102c31c625d1ba2b256035b", "is_disabled": 0, "rental_uris": {"android": "https://dc.lft.to/lastmile_qr_scan", "ios": "https://dc.lft.to/lastmile_qr_scan"}, "type": "electric_scooter", "lat": 38.91091083333333, "is_reserved": 0, "fusion_lat": 0.0}, {"bike_id": "a9eb43aa5dc069a47eda76fb51a7415c", "fusion_lon": 0.0, "lon": -77.04155266666666, "name": "a9eb43aa5dc069a47eda76fb51a7415c", "is_disabled": 0, "rental_uris": {"android": "https://dc.lft.to/lastmile_qr_scan", "ios": "https://dc.lft.to/lastmile_qr_scan"}, "type": "electric_scooter", "lat": 38.91647783333333, "is_reserved": 0, "fusion_lat": 0.0}, {"bike_id": "e1d3f8f26cd875a97460f9613dcdf69d", "fusion_lon": 0.0, "lon": -77.02198416666667, "name": "e1d3f8f26cd875a97460f9613dcdf69d", "is_disabled": 0, "rental_uris": {"android": "https://dc.lft.to/lastmile_qr_scan", "ios": "https://dc.lft.to/lastmile_qr_scan"}, "type": "electric_scooter", "lat": 38.89748216666667, "is_reserved": 0, "fusion_lat": 0.0}, {"bike_id": "7957a173ef49c0c55e248e8f9fad5ac0", "fusion_lon": 0.0, "lon": -77.0279075, "name": "7957a173ef49c0c55e248e8f9fad5ac0", "is_disabled": 0, "rental_uris": {"android": "https://dc.lft.to/lastmile_qr_scan", "ios": "https://dc.lft.to/lastmile_qr_scan"}, "type": "electric_scooter", "lat": 38.93081266666667, "is_reserved": 0, "fusion_lat": 0.0}, {"bike_id": "87d46de282856682571a2f599842dd15", "fusion_lon": 0.0, "lon": -77.02957566666667, "name": "87d46de282856682571a2f599842dd15", "is_disabled": 0, "rental_uris": {"android": "https://dc.lft.to/lastmile_qr_scan", "ios": "https://dc.lft.to/lastmile_qr_scan"}, "type": "electric_scooter", "lat": 38.896236333333334, "is_reserved": 0, "fusion_lat": 0.0}, {"bike_id": "b6962e37d5703fcdc6fefb18d460a5f6", "fusion_lon": 0.0, "lon": -77.03468833333334, "name": "b6962e37d5703fcdc6fefb18d460a5f6", "is_disabled": 0, "rental_uris": {"android": "https://dc.lft.to/lastmile_qr_scan", "ios": "https://dc.lft.to/lastmile_qr_scan"}, "type": "electric_scooter", "lat": 38.92044933333333, "is_reserved": 0, "fusion_lat": 0.0}, {"bike_id": "86ec9ef26159d9169d5bb6752ac537f5", "fusion_lon": 0.0, "lon": -77.0313715, "name": "86ec9ef26159d9169d5bb6752ac537f5", "is_disabled": 0, "rental_uris": {"android": "https://dc.lft.to/lastmile_qr_scan", "ios": "https://dc.lft.to/lastmile_qr_scan"}, "type": "electric_scooter", "lat": 38.91821066666667, "is_reserved": 0, "fusion_lat": 0.0}, {"bike_id": "bfb211241e095927fed6d937e4b201fb", "fusion_lon": 0.0, "lon": -76.94875166666667, "name": "bfb211241e095927fed6d937e4b201fb", "is_disabled": 0, "rental_uris": {"android": "https://dc.lft.to/lastmile_qr_scan", "ios": "https://dc.lft.to/lastmile_qr_scan"}, "type": "electric_scooter", "lat": 38.89501383333333, "is_reserved": 0, "fusion_lat": 0.0}, {"bike_id": "0d1a123dbba5d12aace6f4d64fcfcdb7", "fusion_lon": 0.0, "lon": -76.98886016666667, "name": "0d1a123dbba5d12aace6f4d64fcfcdb7", "is_disabled": 0, "rental_uris": {"android": "https://dc.lft.to/lastmile_qr_scan", "ios": "https://dc.lft.to/lastmile_qr_scan"}, "type": "electric_scooter", "lat": 38.8665565, "is_reserved": 0, "fusion_lat": 0.0}, {"bike_id": "b2b2a448a2deaf640793cb87f47165b5", "fusion_lon": 0.0, "lon": -77.0260415, "name": "b2b2a448a2deaf640793cb87f47165b5", "is_disabled": 0, "rental_uris": {"android": "https://dc.lft.to/lastmile_qr_scan", "ios": "https://dc.lft.to/lastmile_qr_scan"}, "type": "electric_scooter", "lat": 38.902399833333334, "is_reserved": 0, "fusion_lat": 0.0}, {"bike_id": "b00969f72898e268d67d2b2d7ebfe614", "fusion_lon": 0.0, "lon": -76.98838216666667, "name": "b00969f72898e268d67d2b2d7ebfe614", "is_disabled": 0, "rental_uris": {"android": "https://dc.lft.to/lastmile_qr_scan", "ios": "https://dc.lft.to/lastmile_qr_scan"}, "type": "electric_scooter", "lat": 38.90035533333333, "is_reserved": 0, "fusion_lat": 0.0}, {"bike_id": "67597356aec037183dc70a40c6fee768", "fusion_lon": 0.0, "lon": -76.999014, "name": "67597356aec037183dc70a40c6fee768", "is_disabled": 0, "rental_uris": {"android": "https://dc.lft.to/lastmile_qr_scan", "ios": "https://dc.lft.to/lastmile_qr_scan"}, "type": "electric_scooter", "lat": 38.89888533333333, "is_reserved": 0, "fusion_lat": 0.0}, {"bike_id": "af959d943a42a5cb8d1690fc9c55b846", "fusion_lon": 0.0, "lon": -77.03206466666667, "name": "af959d943a42a5cb8d1690fc9c55b846", "is_disabled": 0, "rental_uris": {"android": "https://dc.lft.to/lastmile_qr_scan", "ios": "https://dc.lft.to/lastmile_qr_scan"}, "type": "electric_scooter", "lat": 38.91429616666667, "is_reserved": 0, "fusion_lat": 0.0}, {"bike_id": "352410cc7019b5777df95e3b3e2d9ab6", "fusion_lon": 0.0, "lon": -76.98724166666666, "name": "352410cc7019b5777df95e3b3e2d9ab6", "is_disabled": 0, "rental_uris": {"android": "https://dc.lft.to/lastmile_qr_scan", "ios": "https://dc.lft.to/lastmile_qr_scan"}, "type": "electric_scooter", "lat": 38.907019166666664, "is_reserved": 0, "fusion_lat": 0.0}, {"bike_id": "2592526fa0a2612ca0d37f24aa3bc4c7", "fusion_lon": 0.0, "lon": -77.0343155, "name": "2592526fa0a2612ca0d37f24aa3bc4c7", "is_disabled": 0, "rental_uris": {"android": "https://dc.lft.to/lastmile_qr_scan", "ios": "https://dc.lft.to/lastmile_qr_scan"}, "type": "electric_scooter", "lat": 38.91808866666667, "is_reserved": 0, "fusion_lat": 0.0}, {"bike_id": "ff1eb2d710507ff90bc6d7b4458b6c75", "fusion_lon": 0.0, "lon": -77.01316483333333, "name": "ff1eb2d710507ff90bc6d7b4458b6c75", "is_disabled": 0, "rental_uris": {"android": "https://dc.lft.to/lastmile_qr_scan", "ios": "https://dc.lft.to/lastmile_qr_scan"}, "type": "electric_scooter", "lat": 38.90053016666667, "is_reserved": 0, "fusion_lat": 0.0}, {"bike_id": "57a1140e8a51d7b9a75a3dc8fb8f4d71", "fusion_lon": 0.0, "lon": -77.0367455, "name": "57a1140e8a51d7b9a75a3dc8fb8f4d71", "is_disabled": 0, "rental_uris": {"android": "https://dc.lft.to/lastmile_qr_scan", "ios": "https://dc.lft.to/lastmile_qr_scan"}, "type": "electric_scooter", "lat": 38.91710716666667, "is_reserved": 0, "fusion_lat": 0.0}, {"bike_id": "1455d2beb4e4fe0031cb5c0e7095e480", "fusion_lon": 0.0, "lon": -77.02303266666667, "name": "1455d2beb4e4fe0031cb5c0e7095e480", "is_disabled": 0, "rental_uris": {"android": "https://dc.lft.to/lastmile_qr_scan", "ios": "https://dc.lft.to/lastmile_qr_scan"}, "type": "electric_scooter", "lat": 38.927524166666664, "is_reserved": 0, "fusion_lat": 0.0}, {"bike_id": "4c611fc15c2363372486140345a31fcb", "fusion_lon": 0.0, "lon": -77.003625, "name": "4c611fc15c2363372486140345a31fcb", "is_disabled": 0, "rental_uris": {"android": "https://dc.lft.to/lastmile_qr_scan", "ios": "https://dc.lft.to/lastmile_qr_scan"}, "type": "electric_scooter", "lat": 38.882654333333335, "is_reserved": 0, "fusion_lat": 0.0}, {"bike_id": "e8d4fe6373322f54d63f9866b62eb89d", "fusion_lon": 0.0, "lon": -77.027186, "name": "e8d4fe6373322f54d63f9866b62eb89d", "is_disabled": 0, "rental_uris": {"android": "https://dc.lft.to/lastmile_qr_scan", "ios": "https://dc.lft.to/lastmile_qr_scan"}, "type": "electric_scooter", "lat": 38.949570666666666, "is_reserved": 0, "fusion_lat": 0.0}, {"bike_id": "4c1f65281f1fe2a5fc3445e9c3ecfbab", "fusion_lon": 0.0, "lon": -77.05020383333333, "name": "4c1f65281f1fe2a5fc3445e9c3ecfbab", "is_disabled": 0, "rental_uris": {"android": "https://dc.lft.to/lastmile_qr_scan", "ios": "https://dc.lft.to/lastmile_qr_scan"}, "type": "electric_scooter", "lat": 38.90620216666667, "is_reserved": 0, "fusion_lat": 0.0}, {"bike_id": "b680cc06527a0706f4c81d195588d35d", "fusion_lon": 0.0, "lon": -77.0232175, "name": "b680cc06527a0706f4c81d195588d35d", "is_disabled": 0, "rental_uris": {"android": "https://dc.lft.to/lastmile_qr_scan", "ios": "https://dc.lft.to/lastmile_qr_scan"}, "type": "electric_scooter", "lat": 38.929368833333335, "is_reserved": 0, "fusion_lat": 0.0}, {"bike_id": "a178bff75bf70098091244793e709db1", "fusion_lon": 0.0, "lon": -77.02614016666666, "name": "a178bff75bf70098091244793e709db1", "is_disabled": 0, "rental_uris": {"android": "https://dc.lft.to/lastmile_qr_scan", "ios": "https://dc.lft.to/lastmile_qr_scan"}, "type": "electric_scooter", "lat": 38.92808733333333, "is_reserved": 0, "fusion_lat": 0.0}, {"bike_id": "a58285997bc72caea11dfe6a3f916e48", "fusion_lon": 0.0, "lon": -77.03107566666667, "name": "a58285997bc72caea11dfe6a3f916e48", "is_disabled": 0, "rental_uris": {"android": "https://dc.lft.to/lastmile_qr_scan", "ios": "https://dc.lft.to/lastmile_qr_scan"}, "type": "electric_scooter", "lat": 38.946480333333334, "is_reserved": 0, "fusion_lat": 0.0}, {"bike_id": "8d427ee5a0a2877843da79976f58b1dc", "fusion_lon": 0.0, "lon": -77.05150166666667, "name": "8d427ee5a0a2877843da79976f58b1dc", "is_disabled": 0, "rental_uris": {"android": "https://dc.lft.to/lastmile_qr_scan", "ios": "https://dc.lft.to/lastmile_qr_scan"}, "type": "electric_scooter", "lat": 38.90530166666667, "is_reserved": 0, "fusion_lat": 0.0}, {"bike_id": "4d04a6f65bd56f99afc6a536b7469f7b", "fusion_lon": 0.0, "lon": -77.031642, "name": "4d04a6f65bd56f99afc6a536b7469f7b", "is_disabled": 0, "rental_uris": {"android": "https://dc.lft.to/lastmile_qr_scan", "ios": "https://dc.lft.to/lastmile_qr_scan"}, "type": "electric_scooter", "lat": 38.89223233333333, "is_reserved": 0, "fusion_lat": 0.0}, {"bike_id": "6c79b31c6a0ed3c238df304000726a2c", "fusion_lon": 0.0, "lon": -76.995179, "name": "6c79b31c6a0ed3c238df304000726a2c", "is_disabled": 0, "rental_uris": {"android": "https://dc.lft.to/lastmile_qr_scan", "ios": "https://dc.lft.to/lastmile_qr_scan"}, "type": "electric_scooter", "lat": 38.9098105, "is_reserved": 0, "fusion_lat": 0.0}, {"bike_id": "50c94425ac7059be61fbca83a6831699", "fusion_lon": 0.0, "lon": -77.006582, "name": "50c94425ac7059be61fbca83a6831699", "is_disabled": 0, "rental_uris": {"android": "https://dc.lft.to/lastmile_qr_scan", "ios": "https://dc.lft.to/lastmile_qr_scan"}, "type": "electric_scooter", "lat": 38.9446365, "is_reserved": 0, "fusion_lat": 0.0}, {"bike_id": "39fa786189d561150469ea6d3acf57f1", "fusion_lon": 0.0, "lon": -77.11707, "name": "39fa786189d561150469ea6d3acf57f1", "is_disabled": 0, "rental_uris": {"android": "https://dc.lft.to/lastmile_qr_scan", "ios": "https://dc.lft.to/lastmile_qr_scan"}, "type": "electric_bike", "lat": 38.8674395, "is_reserved": 0, "fusion_lat": 0.0}, {"bike_id": "94eb090f01caa86ab62659f32dc7719e", "fusion_lon": 0.0, "lon": -76.94766216666666, "name": "94eb090f01caa86ab62659f32dc7719e", "is_disabled": 0, "rental_uris": {"android": "https://dc.lft.to/lastmile_qr_scan", "ios": "https://dc.lft.to/lastmile_qr_scan"}, "type": "electric_scooter", "lat": 38.89679983333333, "is_reserved": 0, "fusion_lat": 0.0}, {"bike_id": "0f84c4795d8f1f76e045ef18a2e1deee", "fusion_lon": 0.0, "lon": -77.027853, "name": "0f84c4795d8f1f76e045ef18a2e1deee", "is_disabled": 0, "rental_uris": {"android": "https://dc.lft.to/lastmile_qr_scan", "ios": "https://dc.lft.to/lastmile_qr_scan"}, "type": "electric_scooter", "lat": 38.930586, "is_reserved": 0, "fusion_lat": 0.0}, {"bike_id": "1d0999f253b4e36e815e43e8feaf00ee", "fusion_lon": 0.0, "lon": -77.03370983333333, "name": "1d0999f253b4e36e815e43e8feaf00ee", "is_disabled": 0, "rental_uris": {"android": "https://dc.lft.to/lastmile_qr_scan", "ios": "https://dc.lft.to/lastmile_qr_scan"}, "type": "electric_scooter", "lat": 38.932170666666664, "is_reserved": 0, "fusion_lat": 0.0}, {"bike_id": "684c7a86ee2cea98db97b05da6bf9b2b", "fusion_lon": 0.0, "lon": -77.04004916666666, "name": "684c7a86ee2cea98db97b05da6bf9b2b", "is_disabled": 0, "rental_uris": {"android": "https://dc.lft.to/lastmile_qr_scan", "ios": "https://dc.lft.to/lastmile_qr_scan"}, "type": "electric_scooter", "lat": 38.92452483333334, "is_reserved": 0, "fusion_lat": 0.0}, {"bike_id": "24f4d18277cbe686012930257bb995a9", "fusion_lon": 0.0, "lon": -77.02388083333334, "name": "24f4d18277cbe686012930257bb995a9", "is_disabled": 0, "rental_uris": {"android": "https://dc.lft.to/lastmile_qr_scan", "ios": "https://dc.lft.to/lastmile_qr_scan"}, "type": "electric_scooter", "lat": 38.91961, "is_reserved": 0, "fusion_lat": 0.0}, {"bike_id": "3043685149c730fc9dd8653cd17b4742", "fusion_lon": 0.0, "lon": -77.02657666666667, "name": "3043685149c730fc9dd8653cd17b4742", "is_disabled": 0, "rental_uris": {"android": "https://dc.lft.to/lastmile_qr_scan", "ios": "https://dc.lft.to/lastmile_qr_scan"}, "type": "electric_scooter", "lat": 38.8921245, "is_reserved": 0, "fusion_lat": 0.0}, {"bike_id": "31cb723e0afa04655059969be834a501", "fusion_lon": 0.0, "lon": -77.09484916666666, "name": "31cb723e0afa04655059969be834a501", "is_disabled": 0, "rental_uris": {"android": "https://dc.lft.to/lastmile_qr_scan", "ios": "https://dc.lft.to/lastmile_qr_scan"}, "type": "electric_bike", "lat": 39.03048166666667, "is_reserved": 0, "fusion_lat": 0.0}, {"bike_id": "d88d3017cc8051f5403015e20f8ba7b5", "fusion_lon": 0.0, "lon": -77.027435, "name": "d88d3017cc8051f5403015e20f8ba7b5", "is_disabled": 0, "rental_uris": {"android": "https://dc.lft.to/lastmile_qr_scan", "ios": "https://dc.lft.to/lastmile_qr_scan"}, "type": "electric_scooter", "lat": 38.95166283333333, "is_reserved": 0, "fusion_lat": 0.0}, {"bike_id": "2cbef591586f75cc3388025e4c15ce34", "fusion_lon": 0.0, "lon": -77.06074966666667, "name": "2cbef591586f75cc3388025e4c15ce34", "is_disabled": 0, "rental_uris": {"android": "https://dc.lft.to/lastmile_qr_scan", "ios": "https://dc.lft.to/lastmile_qr_scan"}, "type": "electric_bike", "lat": 38.8857925, "is_reserved": 0, "fusion_lat": 0.0}, {"bike_id": "643553547a316967ce0c73f3dd01d8a5", "fusion_lon": 0.0, "lon": -77.014753, "name": "643553547a316967ce0c73f3dd01d8a5", "is_disabled": 0, "rental_uris": {"android": "https://dc.lft.to/lastmile_qr_scan", "ios": "https://dc.lft.to/lastmile_qr_scan"}, "type": "electric_scooter", "lat": 38.87640783333333, "is_reserved": 0, "fusion_lat": 0.0}, {"bike_id": "1aac05cf919f04067d970d735c67395f", "fusion_lon": 0.0, "lon": -77.131018, "name": "1aac05cf919f04067d970d735c67395f", "is_disabled": 0, "rental_uris": {"android": "https://dc.lft.to/lastmile_qr_scan", "ios": "https://dc.lft.to/lastmile_qr_scan"}, "type": "electric_bike", "lat": 39.0243055, "is_reserved": 0, "fusion_lat": 0.0}, {"bike_id": "1267ba69cb41dcdd0fda943d53625b90", "fusion_lon": 0.0, "lon": -77.02706133333334, "name": "1267ba69cb41dcdd0fda943d53625b90", "is_disabled": 0, "rental_uris": {"android": "https://dc.lft.to/lastmile_qr_scan", "ios": "https://dc.lft.to/lastmile_qr_scan"}, "type": "electric_scooter", "lat": 38.90666733333333, "is_reserved": 0, "fusion_lat": 0.0}, {"bike_id": "2348537a535078f00a678ac82ccbeb91", "fusion_lon": 0.0, "lon": -77.03211133333333, "name": "2348537a535078f00a678ac82ccbeb91", "is_disabled": 0, "rental_uris": {"android": "https://dc.lft.to/lastmile_qr_scan", "ios": "https://dc.lft.to/lastmile_qr_scan"}, "type": "electric_scooter", "lat": 38.914697, "is_reserved": 0, "fusion_lat": 0.0}, {"bike_id": "92b5fb67181842b33f6ed006291d6e72", "fusion_lon": 0.0, "lon": -76.990023, "name": "92b5fb67181842b33f6ed006291d6e72", "is_disabled": 0, "rental_uris": {"android": "https://dc.lft.to/lastmile_qr_scan", "ios": "https://dc.lft.to/lastmile_qr_scan"}, "type": "electric_scooter", "lat": 38.924529666666665, "is_reserved": 0, "fusion_lat": 0.0}, {"bike_id": "d5ce58bd2087719b41486a57722bff06", "fusion_lon": 0.0, "lon": -77.072895, "name": "d5ce58bd2087719b41486a57722bff06", "is_disabled": 0, "rental_uris": {"android": "https://dc.lft.to/lastmile_qr_scan", "ios": "https://dc.lft.to/lastmile_qr_scan"}, "type": "electric_scooter", "lat": 38.935278, "is_reserved": 0, "fusion_lat": 0.0}, {"bike_id": "b2c75f69290e58cafc0b3a9112bee502", "fusion_lon": 0.0, "lon": -76.99031633333334, "name": "b2c75f69290e58cafc0b3a9112bee502", "is_disabled": 0, "rental_uris": {"android": "https://dc.lft.to/lastmile_qr_scan", "ios": "https://dc.lft.to/lastmile_qr_scan"}, "type": "electric_scooter", "lat": 38.888741, "is_reserved": 0, "fusion_lat": 0.0}, {"bike_id": "9fcaa9d7d59b9b1da40991e26bac5f32", "fusion_lon": 0.0, "lon": -77.032749, "name": "9fcaa9d7d59b9b1da40991e26bac5f32", "is_disabled": 0, "rental_uris": {"android": "https://dc.lft.to/lastmile_qr_scan", "ios": "https://dc.lft.to/lastmile_qr_scan"}, "type": "electric_scooter", "lat": 38.916204666666665, "is_reserved": 0, "fusion_lat": 0.0}, {"bike_id": "0fbcd7b4e1debd6c02655bd93bdb8cf5", "fusion_lon": 0.0, "lon": -77.026276, "name": "0fbcd7b4e1debd6c02655bd93bdb8cf5", "is_disabled": 0, "rental_uris": {"android": "https://dc.lft.to/lastmile_qr_scan", "ios": "https://dc.lft.to/lastmile_qr_scan"}, "type": "electric_scooter", "lat": 38.9300465, "is_reserved": 0, "fusion_lat": 0.0}, {"bike_id": "02cc8cf34341db091c25b53083f64429", "fusion_lon": 0.0, "lon": -77.01109666666666, "name": "02cc8cf34341db091c25b53083f64429", "is_disabled": 0, "rental_uris": {"android": "https://dc.lft.to/lastmile_qr_scan", "ios": "https://dc.lft.to/lastmile_qr_scan"}, "type": "electric_scooter", "lat": 38.90352266666667, "is_reserved": 0, "fusion_lat": 0.0}, {"bike_id": "e42ad303569961969a3a853b79338431", "fusion_lon": 0.0, "lon": -77.07017316666666, "name": "e42ad303569961969a3a853b79338431", "is_disabled": 0, "rental_uris": {"android": "https://dc.lft.to/lastmile_qr_scan", "ios": "https://dc.lft.to/lastmile_qr_scan"}, "type": "electric_scooter", "lat": 38.9043175, "is_reserved": 0, "fusion_lat": 0.0}, {"bike_id": "252bec219806432b06176843ed43012b", "fusion_lon": 0.0, "lon": -77.04295866666666, "name": "252bec219806432b06176843ed43012b", "is_disabled": 0, "rental_uris": {"android": "https://dc.lft.to/lastmile_qr_scan", "ios": "https://dc.lft.to/lastmile_qr_scan"}, "type": "electric_scooter", "lat": 38.91782716666667, "is_reserved": 0, "fusion_lat": 0.0}, {"bike_id": "ece305ed429d8ef61c42d95a91f2051f", "fusion_lon": 0.0, "lon": -76.975908, "name": "ece305ed429d8ef61c42d95a91f2051f", "is_disabled": 0, "rental_uris": {"android": "https://dc.lft.to/lastmile_qr_scan", "ios": "https://dc.lft.to/lastmile_qr_scan"}, "type": "electric_bike", "lat": 38.840320166666665, "is_reserved": 0, "fusion_lat": 0.0}, {"bike_id": "35d91332fcaeec40df77d1d7505ec214", "fusion_lon": 0.0, "lon": -77.01609316666666, "name": "35d91332fcaeec40df77d1d7505ec214", "is_disabled": 0, "rental_uris": {"android": "https://dc.lft.to/lastmile_qr_scan", "ios": "https://dc.lft.to/lastmile_qr_scan"}, "type": "electric_scooter", "lat": 38.9127225, "is_reserved": 0, "fusion_lat": 0.0}, {"bike_id": "c980951746189755679b6f26811acb4f", "fusion_lon": 0.0, "lon": -76.93045283333333, "name": "c980951746189755679b6f26811acb4f", "is_disabled": 0, "rental_uris": {"android": "https://dc.lft.to/lastmile_qr_scan", "ios": "https://dc.lft.to/lastmile_qr_scan"}, "type": "electric_scooter", "lat": 38.89519216666667, "is_reserved": 0, "fusion_lat": 0.0}, {"bike_id": "678bb5ac0aff3020200a7969ce595fce", "fusion_lon": 0.0, "lon": -77.00566016666667, "name": "678bb5ac0aff3020200a7969ce595fce", "is_disabled": 0, "rental_uris": {"android": "https://dc.lft.to/lastmile_qr_scan", "ios": "https://dc.lft.to/lastmile_qr_scan"}, "type": "electric_scooter", "lat": 38.9054635, "is_reserved": 0, "fusion_lat": 0.0}, {"bike_id": "6a6e7ce99b5eb8c5cada4715af274214", "fusion_lon": 0.0, "lon": -77.039894, "name": "6a6e7ce99b5eb8c5cada4715af274214", "is_disabled": 0, "rental_uris": {"android": "https://dc.lft.to/lastmile_qr_scan", "ios": "https://dc.lft.to/lastmile_qr_scan"}, "type": "electric_scooter", "lat": 38.9258375, "is_reserved": 0, "fusion_lat": 0.0}, {"bike_id": "3b21359efd91a12868764468877ebc94", "fusion_lon": 0.0, "lon": -77.0365065, "name": "3b21359efd91a12868764468877ebc94", "is_disabled": 0, "rental_uris": {"android": "https://dc.lft.to/lastmile_qr_scan", "ios": "https://dc.lft.to/lastmile_qr_scan"}, "type": "electric_scooter", "lat": 38.923381666666664, "is_reserved": 0, "fusion_lat": 0.0}, {"bike_id": "2c010c16bd739627a4eea15f4cbf62a6", "fusion_lon": 0.0, "lon": -77.02969666666667, "name": "2c010c16bd739627a4eea15f4cbf62a6", "is_disabled": 0, "rental_uris": {"android": "https://dc.lft.to/lastmile_qr_scan", "ios": "https://dc.lft.to/lastmile_qr_scan"}, "type": "electric_scooter", "lat": 38.915958, "is_reserved": 0, "fusion_lat": 0.0}, {"bike_id": "38b623fbdee639d34674a572f8a8149b", "fusion_lon": 0.0, "lon": -77.046299, "name": "38b623fbdee639d34674a572f8a8149b", "is_disabled": 0, "rental_uris": {"android": "https://dc.lft.to/lastmile_qr_scan", "ios": "https://dc.lft.to/lastmile_qr_scan"}, "type": "electric_scooter", "lat": 38.91462083333333, "is_reserved": 0, "fusion_lat": 0.0}, {"bike_id": "da224f3d04fc6fad281f905fd3f4e60c", "fusion_lon": 0.0, "lon": -77.02532333333333, "name": "da224f3d04fc6fad281f905fd3f4e60c", "is_disabled": 0, "rental_uris": {"android": "https://dc.lft.to/lastmile_qr_scan", "ios": "https://dc.lft.to/lastmile_qr_scan"}, "type": "electric_scooter", "lat": 38.9096165, "is_reserved": 0, "fusion_lat": 0.0}, {"bike_id": "d5a08c369fca7aad73297f6ab7e09c5c", "fusion_lon": 0.0, "lon": -77.01534583333333, "name": "d5a08c369fca7aad73297f6ab7e09c5c", "is_disabled": 0, "rental_uris": {"android": "https://dc.lft.to/lastmile_qr_scan", "ios": "https://dc.lft.to/lastmile_qr_scan"}, "type": "electric_scooter", "lat": 38.8840545, "is_reserved": 0, "fusion_lat": 0.0}, {"bike_id": "f2be07b5410b219eccc3c61695402768", "fusion_lon": 0.0, "lon": -77.0769655, "name": "f2be07b5410b219eccc3c61695402768", "is_disabled": 0, "rental_uris": {"android": "https://dc.lft.to/lastmile_qr_scan", "ios": "https://dc.lft.to/lastmile_qr_scan"}, "type": "electric_bike", "lat": 38.840912833333334, "is_reserved": 0, "fusion_lat": 0.0}, {"bike_id": "27cd9c4b6ccb5a13b4e474c88e737e33", "fusion_lon": 0.0, "lon": -77.025219, "name": "27cd9c4b6ccb5a13b4e474c88e737e33", "is_disabled": 0, "rental_uris": {"android": "https://dc.lft.to/lastmile_qr_scan", "ios": "https://dc.lft.to/lastmile_qr_scan"}, "type": "electric_scooter", "lat": 38.898275, "is_reserved": 0, "fusion_lat": 0.0}, {"bike_id": "0cb1e76f1fb36b2948e52966c1447950", "fusion_lon": 0.0, "lon": -77.0136965, "name": "0cb1e76f1fb36b2948e52966c1447950", "is_disabled": 0, "rental_uris": {"android": "https://dc.lft.to/lastmile_qr_scan", "ios": "https://dc.lft.to/lastmile_qr_scan"}, "type": "electric_scooter", "lat": 38.887058333333336, "is_reserved": 0, "fusion_lat": 0.0}, {"bike_id": "c4a2649e409211355b69690d6418b8c6", "fusion_lon": 0.0, "lon": -77.007967, "name": "c4a2649e409211355b69690d6418b8c6", "is_disabled": 0, "rental_uris": {"android": "https://dc.lft.to/lastmile_qr_scan", "ios": "https://dc.lft.to/lastmile_qr_scan"}, "type": "electric_bike", "lat": 38.94919183333333, "is_reserved": 0, "fusion_lat": 0.0}, {"bike_id": "436b531f746db1ab7a07862af8953f43", "fusion_lon": 0.0, "lon": -77.04700116666666, "name": "436b531f746db1ab7a07862af8953f43", "is_disabled": 0, "rental_uris": {"android": "https://dc.lft.to/lastmile_qr_scan", "ios": "https://dc.lft.to/lastmile_qr_scan"}, "type": "electric_scooter", "lat": 38.90245633333333, "is_reserved": 0, "fusion_lat": 0.0}, {"bike_id": "9a4c53088a1560473f84445765fbba55", "fusion_lon": 0.0, "lon": -77.0341355, "name": "9a4c53088a1560473f84445765fbba55", "is_disabled": 0, "rental_uris": {"android": "https://dc.lft.to/lastmile_qr_scan", "ios": "https://dc.lft.to/lastmile_qr_scan"}, "type": "electric_scooter", "lat": 38.909534666666666, "is_reserved": 0, "fusion_lat": 0.0}, {"bike_id": "c749454b190de0e472457932939e4b7d", "fusion_lon": 0.0, "lon": -77.031624, "name": "c749454b190de0e472457932939e4b7d", "is_disabled": 0, "rental_uris": {"android": "https://dc.lft.to/lastmile_qr_scan", "ios": "https://dc.lft.to/lastmile_qr_scan"}, "type": "electric_scooter", "lat": 38.89223166666667, "is_reserved": 0, "fusion_lat": 0.0}, {"bike_id": "61cfc95cac8f4eb920f8fc200aaeb2e4", "fusion_lon": 0.0, "lon": -76.99365766666666, "name": "61cfc95cac8f4eb920f8fc200aaeb2e4", "is_disabled": 0, "rental_uris": {"android": "https://dc.lft.to/lastmile_qr_scan", "ios": "https://dc.lft.to/lastmile_qr_scan"}, "type": "electric_scooter", "lat": 38.928341, "is_reserved": 0, "fusion_lat": 0.0}, {"bike_id": "409074ea213cb1b530aa0486c7e0cc10", "fusion_lon": 0.0, "lon": -77.015327, "name": "409074ea213cb1b530aa0486c7e0cc10", "is_disabled": 0, "rental_uris": {"android": "https://dc.lft.to/lastmile_qr_scan", "ios": "https://dc.lft.to/lastmile_qr_scan"}, "type": "electric_scooter", "lat": 38.88740816666667, "is_reserved": 0, "fusion_lat": 0.0}, {"bike_id": "0384509b978f92879062096cc28b544a", "fusion_lon": 0.0, "lon": -77.04129433333334, "name": "0384509b978f92879062096cc28b544a", "is_disabled": 0, "rental_uris": {"android": "https://dc.lft.to/lastmile_qr_scan", "ios": "https://dc.lft.to/lastmile_qr_scan"}, "type": "electric_scooter", "lat": 38.933659666666664, "is_reserved": 0, "fusion_lat": 0.0}, {"bike_id": "c95a78b569d8db80bc241c900217c62f", "fusion_lon": 0.0, "lon": -77.05858566666667, "name": "c95a78b569d8db80bc241c900217c62f", "is_disabled": 0, "rental_uris": {"android": "https://dc.lft.to/lastmile_qr_scan", "ios": "https://dc.lft.to/lastmile_qr_scan"}, "type": "electric_scooter", "lat": 38.936054166666665, "is_reserved": 0, "fusion_lat": 0.0}, {"bike_id": "1aa833e71958e7fe75441db54f3b16d8", "fusion_lon": 0.0, "lon": -77.0345475, "name": "1aa833e71958e7fe75441db54f3b16d8", "is_disabled": 0, "rental_uris": {"android": "https://dc.lft.to/lastmile_qr_scan", "ios": "https://dc.lft.to/lastmile_qr_scan"}, "type": "electric_scooter", "lat": 38.93540016666667, "is_reserved": 0, "fusion_lat": 0.0}, {"bike_id": "d66bfa9bcdc3750d99dcce9211531f58", "fusion_lon": 0.0, "lon": -77.02784483333333, "name": "d66bfa9bcdc3750d99dcce9211531f58", "is_disabled": 0, "rental_uris": {"android": "https://dc.lft.to/lastmile_qr_scan", "ios": "https://dc.lft.to/lastmile_qr_scan"}, "type": "electric_scooter", "lat": 38.895051, "is_reserved": 0, "fusion_lat": 0.0}, {"bike_id": "e5cfc4113cdc07b79e5f793bf8f8c5fb", "fusion_lon": 0.0, "lon": -77.03367833333333, "name": "e5cfc4113cdc07b79e5f793bf8f8c5fb", "is_disabled": 0, "rental_uris": {"android": "https://dc.lft.to/lastmile_qr_scan", "ios": "https://dc.lft.to/lastmile_qr_scan"}, "type": "electric_scooter", "lat": 38.92892116666667, "is_reserved": 0, "fusion_lat": 0.0}, {"bike_id": "996317360de6cf4abcba0194c1cf1e37", "fusion_lon": 0.0, "lon": -77.06519, "name": "996317360de6cf4abcba0194c1cf1e37", "is_disabled": 0, "rental_uris": {"android": "https://dc.lft.to/lastmile_qr_scan", "ios": "https://dc.lft.to/lastmile_qr_scan"}, "type": "electric_scooter", "lat": 38.9058585, "is_reserved": 0, "fusion_lat": 0.0}, {"bike_id": "585b96b4a5e683bcec898252d3488674", "fusion_lon": 0.0, "lon": -77.02373866666667, "name": "585b96b4a5e683bcec898252d3488674", "is_disabled": 0, "rental_uris": {"android": "https://dc.lft.to/lastmile_qr_scan", "ios": "https://dc.lft.to/lastmile_qr_scan"}, "type": "electric_scooter", "lat": 38.91754066666667, "is_reserved": 0, "fusion_lat": 0.0}, {"bike_id": "1b1442fef973cf52eeff0bc6778d2887", "fusion_lon": 0.0, "lon": -77.05089883333333, "name": "1b1442fef973cf52eeff0bc6778d2887", "is_disabled": 0, "rental_uris": {"android": "https://dc.lft.to/lastmile_qr_scan", "ios": "https://dc.lft.to/lastmile_qr_scan"}, "type": "electric_scooter", "lat": 38.9234495, "is_reserved": 0, "fusion_lat": 0.0}, {"bike_id": "a7dd71262d0f7422facd5c13005c9de7", "fusion_lon": 0.0, "lon": -77.02622983333333, "name": "a7dd71262d0f7422facd5c13005c9de7", "is_disabled": 0, "rental_uris": {"android": "https://dc.lft.to/lastmile_qr_scan", "ios": "https://dc.lft.to/lastmile_qr_scan"}, "type": "electric_scooter", "lat": 38.901840166666666, "is_reserved": 0, "fusion_lat": 0.0}, {"bike_id": "de819c3deffbb22f1b911db8565a5fa2", "fusion_lon": 0.0, "lon": -77.04921866666666, "name": "de819c3deffbb22f1b911db8565a5fa2", "is_disabled": 0, "rental_uris": {"android": "https://dc.lft.to/lastmile_qr_scan", "ios": "https://dc.lft.to/lastmile_qr_scan"}, "type": "electric_bike", "lat": 38.81341783333333, "is_reserved": 0, "fusion_lat": 0.0}, {"bike_id": "a8d451275ecdf0b409be7f1af5daed4d", "fusion_lon": 0.0, "lon": -77.02123916666666, "name": "a8d451275ecdf0b409be7f1af5daed4d", "is_disabled": 0, "rental_uris": {"android": "https://dc.lft.to/lastmile_qr_scan", "ios": "https://dc.lft.to/lastmile_qr_scan"}, "type": "electric_scooter", "lat": 38.93575383333334, "is_reserved": 0, "fusion_lat": 0.0}, {"bike_id": "ffb7cc3cd34a60625efb59f669ad47ff", "fusion_lon": 0.0, "lon": -77.02814333333333, "name": "ffb7cc3cd34a60625efb59f669ad47ff", "is_disabled": 0, "rental_uris": {"android": "https://dc.lft.to/lastmile_qr_scan", "ios": "https://dc.lft.to/lastmile_qr_scan"}, "type": "electric_scooter", "lat": 38.9168835, "is_reserved": 0, "fusion_lat": 0.0}, {"bike_id": "db9476b0e4ac44d6ee7fddeaeadb1479", "fusion_lon": 0.0, "lon": -77.00685583333333, "name": "db9476b0e4ac44d6ee7fddeaeadb1479", "is_disabled": 0, "rental_uris": {"android": "https://dc.lft.to/lastmile_qr_scan", "ios": "https://dc.lft.to/lastmile_qr_scan"}, "type": "electric_scooter", "lat": 38.90021766666667, "is_reserved": 0, "fusion_lat": 0.0}, {"bike_id": "951d27e4469a9007699304ace47fb348", "fusion_lon": 0.0, "lon": -77.02539683333333, "name": "951d27e4469a9007699304ace47fb348", "is_disabled": 0, "rental_uris": {"android": "https://dc.lft.to/lastmile_qr_scan", "ios": "https://dc.lft.to/lastmile_qr_scan"}, "type": "electric_scooter", "lat": 38.9411285, "is_reserved": 0, "fusion_lat": 0.0}, {"bike_id": "b5cf09692503a3b0ecfe3d9b2d68cfae", "fusion_lon": 0.0, "lon": -77.04547883333333, "name": "b5cf09692503a3b0ecfe3d9b2d68cfae", "is_disabled": 0, "rental_uris": {"android": "https://dc.lft.to/lastmile_qr_scan", "ios": "https://dc.lft.to/lastmile_qr_scan"}, "type": "electric_scooter", "lat": 38.93410883333333, "is_reserved": 0, "fusion_lat": 0.0}, {"bike_id": "b9fe34161b34ce70a436218455850a52", "fusion_lon": 0.0, "lon": -77.03860783333333, "name": "b9fe34161b34ce70a436218455850a52", "is_disabled": 0, "rental_uris": {"android": "https://dc.lft.to/lastmile_qr_scan", "ios": "https://dc.lft.to/lastmile_qr_scan"}, "type": "electric_scooter", "lat": 38.9181545, "is_reserved": 0, "fusion_lat": 0.0}, {"bike_id": "d90a7957cf7c012df3949373376f9c84", "fusion_lon": 0.0, "lon": -77.04553466666667, "name": "d90a7957cf7c012df3949373376f9c84", "is_disabled": 0, "rental_uris": {"android": "https://dc.lft.to/lastmile_qr_scan", "ios": "https://dc.lft.to/lastmile_qr_scan"}, "type": "electric_scooter", "lat": 38.91401883333333, "is_reserved": 0, "fusion_lat": 0.0}, {"bike_id": "e509e51e18601b9c426648188f1e68f5", "fusion_lon": 0.0, "lon": -77.05860883333334, "name": "e509e51e18601b9c426648188f1e68f5", "is_disabled": 0, "rental_uris": {"android": "https://dc.lft.to/lastmile_qr_scan", "ios": "https://dc.lft.to/lastmile_qr_scan"}, "type": "electric_scooter", "lat": 38.9360645, "is_reserved": 0, "fusion_lat": 0.0}, {"bike_id": "1f0f8b9f128aece0d34eaada2cc55436", "fusion_lon": 0.0, "lon": -77.035121, "name": "1f0f8b9f128aece0d34eaada2cc55436", "is_disabled": 0, "rental_uris": {"android": "https://dc.lft.to/lastmile_qr_scan", "ios": "https://dc.lft.to/lastmile_qr_scan"}, "type": "electric_bike", "lat": 38.96206433333333, "is_reserved": 0, "fusion_lat": 0.0}, {"bike_id": "8b50946be48968bfb6017b1ccc204300", "fusion_lon": 0.0, "lon": -77.01545933333334, "name": "8b50946be48968bfb6017b1ccc204300", "is_disabled": 0, "rental_uris": {"android": "https://dc.lft.to/lastmile_qr_scan", "ios": "https://dc.lft.to/lastmile_qr_scan"}, "type": "electric_scooter", "lat": 38.891340666666665, "is_reserved": 0, "fusion_lat": 0.0}, {"bike_id": "3cc145b61df9e67f53aee03043dba9fd", "fusion_lon": 0.0, "lon": -77.02798016666667, "name": "3cc145b61df9e67f53aee03043dba9fd", "is_disabled": 0, "rental_uris": {"android": "https://dc.lft.to/lastmile_qr_scan", "ios": "https://dc.lft.to/lastmile_qr_scan"}, "type": "electric_scooter", "lat": 38.912263, "is_reserved": 0, "fusion_lat": 0.0}, {"bike_id": "e47eb5c5307c02c1411d2f6e05544a17", "fusion_lon": 0.0, "lon": -77.02806566666666, "name": "e47eb5c5307c02c1411d2f6e05544a17", "is_disabled": 0, "rental_uris": {"android": "https://dc.lft.to/lastmile_qr_scan", "ios": "https://dc.lft.to/lastmile_qr_scan"}, "type": "electric_scooter", "lat": 38.9308495, "is_reserved": 0, "fusion_lat": 0.0}, {"bike_id": "6c196c527c87caa0be6bee4958664512", "fusion_lon": 0.0, "lon": -77.03180716666667, "name": "6c196c527c87caa0be6bee4958664512", "is_disabled": 0, "rental_uris": {"android": "https://dc.lft.to/lastmile_qr_scan", "ios": "https://dc.lft.to/lastmile_qr_scan"}, "type": "electric_scooter", "lat": 38.91638, "is_reserved": 0, "fusion_lat": 0.0}, {"bike_id": "9d1fe23568efee3f56a1aaf219eb977d", "fusion_lon": 0.0, "lon": -76.98578333333333, "name": "9d1fe23568efee3f56a1aaf219eb977d", "is_disabled": 0, "rental_uris": {"android": "https://dc.lft.to/lastmile_qr_scan", "ios": "https://dc.lft.to/lastmile_qr_scan"}, "type": "electric_bike", "lat": 38.91281133333333, "is_reserved": 0, "fusion_lat": 0.0}, {"bike_id": "12170da10d528d2c406f6cc78dd8cc90", "fusion_lon": 0.0, "lon": -77.06634333333334, "name": "12170da10d528d2c406f6cc78dd8cc90", "is_disabled": 0, "rental_uris": {"android": "https://dc.lft.to/lastmile_qr_scan", "ios": "https://dc.lft.to/lastmile_qr_scan"}, "type": "electric_scooter", "lat": 38.92683433333333, "is_reserved": 0, "fusion_lat": 0.0}, {"bike_id": "fd9d9172acbf3afd1bebb86951a7f1c3", "fusion_lon": 0.0, "lon": -77.03313583333333, "name": "fd9d9172acbf3afd1bebb86951a7f1c3", "is_disabled": 0, "rental_uris": {"android": "https://dc.lft.to/lastmile_qr_scan", "ios": "https://dc.lft.to/lastmile_qr_scan"}, "type": "electric_scooter", "lat": 38.91807583333333, "is_reserved": 0, "fusion_lat": 0.0}, {"bike_id": "6f73961841e000a8a88585d43f8097ef", "fusion_lon": 0.0, "lon": -77.03375066666666, "name": "6f73961841e000a8a88585d43f8097ef", "is_disabled": 0, "rental_uris": {"android": "https://dc.lft.to/lastmile_qr_scan", "ios": "https://dc.lft.to/lastmile_qr_scan"}, "type": "electric_scooter", "lat": 38.89996383333333, "is_reserved": 0, "fusion_lat": 0.0}, {"bike_id": "695ef01e1b45654c025daa888727ccef", "fusion_lon": 0.0, "lon": -77.04141783333333, "name": "695ef01e1b45654c025daa888727ccef", "is_disabled": 0, "rental_uris": {"android": "https://dc.lft.to/lastmile_qr_scan", "ios": "https://dc.lft.to/lastmile_qr_scan"}, "type": "electric_scooter", "lat": 38.89352183333333, "is_reserved": 0, "fusion_lat": 0.0}, {"bike_id": "6876e6690742e615e5e16203936a19b2", "fusion_lon": 0.0, "lon": -76.99055666666666, "name": "6876e6690742e615e5e16203936a19b2", "is_disabled": 0, "rental_uris": {"android": "https://dc.lft.to/lastmile_qr_scan", "ios": "https://dc.lft.to/lastmile_qr_scan"}, "type": "electric_scooter", "lat": 38.863686333333334, "is_reserved": 0, "fusion_lat": 0.0}, {"bike_id": "ca77f43ad242edd5d5139a813d2ef0b6", "fusion_lon": 0.0, "lon": -77.03071766666666, "name": "ca77f43ad242edd5d5139a813d2ef0b6", "is_disabled": 0, "rental_uris": {"android": "https://dc.lft.to/lastmile_qr_scan", "ios": "https://dc.lft.to/lastmile_qr_scan"}, "type": "electric_scooter", "lat": 38.885955833333334, "is_reserved": 0, "fusion_lat": 0.0}, {"bike_id": "7ec6c46018c5cb0da94945fc6b75e8fa", "fusion_lon": 0.0, "lon": -77.0250265, "name": "7ec6c46018c5cb0da94945fc6b75e8fa", "is_disabled": 0, "rental_uris": {"android": "https://dc.lft.to/lastmile_qr_scan", "ios": "https://dc.lft.to/lastmile_qr_scan"}, "type": "electric_scooter", "lat": 38.9064845, "is_reserved": 0, "fusion_lat": 0.0}, {"bike_id": "ce121895967e4fa45250da041e34d736", "fusion_lon": 0.0, "lon": -77.03507116666667, "name": "ce121895967e4fa45250da041e34d736", "is_disabled": 0, "rental_uris": {"android": "https://dc.lft.to/lastmile_qr_scan", "ios": "https://dc.lft.to/lastmile_qr_scan"}, "type": "electric_scooter", "lat": 38.921484166666666, "is_reserved": 0, "fusion_lat": 0.0}, {"bike_id": "354fffc8485cec260ac36bee4ead3ea4", "fusion_lon": 0.0, "lon": -77.02290066666667, "name": "354fffc8485cec260ac36bee4ead3ea4", "is_disabled": 0, "rental_uris": {"android": "https://dc.lft.to/lastmile_qr_scan", "ios": "https://dc.lft.to/lastmile_qr_scan"}, "type": "electric_scooter", "lat": 38.8905665, "is_reserved": 0, "fusion_lat": 0.0}, {"bike_id": "2275bc6ee4827a0f3fb604b9e85adb10", "fusion_lon": 0.0, "lon": -77.034507, "name": "2275bc6ee4827a0f3fb604b9e85adb10", "is_disabled": 0, "rental_uris": {"android": "https://dc.lft.to/lastmile_qr_scan", "ios": "https://dc.lft.to/lastmile_qr_scan"}, "type": "electric_scooter", "lat": 38.9374345, "is_reserved": 0, "fusion_lat": 0.0}, {"bike_id": "75b0107733919e02ed5e0e958e2222b8", "fusion_lon": 0.0, "lon": -76.895355, "name": "75b0107733919e02ed5e0e958e2222b8", "is_disabled": 0, "rental_uris": {"android": "https://dc.lft.to/lastmile_qr_scan", "ios": "https://dc.lft.to/lastmile_qr_scan"}, "type": "electric_bike", "lat": 38.94550016666667, "is_reserved": 0, "fusion_lat": 0.0}, {"bike_id": "d3ae81b1e715c6d44fe5978fe60fb1c9", "fusion_lon": 0.0, "lon": -77.03790316666667, "name": "d3ae81b1e715c6d44fe5978fe60fb1c9", "is_disabled": 0, "rental_uris": {"android": "https://dc.lft.to/lastmile_qr_scan", "ios": "https://dc.lft.to/lastmile_qr_scan"}, "type": "electric_scooter", "lat": 38.90962, "is_reserved": 0, "fusion_lat": 0.0}, {"bike_id": "dbe54ca61616ab444df1c414c513a9dc", "fusion_lon": 0.0, "lon": -77.04464266666666, "name": "dbe54ca61616ab444df1c414c513a9dc", "is_disabled": 0, "rental_uris": {"android": "https://dc.lft.to/lastmile_qr_scan", "ios": "https://dc.lft.to/lastmile_qr_scan"}, "type": "electric_scooter", "lat": 38.91112733333333, "is_reserved": 0, "fusion_lat": 0.0}, {"bike_id": "954da844614488533bfaa0a3adb08d7b", "fusion_lon": 0.0, "lon": -77.03202166666667, "name": "954da844614488533bfaa0a3adb08d7b", "is_disabled": 0, "rental_uris": {"android": "https://dc.lft.to/lastmile_qr_scan", "ios": "https://dc.lft.to/lastmile_qr_scan"}, "type": "electric_scooter", "lat": 38.90378966666667, "is_reserved": 0, "fusion_lat": 0.0}, {"bike_id": "19e5bad587752c61bf27f79d45a06c04", "fusion_lon": 0.0, "lon": -77.02596716666666, "name": "19e5bad587752c61bf27f79d45a06c04", "is_disabled": 0, "rental_uris": {"android": "https://dc.lft.to/lastmile_qr_scan", "ios": "https://dc.lft.to/lastmile_qr_scan"}, "type": "electric_scooter", "lat": 38.90329883333333, "is_reserved": 0, "fusion_lat": 0.0}, {"bike_id": "0681a97cb623d142c713765bf120c3f0", "fusion_lon": 0.0, "lon": -77.01648133333333, "name": "0681a97cb623d142c713765bf120c3f0", "is_disabled": 0, "rental_uris": {"android": "https://dc.lft.to/lastmile_qr_scan", "ios": "https://dc.lft.to/lastmile_qr_scan"}, "type": "electric_scooter", "lat": 38.881174, "is_reserved": 0, "fusion_lat": 0.0}, {"bike_id": "37bcbd44113bd995e0edcc20418867be", "fusion_lon": 0.0, "lon": -77.04542016666667, "name": "37bcbd44113bd995e0edcc20418867be", "is_disabled": 0, "rental_uris": {"android": "https://dc.lft.to/lastmile_qr_scan", "ios": "https://dc.lft.to/lastmile_qr_scan"}, "type": "electric_scooter", "lat": 38.89611033333333, "is_reserved": 0, "fusion_lat": 0.0}, {"bike_id": "83ad937c8b0c735fb84ee3df2febc01b", "fusion_lon": 0.0, "lon": -77.03130933333334, "name": "83ad937c8b0c735fb84ee3df2febc01b", "is_disabled": 0, "rental_uris": {"android": "https://dc.lft.to/lastmile_qr_scan", "ios": "https://dc.lft.to/lastmile_qr_scan"}, "type": "electric_scooter", "lat": 38.959336, "is_reserved": 0, "fusion_lat": 0.0}, {"bike_id": "94356f2b10515b02df254ec2f355a8a8", "fusion_lon": 0.0, "lon": -77.01943166666666, "name": "94356f2b10515b02df254ec2f355a8a8", "is_disabled": 0, "rental_uris": {"android": "https://dc.lft.to/lastmile_qr_scan", "ios": "https://dc.lft.to/lastmile_qr_scan"}, "type": "electric_scooter", "lat": 38.94854266666667, "is_reserved": 0, "fusion_lat": 0.0}, {"bike_id": "771b17e3fad8384b84bb69f222ee6256", "fusion_lon": 0.0, "lon": -77.04646216666667, "name": "771b17e3fad8384b84bb69f222ee6256", "is_disabled": 0, "rental_uris": {"android": "https://dc.lft.to/lastmile_qr_scan", "ios": "https://dc.lft.to/lastmile_qr_scan"}, "type": "electric_bike", "lat": 39.05501483333333, "is_reserved": 0, "fusion_lat": 0.0}, {"bike_id": "7875c2928fd88f8edddddaa33bcd2f52", "fusion_lon": 0.0, "lon": -77.126929, "name": "7875c2928fd88f8edddddaa33bcd2f52", "is_disabled": 0, "rental_uris": {"android": "https://dc.lft.to/lastmile_qr_scan", "ios": "https://dc.lft.to/lastmile_qr_scan"}, "type": "electric_bike", "lat": 38.89568216666667, "is_reserved": 0, "fusion_lat": 0.0}, {"bike_id": "5e30592e8f451d15e58724cbedee8965", "fusion_lon": 0.0, "lon": -77.01279566666666, "name": "5e30592e8f451d15e58724cbedee8965", "is_disabled": 0, "rental_uris": {"android": "https://dc.lft.to/lastmile_qr_scan", "ios": "https://dc.lft.to/lastmile_qr_scan"}, "type": "electric_bike", "lat": 39.003815333333336, "is_reserved": 0, "fusion_lat": 0.0}, {"bike_id": "f4b8f7813de815e468fb700ccc34ea99", "fusion_lon": 0.0, "lon": -77.0184405, "name": "f4b8f7813de815e468fb700ccc34ea99", "is_disabled": 0, "rental_uris": {"android": "https://dc.lft.to/lastmile_qr_scan", "ios": "https://dc.lft.to/lastmile_qr_scan"}, "type": "electric_scooter", "lat": 38.92254283333333, "is_reserved": 0, "fusion_lat": 0.0}, {"bike_id": "5c6a208c11f33ffc8f9e04279fbdb3eb", "fusion_lon": 0.0, "lon": -77.0284145, "name": "5c6a208c11f33ffc8f9e04279fbdb3eb", "is_disabled": 0, "rental_uris": {"android": "https://dc.lft.to/lastmile_qr_scan", "ios": "https://dc.lft.to/lastmile_qr_scan"}, "type": "electric_bike", "lat": 38.998433666666664, "is_reserved": 0, "fusion_lat": 0.0}, {"bike_id": "b95cc23da29c06a0240bcb15ff88cc80", "fusion_lon": 0.0, "lon": -77.21651, "name": "b95cc23da29c06a0240bcb15ff88cc80", "is_disabled": 0, "rental_uris": {"android": "https://dc.lft.to/lastmile_qr_scan", "ios": "https://dc.lft.to/lastmile_qr_scan"}, "type": "electric_bike", "lat": 38.93011283333333, "is_reserved": 0, "fusion_lat": 0.0}, {"bike_id": "6ae02638cc0b7726d5fc5bbc2f83acfc", "fusion_lon": 0.0, "lon": -77.0414425, "name": "6ae02638cc0b7726d5fc5bbc2f83acfc", "is_disabled": 0, "rental_uris": {"android": "https://dc.lft.to/lastmile_qr_scan", "ios": "https://dc.lft.to/lastmile_qr_scan"}, "type": "electric_scooter", "lat": 38.922965, "is_reserved": 0, "fusion_lat": 0.0}, {"bike_id": "56022d9aa618af1fe99dbcd3b7ba2ec6", "fusion_lon": 0.0, "lon": -77.05865983333334, "name": "56022d9aa618af1fe99dbcd3b7ba2ec6", "is_disabled": 0, "rental_uris": {"android": "https://dc.lft.to/lastmile_qr_scan", "ios": "https://dc.lft.to/lastmile_qr_scan"}, "type": "electric_bike", "lat": 38.9589615, "is_reserved": 0, "fusion_lat": 0.0}, {"bike_id": "d4da2135c77e962bdf848f174c764712", "fusion_lon": 0.0, "lon": -77.04772766666666, "name": "d4da2135c77e962bdf848f174c764712", "is_disabled": 0, "rental_uris": {"android": "https://dc.lft.to/lastmile_qr_scan", "ios": "https://dc.lft.to/lastmile_qr_scan"}, "type": "electric_scooter", "lat": 38.90731866666667, "is_reserved": 0, "fusion_lat": 0.0}, {"bike_id": "047f6d42a8334b821a85b29e1c89ebe7", "fusion_lon": 0.0, "lon": -77.03590683333333, "name": "047f6d42a8334b821a85b29e1c89ebe7", "is_disabled": 0, "rental_uris": {"android": "https://dc.lft.to/lastmile_qr_scan", "ios": "https://dc.lft.to/lastmile_qr_scan"}, "type": "electric_scooter", "lat": 38.903558, "is_reserved": 0, "fusion_lat": 0.0}, {"bike_id": "bc22844c172b77a5cedd936fbeb8e527", "fusion_lon": 0.0, "lon": -77.02160016666667, "name": "bc22844c172b77a5cedd936fbeb8e527", "is_disabled": 0, "rental_uris": {"android": "https://dc.lft.to/lastmile_qr_scan", "ios": "https://dc.lft.to/lastmile_qr_scan"}, "type": "electric_scooter", "lat": 38.92495783333333, "is_reserved": 0, "fusion_lat": 0.0}, {"bike_id": "fb30ffc6f5e120cf058587e1fb3df24b", "fusion_lon": 0.0, "lon": -77.04159516666667, "name": "fb30ffc6f5e120cf058587e1fb3df24b", "is_disabled": 0, "rental_uris": {"android": "https://dc.lft.to/lastmile_qr_scan", "ios": "https://dc.lft.to/lastmile_qr_scan"}, "type": "electric_scooter", "lat": 38.91978133333333, "is_reserved": 0, "fusion_lat": 0.0}, {"bike_id": "ec1baa4135ec2b9347b3377e8285237c", "fusion_lon": 0.0, "lon": -76.97261133333333, "name": "ec1baa4135ec2b9347b3377e8285237c", "is_disabled": 0, "rental_uris": {"android": "https://dc.lft.to/lastmile_qr_scan", "ios": "https://dc.lft.to/lastmile_qr_scan"}, "type": "electric_bike", "lat": 38.919653833333335, "is_reserved": 0, "fusion_lat": 0.0}, {"bike_id": "8e84e2c14195ae4d11c14c42ca87995b", "fusion_lon": 0.0, "lon": -77.0238865, "name": "8e84e2c14195ae4d11c14c42ca87995b", "is_disabled": 0, "rental_uris": {"android": "https://dc.lft.to/lastmile_qr_scan", "ios": "https://dc.lft.to/lastmile_qr_scan"}, "type": "electric_scooter", "lat": 38.9195515, "is_reserved": 0, "fusion_lat": 0.0}, {"bike_id": "53a01a36c2e477652b1cd45e3351d31a", "fusion_lon": 0.0, "lon": -77.03177483333333, "name": "53a01a36c2e477652b1cd45e3351d31a", "is_disabled": 0, "rental_uris": {"android": "https://dc.lft.to/lastmile_qr_scan", "ios": "https://dc.lft.to/lastmile_qr_scan"}, "type": "electric_scooter", "lat": 38.91695416666666, "is_reserved": 0, "fusion_lat": 0.0}, {"bike_id": "0a8d132e30b616fca94d39457da94e0e", "fusion_lon": 0.0, "lon": -77.038553, "name": "0a8d132e30b616fca94d39457da94e0e", "is_disabled": 0, "rental_uris": {"android": "https://dc.lft.to/lastmile_qr_scan", "ios": "https://dc.lft.to/lastmile_qr_scan"}, "type": "electric_scooter", "lat": 38.86749666666667, "is_reserved": 0, "fusion_lat": 0.0}, {"bike_id": "3e20f21d5564e9aa829061325ebaea42", "fusion_lon": 0.0, "lon": -76.93735183333334, "name": "3e20f21d5564e9aa829061325ebaea42", "is_disabled": 0, "rental_uris": {"android": "https://dc.lft.to/lastmile_qr_scan", "ios": "https://dc.lft.to/lastmile_qr_scan"}, "type": "electric_scooter", "lat": 38.89015116666667, "is_reserved": 0, "fusion_lat": 0.0}, {"bike_id": "f72f7ee3ff1cbe0a1eba989186962b5d", "fusion_lon": 0.0, "lon": -76.98865233333333, "name": "f72f7ee3ff1cbe0a1eba989186962b5d", "is_disabled": 0, "rental_uris": {"android": "https://dc.lft.to/lastmile_qr_scan", "ios": "https://dc.lft.to/lastmile_qr_scan"}, "type": "electric_bike", "lat": 38.95484716666667, "is_reserved": 0, "fusion_lat": 0.0}, {"bike_id": "647b1a7382dd4237529502a4f2369ba2", "fusion_lon": 0.0, "lon": -76.978349, "name": "647b1a7382dd4237529502a4f2369ba2", "is_disabled": 0, "rental_uris": {"android": "https://dc.lft.to/lastmile_qr_scan", "ios": "https://dc.lft.to/lastmile_qr_scan"}, "type": "electric_bike", "lat": 38.87080016666667, "is_reserved": 0, "fusion_lat": 0.0}, {"bike_id": "c14f7fbb0f35d43de55fe1887a1f31f0", "fusion_lon": 0.0, "lon": -77.06190966666666, "name": "c14f7fbb0f35d43de55fe1887a1f31f0", "is_disabled": 0, "rental_uris": {"android": "https://dc.lft.to/lastmile_qr_scan", "ios": "https://dc.lft.to/lastmile_qr_scan"}, "type": "electric_scooter", "lat": 38.902754333333334, "is_reserved": 0, "fusion_lat": 0.0}, {"bike_id": "276be504f82a5c50c9ccf9bdd045979e", "fusion_lon": 0.0, "lon": -77.0219465, "name": "276be504f82a5c50c9ccf9bdd045979e", "is_disabled": 0, "rental_uris": {"android": "https://dc.lft.to/lastmile_qr_scan", "ios": "https://dc.lft.to/lastmile_qr_scan"}, "type": "electric_scooter", "lat": 38.914776333333336, "is_reserved": 0, "fusion_lat": 0.0}, {"bike_id": "f624bf2f27d0aa569741406dcc0df974", "fusion_lon": 0.0, "lon": -77.06909, "name": "f624bf2f27d0aa569741406dcc0df974", "is_disabled": 0, "rental_uris": {"android": "https://dc.lft.to/lastmile_qr_scan", "ios": "https://dc.lft.to/lastmile_qr_scan"}, "type": "electric_scooter", "lat": 38.910169833333335, "is_reserved": 0, "fusion_lat": 0.0}, {"bike_id": "555ce302f4fa765e06f78830c01138f3", "fusion_lon": 0.0, "lon": -77.04385983333333, "name": "555ce302f4fa765e06f78830c01138f3", "is_disabled": 0, "rental_uris": {"android": "https://dc.lft.to/lastmile_qr_scan", "ios": "https://dc.lft.to/lastmile_qr_scan"}, "type": "electric_scooter", "lat": 38.91072316666666, "is_reserved": 0, "fusion_lat": 0.0}, {"bike_id": "4b05c7a6912159bb00d134264e1b4fb4", "fusion_lon": 0.0, "lon": -76.947937, "name": "4b05c7a6912159bb00d134264e1b4fb4", "is_disabled": 0, "rental_uris": {"android": "https://dc.lft.to/lastmile_qr_scan", "ios": "https://dc.lft.to/lastmile_qr_scan"}, "type": "electric_bike", "lat": 38.894004333333335, "is_reserved": 0, "fusion_lat": 0.0}, {"bike_id": "b761d45701bf06ab92f3d20479f424de", "fusion_lon": 0.0, "lon": -77.03157883333333, "name": "b761d45701bf06ab92f3d20479f424de", "is_disabled": 0, "rental_uris": {"android": "https://dc.lft.to/lastmile_qr_scan", "ios": "https://dc.lft.to/lastmile_qr_scan"}, "type": "electric_scooter", "lat": 38.916952333333334, "is_reserved": 0, "fusion_lat": 0.0}, {"bike_id": "aaa06df680a360d9682012006d481890", "fusion_lon": 0.0, "lon": -77.01279633333333, "name": "aaa06df680a360d9682012006d481890", "is_disabled": 0, "rental_uris": {"android": "https://dc.lft.to/lastmile_qr_scan", "ios": "https://dc.lft.to/lastmile_qr_scan"}, "type": "electric_bike", "lat": 38.95160683333334, "is_reserved": 0, "fusion_lat": 0.0}, {"bike_id": "88022eb4bacb5520d4da9f58b881152a", "fusion_lon": 0.0, "lon": -77.00609316666667, "name": "88022eb4bacb5520d4da9f58b881152a", "is_disabled": 0, "rental_uris": {"android": "https://dc.lft.to/lastmile_qr_scan", "ios": "https://dc.lft.to/lastmile_qr_scan"}, "type": "electric_scooter", "lat": 38.87181016666667, "is_reserved": 0, "fusion_lat": 0.0}, {"bike_id": "6da8c0d897120a59578a09fb804995f1", "fusion_lon": 0.0, "lon": -77.0216485, "name": "6da8c0d897120a59578a09fb804995f1", "is_disabled": 0, "rental_uris": {"android": "https://dc.lft.to/lastmile_qr_scan", "ios": "https://dc.lft.to/lastmile_qr_scan"}, "type": "electric_scooter", "lat": 38.897205666666665, "is_reserved": 0, "fusion_lat": 0.0}, {"bike_id": "909feaed898060b26605d25d6b28dc7e", "fusion_lon": 0.0, "lon": -77.04026316666666, "name": "909feaed898060b26605d25d6b28dc7e", "is_disabled": 0, "rental_uris": {"android": "https://dc.lft.to/lastmile_qr_scan", "ios": "https://dc.lft.to/lastmile_qr_scan"}, "type": "electric_scooter", "lat": 38.930642166666665, "is_reserved": 0, "fusion_lat": 0.0}, {"bike_id": "0ee5db0cb4c6d63bbea697c302e83e28", "fusion_lon": 0.0, "lon": -77.046371, "name": "0ee5db0cb4c6d63bbea697c302e83e28", "is_disabled": 0, "rental_uris": {"android": "https://dc.lft.to/lastmile_qr_scan", "ios": "https://dc.lft.to/lastmile_qr_scan"}, "type": "electric_scooter", "lat": 38.895282333333334, "is_reserved": 0, "fusion_lat": 0.0}, {"bike_id": "36ac000ecf0c7c971b50b9caaa7c8654", "fusion_lon": 0.0, "lon": -77.04343866666666, "name": "36ac000ecf0c7c971b50b9caaa7c8654", "is_disabled": 0, "rental_uris": {"android": "https://dc.lft.to/lastmile_qr_scan", "ios": "https://dc.lft.to/lastmile_qr_scan"}, "type": "electric_scooter", "lat": 38.90807266666667, "is_reserved": 0, "fusion_lat": 0.0}, {"bike_id": "e3b4c574040f3c78d8e6c69923a16071", "fusion_lon": 0.0, "lon": -77.0227475, "name": "e3b4c574040f3c78d8e6c69923a16071", "is_disabled": 0, "rental_uris": {"android": "https://dc.lft.to/lastmile_qr_scan", "ios": "https://dc.lft.to/lastmile_qr_scan"}, "type": "electric_scooter", "lat": 38.915999, "is_reserved": 0, "fusion_lat": 0.0}, {"bike_id": "c4a064c588eaf5ce1b84fed9b776601a", "fusion_lon": 0.0, "lon": -76.9869845, "name": "c4a064c588eaf5ce1b84fed9b776601a", "is_disabled": 0, "rental_uris": {"android": "https://dc.lft.to/lastmile_qr_scan", "ios": "https://dc.lft.to/lastmile_qr_scan"}, "type": "electric_scooter", "lat": 38.86717733333333, "is_reserved": 0, "fusion_lat": 0.0}, {"bike_id": "92ddcbba6ab7be1a1b428cdff8117a0a", "fusion_lon": 0.0, "lon": -77.04190716666666, "name": "92ddcbba6ab7be1a1b428cdff8117a0a", "is_disabled": 0, "rental_uris": {"android": "https://dc.lft.to/lastmile_qr_scan", "ios": "https://dc.lft.to/lastmile_qr_scan"}, "type": "electric_scooter", "lat": 38.92053166666667, "is_reserved": 0, "fusion_lat": 0.0}, {"bike_id": "42ffec644604d21374ca5cf450ecaf2e", "fusion_lon": 0.0, "lon": -77.0092425, "name": "42ffec644604d21374ca5cf450ecaf2e", "is_disabled": 0, "rental_uris": {"android": "https://dc.lft.to/lastmile_qr_scan", "ios": "https://dc.lft.to/lastmile_qr_scan"}, "type": "electric_scooter", "lat": 38.9126775, "is_reserved": 0, "fusion_lat": 0.0}, {"bike_id": "461a00ef766809b2edb55d73b158a21d", "fusion_lon": 0.0, "lon": -76.9960735, "name": "461a00ef766809b2edb55d73b158a21d", "is_disabled": 0, "rental_uris": {"android": "https://dc.lft.to/lastmile_qr_scan", "ios": "https://dc.lft.to/lastmile_qr_scan"}, "type": "electric_scooter", "lat": 38.887181166666664, "is_reserved": 0, "fusion_lat": 0.0}, {"bike_id": "36cf0e408dda74952cd721f55b482cab", "fusion_lon": 0.0, "lon": -77.02153316666667, "name": "36cf0e408dda74952cd721f55b482cab", "is_disabled": 0, "rental_uris": {"android": "https://dc.lft.to/lastmile_qr_scan", "ios": "https://dc.lft.to/lastmile_qr_scan"}, "type": "electric_scooter", "lat": 38.92499166666666, "is_reserved": 0, "fusion_lat": 0.0}, {"bike_id": "469e408152f430e083f1153b0c9553b3", "fusion_lon": 0.0, "lon": -77.01261833333334, "name": "469e408152f430e083f1153b0c9553b3", "is_disabled": 0, "rental_uris": {"android": "https://dc.lft.to/lastmile_qr_scan", "ios": "https://dc.lft.to/lastmile_qr_scan"}, "type": "electric_scooter", "lat": 38.9153835, "is_reserved": 0, "fusion_lat": 0.0}, {"bike_id": "082e88fa6f2a0435ec22f9f82b014335", "fusion_lon": 0.0, "lon": -76.99087733333333, "name": "082e88fa6f2a0435ec22f9f82b014335", "is_disabled": 0, "rental_uris": {"android": "https://dc.lft.to/lastmile_qr_scan", "ios": "https://dc.lft.to/lastmile_qr_scan"}, "type": "electric_scooter", "lat": 38.929532, "is_reserved": 0, "fusion_lat": 0.0}, {"bike_id": "4dea4b8168f9323c9fb91f228a59c1b1", "fusion_lon": 0.0, "lon": -76.93608016666667, "name": "4dea4b8168f9323c9fb91f228a59c1b1", "is_disabled": 0, "rental_uris": {"android": "https://dc.lft.to/lastmile_qr_scan", "ios": "https://dc.lft.to/lastmile_qr_scan"}, "type": "electric_scooter", "lat": 38.89681083333333, "is_reserved": 0, "fusion_lat": 0.0}, {"bike_id": "84a7e13091badbc498ad336ff8ebb95d", "fusion_lon": 0.0, "lon": -77.01620733333333, "name": "84a7e13091badbc498ad336ff8ebb95d", "is_disabled": 0, "rental_uris": {"android": "https://dc.lft.to/lastmile_qr_scan", "ios": "https://dc.lft.to/lastmile_qr_scan"}, "type": "electric_scooter", "lat": 38.906854, "is_reserved": 0, "fusion_lat": 0.0}, {"bike_id": "23745097e5d15f9b4996dfe29a84df7e", "fusion_lon": 0.0, "lon": -77.02404016666667, "name": "23745097e5d15f9b4996dfe29a84df7e", "is_disabled": 0, "rental_uris": {"android": "https://dc.lft.to/lastmile_qr_scan", "ios": "https://dc.lft.to/lastmile_qr_scan"}, "type": "electric_scooter", "lat": 38.8998, "is_reserved": 0, "fusion_lat": 0.0}, {"bike_id": "9d0072388536af69a84542c041da587b", "fusion_lon": 0.0, "lon": -77.06389316666667, "name": "9d0072388536af69a84542c041da587b", "is_disabled": 0, "rental_uris": {"android": "https://dc.lft.to/lastmile_qr_scan", "ios": "https://dc.lft.to/lastmile_qr_scan"}, "type": "electric_scooter", "lat": 38.90264833333333, "is_reserved": 0, "fusion_lat": 0.0}, {"bike_id": "24b8fc0c186b7649a086872b488ff7ee", "fusion_lon": 0.0, "lon": -77.0316515, "name": "24b8fc0c186b7649a086872b488ff7ee", "is_disabled": 0, "rental_uris": {"android": "https://dc.lft.to/lastmile_qr_scan", "ios": "https://dc.lft.to/lastmile_qr_scan"}, "type": "electric_scooter", "lat": 38.909627666666665, "is_reserved": 0, "fusion_lat": 0.0}, {"bike_id": "4eda1af5cc95389a4f68e9b175c26a73", "fusion_lon": 0.0, "lon": -76.9868635, "name": "4eda1af5cc95389a4f68e9b175c26a73", "is_disabled": 0, "rental_uris": {"android": "https://dc.lft.to/lastmile_qr_scan", "ios": "https://dc.lft.to/lastmile_qr_scan"}, "type": "electric_bike", "lat": 38.944702166666666, "is_reserved": 0, "fusion_lat": 0.0}, {"bike_id": "d762dcab227a06446dd918ae1fa4a744", "fusion_lon": 0.0, "lon": -76.99899333333333, "name": "d762dcab227a06446dd918ae1fa4a744", "is_disabled": 0, "rental_uris": {"android": "https://dc.lft.to/lastmile_qr_scan", "ios": "https://dc.lft.to/lastmile_qr_scan"}, "type": "electric_scooter", "lat": 38.948216333333335, "is_reserved": 0, "fusion_lat": 0.0}, {"bike_id": "93c72d4bdd60c770cd5d1f35577c0812", "fusion_lon": 0.0, "lon": -77.05537966666667, "name": "93c72d4bdd60c770cd5d1f35577c0812", "is_disabled": 0, "rental_uris": {"android": "https://dc.lft.to/lastmile_qr_scan", "ios": "https://dc.lft.to/lastmile_qr_scan"}, "type": "electric_scooter", "lat": 38.930024333333336, "is_reserved": 0, "fusion_lat": 0.0}, {"bike_id": "85818e984c7c7abcdaffa2adea8274b8", "fusion_lon": 0.0, "lon": -77.024958, "name": "85818e984c7c7abcdaffa2adea8274b8", "is_disabled": 0, "rental_uris": {"android": "https://dc.lft.to/lastmile_qr_scan", "ios": "https://dc.lft.to/lastmile_qr_scan"}, "type": "electric_scooter", "lat": 38.9430465, "is_reserved": 0, "fusion_lat": 0.0}, {"bike_id": "e699a6739b9ae7cf9d82ccb62ba8d9b0", "fusion_lon": 0.0, "lon": -77.01416666666667, "name": "e699a6739b9ae7cf9d82ccb62ba8d9b0", "is_disabled": 0, "rental_uris": {"android": "https://dc.lft.to/lastmile_qr_scan", "ios": "https://dc.lft.to/lastmile_qr_scan"}, "type": "electric_scooter", "lat": 38.928399166666665, "is_reserved": 0, "fusion_lat": 0.0}, {"bike_id": "cfb3b2977720b0a29aa1743dd96da83c", "fusion_lon": 0.0, "lon": -76.93987416666667, "name": "cfb3b2977720b0a29aa1743dd96da83c", "is_disabled": 0, "rental_uris": {"android": "https://dc.lft.to/lastmile_qr_scan", "ios": "https://dc.lft.to/lastmile_qr_scan"}, "type": "electric_scooter", "lat": 38.899806166666664, "is_reserved": 0, "fusion_lat": 0.0}, {"bike_id": "3077f32c6945f3cb495acafc2ae94f99", "fusion_lon": 0.0, "lon": -77.024158, "name": "3077f32c6945f3cb495acafc2ae94f99", "is_disabled": 0, "rental_uris": {"android": "https://dc.lft.to/lastmile_qr_scan", "ios": "https://dc.lft.to/lastmile_qr_scan"}, "type": "electric_scooter", "lat": 38.914078333333336, "is_reserved": 0, "fusion_lat": 0.0}, {"bike_id": "b6f8073e9a74be3211385dc3083e9fdf", "fusion_lon": 0.0, "lon": -77.032007, "name": "b6f8073e9a74be3211385dc3083e9fdf", "is_disabled": 0, "rental_uris": {"android": "https://dc.lft.to/lastmile_qr_scan", "ios": "https://dc.lft.to/lastmile_qr_scan"}, "type": "electric_scooter", "lat": 38.918242666666664, "is_reserved": 0, "fusion_lat": 0.0}, {"bike_id": "9237726f64893ce3faf3e3a291bdd4d7", "fusion_lon": 0.0, "lon": -77.17838916666666, "name": "9237726f64893ce3faf3e3a291bdd4d7", "is_disabled": 0, "rental_uris": {"android": "https://dc.lft.to/lastmile_qr_scan", "ios": "https://dc.lft.to/lastmile_qr_scan"}, "type": "electric_bike", "lat": 39.0885835, "is_reserved": 0, "fusion_lat": 0.0}, {"bike_id": "471e891bc5370dec6d3fb1b928cea7ee", "fusion_lon": 0.0, "lon": -77.01166816666667, "name": "471e891bc5370dec6d3fb1b928cea7ee", "is_disabled": 0, "rental_uris": {"android": "https://dc.lft.to/lastmile_qr_scan", "ios": "https://dc.lft.to/lastmile_qr_scan"}, "type": "electric_bike", "lat": 38.87228566666667, "is_reserved": 0, "fusion_lat": 0.0}, {"bike_id": "29e748075a4c06b4ea0493c1f68fb52f", "fusion_lon": 0.0, "lon": -76.97889033333334, "name": "29e748075a4c06b4ea0493c1f68fb52f", "is_disabled": 0, "rental_uris": {"android": "https://dc.lft.to/lastmile_qr_scan", "ios": "https://dc.lft.to/lastmile_qr_scan"}, "type": "electric_bike", "lat": 38.915847666666664, "is_reserved": 0, "fusion_lat": 0.0}, {"bike_id": "cead58df0529147e0cf65f245486dfdc", "fusion_lon": 0.0, "lon": -77.03150733333334, "name": "cead58df0529147e0cf65f245486dfdc", "is_disabled": 0, "rental_uris": {"android": "https://dc.lft.to/lastmile_qr_scan", "ios": "https://dc.lft.to/lastmile_qr_scan"}, "type": "electric_scooter", "lat": 38.927937, "is_reserved": 0, "fusion_lat": 0.0}, {"bike_id": "76d04a6a5c8e4937a9b3387f5c516a67", "fusion_lon": 0.0, "lon": -77.22218166666667, "name": "76d04a6a5c8e4937a9b3387f5c516a67", "is_disabled": 0, "rental_uris": {"android": "https://dc.lft.to/lastmile_qr_scan", "ios": "https://dc.lft.to/lastmile_qr_scan"}, "type": "electric_bike", "lat": 38.928549833333335, "is_reserved": 0, "fusion_lat": 0.0}, {"bike_id": "5c0a8150e256a8cbf54e496390fe1c97", "fusion_lon": 0.0, "lon": -76.965296, "name": "5c0a8150e256a8cbf54e496390fe1c97", "is_disabled": 0, "rental_uris": {"android": "https://dc.lft.to/lastmile_qr_scan", "ios": "https://dc.lft.to/lastmile_qr_scan"}, "type": "electric_bike", "lat": 38.87478816666667, "is_reserved": 0, "fusion_lat": 0.0}, {"bike_id": "00fa7cba24eb42b77aa2a3dcbe7423fd", "fusion_lon": 0.0, "lon": -77.023056, "name": "00fa7cba24eb42b77aa2a3dcbe7423fd", "is_disabled": 0, "rental_uris": {"android": "https://dc.lft.to/lastmile_qr_scan", "ios": "https://dc.lft.to/lastmile_qr_scan"}, "type": "electric_scooter", "lat": 38.896670666666665, "is_reserved": 0, "fusion_lat": 0.0}, {"bike_id": "d8bee6089ba0ce932f5dd89cff6ffbe9", "fusion_lon": 0.0, "lon": -77.02691716666666, "name": "d8bee6089ba0ce932f5dd89cff6ffbe9", "is_disabled": 0, "rental_uris": {"android": "https://dc.lft.to/lastmile_qr_scan", "ios": "https://dc.lft.to/lastmile_qr_scan"}, "type": "electric_scooter", "lat": 38.906819666666664, "is_reserved": 0, "fusion_lat": 0.0}, {"bike_id": "a570f11b3a0a3227e1ab42e5447a78d7", "fusion_lon": 0.0, "lon": -77.02690616666666, "name": "a570f11b3a0a3227e1ab42e5447a78d7", "is_disabled": 0, "rental_uris": {"android": "https://dc.lft.to/lastmile_qr_scan", "ios": "https://dc.lft.to/lastmile_qr_scan"}, "type": "electric_scooter", "lat": 38.89834066666667, "is_reserved": 0, "fusion_lat": 0.0}, {"bike_id": "0bbf2ff419554e8c3f0f6b028d85a7a6", "fusion_lon": 0.0, "lon": -77.0219535, "name": "0bbf2ff419554e8c3f0f6b028d85a7a6", "is_disabled": 0, "rental_uris": {"android": "https://dc.lft.to/lastmile_qr_scan", "ios": "https://dc.lft.to/lastmile_qr_scan"}, "type": "electric_scooter", "lat": 38.89776966666667, "is_reserved": 0, "fusion_lat": 0.0}, {"bike_id": "699bbfd17283499e6ac658f4e4105b7e", "fusion_lon": 0.0, "lon": -77.03160866666667, "name": "699bbfd17283499e6ac658f4e4105b7e", "is_disabled": 0, "rental_uris": {"android": "https://dc.lft.to/lastmile_qr_scan", "ios": "https://dc.lft.to/lastmile_qr_scan"}, "type": "electric_scooter", "lat": 38.89222216666667, "is_reserved": 0, "fusion_lat": 0.0}, {"bike_id": "82ce204fc434c19878b210841021f95b", "fusion_lon": 0.0, "lon": -77.02970883333333, "name": "82ce204fc434c19878b210841021f95b", "is_disabled": 0, "rental_uris": {"android": "https://dc.lft.to/lastmile_qr_scan", "ios": "https://dc.lft.to/lastmile_qr_scan"}, "type": "electric_scooter", "lat": 38.922840666666666, "is_reserved": 0, "fusion_lat": 0.0}, {"bike_id": "81b9d3ab1745b9fbd49714fcd1fb9305", "fusion_lon": 0.0, "lon": -76.98397483333333, "name": "81b9d3ab1745b9fbd49714fcd1fb9305", "is_disabled": 0, "rental_uris": {"android": "https://dc.lft.to/lastmile_qr_scan", "ios": "https://dc.lft.to/lastmile_qr_scan"}, "type": "electric_scooter", "lat": 38.866988, "is_reserved": 0, "fusion_lat": 0.0}, {"bike_id": "40b1edc4bd521f3d904e9118516fc244", "fusion_lon": 0.0, "lon": -77.0588085, "name": "40b1edc4bd521f3d904e9118516fc244", "is_disabled": 0, "rental_uris": {"android": "https://dc.lft.to/lastmile_qr_scan", "ios": "https://dc.lft.to/lastmile_qr_scan"}, "type": "electric_scooter", "lat": 38.9182415, "is_reserved": 0, "fusion_lat": 0.0}, {"bike_id": "c102eb7de7732764f72acddb824217a2", "fusion_lon": 0.0, "lon": -76.99398066666667, "name": "c102eb7de7732764f72acddb824217a2", "is_disabled": 0, "rental_uris": {"android": "https://dc.lft.to/lastmile_qr_scan", "ios": "https://dc.lft.to/lastmile_qr_scan"}, "type": "electric_scooter", "lat": 38.92166683333333, "is_reserved": 0, "fusion_lat": 0.0}, {"bike_id": "9b4830e2f606df8b645f920f204e858b", "fusion_lon": 0.0, "lon": -77.02695916666667, "name": "9b4830e2f606df8b645f920f204e858b", "is_disabled": 0, "rental_uris": {"android": "https://dc.lft.to/lastmile_qr_scan", "ios": "https://dc.lft.to/lastmile_qr_scan"}, "type": "electric_scooter", "lat": 38.900731666666665, "is_reserved": 0, "fusion_lat": 0.0}, {"bike_id": "bcbeb011bd69bc7f8c7fe956f19df948", "fusion_lon": 0.0, "lon": -77.03407816666666, "name": "bcbeb011bd69bc7f8c7fe956f19df948", "is_disabled": 0, "rental_uris": {"android": "https://dc.lft.to/lastmile_qr_scan", "ios": "https://dc.lft.to/lastmile_qr_scan"}, "type": "electric_scooter", "lat": 38.9205495, "is_reserved": 0, "fusion_lat": 0.0}, {"bike_id": "ad11fd59734939b560e0efa740d5621c", "fusion_lon": 0.0, "lon": -77.0590225, "name": "ad11fd59734939b560e0efa740d5621c", "is_disabled": 0, "rental_uris": {"android": "https://dc.lft.to/lastmile_qr_scan", "ios": "https://dc.lft.to/lastmile_qr_scan"}, "type": "electric_scooter", "lat": 38.93347883333333, "is_reserved": 0, "fusion_lat": 0.0}, {"bike_id": "704fe8783bff8bd1019c6ab4f743858f", "fusion_lon": 0.0, "lon": -76.93341916666667, "name": "704fe8783bff8bd1019c6ab4f743858f", "is_disabled": 0, "rental_uris": {"android": "https://dc.lft.to/lastmile_qr_scan", "ios": "https://dc.lft.to/lastmile_qr_scan"}, "type": "electric_scooter", "lat": 38.8881185, "is_reserved": 0, "fusion_lat": 0.0}, {"bike_id": "b71492a9b8910502fe595f40f3d27ccd", "fusion_lon": 0.0, "lon": -76.9877795, "name": "b71492a9b8910502fe595f40f3d27ccd", "is_disabled": 0, "rental_uris": {"android": "https://dc.lft.to/lastmile_qr_scan", "ios": "https://dc.lft.to/lastmile_qr_scan"}, "type": "electric_bike", "lat": 38.865962, "is_reserved": 0, "fusion_lat": 0.0}, {"bike_id": "a87e7579964e5f9b985155df5ab72997", "fusion_lon": 0.0, "lon": -77.03072033333333, "name": "a87e7579964e5f9b985155df5ab72997", "is_disabled": 0, "rental_uris": {"android": "https://dc.lft.to/lastmile_qr_scan", "ios": "https://dc.lft.to/lastmile_qr_scan"}, "type": "electric_scooter", "lat": 38.89752933333333, "is_reserved": 0, "fusion_lat": 0.0}, {"bike_id": "ddff4caee1ae8ba691a81cb829cd6a5d", "fusion_lon": 0.0, "lon": -77.03519033333333, "name": "ddff4caee1ae8ba691a81cb829cd6a5d", "is_disabled": 0, "rental_uris": {"android": "https://dc.lft.to/lastmile_qr_scan", "ios": "https://dc.lft.to/lastmile_qr_scan"}, "type": "electric_scooter", "lat": 38.918888833333334, "is_reserved": 0, "fusion_lat": 0.0},