{"data": {"bikes": [{"rental_uris": {"ios": "https://dc.lft.to/lastmile_qr_scan", "android": "https://dc.lft.to/lastmile_qr_scan"}, "type": "electric_scooter", "name": "a7906924218e3066e8e75ebc968cddee", "is_reserved": 0, "lon": -77.01208616666666, "is_disabled": 0, "fusion_lat": 0.0, "lat": 38.911996, "bike_id": "a7906924218e3066e8e75ebc968cddee", "fusion_lon": 0.0}, {"rental_uris": {"ios": "https://dc.lft.to/lastmile_qr_scan", "android": "https://dc.lft.to/lastmile_qr_scan"}, "type": "electric_scooter", "name": "0925c6c9d7ab8840ba8dadfc0be58051", "is_reserved": 0, "lon": -76.98505033333333, "is_disabled": 0, "fusion_lat": 0.0, "lat": 38.87993616666667, "bike_id": "0925c6c9d7ab8840ba8dadfc0be58051", "fusion_lon": 0.0}, {"rental_uris": {"ios": "https://dc.lft.to/lastmile_qr_scan", "android": "https://dc.lft.to/lastmile_qr_scan"}, "type": "electric_scooter", "name": "9e0c19039560da448cb2928432befdbc", "is_reserved": 0, "lon": -77.015819, "is_disabled": 0, "fusion_lat": 0.0, "lat": 38.91679533333333, "bike_id": "9e0c19039560da448cb2928432befdbc", "fusion_lon": 0.0}, {"rental_uris": {"ios": "https://dc.lft.to/lastmile_qr_scan", "android": "https://dc.lft.to/lastmile_qr_scan"}, "type": "electric_scooter", "name": "e74b8aebbd39f5def1186a184a204f63", "is_reserved": 0, "lon": -77.01214683333333, "is_disabled": 0, "fusion_lat": 0.0, "lat": 38.9212135, "bike_id": "e74b8aebbd39f5def1186a184a204f63", "fusion_lon": 0.0}, {"rental_uris": {"ios": "https://dc.lft.to/lastmile_qr_scan", "android": "https://dc.lft.to/lastmile_qr_scan"}, "type": "electric_bike", "name": "be72f0f06bd1d5b8b55b8353d6356b16", "is_reserved": 0, "lon": -76.96266, "is_disabled": 0, "fusion_lat": 0.0, "lat": 38.967858166666666, "bike_id": "be72f0f06bd1d5b8b55b8353d6356b16", "fusion_lon": 0.0}, {"rental_uris": {"ios": "https://dc.lft.to/lastmile_qr_scan", "android": "https://dc.lft.to/lastmile_qr_scan"}, "type": "electric_scooter", "name": "32d252759486e33e7f2d75b2e9220d6b", "is_reserved": 0, "lon": -77.04155233333333, "is_disabled": 0, "fusion_lat": 0.0, "lat": 38.90723233333333, "bike_id": "32d252759486e33e7f2d75b2e9220d6b", "fusion_lon": 0.0}, {"rental_uris": {"ios": "https://dc.lft.to/lastmile_qr_scan", "android": "https://dc.lft.to/lastmile_qr_scan"}, "type": "electric_scooter", "name": "3d177613acd120350db3ad53324852df", "is_reserved": 0, "lon": -77.04618416666666, "is_disabled": 0, "fusion_lat": 0.0, "lat": 38.90215233333333, "bike_id": "3d177613acd120350db3ad53324852df", "fusion_lon": 0.0}, {"rental_uris": {"ios": "https://dc.lft.to/lastmile_qr_scan", "android": "https://dc.lft.to/lastmile_qr_scan"}, "type": "electric_scooter", "name": "f051b603b431c727d27a03a60df84386", "is_reserved": 0, "lon": -77.04507516666666, "is_disabled": 0, "fusion_lat": 0.0, "lat": 38.9037065, "bike_id": "f051b603b431c727d27a03a60df84386", "fusion_lon": 0.0}, {"rental_uris": {"ios": "https://dc.lft.to/lastmile_qr_scan", "android": "https://dc.lft.to/lastmile_qr_scan"}, "type": "electric_scooter", "name": "62760738c09e94ad4d3f7a9b43bb83b7", "is_reserved": 0, "lon": -77.02783066666667, "is_disabled": 0, "fusion_lat": 0.0, "lat": 38.96244166666666, "bike_id": "62760738c09e94ad4d3f7a9b43bb83b7", "fusion_lon": 0.0}, {"rental_uris": {"ios": "https://dc.lft.to/lastmile_qr_scan", "android": "https://dc.lft.to/lastmile_qr_scan"}, "type": "electric_bike", "name": "12603da37c5561d66baa90241218f428", "is_reserved": 0, "lon": -76.9869075, "is_disabled": 0, "fusion_lat": 0.0, "lat": 38.944730666666665, "bike_id": "12603da37c5561d66baa90241218f428", "fusion_lon": 0.0}, {"rental_uris": {"ios": "https://dc.lft.to/lastmile_qr_scan", "android": "https://dc.lft.to/lastmile_qr_scan"}, "type": "electric_bike", "name": "eb0df3e00f5d828b93f9491120f5da4a", "is_reserved": 0, "lon": -76.93664233333334, "is_disabled": 0, "fusion_lat": 0.0, "lat": 38.894585, "bike_id": "eb0df3e00f5d828b93f9491120f5da4a", "fusion_lon": 0.0}, {"rental_uris": {"ios": "https://dc.lft.to/lastmile_qr_scan", "android": "https://dc.lft.to/lastmile_qr_scan"}, "type": "electric_scooter", "name": "3a58ca7124cbd5e42a70b5719a147994", "is_reserved": 0, "lon": -77.041333, "is_disabled": 0, "fusion_lat": 0.0, "lat": 38.921672, "bike_id": "3a58ca7124cbd5e42a70b5719a147994", "fusion_lon": 0.0}, {"rental_uris": {"ios": "https://dc.lft.to/lastmile_qr_scan", "android": "https://dc.lft.to/lastmile_qr_scan"}, "type": "electric_scooter", "name": "609bb2ae00dbf6f6894126540a63084a", "is_reserved": 0, "lon": -77.033918, "is_disabled": 0, "fusion_lat": 0.0, "lat": 38.899781833333336, "bike_id": "609bb2ae00dbf6f6894126540a63084a", "fusion_lon": 0.0}, {"rental_uris": {"ios": "https://dc.lft.to/lastmile_qr_scan", "android": "https://dc.lft.to/lastmile_qr_scan"}, "type": "electric_scooter", "name": "5ef120ed9a80f40a22e569ea5493b161", "is_reserved": 0, "lon": -77.03471233333333, "is_disabled": 0, "fusion_lat": 0.0, "lat": 38.931153, "bike_id": "5ef120ed9a80f40a22e569ea5493b161", "fusion_lon": 0.0}, {"rental_uris": {"ios": "https://dc.lft.to/lastmile_qr_scan", "android": "https://dc.lft.to/lastmile_qr_scan"}, "type": "electric_scooter", "name": "e3601de7b874d0bc5805ec175b3395b7", "is_reserved": 0, "lon": -77.02049033333333, "is_disabled": 0, "fusion_lat": 0.0, "lat": 38.892958666666665, "bike_id": "e3601de7b874d0bc5805ec175b3395b7", "fusion_lon": 0.0}, {"rental_uris": {"ios": "https://dc.lft.to/lastmile_qr_scan", "android": "https://dc.lft.to/lastmile_qr_scan"}, "type": "electric_scooter", "name": "a8332902645cbde95aad88e52c15653c", "is_reserved": 0, "lon": -77.03037366666666, "is_disabled": 0, "fusion_lat": 0.0, "lat": 38.922494, "bike_id": "a8332902645cbde95aad88e52c15653c", "fusion_lon": 0.0}, {"rental_uris": {"ios": "https://dc.lft.to/lastmile_qr_scan", "android": "https://dc.lft.to/lastmile_qr_scan"}, "type": "electric_scooter", "name": "8dd9a6a63c16c4ff2ff3e4b158be9e16", "is_reserved": 0, "lon": -76.98339816666666, "is_disabled": 0, "fusion_lat": 0.0, "lat": 38.90089583333334, "bike_id": "8dd9a6a63c16c4ff2ff3e4b158be9e16", "fusion_lon": 0.0}, {"rental_uris": {"ios": "https://dc.lft.to/lastmile_qr_scan", "android": "https://dc.lft.to/lastmile_qr_scan"}, "type": "electric_scooter", "name": "80a776f8b81d073f5419ce889007b117", "is_reserved": 0, "lon": -77.02276333333333, "is_disabled": 0, "fusion_lat": 0.0, "lat": 38.91640116666667, "bike_id": "80a776f8b81d073f5419ce889007b117", "fusion_lon": 0.0}, {"rental_uris": {"ios": "https://dc.lft.to/lastmile_qr_scan", "android": "https://dc.lft.to/lastmile_qr_scan"}, "type": "electric_scooter", "name": "4bd4c6115ed04acf70930f3fcec4fd8f", "is_reserved": 0, "lon": -77.03760433333333, "is_disabled": 0, "fusion_lat": 0.0, "lat": 38.906691333333335, "bike_id": "4bd4c6115ed04acf70930f3fcec4fd8f", "fusion_lon": 0.0}, {"rental_uris": {"ios": "https://dc.lft.to/lastmile_qr_scan", "android": "https://dc.lft.to/lastmile_qr_scan"}, "type": "electric_scooter", "name": "1d6307592213c7d47e1458fc57e3ff99", "is_reserved": 0, "lon": -77.0325665, "is_disabled": 0, "fusion_lat": 0.0, "lat": 38.939801833333334, "bike_id": "1d6307592213c7d47e1458fc57e3ff99", "fusion_lon": 0.0}, {"rental_uris": {"ios": "https://dc.lft.to/lastmile_qr_scan", "android": "https://dc.lft.to/lastmile_qr_scan"}, "type": "electric_scooter", "name": "659206b03c9855e5a49e33d047e351f8", "is_reserved": 0, "lon": -76.9520045, "is_disabled": 0, "fusion_lat": 0.0, "lat": 38.905116666666665, "bike_id": "659206b03c9855e5a49e33d047e351f8", "fusion_lon": 0.0}, {"rental_uris": {"ios": "https://dc.lft.to/lastmile_qr_scan", "android": "https://dc.lft.to/lastmile_qr_scan"}, "type": "electric_scooter", "name": "1d352dcc4b29f7a1b32419a23fe737cb", "is_reserved": 0, "lon": -77.01772333333334, "is_disabled": 0, "fusion_lat": 0.0, "lat": 38.90506216666667, "bike_id": "1d352dcc4b29f7a1b32419a23fe737cb", "fusion_lon": 0.0}, {"rental_uris": {"ios": "https://dc.lft.to/lastmile_qr_scan", "android": "https://dc.lft.to/lastmile_qr_scan"}, "type": "electric_scooter", "name": "75c67a2fa4e4b10ca549ec08859c15ae", "is_reserved": 0, "lon": -77.03444183333333, "is_disabled": 0, "fusion_lat": 0.0, "lat": 38.9073705, "bike_id": "75c67a2fa4e4b10ca549ec08859c15ae", "fusion_lon": 0.0}, {"rental_uris": {"ios": "https://dc.lft.to/lastmile_qr_scan", "android": "https://dc.lft.to/lastmile_qr_scan"}, "type": "electric_scooter", "name": "8d3a7b42c09e6ea41c224b107e5c895e", "is_reserved": 0, "lon": -77.01997383333334, "is_disabled": 0, "fusion_lat": 0.0, "lat": 38.9662905, "bike_id": "8d3a7b42c09e6ea41c224b107e5c895e", "fusion_lon": 0.0}, {"rental_uris": {"ios": "https://dc.lft.to/lastmile_qr_scan", "android": "https://dc.lft.to/lastmile_qr_scan"}, "type": "electric_scooter", "name": "512def17cf203775e8da7b2af4b47fa2", "is_reserved": 0, "lon": -77.00565466666667, "is_disabled": 0, "fusion_lat": 0.0, "lat": 38.9057595, "bike_id": "512def17cf203775e8da7b2af4b47fa2", "fusion_lon": 0.0}, {"rental_uris": {"ios": "https://dc.lft.to/lastmile_qr_scan", "android": "https://dc.lft.to/lastmile_qr_scan"}, "type": "electric_scooter", "name": "bda7190490d9ea11f9a3eb5939e66ad0", "is_reserved": 0, "lon": -77.0175895, "is_disabled": 0, "fusion_lat": 0.0, "lat": 38.876891666666666, "bike_id": "bda7190490d9ea11f9a3eb5939e66ad0", "fusion_lon": 0.0}, {"rental_uris": {"ios": "https://dc.lft.to/lastmile_qr_scan", "android": "https://dc.lft.to/lastmile_qr_scan"}, "type": "electric_scooter", "name": "003f5edeef0979b7c67453b95f8d854f", "is_reserved": 0, "lon": -76.92635466666667, "is_disabled": 0, "fusion_lat": 0.0, "lat": 38.9019025, "bike_id": "003f5edeef0979b7c67453b95f8d854f", "fusion_lon": 0.0}, {"rental_uris": {"ios": "https://dc.lft.to/lastmile_qr_scan", "android": "https://dc.lft.to/lastmile_qr_scan"}, "type": "electric_bike", "name": "1da53dfb15b8ca7dda92ec1ce57d77d8", "is_reserved": 0, "lon": -77.00195883333333, "is_disabled": 0, "fusion_lat": 0.0, "lat": 38.941502166666666, "bike_id": "1da53dfb15b8ca7dda92ec1ce57d77d8", "fusion_lon": 0.0}, {"rental_uris": {"ios": "https://dc.lft.to/lastmile_qr_scan", "android": "https://dc.lft.to/lastmile_qr_scan"}, "type": "electric_scooter", "name": "9e1df45be307e29160847e1a7223f80a", "is_reserved": 0, "lon": -77.02167533333333, "is_disabled": 0, "fusion_lat": 0.0, "lat": 38.9299845, "bike_id": "9e1df45be307e29160847e1a7223f80a", "fusion_lon": 0.0}, {"rental_uris": {"ios": "https://dc.lft.to/lastmile_qr_scan", "android": "https://dc.lft.to/lastmile_qr_scan"}, "type": "electric_scooter", "name": "b5a69c6e2f40943dd4ec4fe60d43004f", "is_reserved": 0, "lon": -77.043832, "is_disabled": 0, "fusion_lat": 0.0, "lat": 38.9342335, "bike_id": "b5a69c6e2f40943dd4ec4fe60d43004f", "fusion_lon": 0.0}, {"rental_uris": {"ios": "https://dc.lft.to/lastmile_qr_scan", "android": "https://dc.lft.to/lastmile_qr_scan"}, "type": "electric_scooter", "name": "16c30c894f3f75e270eb3698a0d859b2", "is_reserved": 0, "lon": -77.00578533333334, "is_disabled": 0, "fusion_lat": 0.0, "lat": 38.87553183333333, "bike_id": "16c30c894f3f75e270eb3698a0d859b2", "fusion_lon": 0.0}, {"rental_uris": {"ios": "https://dc.lft.to/lastmile_qr_scan", "android": "https://dc.lft.to/lastmile_qr_scan"}, "type": "electric_scooter", "name": "be71c621e9b2d967e3a82282750e0c12", "is_reserved": 0, "lon": -76.99530283333333, "is_disabled": 0, "fusion_lat": 0.0, "lat": 38.862714833333335, "bike_id": "be71c621e9b2d967e3a82282750e0c12", "fusion_lon": 0.0}, {"rental_uris": {"ios": "https://dc.lft.to/lastmile_qr_scan", "android": "https://dc.lft.to/lastmile_qr_scan"}, "type": "electric_scooter", "name": "68ca9d7e173b7f06b2d0099ab77b9f55", "is_reserved": 0, "lon": -77.03476666666667, "is_disabled": 0, "fusion_lat": 0.0, "lat": 38.90725716666667, "bike_id": "68ca9d7e173b7f06b2d0099ab77b9f55", "fusion_lon": 0.0}, {"rental_uris": {"ios": "https://dc.lft.to/lastmile_qr_scan", "android": "https://dc.lft.to/lastmile_qr_scan"}, "type": "electric_scooter", "name": "de4c182612186fe115e48898c7a57faf", "is_reserved": 0, "lon": -76.98510216666666, "is_disabled": 0, "fusion_lat": 0.0, "lat": 38.859992166666665, "bike_id": "de4c182612186fe115e48898c7a57faf", "fusion_lon": 0.0}, {"rental_uris": {"ios": "https://dc.lft.to/lastmile_qr_scan", "android": "https://dc.lft.to/lastmile_qr_scan"}, "type": "electric_scooter", "name": "a2bb3e0df26897f7940b68d016b6372e", "is_reserved": 0, "lon": -77.02746216666667, "is_disabled": 0, "fusion_lat": 0.0, "lat": 38.966077166666665, "bike_id": "a2bb3e0df26897f7940b68d016b6372e", "fusion_lon": 0.0}, {"rental_uris": {"ios": "https://dc.lft.to/lastmile_qr_scan", "android": "https://dc.lft.to/lastmile_qr_scan"}, "type": "electric_scooter", "name": "f8bb46a2d9c59c75095512ba4acd9687", "is_reserved": 0, "lon": -77.0752795, "is_disabled": 0, "fusion_lat": 0.0, "lat": 38.9395525, "bike_id": "f8bb46a2d9c59c75095512ba4acd9687", "fusion_lon": 0.0}, {"rental_uris": {"ios": "https://dc.lft.to/lastmile_qr_scan", "android": "https://dc.lft.to/lastmile_qr_scan"}, "type": "electric_scooter", "name": "7118b0f2b8008795a9319763e94a9af5", "is_reserved": 0, "lon": -77.02795716666667, "is_disabled": 0, "fusion_lat": 0.0, "lat": 38.92316183333333, "bike_id": "7118b0f2b8008795a9319763e94a9af5", "fusion_lon": 0.0}, {"rental_uris": {"ios": "https://dc.lft.to/lastmile_qr_scan", "android": "https://dc.lft.to/lastmile_qr_scan"}, "type": "electric_scooter", "name": "56c1be3002734d765f46a8f8d87863c4", "is_reserved": 0, "lon": -77.03615733333334, "is_disabled": 0, "fusion_lat": 0.0, "lat": 38.92847833333333, "bike_id": "56c1be3002734d765f46a8f8d87863c4", "fusion_lon": 0.0}, {"rental_uris": {"ios": "https://dc.lft.to/lastmile_qr_scan", "android": "https://dc.lft.to/lastmile_qr_scan"}, "type": "electric_scooter", "name": "abbe3dcd06dbe7eb2782ccb77e8ef1e1", "is_reserved": 0, "lon": -77.04528483333333, "is_disabled": 0, "fusion_lat": 0.0, "lat": 38.89958383333333, "bike_id": "abbe3dcd06dbe7eb2782ccb77e8ef1e1", "fusion_lon": 0.0}, {"rental_uris": {"ios": "https://dc.lft.to/lastmile_qr_scan", "android": "https://dc.lft.to/lastmile_qr_scan"}, "type": "electric_scooter", "name": "4a94c7e4ae9ed389e7acdf38eb8d192b", "is_reserved": 0, "lon": -77.03636466666667, "is_disabled": 0, "fusion_lat": 0.0, "lat": 38.92437566666667, "bike_id": "4a94c7e4ae9ed389e7acdf38eb8d192b", "fusion_lon": 0.0}, {"rental_uris": {"ios": "https://dc.lft.to/lastmile_qr_scan", "android": "https://dc.lft.to/lastmile_qr_scan"}, "type": "electric_scooter", "name": "42cb28064d092d749b867ff110519de3", "is_reserved": 0, "lon": -77.03940116666666, "is_disabled": 0, "fusion_lat": 0.0, "lat": 38.9081395, "bike_id": "42cb28064d092d749b867ff110519de3", "fusion_lon": 0.0}, {"rental_uris": {"ios": "https://dc.lft.to/lastmile_qr_scan", "android": "https://dc.lft.to/lastmile_qr_scan"}, "type": "electric_scooter", "name": "29ca1e2f289c0246f9a004ed93faf21f", "is_reserved": 0, "lon": -76.97408233333333, "is_disabled": 0, "fusion_lat": 0.0, "lat": 38.9014175, "bike_id": "29ca1e2f289c0246f9a004ed93faf21f", "fusion_lon": 0.0}, {"rental_uris": {"ios": "https://dc.lft.to/lastmile_qr_scan", "android": "https://dc.lft.to/lastmile_qr_scan"}, "type": "electric_scooter", "name": "3c3af637f39cd3020c82a2e36feb9133", "is_reserved": 0, "lon": -77.04067566666667, "is_disabled": 0, "fusion_lat": 0.0, "lat": 38.92776116666667, "bike_id": "3c3af637f39cd3020c82a2e36feb9133", "fusion_lon": 0.0}, {"rental_uris": {"ios": "https://dc.lft.to/lastmile_qr_scan", "android": "https://dc.lft.to/lastmile_qr_scan"}, "type": "electric_scooter", "name": "7255d08ce1c44234bf05a617add0b03b", "is_reserved": 0, "lon": -77.04502416666666, "is_disabled": 0, "fusion_lat": 0.0, "lat": 38.9141595, "bike_id": "7255d08ce1c44234bf05a617add0b03b", "fusion_lon": 0.0}, {"rental_uris": {"ios": "https://dc.lft.to/lastmile_qr_scan", "android": "https://dc.lft.to/lastmile_qr_scan"}, "type": "electric_scooter", "name": "e444f51e4395c1e4e30f09476358ce3e", "is_reserved": 0, "lon": -76.92988883333334, "is_disabled": 0, "fusion_lat": 0.0, "lat": 38.892931833333336, "bike_id": "e444f51e4395c1e4e30f09476358ce3e", "fusion_lon": 0.0}, {"rental_uris": {"ios": "https://dc.lft.to/lastmile_qr_scan", "android": "https://dc.lft.to/lastmile_qr_scan"}, "type": "electric_scooter", "name": "b0566193d050821228b47451b198d4dc", "is_reserved": 0, "lon": -77.00661266666667, "is_disabled": 0, "fusion_lat": 0.0, "lat": 38.900095666666665, "bike_id": "b0566193d050821228b47451b198d4dc", "fusion_lon": 0.0}, {"rental_uris": {"ios": "https://dc.lft.to/lastmile_qr_scan", "android": "https://dc.lft.to/lastmile_qr_scan"}, "type": "electric_scooter", "name": "c2fcf065f0cd8925b88ba228b1b33a11", "is_reserved": 0, "lon": -77.02221783333333, "is_disabled": 0, "fusion_lat": 0.0, "lat": 38.9247445, "bike_id": "c2fcf065f0cd8925b88ba228b1b33a11", "fusion_lon": 0.0}, {"rental_uris": {"ios": "https://dc.lft.to/lastmile_qr_scan", "android": "https://dc.lft.to/lastmile_qr_scan"}, "type": "electric_scooter", "name": "75c8e4b8a06a32ffd79af0a94fb072f2", "is_reserved": 0, "lon": -77.05050716666666, "is_disabled": 0, "fusion_lat": 0.0, "lat": 38.92583366666667, "bike_id": "75c8e4b8a06a32ffd79af0a94fb072f2", "fusion_lon": 0.0}, {"rental_uris": {"ios": "https://dc.lft.to/lastmile_qr_scan", "android": "https://dc.lft.to/lastmile_qr_scan"}, "type": "electric_scooter", "name": "a83c1d7345e5e3b7d0ba556cf886feda", "is_reserved": 0, "lon": -76.99307183333333, "is_disabled": 0, "fusion_lat": 0.0, "lat": 38.93575716666667, "bike_id": "a83c1d7345e5e3b7d0ba556cf886feda", "fusion_lon": 0.0}, {"rental_uris": {"ios": "https://dc.lft.to/lastmile_qr_scan", "android": "https://dc.lft.to/lastmile_qr_scan"}, "type": "electric_scooter", "name": "372a5e359171e1338b9c366d3606a445", "is_reserved": 0, "lon": -76.99466533333333, "is_disabled": 0, "fusion_lat": 0.0, "lat": 38.90554866666667, "bike_id": "372a5e359171e1338b9c366d3606a445", "fusion_lon": 0.0}, {"rental_uris": {"ios": "https://dc.lft.to/lastmile_qr_scan", "android": "https://dc.lft.to/lastmile_qr_scan"}, "type": "electric_scooter", "name": "5db7fb03f3e07eb2bdc26a941ec41941", "is_reserved": 0, "lon": -77.01789216666667, "is_disabled": 0, "fusion_lat": 0.0, "lat": 38.9008645, "bike_id": "5db7fb03f3e07eb2bdc26a941ec41941", "fusion_lon": 0.0}, {"rental_uris": {"ios": "https://dc.lft.to/lastmile_qr_scan", "android": "https://dc.lft.to/lastmile_qr_scan"}, "type": "electric_scooter", "name": "1abc78c1cc0c095ba6a6a8ace38edb9e", "is_reserved": 0, "lon": -77.00401133333334, "is_disabled": 0, "fusion_lat": 0.0, "lat": 38.90562333333333, "bike_id": "1abc78c1cc0c095ba6a6a8ace38edb9e", "fusion_lon": 0.0}, {"rental_uris": {"ios": "https://dc.lft.to/lastmile_qr_scan", "android": "https://dc.lft.to/lastmile_qr_scan"}, "type": "electric_scooter", "name": "4c7aa35dbcd02e14b3c2edee2d1a4eb6", "is_reserved": 0, "lon": -77.02375183333334, "is_disabled": 0, "fusion_lat": 0.0, "lat": 38.91697516666667, "bike_id": "4c7aa35dbcd02e14b3c2edee2d1a4eb6", "fusion_lon": 0.0}, {"rental_uris": {"ios": "https://dc.lft.to/lastmile_qr_scan", "android": "https://dc.lft.to/lastmile_qr_scan"}, "type": "electric_scooter", "name": "2290adf668298b16d7c9361ebe33c5a8", "is_reserved": 0, "lon": -76.94196066666666, "is_disabled": 0, "fusion_lat": 0.0, "lat": 38.9022435, "bike_id": "2290adf668298b16d7c9361ebe33c5a8", "fusion_lon": 0.0}, {"rental_uris": {"ios": "https://dc.lft.to/lastmile_qr_scan", "android": "https://dc.lft.to/lastmile_qr_scan"}, "type": "electric_scooter", "name": "ebabb8cd03eb7b541b52c13e11e7f10e", "is_reserved": 0, "lon": -77.07552616666666, "is_disabled": 0, "fusion_lat": 0.0, "lat": 38.9209035, "bike_id": "ebabb8cd03eb7b541b52c13e11e7f10e", "fusion_lon": 0.0}, {"rental_uris": {"ios": "https://dc.lft.to/lastmile_qr_scan", "android": "https://dc.lft.to/lastmile_qr_scan"}, "type": "electric_scooter", "name": "c48fc1d6bf3e5efb78b4ea3a83541a9e", "is_reserved": 0, "lon": -77.02305866666667, "is_disabled": 0, "fusion_lat": 0.0, "lat": 38.92862016666667, "bike_id": "c48fc1d6bf3e5efb78b4ea3a83541a9e", "fusion_lon": 0.0}, {"rental_uris": {"ios": "https://dc.lft.to/lastmile_qr_scan", "android": "https://dc.lft.to/lastmile_qr_scan"}, "type": "electric_scooter", "name": "806de68c2dfc013a5c0da35cf8b84572", "is_reserved": 0, "lon": -77.03748483333334, "is_disabled": 0, "fusion_lat": 0.0, "lat": 38.932040666666666, "bike_id": "806de68c2dfc013a5c0da35cf8b84572", "fusion_lon": 0.0}, {"rental_uris": {"ios": "https://dc.lft.to/lastmile_qr_scan", "android": "https://dc.lft.to/lastmile_qr_scan"}, "type": "electric_scooter", "name": "04fe3446e96b5287c356f9ad26d385bc", "is_reserved": 0, "lon": -77.03855533333333, "is_disabled": 0, "fusion_lat": 0.0, "lat": 38.91642483333333, "bike_id": "04fe3446e96b5287c356f9ad26d385bc", "fusion_lon": 0.0}, {"rental_uris": {"ios": "https://dc.lft.to/lastmile_qr_scan", "android": "https://dc.lft.to/lastmile_qr_scan"}, "type": "electric_scooter", "name": "683574adb94dabd8b63353308f6b6ff2", "is_reserved": 0, "lon": -77.02210133333334, "is_disabled": 0, "fusion_lat": 0.0, "lat": 38.92055366666666, "bike_id": "683574adb94dabd8b63353308f6b6ff2", "fusion_lon": 0.0}, {"rental_uris": {"ios": "https://dc.lft.to/lastmile_qr_scan", "android": "https://dc.lft.to/lastmile_qr_scan"}, "type": "electric_scooter", "name": "aae1765adaaddc3e794374e4b3ac36dd", "is_reserved": 0, "lon": -77.0519805, "is_disabled": 0, "fusion_lat": 0.0, "lat": 38.924387, "bike_id": "aae1765adaaddc3e794374e4b3ac36dd", "fusion_lon": 0.0}, {"rental_uris": {"ios": "https://dc.lft.to/lastmile_qr_scan", "android": "https://dc.lft.to/lastmile_qr_scan"}, "type": "electric_scooter", "name": "66b8d16982974dd51d511927d6403e44", "is_reserved": 0, "lon": -77.00204183333334, "is_disabled": 0, "fusion_lat": 0.0, "lat": 38.900376333333334, "bike_id": "66b8d16982974dd51d511927d6403e44", "fusion_lon": 0.0}, {"rental_uris": {"ios": "https://dc.lft.to/lastmile_qr_scan", "android": "https://dc.lft.to/lastmile_qr_scan"}, "type": "electric_scooter", "name": "ab5c545e4e1c54988896b23ae4420070", "is_reserved": 0, "lon": -77.03028866666666, "is_disabled": 0, "fusion_lat": 0.0, "lat": 38.922428833333335, "bike_id": "ab5c545e4e1c54988896b23ae4420070", "fusion_lon": 0.0}, {"rental_uris": {"ios": "https://dc.lft.to/lastmile_qr_scan", "android": "https://dc.lft.to/lastmile_qr_scan"}, "type": "electric_scooter", "name": "732f2f555fccc0df4ff9d642a4cb8aed", "is_reserved": 0, "lon": -77.0262575, "is_disabled": 0, "fusion_lat": 0.0, "lat": 38.89221766666667, "bike_id": "732f2f555fccc0df4ff9d642a4cb8aed", "fusion_lon": 0.0}, {"rental_uris": {"ios": "https://dc.lft.to/lastmile_qr_scan", "android": "https://dc.lft.to/lastmile_qr_scan"}, "type": "electric_bike", "name": "4d62947e50a5d9e08169b392c26157ee", "is_reserved": 0, "lon": -77.06693283333334, "is_disabled": 0, "fusion_lat": 0.0, "lat": 38.831679, "bike_id": "4d62947e50a5d9e08169b392c26157ee", "fusion_lon": 0.0}, {"rental_uris": {"ios": "https://dc.lft.to/lastmile_qr_scan", "android": "https://dc.lft.to/lastmile_qr_scan"}, "type": "electric_scooter", "name": "d1c32e265164ab6400603c41bee39cfe", "is_reserved": 0, "lon": -77.0241925, "is_disabled": 0, "fusion_lat": 0.0, "lat": 38.90958833333333, "bike_id": "d1c32e265164ab6400603c41bee39cfe", "fusion_lon": 0.0}, {"rental_uris": {"ios": "https://dc.lft.to/lastmile_qr_scan", "android": "https://dc.lft.to/lastmile_qr_scan"}, "type": "electric_scooter", "name": "702831ed7b6124baae82dea0a41e8e8e", "is_reserved": 0, "lon": -76.970551, "is_disabled": 0, "fusion_lat": 0.0, "lat": 38.873264166666665, "bike_id": "702831ed7b6124baae82dea0a41e8e8e", "fusion_lon": 0.0}, {"rental_uris": {"ios": "https://dc.lft.to/lastmile_qr_scan", "android": "https://dc.lft.to/lastmile_qr_scan"}, "type": "electric_scooter", "name": "84cb8acf8b0e4d47631b069f70d67c8d", "is_reserved": 0, "lon": -77.02900316666667, "is_disabled": 0, "fusion_lat": 0.0, "lat": 38.94044183333333, "bike_id": "84cb8acf8b0e4d47631b069f70d67c8d", "fusion_lon": 0.0}, {"rental_uris": {"ios": "https://dc.lft.to/lastmile_qr_scan", "android": "https://dc.lft.to/lastmile_qr_scan"}, "type": "electric_scooter", "name": "05be62f91eef52b0ff509d1030d70204", "is_reserved": 0, "lon": -77.03958066666667, "is_disabled": 0, "fusion_lat": 0.0, "lat": 38.89241283333333, "bike_id": "05be62f91eef52b0ff509d1030d70204", "fusion_lon": 0.0}, {"rental_uris": {"ios": "https://dc.lft.to/lastmile_qr_scan", "android": "https://dc.lft.to/lastmile_qr_scan"}, "type": "electric_scooter", "name": "ec5bd84473f35ba8eb691dfcdb89f06d", "is_reserved": 0, "lon": -76.985991, "is_disabled": 0, "fusion_lat": 0.0, "lat": 38.8783305, "bike_id": "ec5bd84473f35ba8eb691dfcdb89f06d", "fusion_lon": 0.0}, {"rental_uris": {"ios": "https://dc.lft.to/lastmile_qr_scan", "android": "https://dc.lft.to/lastmile_qr_scan"}, "type": "electric_scooter", "name": "fb9e5286cd8ef2d73e916aab25573369", "is_reserved": 0, "lon": -77.01895233333333, "is_disabled": 0, "fusion_lat": 0.0, "lat": 38.898025, "bike_id": "fb9e5286cd8ef2d73e916aab25573369", "fusion_lon": 0.0}, {"rental_uris": {"ios": "https://dc.lft.to/lastmile_qr_scan", "android": "https://dc.lft.to/lastmile_qr_scan"}, "type": "electric_scooter", "name": "71a561bed3338ec6afd50d3e80850419", "is_reserved": 0, "lon": -77.034013, "is_disabled": 0, "fusion_lat": 0.0, "lat": 38.919667833333335, "bike_id": "71a561bed3338ec6afd50d3e80850419", "fusion_lon": 0.0}, {"rental_uris": {"ios": "https://dc.lft.to/lastmile_qr_scan", "android": "https://dc.lft.to/lastmile_qr_scan"}, "type": "electric_scooter", "name": "66a334a833ee4e80fc1dd45cd6d8198c", "is_reserved": 0, "lon": -77.04137616666667, "is_disabled": 0, "fusion_lat": 0.0, "lat": 38.934658166666665, "bike_id": "66a334a833ee4e80fc1dd45cd6d8198c", "fusion_lon": 0.0}, {"rental_uris": {"ios": "https://dc.lft.to/lastmile_qr_scan", "android": "https://dc.lft.to/lastmile_qr_scan"}, "type": "electric_scooter", "name": "79e2e0a4eb187feea4bcdb5cba822581", "is_reserved": 0, "lon": -77.03167166666667, "is_disabled": 0, "fusion_lat": 0.0, "lat": 38.92002316666667, "bike_id": "79e2e0a4eb187feea4bcdb5cba822581", "fusion_lon": 0.0}, {"rental_uris": {"ios": "https://dc.lft.to/lastmile_qr_scan", "android": "https://dc.lft.to/lastmile_qr_scan"}, "type": "electric_scooter", "name": "6df2c8402225793b47a0a41734a35dfd", "is_reserved": 0, "lon": -77.02311233333333, "is_disabled": 0, "fusion_lat": 0.0, "lat": 38.96130516666667, "bike_id": "6df2c8402225793b47a0a41734a35dfd", "fusion_lon": 0.0}, {"rental_uris": {"ios": "https://dc.lft.to/lastmile_qr_scan", "android": "https://dc.lft.to/lastmile_qr_scan"}, "type": "electric_scooter", "name": "0f6e8d31ea47ead5deea74b53c295708", "is_reserved": 0, "lon": -77.04200266666666, "is_disabled": 0, "fusion_lat": 0.0, "lat": 38.92104583333333, "bike_id": "0f6e8d31ea47ead5deea74b53c295708", "fusion_lon": 0.0}, {"rental_uris": {"ios": "https://dc.lft.to/lastmile_qr_scan", "android": "https://dc.lft.to/lastmile_qr_scan"}, "type": "electric_scooter", "name": "deeb41ed308a97440c6d6fb1bd927f78", "is_reserved": 0, "lon": -77.0250435, "is_disabled": 0, "fusion_lat": 0.0, "lat": 38.92062766666667, "bike_id": "deeb41ed308a97440c6d6fb1bd927f78", "fusion_lon": 0.0}, {"rental_uris": {"ios": "https://dc.lft.to/lastmile_qr_scan", "android": "https://dc.lft.to/lastmile_qr_scan"}, "type": "electric_bike", "name": "71c853ac6f8bb368c00d9e2c1b1642db", "is_reserved": 0, "lon": -77.028191, "is_disabled": 0, "fusion_lat": 0.0, "lat": 38.965303666666664, "bike_id": "71c853ac6f8bb368c00d9e2c1b1642db", "fusion_lon": 0.0}, {"rental_uris": {"ios": "https://dc.lft.to/lastmile_qr_scan", "android": "https://dc.lft.to/lastmile_qr_scan"}, "type": "electric_scooter", "name": "c9960c54683588289bf0af385acc7612", "is_reserved": 0, "lon": -77.00684083333333, "is_disabled": 0, "fusion_lat": 0.0, "lat": 38.905491166666664, "bike_id": "c9960c54683588289bf0af385acc7612", "fusion_lon": 0.0}, {"rental_uris": {"ios": "https://dc.lft.to/lastmile_qr_scan", "android": "https://dc.lft.to/lastmile_qr_scan"}, "type": "electric_scooter", "name": "8811b575d8a1d55e6a9d462f0a984456", "is_reserved": 0, "lon": -77.02195916666666, "is_disabled": 0, "fusion_lat": 0.0, "lat": 38.911323833333334, "bike_id": "8811b575d8a1d55e6a9d462f0a984456", "fusion_lon": 0.0}, {"rental_uris": {"ios": "https://dc.lft.to/lastmile_qr_scan", "android": "https://dc.lft.to/lastmile_qr_scan"}, "type": "electric_scooter", "name": "8531977242d2e25e661f11872b93cbb7", "is_reserved": 0, "lon": -77.02717033333333, "is_disabled": 0, "fusion_lat": 0.0, "lat": 38.91221183333333, "bike_id": "8531977242d2e25e661f11872b93cbb7", "fusion_lon": 0.0}, {"rental_uris": {"ios": "https://dc.lft.to/lastmile_qr_scan", "android": "https://dc.lft.to/lastmile_qr_scan"}, "type": "electric_scooter", "name": "5b1506027c0a77637331d8e63b1e119e", "is_reserved": 0, "lon": -77.02284283333333, "is_disabled": 0, "fusion_lat": 0.0, "lat": 38.907903, "bike_id": "5b1506027c0a77637331d8e63b1e119e", "fusion_lon": 0.0}, {"rental_uris": {"ios": "https://dc.lft.to/lastmile_qr_scan", "android": "https://dc.lft.to/lastmile_qr_scan"}, "type": "electric_scooter", "name": "f3b8d9eef5b66a6890446cb73adcd88e", "is_reserved": 0, "lon": -77.02071016666666, "is_disabled": 0, "fusion_lat": 0.0, "lat": 38.93110166666666, "bike_id": "f3b8d9eef5b66a6890446cb73adcd88e", "fusion_lon": 0.0}, {"rental_uris": {"ios": "https://dc.lft.to/lastmile_qr_scan", "android": "https://dc.lft.to/lastmile_qr_scan"}, "type": "electric_scooter", "name": "298764d7059389fc42bc49db380094d2", "is_reserved": 0, "lon": -77.06417916666666, "is_disabled": 0, "fusion_lat": 0.0, "lat": 38.91402333333333, "bike_id": "298764d7059389fc42bc49db380094d2", "fusion_lon": 0.0}, {"rental_uris": {"ios": "https://dc.lft.to/lastmile_qr_scan", "android": "https://dc.lft.to/lastmile_qr_scan"}, "type": "electric_scooter", "name": "1d5d4c9c282827faac7e497cf5ef3076", "is_reserved": 0, "lon": -77.0295455, "is_disabled": 0, "fusion_lat": 0.0, "lat": 38.90496516666666, "bike_id": "1d5d4c9c282827faac7e497cf5ef3076", "fusion_lon": 0.0}, {"rental_uris": {"ios": "https://dc.lft.to/lastmile_qr_scan", "android": "https://dc.lft.to/lastmile_qr_scan"}, "type": "electric_scooter", "name": "0c3df83f8a17fb95bac69d5c477b1e58", "is_reserved": 0, "lon": -77.00985166666666, "is_disabled": 0, "fusion_lat": 0.0, "lat": 38.90571766666667, "bike_id": "0c3df83f8a17fb95bac69d5c477b1e58", "fusion_lon": 0.0}, {"rental_uris": {"ios": "https://dc.lft.to/lastmile_qr_scan", "android": "https://dc.lft.to/lastmile_qr_scan"}, "type": "electric_scooter", "name": "08d98d9ccd9650464b5e621fbf3c42c2", "is_reserved": 0, "lon": -77.00555533333333, "is_disabled": 0, "fusion_lat": 0.0, "lat": 38.87470033333334, "bike_id": "08d98d9ccd9650464b5e621fbf3c42c2", "fusion_lon": 0.0}, {"rental_uris": {"ios": "https://dc.lft.to/lastmile_qr_scan", "android": "https://dc.lft.to/lastmile_qr_scan"}, "type": "electric_scooter", "name": "1e763d0899a8ecbd7ff17d48b9ebdaad", "is_reserved": 0, "lon": -77.04196783333333, "is_disabled": 0, "fusion_lat": 0.0, "lat": 38.90380283333333, "bike_id": "1e763d0899a8ecbd7ff17d48b9ebdaad", "fusion_lon": 0.0}, {"rental_uris": {"ios": "https://dc.lft.to/lastmile_qr_scan", "android": "https://dc.lft.to/lastmile_qr_scan"}, "type": "electric_scooter", "name": "a65b6740479217dec9cdf6de7e780bd0", "is_reserved": 0, "lon": -77.02475483333333, "is_disabled": 0, "fusion_lat": 0.0, "lat": 38.91812916666667, "bike_id": "a65b6740479217dec9cdf6de7e780bd0", "fusion_lon": 0.0}, {"rental_uris": {"ios": "https://dc.lft.to/lastmile_qr_scan", "android": "https://dc.lft.to/lastmile_qr_scan"}, "type": "electric_scooter", "name": "95a755347581245d267b6ebdfa2c5e18", "is_reserved": 0, "lon": -77.0318315, "is_disabled": 0, "fusion_lat": 0.0, "lat": 38.91555833333334, "bike_id": "95a755347581245d267b6ebdfa2c5e18", "fusion_lon": 0.0}, {"rental_uris": {"ios": "https://dc.lft.to/lastmile_qr_scan", "android": "https://dc.lft.to/lastmile_qr_scan"}, "type": "electric_scooter", "name": "f03d94985d19261e1c82a5e4daf135ba", "is_reserved": 0, "lon": -77.0088885, "is_disabled": 0, "fusion_lat": 0.0, "lat": 38.9171685, "bike_id": "f03d94985d19261e1c82a5e4daf135ba", "fusion_lon": 0.0}, {"rental_uris": {"ios": "https://dc.lft.to/lastmile_qr_scan", "android": "https://dc.lft.to/lastmile_qr_scan"}, "type": "electric_scooter", "name": "5884144f43c4396e603db94e6c53609c", "is_reserved": 0, "lon": -76.93701383333334, "is_disabled": 0, "fusion_lat": 0.0, "lat": 38.89021116666667, "bike_id": "5884144f43c4396e603db94e6c53609c", "fusion_lon": 0.0}, {"rental_uris": {"ios": "https://dc.lft.to/lastmile_qr_scan", "android": "https://dc.lft.to/lastmile_qr_scan"}, "type": "electric_scooter", "name": "17e54cb279b71b475eb5e5ec099a7228", "is_reserved": 0, "lon": -77.02224466666667, "is_disabled": 0, "fusion_lat": 0.0, "lat": 38.92092, "bike_id": "17e54cb279b71b475eb5e5ec099a7228", "fusion_lon": 0.0}, {"rental_uris": {"ios": "https://dc.lft.to/lastmile_qr_scan", "android": "https://dc.lft.to/lastmile_qr_scan"}, "type": "electric_scooter", "name": "415a44430a695c3e72166508f8039c5c", "is_reserved": 0, "lon": -77.03181783333333, "is_disabled": 0, "fusion_lat": 0.0, "lat": 38.90826766666667, "bike_id": "415a44430a695c3e72166508f8039c5c", "fusion_lon": 0.0}, {"rental_uris": {"ios": "https://dc.lft.to/lastmile_qr_scan", "android": "https://dc.lft.to/lastmile_qr_scan"}, "type": "electric_scooter", "name": "7f4e67b88516fabf595f5f7396854642", "is_reserved": 0, "lon": -77.03072266666666, "is_disabled": 0, "fusion_lat": 0.0, "lat": 38.934619166666664, "bike_id": "7f4e67b88516fabf595f5f7396854642", "fusion_lon": 0.0}, {"rental_uris": {"ios": "https://dc.lft.to/lastmile_qr_scan", "android": "https://dc.lft.to/lastmile_qr_scan"}, "type": "electric_scooter", "name": "d172f5f11d5ff5cb8084fb5bd1066612", "is_reserved": 0, "lon": -77.022217, "is_disabled": 0, "fusion_lat": 0.0, "lat": 38.924776666666666, "bike_id": "d172f5f11d5ff5cb8084fb5bd1066612", "fusion_lon": 0.0}, {"rental_uris": {"ios": "https://dc.lft.to/lastmile_qr_scan", "android": "https://dc.lft.to/lastmile_qr_scan"}, "type": "electric_scooter", "name": "a105435adaa19a8ef93119e0e8f85a0b", "is_reserved": 0, "lon": -77.04053383333333, "is_disabled": 0, "fusion_lat": 0.0, "lat": 38.9300985, "bike_id": "a105435adaa19a8ef93119e0e8f85a0b", "fusion_lon": 0.0}, {"rental_uris": {"ios": "https://dc.lft.to/lastmile_qr_scan", "android": "https://dc.lft.to/lastmile_qr_scan"}, "type": "electric_scooter", "name": "f23d522bd187775096ff18a764b94e45", "is_reserved": 0, "lon": -76.99507833333334, "is_disabled": 0, "fusion_lat": 0.0, "lat": 38.903276, "bike_id": "f23d522bd187775096ff18a764b94e45", "fusion_lon": 0.0}, {"rental_uris": {"ios": "https://dc.lft.to/lastmile_qr_scan", "android": "https://dc.lft.to/lastmile_qr_scan"}, "type": "electric_scooter", "name": "15e30a137ec073ad804b23fb4909867a", "is_reserved": 0, "lon": -77.045002, "is_disabled": 0, "fusion_lat": 0.0, "lat": 38.9141165, "bike_id": "15e30a137ec073ad804b23fb4909867a", "fusion_lon": 0.0}, {"rental_uris": {"ios": "https://dc.lft.to/lastmile_qr_scan", "android": "https://dc.lft.to/lastmile_qr_scan"}, "type": "electric_scooter", "name": "33b663d0885e91b802098c7f8b6dd660", "is_reserved": 0, "lon": -77.04157283333333, "is_disabled": 0, "fusion_lat": 0.0, "lat": 38.90566366666667, "bike_id": "33b663d0885e91b802098c7f8b6dd660", "fusion_lon": 0.0}, {"rental_uris": {"ios": "https://dc.lft.to/lastmile_qr_scan", "android": "https://dc.lft.to/lastmile_qr_scan"}, "type": "electric_scooter", "name": "743cd34fb299cf126acfb49258ea98b6", "is_reserved": 0, "lon": -77.02550116666667, "is_disabled": 0, "fusion_lat": 0.0, "lat": 38.951699833333336, "bike_id": "743cd34fb299cf126acfb49258ea98b6", "fusion_lon": 0.0}, {"rental_uris": {"ios": "https://dc.lft.to/lastmile_qr_scan", "android": "https://dc.lft.to/lastmile_qr_scan"}, "type": "electric_scooter", "name": "58586abbb8e69bfd96ae10c081571ece", "is_reserved": 0, "lon": -77.03472716666667, "is_disabled": 0, "fusion_lat": 0.0, "lat": 38.907314666666664, "bike_id": "58586abbb8e69bfd96ae10c081571ece", "fusion_lon": 0.0}, {"rental_uris": {"ios": "https://dc.lft.to/lastmile_qr_scan", "android": "https://dc.lft.to/lastmile_qr_scan"}, "type": "electric_scooter", "name": "5a01f529b5aa59713abd737eb3314dbf", "is_reserved": 0, "lon": -77.04868583333334, "is_disabled": 0, "fusion_lat": 0.0, "lat": 38.910248, "bike_id": "5a01f529b5aa59713abd737eb3314dbf", "fusion_lon": 0.0}, {"rental_uris": {"ios": "https://dc.lft.to/lastmile_qr_scan", "android": "https://dc.lft.to/lastmile_qr_scan"}, "type": "electric_scooter", "name": "732b43f2a834750be2300eacf2b5e261", "is_reserved": 0, "lon": -77.02288566666667, "is_disabled": 0, "fusion_lat": 0.0, "lat": 38.91690333333333, "bike_id": "732b43f2a834750be2300eacf2b5e261", "fusion_lon": 0.0}, {"rental_uris": {"ios": "https://dc.lft.to/lastmile_qr_scan", "android": "https://dc.lft.to/lastmile_qr_scan"}, "type": "electric_scooter", "name": "7bebf1fc044e3f68faf6192f964c144e", "is_reserved": 0, "lon": -77.03984916666667, "is_disabled": 0, "fusion_lat": 0.0, "lat": 38.901561, "bike_id": "7bebf1fc044e3f68faf6192f964c144e", "fusion_lon": 0.0}, {"rental_uris": {"ios": "https://dc.lft.to/lastmile_qr_scan", "android": "https://dc.lft.to/lastmile_qr_scan"}, "type": "electric_scooter", "name": "c6065bb65120d98a3bfcf237c46ec16e", "is_reserved": 0, "lon": -77.02696733333333, "is_disabled": 0, "fusion_lat": 0.0, "lat": 38.9240315, "bike_id": "c6065bb65120d98a3bfcf237c46ec16e", "fusion_lon": 0.0}, {"rental_uris": {"ios": "https://dc.lft.to/lastmile_qr_scan", "android": "https://dc.lft.to/lastmile_qr_scan"}, "type": "electric_bike", "name": "8995ca6395c2e79eae7a517c5d43fb94", "is_reserved": 0, "lon": -76.9805895, "is_disabled": 0, "fusion_lat": 0.0, "lat": 38.972499666666664, "bike_id": "8995ca6395c2e79eae7a517c5d43fb94", "fusion_lon": 0.0}, {"rental_uris": {"ios": "https://dc.lft.to/lastmile_qr_scan", "android": "https://dc.lft.to/lastmile_qr_scan"}, "type": "electric_scooter", "name": "95e2664267417af71291dc55ef527e7a", "is_reserved": 0, "lon": -77.024104, "is_disabled": 0, "fusion_lat": 0.0, "lat": 38.94507633333333, "bike_id": "95e2664267417af71291dc55ef527e7a", "fusion_lon": 0.0}, {"rental_uris": {"ios": "https://dc.lft.to/lastmile_qr_scan", "android": "https://dc.lft.to/lastmile_qr_scan"}, "type": "electric_scooter", "name": "ee0e067fec92a564d26915eae99d6609", "is_reserved": 0, "lon": -77.01747366666666, "is_disabled": 0, "fusion_lat": 0.0, "lat": 38.880229666666665, "bike_id": "ee0e067fec92a564d26915eae99d6609", "fusion_lon": 0.0}, {"rental_uris": {"ios": "https://dc.lft.to/lastmile_qr_scan", "android": "https://dc.lft.to/lastmile_qr_scan"}, "type": "electric_scooter", "name": "ce56cdbb2e3127e5bbec49f99f0087ee", "is_reserved": 0, "lon": -77.0363615, "is_disabled": 0, "fusion_lat": 0.0, "lat": 38.930572, "bike_id": "ce56cdbb2e3127e5bbec49f99f0087ee", "fusion_lon": 0.0}, {"rental_uris": {"ios": "https://dc.lft.to/lastmile_qr_scan", "android": "https://dc.lft.to/lastmile_qr_scan"}, "type": "electric_scooter", "name": "f77cc08236c57f1558d25f6ac8ea02e2", "is_reserved": 0, "lon": -77.03361616666666, "is_disabled": 0, "fusion_lat": 0.0, "lat": 38.92871133333333, "bike_id": "f77cc08236c57f1558d25f6ac8ea02e2", "fusion_lon": 0.0}, {"rental_uris": {"ios": "https://dc.lft.to/lastmile_qr_scan", "android": "https://dc.lft.to/lastmile_qr_scan"}, "type": "electric_scooter", "name": "c929e3381aceaf895ffe165e963d17a1", "is_reserved": 0, "lon": -77.00825583333334, "is_disabled": 0, "fusion_lat": 0.0, "lat": 38.91369733333333, "bike_id": "c929e3381aceaf895ffe165e963d17a1", "fusion_lon": 0.0}, {"rental_uris": {"ios": "https://dc.lft.to/lastmile_qr_scan", "android": "https://dc.lft.to/lastmile_qr_scan"}, "type": "electric_scooter", "name": "735ee083b4832d3d5cbd5ccec8508089", "is_reserved": 0, "lon": -77.0222825, "is_disabled": 0, "fusion_lat": 0.0, "lat": 38.892233166666664, "bike_id": "735ee083b4832d3d5cbd5ccec8508089", "fusion_lon": 0.0}, {"rental_uris": {"ios": "https://dc.lft.to/lastmile_qr_scan", "android": "https://dc.lft.to/lastmile_qr_scan"}, "type": "electric_scooter", "name": "30bbec01d3ee8c6dd35e4d90cfd50d70", "is_reserved": 0, "lon": -77.03177683333334, "is_disabled": 0, "fusion_lat": 0.0, "lat": 38.887381500000004, "bike_id": "30bbec01d3ee8c6dd35e4d90cfd50d70", "fusion_lon": 0.0}, {"rental_uris": {"ios": "https://dc.lft.to/lastmile_qr_scan", "android": "https://dc.lft.to/lastmile_qr_scan"}, "type": "electric_scooter", "name": "ab4e7d52534d9456c9a99bd4a6784266", "is_reserved": 0, "lon": -77.0246895, "is_disabled": 0, "fusion_lat": 0.0, "lat": 38.93955183333333, "bike_id": "ab4e7d52534d9456c9a99bd4a6784266", "fusion_lon": 0.0}, {"rental_uris": {"ios": "https://dc.lft.to/lastmile_qr_scan", "android": "https://dc.lft.to/lastmile_qr_scan"}, "type": "electric_scooter", "name": "f1f8f2800f34def6d0f23c634b23ffeb", "is_reserved": 0, "lon": -77.00772933333333, "is_disabled": 0, "fusion_lat": 0.0, "lat": 38.90742066666667, "bike_id": "f1f8f2800f34def6d0f23c634b23ffeb", "fusion_lon": 0.0}, {"rental_uris": {"ios": "https://dc.lft.to/lastmile_qr_scan", "android": "https://dc.lft.to/lastmile_qr_scan"}, "type": "electric_scooter", "name": "5fb422ae3b464a5bc578e0fc3ac6ae5f", "is_reserved": 0, "lon": -76.998359, "is_disabled": 0, "fusion_lat": 0.0, "lat": 38.89188933333333, "bike_id": "5fb422ae3b464a5bc578e0fc3ac6ae5f", "fusion_lon": 0.0}, {"rental_uris": {"ios": "https://dc.lft.to/lastmile_qr_scan", "android": "https://dc.lft.to/lastmile_qr_scan"}, "type": "electric_scooter", "name": "62bfea7ca1705c79486be76001be1694", "is_reserved": 0, "lon": -77.05618233333334, "is_disabled": 0, "fusion_lat": 0.0, "lat": 38.906849333333334, "bike_id": "62bfea7ca1705c79486be76001be1694", "fusion_lon": 0.0}, {"rental_uris": {"ios": "https://dc.lft.to/lastmile_qr_scan", "android": "https://dc.lft.to/lastmile_qr_scan"}, "type": "electric_scooter", "name": "7b725ecb6d60a3b2f5d96456afe378ee", "is_reserved": 0, "lon": -77.03955666666667, "is_disabled": 0, "fusion_lat": 0.0, "lat": 38.892420333333334, "bike_id": "7b725ecb6d60a3b2f5d96456afe378ee", "fusion_lon": 0.0}, {"rental_uris": {"ios": "https://dc.lft.to/lastmile_qr_scan", "android": "https://dc.lft.to/lastmile_qr_scan"}, "type": "electric_bike", "name": "eb2526cba80ed096a9c0a6d598312951", "is_reserved": 0, "lon": -76.90736133333333, "is_disabled": 0, "fusion_lat": 0.0, "lat": 38.896198, "bike_id": "eb2526cba80ed096a9c0a6d598312951", "fusion_lon": 0.0}, {"rental_uris": {"ios": "https://dc.lft.to/lastmile_qr_scan", "android": "https://dc.lft.to/lastmile_qr_scan"}, "type": "electric_scooter", "name": "7f326a382d4db33a352b1401da79b1a2", "is_reserved": 0, "lon": -77.01759233333334, "is_disabled": 0, "fusion_lat": 0.0, "lat": 38.902624, "bike_id": "7f326a382d4db33a352b1401da79b1a2", "fusion_lon": 0.0}, {"rental_uris": {"ios": "https://dc.lft.to/lastmile_qr_scan", "android": "https://dc.lft.to/lastmile_qr_scan"}, "type": "electric_scooter", "name": "173d5251153154ea61ddb8c82a4fe194", "is_reserved": 0, "lon": -77.03918616666667, "is_disabled": 0, "fusion_lat": 0.0, "lat": 38.903319333333336, "bike_id": "173d5251153154ea61ddb8c82a4fe194", "fusion_lon": 0.0}, {"rental_uris": {"ios": "https://dc.lft.to/lastmile_qr_scan", "android": "https://dc.lft.to/lastmile_qr_scan"}, "type": "electric_scooter", "name": "8cf37576c33be67c7d2303a6dfe55f6c", "is_reserved": 0, "lon": -76.99232483333333, "is_disabled": 0, "fusion_lat": 0.0, "lat": 38.88753166666667, "bike_id": "8cf37576c33be67c7d2303a6dfe55f6c", "fusion_lon": 0.0}, {"rental_uris": {"ios": "https://dc.lft.to/lastmile_qr_scan", "android": "https://dc.lft.to/lastmile_qr_scan"}, "type": "electric_scooter", "name": "8d9db3119aa9ee5f91c6b4d6436a8b87", "is_reserved": 0, "lon": -77.02174816666667, "is_disabled": 0, "fusion_lat": 0.0, "lat": 38.910023833333334, "bike_id": "8d9db3119aa9ee5f91c6b4d6436a8b87", "fusion_lon": 0.0}, {"rental_uris": {"ios": "https://dc.lft.to/lastmile_qr_scan", "android": "https://dc.lft.to/lastmile_qr_scan"}, "type": "electric_bike", "name": "1ea2b66720c4ee692328d5553cd9432a", "is_reserved": 0, "lon": -76.95797366666666, "is_disabled": 0, "fusion_lat": 0.0, "lat": 38.980480166666666, "bike_id": "1ea2b66720c4ee692328d5553cd9432a", "fusion_lon": 0.0}, {"rental_uris": {"ios": "https://dc.lft.to/lastmile_qr_scan", "android": "https://dc.lft.to/lastmile_qr_scan"}, "type": "electric_scooter", "name": "4895e79eaeb650b1fcb21cf3df07a0cb", "is_reserved": 0, "lon": -76.997946, "is_disabled": 0, "fusion_lat": 0.0, "lat": 38.87635516666667, "bike_id": "4895e79eaeb650b1fcb21cf3df07a0cb", "fusion_lon": 0.0}, {"rental_uris": {"ios": "https://dc.lft.to/lastmile_qr_scan", "android": "https://dc.lft.to/lastmile_qr_scan"}, "type": "electric_scooter", "name": "7175029690d6c7b9ab0623cdbf9e6349", "is_reserved": 0, "lon": -77.0251135, "is_disabled": 0, "fusion_lat": 0.0, "lat": 38.92061416666667, "bike_id": "7175029690d6c7b9ab0623cdbf9e6349", "fusion_lon": 0.0}, {"rental_uris": {"ios": "https://dc.lft.to/lastmile_qr_scan", "android": "https://dc.lft.to/lastmile_qr_scan"}, "type": "electric_scooter", "name": "3ea5d63737b61b13bc53e5ab642e83e5", "is_reserved": 0, "lon": -77.03218366666667, "is_disabled": 0, "fusion_lat": 0.0, "lat": 38.908706, "bike_id": "3ea5d63737b61b13bc53e5ab642e83e5", "fusion_lon": 0.0}, {"rental_uris": {"ios": "https://dc.lft.to/lastmile_qr_scan", "android": "https://dc.lft.to/lastmile_qr_scan"}, "type": "electric_scooter", "name": "55f39fe3ca238ff928255382434d1553", "is_reserved": 0, "lon": -77.07756866666666, "is_disabled": 0, "fusion_lat": 0.0, "lat": 38.925590166666666, "bike_id": "55f39fe3ca238ff928255382434d1553", "fusion_lon": 0.0}, {"rental_uris": {"ios": "https://dc.lft.to/lastmile_qr_scan", "android": "https://dc.lft.to/lastmile_qr_scan"}, "type": "electric_scooter", "name": "a49e542da0a94b49a29bc136e0a9f93f", "is_reserved": 0, "lon": -77.02634983333333, "is_disabled": 0, "fusion_lat": 0.0, "lat": 38.90296983333333, "bike_id": "a49e542da0a94b49a29bc136e0a9f93f", "fusion_lon": 0.0}, {"rental_uris": {"ios": "https://dc.lft.to/lastmile_qr_scan", "android": "https://dc.lft.to/lastmile_qr_scan"}, "type": "electric_scooter", "name": "f22bf6822b6c1dfc30ab18e93b62ea34", "is_reserved": 0, "lon": -77.04192716666667, "is_disabled": 0, "fusion_lat": 0.0, "lat": 38.920551333333336, "bike_id": "f22bf6822b6c1dfc30ab18e93b62ea34", "fusion_lon": 0.0}, {"rental_uris": {"ios": "https://dc.lft.to/lastmile_qr_scan", "android": "https://dc.lft.to/lastmile_qr_scan"}, "type": "electric_bike", "name": "602937ec9eb4be4e6c4f2fd27e5720a8", "is_reserved": 0, "lon": -77.00135516666667, "is_disabled": 0, "fusion_lat": 0.0, "lat": 38.9949705, "bike_id": "602937ec9eb4be4e6c4f2fd27e5720a8", "fusion_lon": 0.0}, {"rental_uris": {"ios": "https://dc.lft.to/lastmile_qr_scan", "android": "https://dc.lft.to/lastmile_qr_scan"}, "type": "electric_scooter", "name": "503cc62ed82acc80f011fd7cf5e32c37", "is_reserved": 0, "lon": -76.975744, "is_disabled": 0, "fusion_lat": 0.0, "lat": 38.94425233333333, "bike_id": "503cc62ed82acc80f011fd7cf5e32c37", "fusion_lon": 0.0}, {"rental_uris": {"ios": "https://dc.lft.to/lastmile_qr_scan", "android": "https://dc.lft.to/lastmile_qr_scan"}, "type": "electric_scooter", "name": "848d1ad3807b881402d33abd27673cee", "is_reserved": 0, "lon": -77.03025033333333, "is_disabled": 0, "fusion_lat": 0.0, "lat": 38.922436, "bike_id": "848d1ad3807b881402d33abd27673cee", "fusion_lon": 0.0}, {"rental_uris": {"ios": "https://dc.lft.to/lastmile_qr_scan", "android": "https://dc.lft.to/lastmile_qr_scan"}, "type": "electric_scooter", "name": "5e350b8f2b7f87534378a283db9facbf", "is_reserved": 0, "lon": -77.03277533333333, "is_disabled": 0, "fusion_lat": 0.0, "lat": 38.932696, "bike_id": "5e350b8f2b7f87534378a283db9facbf", "fusion_lon": 0.0}, {"rental_uris": {"ios": "https://dc.lft.to/lastmile_qr_scan", "android": "https://dc.lft.to/lastmile_qr_scan"}, "type": "electric_scooter", "name": "835de331936d12c15a9c6ea394259f06", "is_reserved": 0, "lon": -76.99600633333333, "is_disabled": 0, "fusion_lat": 0.0, "lat": 38.9003195, "bike_id": "835de331936d12c15a9c6ea394259f06", "fusion_lon": 0.0}, {"rental_uris": {"ios": "https://dc.lft.to/lastmile_qr_scan", "android": "https://dc.lft.to/lastmile_qr_scan"}, "type": "electric_scooter", "name": "7584510544ae18a82e5a56e0eeb35c8a", "is_reserved": 0, "lon": -77.027227, "is_disabled": 0, "fusion_lat": 0.0, "lat": 38.92484233333333, "bike_id": "7584510544ae18a82e5a56e0eeb35c8a", "fusion_lon": 0.0}, {"rental_uris": {"ios": "https://dc.lft.to/lastmile_qr_scan", "android": "https://dc.lft.to/lastmile_qr_scan"}, "type": "electric_scooter", "name": "0d56dce529ba0f6ed1aba288629e7308", "is_reserved": 0, "lon": -77.03432233333334, "is_disabled": 0, "fusion_lat": 0.0, "lat": 38.9098045, "bike_id": "0d56dce529ba0f6ed1aba288629e7308", "fusion_lon": 0.0}, {"rental_uris": {"ios": "https://dc.lft.to/lastmile_qr_scan", "android": "https://dc.lft.to/lastmile_qr_scan"}, "type": "electric_scooter", "name": "572c76fa2896b10dba6863b16d3f91da", "is_reserved": 0, "lon": -77.01572733333333, "is_disabled": 0, "fusion_lat": 0.0, "lat": 38.91674966666667, "bike_id": "572c76fa2896b10dba6863b16d3f91da", "fusion_lon": 0.0}, {"rental_uris": {"ios": "https://dc.lft.to/lastmile_qr_scan", "android": "https://dc.lft.to/lastmile_qr_scan"}, "type": "electric_scooter", "name": "d7dbfa6c8109472c3af16561e0bc3fe0", "is_reserved": 0, "lon": -77.03183633333333, "is_disabled": 0, "fusion_lat": 0.0, "lat": 38.892261166666664, "bike_id": "d7dbfa6c8109472c3af16561e0bc3fe0", "fusion_lon": 0.0}, {"rental_uris": {"ios": "https://dc.lft.to/lastmile_qr_scan", "android": "https://dc.lft.to/lastmile_qr_scan"}, "type": "electric_bike", "name": "8bf12c2ad8a46e1d659c85dac2316a29", "is_reserved": 0, "lon": -77.05094766666667, "is_disabled": 0, "fusion_lat": 0.0, "lat": 38.813352, "bike_id": "8bf12c2ad8a46e1d659c85dac2316a29", "fusion_lon": 0.0}, {"rental_uris": {"ios": "https://dc.lft.to/lastmile_qr_scan", "android": "https://dc.lft.to/lastmile_qr_scan"}, "type": "electric_scooter", "name": "0dcf416f1c605cbf7c8fee092d43b5e3", "is_reserved": 0, "lon": -77.047848, "is_disabled": 0, "fusion_lat": 0.0, "lat": 38.9086095, "bike_id": "0dcf416f1c605cbf7c8fee092d43b5e3", "fusion_lon": 0.0}, {"rental_uris": {"ios": "https://dc.lft.to/lastmile_qr_scan", "android": "https://dc.lft.to/lastmile_qr_scan"}, "type": "electric_scooter", "name": "2e088a6ebfbce5ea5c5e956e34c67ef4", "is_reserved": 0, "lon": -77.00990316666666, "is_disabled": 0, "fusion_lat": 0.0, "lat": 38.920274166666665, "bike_id": "2e088a6ebfbce5ea5c5e956e34c67ef4", "fusion_lon": 0.0}, {"rental_uris": {"ios": "https://dc.lft.to/lastmile_qr_scan", "android": "https://dc.lft.to/lastmile_qr_scan"}, "type": "electric_scooter", "name": "78bf1b7a237a45603705e36de1355d3b", "is_reserved": 0, "lon": -77.00219783333333, "is_disabled": 0, "fusion_lat": 0.0, "lat": 38.89453666666667, "bike_id": "78bf1b7a237a45603705e36de1355d3b", "fusion_lon": 0.0}, {"rental_uris": {"ios": "https://dc.lft.to/lastmile_qr_scan", "android": "https://dc.lft.to/lastmile_qr_scan"}, "type": "electric_scooter", "name": "1ce323aca0e9857d523ab9adf9a856e1", "is_reserved": 0, "lon": -77.00916166666667, "is_disabled": 0, "fusion_lat": 0.0, "lat": 38.907679333333334, "bike_id": "1ce323aca0e9857d523ab9adf9a856e1", "fusion_lon": 0.0}, {"rental_uris": {"ios": "https://dc.lft.to/lastmile_qr_scan", "android": "https://dc.lft.to/lastmile_qr_scan"}, "type": "electric_scooter", "name": "c9b4f933b2876ebf291c67e75390836e", "is_reserved": 0, "lon": -77.0148255, "is_disabled": 0, "fusion_lat": 0.0, "lat": 38.887437166666665, "bike_id": "c9b4f933b2876ebf291c67e75390836e", "fusion_lon": 0.0}, {"rental_uris": {"ios": "https://dc.lft.to/lastmile_qr_scan", "android": "https://dc.lft.to/lastmile_qr_scan"}, "type": "electric_scooter", "name": "aebc5ae3bd1f6af7107ffb6c8c5dc14a", "is_reserved": 0, "lon": -77.03533316666666, "is_disabled": 0, "fusion_lat": 0.0, "lat": 38.9233715, "bike_id": "aebc5ae3bd1f6af7107ffb6c8c5dc14a", "fusion_lon": 0.0}, {"rental_uris": {"ios": "https://dc.lft.to/lastmile_qr_scan", "android": "https://dc.lft.to/lastmile_qr_scan"}, "type": "electric_bike", "name": "032e35f25a6d8ebc9496dfd26067b87c", "is_reserved": 0, "lon": -76.97323266666666, "is_disabled": 0, "fusion_lat": 0.0, "lat": 38.86516733333333, "bike_id": "032e35f25a6d8ebc9496dfd26067b87c", "fusion_lon": 0.0}, {"rental_uris": {"ios": "https://dc.lft.to/lastmile_qr_scan", "android": "https://dc.lft.to/lastmile_qr_scan"}, "type": "electric_scooter", "name": "aebaf71353de5af1614441d97fa43e21", "is_reserved": 0, "lon": -77.0206715, "is_disabled": 0, "fusion_lat": 0.0, "lat": 38.90851133333334, "bike_id": "aebaf71353de5af1614441d97fa43e21", "fusion_lon": 0.0}, {"rental_uris": {"ios": "https://dc.lft.to/lastmile_qr_scan", "android": "https://dc.lft.to/lastmile_qr_scan"}, "type": "electric_scooter", "name": "4f1ebad746820d2b91f88b4d44b08af1", "is_reserved": 0, "lon": -77.038531, "is_disabled": 0, "fusion_lat": 0.0, "lat": 38.912811166666664, "bike_id": "4f1ebad746820d2b91f88b4d44b08af1", "fusion_lon": 0.0}, {"rental_uris": {"ios": "https://dc.lft.to/lastmile_qr_scan", "android": "https://dc.lft.to/lastmile_qr_scan"}, "type": "electric_scooter", "name": "e601552bcdbfdfa3ec04159d82c9dc57", "is_reserved": 0, "lon": -77.0249345, "is_disabled": 0, "fusion_lat": 0.0, "lat": 38.92600233333334, "bike_id": "e601552bcdbfdfa3ec04159d82c9dc57", "fusion_lon": 0.0}, {"rental_uris": {"ios": "https://dc.lft.to/lastmile_qr_scan", "android": "https://dc.lft.to/lastmile_qr_scan"}, "type": "electric_scooter", "name": "026cabf1d7355b234157fb42624422a6", "is_reserved": 0, "lon": -77.072786, "is_disabled": 0, "fusion_lat": 0.0, "lat": 38.93528083333333, "bike_id": "026cabf1d7355b234157fb42624422a6", "fusion_lon": 0.0}, {"rental_uris": {"ios": "https://dc.lft.to/lastmile_qr_scan", "android": "https://dc.lft.to/lastmile_qr_scan"}, "type": "electric_scooter", "name": "10fa1b45c46ae680b27d8316da5e911c", "is_reserved": 0, "lon": -77.0344195, "is_disabled": 0, "fusion_lat": 0.0, "lat": 38.9097375, "bike_id": "10fa1b45c46ae680b27d8316da5e911c", "fusion_lon": 0.0}, {"rental_uris": {"ios": "https://dc.lft.to/lastmile_qr_scan", "android": "https://dc.lft.to/lastmile_qr_scan"}, "type": "electric_scooter", "name": "3f51f5edb68b67e043470c9eb139fb91", "is_reserved": 0, "lon": -77.03966933333334, "is_disabled": 0, "fusion_lat": 0.0, "lat": 38.9316085, "bike_id": "3f51f5edb68b67e043470c9eb139fb91", "fusion_lon": 0.0}, {"rental_uris": {"ios": "https://dc.lft.to/lastmile_qr_scan", "android": "https://dc.lft.to/lastmile_qr_scan"}, "type": "electric_scooter", "name": "5d807c73ef69b6de6843ec01c851fdc4", "is_reserved": 0, "lon": -77.01073733333334, "is_disabled": 0, "fusion_lat": 0.0, "lat": 38.91197, "bike_id": "5d807c73ef69b6de6843ec01c851fdc4", "fusion_lon": 0.0}, {"rental_uris": {"ios": "https://dc.lft.to/lastmile_qr_scan", "android": "https://dc.lft.to/lastmile_qr_scan"}, "type": "electric_scooter", "name": "b19db4238bf08854f161e46db19ae642", "is_reserved": 0, "lon": -77.04562733333333, "is_disabled": 0, "fusion_lat": 0.0, "lat": 38.918321166666665, "bike_id": "b19db4238bf08854f161e46db19ae642", "fusion_lon": 0.0}, {"rental_uris": {"ios": "https://dc.lft.to/lastmile_qr_scan", "android": "https://dc.lft.to/lastmile_qr_scan"}, "type": "electric_scooter", "name": "2c8fb38ec347637c0f39d3183d2713f4", "is_reserved": 0, "lon": -77.0467115, "is_disabled": 0, "fusion_lat": 0.0, "lat": 38.896269833333335, "bike_id": "2c8fb38ec347637c0f39d3183d2713f4", "fusion_lon": 0.0}, {"rental_uris": {"ios": "https://dc.lft.to/lastmile_qr_scan", "android": "https://dc.lft.to/lastmile_qr_scan"}, "type": "electric_bike", "name": "b6116c55f7148b5c7b7357ffd43f6eb5", "is_reserved": 0, "lon": -77.06948483333333, "is_disabled": 0, "fusion_lat": 0.0, "lat": 38.83630266666667, "bike_id": "b6116c55f7148b5c7b7357ffd43f6eb5", "fusion_lon": 0.0}, {"rental_uris": {"ios": "https://dc.lft.to/lastmile_qr_scan", "android": "https://dc.lft.to/lastmile_qr_scan"}, "type": "electric_scooter", "name": "6d60d4e27a593f6984d8a47a704adcfc", "is_reserved": 0, "lon": -77.032493, "is_disabled": 0, "fusion_lat": 0.0, "lat": 38.91715966666667, "bike_id": "6d60d4e27a593f6984d8a47a704adcfc", "fusion_lon": 0.0}, {"rental_uris": {"ios": "https://dc.lft.to/lastmile_qr_scan", "android": "https://dc.lft.to/lastmile_qr_scan"}, "type": "electric_scooter", "name": "6c1f61964a2b39a3e8628275655ab414", "is_reserved": 0, "lon": -77.02412, "is_disabled": 0, "fusion_lat": 0.0, "lat": 38.929967166666664, "bike_id": "6c1f61964a2b39a3e8628275655ab414", "fusion_lon": 0.0}, {"rental_uris": {"ios": "https://dc.lft.to/lastmile_qr_scan", "android": "https://dc.lft.to/lastmile_qr_scan"}, "type": "electric_scooter", "name": "4bc2ef90388f0829ee185ae21b1a301f", "is_reserved": 0, "lon": -77.04821716666666, "is_disabled": 0, "fusion_lat": 0.0, "lat": 38.9149295, "bike_id": "4bc2ef90388f0829ee185ae21b1a301f", "fusion_lon": 0.0}, {"rental_uris": {"ios": "https://dc.lft.to/lastmile_qr_scan", "android": "https://dc.lft.to/lastmile_qr_scan"}, "type": "electric_scooter", "name": "4253889a84e61e67863d488c72094d11", "is_reserved": 0, "lon": -77.0070715, "is_disabled": 0, "fusion_lat": 0.0, "lat": 38.87703883333333, "bike_id": "4253889a84e61e67863d488c72094d11", "fusion_lon": 0.0}, {"rental_uris": {"ios": "https://dc.lft.to/lastmile_qr_scan", "android": "https://dc.lft.to/lastmile_qr_scan"}, "type": "electric_bike", "name": "69c0c820ad0e9d90d83467298958b534", "is_reserved": 0, "lon": -76.993572, "is_disabled": 0, "fusion_lat": 0.0, "lat": 38.845066, "bike_id": "69c0c820ad0e9d90d83467298958b534", "fusion_lon": 0.0}, {"rental_uris": {"ios": "https://dc.lft.to/lastmile_qr_scan", "android": "https://dc.lft.to/lastmile_qr_scan"}, "type": "electric_scooter", "name": "f71d6b856694320c17a65fa6c0604eba", "is_reserved": 0, "lon": -76.9918085, "is_disabled": 0, "fusion_lat": 0.0, "lat": 38.90506516666667, "bike_id": "f71d6b856694320c17a65fa6c0604eba", "fusion_lon": 0.0}, {"rental_uris": {"ios": "https://dc.lft.to/lastmile_qr_scan", "android": "https://dc.lft.to/lastmile_qr_scan"}, "type": "electric_scooter", "name": "8f5bcd6e7ba299ba1764efea53722202", "is_reserved": 0, "lon": -77.046611, "is_disabled": 0, "fusion_lat": 0.0, "lat": 38.905581833333336, "bike_id": "8f5bcd6e7ba299ba1764efea53722202", "fusion_lon": 0.0}, {"rental_uris": {"ios": "https://dc.lft.to/lastmile_qr_scan", "android": "https://dc.lft.to/lastmile_qr_scan"}, "type": "electric_scooter", "name": "d940b900583971096cb8965265f063fb", "is_reserved": 0, "lon": -76.995903, "is_disabled": 0, "fusion_lat": 0.0, "lat": 38.909443833333334, "bike_id": "d940b900583971096cb8965265f063fb", "fusion_lon": 0.0}, {"rental_uris": {"ios": "https://dc.lft.to/lastmile_qr_scan", "android": "https://dc.lft.to/lastmile_qr_scan"}, "type": "electric_scooter", "name": "de4e4631b8abe8e2283e6ba3272e6ed9", "is_reserved": 0, "lon": -76.97331383333334, "is_disabled": 0, "fusion_lat": 0.0, "lat": 38.90412533333333, "bike_id": "de4e4631b8abe8e2283e6ba3272e6ed9", "fusion_lon": 0.0}, {"rental_uris": {"ios": "https://dc.lft.to/lastmile_qr_scan", "android": "https://dc.lft.to/lastmile_qr_scan"}, "type": "electric_scooter", "name": "d460c0f36884b9c87d5aa66a9ce8e15e", "is_reserved": 0, "lon": -77.06770966666667, "is_disabled": 0, "fusion_lat": 0.0, "lat": 38.90410333333333, "bike_id": "d460c0f36884b9c87d5aa66a9ce8e15e", "fusion_lon": 0.0}, {"rental_uris": {"ios": "https://dc.lft.to/lastmile_qr_scan", "android": "https://dc.lft.to/lastmile_qr_scan"}, "type": "electric_scooter", "name": "cffe40bf73be24f22c56d1c42c284d7e", "is_reserved": 0, "lon": -77.02214066666667, "is_disabled": 0, "fusion_lat": 0.0, "lat": 38.92474283333333, "bike_id": "cffe40bf73be24f22c56d1c42c284d7e", "fusion_lon": 0.0}, {"rental_uris": {"ios": "https://dc.lft.to/lastmile_qr_scan", "android": "https://dc.lft.to/lastmile_qr_scan"}, "type": "electric_scooter", "name": "92f86f04ea6b53f2fdd7be16cf90939f", "is_reserved": 0, "lon": -76.92919933333333, "is_disabled": 0, "fusion_lat": 0.0, "lat": 38.88658216666666, "bike_id": "92f86f04ea6b53f2fdd7be16cf90939f", "fusion_lon": 0.0}, {"rental_uris": {"ios": "https://dc.lft.to/lastmile_qr_scan", "android": "https://dc.lft.to/lastmile_qr_scan"}, "type": "electric_scooter", "name": "02a78c98396a02c7e230729a2215fb62", "is_reserved": 0, "lon": -77.03861733333333, "is_disabled": 0, "fusion_lat": 0.0, "lat": 38.91716366666667, "bike_id": "02a78c98396a02c7e230729a2215fb62", "fusion_lon": 0.0}, {"rental_uris": {"ios": "https://dc.lft.to/lastmile_qr_scan", "android": "https://dc.lft.to/lastmile_qr_scan"}, "type": "electric_scooter", "name": "3a5aa35956e56d6e9eaa2ac810b56ec3", "is_reserved": 0, "lon": -77.03903616666666, "is_disabled": 0, "fusion_lat": 0.0, "lat": 38.924425166666666, "bike_id": "3a5aa35956e56d6e9eaa2ac810b56ec3", "fusion_lon": 0.0}, {"rental_uris": {"ios": "https://dc.lft.to/lastmile_qr_scan", "android": "https://dc.lft.to/lastmile_qr_scan"}, "type": "electric_scooter", "name": "a45c04885e4757126da9e600c2b5f620", "is_reserved": 0, "lon": -76.97040833333334, "is_disabled": 0, "fusion_lat": 0.0, "lat": 38.86332, "bike_id": "a45c04885e4757126da9e600c2b5f620", "fusion_lon": 0.0}, {"rental_uris": {"ios": "https://dc.lft.to/lastmile_qr_scan", "android": "https://dc.lft.to/lastmile_qr_scan"}, "type": "electric_scooter", "name": "d5031ff04f9e72855f876e70211d6eda", "is_reserved": 0, "lon": -76.99561733333333, "is_disabled": 0, "fusion_lat": 0.0, "lat": 38.9267125, "bike_id": "d5031ff04f9e72855f876e70211d6eda", "fusion_lon": 0.0}, {"rental_uris": {"ios": "https://dc.lft.to/lastmile_qr_scan", "android": "https://dc.lft.to/lastmile_qr_scan"}, "type": "electric_scooter", "name": "b25d44ce394c9330e0e79e85ef4d4e60", "is_reserved": 0, "lon": -77.03665366666667, "is_disabled": 0, "fusion_lat": 0.0, "lat": 38.91389016666667, "bike_id": "b25d44ce394c9330e0e79e85ef4d4e60", "fusion_lon": 0.0}, {"rental_uris": {"ios": "https://dc.lft.to/lastmile_qr_scan", "android": "https://dc.lft.to/lastmile_qr_scan"}, "type": "electric_scooter", "name": "a6297299cc11551af8f50773bd52556d", "is_reserved": 0, "lon": -77.05866266666666, "is_disabled": 0, "fusion_lat": 0.0, "lat": 38.942391, "bike_id": "a6297299cc11551af8f50773bd52556d", "fusion_lon": 0.0}, {"rental_uris": {"ios": "https://dc.lft.to/lastmile_qr_scan", "android": "https://dc.lft.to/lastmile_qr_scan"}, "type": "electric_scooter", "name": "a735dcbc8d0a41add954b28bf1deaaa5", "is_reserved": 0, "lon": -77.04188466666666, "is_disabled": 0, "fusion_lat": 0.0, "lat": 38.922077, "bike_id": "a735dcbc8d0a41add954b28bf1deaaa5", "fusion_lon": 0.0}, {"rental_uris": {"ios": "https://dc.lft.to/lastmile_qr_scan", "android": "https://dc.lft.to/lastmile_qr_scan"}, "type": "electric_scooter", "name": "6cc8ba11343dda1773e6715e859c3eea", "is_reserved": 0, "lon": -77.03651883333333, "is_disabled": 0, "fusion_lat": 0.0, "lat": 38.955978, "bike_id": "6cc8ba11343dda1773e6715e859c3eea", "fusion_lon": 0.0}, {"rental_uris": {"ios": "https://dc.lft.to/lastmile_qr_scan", "android": "https://dc.lft.to/lastmile_qr_scan"}, "type": "electric_scooter", "name": "b53d525e70975e3e5f9bdcbb0e06670b", "is_reserved": 0, "lon": -77.02968916666667, "is_disabled": 0, "fusion_lat": 0.0, "lat": 38.917219, "bike_id": "b53d525e70975e3e5f9bdcbb0e06670b", "fusion_lon": 0.0}, {"rental_uris": {"ios": "https://dc.lft.to/lastmile_qr_scan", "android": "https://dc.lft.to/lastmile_qr_scan"}, "type": "electric_scooter", "name": "f5602259abc74522e4f0a7a8778fa49a", "is_reserved": 0, "lon": -77.03657483333333, "is_disabled": 0, "fusion_lat": 0.0, "lat": 38.936326333333334, "bike_id": "f5602259abc74522e4f0a7a8778fa49a", "fusion_lon": 0.0}, {"rental_uris": {"ios": "https://dc.lft.to/lastmile_qr_scan", "android": "https://dc.lft.to/lastmile_qr_scan"}, "type": "electric_scooter", "name": "d2b79423a68d6bda11fcfe7ae6f72a95", "is_reserved": 0, "lon": -77.00920266666667, "is_disabled": 0, "fusion_lat": 0.0, "lat": 38.881886, "bike_id": "d2b79423a68d6bda11fcfe7ae6f72a95", "fusion_lon": 0.0}, {"rental_uris": {"ios": "https://dc.lft.to/lastmile_qr_scan", "android": "https://dc.lft.to/lastmile_qr_scan"}, "type": "electric_scooter", "name": "b6182f724b6eea3316a129da888e33c7", "is_reserved": 0, "lon": -77.03259316666667, "is_disabled": 0, "fusion_lat": 0.0, "lat": 38.919886166666664, "bike_id": "b6182f724b6eea3316a129da888e33c7", "fusion_lon": 0.0}, {"rental_uris": {"ios": "https://dc.lft.to/lastmile_qr_scan", "android": "https://dc.lft.to/lastmile_qr_scan"}, "type": "electric_scooter", "name": "39b2faac817e77cc3c7461f16680e511", "is_reserved": 0, "lon": -77.02597983333334, "is_disabled": 0, "fusion_lat": 0.0, "lat": 38.919573166666666, "bike_id": "39b2faac817e77cc3c7461f16680e511", "fusion_lon": 0.0}, {"rental_uris": {"ios": "https://dc.lft.to/lastmile_qr_scan", "android": "https://dc.lft.to/lastmile_qr_scan"}, "type": "electric_scooter", "name": "490d62f8aed93d719bd479cae22bd016", "is_reserved": 0, "lon": -77.0271275, "is_disabled": 0, "fusion_lat": 0.0, "lat": 38.92400833333333, "bike_id": "490d62f8aed93d719bd479cae22bd016", "fusion_lon": 0.0}, {"rental_uris": {"ios": "https://dc.lft.to/lastmile_qr_scan", "android": "https://dc.lft.to/lastmile_qr_scan"}, "type": "electric_scooter", "name": "d4cc6ffa8f5953fcfcb867edd721e891", "is_reserved": 0, "lon": -77.04649533333334, "is_disabled": 0, "fusion_lat": 0.0, "lat": 38.919654666666666, "bike_id": "d4cc6ffa8f5953fcfcb867edd721e891", "fusion_lon": 0.0}, {"rental_uris": {"ios": "https://dc.lft.to/lastmile_qr_scan", "android": "https://dc.lft.to/lastmile_qr_scan"}, "type": "electric_scooter", "name": "9dce98d389a00bd284590ab16bab6729", "is_reserved": 0, "lon": -77.01930083333333, "is_disabled": 0, "fusion_lat": 0.0, "lat": 38.928835166666666, "bike_id": "9dce98d389a00bd284590ab16bab6729", "fusion_lon": 0.0}, {"rental_uris": {"ios": "https://dc.lft.to/lastmile_qr_scan", "android": "https://dc.lft.to/lastmile_qr_scan"}, "type": "electric_scooter", "name": "e4c9cb12f8fe89d1d7bce1f5ea6e54b9", "is_reserved": 0, "lon": -77.017623, "is_disabled": 0, "fusion_lat": 0.0, "lat": 38.92109383333333, "bike_id": "e4c9cb12f8fe89d1d7bce1f5ea6e54b9", "fusion_lon": 0.0}, {"rental_uris": {"ios": "https://dc.lft.to/lastmile_qr_scan", "android": "https://dc.lft.to/lastmile_qr_scan"}, "type": "electric_bike", "name": "4e23b1fcf1af40274414087a9229f5e6", "is_reserved": 0, "lon": -77.00384383333333, "is_disabled": 0, "fusion_lat": 0.0, "lat": 38.8361145, "bike_id": "4e23b1fcf1af40274414087a9229f5e6", "fusion_lon": 0.0}, {"rental_uris": {"ios": "https://dc.lft.to/lastmile_qr_scan", "android": "https://dc.lft.to/lastmile_qr_scan"}, "type": "electric_scooter", "name": "2fcc2dc2d951f07624adf62eabb69eae", "is_reserved": 0, "lon": -77.0122, "is_disabled": 0, "fusion_lat": 0.0, "lat": 38.920359, "bike_id": "2fcc2dc2d951f07624adf62eabb69eae", "fusion_lon": 0.0}, {"rental_uris": {"ios": "https://dc.lft.to/lastmile_qr_scan", "android": "https://dc.lft.to/lastmile_qr_scan"}, "type": "electric_scooter", "name": "0fbf3ffcfc1ee9772f25a296b84b8d83", "is_reserved": 0, "lon": -77.08171083333333, "is_disabled": 0, "fusion_lat": 0.0, "lat": 38.91967783333333, "bike_id": "0fbf3ffcfc1ee9772f25a296b84b8d83", "fusion_lon": 0.0}, {"rental_uris": {"ios": "https://dc.lft.to/lastmile_qr_scan", "android": "https://dc.lft.to/lastmile_qr_scan"}, "type": "electric_scooter", "name": "ea02b6eb70f540cd1dc055057f796286", "is_reserved": 0, "lon": -77.03359416666666, "is_disabled": 0, "fusion_lat": 0.0, "lat": 38.95474, "bike_id": "ea02b6eb70f540cd1dc055057f796286", "fusion_lon": 0.0}, {"rental_uris": {"ios": "https://dc.lft.to/lastmile_qr_scan", "android": "https://dc.lft.to/lastmile_qr_scan"}, "type": "electric_scooter", "name": "3309f9b0f70d912d8d8a1a9e170d7721", "is_reserved": 0, "lon": -77.03866133333334, "is_disabled": 0, "fusion_lat": 0.0, "lat": 38.91118516666667, "bike_id": "3309f9b0f70d912d8d8a1a9e170d7721", "fusion_lon": 0.0}, {"rental_uris": {"ios": "https://dc.lft.to/lastmile_qr_scan", "android": "https://dc.lft.to/lastmile_qr_scan"}, "type": "electric_scooter", "name": "7fd50cdff04ac9fa5a48002ce3a04b2c", "is_reserved": 0, "lon": -77.04612733333333, "is_disabled": 0, "fusion_lat": 0.0, "lat": 38.883833, "bike_id": "7fd50cdff04ac9fa5a48002ce3a04b2c", "fusion_lon": 0.0}, {"rental_uris": {"ios": "https://dc.lft.to/lastmile_qr_scan", "android": "https://dc.lft.to/lastmile_qr_scan"}, "type": "electric_scooter", "name": "2fbdce04dc205ab673af1198a8b66c08", "is_reserved": 0, "lon": -77.03836816666667, "is_disabled": 0, "fusion_lat": 0.0, "lat": 38.907594, "bike_id": "2fbdce04dc205ab673af1198a8b66c08", "fusion_lon": 0.0}, {"rental_uris": {"ios": "https://dc.lft.to/lastmile_qr_scan", "android": "https://dc.lft.to/lastmile_qr_scan"}, "type": "electric_scooter", "name": "19cfc722c5cbb21b29aef1b5a1b2717b", "is_reserved": 0, "lon": -77.033364, "is_disabled": 0, "fusion_lat": 0.0, "lat": 38.91412733333333, "bike_id": "19cfc722c5cbb21b29aef1b5a1b2717b", "fusion_lon": 0.0}, {"rental_uris": {"ios": "https://dc.lft.to/lastmile_qr_scan", "android": "https://dc.lft.to/lastmile_qr_scan"}, "type": "electric_scooter", "name": "b7552f5e8f4250351784615f904f8d10", "is_reserved": 0, "lon": -77.01208383333334, "is_disabled": 0, "fusion_lat": 0.0, "lat": 38.9168475, "bike_id": "b7552f5e8f4250351784615f904f8d10", "fusion_lon": 0.0}, {"rental_uris": {"ios": "https://dc.lft.to/lastmile_qr_scan", "android": "https://dc.lft.to/lastmile_qr_scan"}, "type": "electric_scooter", "name": "e02feaaa6e90bbee0a8429580d6ed231", "is_reserved": 0, "lon": -76.955107, "is_disabled": 0, "fusion_lat": 0.0, "lat": 38.887824333333334, "bike_id": "e02feaaa6e90bbee0a8429580d6ed231", "fusion_lon": 0.0}, {"rental_uris": {"ios": "https://dc.lft.to/lastmile_qr_scan", "android": "https://dc.lft.to/lastmile_qr_scan"}, "type": "electric_scooter", "name": "0c4ac2e0556611bfd4ed8172e4a6ff4f", "is_reserved": 0, "lon": -77.04277366666666, "is_disabled": 0, "fusion_lat": 0.0, "lat": 38.9178465, "bike_id": "0c4ac2e0556611bfd4ed8172e4a6ff4f", "fusion_lon": 0.0}, {"rental_uris": {"ios": "https://dc.lft.to/lastmile_qr_scan", "android": "https://dc.lft.to/lastmile_qr_scan"}, "type": "electric_scooter", "name": "2260bdcc25c2edf7e42a66411aa2074f", "is_reserved": 0, "lon": -77.001633, "is_disabled": 0, "fusion_lat": 0.0, "lat": 38.912029, "bike_id": "2260bdcc25c2edf7e42a66411aa2074f", "fusion_lon": 0.0}, {"rental_uris": {"ios": "https://dc.lft.to/lastmile_qr_scan", "android": "https://dc.lft.to/lastmile_qr_scan"}, "type": "electric_scooter", "name": "e30e62248fd3e6a169234cb649cbda44", "is_reserved": 0, "lon": -76.98217733333334, "is_disabled": 0, "fusion_lat": 0.0, "lat": 38.8954795, "bike_id": "e30e62248fd3e6a169234cb649cbda44", "fusion_lon": 0.0}, {"rental_uris": {"ios": "https://dc.lft.to/lastmile_qr_scan", "android": "https://dc.lft.to/lastmile_qr_scan"}, "type": "electric_scooter", "name": "76d7f50f67b683ab29bfb3dd76cbeceb", "is_reserved": 0, "lon": -77.03267066666666, "is_disabled": 0, "fusion_lat": 0.0, "lat": 38.93237166666667, "bike_id": "76d7f50f67b683ab29bfb3dd76cbeceb", "fusion_lon": 0.0}, {"rental_uris": {"ios": "https://dc.lft.to/lastmile_qr_scan", "android": "https://dc.lft.to/lastmile_qr_scan"}, "type": "electric_scooter", "name": "0a963cc14c3f726c9dfb4b1050c67c72", "is_reserved": 0, "lon": -77.03246, "is_disabled": 0, "fusion_lat": 0.0, "lat": 38.9198695, "bike_id": "0a963cc14c3f726c9dfb4b1050c67c72", "fusion_lon": 0.0}, {"rental_uris": {"ios": "https://dc.lft.to/lastmile_qr_scan", "android": "https://dc.lft.to/lastmile_qr_scan"}, "type": "electric_scooter", "name": "51ac8b6434f81a11f938f8e157f9d10b", "is_reserved": 0, "lon": -76.94070633333334, "is_disabled": 0, "fusion_lat": 0.0, "lat": 38.885832, "bike_id": "51ac8b6434f81a11f938f8e157f9d10b", "fusion_lon": 0.0}, {"rental_uris": {"ios": "https://dc.lft.to/lastmile_qr_scan", "android": "https://dc.lft.to/lastmile_qr_scan"}, "type": "electric_scooter", "name": "bd2f9c036fc72d0c8a583e7b57f725bd", "is_reserved": 0, "lon": -77.02547183333333, "is_disabled": 0, "fusion_lat": 0.0, "lat": 38.951747, "bike_id": "bd2f9c036fc72d0c8a583e7b57f725bd", "fusion_lon": 0.0}, {"rental_uris": {"ios": "https://dc.lft.to/lastmile_qr_scan", "android": "https://dc.lft.to/lastmile_qr_scan"}, "type": "electric_scooter", "name": "5a7431d8f32eff4eb6a3122c4b45c09a", "is_reserved": 0, "lon": -76.95285283333334, "is_disabled": 0, "fusion_lat": 0.0, "lat": 38.88524, "bike_id": "5a7431d8f32eff4eb6a3122c4b45c09a", "fusion_lon": 0.0}, {"rental_uris": {"ios": "https://dc.lft.to/lastmile_qr_scan", "android": "https://dc.lft.to/lastmile_qr_scan"}, "type": "electric_scooter", "name": "0c677c63c4f91faa837c8001d52a13b2", "is_reserved": 0, "lon": -77.019525, "is_disabled": 0, "fusion_lat": 0.0, "lat": 38.924228166666666, "bike_id": "0c677c63c4f91faa837c8001d52a13b2", "fusion_lon": 0.0}, {"rental_uris": {"ios": "https://dc.lft.to/lastmile_qr_scan", "android": "https://dc.lft.to/lastmile_qr_scan"}, "type": "electric_scooter", "name": "8f2bc1d6933def0aad0cec4ac327b2f4", "is_reserved": 0, "lon": -76.995118, "is_disabled": 0, "fusion_lat": 0.0, "lat": 38.909776666666666, "bike_id": "8f2bc1d6933def0aad0cec4ac327b2f4", "fusion_lon": 0.0}, {"rental_uris": {"ios": "https://dc.lft.to/lastmile_qr_scan", "android": "https://dc.lft.to/lastmile_qr_scan"}, "type": "electric_scooter", "name": "ef77e73b0354ffbcc6d55ef0b997d240", "is_reserved": 0, "lon": -77.0173085, "is_disabled": 0, "fusion_lat": 0.0, "lat": 38.9025495, "bike_id": "ef77e73b0354ffbcc6d55ef0b997d240", "fusion_lon": 0.0}, {"rental_uris": {"ios": "https://dc.lft.to/lastmile_qr_scan", "android": "https://dc.lft.to/lastmile_qr_scan"}, "type": "electric_scooter", "name": "2d1b8f96747a1a412d25b1140632c0ef", "is_reserved": 0, "lon": -77.00592116666667, "is_disabled": 0, "fusion_lat": 0.0, "lat": 38.879583, "bike_id": "2d1b8f96747a1a412d25b1140632c0ef", "fusion_lon": 0.0}, {"rental_uris": {"ios": "https://dc.lft.to/lastmile_qr_scan", "android": "https://dc.lft.to/lastmile_qr_scan"}, "type": "electric_scooter", "name": "8161b98a889149d34b88bd4515cfc204", "is_reserved": 0, "lon": -77.04446166666666, "is_disabled": 0, "fusion_lat": 0.0, "lat": 38.918567, "bike_id": "8161b98a889149d34b88bd4515cfc204", "fusion_lon": 0.0}, {"rental_uris": {"ios": "https://dc.lft.to/lastmile_qr_scan", "android": "https://dc.lft.to/lastmile_qr_scan"}, "type": "electric_bike", "name": "e8cacff2ee612652288b6f3c2900fc3f", "is_reserved": 0, "lon": -77.020717, "is_disabled": 0, "fusion_lat": 0.0, "lat": 38.92846883333333, "bike_id": "e8cacff2ee612652288b6f3c2900fc3f", "fusion_lon": 0.0}, {"rental_uris": {"ios": "https://dc.lft.to/lastmile_qr_scan", "android": "https://dc.lft.to/lastmile_qr_scan"}, "type": "electric_scooter", "name": "eec5080732115c768d880a251d73d6fc", "is_reserved": 0, "lon": -77.04336783333333, "is_disabled": 0, "fusion_lat": 0.0, "lat": 38.89221666666667, "bike_id": "eec5080732115c768d880a251d73d6fc", "fusion_lon": 0.0}, {"rental_uris": {"ios": "https://dc.lft.to/lastmile_qr_scan", "android": "https://dc.lft.to/lastmile_qr_scan"}, "type": "electric_scooter", "name": "2dfaa908b64f20e0c46c15a0fdf631da", "is_reserved": 0, "lon": -77.02588383333334, "is_disabled": 0, "fusion_lat": 0.0, "lat": 38.90519883333333, "bike_id": "2dfaa908b64f20e0c46c15a0fdf631da", "fusion_lon": 0.0}, {"rental_uris": {"ios": "https://dc.lft.to/lastmile_qr_scan", "android": "https://dc.lft.to/lastmile_qr_scan"}, "type": "electric_scooter", "name": "deacf76388ee072983c66b8dba9435b6", "is_reserved": 0, "lon": -77.0308835, "is_disabled": 0, "fusion_lat": 0.0, "lat": 38.933102, "bike_id": "deacf76388ee072983c66b8dba9435b6", "fusion_lon": 0.0}, {"rental_uris": {"ios": "https://dc.lft.to/lastmile_qr_scan", "android": "https://dc.lft.to/lastmile_qr_scan"}, "type": "electric_scooter", "name": "f027b8841d7f3c2c1d48c04cccf62748", "is_reserved": 0, "lon": -77.00777816666667, "is_disabled": 0, "fusion_lat": 0.0, "lat": 38.95242833333333, "bike_id": "f027b8841d7f3c2c1d48c04cccf62748", "fusion_lon": 0.0}, {"rental_uris": {"ios": "https://dc.lft.to/lastmile_qr_scan", "android": "https://dc.lft.to/lastmile_qr_scan"}, "type": "electric_scooter", "name": "186fb7c5b290028c7daab3d7718f2c69", "is_reserved": 0, "lon": -76.94827283333333, "is_disabled": 0, "fusion_lat": 0.0, "lat": 38.88521383333333, "bike_id": "186fb7c5b290028c7daab3d7718f2c69", "fusion_lon": 0.0}, {"rental_uris": {"ios": "https://dc.lft.to/lastmile_qr_scan", "android": "https://dc.lft.to/lastmile_qr_scan"}, "type": "electric_scooter", "name": "0ec452f533b88cbd059dbd1361e54d01", "is_reserved": 0, "lon": -77.0355345, "is_disabled": 0, "fusion_lat": 0.0, "lat": 38.9047155, "bike_id": "0ec452f533b88cbd059dbd1361e54d01", "fusion_lon": 0.0}, {"rental_uris": {"ios": "https://dc.lft.to/lastmile_qr_scan", "android": "https://dc.lft.to/lastmile_qr_scan"}, "type": "electric_scooter", "name": "6e7f47332559e30fff39ce9f83a7fff0", "is_reserved": 0, "lon": -77.02829533333333, "is_disabled": 0, "fusion_lat": 0.0, "lat": 38.914071166666666, "bike_id": "6e7f47332559e30fff39ce9f83a7fff0", "fusion_lon": 0.0}, {"rental_uris": {"ios": "https://dc.lft.to/lastmile_qr_scan", "android": "https://dc.lft.to/lastmile_qr_scan"}, "type": "electric_scooter", "name": "ec921fe8c061f7eb6021c4e1b8dbcbb2", "is_reserved": 0, "lon": -77.04380966666666, "is_disabled": 0, "fusion_lat": 0.0, "lat": 38.892223, "bike_id": "ec921fe8c061f7eb6021c4e1b8dbcbb2", "fusion_lon": 0.0}, {"rental_uris": {"ios": "https://dc.lft.to/lastmile_qr_scan", "android": "https://dc.lft.to/lastmile_qr_scan"}, "type": "electric_bike", "name": "693172e3d2a2ff7138e387b7bb5f36a3", "is_reserved": 0, "lon": -76.97556016666667, "is_disabled": 0, "fusion_lat": 0.0, "lat": 38.904429666666665, "bike_id": "693172e3d2a2ff7138e387b7bb5f36a3", "fusion_lon": 0.0}, {"rental_uris": {"ios": "https://dc.lft.to/lastmile_qr_scan", "android": "https://dc.lft.to/lastmile_qr_scan"}, "type": "electric_bike", "name": "38f689ab3d558aed553b5f2ac96aef79", "is_reserved": 0, "lon": -76.95165283333333, "is_disabled": 0, "fusion_lat": 0.0, "lat": 39.08438683333333, "bike_id": "38f689ab3d558aed553b5f2ac96aef79", "fusion_lon": 0.0}, {"rental_uris": {"ios": "https://dc.lft.to/lastmile_qr_scan", "android": "https://dc.lft.to/lastmile_qr_scan"}, "type": "electric_bike", "name": "559bc2356866b5cd6ad6af95c632f209", "is_reserved": 0, "lon": -77.01431633333333, "is_disabled": 0, "fusion_lat": 0.0, "lat": 38.87675633333333, "bike_id": "559bc2356866b5cd6ad6af95c632f209", "fusion_lon": 0.0}, {"rental_uris": {"ios": "https://dc.lft.to/lastmile_qr_scan", "android": "https://dc.lft.to/lastmile_qr_scan"}, "type": "electric_scooter", "name": "64c3e8fe67afd1cd5627943df117c949", "is_reserved": 0, "lon": -77.01830133333333, "is_disabled": 0, "fusion_lat": 0.0, "lat": 38.9009595, "bike_id": "64c3e8fe67afd1cd5627943df117c949", "fusion_lon": 0.0}, {"rental_uris": {"ios": "https://dc.lft.to/lastmile_qr_scan", "android": "https://dc.lft.to/lastmile_qr_scan"}, "type": "electric_scooter", "name": "c76ea386378969eb4ed7e5a614cbb2fd", "is_reserved": 0, "lon": -77.049454, "is_disabled": 0, "fusion_lat": 0.0, "lat": 38.92019366666667, "bike_id": "c76ea386378969eb4ed7e5a614cbb2fd", "fusion_lon": 0.0}, {"rental_uris": {"ios": "https://dc.lft.to/lastmile_qr_scan", "android": "https://dc.lft.to/lastmile_qr_scan"}, "type": "electric_scooter", "name": "2dab209827f2255e80e80d31827bd583", "is_reserved": 0, "lon": -77.00156483333333, "is_disabled": 0, "fusion_lat": 0.0, "lat": 38.82133666666667, "bike_id": "2dab209827f2255e80e80d31827bd583", "fusion_lon": 0.0}, {"rental_uris": {"ios": "https://dc.lft.to/lastmile_qr_scan", "android": "https://dc.lft.to/lastmile_qr_scan"}, "type": "electric_scooter", "name": "539698b683bb7da01765695a38292d96", "is_reserved": 0, "lon": -76.93043683333333, "is_disabled": 0, "fusion_lat": 0.0, "lat": 38.88381916666667, "bike_id": "539698b683bb7da01765695a38292d96", "fusion_lon": 0.0}, {"rental_uris": {"ios": "https://dc.lft.to/lastmile_qr_scan", "android": "https://dc.lft.to/lastmile_qr_scan"}, "type": "electric_scooter", "name": "f6b48b7767ad22ea3efae9ff8fa1c2c3", "is_reserved": 0, "lon": -77.03859633333333, "is_disabled": 0, "fusion_lat": 0.0, "lat": 38.906672, "bike_id": "f6b48b7767ad22ea3efae9ff8fa1c2c3", "fusion_lon": 0.0}, {"rental_uris": {"ios": "https://dc.lft.to/lastmile_qr_scan", "android": "https://dc.lft.to/lastmile_qr_scan"}, "type": "electric_bike", "name": "7ccbd5511aa04dcdbf93d3493d804ac5", "is_reserved": 0, "lon": -77.22824466666667, "is_disabled": 0, "fusion_lat": 0.0, "lat": 38.882669666666665, "bike_id": "7ccbd5511aa04dcdbf93d3493d804ac5", "fusion_lon": 0.0}, {"rental_uris": {"ios": "https://dc.lft.to/lastmile_qr_scan", "android": "https://dc.lft.to/lastmile_qr_scan"}, "type": "electric_scooter", "name": "02b9fe6256f2c1124ea725ab138a4a68", "is_reserved": 0, "lon": -77.0194325, "is_disabled": 0, "fusion_lat": 0.0, "lat": 38.94699116666666, "bike_id": "02b9fe6256f2c1124ea725ab138a4a68", "fusion_lon": 0.0}, {"rental_uris": {"ios": "https://dc.lft.to/lastmile_qr_scan", "android": "https://dc.lft.to/lastmile_qr_scan"}, "type": "electric_scooter", "name": "c63a6da8688fef90aa10cab2586602b9", "is_reserved": 0, "lon": -77.0133915, "is_disabled": 0, "fusion_lat": 0.0, "lat": 38.91918016666666, "bike_id": "c63a6da8688fef90aa10cab2586602b9", "fusion_lon": 0.0}, {"rental_uris": {"ios": "https://dc.lft.to/lastmile_qr_scan", "android": "https://dc.lft.to/lastmile_qr_scan"}, "type": "electric_scooter", "name": "b42c4585d741416336ce4402e7f52aa3", "is_reserved": 0, "lon": -77.0183325, "is_disabled": 0, "fusion_lat": 0.0, "lat": 38.90097166666666, "bike_id": "b42c4585d741416336ce4402e7f52aa3", "fusion_lon": 0.0}, {"rental_uris": {"ios": "https://dc.lft.to/lastmile_qr_scan", "android": "https://dc.lft.to/lastmile_qr_scan"}, "type": "electric_scooter", "name": "30f6f6b93990546be876845cf8268d6b", "is_reserved": 0, "lon": -77.02239683333333, "is_disabled": 0, "fusion_lat": 0.0, "lat": 38.9267215, "bike_id": "30f6f6b93990546be876845cf8268d6b", "fusion_lon": 0.0}, {"rental_uris": {"ios": "https://dc.lft.to/lastmile_qr_scan", "android": "https://dc.lft.to/lastmile_qr_scan"}, "type": "electric_scooter", "name": "7608aa969e5edfb38da284f09f701aba", "is_reserved": 0, "lon": -77.022794, "is_disabled": 0, "fusion_lat": 0.0, "lat": 38.92084033333333, "bike_id": "7608aa969e5edfb38da284f09f701aba", "fusion_lon": 0.0}, {"rental_uris": {"ios": "https://dc.lft.to/lastmile_qr_scan", "android": "https://dc.lft.to/lastmile_qr_scan"}, "type": "electric_scooter", "name": "3c7e47927561a5e9e0b675cffa7de71a", "is_reserved": 0, "lon": -77.00919816666666, "is_disabled": 0, "fusion_lat": 0.0, "lat": 38.89743433333334, "bike_id": "3c7e47927561a5e9e0b675cffa7de71a", "fusion_lon": 0.0}, {"rental_uris": {"ios": "https://dc.lft.to/lastmile_qr_scan", "android": "https://dc.lft.to/lastmile_qr_scan"}, "type": "electric_scooter", "name": "c3d4f79f7b4d14a39b5519446dddfc91", "is_reserved": 0, "lon": -77.01534433333333, "is_disabled": 0, "fusion_lat": 0.0, "lat": 38.87949783333333, "bike_id": "c3d4f79f7b4d14a39b5519446dddfc91", "fusion_lon": 0.0}, {"rental_uris": {"ios": "https://dc.lft.to/lastmile_qr_scan", "android": "https://dc.lft.to/lastmile_qr_scan"}, "type": "electric_scooter", "name": "84198ba6e0211fe383792b43fd5bd358", "is_reserved": 0, "lon": -77.0318815, "is_disabled": 0, "fusion_lat": 0.0, "lat": 38.907067166666664, "bike_id": "84198ba6e0211fe383792b43fd5bd358", "fusion_lon": 0.0}, {"rental_uris": {"ios": "https://dc.lft.to/lastmile_qr_scan", "android": "https://dc.lft.to/lastmile_qr_scan"}, "type": "electric_scooter", "name": "08c42040107752df98359d8bf189d8b9", "is_reserved": 0, "lon": -77.04996416666667, "is_disabled": 0, "fusion_lat": 0.0, "lat": 38.904792, "bike_id": "08c42040107752df98359d8bf189d8b9", "fusion_lon": 0.0}, {"rental_uris": {"ios": "https://dc.lft.to/lastmile_qr_scan", "android": "https://dc.lft.to/lastmile_qr_scan"}, "type": "electric_scooter", "name": "f3ab92ae99b621e240ae2f2e0952d0bc", "is_reserved": 0, "lon": -77.035587, "is_disabled": 0, "fusion_lat": 0.0, "lat": 38.9047605, "bike_id": "f3ab92ae99b621e240ae2f2e0952d0bc", "fusion_lon": 0.0}, {"rental_uris": {"ios": "https://dc.lft.to/lastmile_qr_scan", "android": "https://dc.lft.to/lastmile_qr_scan"}, "type": "electric_scooter", "name": "ffb87c5cbe2c2329f4141337e67cc7f6", "is_reserved": 0, "lon": -77.0476835, "is_disabled": 0, "fusion_lat": 0.0, "lat": 38.89768383333333, "bike_id": "ffb87c5cbe2c2329f4141337e67cc7f6", "fusion_lon": 0.0}, {"rental_uris": {"ios": "https://dc.lft.to/lastmile_qr_scan", "android": "https://dc.lft.to/lastmile_qr_scan"}, "type": "electric_scooter", "name": "96aaa12fc80344af3b55bc826f6dcc5c", "is_reserved": 0, "lon": -76.9837155, "is_disabled": 0, "fusion_lat": 0.0, "lat": 38.860317, "bike_id": "96aaa12fc80344af3b55bc826f6dcc5c", "fusion_lon": 0.0}, {"rental_uris": {"ios": "https://dc.lft.to/lastmile_qr_scan", "android": "https://dc.lft.to/lastmile_qr_scan"}, "type": "electric_scooter", "name": "86d56e395ad4a0f78e752ace15274601", "is_reserved": 0, "lon": -77.04291733333334, "is_disabled": 0, "fusion_lat": 0.0, "lat": 38.90657616666667, "bike_id": "86d56e395ad4a0f78e752ace15274601", "fusion_lon": 0.0}, {"rental_uris": {"ios": "https://dc.lft.to/lastmile_qr_scan", "android": "https://dc.lft.to/lastmile_qr_scan"}, "type": "electric_scooter", "name": "d89168c5957574ade0bd7b1ea2e9248d", "is_reserved": 0, "lon": -77.02712033333333, "is_disabled": 0, "fusion_lat": 0.0, "lat": 38.92225883333333, "bike_id": "d89168c5957574ade0bd7b1ea2e9248d", "fusion_lon": 0.0}, {"rental_uris": {"ios": "https://dc.lft.to/lastmile_qr_scan", "android": "https://dc.lft.to/lastmile_qr_scan"}, "type": "electric_scooter", "name": "382d8b9f8bae2c8c1619fdc5be3a589c", "is_reserved": 0, "lon": -76.99510866666667, "is_disabled": 0, "fusion_lat": 0.0, "lat": 38.912358, "bike_id": "382d8b9f8bae2c8c1619fdc5be3a589c", "fusion_lon": 0.0}, {"rental_uris": {"ios": "https://dc.lft.to/lastmile_qr_scan", "android": "https://dc.lft.to/lastmile_qr_scan"}, "type": "electric_scooter", "name": "f2881af371b3e491dc6545666f0e92db", "is_reserved": 0, "lon": -77.02681966666667, "is_disabled": 0, "fusion_lat": 0.0, "lat": 38.92481166666666, "bike_id": "f2881af371b3e491dc6545666f0e92db", "fusion_lon": 0.0}, {"rental_uris": {"ios": "https://dc.lft.to/lastmile_qr_scan", "android": "https://dc.lft.to/lastmile_qr_scan"}, "type": "electric_scooter", "name": "bcd97ec587d1f11b55d785e87b16aa79", "is_reserved": 0, "lon": -77.00876733333334, "is_disabled": 0, "fusion_lat": 0.0, "lat": 38.950207666666664, "bike_id": "bcd97ec587d1f11b55d785e87b16aa79", "fusion_lon": 0.0}, {"rental_uris": {"ios": "https://dc.lft.to/lastmile_qr_scan", "android": "https://dc.lft.to/lastmile_qr_scan"}, "type": "electric_scooter", "name": "0418bd323c79156611b3b2bc6df54dad", "is_reserved": 0, "lon": -77.03858833333334, "is_disabled": 0, "fusion_lat": 0.0, "lat": 38.91715216666667, "bike_id": "0418bd323c79156611b3b2bc6df54dad", "fusion_lon": 0.0}, {"rental_uris": {"ios": "https://dc.lft.to/lastmile_qr_scan", "android": "https://dc.lft.to/lastmile_qr_scan"}, "type": "electric_bike", "name": "4c0f7287da6112d3483c6d8fcb27dc9b", "is_reserved": 0, "lon": -76.99458, "is_disabled": 0, "fusion_lat": 0.0, "lat": 38.940673, "bike_id": "4c0f7287da6112d3483c6d8fcb27dc9b", "fusion_lon": 0.0}, {"rental_uris": {"ios": "https://dc.lft.to/lastmile_qr_scan", "android": "https://dc.lft.to/lastmile_qr_scan"}, "type": "electric_scooter", "name": "31a0a8aa32f4f639a8b7271c5d410428", "is_reserved": 0, "lon": -77.03295516666667, "is_disabled": 0, "fusion_lat": 0.0, "lat": 38.911229, "bike_id": "31a0a8aa32f4f639a8b7271c5d410428", "fusion_lon": 0.0}, {"rental_uris": {"ios": "https://dc.lft.to/lastmile_qr_scan", "android": "https://dc.lft.to/lastmile_qr_scan"}, "type": "electric_scooter", "name": "c594ec01d0f88215b6b760b3f19025b3", "is_reserved": 0, "lon": -77.05168566666667, "is_disabled": 0, "fusion_lat": 0.0, "lat": 38.92403266666667, "bike_id": "c594ec01d0f88215b6b760b3f19025b3", "fusion_lon": 0.0}, {"rental_uris": {"ios": "https://dc.lft.to/lastmile_qr_scan", "android": "https://dc.lft.to/lastmile_qr_scan"}, "type": "electric_bike", "name": "6f378a6883ab24f7210a277a34816ba2", "is_reserved": 0, "lon": -76.96152833333333, "is_disabled": 0, "fusion_lat": 0.0, "lat": 38.856142166666665, "bike_id": "6f378a6883ab24f7210a277a34816ba2", "fusion_lon": 0.0}, {"rental_uris": {"ios": "https://dc.lft.to/lastmile_qr_scan", "android": "https://dc.lft.to/lastmile_qr_scan"}, "type": "electric_scooter", "name": "aadeba792d3d9c6a71c29aa025738dae", "is_reserved": 0, "lon": -77.04320366666667, "is_disabled": 0, "fusion_lat": 0.0, "lat": 38.920534833333335, "bike_id": "aadeba792d3d9c6a71c29aa025738dae", "fusion_lon": 0.0}, {"rental_uris": {"ios": "https://dc.lft.to/lastmile_qr_scan", "android": "https://dc.lft.to/lastmile_qr_scan"}, "type": "electric_scooter", "name": "79da743815110b53ed03d79b82e250c5", "is_reserved": 0, "lon": -77.017342, "is_disabled": 0, "fusion_lat": 0.0, "lat": 38.907204666666665, "bike_id": "79da743815110b53ed03d79b82e250c5", "fusion_lon": 0.0}, {"rental_uris": {"ios": "https://dc.lft.to/lastmile_qr_scan", "android": "https://dc.lft.to/lastmile_qr_scan"}, "type": "electric_scooter", "name": "0328def6d2be0869cba2284f0528bae9", "is_reserved": 0, "lon": -77.039371, "is_disabled": 0, "fusion_lat": 0.0, "lat": 38.90105716666667, "bike_id": "0328def6d2be0869cba2284f0528bae9", "fusion_lon": 0.0}, {"rental_uris": {"ios": "https://dc.lft.to/lastmile_qr_scan", "android": "https://dc.lft.to/lastmile_qr_scan"}, "type": "electric_scooter", "name": "bd49de64cc673fb0c176d12cfe81cbef", "is_reserved": 0, "lon": -76.99431916666667, "is_disabled": 0, "fusion_lat": 0.0, "lat": 38.94179583333333, "bike_id": "bd49de64cc673fb0c176d12cfe81cbef", "fusion_lon": 0.0}, {"rental_uris": {"ios": "https://dc.lft.to/lastmile_qr_scan", "android": "https://dc.lft.to/lastmile_qr_scan"}, "type": "electric_scooter", "name": "5718a38c9017715ae99a704926b5fd7a", "is_reserved": 0, "lon": -77.05001483333334, "is_disabled": 0, "fusion_lat": 0.0, "lat": 38.896781, "bike_id": "5718a38c9017715ae99a704926b5fd7a", "fusion_lon": 0.0}, {"rental_uris": {"ios": "https://dc.lft.to/lastmile_qr_scan", "android": "https://dc.lft.to/lastmile_qr_scan"}, "type": "electric_scooter", "name": "d0c8c1519bdd9e9b8e8dde5ef7826ec1", "is_reserved": 0, "lon": -77.02324366666667, "is_disabled": 0, "fusion_lat": 0.0, "lat": 38.933860833333334, "bike_id": "d0c8c1519bdd9e9b8e8dde5ef7826ec1", "fusion_lon": 0.0}, {"rental_uris": {"ios": "https://dc.lft.to/lastmile_qr_scan", "android": "https://dc.lft.to/lastmile_qr_scan"}, "type": "electric_scooter", "name": "91851aeaf5913c289c9c10298abea7d6", "is_reserved": 0, "lon": -76.97355383333333, "is_disabled": 0, "fusion_lat": 0.0, "lat": 38.850053833333334, "bike_id": "91851aeaf5913c289c9c10298abea7d6", "fusion_lon": 0.0}, {"rental_uris": {"ios": "https://dc.lft.to/lastmile_qr_scan", "android": "https://dc.lft.to/lastmile_qr_scan"}, "type": "electric_scooter", "name": "ea35633c431f9db538128314fadde275", "is_reserved": 0, "lon": -77.00832433333333, "is_disabled": 0, "fusion_lat": 0.0, "lat": 38.876543, "bike_id": "ea35633c431f9db538128314fadde275", "fusion_lon": 0.0}, {"rental_uris": {"ios": "https://dc.lft.to/lastmile_qr_scan", "android": "https://dc.lft.to/lastmile_qr_scan"}, "type": "electric_scooter", "name": "bb310d2276b474be62977c0a88e21534", "is_reserved": 0, "lon": -77.005553, "is_disabled": 0, "fusion_lat": 0.0, "lat": 38.90674533333333, "bike_id": "bb310d2276b474be62977c0a88e21534", "fusion_lon": 0.0}, {"rental_uris": {"ios": "https://dc.lft.to/lastmile_qr_scan", "android": "https://dc.lft.to/lastmile_qr_scan"}, "type": "electric_scooter", "name": "c66ffed81c095d7db4baaaae6191fa38", "is_reserved": 0, "lon": -77.02652516666667, "is_disabled": 0, "fusion_lat": 0.0, "lat": 38.8812245, "bike_id": "c66ffed81c095d7db4baaaae6191fa38", "fusion_lon": 0.0}, {"rental_uris": {"ios": "https://dc.lft.to/lastmile_qr_scan", "android": "https://dc.lft.to/lastmile_qr_scan"}, "type": "electric_scooter", "name": "b333712908a8f58f7bc0ef06ae29b3da", "is_reserved": 0, "lon": -77.0176655, "is_disabled": 0, "fusion_lat": 0.0, "lat": 38.887251666666664, "bike_id": "b333712908a8f58f7bc0ef06ae29b3da", "fusion_lon": 0.0}, {"rental_uris": {"ios": "https://dc.lft.to/lastmile_qr_scan", "android": "https://dc.lft.to/lastmile_qr_scan"}, "type": "electric_scooter", "name": "6da93f399e24061c22197c3e4a33e118", "is_reserved": 0, "lon": -77.02183233333334, "is_disabled": 0, "fusion_lat": 0.0, "lat": 38.91980916666667, "bike_id": "6da93f399e24061c22197c3e4a33e118", "fusion_lon": 0.0}, {"rental_uris": {"ios": "https://dc.lft.to/lastmile_qr_scan", "android": "https://dc.lft.to/lastmile_qr_scan"}, "type": "electric_scooter", "name": "2bc32398763f62e6aaadb8d4523180bc", "is_reserved": 0, "lon": -77.00795883333333, "is_disabled": 0, "fusion_lat": 0.0, "lat": 38.897182666666666, "bike_id": "2bc32398763f62e6aaadb8d4523180bc", "fusion_lon": 0.0}, {"rental_uris": {"ios": "https://dc.lft.to/lastmile_qr_scan", "android": "https://dc.lft.to/lastmile_qr_scan"}, "type": "electric_scooter", "name": "bfe48e4d526cb69031fdf31c28cb3f20", "is_reserved": 0, "lon": -76.93389, "is_disabled": 0, "fusion_lat": 0.0, "lat": 38.8990535, "bike_id": "bfe48e4d526cb69031fdf31c28cb3f20", "fusion_lon": 0.0}, {"rental_uris": {"ios": "https://dc.lft.to/lastmile_qr_scan", "android": "https://dc.lft.to/lastmile_qr_scan"}, "type": "electric_scooter", "name": "8f20fece5a6d3fc87f7a538b95e89bbe", "is_reserved": 0, "lon": -77.01225083333334, "is_disabled": 0, "fusion_lat": 0.0, "lat": 38.900870166666664, "bike_id": "8f20fece5a6d3fc87f7a538b95e89bbe", "fusion_lon": 0.0}, {"rental_uris": {"ios": "https://dc.lft.to/lastmile_qr_scan", "android": "https://dc.lft.to/lastmile_qr_scan"}, "type": "electric_scooter", "name": "403b0d26e1124cbf789d3ce379ed7eda", "is_reserved": 0, "lon": -76.98322566666667, "is_disabled": 0, "fusion_lat": 0.0, "lat": 38.87835483333333, "bike_id": "403b0d26e1124cbf789d3ce379ed7eda", "fusion_lon": 0.0}, {"rental_uris": {"ios": "https://dc.lft.to/lastmile_qr_scan", "android": "https://dc.lft.to/lastmile_qr_scan"}, "type": "electric_scooter", "name": "3ce2a301fc33ec6103512887b3544a97", "is_reserved": 0, "lon": -77.0582065, "is_disabled": 0, "fusion_lat": 0.0, "lat": 38.905252, "bike_id": "3ce2a301fc33ec6103512887b3544a97", "fusion_lon": 0.0}, {"rental_uris": {"ios": "https://dc.lft.to/lastmile_qr_scan", "android": "https://dc.lft.to/lastmile_qr_scan"}, "type": "electric_scooter", "name": "9c204850f2ffa325ed33ead1954d4e57", "is_reserved": 0, "lon": -77.04665866666667, "is_disabled": 0, "fusion_lat": 0.0, "lat": 38.92127116666666, "bike_id": "9c204850f2ffa325ed33ead1954d4e57", "fusion_lon": 0.0}, {"rental_uris": {"ios": "https://dc.lft.to/lastmile_qr_scan", "android": "https://dc.lft.to/lastmile_qr_scan"}, "type": "electric_scooter", "name": "1c0beba729c736f79f8dfea9b00884c1", "is_reserved": 0, "lon": -76.98700783333334, "is_disabled": 0, "fusion_lat": 0.0, "lat": 38.85962, "bike_id": "1c0beba729c736f79f8dfea9b00884c1", "fusion_lon": 0.0}, {"rental_uris": {"ios": "https://dc.lft.to/lastmile_qr_scan", "android": "https://dc.lft.to/lastmile_qr_scan"}, "type": "electric_scooter", "name": "7f68ceddc01327f4167b7a9a6c7f3a99", "is_reserved": 0, "lon": -77.041477, "is_disabled": 0, "fusion_lat": 0.0, "lat": 38.9304225, "bike_id": "7f68ceddc01327f4167b7a9a6c7f3a99", "fusion_lon": 0.0}, {"rental_uris": {"ios": "https://dc.lft.to/lastmile_qr_scan", "android": "https://dc.lft.to/lastmile_qr_scan"}, "type": "electric_scooter", "name": "a2eeb195ebf7fd6b59804c62dce78e1e", "is_reserved": 0, "lon": -77.01474966666666, "is_disabled": 0, "fusion_lat": 0.0, "lat": 38.94329666666667, "bike_id": "a2eeb195ebf7fd6b59804c62dce78e1e", "fusion_lon": 0.0}, {"rental_uris": {"ios": "https://dc.lft.to/lastmile_qr_scan", "android": "https://dc.lft.to/lastmile_qr_scan"}, "type": "electric_scooter", "name": "b029ac1324edbe07e1619e19dac47023", "is_reserved": 0, "lon": -77.040482, "is_disabled": 0, "fusion_lat": 0.0, "lat": 38.93010266666667, "bike_id": "b029ac1324edbe07e1619e19dac47023", "fusion_lon": 0.0}, {"rental_uris": {"ios": "https://dc.lft.to/lastmile_qr_scan", "android": "https://dc.lft.to/lastmile_qr_scan"}, "type": "electric_scooter", "name": "a649c66a89b0efc9feb05d5c6a3f0c4d", "is_reserved": 0, "lon": -77.00432433333333, "is_disabled": 0, "fusion_lat": 0.0, "lat": 38.88512566666667, "bike_id": "a649c66a89b0efc9feb05d5c6a3f0c4d", "fusion_lon": 0.0}, {"rental_uris": {"ios": "https://dc.lft.to/lastmile_qr_scan", "android": "https://dc.lft.to/lastmile_qr_scan"}, "type": "electric_scooter", "name": "7871d16c56f0e718d23a0464510dd392", "is_reserved": 0, "lon": -77.02271883333333, "is_disabled": 0, "fusion_lat": 0.0, "lat": 38.92473666666667, "bike_id": "7871d16c56f0e718d23a0464510dd392", "fusion_lon": 0.0}, {"rental_uris": {"ios": "https://dc.lft.to/lastmile_qr_scan", "android": "https://dc.lft.to/lastmile_qr_scan"}, "type": "electric_scooter", "name": "aa62065a93da8a3cbbf9ad0acbf3adf7", "is_reserved": 0, "lon": -77.03781983333333, "is_disabled": 0, "fusion_lat": 0.0, "lat": 38.91580616666667, "bike_id": "aa62065a93da8a3cbbf9ad0acbf3adf7", "fusion_lon": 0.0}, {"rental_uris": {"ios": "https://dc.lft.to/lastmile_qr_scan", "android": "https://dc.lft.to/lastmile_qr_scan"}, "type": "electric_scooter", "name": "c405a23c7cd2f3047531573ec3d7187d", "is_reserved": 0, "lon": -77.02310816666666, "is_disabled": 0, "fusion_lat": 0.0, "lat": 38.96133416666667, "bike_id": "c405a23c7cd2f3047531573ec3d7187d", "fusion_lon": 0.0}, {"rental_uris": {"ios": "https://dc.lft.to/lastmile_qr_scan", "android": "https://dc.lft.to/lastmile_qr_scan"}, "type": "electric_scooter", "name": "11ed2e165866ab86945ffc78068234e1", "is_reserved": 0, "lon": -77.0186705, "is_disabled": 0, "fusion_lat": 0.0, "lat": 38.951527, "bike_id": "11ed2e165866ab86945ffc78068234e1", "fusion_lon": 0.0}, {"rental_uris": {"ios": "https://dc.lft.to/lastmile_qr_scan", "android": "https://dc.lft.to/lastmile_qr_scan"}, "type": "electric_scooter", "name": "71828cac36fa32879e69f532f2a415eb", "is_reserved": 0, "lon": -77.04435666666667, "is_disabled": 0, "fusion_lat": 0.0, "lat": 38.897407333333334, "bike_id": "71828cac36fa32879e69f532f2a415eb", "fusion_lon": 0.0}, {"rental_uris": {"ios": "https://dc.lft.to/lastmile_qr_scan", "android": "https://dc.lft.to/lastmile_qr_scan"}, "type": "electric_bike", "name": "9577959d55056f780df544c1f22cd2c1", "is_reserved": 0, "lon": -77.0354555, "is_disabled": 0, "fusion_lat": 0.0, "lat": 38.9238745, "bike_id": "9577959d55056f780df544c1f22cd2c1", "fusion_lon": 0.0}, {"rental_uris": {"ios": "https://dc.lft.to/lastmile_qr_scan", "android": "https://dc.lft.to/lastmile_qr_scan"}, "type": "electric_scooter", "name": "2b0d198213c2388bc2833cfe90015dfd", "is_reserved": 0, "lon": -76.99442566666667, "is_disabled": 0, "fusion_lat": 0.0, "lat": 38.95926683333333, "bike_id": "2b0d198213c2388bc2833cfe90015dfd", "fusion_lon": 0.0}, {"rental_uris": {"ios": "https://dc.lft.to/lastmile_qr_scan", "android": "https://dc.lft.to/lastmile_qr_scan"}, "type": "electric_scooter", "name": "435aac957a1caed59e7f06c2b37a3dec", "is_reserved": 0, "lon": -76.97206266666667, "is_disabled": 0, "fusion_lat": 0.0, "lat": 38.9245945, "bike_id": "435aac957a1caed59e7f06c2b37a3dec", "fusion_lon": 0.0}, {"rental_uris": {"ios": "https://dc.lft.to/lastmile_qr_scan", "android": "https://dc.lft.to/lastmile_qr_scan"}, "type": "electric_scooter", "name": "97972f800594d3d22a5b12ce2d99c8a6", "is_reserved": 0, "lon": -77.04499266666667, "is_disabled": 0, "fusion_lat": 0.0, "lat": 38.91934666666667, "bike_id": "97972f800594d3d22a5b12ce2d99c8a6", "fusion_lon": 0.0}, {"rental_uris": {"ios": "https://dc.lft.to/lastmile_qr_scan", "android": "https://dc.lft.to/lastmile_qr_scan"}, "type": "electric_scooter", "name": "000f542a38f25cd0b83c8cc3d536b65f", "is_reserved": 0, "lon": -77.02303033333334, "is_disabled": 0, "fusion_lat": 0.0, "lat": 38.91396733333333, "bike_id": "000f542a38f25cd0b83c8cc3d536b65f", "fusion_lon": 0.0},