{"data": {"bikes": [{"bike_id": "c11ad507f4f2ba5441e2b3755281ca12", "type": "electric_bike", "is_disabled": 0, "lat": 38.85436466666667, "rental_uris": {"ios": "https://dc.lft.to/lastmile_qr_scan", "android": "https://dc.lft.to/lastmile_qr_scan"}, "is_reserved": 0, "fusion_lon": 0.0, "fusion_lat": 0.0, "lon": -77.120823, "name": "c11ad507f4f2ba5441e2b3755281ca12"}, {"bike_id": "4a13fe0bd38ab3ad09e864408e6d7d18", "type": "electric_scooter", "is_disabled": 0, "lat": 38.904203333333335, "rental_uris": {"ios": "https://dc.lft.to/lastmile_qr_scan", "android": "https://dc.lft.to/lastmile_qr_scan"}, "is_reserved": 0, "fusion_lon": 0.0, "fusion_lat": 0.0, "lon": -76.97377116666667, "name": "4a13fe0bd38ab3ad09e864408e6d7d18"}, {"bike_id": "8fb34508f64e080a2049402f7dd58490", "type": "electric_scooter", "is_disabled": 0, "lat": 38.93331216666667, "rental_uris": {"ios": "https://dc.lft.to/lastmile_qr_scan", "android": "https://dc.lft.to/lastmile_qr_scan"}, "is_reserved": 0, "fusion_lon": 0.0, "fusion_lat": 0.0, "lon": -77.02926233333334, "name": "8fb34508f64e080a2049402f7dd58490"}, {"bike_id": "d19f7419968e164ad388854080b5dfbf", "type": "electric_scooter", "is_disabled": 0, "lat": 38.92956133333333, "rental_uris": {"ios": "https://dc.lft.to/lastmile_qr_scan", "android": "https://dc.lft.to/lastmile_qr_scan"}, "is_reserved": 0, "fusion_lon": 0.0, "fusion_lat": 0.0, "lon": -77.01845833333333, "name": "d19f7419968e164ad388854080b5dfbf"}, {"bike_id": "756881b48fe6b05641aa85977c75d00e", "type": "electric_scooter", "is_disabled": 0, "lat": 38.88747266666667, "rental_uris": {"ios": "https://dc.lft.to/lastmile_qr_scan", "android": "https://dc.lft.to/lastmile_qr_scan"}, "is_reserved": 0, "fusion_lon": 0.0, "fusion_lat": 0.0, "lon": -76.99629, "name": "756881b48fe6b05641aa85977c75d00e"}, {"bike_id": "b938b22d40862eb7a2e95fe3b50396eb", "type": "electric_scooter", "is_disabled": 0, "lat": 38.905416, "rental_uris": {"ios": "https://dc.lft.to/lastmile_qr_scan", "android": "https://dc.lft.to/lastmile_qr_scan"}, "is_reserved": 0, "fusion_lon": 0.0, "fusion_lat": 0.0, "lon": -77.05006016666667, "name": "b938b22d40862eb7a2e95fe3b50396eb"}, {"bike_id": "419e817c6430dd20d8570fc200b162b0", "type": "electric_scooter", "is_disabled": 0, "lat": 38.8623225, "rental_uris": {"ios": "https://dc.lft.to/lastmile_qr_scan", "android": "https://dc.lft.to/lastmile_qr_scan"}, "is_reserved": 0, "fusion_lon": 0.0, "fusion_lat": 0.0, "lon": -76.995075, "name": "419e817c6430dd20d8570fc200b162b0"}, {"bike_id": "b8f4ec8ba6d15ca5f002a8383db00441", "type": "electric_scooter", "is_disabled": 0, "lat": 38.900571666666664, "rental_uris": {"ios": "https://dc.lft.to/lastmile_qr_scan", "android": "https://dc.lft.to/lastmile_qr_scan"}, "is_reserved": 0, "fusion_lon": 0.0, "fusion_lat": 0.0, "lon": -76.99022, "name": "b8f4ec8ba6d15ca5f002a8383db00441"}, {"bike_id": "109cc7c9060272ac3a87f36cd7a748d5", "type": "electric_scooter", "is_disabled": 0, "lat": 38.901795166666666, "rental_uris": {"ios": "https://dc.lft.to/lastmile_qr_scan", "android": "https://dc.lft.to/lastmile_qr_scan"}, "is_reserved": 0, "fusion_lon": 0.0, "fusion_lat": 0.0, "lon": -76.98454666666666, "name": "109cc7c9060272ac3a87f36cd7a748d5"}, {"bike_id": "eec83963be9747fec45efa9772e9b8f4", "type": "electric_scooter", "is_disabled": 0, "lat": 38.92760783333333, "rental_uris": {"ios": "https://dc.lft.to/lastmile_qr_scan", "android": "https://dc.lft.to/lastmile_qr_scan"}, "is_reserved": 0, "fusion_lon": 0.0, "fusion_lat": 0.0, "lon": -77.0295695, "name": "eec83963be9747fec45efa9772e9b8f4"}, {"bike_id": "323835b41d3ba272a01ccdf26a25f125", "type": "electric_scooter", "is_disabled": 0, "lat": 38.954755666666664, "rental_uris": {"ios": "https://dc.lft.to/lastmile_qr_scan", "android": "https://dc.lft.to/lastmile_qr_scan"}, "is_reserved": 0, "fusion_lon": 0.0, "fusion_lat": 0.0, "lon": -77.092509, "name": "323835b41d3ba272a01ccdf26a25f125"}, {"bike_id": "6213a217140bb7946d0d9f6b519364e6", "type": "electric_scooter", "is_disabled": 0, "lat": 38.924478, "rental_uris": {"ios": "https://dc.lft.to/lastmile_qr_scan", "android": "https://dc.lft.to/lastmile_qr_scan"}, "is_reserved": 0, "fusion_lon": 0.0, "fusion_lat": 0.0, "lon": -77.02419783333333, "name": "6213a217140bb7946d0d9f6b519364e6"}, {"bike_id": "ffba5a7614ca1b2ed95e976765f93bf3", "type": "electric_scooter", "is_disabled": 0, "lat": 38.86612133333333, "rental_uris": {"ios": "https://dc.lft.to/lastmile_qr_scan", "android": "https://dc.lft.to/lastmile_qr_scan"}, "is_reserved": 0, "fusion_lon": 0.0, "fusion_lat": 0.0, "lon": -76.9817925, "name": "ffba5a7614ca1b2ed95e976765f93bf3"}, {"bike_id": "9f7a312dee2feced5b230a632a567143", "type": "electric_scooter", "is_disabled": 0, "lat": 38.94295366666667, "rental_uris": {"ios": "https://dc.lft.to/lastmile_qr_scan", "android": "https://dc.lft.to/lastmile_qr_scan"}, "is_reserved": 0, "fusion_lon": 0.0, "fusion_lat": 0.0, "lon": -77.0217775, "name": "9f7a312dee2feced5b230a632a567143"}, {"bike_id": "472b247dc2ac128f4edf43eee8268f13", "type": "electric_scooter", "is_disabled": 0, "lat": 38.934143, "rental_uris": {"ios": "https://dc.lft.to/lastmile_qr_scan", "android": "https://dc.lft.to/lastmile_qr_scan"}, "is_reserved": 0, "fusion_lon": 0.0, "fusion_lat": 0.0, "lon": -77.039165, "name": "472b247dc2ac128f4edf43eee8268f13"}, {"bike_id": "cb4ddb40aed53fbfd37ca1b4d40d0836", "type": "electric_scooter", "is_disabled": 0, "lat": 38.94842233333333, "rental_uris": {"ios": "https://dc.lft.to/lastmile_qr_scan", "android": "https://dc.lft.to/lastmile_qr_scan"}, "is_reserved": 0, "fusion_lon": 0.0, "fusion_lat": 0.0, "lon": -77.02548433333334, "name": "cb4ddb40aed53fbfd37ca1b4d40d0836"}, {"bike_id": "61b2f0a9a851a10224bace29ed47669e", "type": "electric_scooter", "is_disabled": 0, "lat": 38.906789833333335, "rental_uris": {"ios": "https://dc.lft.to/lastmile_qr_scan", "android": "https://dc.lft.to/lastmile_qr_scan"}, "is_reserved": 0, "fusion_lon": 0.0, "fusion_lat": 0.0, "lon": -77.07169183333333, "name": "61b2f0a9a851a10224bace29ed47669e"}, {"bike_id": "a7451b3dac237c901fbdd51d608230bf", "type": "electric_scooter", "is_disabled": 0, "lat": 38.89500566666667, "rental_uris": {"ios": "https://dc.lft.to/lastmile_qr_scan", "android": "https://dc.lft.to/lastmile_qr_scan"}, "is_reserved": 0, "fusion_lon": 0.0, "fusion_lat": 0.0, "lon": -77.0021835, "name": "a7451b3dac237c901fbdd51d608230bf"}, {"bike_id": "66e5ab6daff1039436f4607d77da5853", "type": "electric_scooter", "is_disabled": 0, "lat": 38.91617633333333, "rental_uris": {"ios": "https://dc.lft.to/lastmile_qr_scan", "android": "https://dc.lft.to/lastmile_qr_scan"}, "is_reserved": 0, "fusion_lon": 0.0, "fusion_lat": 0.0, "lon": -77.02201833333334, "name": "66e5ab6daff1039436f4607d77da5853"}, {"bike_id": "bf1278bf883162cee0b66f4401160bc6", "type": "electric_bike", "is_disabled": 0, "lat": 39.05633916666667, "rental_uris": {"ios": "https://dc.lft.to/lastmile_qr_scan", "android": "https://dc.lft.to/lastmile_qr_scan"}, "is_reserved": 0, "fusion_lon": 0.0, "fusion_lat": 0.0, "lon": -77.12530466666666, "name": "bf1278bf883162cee0b66f4401160bc6"}, {"bike_id": "c58c75a31a89b3896396220d4935ee67", "type": "electric_scooter", "is_disabled": 0, "lat": 38.918318666666664, "rental_uris": {"ios": "https://dc.lft.to/lastmile_qr_scan", "android": "https://dc.lft.to/lastmile_qr_scan"}, "is_reserved": 0, "fusion_lon": 0.0, "fusion_lat": 0.0, "lon": -77.0245565, "name": "c58c75a31a89b3896396220d4935ee67"}, {"bike_id": "1c39d40144f21deb898d8a6dcb95a62d", "type": "electric_scooter", "is_disabled": 0, "lat": 38.9478705, "rental_uris": {"ios": "https://dc.lft.to/lastmile_qr_scan", "android": "https://dc.lft.to/lastmile_qr_scan"}, "is_reserved": 0, "fusion_lon": 0.0, "fusion_lat": 0.0, "lon": -77.07932516666666, "name": "1c39d40144f21deb898d8a6dcb95a62d"}, {"bike_id": "a097cb56ab5c697cd3ed10264451848e", "type": "electric_scooter", "is_disabled": 0, "lat": 38.90739716666667, "rental_uris": {"ios": "https://dc.lft.to/lastmile_qr_scan", "android": "https://dc.lft.to/lastmile_qr_scan"}, "is_reserved": 0, "fusion_lon": 0.0, "fusion_lat": 0.0, "lon": -77.00944566666666, "name": "a097cb56ab5c697cd3ed10264451848e"}, {"bike_id": "0170f282d4c295b06857ff81e48ad147", "type": "electric_scooter", "is_disabled": 0, "lat": 38.94206366666667, "rental_uris": {"ios": "https://dc.lft.to/lastmile_qr_scan", "android": "https://dc.lft.to/lastmile_qr_scan"}, "is_reserved": 0, "fusion_lon": 0.0, "fusion_lat": 0.0, "lon": -77.02582283333334, "name": "0170f282d4c295b06857ff81e48ad147"}, {"bike_id": "3ba4d7a170e6b0af0b036c950b0c997e", "type": "electric_scooter", "is_disabled": 0, "lat": 38.923212666666664, "rental_uris": {"ios": "https://dc.lft.to/lastmile_qr_scan", "android": "https://dc.lft.to/lastmile_qr_scan"}, "is_reserved": 0, "fusion_lon": 0.0, "fusion_lat": 0.0, "lon": -77.038182, "name": "3ba4d7a170e6b0af0b036c950b0c997e"}, {"bike_id": "91a419e8df97c522c87c9c4be26ab416", "type": "electric_scooter", "is_disabled": 0, "lat": 38.9369435, "rental_uris": {"ios": "https://dc.lft.to/lastmile_qr_scan", "android": "https://dc.lft.to/lastmile_qr_scan"}, "is_reserved": 0, "fusion_lon": 0.0, "fusion_lat": 0.0, "lon": -77.05672683333333, "name": "91a419e8df97c522c87c9c4be26ab416"}, {"bike_id": "a962cb08d606dee6f06b4d045790c322", "type": "electric_scooter", "is_disabled": 0, "lat": 38.92986766666667, "rental_uris": {"ios": "https://dc.lft.to/lastmile_qr_scan", "android": "https://dc.lft.to/lastmile_qr_scan"}, "is_reserved": 0, "fusion_lon": 0.0, "fusion_lat": 0.0, "lon": -77.0347795, "name": "a962cb08d606dee6f06b4d045790c322"}, {"bike_id": "1e2f0721d3c050a51449a535bea406e8", "type": "electric_scooter", "is_disabled": 0, "lat": 38.9227745, "rental_uris": {"ios": "https://dc.lft.to/lastmile_qr_scan", "android": "https://dc.lft.to/lastmile_qr_scan"}, "is_reserved": 0, "fusion_lon": 0.0, "fusion_lat": 0.0, "lon": -76.9945505, "name": "1e2f0721d3c050a51449a535bea406e8"}, {"bike_id": "929e7eb1fff99bb01180540428710db3", "type": "electric_scooter", "is_disabled": 0, "lat": 38.957317, "rental_uris": {"ios": "https://dc.lft.to/lastmile_qr_scan", "android": "https://dc.lft.to/lastmile_qr_scan"}, "is_reserved": 0, "fusion_lon": 0.0, "fusion_lat": 0.0, "lon": -77.02401133333333, "name": "929e7eb1fff99bb01180540428710db3"}, {"bike_id": "2b282691a9aad5edcbc4451124301b52", "type": "electric_scooter", "is_disabled": 0, "lat": 38.9277655, "rental_uris": {"ios": "https://dc.lft.to/lastmile_qr_scan", "android": "https://dc.lft.to/lastmile_qr_scan"}, "is_reserved": 0, "fusion_lon": 0.0, "fusion_lat": 0.0, "lon": -76.98760366666667, "name": "2b282691a9aad5edcbc4451124301b52"}, {"bike_id": "f82842deaeab41d6df80cb06727a04dc", "type": "electric_scooter", "is_disabled": 0, "lat": 38.920301, "rental_uris": {"ios": "https://dc.lft.to/lastmile_qr_scan", "android": "https://dc.lft.to/lastmile_qr_scan"}, "is_reserved": 0, "fusion_lon": 0.0, "fusion_lat": 0.0, "lon": -76.9956455, "name": "f82842deaeab41d6df80cb06727a04dc"}, {"bike_id": "1f3c85441531680e2af287e04999bb01", "type": "electric_scooter", "is_disabled": 0, "lat": 38.866850166666666, "rental_uris": {"ios": "https://dc.lft.to/lastmile_qr_scan", "android": "https://dc.lft.to/lastmile_qr_scan"}, "is_reserved": 0, "fusion_lon": 0.0, "fusion_lat": 0.0, "lon": -76.98585883333334, "name": "1f3c85441531680e2af287e04999bb01"}, {"bike_id": "b9bd09a5d82dfc91cc87f123fc161f6a", "type": "electric_scooter", "is_disabled": 0, "lat": 38.918238, "rental_uris": {"ios": "https://dc.lft.to/lastmile_qr_scan", "android": "https://dc.lft.to/lastmile_qr_scan"}, "is_reserved": 0, "fusion_lon": 0.0, "fusion_lat": 0.0, "lon": -77.04004466666666, "name": "b9bd09a5d82dfc91cc87f123fc161f6a"}, {"bike_id": "7ec6705f6e589417842c63dc745d071c", "type": "electric_bike", "is_disabled": 0, "lat": 38.93773866666667, "rental_uris": {"ios": "https://dc.lft.to/lastmile_qr_scan", "android": "https://dc.lft.to/lastmile_qr_scan"}, "is_reserved": 0, "fusion_lon": 0.0, "fusion_lat": 0.0, "lon": -77.01915083333333, "name": "7ec6705f6e589417842c63dc745d071c"}, {"bike_id": "258f6ac20b20dfd9e1d8b6d0262b6a8f", "type": "electric_scooter", "is_disabled": 0, "lat": 38.87151316666667, "rental_uris": {"ios": "https://dc.lft.to/lastmile_qr_scan", "android": "https://dc.lft.to/lastmile_qr_scan"}, "is_reserved": 0, "fusion_lon": 0.0, "fusion_lat": 0.0, "lon": -77.007129, "name": "258f6ac20b20dfd9e1d8b6d0262b6a8f"}, {"bike_id": "723bd37d2a19601b1b39b32774a8c631", "type": "electric_scooter", "is_disabled": 0, "lat": 38.91703866666667, "rental_uris": {"ios": "https://dc.lft.to/lastmile_qr_scan", "android": "https://dc.lft.to/lastmile_qr_scan"}, "is_reserved": 0, "fusion_lon": 0.0, "fusion_lat": 0.0, "lon": -77.09580066666666, "name": "723bd37d2a19601b1b39b32774a8c631"}, {"bike_id": "46a095d2144d1936bbb14820541db44c", "type": "electric_scooter", "is_disabled": 0, "lat": 38.923274166666666, "rental_uris": {"ios": "https://dc.lft.to/lastmile_qr_scan", "android": "https://dc.lft.to/lastmile_qr_scan"}, "is_reserved": 0, "fusion_lon": 0.0, "fusion_lat": 0.0, "lon": -77.02132883333333, "name": "46a095d2144d1936bbb14820541db44c"}, {"bike_id": "fa0b73a6c460dbe01e258fd64ed8de5c", "type": "electric_scooter", "is_disabled": 0, "lat": 38.92386033333333, "rental_uris": {"ios": "https://dc.lft.to/lastmile_qr_scan", "android": "https://dc.lft.to/lastmile_qr_scan"}, "is_reserved": 0, "fusion_lon": 0.0, "fusion_lat": 0.0, "lon": -77.04473333333334, "name": "fa0b73a6c460dbe01e258fd64ed8de5c"}, {"bike_id": "769cea890f43c575dcc6ab162bef0b3a", "type": "electric_scooter", "is_disabled": 0, "lat": 38.90404516666667, "rental_uris": {"ios": "https://dc.lft.to/lastmile_qr_scan", "android": "https://dc.lft.to/lastmile_qr_scan"}, "is_reserved": 0, "fusion_lon": 0.0, "fusion_lat": 0.0, "lon": -76.97331133333333, "name": "769cea890f43c575dcc6ab162bef0b3a"}, {"bike_id": "d07d42057e260727490dd0e58675aaa8", "type": "electric_scooter", "is_disabled": 0, "lat": 38.921953333333335, "rental_uris": {"ios": "https://dc.lft.to/lastmile_qr_scan", "android": "https://dc.lft.to/lastmile_qr_scan"}, "is_reserved": 0, "fusion_lon": 0.0, "fusion_lat": 0.0, "lon": -77.02413616666666, "name": "d07d42057e260727490dd0e58675aaa8"}, {"bike_id": "319f0e0bfa9090d47b0d25edba1cc91e", "type": "electric_scooter", "is_disabled": 0, "lat": 38.89852883333333, "rental_uris": {"ios": "https://dc.lft.to/lastmile_qr_scan", "android": "https://dc.lft.to/lastmile_qr_scan"}, "is_reserved": 0, "fusion_lon": 0.0, "fusion_lat": 0.0, "lon": -77.02315766666666, "name": "319f0e0bfa9090d47b0d25edba1cc91e"}, {"bike_id": "4f6d43b3bcacc08aba1dc9b03782de17", "type": "electric_scooter", "is_disabled": 0, "lat": 38.924459666666664, "rental_uris": {"ios": "https://dc.lft.to/lastmile_qr_scan", "android": "https://dc.lft.to/lastmile_qr_scan"}, "is_reserved": 0, "fusion_lon": 0.0, "fusion_lat": 0.0, "lon": -77.0334295, "name": "4f6d43b3bcacc08aba1dc9b03782de17"}, {"bike_id": "ca4c88879e9ab6dc54d61226af0f1097", "type": "electric_scooter", "is_disabled": 0, "lat": 38.910478166666664, "rental_uris": {"ios": "https://dc.lft.to/lastmile_qr_scan", "android": "https://dc.lft.to/lastmile_qr_scan"}, "is_reserved": 0, "fusion_lon": 0.0, "fusion_lat": 0.0, "lon": -77.04878083333334, "name": "ca4c88879e9ab6dc54d61226af0f1097"}, {"bike_id": "bae089200150dba0f0b5da127e78ade6", "type": "electric_scooter", "is_disabled": 0, "lat": 38.90043033333333, "rental_uris": {"ios": "https://dc.lft.to/lastmile_qr_scan", "android": "https://dc.lft.to/lastmile_qr_scan"}, "is_reserved": 0, "fusion_lon": 0.0, "fusion_lat": 0.0, "lon": -76.99040616666667, "name": "bae089200150dba0f0b5da127e78ade6"}, {"bike_id": "21c0724d4e1942574e760cf79ba81fb2", "type": "electric_scooter", "is_disabled": 0, "lat": 38.89841716666667, "rental_uris": {"ios": "https://dc.lft.to/lastmile_qr_scan", "android": "https://dc.lft.to/lastmile_qr_scan"}, "is_reserved": 0, "fusion_lon": 0.0, "fusion_lat": 0.0, "lon": -76.94638466666666, "name": "21c0724d4e1942574e760cf79ba81fb2"}, {"bike_id": "60c24d1e719bafc1d1b8c2c601a86bec", "type": "electric_scooter", "is_disabled": 0, "lat": 38.886826666666664, "rental_uris": {"ios": "https://dc.lft.to/lastmile_qr_scan", "android": "https://dc.lft.to/lastmile_qr_scan"}, "is_reserved": 0, "fusion_lon": 0.0, "fusion_lat": 0.0, "lon": -76.991454, "name": "60c24d1e719bafc1d1b8c2c601a86bec"}, {"bike_id": "b5dd903afb0eb9b94e74109f71daee20", "type": "electric_scooter", "is_disabled": 0, "lat": 38.865529, "rental_uris": {"ios": "https://dc.lft.to/lastmile_qr_scan", "android": "https://dc.lft.to/lastmile_qr_scan"}, "is_reserved": 0, "fusion_lon": 0.0, "fusion_lat": 0.0, "lon": -76.97039533333333, "name": "b5dd903afb0eb9b94e74109f71daee20"}, {"bike_id": "2fd345b35e66584a8964f4b02c7b59fd", "type": "electric_scooter", "is_disabled": 0, "lat": 38.904782166666664, "rental_uris": {"ios": "https://dc.lft.to/lastmile_qr_scan", "android": "https://dc.lft.to/lastmile_qr_scan"}, "is_reserved": 0, "fusion_lon": 0.0, "fusion_lat": 0.0, "lon": -77.06111333333334, "name": "2fd345b35e66584a8964f4b02c7b59fd"}, {"bike_id": "0ad9734831410986303b264f3a4b7e1a", "type": "electric_bike", "is_disabled": 0, "lat": 38.796105, "rental_uris": {"ios": "https://dc.lft.to/lastmile_qr_scan", "android": "https://dc.lft.to/lastmile_qr_scan"}, "is_reserved": 0, "fusion_lon": 0.0, "fusion_lat": 0.0, "lon": -76.99748366666667, "name": "0ad9734831410986303b264f3a4b7e1a"}, {"bike_id": "a4d850fb140989ec95dc7bf107c9ec66", "type": "electric_scooter", "is_disabled": 0, "lat": 38.918694333333335, "rental_uris": {"ios": "https://dc.lft.to/lastmile_qr_scan", "android": "https://dc.lft.to/lastmile_qr_scan"}, "is_reserved": 0, "fusion_lon": 0.0, "fusion_lat": 0.0, "lon": -77.04458183333334, "name": "a4d850fb140989ec95dc7bf107c9ec66"}, {"bike_id": "2cc296a15cc3d76a661d88e3f6159ed0", "type": "electric_scooter", "is_disabled": 0, "lat": 38.9057435, "rental_uris": {"ios": "https://dc.lft.to/lastmile_qr_scan", "android": "https://dc.lft.to/lastmile_qr_scan"}, "is_reserved": 0, "fusion_lon": 0.0, "fusion_lat": 0.0, "lon": -77.03838966666666, "name": "2cc296a15cc3d76a661d88e3f6159ed0"}, {"bike_id": "e931a518e8af1e4446c18abd94ab60e7", "type": "electric_scooter", "is_disabled": 0, "lat": 38.895295, "rental_uris": {"ios": "https://dc.lft.to/lastmile_qr_scan", "android": "https://dc.lft.to/lastmile_qr_scan"}, "is_reserved": 0, "fusion_lon": 0.0, "fusion_lat": 0.0, "lon": -76.94891916666667, "name": "e931a518e8af1e4446c18abd94ab60e7"}, {"bike_id": "5fe3df61d8444423247f959dd3becbef", "type": "electric_scooter", "is_disabled": 0, "lat": 38.877409, "rental_uris": {"ios": "https://dc.lft.to/lastmile_qr_scan", "android": "https://dc.lft.to/lastmile_qr_scan"}, "is_reserved": 0, "fusion_lon": 0.0, "fusion_lat": 0.0, "lon": -77.00764916666667, "name": "5fe3df61d8444423247f959dd3becbef"}, {"bike_id": "25eb54c74fc669708684f45921dfe838", "type": "electric_scooter", "is_disabled": 0, "lat": 38.89003316666667, "rental_uris": {"ios": "https://dc.lft.to/lastmile_qr_scan", "android": "https://dc.lft.to/lastmile_qr_scan"}, "is_reserved": 0, "fusion_lon": 0.0, "fusion_lat": 0.0, "lon": -76.9374555, "name": "25eb54c74fc669708684f45921dfe838"}, {"bike_id": "b0b528954d5a15d929ed3e9efefa19aa", "type": "electric_scooter", "is_disabled": 0, "lat": 38.94140433333333, "rental_uris": {"ios": "https://dc.lft.to/lastmile_qr_scan", "android": "https://dc.lft.to/lastmile_qr_scan"}, "is_reserved": 0, "fusion_lon": 0.0, "fusion_lat": 0.0, "lon": -77.02331283333334, "name": "b0b528954d5a15d929ed3e9efefa19aa"}, {"bike_id": "d0158cd0f940085ca577fe5ec7e6fac8", "type": "electric_scooter", "is_disabled": 0, "lat": 38.914269, "rental_uris": {"ios": "https://dc.lft.to/lastmile_qr_scan", "android": "https://dc.lft.to/lastmile_qr_scan"}, "is_reserved": 0, "fusion_lon": 0.0, "fusion_lat": 0.0, "lon": -77.03186133333334, "name": "d0158cd0f940085ca577fe5ec7e6fac8"}, {"bike_id": "ea9b5cb949f9681881234c7888d72eb2", "type": "electric_scooter", "is_disabled": 0, "lat": 38.91693, "rental_uris": {"ios": "https://dc.lft.to/lastmile_qr_scan", "android": "https://dc.lft.to/lastmile_qr_scan"}, "is_reserved": 0, "fusion_lon": 0.0, "fusion_lat": 0.0, "lon": -77.04276066666667, "name": "ea9b5cb949f9681881234c7888d72eb2"}, {"bike_id": "b176441aaa4af5b527b26fc72d33e89f", "type": "electric_scooter", "is_disabled": 0, "lat": 38.9249705, "rental_uris": {"ios": "https://dc.lft.to/lastmile_qr_scan", "android": "https://dc.lft.to/lastmile_qr_scan"}, "is_reserved": 0, "fusion_lon": 0.0, "fusion_lat": 0.0, "lon": -77.021597, "name": "b176441aaa4af5b527b26fc72d33e89f"}, {"bike_id": "26e8f1f068a537eec75b6409ea3622a0", "type": "electric_scooter", "is_disabled": 0, "lat": 38.92775, "rental_uris": {"ios": "https://dc.lft.to/lastmile_qr_scan", "android": "https://dc.lft.to/lastmile_qr_scan"}, "is_reserved": 0, "fusion_lon": 0.0, "fusion_lat": 0.0, "lon": -76.98757683333334, "name": "26e8f1f068a537eec75b6409ea3622a0"}, {"bike_id": "91e86f5f9e347b2035c083df3eefa4a5", "type": "electric_scooter", "is_disabled": 0, "lat": 38.909577166666665, "rental_uris": {"ios": "https://dc.lft.to/lastmile_qr_scan", "android": "https://dc.lft.to/lastmile_qr_scan"}, "is_reserved": 0, "fusion_lon": 0.0, "fusion_lat": 0.0, "lon": -77.022795, "name": "91e86f5f9e347b2035c083df3eefa4a5"}, {"bike_id": "027afc4164db7e8831b620b29ca2e64c", "type": "electric_bike", "is_disabled": 0, "lat": 38.978793, "rental_uris": {"ios": "https://dc.lft.to/lastmile_qr_scan", "android": "https://dc.lft.to/lastmile_qr_scan"}, "is_reserved": 0, "fusion_lon": 0.0, "fusion_lat": 0.0, "lon": -77.060278, "name": "027afc4164db7e8831b620b29ca2e64c"}, {"bike_id": "da2cfa4f9152a791550303aaff95e8c1", "type": "electric_scooter", "is_disabled": 0, "lat": 38.93225866666667, "rental_uris": {"ios": "https://dc.lft.to/lastmile_qr_scan", "android": "https://dc.lft.to/lastmile_qr_scan"}, "is_reserved": 0, "fusion_lon": 0.0, "fusion_lat": 0.0, "lon": -77.02852166666666, "name": "da2cfa4f9152a791550303aaff95e8c1"}, {"bike_id": "03752c21e3da059d131da1aaebe1c68a", "type": "electric_scooter", "is_disabled": 0, "lat": 38.90963566666667, "rental_uris": {"ios": "https://dc.lft.to/lastmile_qr_scan", "android": "https://dc.lft.to/lastmile_qr_scan"}, "is_reserved": 0, "fusion_lon": 0.0, "fusion_lat": 0.0, "lon": -77.04775233333334, "name": "03752c21e3da059d131da1aaebe1c68a"}, {"bike_id": "df0c8d5958f1783967c2062e0acb468c", "type": "electric_scooter", "is_disabled": 0, "lat": 38.928386833333334, "rental_uris": {"ios": "https://dc.lft.to/lastmile_qr_scan", "android": "https://dc.lft.to/lastmile_qr_scan"}, "is_reserved": 0, "fusion_lon": 0.0, "fusion_lat": 0.0, "lon": -77.03289783333334, "name": "df0c8d5958f1783967c2062e0acb468c"}, {"bike_id": "da9158c39f24b6feaf7d0eef51ad114e", "type": "electric_scooter", "is_disabled": 0, "lat": 38.937493, "rental_uris": {"ios": "https://dc.lft.to/lastmile_qr_scan", "android": "https://dc.lft.to/lastmile_qr_scan"}, "is_reserved": 0, "fusion_lon": 0.0, "fusion_lat": 0.0, "lon": -77.02457083333333, "name": "da9158c39f24b6feaf7d0eef51ad114e"}, {"bike_id": "80e2105f8149f6d687fa2b25e0f9eedd", "type": "electric_scooter", "is_disabled": 0, "lat": 38.9140565, "rental_uris": {"ios": "https://dc.lft.to/lastmile_qr_scan", "android": "https://dc.lft.to/lastmile_qr_scan"}, "is_reserved": 0, "fusion_lon": 0.0, "fusion_lat": 0.0, "lon": -77.031708, "name": "80e2105f8149f6d687fa2b25e0f9eedd"}, {"bike_id": "7082b8a4d5a80cfce80ef51581ae0afb", "type": "electric_scooter", "is_disabled": 0, "lat": 38.894800000000004, "rental_uris": {"ios": "https://dc.lft.to/lastmile_qr_scan", "android": "https://dc.lft.to/lastmile_qr_scan"}, "is_reserved": 0, "fusion_lon": 0.0, "fusion_lat": 0.0, "lon": -76.94862233333333, "name": "7082b8a4d5a80cfce80ef51581ae0afb"}, {"bike_id": "f5a8e8cd1c82c2a6e91bd2527b27c3cb", "type": "electric_scooter", "is_disabled": 0, "lat": 38.910584666666665, "rental_uris": {"ios": "https://dc.lft.to/lastmile_qr_scan", "android": "https://dc.lft.to/lastmile_qr_scan"}, "is_reserved": 0, "fusion_lon": 0.0, "fusion_lat": 0.0, "lon": -77.037315, "name": "f5a8e8cd1c82c2a6e91bd2527b27c3cb"}, {"bike_id": "639f538e001ca14a9e02450ae88c68a8", "type": "electric_scooter", "is_disabled": 0, "lat": 38.915250666666665, "rental_uris": {"ios": "https://dc.lft.to/lastmile_qr_scan", "android": "https://dc.lft.to/lastmile_qr_scan"}, "is_reserved": 0, "fusion_lon": 0.0, "fusion_lat": 0.0, "lon": -77.04849933333334, "name": "639f538e001ca14a9e02450ae88c68a8"}, {"bike_id": "6163943b189ccdd5edfdc009937aaea9", "type": "electric_scooter", "is_disabled": 0, "lat": 38.9088135, "rental_uris": {"ios": "https://dc.lft.to/lastmile_qr_scan", "android": "https://dc.lft.to/lastmile_qr_scan"}, "is_reserved": 0, "fusion_lon": 0.0, "fusion_lat": 0.0, "lon": -77.04325916666667, "name": "6163943b189ccdd5edfdc009937aaea9"}, {"bike_id": "0f45b875f9314400d73d92bcada733da", "type": "electric_scooter", "is_disabled": 0, "lat": 38.94357866666667, "rental_uris": {"ios": "https://dc.lft.to/lastmile_qr_scan", "android": "https://dc.lft.to/lastmile_qr_scan"}, "is_reserved": 0, "fusion_lon": 0.0, "fusion_lat": 0.0, "lon": -77.032393, "name": "0f45b875f9314400d73d92bcada733da"}, {"bike_id": "5607ef94125341743fe6f1fda024da73", "type": "electric_scooter", "is_disabled": 0, "lat": 38.87091983333333, "rental_uris": {"ios": "https://dc.lft.to/lastmile_qr_scan", "android": "https://dc.lft.to/lastmile_qr_scan"}, "is_reserved": 0, "fusion_lon": 0.0, "fusion_lat": 0.0, "lon": -77.01209783333333, "name": "5607ef94125341743fe6f1fda024da73"}, {"bike_id": "213d474c6b4c3bf61e7a8d0e2ce4cd09", "type": "electric_scooter", "is_disabled": 0, "lat": 38.905740333333334, "rental_uris": {"ios": "https://dc.lft.to/lastmile_qr_scan", "android": "https://dc.lft.to/lastmile_qr_scan"}, "is_reserved": 0, "fusion_lon": 0.0, "fusion_lat": 0.0, "lon": -76.97631966666667, "name": "213d474c6b4c3bf61e7a8d0e2ce4cd09"}, {"bike_id": "7491da60ad216be08fcd9dfbc5bf1b88", "type": "electric_bike", "is_disabled": 0, "lat": 38.9082135, "rental_uris": {"ios": "https://dc.lft.to/lastmile_qr_scan", "android": "https://dc.lft.to/lastmile_qr_scan"}, "is_reserved": 0, "fusion_lon": 0.0, "fusion_lat": 0.0, "lon": -76.94041683333333, "name": "7491da60ad216be08fcd9dfbc5bf1b88"}, {"bike_id": "b7ac5053407137939c2fb4c01e9edc27", "type": "electric_scooter", "is_disabled": 0, "lat": 38.900926, "rental_uris": {"ios": "https://dc.lft.to/lastmile_qr_scan", "android": "https://dc.lft.to/lastmile_qr_scan"}, "is_reserved": 0, "fusion_lon": 0.0, "fusion_lat": 0.0, "lon": -77.01833066666667, "name": "b7ac5053407137939c2fb4c01e9edc27"}, {"bike_id": "3e406f3f4dccac77802804a476449435", "type": "electric_scooter", "is_disabled": 0, "lat": 38.894795, "rental_uris": {"ios": "https://dc.lft.to/lastmile_qr_scan", "android": "https://dc.lft.to/lastmile_qr_scan"}, "is_reserved": 0, "fusion_lon": 0.0, "fusion_lat": 0.0, "lon": -76.94862433333333, "name": "3e406f3f4dccac77802804a476449435"}, {"bike_id": "0e15718f6d054dd64e271ea9542c86cf", "type": "electric_scooter", "is_disabled": 0, "lat": 38.8840515, "rental_uris": {"ios": "https://dc.lft.to/lastmile_qr_scan", "android": "https://dc.lft.to/lastmile_qr_scan"}, "is_reserved": 0, "fusion_lon": 0.0, "fusion_lat": 0.0, "lon": -76.95394966666667, "name": "0e15718f6d054dd64e271ea9542c86cf"}, {"bike_id": "1237cb892e0af48dce31b9a0cce88ea9", "type": "electric_bike", "is_disabled": 0, "lat": 38.8625295, "rental_uris": {"ios": "https://dc.lft.to/lastmile_qr_scan", "android": "https://dc.lft.to/lastmile_qr_scan"}, "is_reserved": 0, "fusion_lon": 0.0, "fusion_lat": 0.0, "lon": -76.983506, "name": "1237cb892e0af48dce31b9a0cce88ea9"}, {"bike_id": "ba198ca923d78f5c9e312914fe67fca5", "type": "electric_scooter", "is_disabled": 0, "lat": 38.915028, "rental_uris": {"ios": "https://dc.lft.to/lastmile_qr_scan", "android": "https://dc.lft.to/lastmile_qr_scan"}, "is_reserved": 0, "fusion_lon": 0.0, "fusion_lat": 0.0, "lon": -77.0457255, "name": "ba198ca923d78f5c9e312914fe67fca5"}, {"bike_id": "c7c325c17cfe2ec67e216026287675f5", "type": "electric_bike", "is_disabled": 0, "lat": 38.905454666666664, "rental_uris": {"ios": "https://dc.lft.to/lastmile_qr_scan", "android": "https://dc.lft.to/lastmile_qr_scan"}, "is_reserved": 0, "fusion_lon": 0.0, "fusion_lat": 0.0, "lon": -77.048287, "name": "c7c325c17cfe2ec67e216026287675f5"}, {"bike_id": "f53e99e91ff9e91dbea5410fd2cb34c3", "type": "electric_scooter", "is_disabled": 0, "lat": 38.907364, "rental_uris": {"ios": "https://dc.lft.to/lastmile_qr_scan", "android": "https://dc.lft.to/lastmile_qr_scan"}, "is_reserved": 0, "fusion_lon": 0.0, "fusion_lat": 0.0, "lon": -77.04500883333333, "name": "f53e99e91ff9e91dbea5410fd2cb34c3"}, {"bike_id": "6e7898f07bd5bfbf93747af6f18c1ee1", "type": "electric_scooter", "is_disabled": 0, "lat": 38.91572716666667, "rental_uris": {"ios": "https://dc.lft.to/lastmile_qr_scan", "android": "https://dc.lft.to/lastmile_qr_scan"}, "is_reserved": 0, "fusion_lon": 0.0, "fusion_lat": 0.0, "lon": -77.0206435, "name": "6e7898f07bd5bfbf93747af6f18c1ee1"}, {"bike_id": "2fb0e635c4d9d4c28830a3cdd1dda66e", "type": "electric_scooter", "is_disabled": 0, "lat": 38.9375, "rental_uris": {"ios": "https://dc.lft.to/lastmile_qr_scan", "android": "https://dc.lft.to/lastmile_qr_scan"}, "is_reserved": 0, "fusion_lon": 0.0, "fusion_lat": 0.0, "lon": -77.024182, "name": "2fb0e635c4d9d4c28830a3cdd1dda66e"}, {"bike_id": "55520be19356f5c0d68dec1cb1fd5525", "type": "electric_scooter", "is_disabled": 0, "lat": 38.91399216666667, "rental_uris": {"ios": "https://dc.lft.to/lastmile_qr_scan", "android": "https://dc.lft.to/lastmile_qr_scan"}, "is_reserved": 0, "fusion_lon": 0.0, "fusion_lat": 0.0, "lon": -77.01799966666667, "name": "55520be19356f5c0d68dec1cb1fd5525"}, {"bike_id": "07ed9fd8f5ca268713e30102416276e2", "type": "electric_scooter", "is_disabled": 0, "lat": 38.917699, "rental_uris": {"ios": "https://dc.lft.to/lastmile_qr_scan", "android": "https://dc.lft.to/lastmile_qr_scan"}, "is_reserved": 0, "fusion_lon": 0.0, "fusion_lat": 0.0, "lon": -77.0477095, "name": "07ed9fd8f5ca268713e30102416276e2"}, {"bike_id": "bf608a67a2ef5d3c656e07848688affc", "type": "electric_scooter", "is_disabled": 0, "lat": 38.91143783333333, "rental_uris": {"ios": "https://dc.lft.to/lastmile_qr_scan", "android": "https://dc.lft.to/lastmile_qr_scan"}, "is_reserved": 0, "fusion_lon": 0.0, "fusion_lat": 0.0, "lon": -77.0238815, "name": "bf608a67a2ef5d3c656e07848688affc"}, {"bike_id": "93eacc130399122667b22c3d63211441", "type": "electric_scooter", "is_disabled": 0, "lat": 38.913532833333335, "rental_uris": {"ios": "https://dc.lft.to/lastmile_qr_scan", "android": "https://dc.lft.to/lastmile_qr_scan"}, "is_reserved": 0, "fusion_lon": 0.0, "fusion_lat": 0.0, "lon": -77.02564, "name": "93eacc130399122667b22c3d63211441"}, {"bike_id": "cb8f60a05554b2c7ab82b2fcba1096fb", "type": "electric_scooter", "is_disabled": 0, "lat": 38.9161505, "rental_uris": {"ios": "https://dc.lft.to/lastmile_qr_scan", "android": "https://dc.lft.to/lastmile_qr_scan"}, "is_reserved": 0, "fusion_lon": 0.0, "fusion_lat": 0.0, "lon": -77.02166383333333, "name": "cb8f60a05554b2c7ab82b2fcba1096fb"}, {"bike_id": "4802ff7053191fc538c229f5c89cd899", "type": "electric_scooter", "is_disabled": 0, "lat": 38.901853333333335, "rental_uris": {"ios": "https://dc.lft.to/lastmile_qr_scan", "android": "https://dc.lft.to/lastmile_qr_scan"}, "is_reserved": 0, "fusion_lon": 0.0, "fusion_lat": 0.0, "lon": -77.02155783333333, "name": "4802ff7053191fc538c229f5c89cd899"}, {"bike_id": "06dd1910da22ffd22dcc2df1896b0d4e", "type": "electric_scooter", "is_disabled": 0, "lat": 38.924715, "rental_uris": {"ios": "https://dc.lft.to/lastmile_qr_scan", "android": "https://dc.lft.to/lastmile_qr_scan"}, "is_reserved": 0, "fusion_lon": 0.0, "fusion_lat": 0.0, "lon": -77.02247116666666, "name": "06dd1910da22ffd22dcc2df1896b0d4e"}, {"bike_id": "bfef8334f50c110608d6763fdb7a0e97", "type": "electric_scooter", "is_disabled": 0, "lat": 38.8829755, "rental_uris": {"ios": "https://dc.lft.to/lastmile_qr_scan", "android": "https://dc.lft.to/lastmile_qr_scan"}, "is_reserved": 0, "fusion_lon": 0.0, "fusion_lat": 0.0, "lon": -76.94857533333334, "name": "bfef8334f50c110608d6763fdb7a0e97"}, {"bike_id": "7ea94f344fc5c5ae4d84de96a5d7425a", "type": "electric_scooter", "is_disabled": 0, "lat": 38.924647, "rental_uris": {"ios": "https://dc.lft.to/lastmile_qr_scan", "android": "https://dc.lft.to/lastmile_qr_scan"}, "is_reserved": 0, "fusion_lon": 0.0, "fusion_lat": 0.0, "lon": -77.02839183333333, "name": "7ea94f344fc5c5ae4d84de96a5d7425a"}, {"bike_id": "fc40fee40294658216108ed91e0d25c9", "type": "electric_bike", "is_disabled": 0, "lat": 38.91191333333333, "rental_uris": {"ios": "https://dc.lft.to/lastmile_qr_scan", "android": "https://dc.lft.to/lastmile_qr_scan"}, "is_reserved": 0, "fusion_lon": 0.0, "fusion_lat": 0.0, "lon": -77.05942766666666, "name": "fc40fee40294658216108ed91e0d25c9"}, {"bike_id": "a3d84892700a48e8b40a236c36d2f130", "type": "electric_scooter", "is_disabled": 0, "lat": 38.923441, "rental_uris": {"ios": "https://dc.lft.to/lastmile_qr_scan", "android": "https://dc.lft.to/lastmile_qr_scan"}, "is_reserved": 0, "fusion_lon": 0.0, "fusion_lat": 0.0, "lon": -77.05624583333334, "name": "a3d84892700a48e8b40a236c36d2f130"}, {"bike_id": "08538997e009ccf191d602f58d467743", "type": "electric_scooter", "is_disabled": 0, "lat": 38.935477166666665, "rental_uris": {"ios": "https://dc.lft.to/lastmile_qr_scan", "android": "https://dc.lft.to/lastmile_qr_scan"}, "is_reserved": 0, "fusion_lon": 0.0, "fusion_lat": 0.0, "lon": -77.05856983333334, "name": "08538997e009ccf191d602f58d467743"}, {"bike_id": "691bd1cd27a68043e064f6d91dac9d11", "type": "electric_bike", "is_disabled": 0, "lat": 38.969600666666665, "rental_uris": {"ios": "https://dc.lft.to/lastmile_qr_scan", "android": "https://dc.lft.to/lastmile_qr_scan"}, "is_reserved": 0, "fusion_lon": 0.0, "fusion_lat": 0.0, "lon": -76.95751783333333, "name": "691bd1cd27a68043e064f6d91dac9d11"}, {"bike_id": "8d01de0dcd3e90ff3cdf9721fb034d87", "type": "electric_scooter", "is_disabled": 0, "lat": 38.8648065, "rental_uris": {"ios": "https://dc.lft.to/lastmile_qr_scan", "android": "https://dc.lft.to/lastmile_qr_scan"}, "is_reserved": 0, "fusion_lon": 0.0, "fusion_lat": 0.0, "lon": -76.97749566666667, "name": "8d01de0dcd3e90ff3cdf9721fb034d87"}, {"bike_id": "48c1f637300327c1e2ddafd8a6acf194", "type": "electric_scooter", "is_disabled": 0, "lat": 38.90041733333333, "rental_uris": {"ios": "https://dc.lft.to/lastmile_qr_scan", "android": "https://dc.lft.to/lastmile_qr_scan"}, "is_reserved": 0, "fusion_lon": 0.0, "fusion_lat": 0.0, "lon": -76.99043566666667, "name": "48c1f637300327c1e2ddafd8a6acf194"}, {"bike_id": "56a151480289424c93b94f78f2b25c39", "type": "electric_scooter", "is_disabled": 0, "lat": 38.921603, "rental_uris": {"ios": "https://dc.lft.to/lastmile_qr_scan", "android": "https://dc.lft.to/lastmile_qr_scan"}, "is_reserved": 0, "fusion_lon": 0.0, "fusion_lat": 0.0, "lon": -77.042324, "name": "56a151480289424c93b94f78f2b25c39"}, {"bike_id": "c3ca8cb9b4a00d3a4a2f02eb87d58ec4", "type": "electric_scooter", "is_disabled": 0, "lat": 38.862097166666665, "rental_uris": {"ios": "https://dc.lft.to/lastmile_qr_scan", "android": "https://dc.lft.to/lastmile_qr_scan"}, "is_reserved": 0, "fusion_lon": 0.0, "fusion_lat": 0.0, "lon": -76.9947055, "name": "c3ca8cb9b4a00d3a4a2f02eb87d58ec4"}, {"bike_id": "0329bfd4ed98c864a8b14751c05e93cf", "type": "electric_scooter", "is_disabled": 0, "lat": 38.94760516666667, "rental_uris": {"ios": "https://dc.lft.to/lastmile_qr_scan", "android": "https://dc.lft.to/lastmile_qr_scan"}, "is_reserved": 0, "fusion_lon": 0.0, "fusion_lat": 0.0, "lon": -77.065684, "name": "0329bfd4ed98c864a8b14751c05e93cf"}, {"bike_id": "6f1bf7f6084c7c203a6e9e8027206e21", "type": "electric_scooter", "is_disabled": 0, "lat": 38.93461833333333, "rental_uris": {"ios": "https://dc.lft.to/lastmile_qr_scan", "android": "https://dc.lft.to/lastmile_qr_scan"}, "is_reserved": 0, "fusion_lon": 0.0, "fusion_lat": 0.0, "lon": -77.02796883333333, "name": "6f1bf7f6084c7c203a6e9e8027206e21"}, {"bike_id": "5216cedfa290c7862c5ec524ba1f1a74", "type": "electric_scooter", "is_disabled": 0, "lat": 38.92949616666667, "rental_uris": {"ios": "https://dc.lft.to/lastmile_qr_scan", "android": "https://dc.lft.to/lastmile_qr_scan"}, "is_reserved": 0, "fusion_lon": 0.0, "fusion_lat": 0.0, "lon": -77.04407633333334, "name": "5216cedfa290c7862c5ec524ba1f1a74"}, {"bike_id": "e8d4da56a62400962a758093ee2c59e7", "type": "electric_scooter", "is_disabled": 0, "lat": 38.908505, "rental_uris": {"ios": "https://dc.lft.to/lastmile_qr_scan", "android": "https://dc.lft.to/lastmile_qr_scan"}, "is_reserved": 0, "fusion_lon": 0.0, "fusion_lat": 0.0, "lon": -77.0549045, "name": "e8d4da56a62400962a758093ee2c59e7"}, {"bike_id": "b23c407409bcdb61dbdf69ef4e7afd69", "type": "electric_bike", "is_disabled": 0, "lat": 38.9322735, "rental_uris": {"ios": "https://dc.lft.to/lastmile_qr_scan", "android": "https://dc.lft.to/lastmile_qr_scan"}, "is_reserved": 0, "fusion_lon": 0.0, "fusion_lat": 0.0, "lon": -77.18125516666667, "name": "b23c407409bcdb61dbdf69ef4e7afd69"}, {"bike_id": "ad29a495068b4734973e932c8695929a", "type": "electric_scooter", "is_disabled": 0, "lat": 38.9142735, "rental_uris": {"ios": "https://dc.lft.to/lastmile_qr_scan", "android": "https://dc.lft.to/lastmile_qr_scan"}, "is_reserved": 0, "fusion_lon": 0.0, "fusion_lat": 0.0, "lon": -77.0320885, "name": "ad29a495068b4734973e932c8695929a"}, {"bike_id": "c81012b59cd7f71ca041bb500175800e", "type": "electric_scooter", "is_disabled": 0, "lat": 38.937012333333335, "rental_uris": {"ios": "https://dc.lft.to/lastmile_qr_scan", "android": "https://dc.lft.to/lastmile_qr_scan"}, "is_reserved": 0, "fusion_lon": 0.0, "fusion_lat": 0.0, "lon": -77.0240485, "name": "c81012b59cd7f71ca041bb500175800e"}, {"bike_id": "203ee4fd9157fc75ddd0ea37f9b848ec", "type": "electric_scooter", "is_disabled": 0, "lat": 38.911151333333336, "rental_uris": {"ios": "https://dc.lft.to/lastmile_qr_scan", "android": "https://dc.lft.to/lastmile_qr_scan"}, "is_reserved": 0, "fusion_lon": 0.0, "fusion_lat": 0.0, "lon": -77.00263733333334, "name": "203ee4fd9157fc75ddd0ea37f9b848ec"}, {"bike_id": "f9ed5ea4c5107c0b57446b79355c0235", "type": "electric_scooter", "is_disabled": 0, "lat": 38.910331, "rental_uris": {"ios": "https://dc.lft.to/lastmile_qr_scan", "android": "https://dc.lft.to/lastmile_qr_scan"}, "is_reserved": 0, "fusion_lon": 0.0, "fusion_lat": 0.0, "lon": -77.02180333333334, "name": "f9ed5ea4c5107c0b57446b79355c0235"}, {"bike_id": "64bab4f493e567982cb9cd56c660d4a9", "type": "electric_bike", "is_disabled": 0, "lat": 38.882475666666664, "rental_uris": {"ios": "https://dc.lft.to/lastmile_qr_scan", "android": "https://dc.lft.to/lastmile_qr_scan"}, "is_reserved": 0, "fusion_lon": 0.0, "fusion_lat": 0.0, "lon": -76.96262366666667, "name": "64bab4f493e567982cb9cd56c660d4a9"}, {"bike_id": "1fef403148cd1ea475a9289f22905f30", "type": "electric_scooter", "is_disabled": 0, "lat": 38.876902333333334, "rental_uris": {"ios": "https://dc.lft.to/lastmile_qr_scan", "android": "https://dc.lft.to/lastmile_qr_scan"}, "is_reserved": 0, "fusion_lon": 0.0, "fusion_lat": 0.0, "lon": -77.004371, "name": "1fef403148cd1ea475a9289f22905f30"}, {"bike_id": "0f0269b1b3591768f6812a9faaad23e0", "type": "electric_scooter", "is_disabled": 0, "lat": 38.921149, "rental_uris": {"ios": "https://dc.lft.to/lastmile_qr_scan", "android": "https://dc.lft.to/lastmile_qr_scan"}, "is_reserved": 0, "fusion_lon": 0.0, "fusion_lat": 0.0, "lon": -77.0318635, "name": "0f0269b1b3591768f6812a9faaad23e0"}, {"bike_id": "f673572c0a01d8d6f4dc35f845750ae2", "type": "electric_scooter", "is_disabled": 0, "lat": 38.90040116666667, "rental_uris": {"ios": "https://dc.lft.to/lastmile_qr_scan", "android": "https://dc.lft.to/lastmile_qr_scan"}, "is_reserved": 0, "fusion_lon": 0.0, "fusion_lat": 0.0, "lon": -77.00387316666666, "name": "f673572c0a01d8d6f4dc35f845750ae2"}, {"bike_id": "d73384e4a984160cdcc2e8b16f6adbfc", "type": "electric_scooter", "is_disabled": 0, "lat": 38.90466633333333, "rental_uris": {"ios": "https://dc.lft.to/lastmile_qr_scan", "android": "https://dc.lft.to/lastmile_qr_scan"}, "is_reserved": 0, "fusion_lon": 0.0, "fusion_lat": 0.0, "lon": -76.97609283333334, "name": "d73384e4a984160cdcc2e8b16f6adbfc"}, {"bike_id": "6b32ba48f125985f152cb0ca8855c94c", "type": "electric_scooter", "is_disabled": 0, "lat": 38.92255166666666, "rental_uris": {"ios": "https://dc.lft.to/lastmile_qr_scan", "android": "https://dc.lft.to/lastmile_qr_scan"}, "is_reserved": 0, "fusion_lon": 0.0, "fusion_lat": 0.0, "lon": -77.04206533333333, "name": "6b32ba48f125985f152cb0ca8855c94c"}, {"bike_id": "afbf8052d44fc1754aa5f4d24676cb58", "type": "electric_scooter", "is_disabled": 0, "lat": 38.938876, "rental_uris": {"ios": "https://dc.lft.to/lastmile_qr_scan", "android": "https://dc.lft.to/lastmile_qr_scan"}, "is_reserved": 0, "fusion_lon": 0.0, "fusion_lat": 0.0, "lon": -77.0249435, "name": "afbf8052d44fc1754aa5f4d24676cb58"}, {"bike_id": "41292ecea115eba3608a9801b8d111bf", "type": "electric_scooter", "is_disabled": 0, "lat": 38.933974, "rental_uris": {"ios": "https://dc.lft.to/lastmile_qr_scan", "android": "https://dc.lft.to/lastmile_qr_scan"}, "is_reserved": 0, "fusion_lon": 0.0, "fusion_lat": 0.0, "lon": -77.0352075, "name": "41292ecea115eba3608a9801b8d111bf"}, {"bike_id": "9593ec5166c1ec037633091a4fba321f", "type": "electric_scooter", "is_disabled": 0, "lat": 38.909325, "rental_uris": {"ios": "https://dc.lft.to/lastmile_qr_scan", "android": "https://dc.lft.to/lastmile_qr_scan"}, "is_reserved": 0, "fusion_lon": 0.0, "fusion_lat": 0.0, "lon": -77.06404233333333, "name": "9593ec5166c1ec037633091a4fba321f"}, {"bike_id": "18b1b724a62d6b116a99e76612442048", "type": "electric_scooter", "is_disabled": 0, "lat": 38.91104383333333, "rental_uris": {"ios": "https://dc.lft.to/lastmile_qr_scan", "android": "https://dc.lft.to/lastmile_qr_scan"}, "is_reserved": 0, "fusion_lon": 0.0, "fusion_lat": 0.0, "lon": -77.01156466666667, "name": "18b1b724a62d6b116a99e76612442048"}, {"bike_id": "0c28344a39f2c479d819f6922c1c50a4", "type": "electric_scooter", "is_disabled": 0, "lat": 38.871989, "rental_uris": {"ios": "https://dc.lft.to/lastmile_qr_scan", "android": "https://dc.lft.to/lastmile_qr_scan"}, "is_reserved": 0, "fusion_lon": 0.0, "fusion_lat": 0.0, "lon": -77.00936616666667, "name": "0c28344a39f2c479d819f6922c1c50a4"}, {"bike_id": "9d89e40a5eb35f0f78c67a89219d69f3", "type": "electric_scooter", "is_disabled": 0, "lat": 38.909486666666666, "rental_uris": {"ios": "https://dc.lft.to/lastmile_qr_scan", "android": "https://dc.lft.to/lastmile_qr_scan"}, "is_reserved": 0, "fusion_lon": 0.0, "fusion_lat": 0.0, "lon": -77.055639, "name": "9d89e40a5eb35f0f78c67a89219d69f3"}, {"bike_id": "e2c13c744144b94e09dbca4b6c49d08b", "type": "electric_scooter", "is_disabled": 0, "lat": 38.84432066666667, "rental_uris": {"ios": "https://dc.lft.to/lastmile_qr_scan", "android": "https://dc.lft.to/lastmile_qr_scan"}, "is_reserved": 0, "fusion_lon": 0.0, "fusion_lat": 0.0, "lon": -76.99869666666666, "name": "e2c13c744144b94e09dbca4b6c49d08b"}, {"bike_id": "45e0e5d560b33d616583c55225a09788", "type": "electric_scooter", "is_disabled": 0, "lat": 38.9384665, "rental_uris": {"ios": "https://dc.lft.to/lastmile_qr_scan", "android": "https://dc.lft.to/lastmile_qr_scan"}, "is_reserved": 0, "fusion_lon": 0.0, "fusion_lat": 0.0, "lon": -77.0723215, "name": "45e0e5d560b33d616583c55225a09788"}, {"bike_id": "a43b02769812272b6849c00f3a0eede8", "type": "electric_scooter", "is_disabled": 0, "lat": 38.90240433333334, "rental_uris": {"ios": "https://dc.lft.to/lastmile_qr_scan", "android": "https://dc.lft.to/lastmile_qr_scan"}, "is_reserved": 0, "fusion_lon": 0.0, "fusion_lat": 0.0, "lon": -77.05331316666667, "name": "a43b02769812272b6849c00f3a0eede8"}, {"bike_id": "c6fe0b5c6dcb19de82f77aebe1f21e13", "type": "electric_scooter", "is_disabled": 0, "lat": 38.924837833333335, "rental_uris": {"ios": "https://dc.lft.to/lastmile_qr_scan", "android": "https://dc.lft.to/lastmile_qr_scan"}, "is_reserved": 0, "fusion_lon": 0.0, "fusion_lat": 0.0, "lon": -77.05218416666666, "name": "c6fe0b5c6dcb19de82f77aebe1f21e13"}, {"bike_id": "b9f6d211a893725f6845dca18643bed3", "type": "electric_scooter", "is_disabled": 0, "lat": 38.92486133333333, "rental_uris": {"ios": "https://dc.lft.to/lastmile_qr_scan", "android": "https://dc.lft.to/lastmile_qr_scan"}, "is_reserved": 0, "fusion_lon": 0.0, "fusion_lat": 0.0, "lon": -77.0521875, "name": "b9f6d211a893725f6845dca18643bed3"}, {"bike_id": "77fd9a24e14694520412ea9fb627b21c", "type": "electric_scooter", "is_disabled": 0, "lat": 38.88427166666666, "rental_uris": {"ios": "https://dc.lft.to/lastmile_qr_scan", "android": "https://dc.lft.to/lastmile_qr_scan"}, "is_reserved": 0, "fusion_lon": 0.0, "fusion_lat": 0.0, "lon": -76.95752966666667, "name": "77fd9a24e14694520412ea9fb627b21c"}, {"bike_id": "3c23b8efbd3142d64aba001f989b3913", "type": "electric_bike", "is_disabled": 0, "lat": 38.899658333333335, "rental_uris": {"ios": "https://dc.lft.to/lastmile_qr_scan", "android": "https://dc.lft.to/lastmile_qr_scan"}, "is_reserved": 0, "fusion_lon": 0.0, "fusion_lat": 0.0, "lon": -76.98680516666667, "name": "3c23b8efbd3142d64aba001f989b3913"}, {"bike_id": "aaba8bbd9d912deafb25ffd7e30f9e9a", "type": "electric_scooter", "is_disabled": 0, "lat": 38.900404333333334, "rental_uris": {"ios": "https://dc.lft.to/lastmile_qr_scan", "android": "https://dc.lft.to/lastmile_qr_scan"}, "is_reserved": 0, "fusion_lon": 0.0, "fusion_lat": 0.0, "lon": -76.990389, "name": "aaba8bbd9d912deafb25ffd7e30f9e9a"}, {"bike_id": "9fbf4e6782ba56e463c0c17c17a2a4e8", "type": "electric_scooter", "is_disabled": 0, "lat": 38.8955135, "rental_uris": {"ios": "https://dc.lft.to/lastmile_qr_scan", "android": "https://dc.lft.to/lastmile_qr_scan"}, "is_reserved": 0, "fusion_lon": 0.0, "fusion_lat": 0.0, "lon": -77.01126716666667, "name": "9fbf4e6782ba56e463c0c17c17a2a4e8"}, {"bike_id": "704ed780c7b699e0ebfdf6293b51c5e5", "type": "electric_scooter", "is_disabled": 0, "lat": 38.91349683333333, "rental_uris": {"ios": "https://dc.lft.to/lastmile_qr_scan", "android": "https://dc.lft.to/lastmile_qr_scan"}, "is_reserved": 0, "fusion_lon": 0.0, "fusion_lat": 0.0, "lon": -77.0318235, "name": "704ed780c7b699e0ebfdf6293b51c5e5"}, {"bike_id": "3dacd9b7f3fceef99fa9544a6b38c224", "type": "electric_scooter", "is_disabled": 0, "lat": 38.92271683333333, "rental_uris": {"ios": "https://dc.lft.to/lastmile_qr_scan", "android": "https://dc.lft.to/lastmile_qr_scan"}, "is_reserved": 0, "fusion_lon": 0.0, "fusion_lat": 0.0, "lon": -76.99452066666667, "name": "3dacd9b7f3fceef99fa9544a6b38c224"}, {"bike_id": "29cf6721bf3bc2202a782564d3eba0c9", "type": "electric_scooter", "is_disabled": 0, "lat": 38.90603633333333, "rental_uris": {"ios": "https://dc.lft.to/lastmile_qr_scan", "android": "https://dc.lft.to/lastmile_qr_scan"}, "is_reserved": 0, "fusion_lon": 0.0, "fusion_lat": 0.0, "lon": -77.0269325, "name": "29cf6721bf3bc2202a782564d3eba0c9"}, {"bike_id": "0f9ddeb2c97269aff70f699c59a50b06", "type": "electric_scooter", "is_disabled": 0, "lat": 38.90569966666666, "rental_uris": {"ios": "https://dc.lft.to/lastmile_qr_scan", "android": "https://dc.lft.to/lastmile_qr_scan"}, "is_reserved": 0, "fusion_lon": 0.0, "fusion_lat": 0.0, "lon": -77.005955, "name": "0f9ddeb2c97269aff70f699c59a50b06"}, {"bike_id": "7bd211f531949c33f27ec7cb62ccf207", "type": "electric_bike", "is_disabled": 0, "lat": 38.804118333333335, "rental_uris": {"ios": "https://dc.lft.to/lastmile_qr_scan", "android": "https://dc.lft.to/lastmile_qr_scan"}, "is_reserved": 0, "fusion_lon": 0.0, "fusion_lat": 0.0, "lon": -77.05554916666667, "name": "7bd211f531949c33f27ec7cb62ccf207"}, {"bike_id": "07030b755322d225e3d1075177cb867b", "type": "electric_scooter", "is_disabled": 0, "lat": 38.922532333333336, "rental_uris": {"ios": "https://dc.lft.to/lastmile_qr_scan", "android": "https://dc.lft.to/lastmile_qr_scan"}, "is_reserved": 0, "fusion_lon": 0.0, "fusion_lat": 0.0, "lon": -77.039, "name": "07030b755322d225e3d1075177cb867b"}, {"bike_id": "37c345729c614fc2f12525b2d5b44e36", "type": "electric_bike", "is_disabled": 0, "lat": 38.81171033333333, "rental_uris": {"ios": "https://dc.lft.to/lastmile_qr_scan", "android": "https://dc.lft.to/lastmile_qr_scan"}, "is_reserved": 0, "fusion_lon": 0.0, "fusion_lat": 0.0, "lon": -77.0696865, "name": "37c345729c614fc2f12525b2d5b44e36"}, {"bike_id": "2422073ee1704fc9a3ff13150e7a2ef9", "type": "electric_scooter", "is_disabled": 0, "lat": 38.90549, "rental_uris": {"ios": "https://dc.lft.to/lastmile_qr_scan", "android": "https://dc.lft.to/lastmile_qr_scan"}, "is_reserved": 0, "fusion_lon": 0.0, "fusion_lat": 0.0, "lon": -76.99622216666667, "name": "2422073ee1704fc9a3ff13150e7a2ef9"}, {"bike_id": "99d728d5f5c2fca606e131362527fd78", "type": "electric_scooter", "is_disabled": 0, "lat": 38.919708, "rental_uris": {"ios": "https://dc.lft.to/lastmile_qr_scan", "android": "https://dc.lft.to/lastmile_qr_scan"}, "is_reserved": 0, "fusion_lon": 0.0, "fusion_lat": 0.0, "lon": -77.04222716666666, "name": "99d728d5f5c2fca606e131362527fd78"}, {"bike_id": "4af449b61d09c992081567fb75167540", "type": "electric_bike", "is_disabled": 0, "lat": 39.03989083333333, "rental_uris": {"ios": "https://dc.lft.to/lastmile_qr_scan", "android": "https://dc.lft.to/lastmile_qr_scan"}, "is_reserved": 0, "fusion_lon": 0.0, "fusion_lat": 0.0, "lon": -76.9992705, "name": "4af449b61d09c992081567fb75167540"}, {"bike_id": "c3aadf4616dd977c98948fa24aa1d313", "type": "electric_scooter", "is_disabled": 0, "lat": 38.892742166666665, "rental_uris": {"ios": "https://dc.lft.to/lastmile_qr_scan", "android": "https://dc.lft.to/lastmile_qr_scan"}, "is_reserved": 0, "fusion_lon": 0.0, "fusion_lat": 0.0, "lon": -77.04878683333334, "name": "c3aadf4616dd977c98948fa24aa1d313"}, {"bike_id": "514e2336d1b8c9979cc9f1dcd11fbc69", "type": "electric_scooter", "is_disabled": 0, "lat": 38.900744833333334, "rental_uris": {"ios": "https://dc.lft.to/lastmile_qr_scan", "android": "https://dc.lft.to/lastmile_qr_scan"}, "is_reserved": 0, "fusion_lon": 0.0, "fusion_lat": 0.0, "lon": -77.03657283333334, "name": "514e2336d1b8c9979cc9f1dcd11fbc69"}, {"bike_id": "c12a105dbd3e975559fdefe712dee59d", "type": "electric_scooter", "is_disabled": 0, "lat": 38.91656533333333, "rental_uris": {"ios": "https://dc.lft.to/lastmile_qr_scan", "android": "https://dc.lft.to/lastmile_qr_scan"}, "is_reserved": 0, "fusion_lon": 0.0, "fusion_lat": 0.0, "lon": -77.04627916666666, "name": "c12a105dbd3e975559fdefe712dee59d"}, {"bike_id": "690ca8638627dfc8356f61260cfd82e0", "type": "electric_scooter", "is_disabled": 0, "lat": 38.915442, "rental_uris": {"ios": "https://dc.lft.to/lastmile_qr_scan", "android": "https://dc.lft.to/lastmile_qr_scan"}, "is_reserved": 0, "fusion_lon": 0.0, "fusion_lat": 0.0, "lon": -77.0122475, "name": "690ca8638627dfc8356f61260cfd82e0"}, {"bike_id": "614043da3cbf9327d10c866dd1dabc8c", "type": "electric_scooter", "is_disabled": 0, "lat": 38.904937333333336, "rental_uris": {"ios": "https://dc.lft.to/lastmile_qr_scan", "android": "https://dc.lft.to/lastmile_qr_scan"}, "is_reserved": 0, "fusion_lon": 0.0, "fusion_lat": 0.0, "lon": -76.98691783333334, "name": "614043da3cbf9327d10c866dd1dabc8c"}, {"bike_id": "78dada921ddce1f0e9f048da98139c34", "type": "electric_scooter", "is_disabled": 0, "lat": 38.92221383333333, "rental_uris": {"ios": "https://dc.lft.to/lastmile_qr_scan", "android": "https://dc.lft.to/lastmile_qr_scan"}, "is_reserved": 0, "fusion_lon": 0.0, "fusion_lat": 0.0, "lon": -77.03466, "name": "78dada921ddce1f0e9f048da98139c34"}, {"bike_id": "ea6c6c40cb37e8a715d5246b9d16bb29", "type": "electric_scooter", "is_disabled": 0, "lat": 38.9025895, "rental_uris": {"ios": "https://dc.lft.to/lastmile_qr_scan", "android": "https://dc.lft.to/lastmile_qr_scan"}, "is_reserved": 0, "fusion_lon": 0.0, "fusion_lat": 0.0, "lon": -76.97551433333334, "name": "ea6c6c40cb37e8a715d5246b9d16bb29"}, {"bike_id": "381b86fe50114bc0320ab81c44afbd8d", "type": "electric_bike", "is_disabled": 0, "lat": 38.929140833333335, "rental_uris": {"ios": "https://dc.lft.to/lastmile_qr_scan", "android": "https://dc.lft.to/lastmile_qr_scan"}, "is_reserved": 0, "fusion_lon": 0.0, "fusion_lat": 0.0, "lon": -77.03261116666667, "name": "381b86fe50114bc0320ab81c44afbd8d"}, {"bike_id": "68847d63b6ebce34864a6068a4d29348", "type": "electric_scooter", "is_disabled": 0, "lat": 38.898834, "rental_uris": {"ios": "https://dc.lft.to/lastmile_qr_scan", "android": "https://dc.lft.to/lastmile_qr_scan"}, "is_reserved": 0, "fusion_lon": 0.0, "fusion_lat": 0.0, "lon": -76.93181033333333, "name": "68847d63b6ebce34864a6068a4d29348"}, {"bike_id": "864d136766feee32f9cc612d0925b848", "type": "electric_scooter", "is_disabled": 0, "lat": 38.91271783333333, "rental_uris": {"ios": "https://dc.lft.to/lastmile_qr_scan", "android": "https://dc.lft.to/lastmile_qr_scan"}, "is_reserved": 0, "fusion_lon": 0.0, "fusion_lat": 0.0, "lon": -77.04505016666667, "name": "864d136766feee32f9cc612d0925b848"}, {"bike_id": "9bc4a3da4db54945c16fe2c32b8a9df8", "type": "electric_scooter", "is_disabled": 0, "lat": 38.92041316666667, "rental_uris": {"ios": "https://dc.lft.to/lastmile_qr_scan", "android": "https://dc.lft.to/lastmile_qr_scan"}, "is_reserved": 0, "fusion_lon": 0.0, "fusion_lat": 0.0, "lon": -77.02192433333333, "name": "9bc4a3da4db54945c16fe2c32b8a9df8"}, {"bike_id": "d500820adb62650021f2bfce90de82af", "type": "electric_scooter", "is_disabled": 0, "lat": 38.90267266666667, "rental_uris": {"ios": "https://dc.lft.to/lastmile_qr_scan", "android": "https://dc.lft.to/lastmile_qr_scan"}, "is_reserved": 0, "fusion_lon": 0.0, "fusion_lat": 0.0, "lon": -77.02861283333333, "name": "d500820adb62650021f2bfce90de82af"}, {"bike_id": "09b44dde51f4b737b54342c3651733df", "type": "electric_scooter", "is_disabled": 0, "lat": 38.944155333333335, "rental_uris": {"ios": "https://dc.lft.to/lastmile_qr_scan", "android": "https://dc.lft.to/lastmile_qr_scan"}, "is_reserved": 0, "fusion_lon": 0.0, "fusion_lat": 0.0, "lon": -77.06324516666666, "name": "09b44dde51f4b737b54342c3651733df"}, {"bike_id": "10cb38cd632eb8b9e30558775851eb71", "type": "electric_scooter", "is_disabled": 0, "lat": 38.90512866666667, "rental_uris": {"ios": "https://dc.lft.to/lastmile_qr_scan", "android": "https://dc.lft.to/lastmile_qr_scan"}, "is_reserved": 0, "fusion_lon": 0.0, "fusion_lat": 0.0, "lon": -77.06378516666666, "name": "10cb38cd632eb8b9e30558775851eb71"}, {"bike_id": "f5dfd908cd95157e282231651f50e919", "type": "electric_scooter", "is_disabled": 0, "lat": 38.912491833333334, "rental_uris": {"ios": "https://dc.lft.to/lastmile_qr_scan", "android": "https://dc.lft.to/lastmile_qr_scan"}, "is_reserved": 0, "fusion_lon": 0.0, "fusion_lat": 0.0, "lon": -77.00125516666667, "name": "f5dfd908cd95157e282231651f50e919"}, {"bike_id": "d3c5c66a40e6b4481cc59908a4572078", "type": "electric_scooter", "is_disabled": 0, "lat": 38.905508166666664, "rental_uris": {"ios": "https://dc.lft.to/lastmile_qr_scan", "android": "https://dc.lft.to/lastmile_qr_scan"}, "is_reserved": 0, "fusion_lon": 0.0, "fusion_lat": 0.0, "lon": -77.045541, "name": "d3c5c66a40e6b4481cc59908a4572078"}, {"bike_id": "b6cb9ec528485dbec094eee7647477ba", "type": "electric_scooter", "is_disabled": 0, "lat": 38.9291405, "rental_uris": {"ios": "https://dc.lft.to/lastmile_qr_scan", "android": "https://dc.lft.to/lastmile_qr_scan"}, "is_reserved": 0, "fusion_lon": 0.0, "fusion_lat": 0.0, "lon": -77.02091533333333, "name": "b6cb9ec528485dbec094eee7647477ba"}, {"bike_id": "db7c28338facc497436d4cb62c7eaee0", "type": "electric_scooter", "is_disabled": 0, "lat": 38.90728816666667, "rental_uris": {"ios": "https://dc.lft.to/lastmile_qr_scan", "android": "https://dc.lft.to/lastmile_qr_scan"}, "is_reserved": 0, "fusion_lon": 0.0, "fusion_lat": 0.0, "lon": -77.05327466666667, "name": "db7c28338facc497436d4cb62c7eaee0"}, {"bike_id": "6ad4e2041170c23fbd79d40ff2aa3a93", "type": "electric_scooter", "is_disabled": 0, "lat": 38.885017166666664, "rental_uris": {"ios": "https://dc.lft.to/lastmile_qr_scan", "android": "https://dc.lft.to/lastmile_qr_scan"}, "is_reserved": 0, "fusion_lon": 0.0, "fusion_lat": 0.0, "lon": -77.0151555, "name": "6ad4e2041170c23fbd79d40ff2aa3a93"}, {"bike_id": "316375d19b02b5220310c811ea7dc64f", "type": "electric_scooter", "is_disabled": 0, "lat": 38.926861333333335, "rental_uris": {"ios": "https://dc.lft.to/lastmile_qr_scan", "android": "https://dc.lft.to/lastmile_qr_scan"}, "is_reserved": 0, "fusion_lon": 0.0, "fusion_lat": 0.0, "lon": -77.02161216666667, "name": "316375d19b02b5220310c811ea7dc64f"}, {"bike_id": "9f2b0c6338c7fb2a9d4201338ba8a8b4", "type": "electric_scooter", "is_disabled": 0, "lat": 38.919743, "rental_uris": {"ios": "https://dc.lft.to/lastmile_qr_scan", "android": "https://dc.lft.to/lastmile_qr_scan"}, "is_reserved": 0, "fusion_lon": 0.0, "fusion_lat": 0.0, "lon": -77.03336516666667, "name": "9f2b0c6338c7fb2a9d4201338ba8a8b4"}, {"bike_id": "27b68bc66d5b19753ea7300b7c63ab6a", "type": "electric_scooter", "is_disabled": 0, "lat": 38.9348955, "rental_uris": {"ios": "https://dc.lft.to/lastmile_qr_scan", "android": "https://dc.lft.to/lastmile_qr_scan"}, "is_reserved": 0, "fusion_lon": 0.0, "fusion_lat": 0.0, "lon": -77.02973483333334, "name": "27b68bc66d5b19753ea7300b7c63ab6a"}, {"bike_id": "860b1307ede3e4daf30ddaceb967e0a2", "type": "electric_scooter", "is_disabled": 0, "lat": 38.95690866666666, "rental_uris": {"ios": "https://dc.lft.to/lastmile_qr_scan", "android": "https://dc.lft.to/lastmile_qr_scan"}, "is_reserved": 0, "fusion_lon": 0.0, "fusion_lat": 0.0, "lon": -77.02405, "name": "860b1307ede3e4daf30ddaceb967e0a2"}, {"bike_id": "21da9348d1a51414f8fe549ac9958cf3", "type": "electric_scooter", "is_disabled": 0, "lat": 38.921405666666665, "rental_uris": {"ios": "https://dc.lft.to/lastmile_qr_scan", "android": "https://dc.lft.to/lastmile_qr_scan"}, "is_reserved": 0, "fusion_lon": 0.0, "fusion_lat": 0.0, "lon": -77.01801383333333, "name": "21da9348d1a51414f8fe549ac9958cf3"}, {"bike_id": "69cf94453074a7325957cf88281d5307", "type": "electric_scooter", "is_disabled": 0, "lat": 38.92053, "rental_uris": {"ios": "https://dc.lft.to/lastmile_qr_scan", "android": "https://dc.lft.to/lastmile_qr_scan"}, "is_reserved": 0, "fusion_lon": 0.0, "fusion_lat": 0.0, "lon": -77.03460533333333, "name": "69cf94453074a7325957cf88281d5307"}, {"bike_id": "1145252f6f8ea266e579007a378678be", "type": "electric_scooter", "is_disabled": 0, "lat": 38.93237766666667, "rental_uris": {"ios": "https://dc.lft.to/lastmile_qr_scan", "android": "https://dc.lft.to/lastmile_qr_scan"}, "is_reserved": 0, "fusion_lon": 0.0, "fusion_lat": 0.0, "lon": -77.0358725, "name": "1145252f6f8ea266e579007a378678be"}, {"bike_id": "dae93441ddc41385f0a1ab16806e5ad4", "type": "electric_scooter", "is_disabled": 0, "lat": 38.911719166666664, "rental_uris": {"ios": "https://dc.lft.to/lastmile_qr_scan", "android": "https://dc.lft.to/lastmile_qr_scan"}, "is_reserved": 0, "fusion_lon": 0.0, "fusion_lat": 0.0, "lon": -77.06865583333334, "name": "dae93441ddc41385f0a1ab16806e5ad4"}, {"bike_id": "932f877caef530316a6ff08570c736e2", "type": "electric_scooter", "is_disabled": 0, "lat": 38.90839416666667, "rental_uris": {"ios": "https://dc.lft.to/lastmile_qr_scan", "android": "https://dc.lft.to/lastmile_qr_scan"}, "is_reserved": 0, "fusion_lon": 0.0, "fusion_lat": 0.0, "lon": -77.043473, "name": "932f877caef530316a6ff08570c736e2"}, {"bike_id": "6c5b778f02f129c190a7c5b54b7045d6", "type": "electric_bike", "is_disabled": 0, "lat": 38.8974055, "rental_uris": {"ios": "https://dc.lft.to/lastmile_qr_scan", "android": "https://dc.lft.to/lastmile_qr_scan"}, "is_reserved": 0, "fusion_lon": 0.0, "fusion_lat": 0.0, "lon": -76.920466, "name": "6c5b778f02f129c190a7c5b54b7045d6"}, {"bike_id": "3b8527ffe848b81f9947f51a10c8bf17", "type": "electric_scooter", "is_disabled": 0, "lat": 38.922191166666664, "rental_uris": {"ios": "https://dc.lft.to/lastmile_qr_scan", "android": "https://dc.lft.to/lastmile_qr_scan"}, "is_reserved": 0, "fusion_lon": 0.0, "fusion_lat": 0.0, "lon": -77.03291133333333, "name": "3b8527ffe848b81f9947f51a10c8bf17"}, {"bike_id": "4375bffad2c257fd67b759f7ed21bd82", "type": "electric_scooter", "is_disabled": 0, "lat": 38.91916166666667, "rental_uris": {"ios": "https://dc.lft.to/lastmile_qr_scan", "android": "https://dc.lft.to/lastmile_qr_scan"}, "is_reserved": 0, "fusion_lon": 0.0, "fusion_lat": 0.0, "lon": -77.03360733333334, "name": "4375bffad2c257fd67b759f7ed21bd82"}, {"bike_id": "923b85f649274f7d26c5990f6cfefca7", "type": "electric_scooter", "is_disabled": 0, "lat": 38.918239666666665, "rental_uris": {"ios": "https://dc.lft.to/lastmile_qr_scan", "android": "https://dc.lft.to/lastmile_qr_scan"}, "is_reserved": 0, "fusion_lon": 0.0, "fusion_lat": 0.0, "lon": -77.04949466666666, "name": "923b85f649274f7d26c5990f6cfefca7"}, {"bike_id": "9e79ef09f0a634c5bc11d9c2441df014", "type": "electric_scooter", "is_disabled": 0, "lat": 38.92784366666667, "rental_uris": {"ios": "https://dc.lft.to/lastmile_qr_scan", "android": "https://dc.lft.to/lastmile_qr_scan"}, "is_reserved": 0, "fusion_lon": 0.0, "fusion_lat": 0.0, "lon": -77.04317633333334, "name": "9e79ef09f0a634c5bc11d9c2441df014"}, {"bike_id": "f8269cc219cff1f9b939dbea333d8eb6", "type": "electric_scooter", "is_disabled": 0, "lat": 38.964157166666666, "rental_uris": {"ios": "https://dc.lft.to/lastmile_qr_scan", "android": "https://dc.lft.to/lastmile_qr_scan"}, "is_reserved": 0, "fusion_lon": 0.0, "fusion_lat": 0.0, "lon": -77.02431766666666, "name": "f8269cc219cff1f9b939dbea333d8eb6"}, {"bike_id": "6d6f59f96179504ea6ec08e1b6ae2b35", "type": "electric_scooter", "is_disabled": 0, "lat": 38.90698583333333, "rental_uris": {"ios": "https://dc.lft.to/lastmile_qr_scan", "android": "https://dc.lft.to/lastmile_qr_scan"}, "is_reserved": 0, "fusion_lon": 0.0, "fusion_lat": 0.0, "lon": -77.03673416666666, "name": "6d6f59f96179504ea6ec08e1b6ae2b35"}, {"bike_id": "27683ad784fa3f47bb222855db1707e9", "type": "electric_scooter", "is_disabled": 0, "lat": 38.92085433333333, "rental_uris": {"ios": "https://dc.lft.to/lastmile_qr_scan", "android": "https://dc.lft.to/lastmile_qr_scan"}, "is_reserved": 0, "fusion_lon": 0.0, "fusion_lat": 0.0, "lon": -77.02385266666667, "name": "27683ad784fa3f47bb222855db1707e9"}, {"bike_id": "4d8d8821508b34cffbd196c0a6ec0290", "type": "electric_scooter", "is_disabled": 0, "lat": 38.9244945, "rental_uris": {"ios": "https://dc.lft.to/lastmile_qr_scan", "android": "https://dc.lft.to/lastmile_qr_scan"}, "is_reserved": 0, "fusion_lon": 0.0, "fusion_lat": 0.0, "lon": -77.04202983333333, "name": "4d8d8821508b34cffbd196c0a6ec0290"}, {"bike_id": "b9cf1dbe0b5a0a252482ed71557a0712", "type": "electric_scooter", "is_disabled": 0, "lat": 38.90988316666667, "rental_uris": {"ios": "https://dc.lft.to/lastmile_qr_scan", "android": "https://dc.lft.to/lastmile_qr_scan"}, "is_reserved": 0, "fusion_lon": 0.0, "fusion_lat": 0.0, "lon": -77.04270433333333, "name": "b9cf1dbe0b5a0a252482ed71557a0712"}, {"bike_id": "141e3e8a06e66a0c0dbd4aab4d66da3a", "type": "electric_scooter", "is_disabled": 0, "lat": 38.90760266666667, "rental_uris": {"ios": "https://dc.lft.to/lastmile_qr_scan", "android": "https://dc.lft.to/lastmile_qr_scan"}, "is_reserved": 0, "fusion_lon": 0.0, "fusion_lat": 0.0, "lon": -77.0357635, "name": "141e3e8a06e66a0c0dbd4aab4d66da3a"}, {"bike_id": "d4505bce7debd5e569f8c1683ad16fdc", "type": "electric_scooter", "is_disabled": 0, "lat": 38.93600716666667, "rental_uris": {"ios": "https://dc.lft.to/lastmile_qr_scan", "android": "https://dc.lft.to/lastmile_qr_scan"}, "is_reserved": 0, "fusion_lon": 0.0, "fusion_lat": 0.0, "lon": -77.03663616666667, "name": "d4505bce7debd5e569f8c1683ad16fdc"}, {"bike_id": "7e60c2cca30f4ecdd26a51201bfa4d2c", "type": "electric_bike", "is_disabled": 0, "lat": 38.993229166666666, "rental_uris": {"ios": "https://dc.lft.to/lastmile_qr_scan", "android": "https://dc.lft.to/lastmile_qr_scan"}, "is_reserved": 0, "fusion_lon": 0.0, "fusion_lat": 0.0, "lon": -76.94614666666666, "name": "7e60c2cca30f4ecdd26a51201bfa4d2c"}, {"bike_id": "b39524f4b5b6480ef506c017a8e09d28", "type": "electric_scooter", "is_disabled": 0, "lat": 38.9353685, "rental_uris": {"ios": "https://dc.lft.to/lastmile_qr_scan", "android": "https://dc.lft.to/lastmile_qr_scan"}, "is_reserved": 0, "fusion_lon": 0.0, "fusion_lat": 0.0, "lon": -77.05832033333333, "name": "b39524f4b5b6480ef506c017a8e09d28"}, {"bike_id": "249cb6bc7cf6546ee51420e12c3cd9bd", "type": "electric_bike", "is_disabled": 0, "lat": 38.8552625, "rental_uris": {"ios": "https://dc.lft.to/lastmile_qr_scan", "android": "https://dc.lft.to/lastmile_qr_scan"}, "is_reserved": 0, "fusion_lon": 0.0, "fusion_lat": 0.0, "lon": -77.1201195, "name": "249cb6bc7cf6546ee51420e12c3cd9bd"}, {"bike_id": "495fcc1a8f7a77650976491057ca385a", "type": "electric_scooter", "is_disabled": 0, "lat": 38.913991833333334, "rental_uris": {"ios": "https://dc.lft.to/lastmile_qr_scan", "android": "https://dc.lft.to/lastmile_qr_scan"}, "is_reserved": 0, "fusion_lon": 0.0, "fusion_lat": 0.0, "lon": -76.9819025, "name": "495fcc1a8f7a77650976491057ca385a"}, {"bike_id": "53c8f238051cf39e44d9e7d4d6a8f9dd", "type": "electric_scooter", "is_disabled": 0, "lat": 38.9161005, "rental_uris": {"ios": "https://dc.lft.to/lastmile_qr_scan", "android": "https://dc.lft.to/lastmile_qr_scan"}, "is_reserved": 0, "fusion_lon": 0.0, "fusion_lat": 0.0, "lon": -77.032055, "name": "53c8f238051cf39e44d9e7d4d6a8f9dd"}, {"bike_id": "e3ace41a82886ab0b82584a484e5c4f1", "type": "electric_scooter", "is_disabled": 0, "lat": 38.90719633333333, "rental_uris": {"ios": "https://dc.lft.to/lastmile_qr_scan", "android": "https://dc.lft.to/lastmile_qr_scan"}, "is_reserved": 0, "fusion_lon": 0.0, "fusion_lat": 0.0, "lon": -77.0418005, "name": "e3ace41a82886ab0b82584a484e5c4f1"}, {"bike_id": "834b4146d9473d281aa4ccf63bb79b80", "type": "electric_scooter", "is_disabled": 0, "lat": 38.9173535, "rental_uris": {"ios": "https://dc.lft.to/lastmile_qr_scan", "android": "https://dc.lft.to/lastmile_qr_scan"}, "is_reserved": 0, "fusion_lon": 0.0, "fusion_lat": 0.0, "lon": -77.01915033333333, "name": "834b4146d9473d281aa4ccf63bb79b80"}, {"bike_id": "1f0a9e21c64bf7e1d3cf0324db0a9f1d", "type": "electric_scooter", "is_disabled": 0, "lat": 38.9012815, "rental_uris": {"ios": "https://dc.lft.to/lastmile_qr_scan", "android": "https://dc.lft.to/lastmile_qr_scan"}, "is_reserved": 0, "fusion_lon": 0.0, "fusion_lat": 0.0, "lon": -76.99736933333334, "name": "1f0a9e21c64bf7e1d3cf0324db0a9f1d"}, {"bike_id": "5a3fa3e7d4be78f5c7cd0b17929f6866", "type": "electric_scooter", "is_disabled": 0, "lat": 38.902203166666666, "rental_uris": {"ios": "https://dc.lft.to/lastmile_qr_scan", "android": "https://dc.lft.to/lastmile_qr_scan"}, "is_reserved": 0, "fusion_lon": 0.0, "fusion_lat": 0.0, "lon": -77.024326, "name": "5a3fa3e7d4be78f5c7cd0b17929f6866"}, {"bike_id": "c7750b9815e1a8a09a310bf27397939f", "type": "electric_scooter", "is_disabled": 0, "lat": 38.911154833333335, "rental_uris": {"ios": "https://dc.lft.to/lastmile_qr_scan", "android": "https://dc.lft.to/lastmile_qr_scan"}, "is_reserved": 0, "fusion_lon": 0.0, "fusion_lat": 0.0, "lon": -77.04528316666666, "name": "c7750b9815e1a8a09a310bf27397939f"}, {"bike_id": "e0feccfa0e02de4aa5410816c78a3b75", "type": "electric_scooter", "is_disabled": 0, "lat": 38.93955483333333, "rental_uris": {"ios": "https://dc.lft.to/lastmile_qr_scan", "android": "https://dc.lft.to/lastmile_qr_scan"}, "is_reserved": 0, "fusion_lon": 0.0, "fusion_lat": 0.0, "lon": -77.07249016666667, "name": "e0feccfa0e02de4aa5410816c78a3b75"}, {"bike_id": "277b898bb1daa1db420ce8a51a62aa33", "type": "electric_scooter", "is_disabled": 0, "lat": 38.908555166666666, "rental_uris": {"ios": "https://dc.lft.to/lastmile_qr_scan", "android": "https://dc.lft.to/lastmile_qr_scan"}, "is_reserved": 0, "fusion_lon": 0.0, "fusion_lat": 0.0, "lon": -76.999737, "name": "277b898bb1daa1db420ce8a51a62aa33"}, {"bike_id": "558b5af346531de3ae2a24700b764580", "type": "electric_scooter", "is_disabled": 0, "lat": 38.864733666666666, "rental_uris": {"ios": "https://dc.lft.to/lastmile_qr_scan", "android": "https://dc.lft.to/lastmile_qr_scan"}, "is_reserved": 0, "fusion_lon": 0.0, "fusion_lat": 0.0, "lon": -77.00015616666667, "name": "558b5af346531de3ae2a24700b764580"}, {"bike_id": "bff222b72db4f09eeb55faa2dfef3b51", "type": "electric_scooter", "is_disabled": 0, "lat": 38.901233166666664, "rental_uris": {"ios": "https://dc.lft.to/lastmile_qr_scan", "android": "https://dc.lft.to/lastmile_qr_scan"}, "is_reserved": 0, "fusion_lon": 0.0, "fusion_lat": 0.0, "lon": -77.03843883333333, "name": "bff222b72db4f09eeb55faa2dfef3b51"}, {"bike_id": "e1b2af1ccf5e6e3082df890318f827ca", "type": "electric_scooter", "is_disabled": 0, "lat": 38.843123166666665, "rental_uris": {"ios": "https://dc.lft.to/lastmile_qr_scan", "android": "https://dc.lft.to/lastmile_qr_scan"}, "is_reserved": 0, "fusion_lon": 0.0, "fusion_lat": 0.0, "lon": -76.9993365, "name": "e1b2af1ccf5e6e3082df890318f827ca"}, {"bike_id": "2c0dbcfa15e1485eae9581f209a71d1c", "type": "electric_scooter", "is_disabled": 0, "lat": 38.912581833333334, "rental_uris": {"ios": "https://dc.lft.to/lastmile_qr_scan", "android": "https://dc.lft.to/lastmile_qr_scan"}, "is_reserved": 0, "fusion_lon": 0.0, "fusion_lat": 0.0, "lon": -77.06795316666667, "name": "2c0dbcfa15e1485eae9581f209a71d1c"}, {"bike_id": "aa85af1304cf19afc1a3db67d690461f", "type": "electric_scooter", "is_disabled": 0, "lat": 38.893060166666665, "rental_uris": {"ios": "https://dc.lft.to/lastmile_qr_scan", "android": "https://dc.lft.to/lastmile_qr_scan"}, "is_reserved": 0, "fusion_lon": 0.0, "fusion_lat": 0.0, "lon": -77.04679966666667, "name": "aa85af1304cf19afc1a3db67d690461f"}, {"bike_id": "f3fd897607a41d56a92b93f9cc3f95d2", "type": "electric_scooter", "is_disabled": 0, "lat": 38.9198425, "rental_uris": {"ios": "https://dc.lft.to/lastmile_qr_scan", "android": "https://dc.lft.to/lastmile_qr_scan"}, "is_reserved": 0, "fusion_lon": 0.0, "fusion_lat": 0.0, "lon": -77.01801116666667, "name": "f3fd897607a41d56a92b93f9cc3f95d2"}, {"bike_id": "cb4c4e5d68754cc37ce5774bb08bbd47", "type": "electric_bike", "is_disabled": 0, "lat": 38.891021, "rental_uris": {"ios": "https://dc.lft.to/lastmile_qr_scan", "android": "https://dc.lft.to/lastmile_qr_scan"}, "is_reserved": 0, "fusion_lon": 0.0, "fusion_lat": 0.0, "lon": -76.93479083333334, "name": "cb4c4e5d68754cc37ce5774bb08bbd47"}, {"bike_id": "97cee354a503273f1eaf0d7659bd8d10", "type": "electric_scooter", "is_disabled": 0, "lat": 38.88065316666667, "rental_uris": {"ios": "https://dc.lft.to/lastmile_qr_scan", "android": "https://dc.lft.to/lastmile_qr_scan"}, "is_reserved": 0, "fusion_lon": 0.0, "fusion_lat": 0.0, "lon": -76.93218133333333, "name": "97cee354a503273f1eaf0d7659bd8d10"}, {"bike_id": "1c99e585832591e2d452653227d54041", "type": "electric_scooter", "is_disabled": 0, "lat": 38.914055, "rental_uris": {"ios": "https://dc.lft.to/lastmile_qr_scan", "android": "https://dc.lft.to/lastmile_qr_scan"}, "is_reserved": 0, "fusion_lon": 0.0, "fusion_lat": 0.0, "lon": -77.03260883333333, "name": "1c99e585832591e2d452653227d54041"}, {"bike_id": "9ca57527861bd8bca04ca127c40a8e9b", "type": "electric_scooter", "is_disabled": 0, "lat": 38.9190575, "rental_uris": {"ios": "https://dc.lft.to/lastmile_qr_scan", "android": "https://dc.lft.to/lastmile_qr_scan"}, "is_reserved": 0, "fusion_lon": 0.0, "fusion_lat": 0.0, "lon": -77.07080916666666, "name": "9ca57527861bd8bca04ca127c40a8e9b"}, {"bike_id": "b02933a70efa779b140d93e53c71c2a4", "type": "electric_scooter", "is_disabled": 0, "lat": 38.88851666666667, "rental_uris": {"ios": "https://dc.lft.to/lastmile_qr_scan", "android": "https://dc.lft.to/lastmile_qr_scan"}, "is_reserved": 0, "fusion_lon": 0.0, "fusion_lat": 0.0, "lon": -77.00051666666667, "name": "b02933a70efa779b140d93e53c71c2a4"}, {"bike_id": "12f83e59cf12f6bd6df50ac6ee1ea1c1", "type": "electric_scooter", "is_disabled": 0, "lat": 38.916707, "rental_uris": {"ios": "https://dc.lft.to/lastmile_qr_scan", "android": "https://dc.lft.to/lastmile_qr_scan"}, "is_reserved": 0, "fusion_lon": 0.0, "fusion_lat": 0.0, "lon": -77.0290145, "name": "12f83e59cf12f6bd6df50ac6ee1ea1c1"}, {"bike_id": "fcef37c9a9dc63c1e15dde3c658f814f", "type": "electric_scooter", "is_disabled": 0, "lat": 38.88745816666667, "rental_uris": {"ios": "https://dc.lft.to/lastmile_qr_scan", "android": "https://dc.lft.to/lastmile_qr_scan"}, "is_reserved": 0, "fusion_lon": 0.0, "fusion_lat": 0.0, "lon": -76.9963665, "name": "fcef37c9a9dc63c1e15dde3c658f814f"}, {"bike_id": "f5243825416dec64ea4d1d732f10a8fb", "type": "electric_scooter", "is_disabled": 0, "lat": 38.905689, "rental_uris": {"ios": "https://dc.lft.to/lastmile_qr_scan", "android": "https://dc.lft.to/lastmile_qr_scan"}, "is_reserved": 0, "fusion_lon": 0.0, "fusion_lat": 0.0, "lon": -77.006047, "name": "f5243825416dec64ea4d1d732f10a8fb"}, {"bike_id": "68b2ed7d4ee4dc073383c46c09cd5207", "type": "electric_scooter", "is_disabled": 0, "lat": 38.92403133333333, "rental_uris": {"ios": "https://dc.lft.to/lastmile_qr_scan", "android": "https://dc.lft.to/lastmile_qr_scan"}, "is_reserved": 0, "fusion_lon": 0.0, "fusion_lat": 0.0, "lon": -77.04297033333333, "name": "68b2ed7d4ee4dc073383c46c09cd5207"}, {"bike_id": "2aa148faaf48a80f1fdd2dcaf9c764a8", "type": "electric_scooter", "is_disabled": 0, "lat": 38.91509166666667, "rental_uris": {"ios": "https://dc.lft.to/lastmile_qr_scan", "android": "https://dc.lft.to/lastmile_qr_scan"}, "is_reserved": 0, "fusion_lon": 0.0, "fusion_lat": 0.0, "lon": -77.021849, "name": "2aa148faaf48a80f1fdd2dcaf9c764a8"}, {"bike_id": "4e9cda48be7041709f1539b1c60dabf4", "type": "electric_scooter", "is_disabled": 0, "lat": 38.922532833333335, "rental_uris": {"ios": "https://dc.lft.to/lastmile_qr_scan", "android": "https://dc.lft.to/lastmile_qr_scan"}, "is_reserved": 0, "fusion_lon": 0.0, "fusion_lat": 0.0, "lon": -77.041811, "name": "4e9cda48be7041709f1539b1c60dabf4"}, {"bike_id": "84ca29874400deb86d6e67cc1015f6a0", "type": "electric_scooter", "is_disabled": 0, "lat": 38.9247745, "rental_uris": {"ios": "https://dc.lft.to/lastmile_qr_scan", "android": "https://dc.lft.to/lastmile_qr_scan"}, "is_reserved": 0, "fusion_lon": 0.0, "fusion_lat": 0.0, "lon": -77.052148, "name": "84ca29874400deb86d6e67cc1015f6a0"}, {"bike_id": "57e8abbb40e2781a7aaba4a3b9e99366", "type": "electric_scooter", "is_disabled": 0, "lat": 38.905000333333334, "rental_uris": {"ios": "https://dc.lft.to/lastmile_qr_scan", "android": "https://dc.lft.to/lastmile_qr_scan"}, "is_reserved": 0, "fusion_lon": 0.0, "fusion_lat": 0.0, "lon": -77.06886466666667, "name": "57e8abbb40e2781a7aaba4a3b9e99366"}, {"bike_id": "65a78c870afc7daa0e25e0619390ef87", "type": "electric_scooter", "is_disabled": 0, "lat": 38.91349916666667, "rental_uris": {"ios": "https://dc.lft.to/lastmile_qr_scan", "android": "https://dc.lft.to/lastmile_qr_scan"}, "is_reserved": 0, "fusion_lon": 0.0, "fusion_lat": 0.0, "lon": -77.03183816666666, "name": "65a78c870afc7daa0e25e0619390ef87"}, {"bike_id": "6dfd0a8ed3ef7f3ac830b5cc8c171fab", "type": "electric_scooter", "is_disabled": 0, "lat": 38.90063683333333, "rental_uris": {"ios": "https://dc.lft.to/lastmile_qr_scan", "android": "https://dc.lft.to/lastmile_qr_scan"}, "is_reserved": 0, "fusion_lon": 0.0, "fusion_lat": 0.0, "lon": -76.92745366666666, "name": "6dfd0a8ed3ef7f3ac830b5cc8c171fab"}, {"bike_id": "27367626db6dd66f768a9eb7689468a8", "type": "electric_scooter", "is_disabled": 0, "lat": 38.902463166666664, "rental_uris": {"ios": "https://dc.lft.to/lastmile_qr_scan", "android": "https://dc.lft.to/lastmile_qr_scan"}, "is_reserved": 0, "fusion_lon": 0.0, "fusion_lat": 0.0, "lon": -77.04496016666667, "name": "27367626db6dd66f768a9eb7689468a8"}, {"bike_id": "74e3ca2967d444b6e209f527dcb226af", "type": "electric_scooter", "is_disabled": 0, "lat": 38.937495, "rental_uris": {"ios": "https://dc.lft.to/lastmile_qr_scan", "android": "https://dc.lft.to/lastmile_qr_scan"}, "is_reserved": 0, "fusion_lon": 0.0, "fusion_lat": 0.0, "lon": -77.0244705, "name": "74e3ca2967d444b6e209f527dcb226af"}, {"bike_id": "5cb381a02e306931e5838c1236b5a591", "type": "electric_scooter", "is_disabled": 0, "lat": 38.8762885, "rental_uris": {"ios": "https://dc.lft.to/lastmile_qr_scan", "android": "https://dc.lft.to/lastmile_qr_scan"}, "is_reserved": 0, "fusion_lon": 0.0, "fusion_lat": 0.0, "lon": -76.96528266666667, "name": "5cb381a02e306931e5838c1236b5a591"}, {"bike_id": "5f693b16857a3a6fa22e9a0e426f7f79", "type": "electric_scooter", "is_disabled": 0, "lat": 38.92082466666667, "rental_uris": {"ios": "https://dc.lft.to/lastmile_qr_scan", "android": "https://dc.lft.to/lastmile_qr_scan"}, "is_reserved": 0, "fusion_lon": 0.0, "fusion_lat": 0.0, "lon": -77.023825, "name": "5f693b16857a3a6fa22e9a0e426f7f79"}, {"bike_id": "278e3faca1303b69f24486fd217ad282", "type": "electric_scooter", "is_disabled": 0, "lat": 38.90716366666667, "rental_uris": {"ios": "https://dc.lft.to/lastmile_qr_scan", "android": "https://dc.lft.to/lastmile_qr_scan"}, "is_reserved": 0, "fusion_lon": 0.0, "fusion_lat": 0.0, "lon": -77.00060216666667, "name": "278e3faca1303b69f24486fd217ad282"}, {"bike_id": "c4fbfb057ae04abe0c9ff082c29b34a0", "type": "electric_bike", "is_disabled": 0, "lat": 39.014812666666664, "rental_uris": {"ios": "https://dc.lft.to/lastmile_qr_scan", "android": "https://dc.lft.to/lastmile_qr_scan"}, "is_reserved": 0, "fusion_lon": 0.0, "fusion_lat": 0.0, "lon": -77.05493366666667, "name": "c4fbfb057ae04abe0c9ff082c29b34a0"}, {"bike_id": "f6479ea18a87340e2d395830bdff3a59", "type": "electric_scooter", "is_disabled": 0, "lat": 38.910742, "rental_uris": {"ios": "https://dc.lft.to/lastmile_qr_scan", "android": "https://dc.lft.to/lastmile_qr_scan"}, "is_reserved": 0, "fusion_lon": 0.0, "fusion_lat": 0.0, "lon": -77.00459583333334, "name": "f6479ea18a87340e2d395830bdff3a59"}, {"bike_id": "4fde52ea8c0c5893005b246f255f2a40", "type": "electric_scooter", "is_disabled": 0, "lat": 38.915632333333335, "rental_uris": {"ios": "https://dc.lft.to/lastmile_qr_scan", "android": "https://dc.lft.to/lastmile_qr_scan"}, "is_reserved": 0, "fusion_lon": 0.0, "fusion_lat": 0.0, "lon": -77.02019983333334, "name": "4fde52ea8c0c5893005b246f255f2a40"}, {"bike_id": "f80bde2fc36d7d1c95a826a1c0bf4d5d", "type": "electric_scooter", "is_disabled": 0, "lat": 38.91962733333333, "rental_uris": {"ios": "https://dc.lft.to/lastmile_qr_scan", "android": "https://dc.lft.to/lastmile_qr_scan"}, "is_reserved": 0, "fusion_lon": 0.0, "fusion_lat": 0.0, "lon": -77.01442966666667, "name": "f80bde2fc36d7d1c95a826a1c0bf4d5d"}, {"bike_id": "c9b22928c53d04d5ac91b4f49ea6725a", "type": "electric_scooter", "is_disabled": 0, "lat": 38.909666, "rental_uris": {"ios": "https://dc.lft.to/lastmile_qr_scan", "android": "https://dc.lft.to/lastmile_qr_scan"}, "is_reserved": 0, "fusion_lon": 0.0, "fusion_lat": 0.0, "lon": -77.02214433333333, "name": "c9b22928c53d04d5ac91b4f49ea6725a"}, {"bike_id": "ab79ba429b488b5579ccfc44ecad89a9", "type": "electric_scooter", "is_disabled": 0, "lat": 38.9161195, "rental_uris": {"ios": "https://dc.lft.to/lastmile_qr_scan", "android": "https://dc.lft.to/lastmile_qr_scan"}, "is_reserved": 0, "fusion_lon": 0.0, "fusion_lat": 0.0, "lon": -77.02311466666667, "name": "ab79ba429b488b5579ccfc44ecad89a9"}, {"bike_id": "090533be946f7332984d0f180c9824dc", "type": "electric_scooter", "is_disabled": 0, "lat": 38.9010625, "rental_uris": {"ios": "https://dc.lft.to/lastmile_qr_scan", "android": "https://dc.lft.to/lastmile_qr_scan"}, "is_reserved": 0, "fusion_lon": 0.0, "fusion_lat": 0.0, "lon": -77.05902983333333, "name": "090533be946f7332984d0f180c9824dc"}, {"bike_id": "6b91b047b4d81083be9e17cc94bf308a", "type": "electric_scooter", "is_disabled": 0, "lat": 38.905394333333334, "rental_uris": {"ios": "https://dc.lft.to/lastmile_qr_scan", "android": "https://dc.lft.to/lastmile_qr_scan"}, "is_reserved": 0, "fusion_lon": 0.0, "fusion_lat": 0.0, "lon": -77.06892383333333, "name": "6b91b047b4d81083be9e17cc94bf308a"}, {"bike_id": "8ca73eb1bf04cac3d48477f841bdee4e", "type": "electric_bike", "is_disabled": 0, "lat": 39.0374625, "rental_uris": {"ios": "https://dc.lft.to/lastmile_qr_scan", "android": "https://dc.lft.to/lastmile_qr_scan"}, "is_reserved": 0, "fusion_lon": 0.0, "fusion_lat": 0.0, "lon": -77.05483066666666, "name": "8ca73eb1bf04cac3d48477f841bdee4e"}, {"bike_id": "22dd9cc7341b7a8ed6d83ce4b5ca65e2", "type": "electric_scooter", "is_disabled": 0, "lat": 38.90835533333333, "rental_uris": {"ios": "https://dc.lft.to/lastmile_qr_scan", "android": "https://dc.lft.to/lastmile_qr_scan"}, "is_reserved": 0, "fusion_lon": 0.0, "fusion_lat": 0.0, "lon": -77.02203866666666, "name": "22dd9cc7341b7a8ed6d83ce4b5ca65e2"}, {"bike_id": "26e1c9b5e1604e6606aaa8f183a3c839", "type": "electric_bike", "is_disabled": 0, "lat": 38.8813135, "rental_uris": {"ios": "https://dc.lft.to/lastmile_qr_scan", "android": "https://dc.lft.to/lastmile_qr_scan"}, "is_reserved": 0, "fusion_lon": 0.0, "fusion_lat": 0.0, "lon": -77.09354866666666, "name": "26e1c9b5e1604e6606aaa8f183a3c839"}, {"bike_id": "ebd1c8bc9c7737cc8aeaba437cf78ef6", "type": "electric_scooter", "is_disabled": 0, "lat": 38.877431333333334, "rental_uris": {"ios": "https://dc.lft.to/lastmile_qr_scan", "android": "https://dc.lft.to/lastmile_qr_scan"}, "is_reserved": 0, "fusion_lon": 0.0, "fusion_lat": 0.0, "lon": -76.99726733333333, "name": "ebd1c8bc9c7737cc8aeaba437cf78ef6"}, {"bike_id": "93548da231348e8b1f10a1b5a59b9778", "type": "electric_scooter", "is_disabled": 0, "lat": 38.886483166666665, "rental_uris": {"ios": "https://dc.lft.to/lastmile_qr_scan", "android": "https://dc.lft.to/lastmile_qr_scan"}, "is_reserved": 0, "fusion_lon": 0.0, "fusion_lat": 0.0, "lon": -77.0000165, "name": "93548da231348e8b1f10a1b5a59b9778"}, {"bike_id": "cfeab6f70797b1860bd3f6b62f81fdae", "type": "electric_bike", "is_disabled": 0, "lat": 39.05493933333333, "rental_uris": {"ios": "https://dc.lft.to/lastmile_qr_scan", "android": "https://dc.lft.to/lastmile_qr_scan"}, "is_reserved": 0, "fusion_lon": 0.0, "fusion_lat": 0.0, "lon": -77.11794716666667, "name": "cfeab6f70797b1860bd3f6b62f81fdae"}, {"bike_id": "9ac3185edb8eba940b0afc824b2ae0ab", "type": "electric_bike", "is_disabled": 0, "lat": 38.908280500000004, "rental_uris": {"ios": "https://dc.lft.to/lastmile_qr_scan", "android": "https://dc.lft.to/lastmile_qr_scan"}, "is_reserved": 0, "fusion_lon": 0.0, "fusion_lat": 0.0, "lon": -76.94160733333334, "name": "9ac3185edb8eba940b0afc824b2ae0ab"}, {"bike_id": "e36f4f877417c370c3be10a8606c6aee", "type": "electric_scooter", "is_disabled": 0, "lat": 38.91418083333333, "rental_uris": {"ios": "https://dc.lft.to/lastmile_qr_scan", "android": "https://dc.lft.to/lastmile_qr_scan"}, "is_reserved": 0, "fusion_lon": 0.0, "fusion_lat": 0.0, "lon": -77.02258466666666, "name": "e36f4f877417c370c3be10a8606c6aee"}, {"bike_id": "9328adf8955cec71c5a9c9a0984bd3a6", "type": "electric_scooter", "is_disabled": 0, "lat": 38.942939333333335, "rental_uris": {"ios": "https://dc.lft.to/lastmile_qr_scan", "android": "https://dc.lft.to/lastmile_qr_scan"}, "is_reserved": 0, "fusion_lon": 0.0, "fusion_lat": 0.0, "lon": -77.02173533333334, "name": "9328adf8955cec71c5a9c9a0984bd3a6"}, {"bike_id": "b19adb8d1bf4f1009d19d2aa81b543c5", "type": "electric_bike", "is_disabled": 0, "lat": 38.90867, "rental_uris": {"ios": "https://dc.lft.to/lastmile_qr_scan", "android": "https://dc.lft.to/lastmile_qr_scan"}, "is_reserved": 0, "fusion_lon": 0.0, "fusion_lat": 0.0, "lon": -77.01250633333333, "name": "b19adb8d1bf4f1009d19d2aa81b543c5"}, {"bike_id": "553a896e75c39d080093989e24158cb1", "type": "electric_scooter", "is_disabled": 0, "lat": 38.92787383333334, "rental_uris": {"ios": "https://dc.lft.to/lastmile_qr_scan", "android": "https://dc.lft.to/lastmile_qr_scan"}, "is_reserved": 0, "fusion_lon": 0.0, "fusion_lat": 0.0, "lon": -77.026269, "name": "553a896e75c39d080093989e24158cb1"}, {"bike_id": "e1d242ddd5384f7e2d5dbbf347ea0ed8", "type": "electric_scooter", "is_disabled": 0, "lat": 38.92767766666667, "rental_uris": {"ios": "https://dc.lft.to/lastmile_qr_scan", "android": "https://dc.lft.to/lastmile_qr_scan"}, "is_reserved": 0, "fusion_lon": 0.0, "fusion_lat": 0.0, "lon": -77.02780683333333, "name": "e1d242ddd5384f7e2d5dbbf347ea0ed8"}, {"bike_id": "137b07d7d0f2ea50fe59b8653c32e1ce", "type": "electric_scooter", "is_disabled": 0, "lat": 38.92595383333333, "rental_uris": {"ios": "https://dc.lft.to/lastmile_qr_scan", "android": "https://dc.lft.to/lastmile_qr_scan"}, "is_reserved": 0, "fusion_lon": 0.0, "fusion_lat": 0.0, "lon": -77.03758683333334, "name": "137b07d7d0f2ea50fe59b8653c32e1ce"}, {"bike_id": "3dc196401598c5825554d97efa97fc80", "type": "electric_bike", "is_disabled": 0, "lat": 38.9155075, "rental_uris": {"ios": "https://dc.lft.to/lastmile_qr_scan", "android": "https://dc.lft.to/lastmile_qr_scan"}, "is_reserved": 0, "fusion_lon": 0.0, "fusion_lat": 0.0, "lon": -77.03245383333334, "name": "3dc196401598c5825554d97efa97fc80"}, {"bike_id": "946948c07a829a9429a59f1f774652d1", "type": "electric_scooter", "is_disabled": 0, "lat": 38.8781625, "rental_uris": {"ios": "https://dc.lft.to/lastmile_qr_scan", "android": "https://dc.lft.to/lastmile_qr_scan"}, "is_reserved": 0, "fusion_lon": 0.0, "fusion_lat": 0.0, "lon": -77.02241116666667, "name": "946948c07a829a9429a59f1f774652d1"}, {"bike_id": "6e116060dfe5e57786b65dfc83b74aa2", "type": "electric_scooter", "is_disabled": 0, "lat": 38.876507333333336, "rental_uris": {"ios": "https://dc.lft.to/lastmile_qr_scan", "android": "https://dc.lft.to/lastmile_qr_scan"}, "is_reserved": 0, "fusion_lon": 0.0, "fusion_lat": 0.0, "lon": -76.96508733333333, "name": "6e116060dfe5e57786b65dfc83b74aa2"}, {"bike_id": "9ba5571f118ccd4af10e61a611b4645f", "type": "electric_scooter", "is_disabled": 0, "lat": 38.924832333333335, "rental_uris": {"ios": "https://dc.lft.to/lastmile_qr_scan", "android": "https://dc.lft.to/lastmile_qr_scan"}, "is_reserved": 0, "fusion_lon": 0.0, "fusion_lat": 0.0, "lon": -77.0272385, "name": "9ba5571f118ccd4af10e61a611b4645f"}, {"bike_id": "352679b5de5500fe957cea6e8cffe822", "type": "electric_scooter", "is_disabled": 0, "lat": 38.87716416666667, "rental_uris": {"ios": "https://dc.lft.to/lastmile_qr_scan", "android": "https://dc.lft.to/lastmile_qr_scan"}, "is_reserved": 0, "fusion_lon": 0.0, "fusion_lat": 0.0, "lon": -77.00735, "name": "352679b5de5500fe957cea6e8cffe822"}, {"bike_id": "79f4631ec7754eb615cd455501cd1e12", "type": "electric_scooter", "is_disabled": 0, "lat": 38.921370833333334, "rental_uris": {"ios": "https://dc.lft.to/lastmile_qr_scan", "android": "https://dc.lft.to/lastmile_qr_scan"}, "is_reserved": 0, "fusion_lon": 0.0, "fusion_lat": 0.0, "lon": -77.0413755, "name": "79f4631ec7754eb615cd455501cd1e12"}, {"bike_id": "19c6f43b31632d19edecf426bf3328a0", "type": "electric_scooter", "is_disabled": 0, "lat": 38.886758666666665, "rental_uris": {"ios": "https://dc.lft.to/lastmile_qr_scan", "android": "https://dc.lft.to/lastmile_qr_scan"}, "is_reserved": 0, "fusion_lon": 0.0, "fusion_lat": 0.0, "lon": -77.01979366666667, "name": "19c6f43b31632d19edecf426bf3328a0"}, {"bike_id": "fe61cf1605b64b19c828447f24050c80", "type": "electric_scooter", "is_disabled": 0, "lat": 38.92501716666666, "rental_uris": {"ios": "https://dc.lft.to/lastmile_qr_scan", "android": "https://dc.lft.to/lastmile_qr_scan"}, "is_reserved": 0, "fusion_lon": 0.0, "fusion_lat": 0.0, "lon": -77.03802533333334, "name": "fe61cf1605b64b19c828447f24050c80"}, {"bike_id": "571805874a3b0dd5dba4a3c9b57dee23", "type": "electric_scooter", "is_disabled": 0, "lat": 38.934729, "rental_uris": {"ios": "https://dc.lft.to/lastmile_qr_scan", "android": "https://dc.lft.to/lastmile_qr_scan"}, "is_reserved": 0, "fusion_lon": 0.0, "fusion_lat": 0.0, "lon": -77.07278916666667, "name": "571805874a3b0dd5dba4a3c9b57dee23"}, {"bike_id": "b9680fbc00bb5d237ce6d0d6aca60d7a", "type": "electric_bike", "is_disabled": 0, "lat": 38.9086795, "rental_uris": {"ios": "https://dc.lft.to/lastmile_qr_scan", "android": "https://dc.lft.to/lastmile_qr_scan"}, "is_reserved": 0, "fusion_lon": 0.0, "fusion_lat": 0.0, "lon": -76.9913725, "name": "b9680fbc00bb5d237ce6d0d6aca60d7a"}, {"bike_id": "083ff237442cdd82a70c8091b6df3c00", "type": "electric_scooter", "is_disabled": 0, "lat": 38.923644333333336, "rental_uris": {"ios": "https://dc.lft.to/lastmile_qr_scan", "android": "https://dc.lft.to/lastmile_qr_scan"}, "is_reserved": 0, "fusion_lon": 0.0, "fusion_lat": 0.0, "lon": -77.051286, "name": "083ff237442cdd82a70c8091b6df3c00"}, {"bike_id": "2b5e6c5bcaec919805b2b706959a2e80", "type": "electric_scooter", "is_disabled": 0, "lat": 38.92237983333333, "rental_uris": {"ios": "https://dc.lft.to/lastmile_qr_scan", "android": "https://dc.lft.to/lastmile_qr_scan"}, "is_reserved": 0, "fusion_lon": 0.0, "fusion_lat": 0.0, "lon": -77.07312383333333, "name": "2b5e6c5bcaec919805b2b706959a2e80"}, {"bike_id": "55f0d3bee5073b0db9b40df6d95ef946", "type": "electric_scooter", "is_disabled": 0, "lat": 38.913827833333336, "rental_uris": {"ios": "https://dc.lft.to/lastmile_qr_scan", "android": "https://dc.lft.to/lastmile_qr_scan"}, "is_reserved": 0, "fusion_lon": 0.0, "fusion_lat": 0.0, "lon": -77.0170605, "name": "55f0d3bee5073b0db9b40df6d95ef946"}, {"bike_id": "d60edb46255930c2d6861f6acd62cf46", "type": "electric_scooter", "is_disabled": 0, "lat": 38.92133883333333, "rental_uris": {"ios": "https://dc.lft.to/lastmile_qr_scan", "android": "https://dc.lft.to/lastmile_qr_scan"}, "is_reserved": 0, "fusion_lon": 0.0, "fusion_lat": 0.0, "lon": -77.0180075, "name": "d60edb46255930c2d6861f6acd62cf46"}, {"bike_id": "0b943efab963540f7cb08ba67a7fe567", "type": "electric_scooter", "is_disabled": 0, "lat": 38.935373166666665, "rental_uris": {"ios": "https://dc.lft.to/lastmile_qr_scan", "android": "https://dc.lft.to/lastmile_qr_scan"}, "is_reserved": 0, "fusion_lon": 0.0, "fusion_lat": 0.0, "lon": -77.03401333333333, "name": "0b943efab963540f7cb08ba67a7fe567"}, {"bike_id": "31997532bce7f9e84c5e6b24a2c6485b", "type": "electric_scooter", "is_disabled": 0, "lat": 38.90273366666667, "rental_uris": {"ios": "https://dc.lft.to/lastmile_qr_scan", "android": "https://dc.lft.to/lastmile_qr_scan"}, "is_reserved": 0, "fusion_lon": 0.0, "fusion_lat": 0.0, "lon": -77.06128816666667, "name": "31997532bce7f9e84c5e6b24a2c6485b"}, {"bike_id": "107fcb346a76328b402a3249d7fe98e8", "type": "electric_scooter", "is_disabled": 0, "lat": 38.93469483333333, "rental_uris": {"ios": "https://dc.lft.to/lastmile_qr_scan", "android": "https://dc.lft.to/lastmile_qr_scan"}, "is_reserved": 0, "fusion_lon": 0.0, "fusion_lat": 0.0, "lon": -77.0727875, "name": "107fcb346a76328b402a3249d7fe98e8"}, {"bike_id": "3aa0e0cfbb6ea5e0cfe3f508baec95ad", "type": "electric_scooter", "is_disabled": 0, "lat": 38.9225105, "rental_uris": {"ios": "https://dc.lft.to/lastmile_qr_scan", "android": "https://dc.lft.to/lastmile_qr_scan"}, "is_reserved": 0, "fusion_lon": 0.0, "fusion_lat": 0.0, "lon": -77.03085133333333, "name": "3aa0e0cfbb6ea5e0cfe3f508baec95ad"}, {"bike_id": "8bd0c79e472bd9c8f7b23eb2e066b8c0", "type": "electric_scooter", "is_disabled": 0, "lat": 38.90542666666666, "rental_uris": {"ios": "https://dc.lft.to/lastmile_qr_scan", "android": "https://dc.lft.to/lastmile_qr_scan"}, "is_reserved": 0, "fusion_lon": 0.0, "fusion_lat": 0.0, "lon": -77.05008516666666, "name": "8bd0c79e472bd9c8f7b23eb2e066b8c0"}, {"bike_id": "07a6dd71ec85e988f35413f59bcfd4c3", "type": "electric_scooter", "is_disabled": 0, "lat": 38.923405, "rental_uris": {"ios": "https://dc.lft.to/lastmile_qr_scan", "android": "https://dc.lft.to/lastmile_qr_scan"}, "is_reserved": 0, "fusion_lon": 0.0, "fusion_lat": 0.0, "lon": -77.05093416666666, "name": "07a6dd71ec85e988f35413f59bcfd4c3"}, {"bike_id": "4ba895ea9e422213ad2c8ed2c8c0e86e", "type": "electric_scooter", "is_disabled": 0, "lat": 38.900572333333336, "rental_uris": {"ios": "https://dc.lft.to/lastmile_qr_scan", "android": "https://dc.lft.to/lastmile_qr_scan"}, "is_reserved": 0, "fusion_lon": 0.0, "fusion_lat": 0.0, "lon": -77.0138115, "name": "4ba895ea9e422213ad2c8ed2c8c0e86e"}, {"bike_id": "e655621c229b347d46b2ea63ab98f033", "type": "electric_bike", "is_disabled": 0, "lat": 38.8893175, "rental_uris": {"ios": "https://dc.lft.to/lastmile_qr_scan", "android": "https://dc.lft.to/lastmile_qr_scan"}, "is_reserved": 0, "fusion_lon": 0.0, "fusion_lat": 0.0, "lon": -76.9917625, "name": "e655621c229b347d46b2ea63ab98f033"}, {"bike_id": "f11b486ae97228b58ea437d479d29999", "type": "electric_scooter", "is_disabled": 0, "lat": 38.87576983333334, "rental_uris": {"ios": "https://dc.lft.to/lastmile_qr_scan", "android": "https://dc.lft.to/lastmile_qr_scan"}, "is_reserved": 0, "fusion_lon": 0.0, "fusion_lat": 0.0, "lon": -77.012821, "name": "f11b486ae97228b58ea437d479d29999"}, {"bike_id": "f586d16aa712d51d8e94ae435f61efa3", "type": "electric_scooter", "is_disabled": 0, "lat": 38.9197055, "rental_uris": {"ios": "https://dc.lft.to/lastmile_qr_scan", "android": "https://dc.lft.to/lastmile_qr_scan"}, "is_reserved": 0, "fusion_lon": 0.0, "fusion_lat": 0.0, "lon": -77.03959183333333, "name": "f586d16aa712d51d8e94ae435f61efa3"}, {"bike_id": "a0c44d731d28ba66b189db56020cdf95", "type": "electric_scooter", "is_disabled": 0, "lat": 38.89740616666667, "rental_uris": {"ios": "https://dc.lft.to/lastmile_qr_scan", "android": "https://dc.lft.to/lastmile_qr_scan"}, "is_reserved": 0, "fusion_lon": 0.0, "fusion_lat": 0.0, "lon": -76.947284, "name": "a0c44d731d28ba66b189db56020cdf95"}, {"bike_id": "3ad20fa9a1b638d284f49e39f9fc9929", "type": "electric_scooter", "is_disabled": 0, "lat": 38.901966, "rental_uris": {"ios": "https://dc.lft.to/lastmile_qr_scan", "android": "https://dc.lft.to/lastmile_qr_scan"}, "is_reserved": 0, "fusion_lon": 0.0, "fusion_lat": 0.0, "lon": -76.98844083333333, "name": "3ad20fa9a1b638d284f49e39f9fc9929"}, {"bike_id": "ae86cdfb238949c3756681ccf96cd800", "type": "electric_scooter", "is_disabled": 0, "lat": 38.88151166666667, "rental_uris": {"ios": "https://dc.lft.to/lastmile_qr_scan", "android": "https://dc.lft.to/lastmile_qr_scan"}, "is_reserved": 0, "fusion_lon": 0.0, "fusion_lat": 0.0, "lon": -77.02753583333333, "name": "ae86cdfb238949c3756681ccf96cd800"}, {"bike_id": "d516dfa0650c7ca161833e4fe49ce181", "type": "electric_scooter", "is_disabled": 0, "lat": 38.894103666666666, "rental_uris": {"ios": "https://dc.lft.to/lastmile_qr_scan", "android": "https://dc.lft.to/lastmile_qr_scan"}, "is_reserved": 0, "fusion_lon": 0.0, "fusion_lat": 0.0, "lon": -77.02410183333333, "name": "d516dfa0650c7ca161833e4fe49ce181"}, {"bike_id": "4102002dc71afea2e8096c8aee048e12", "type": "electric_bike", "is_disabled": 0, "lat": 38.87888316666667, "rental_uris": {"ios": "https://dc.lft.to/lastmile_qr_scan", "android": "https://dc.lft.to/lastmile_qr_scan"}, "is_reserved": 0, "fusion_lon": 0.0, "fusion_lat": 0.0, "lon": -77.09616716666666, "name": "4102002dc71afea2e8096c8aee048e12"}, {"bike_id": "3d2ca4224a9d0ddde6f999efd560e09e", "type": "electric_scooter", "is_disabled": 0, "lat": 38.905037, "rental_uris": {"ios": "https://dc.lft.to/lastmile_qr_scan", "android": "https://dc.lft.to/lastmile_qr_scan"}, "is_reserved": 0, "fusion_lon": 0.0, "fusion_lat": 0.0, "lon": -76.99960133333333, "name": "3d2ca4224a9d0ddde6f999efd560e09e"}, {"bike_id": "e6af8cb200058c7442730253dd97a70e", "type": "electric_scooter", "is_disabled": 0, "lat": 38.929395666666665, "rental_uris": {"ios": "https://dc.lft.to/lastmile_qr_scan", "android": "https://dc.lft.to/lastmile_qr_scan"}, "is_reserved": 0, "fusion_lon": 0.0, "fusion_lat": 0.0, "lon": -77.0231455, "name": "e6af8cb200058c7442730253dd97a70e"}, {"bike_id": "f709206580fc2521c8b47fcddfb7ae95", "type": "electric_scooter", "is_disabled": 0, "lat": 38.926855333333336, "rental_uris": {"ios": "https://dc.lft.to/lastmile_qr_scan", "android": "https://dc.lft.to/lastmile_qr_scan"}, "is_reserved": 0, "fusion_lon": 0.0, "fusion_lat": 0.0, "lon": -77.03247533333334, "name": "f709206580fc2521c8b47fcddfb7ae95"}, {"bike_id": "a5957c1127ed5d6cfae269d871a8e6c6", "type": "electric_scooter", "is_disabled": 0, "lat": 38.906034, "rental_uris": {"ios": "https://dc.lft.to/lastmile_qr_scan", "android": "https://dc.lft.to/lastmile_qr_scan"}, "is_reserved": 0, "fusion_lon": 0.0, "fusion_lat": 0.0, "lon": -77.02700216666666, "name": "a5957c1127ed5d6cfae269d871a8e6c6"}, {"bike_id": "02ad1931309c0be33e937164b1dcb3ee", "type": "electric_scooter", "is_disabled": 0, "lat": 38.87653616666667, "rental_uris": {"ios": "https://dc.lft.to/lastmile_qr_scan", "android": "https://dc.lft.to/lastmile_qr_scan"}, "is_reserved": 0, "fusion_lon": 0.0, "fusion_lat": 0.0, "lon": -77.0075925, "name": "02ad1931309c0be33e937164b1dcb3ee"}, {"bike_id": "b0a76df79ef8349300174d3f03e6f2b7", "type": "electric_scooter", "is_disabled": 0, "lat": 38.909499833333335, "rental_uris": {"ios": "https://dc.lft.to/lastmile_qr_scan", "android": "https://dc.lft.to/lastmile_qr_scan"}, "is_reserved": 0, "fusion_lon": 0.0, "fusion_lat": 0.0, "lon": -77.0556605, "name": "b0a76df79ef8349300174d3f03e6f2b7"}, {"bike_id": "3502d29720c1bd70571eb7a166b63ab2", "type": "electric_scooter", "is_disabled": 0, "lat": 38.90596933333333, "rental_uris": {"ios": "https://dc.lft.to/lastmile_qr_scan", "android": "https://dc.lft.to/lastmile_qr_scan"}, "is_reserved": 0, "fusion_lon": 0.0, "fusion_lat": 0.0, "lon": -77.015003, "name": "3502d29720c1bd70571eb7a166b63ab2"}, {"bike_id": "59bd3124fb77ea52c95a030291fbbb81", "type": "electric_scooter", "is_disabled": 0, "lat": 38.922059833333336, "rental_uris": {"ios": "https://dc.lft.to/lastmile_qr_scan", "android": "https://dc.lft.to/lastmile_qr_scan"}, "is_reserved": 0, "fusion_lon": 0.0, "fusion_lat": 0.0, "lon": -77.043119, "name": "59bd3124fb77ea52c95a030291fbbb81"}, {"bike_id": "5cbd891b026897f84905155cec02bb9c", "type": "electric_scooter", "is_disabled": 0, "lat": 38.966971, "rental_uris": {"ios": "https://dc.lft.to/lastmile_qr_scan", "android": "https://dc.lft.to/lastmile_qr_scan"}, "is_reserved": 0, "fusion_lon": 0.0, "fusion_lat": 0.0, "lon": -77.05570233333333, "name": "5cbd891b026897f84905155cec02bb9c"}, {"bike_id": "49a77e94d0bc0e53e62bad9127ed2b5c", "type": "electric_scooter", "is_disabled": 0, "lat": 38.930914, "rental_uris": {"ios": "https://dc.lft.to/lastmile_qr_scan", "android": "https://dc.lft.to/lastmile_qr_scan"}, "is_reserved": 0, "fusion_lon": 0.0, "fusion_lat": 0.0, "lon": -77.03441883333333, "name": "49a77e94d0bc0e53e62bad9127ed2b5c"}, {"bike_id": "033212f2417a5e67aa69c8dfc0a222f8", "type": "electric_scooter", "is_disabled": 0, "lat": 38.912641666666666, "rental_uris": {"ios": "https://dc.lft.to/lastmile_qr_scan", "android": "https://dc.lft.to/lastmile_qr_scan"}, "is_reserved": 0, "fusion_lon": 0.0, "fusion_lat": 0.0, "lon": -77.0470775, "name": "033212f2417a5e67aa69c8dfc0a222f8"}, {"bike_id": "f996a2295d59cea8bfef0ceacb23f478", "type": "electric_scooter", "is_disabled": 0, "lat": 38.89401266666667, "rental_uris": {"ios": "https://dc.lft.to/lastmile_qr_scan", "android": "https://dc.lft.to/lastmile_qr_scan"}, "is_reserved": 0, "fusion_lon": 0.0, "fusion_lat": 0.0, "lon": -77.0212835, "name": "f996a2295d59cea8bfef0ceacb23f478"}, {"bike_id": "e7359ecd14fdab69e69bb28e546b2f75", "type": "electric_scooter", "is_disabled": 0, "lat": 38.9056605, "rental_uris": {"ios": "https://dc.lft.to/lastmile_qr_scan", "android": "https://dc.lft.to/lastmile_qr_scan"}, "is_reserved": 0, "fusion_lon": 0.0, "fusion_lat": 0.0, "lon": -77.0298995, "name": "e7359ecd14fdab69e69bb28e546b2f75"}, {"bike_id": "032cf3019ef62a32152151aba22e72f8", "type": "electric_scooter", "is_disabled": 0, "lat": 38.9003995, "rental_uris": {"ios": "https://dc.lft.to/lastmile_qr_scan", "android": "https://dc.lft.to/lastmile_qr_scan"}, "is_reserved": 0, "fusion_lon": 0.0, "fusion_lat": 0.0, "lon": -77.03523, "name": "032cf3019ef62a32152151aba22e72f8"}, {"bike_id": "07a879968fd556d94222eff83234cba2", "type": "electric_scooter", "is_disabled": 0, "lat": 38.88153783333333, "rental_uris": {"ios": "https://dc.lft.to/lastmile_qr_scan", "android": "https://dc.lft.to/lastmile_qr_scan"},