{"data": {"bikes": [{"name": "2e756d3a87d8dc2a820e61a5394cee77", "fusion_lat": 0.0, "type": "electric_scooter", "lat": 38.88588883333333, "is_reserved": 0, "is_disabled": 0, "fusion_lon": 0.0, "bike_id": "2e756d3a87d8dc2a820e61a5394cee77", "lon": -77.0220745, "rental_uris": {"ios": "https://dc.lft.to/lastmile_qr_scan", "android": "https://dc.lft.to/lastmile_qr_scan"}}, {"name": "32e36c1b6546dfda9ca13ac02e92123d", "fusion_lat": 0.0, "type": "electric_bike", "lat": 38.883454, "is_reserved": 0, "is_disabled": 0, "fusion_lon": 0.0, "bike_id": "32e36c1b6546dfda9ca13ac02e92123d", "lon": -77.18295416666666, "rental_uris": {"ios": "https://dc.lft.to/lastmile_qr_scan", "android": "https://dc.lft.to/lastmile_qr_scan"}}, {"name": "959e9be101ddfe76802c39847fc34fb7", "fusion_lat": 0.0, "type": "electric_scooter", "lat": 38.90538983333333, "is_reserved": 0, "is_disabled": 0, "fusion_lon": 0.0, "bike_id": "959e9be101ddfe76802c39847fc34fb7", "lon": -77.06275733333334, "rental_uris": {"ios": "https://dc.lft.to/lastmile_qr_scan", "android": "https://dc.lft.to/lastmile_qr_scan"}}, {"name": "baddd037b601bbc16e0a7262f3b1dc49", "fusion_lat": 0.0, "type": "electric_scooter", "lat": 38.9002745, "is_reserved": 0, "is_disabled": 0, "fusion_lon": 0.0, "bike_id": "baddd037b601bbc16e0a7262f3b1dc49", "lon": -76.99858933333333, "rental_uris": {"ios": "https://dc.lft.to/lastmile_qr_scan", "android": "https://dc.lft.to/lastmile_qr_scan"}}, {"name": "87f26ff2cc2bf24cfda6e774523de74f", "fusion_lat": 0.0, "type": "electric_scooter", "lat": 38.9104375, "is_reserved": 0, "is_disabled": 0, "fusion_lon": 0.0, "bike_id": "87f26ff2cc2bf24cfda6e774523de74f", "lon": -77.04373483333333, "rental_uris": {"ios": "https://dc.lft.to/lastmile_qr_scan", "android": "https://dc.lft.to/lastmile_qr_scan"}}, {"name": "9968db1c8e26bd35ccd2cea13080d4e8", "fusion_lat": 0.0, "type": "electric_scooter", "lat": 38.898497, "is_reserved": 0, "is_disabled": 0, "fusion_lon": 0.0, "bike_id": "9968db1c8e26bd35ccd2cea13080d4e8", "lon": -77.01612533333333, "rental_uris": {"ios": "https://dc.lft.to/lastmile_qr_scan", "android": "https://dc.lft.to/lastmile_qr_scan"}}, {"name": "c5a9c60bafaf6e8b3b91e8fe129042c9", "fusion_lat": 0.0, "type": "electric_scooter", "lat": 38.942827333333334, "is_reserved": 0, "is_disabled": 0, "fusion_lon": 0.0, "bike_id": "c5a9c60bafaf6e8b3b91e8fe129042c9", "lon": -77.0250445, "rental_uris": {"ios": "https://dc.lft.to/lastmile_qr_scan", "android": "https://dc.lft.to/lastmile_qr_scan"}}, {"name": "0e2219acb28a5405a16207465755b3cd", "fusion_lat": 0.0, "type": "electric_scooter", "lat": 38.9003125, "is_reserved": 0, "is_disabled": 0, "fusion_lon": 0.0, "bike_id": "0e2219acb28a5405a16207465755b3cd", "lon": -76.9983525, "rental_uris": {"ios": "https://dc.lft.to/lastmile_qr_scan", "android": "https://dc.lft.to/lastmile_qr_scan"}}, {"name": "862f7ae3aad0288144f5dacf48a6815a", "fusion_lat": 0.0, "type": "electric_scooter", "lat": 38.92729116666667, "is_reserved": 0, "is_disabled": 0, "fusion_lon": 0.0, "bike_id": "862f7ae3aad0288144f5dacf48a6815a", "lon": -77.0714815, "rental_uris": {"ios": "https://dc.lft.to/lastmile_qr_scan", "android": "https://dc.lft.to/lastmile_qr_scan"}}, {"name": "d3a81427e7f61f006ae28330993c2c04", "fusion_lat": 0.0, "type": "electric_scooter", "lat": 38.92904733333334, "is_reserved": 0, "is_disabled": 0, "fusion_lon": 0.0, "bike_id": "d3a81427e7f61f006ae28330993c2c04", "lon": -77.0249645, "rental_uris": {"ios": "https://dc.lft.to/lastmile_qr_scan", "android": "https://dc.lft.to/lastmile_qr_scan"}}, {"name": "1320a86c590f5f3108d13f0d8346bfd0", "fusion_lat": 0.0, "type": "electric_scooter", "lat": 38.89700283333333, "is_reserved": 0, "is_disabled": 0, "fusion_lon": 0.0, "bike_id": "1320a86c590f5f3108d13f0d8346bfd0", "lon": -77.021788, "rental_uris": {"ios": "https://dc.lft.to/lastmile_qr_scan", "android": "https://dc.lft.to/lastmile_qr_scan"}}, {"name": "5ae5da81a6d3cf10bd827de879cb015f", "fusion_lat": 0.0, "type": "electric_scooter", "lat": 38.92317333333333, "is_reserved": 0, "is_disabled": 0, "fusion_lon": 0.0, "bike_id": "5ae5da81a6d3cf10bd827de879cb015f", "lon": -77.041137, "rental_uris": {"ios": "https://dc.lft.to/lastmile_qr_scan", "android": "https://dc.lft.to/lastmile_qr_scan"}}, {"name": "50043d3fb8d5326bbd6b91774b2597b2", "fusion_lat": 0.0, "type": "electric_scooter", "lat": 38.948364, "is_reserved": 0, "is_disabled": 0, "fusion_lon": 0.0, "bike_id": "50043d3fb8d5326bbd6b91774b2597b2", "lon": -77.02553516666667, "rental_uris": {"ios": "https://dc.lft.to/lastmile_qr_scan", "android": "https://dc.lft.to/lastmile_qr_scan"}}, {"name": "eeb346b5e2d2aafe628a14c35c704383", "fusion_lat": 0.0, "type": "electric_scooter", "lat": 38.941842666666666, "is_reserved": 0, "is_disabled": 0, "fusion_lon": 0.0, "bike_id": "eeb346b5e2d2aafe628a14c35c704383", "lon": -77.0248955, "rental_uris": {"ios": "https://dc.lft.to/lastmile_qr_scan", "android": "https://dc.lft.to/lastmile_qr_scan"}}, {"name": "5e021a3576f03632ea0bc508f2875e15", "fusion_lat": 0.0, "type": "electric_scooter", "lat": 38.92382716666667, "is_reserved": 0, "is_disabled": 0, "fusion_lon": 0.0, "bike_id": "5e021a3576f03632ea0bc508f2875e15", "lon": -77.01915866666667, "rental_uris": {"ios": "https://dc.lft.to/lastmile_qr_scan", "android": "https://dc.lft.to/lastmile_qr_scan"}}, {"name": "da95127510ebeccacdd376f444b0f824", "fusion_lat": 0.0, "type": "electric_scooter", "lat": 38.87754433333333, "is_reserved": 0, "is_disabled": 0, "fusion_lon": 0.0, "bike_id": "da95127510ebeccacdd376f444b0f824", "lon": -76.97241216666667, "rental_uris": {"ios": "https://dc.lft.to/lastmile_qr_scan", "android": "https://dc.lft.to/lastmile_qr_scan"}}, {"name": "5d5a321af2e7dbd3dd34673c2e5f8f12", "fusion_lat": 0.0, "type": "electric_bike", "lat": 38.870762666666664, "is_reserved": 0, "is_disabled": 0, "fusion_lon": 0.0, "bike_id": "5d5a321af2e7dbd3dd34673c2e5f8f12", "lon": -77.11062766666667, "rental_uris": {"ios": "https://dc.lft.to/lastmile_qr_scan", "android": "https://dc.lft.to/lastmile_qr_scan"}}, {"name": "e9491f32e2602a5e8e4ad6f23874deb9", "fusion_lat": 0.0, "type": "electric_scooter", "lat": 38.86210716666667, "is_reserved": 0, "is_disabled": 0, "fusion_lon": 0.0, "bike_id": "e9491f32e2602a5e8e4ad6f23874deb9", "lon": -76.99469966666666, "rental_uris": {"ios": "https://dc.lft.to/lastmile_qr_scan", "android": "https://dc.lft.to/lastmile_qr_scan"}}, {"name": "29af27f336b7f521630e7b2631044968", "fusion_lat": 0.0, "type": "electric_scooter", "lat": 38.907363333333336, "is_reserved": 0, "is_disabled": 0, "fusion_lon": 0.0, "bike_id": "29af27f336b7f521630e7b2631044968", "lon": -77.03206283333333, "rental_uris": {"ios": "https://dc.lft.to/lastmile_qr_scan", "android": "https://dc.lft.to/lastmile_qr_scan"}}, {"name": "059902aec913b234b6a94507fc43a4a7", "fusion_lat": 0.0, "type": "electric_scooter", "lat": 38.8783845, "is_reserved": 0, "is_disabled": 0, "fusion_lon": 0.0, "bike_id": "059902aec913b234b6a94507fc43a4a7", "lon": -76.986105, "rental_uris": {"ios": "https://dc.lft.to/lastmile_qr_scan", "android": "https://dc.lft.to/lastmile_qr_scan"}}, {"name": "48006a91300dff88b8237b4d5b56db21", "fusion_lat": 0.0, "type": "electric_scooter", "lat": 38.91019816666667, "is_reserved": 0, "is_disabled": 0, "fusion_lon": 0.0, "bike_id": "48006a91300dff88b8237b4d5b56db21", "lon": -76.9967805, "rental_uris": {"ios": "https://dc.lft.to/lastmile_qr_scan", "android": "https://dc.lft.to/lastmile_qr_scan"}}, {"name": "3756b00317f0590a7de8e99137bb100e", "fusion_lat": 0.0, "type": "electric_scooter", "lat": 38.90160366666667, "is_reserved": 0, "is_disabled": 0, "fusion_lon": 0.0, "bike_id": "3756b00317f0590a7de8e99137bb100e", "lon": -77.04680416666666, "rental_uris": {"ios": "https://dc.lft.to/lastmile_qr_scan", "android": "https://dc.lft.to/lastmile_qr_scan"}}, {"name": "c9ad26841454eecdab4633d58affd2d6", "fusion_lat": 0.0, "type": "electric_scooter", "lat": 38.939128, "is_reserved": 0, "is_disabled": 0, "fusion_lon": 0.0, "bike_id": "c9ad26841454eecdab4633d58affd2d6", "lon": -77.06043016666666, "rental_uris": {"ios": "https://dc.lft.to/lastmile_qr_scan", "android": "https://dc.lft.to/lastmile_qr_scan"}}, {"name": "56cea46c45a6f38d3254019088bf98a2", "fusion_lat": 0.0, "type": "electric_scooter", "lat": 38.883369333333334, "is_reserved": 0, "is_disabled": 0, "fusion_lon": 0.0, "bike_id": "56cea46c45a6f38d3254019088bf98a2", "lon": -77.01540766666666, "rental_uris": {"ios": "https://dc.lft.to/lastmile_qr_scan", "android": "https://dc.lft.to/lastmile_qr_scan"}}, {"name": "ba59266e4f5781e4eca60b8c25e5b9a9", "fusion_lat": 0.0, "type": "electric_scooter", "lat": 38.9056775, "is_reserved": 0, "is_disabled": 0, "fusion_lon": 0.0, "bike_id": "ba59266e4f5781e4eca60b8c25e5b9a9", "lon": -77.005926, "rental_uris": {"ios": "https://dc.lft.to/lastmile_qr_scan", "android": "https://dc.lft.to/lastmile_qr_scan"}}, {"name": "95f6bac6e58025f3e12d0971f1339a49", "fusion_lat": 0.0, "type": "electric_scooter", "lat": 38.92735316666667, "is_reserved": 0, "is_disabled": 0, "fusion_lon": 0.0, "bike_id": "95f6bac6e58025f3e12d0971f1339a49", "lon": -77.024896, "rental_uris": {"ios": "https://dc.lft.to/lastmile_qr_scan", "android": "https://dc.lft.to/lastmile_qr_scan"}}, {"name": "57a86df46208707d059d925fb075f91c", "fusion_lat": 0.0, "type": "electric_scooter", "lat": 38.928745666666664, "is_reserved": 0, "is_disabled": 0, "fusion_lon": 0.0, "bike_id": "57a86df46208707d059d925fb075f91c", "lon": -77.02708166666666, "rental_uris": {"ios": "https://dc.lft.to/lastmile_qr_scan", "android": "https://dc.lft.to/lastmile_qr_scan"}}, {"name": "50b3c84ce1815af173c2a5afb088963a", "fusion_lat": 0.0, "type": "electric_scooter", "lat": 38.911651166666665, "is_reserved": 0, "is_disabled": 0, "fusion_lon": 0.0, "bike_id": "50b3c84ce1815af173c2a5afb088963a", "lon": -77.03186233333334, "rental_uris": {"ios": "https://dc.lft.to/lastmile_qr_scan", "android": "https://dc.lft.to/lastmile_qr_scan"}}, {"name": "7624f941c3a2fd69d4a772843d83979d", "fusion_lat": 0.0, "type": "electric_scooter", "lat": 38.90287516666667, "is_reserved": 0, "is_disabled": 0, "fusion_lon": 0.0, "bike_id": "7624f941c3a2fd69d4a772843d83979d", "lon": -77.04003333333333, "rental_uris": {"ios": "https://dc.lft.to/lastmile_qr_scan", "android": "https://dc.lft.to/lastmile_qr_scan"}}, {"name": "f453c5babba3374462b19e7a4f9cf790", "fusion_lat": 0.0, "type": "electric_scooter", "lat": 38.899644, "is_reserved": 0, "is_disabled": 0, "fusion_lon": 0.0, "bike_id": "f453c5babba3374462b19e7a4f9cf790", "lon": -77.05296966666667, "rental_uris": {"ios": "https://dc.lft.to/lastmile_qr_scan", "android": "https://dc.lft.to/lastmile_qr_scan"}}, {"name": "5bbee12914c7bd866b3aff3fabd6784f", "fusion_lat": 0.0, "type": "electric_scooter", "lat": 38.927446, "is_reserved": 0, "is_disabled": 0, "fusion_lon": 0.0, "bike_id": "5bbee12914c7bd866b3aff3fabd6784f", "lon": -77.02249983333333, "rental_uris": {"ios": "https://dc.lft.to/lastmile_qr_scan", "android": "https://dc.lft.to/lastmile_qr_scan"}}, {"name": "9d43f144cdf920619aef2bd9a4947a65", "fusion_lat": 0.0, "type": "electric_scooter", "lat": 38.917249, "is_reserved": 0, "is_disabled": 0, "fusion_lon": 0.0, "bike_id": "9d43f144cdf920619aef2bd9a4947a65", "lon": -77.00819316666667, "rental_uris": {"ios": "https://dc.lft.to/lastmile_qr_scan", "android": "https://dc.lft.to/lastmile_qr_scan"}}, {"name": "a743866ed0fe2e3626955a4e24263111", "fusion_lat": 0.0, "type": "electric_scooter", "lat": 38.92065733333333, "is_reserved": 0, "is_disabled": 0, "fusion_lon": 0.0, "bike_id": "a743866ed0fe2e3626955a4e24263111", "lon": -76.978014, "rental_uris": {"ios": "https://dc.lft.to/lastmile_qr_scan", "android": "https://dc.lft.to/lastmile_qr_scan"}}, {"name": "3a3c2219e97b1ba76a86bdbdb8d9bb00", "fusion_lat": 0.0, "type": "electric_scooter", "lat": 38.9077745, "is_reserved": 0, "is_disabled": 0, "fusion_lon": 0.0, "bike_id": "3a3c2219e97b1ba76a86bdbdb8d9bb00", "lon": -77.0385175, "rental_uris": {"ios": "https://dc.lft.to/lastmile_qr_scan", "android": "https://dc.lft.to/lastmile_qr_scan"}}, {"name": "1f051fb1086f0aaec58e3831dabc9dcb", "fusion_lat": 0.0, "type": "electric_scooter", "lat": 38.919425, "is_reserved": 0, "is_disabled": 0, "fusion_lon": 0.0, "bike_id": "1f051fb1086f0aaec58e3831dabc9dcb", "lon": -77.024372, "rental_uris": {"ios": "https://dc.lft.to/lastmile_qr_scan", "android": "https://dc.lft.to/lastmile_qr_scan"}}, {"name": "c36c9a88507422e89be2eef113ecfe14", "fusion_lat": 0.0, "type": "electric_scooter", "lat": 38.9091945, "is_reserved": 0, "is_disabled": 0, "fusion_lon": 0.0, "bike_id": "c36c9a88507422e89be2eef113ecfe14", "lon": -77.04161016666667, "rental_uris": {"ios": "https://dc.lft.to/lastmile_qr_scan", "android": "https://dc.lft.to/lastmile_qr_scan"}}, {"name": "3a9bc450d136030ea414d3e611612a55", "fusion_lat": 0.0, "type": "electric_scooter", "lat": 38.92516533333333, "is_reserved": 0, "is_disabled": 0, "fusion_lon": 0.0, "bike_id": "3a9bc450d136030ea414d3e611612a55", "lon": -77.02557866666666, "rental_uris": {"ios": "https://dc.lft.to/lastmile_qr_scan", "android": "https://dc.lft.to/lastmile_qr_scan"}}, {"name": "54157d933016c5b9010c5e25b410bca1", "fusion_lat": 0.0, "type": "electric_scooter", "lat": 38.911001166666665, "is_reserved": 0, "is_disabled": 0, "fusion_lon": 0.0, "bike_id": "54157d933016c5b9010c5e25b410bca1", "lon": -77.02971133333334, "rental_uris": {"ios": "https://dc.lft.to/lastmile_qr_scan", "android": "https://dc.lft.to/lastmile_qr_scan"}}, {"name": "7fbd94a78fe5154c30416cfab2db8382", "fusion_lat": 0.0, "type": "electric_scooter", "lat": 38.88336183333333, "is_reserved": 0, "is_disabled": 0, "fusion_lon": 0.0, "bike_id": "7fbd94a78fe5154c30416cfab2db8382", "lon": -77.015487, "rental_uris": {"ios": "https://dc.lft.to/lastmile_qr_scan", "android": "https://dc.lft.to/lastmile_qr_scan"}}, {"name": "78755dddaeed3b6d265fc1c7902c01b8", "fusion_lat": 0.0, "type": "electric_bike", "lat": 38.964399666666665, "is_reserved": 0, "is_disabled": 0, "fusion_lon": 0.0, "bike_id": "78755dddaeed3b6d265fc1c7902c01b8", "lon": -77.03162333333333, "rental_uris": {"ios": "https://dc.lft.to/lastmile_qr_scan", "android": "https://dc.lft.to/lastmile_qr_scan"}}, {"name": "43a411f2dad7d386500776874b72e112", "fusion_lat": 0.0, "type": "electric_scooter", "lat": 38.86535816666667, "is_reserved": 0, "is_disabled": 0, "fusion_lon": 0.0, "bike_id": "43a411f2dad7d386500776874b72e112", "lon": -76.987102, "rental_uris": {"ios": "https://dc.lft.to/lastmile_qr_scan", "android": "https://dc.lft.to/lastmile_qr_scan"}}, {"name": "7f61d829ede5183f8850ea3fad741afc", "fusion_lat": 0.0, "type": "electric_scooter", "lat": 38.927561, "is_reserved": 0, "is_disabled": 0, "fusion_lon": 0.0, "bike_id": "7f61d829ede5183f8850ea3fad741afc", "lon": -77.03268716666666, "rental_uris": {"ios": "https://dc.lft.to/lastmile_qr_scan", "android": "https://dc.lft.to/lastmile_qr_scan"}}, {"name": "124ff9c2799e4f3ebefd990b4d57369e", "fusion_lat": 0.0, "type": "electric_scooter", "lat": 38.92627566666667, "is_reserved": 0, "is_disabled": 0, "fusion_lon": 0.0, "bike_id": "124ff9c2799e4f3ebefd990b4d57369e", "lon": -77.03518983333333, "rental_uris": {"ios": "https://dc.lft.to/lastmile_qr_scan", "android": "https://dc.lft.to/lastmile_qr_scan"}}, {"name": "24b5f02e9a48f279861e174e99204f5c", "fusion_lat": 0.0, "type": "electric_scooter", "lat": 38.90475683333333, "is_reserved": 0, "is_disabled": 0, "fusion_lon": 0.0, "bike_id": "24b5f02e9a48f279861e174e99204f5c", "lon": -77.02701666666667, "rental_uris": {"ios": "https://dc.lft.to/lastmile_qr_scan", "android": "https://dc.lft.to/lastmile_qr_scan"}}, {"name": "766ca9a0619496d4ee6c9c95c5e1e74c", "fusion_lat": 0.0, "type": "electric_scooter", "lat": 38.908643833333336, "is_reserved": 0, "is_disabled": 0, "fusion_lon": 0.0, "bike_id": "766ca9a0619496d4ee6c9c95c5e1e74c", "lon": -77.02713983333334, "rental_uris": {"ios": "https://dc.lft.to/lastmile_qr_scan", "android": "https://dc.lft.to/lastmile_qr_scan"}}, {"name": "8e1e8420b41a727ce38bda41e094ea64", "fusion_lat": 0.0, "type": "electric_scooter", "lat": 38.916984, "is_reserved": 0, "is_disabled": 0, "fusion_lon": 0.0, "bike_id": "8e1e8420b41a727ce38bda41e094ea64", "lon": -77.0389465, "rental_uris": {"ios": "https://dc.lft.to/lastmile_qr_scan", "android": "https://dc.lft.to/lastmile_qr_scan"}}, {"name": "de1d670d68ba7d4efe958762e379c490", "fusion_lat": 0.0, "type": "electric_scooter", "lat": 38.902563666666666, "is_reserved": 0, "is_disabled": 0, "fusion_lon": 0.0, "bike_id": "de1d670d68ba7d4efe958762e379c490", "lon": -77.03847133333333, "rental_uris": {"ios": "https://dc.lft.to/lastmile_qr_scan", "android": "https://dc.lft.to/lastmile_qr_scan"}}, {"name": "d3342d79e99518388f14abe9e92e0b58", "fusion_lat": 0.0, "type": "electric_scooter", "lat": 38.905589666666664, "is_reserved": 0, "is_disabled": 0, "fusion_lon": 0.0, "bike_id": "d3342d79e99518388f14abe9e92e0b58", "lon": -77.040834, "rental_uris": {"ios": "https://dc.lft.to/lastmile_qr_scan", "android": "https://dc.lft.to/lastmile_qr_scan"}}, {"name": "a7a465d301f57ea71381cef394673a5b", "fusion_lat": 0.0, "type": "electric_scooter", "lat": 38.899869833333334, "is_reserved": 0, "is_disabled": 0, "fusion_lon": 0.0, "bike_id": "a7a465d301f57ea71381cef394673a5b", "lon": -77.0270155, "rental_uris": {"ios": "https://dc.lft.to/lastmile_qr_scan", "android": "https://dc.lft.to/lastmile_qr_scan"}}, {"name": "2ce51d2231e6e6781b2c97fbcbe46bbc", "fusion_lat": 0.0, "type": "electric_scooter", "lat": 38.921206, "is_reserved": 0, "is_disabled": 0, "fusion_lon": 0.0, "bike_id": "2ce51d2231e6e6781b2c97fbcbe46bbc", "lon": -77.0365975, "rental_uris": {"ios": "https://dc.lft.to/lastmile_qr_scan", "android": "https://dc.lft.to/lastmile_qr_scan"}}, {"name": "6fb5673fcf5af4aaeef6a2d174f21869", "fusion_lat": 0.0, "type": "electric_bike", "lat": 38.905314, "is_reserved": 0, "is_disabled": 0, "fusion_lon": 0.0, "bike_id": "6fb5673fcf5af4aaeef6a2d174f21869", "lon": -76.99802333333334, "rental_uris": {"ios": "https://dc.lft.to/lastmile_qr_scan", "android": "https://dc.lft.to/lastmile_qr_scan"}}, {"name": "063e9a9508e657b93c68f861abbfdd6b", "fusion_lat": 0.0, "type": "electric_bike", "lat": 38.990905833333336, "is_reserved": 0, "is_disabled": 0, "fusion_lon": 0.0, "bike_id": "063e9a9508e657b93c68f861abbfdd6b", "lon": -76.87496383333334, "rental_uris": {"ios": "https://dc.lft.to/lastmile_qr_scan", "android": "https://dc.lft.to/lastmile_qr_scan"}}, {"name": "f805efa05b3bdc80f9049d73fc3a5606", "fusion_lat": 0.0, "type": "electric_scooter", "lat": 38.9092375, "is_reserved": 0, "is_disabled": 0, "fusion_lon": 0.0, "bike_id": "f805efa05b3bdc80f9049d73fc3a5606", "lon": -77.0415945, "rental_uris": {"ios": "https://dc.lft.to/lastmile_qr_scan", "android": "https://dc.lft.to/lastmile_qr_scan"}}, {"name": "eb4634ccf50049df608c34bfd8d90a10", "fusion_lat": 0.0, "type": "electric_scooter", "lat": 38.90035683333333, "is_reserved": 0, "is_disabled": 0, "fusion_lon": 0.0, "bike_id": "eb4634ccf50049df608c34bfd8d90a10", "lon": -76.98839466666666, "rental_uris": {"ios": "https://dc.lft.to/lastmile_qr_scan", "android": "https://dc.lft.to/lastmile_qr_scan"}}, {"name": "6b716e5774ee61a4f1aa01a7b24950a5", "fusion_lat": 0.0, "type": "electric_scooter", "lat": 38.932528833333336, "is_reserved": 0, "is_disabled": 0, "fusion_lon": 0.0, "bike_id": "6b716e5774ee61a4f1aa01a7b24950a5", "lon": -77.04004983333333, "rental_uris": {"ios": "https://dc.lft.to/lastmile_qr_scan", "android": "https://dc.lft.to/lastmile_qr_scan"}}, {"name": "a2163ce38b0bbac7fe1af9cdcdb7c69e", "fusion_lat": 0.0, "type": "electric_scooter", "lat": 38.916563333333336, "is_reserved": 0, "is_disabled": 0, "fusion_lon": 0.0, "bike_id": "a2163ce38b0bbac7fe1af9cdcdb7c69e", "lon": -77.02573216666667, "rental_uris": {"ios": "https://dc.lft.to/lastmile_qr_scan", "android": "https://dc.lft.to/lastmile_qr_scan"}}, {"name": "25c02bed42fa71d409b8c54f747437a7", "fusion_lat": 0.0, "type": "electric_scooter", "lat": 38.911189666666665, "is_reserved": 0, "is_disabled": 0, "fusion_lon": 0.0, "bike_id": "25c02bed42fa71d409b8c54f747437a7", "lon": -77.03295683333333, "rental_uris": {"ios": "https://dc.lft.to/lastmile_qr_scan", "android": "https://dc.lft.to/lastmile_qr_scan"}}, {"name": "579880dc467ba9f93e8638f6990f997f", "fusion_lat": 0.0, "type": "electric_scooter", "lat": 38.91728233333333, "is_reserved": 0, "is_disabled": 0, "fusion_lon": 0.0, "bike_id": "579880dc467ba9f93e8638f6990f997f", "lon": -77.038413, "rental_uris": {"ios": "https://dc.lft.to/lastmile_qr_scan", "android": "https://dc.lft.to/lastmile_qr_scan"}}, {"name": "d7e471f8a44b4cac7e3c7048522d1adb", "fusion_lat": 0.0, "type": "electric_scooter", "lat": 38.900182, "is_reserved": 0, "is_disabled": 0, "fusion_lon": 0.0, "bike_id": "d7e471f8a44b4cac7e3c7048522d1adb", "lon": -77.0333195, "rental_uris": {"ios": "https://dc.lft.to/lastmile_qr_scan", "android": "https://dc.lft.to/lastmile_qr_scan"}}, {"name": "dafa38572dbfbed390430b7b9174f70a", "fusion_lat": 0.0, "type": "electric_scooter", "lat": 38.91694616666667, "is_reserved": 0, "is_disabled": 0, "fusion_lon": 0.0, "bike_id": "dafa38572dbfbed390430b7b9174f70a", "lon": -77.02439316666667, "rental_uris": {"ios": "https://dc.lft.to/lastmile_qr_scan", "android": "https://dc.lft.to/lastmile_qr_scan"}}, {"name": "f0d21956c3fcff1f61935e1a293611f4", "fusion_lat": 0.0, "type": "electric_scooter", "lat": 38.9061275, "is_reserved": 0, "is_disabled": 0, "fusion_lon": 0.0, "bike_id": "f0d21956c3fcff1f61935e1a293611f4", "lon": -77.046684, "rental_uris": {"ios": "https://dc.lft.to/lastmile_qr_scan", "android": "https://dc.lft.to/lastmile_qr_scan"}}, {"name": "50520c234a2a21bc9100848faa38cdf1", "fusion_lat": 0.0, "type": "electric_scooter", "lat": 38.866622, "is_reserved": 0, "is_disabled": 0, "fusion_lon": 0.0, "bike_id": "50520c234a2a21bc9100848faa38cdf1", "lon": -76.98884066666666, "rental_uris": {"ios": "https://dc.lft.to/lastmile_qr_scan", "android": "https://dc.lft.to/lastmile_qr_scan"}}, {"name": "e643fc7f9c018863ca28c000ac7f5609", "fusion_lat": 0.0, "type": "electric_scooter", "lat": 38.924795333333336, "is_reserved": 0, "is_disabled": 0, "fusion_lon": 0.0, "bike_id": "e643fc7f9c018863ca28c000ac7f5609", "lon": -77.0289505, "rental_uris": {"ios": "https://dc.lft.to/lastmile_qr_scan", "android": "https://dc.lft.to/lastmile_qr_scan"}}, {"name": "2a9ee6d07d55d8caa8a2949798793a6c", "fusion_lat": 0.0, "type": "electric_scooter", "lat": 38.886019833333336, "is_reserved": 0, "is_disabled": 0, "fusion_lon": 0.0, "bike_id": "2a9ee6d07d55d8caa8a2949798793a6c", "lon": -77.01983516666667, "rental_uris": {"ios": "https://dc.lft.to/lastmile_qr_scan", "android": "https://dc.lft.to/lastmile_qr_scan"}}, {"name": "21b4be0f00914f750b7ba7d514b545ad", "fusion_lat": 0.0, "type": "electric_scooter", "lat": 38.91133383333333, "is_reserved": 0, "is_disabled": 0, "fusion_lon": 0.0, "bike_id": "21b4be0f00914f750b7ba7d514b545ad", "lon": -77.02188033333333, "rental_uris": {"ios": "https://dc.lft.to/lastmile_qr_scan", "android": "https://dc.lft.to/lastmile_qr_scan"}}, {"name": "7ebe58895a38bc2543388fcef8b19fea", "fusion_lat": 0.0, "type": "electric_scooter", "lat": 38.920633, "is_reserved": 0, "is_disabled": 0, "fusion_lon": 0.0, "bike_id": "7ebe58895a38bc2543388fcef8b19fea", "lon": -77.04257166666666, "rental_uris": {"ios": "https://dc.lft.to/lastmile_qr_scan", "android": "https://dc.lft.to/lastmile_qr_scan"}}, {"name": "2a66d3e9987e9619e2c7cd3251b90353", "fusion_lat": 0.0, "type": "electric_scooter", "lat": 38.917065, "is_reserved": 0, "is_disabled": 0, "fusion_lon": 0.0, "bike_id": "2a66d3e9987e9619e2c7cd3251b90353", "lon": -77.03352683333334, "rental_uris": {"ios": "https://dc.lft.to/lastmile_qr_scan", "android": "https://dc.lft.to/lastmile_qr_scan"}}, {"name": "a9ddab4338044324edf466793902a146", "fusion_lat": 0.0, "type": "electric_bike", "lat": 38.95688466666667, "is_reserved": 0, "is_disabled": 0, "fusion_lon": 0.0, "bike_id": "a9ddab4338044324edf466793902a146", "lon": -77.02224916666667, "rental_uris": {"ios": "https://dc.lft.to/lastmile_qr_scan", "android": "https://dc.lft.to/lastmile_qr_scan"}}, {"name": "dcfe1cfc1875d95fc9d2c8609a93435d", "fusion_lat": 0.0, "type": "electric_scooter", "lat": 38.910123, "is_reserved": 0, "is_disabled": 0, "fusion_lon": 0.0, "bike_id": "dcfe1cfc1875d95fc9d2c8609a93435d", "lon": -76.99390816666667, "rental_uris": {"ios": "https://dc.lft.to/lastmile_qr_scan", "android": "https://dc.lft.to/lastmile_qr_scan"}}, {"name": "3394c000084fa27b77ba40cccac856d4", "fusion_lat": 0.0, "type": "electric_scooter", "lat": 38.905173833333336, "is_reserved": 0, "is_disabled": 0, "fusion_lon": 0.0, "bike_id": "3394c000084fa27b77ba40cccac856d4", "lon": -77.06628033333334, "rental_uris": {"ios": "https://dc.lft.to/lastmile_qr_scan", "android": "https://dc.lft.to/lastmile_qr_scan"}}, {"name": "b8ec237b9398c3b814855a92a216175b", "fusion_lat": 0.0, "type": "electric_bike", "lat": 38.8747925, "is_reserved": 0, "is_disabled": 0, "fusion_lon": 0.0, "bike_id": "b8ec237b9398c3b814855a92a216175b", "lon": -76.96529266666667, "rental_uris": {"ios": "https://dc.lft.to/lastmile_qr_scan", "android": "https://dc.lft.to/lastmile_qr_scan"}}, {"name": "6bb0fad7471abb8f4b9e598a5d7e730b", "fusion_lat": 0.0, "type": "electric_scooter", "lat": 38.896368833333334, "is_reserved": 0, "is_disabled": 0, "fusion_lon": 0.0, "bike_id": "6bb0fad7471abb8f4b9e598a5d7e730b", "lon": -77.01027883333333, "rental_uris": {"ios": "https://dc.lft.to/lastmile_qr_scan", "android": "https://dc.lft.to/lastmile_qr_scan"}}, {"name": "b608c2307c434d704a1e510404a2289b", "fusion_lat": 0.0, "type": "electric_bike", "lat": 38.9427345, "is_reserved": 0, "is_disabled": 0, "fusion_lon": 0.0, "bike_id": "b608c2307c434d704a1e510404a2289b", "lon": -76.98073783333334, "rental_uris": {"ios": "https://dc.lft.to/lastmile_qr_scan", "android": "https://dc.lft.to/lastmile_qr_scan"}}, {"name": "d7234f47019eb3d228583b5cb3bba238", "fusion_lat": 0.0, "type": "electric_scooter", "lat": 38.91254033333333, "is_reserved": 0, "is_disabled": 0, "fusion_lon": 0.0, "bike_id": "d7234f47019eb3d228583b5cb3bba238", "lon": -77.03442716666666, "rental_uris": {"ios": "https://dc.lft.to/lastmile_qr_scan", "android": "https://dc.lft.to/lastmile_qr_scan"}}, {"name": "493743a13c79d9e48caef8ef71acfe92", "fusion_lat": 0.0, "type": "electric_scooter", "lat": 38.900089, "is_reserved": 0, "is_disabled": 0, "fusion_lon": 0.0, "bike_id": "493743a13c79d9e48caef8ef71acfe92", "lon": -77.01117533333333, "rental_uris": {"ios": "https://dc.lft.to/lastmile_qr_scan", "android": "https://dc.lft.to/lastmile_qr_scan"}}, {"name": "24052939a9774f7d4941c5d9cb941b39", "fusion_lat": 0.0, "type": "electric_scooter", "lat": 38.93881433333333, "is_reserved": 0, "is_disabled": 0, "fusion_lon": 0.0, "bike_id": "24052939a9774f7d4941c5d9cb941b39", "lon": -77.02466083333333, "rental_uris": {"ios": "https://dc.lft.to/lastmile_qr_scan", "android": "https://dc.lft.to/lastmile_qr_scan"}}, {"name": "dcdec09e4de99278c5895c8e7511a021", "fusion_lat": 0.0, "type": "electric_scooter", "lat": 38.89529916666667, "is_reserved": 0, "is_disabled": 0, "fusion_lon": 0.0, "bike_id": "dcdec09e4de99278c5895c8e7511a021", "lon": -77.04291033333334, "rental_uris": {"ios": "https://dc.lft.to/lastmile_qr_scan", "android": "https://dc.lft.to/lastmile_qr_scan"}}, {"name": "e3a297b606fbe695bd1bbf04c6d72810", "fusion_lat": 0.0, "type": "electric_scooter", "lat": 38.907377333333336, "is_reserved": 0, "is_disabled": 0, "fusion_lon": 0.0, "bike_id": "e3a297b606fbe695bd1bbf04c6d72810", "lon": -77.03192583333333, "rental_uris": {"ios": "https://dc.lft.to/lastmile_qr_scan", "android": "https://dc.lft.to/lastmile_qr_scan"}}, {"name": "04fbf12a32c001c53bb564590496421e", "fusion_lat": 0.0, "type": "electric_bike", "lat": 38.90684316666667, "is_reserved": 0, "is_disabled": 0, "fusion_lon": 0.0, "bike_id": "04fbf12a32c001c53bb564590496421e", "lon": -76.9518955, "rental_uris": {"ios": "https://dc.lft.to/lastmile_qr_scan", "android": "https://dc.lft.to/lastmile_qr_scan"}}, {"name": "b26cf82828435cea99b31551dac442ba", "fusion_lat": 0.0, "type": "electric_scooter", "lat": 38.897285833333335, "is_reserved": 0, "is_disabled": 0, "fusion_lon": 0.0, "bike_id": "b26cf82828435cea99b31551dac442ba", "lon": -77.03121116666667, "rental_uris": {"ios": "https://dc.lft.to/lastmile_qr_scan", "android": "https://dc.lft.to/lastmile_qr_scan"}}, {"name": "4cb3d0df632a13cd02d1937397eb738c", "fusion_lat": 0.0, "type": "electric_bike", "lat": 38.80226366666667, "is_reserved": 0, "is_disabled": 0, "fusion_lon": 0.0, "bike_id": "4cb3d0df632a13cd02d1937397eb738c", "lon": -77.0791775, "rental_uris": {"ios": "https://dc.lft.to/lastmile_qr_scan", "android": "https://dc.lft.to/lastmile_qr_scan"}}, {"name": "143eeeca276d50ec01c7a56fa99f5bda", "fusion_lat": 0.0, "type": "electric_scooter", "lat": 38.90684916666667, "is_reserved": 0, "is_disabled": 0, "fusion_lon": 0.0, "bike_id": "143eeeca276d50ec01c7a56fa99f5bda", "lon": -77.01096733333334, "rental_uris": {"ios": "https://dc.lft.to/lastmile_qr_scan", "android": "https://dc.lft.to/lastmile_qr_scan"}}, {"name": "c41dd9463bb1d1cf5a307b47ce64f63b", "fusion_lat": 0.0, "type": "electric_scooter", "lat": 38.903858666666665, "is_reserved": 0, "is_disabled": 0, "fusion_lon": 0.0, "bike_id": "c41dd9463bb1d1cf5a307b47ce64f63b", "lon": -77.01105216666667, "rental_uris": {"ios": "https://dc.lft.to/lastmile_qr_scan", "android": "https://dc.lft.to/lastmile_qr_scan"}}, {"name": "b696ad0fed105eaa3801614a564e607d", "fusion_lat": 0.0, "type": "electric_scooter", "lat": 38.912659, "is_reserved": 0, "is_disabled": 0, "fusion_lon": 0.0, "bike_id": "b696ad0fed105eaa3801614a564e607d", "lon": -77.03838433333334, "rental_uris": {"ios": "https://dc.lft.to/lastmile_qr_scan", "android": "https://dc.lft.to/lastmile_qr_scan"}}, {"name": "b81aa40a68a0af4f215497e207b92d33", "fusion_lat": 0.0, "type": "electric_scooter", "lat": 38.91152233333333, "is_reserved": 0, "is_disabled": 0, "fusion_lon": 0.0, "bike_id": "b81aa40a68a0af4f215497e207b92d33", "lon": -77.0219685, "rental_uris": {"ios": "https://dc.lft.to/lastmile_qr_scan", "android": "https://dc.lft.to/lastmile_qr_scan"}}, {"name": "743c69a49de7b99046848a77d796df08", "fusion_lat": 0.0, "type": "electric_scooter", "lat": 38.89848716666667, "is_reserved": 0, "is_disabled": 0, "fusion_lon": 0.0, "bike_id": "743c69a49de7b99046848a77d796df08", "lon": -76.99037383333334, "rental_uris": {"ios": "https://dc.lft.to/lastmile_qr_scan", "android": "https://dc.lft.to/lastmile_qr_scan"}}, {"name": "2fa9da4775848b7a01a68e5b92313961", "fusion_lat": 0.0, "type": "electric_scooter", "lat": 38.903394666666664, "is_reserved": 0, "is_disabled": 0, "fusion_lon": 0.0, "bike_id": "2fa9da4775848b7a01a68e5b92313961", "lon": -76.99854616666667, "rental_uris": {"ios": "https://dc.lft.to/lastmile_qr_scan", "android": "https://dc.lft.to/lastmile_qr_scan"}}, {"name": "bbf7f71c7ea3bd2e2349e22a3153f923", "fusion_lat": 0.0, "type": "electric_scooter", "lat": 38.900853, "is_reserved": 0, "is_disabled": 0, "fusion_lon": 0.0, "bike_id": "bbf7f71c7ea3bd2e2349e22a3153f923", "lon": -77.05018516666667, "rental_uris": {"ios": "https://dc.lft.to/lastmile_qr_scan", "android": "https://dc.lft.to/lastmile_qr_scan"}}, {"name": "5a1a4957713391d25bc0df3c4391d431", "fusion_lat": 0.0, "type": "electric_bike", "lat": 38.94554483333334, "is_reserved": 0, "is_disabled": 0, "fusion_lon": 0.0, "bike_id": "5a1a4957713391d25bc0df3c4391d431", "lon": -76.89538933333333, "rental_uris": {"ios": "https://dc.lft.to/lastmile_qr_scan", "android": "https://dc.lft.to/lastmile_qr_scan"}}, {"name": "f756347e696eafcfb2f9176333cdbed4", "fusion_lat": 0.0, "type": "electric_scooter", "lat": 38.9154605, "is_reserved": 0, "is_disabled": 0, "fusion_lon": 0.0, "bike_id": "f756347e696eafcfb2f9176333cdbed4", "lon": -77.03844533333333, "rental_uris": {"ios": "https://dc.lft.to/lastmile_qr_scan", "android": "https://dc.lft.to/lastmile_qr_scan"}}, {"name": "c59c0fdb1af43ed040af4c8dd9878866", "fusion_lat": 0.0, "type": "electric_scooter", "lat": 38.883941666666665, "is_reserved": 0, "is_disabled": 0, "fusion_lon": 0.0, "bike_id": "c59c0fdb1af43ed040af4c8dd9878866", "lon": -76.93046516666666, "rental_uris": {"ios": "https://dc.lft.to/lastmile_qr_scan", "android": "https://dc.lft.to/lastmile_qr_scan"}}, {"name": "15ac9017d580871fcd7d1d7e078c4b18", "fusion_lat": 0.0, "type": "electric_scooter", "lat": 38.90811716666666, "is_reserved": 0, "is_disabled": 0, "fusion_lon": 0.0, "bike_id": "15ac9017d580871fcd7d1d7e078c4b18", "lon": -77.02608233333333, "rental_uris": {"ios": "https://dc.lft.to/lastmile_qr_scan", "android": "https://dc.lft.to/lastmile_qr_scan"}}, {"name": "d8c14fca1a5ccf8ea4516047147faa0b", "fusion_lat": 0.0, "type": "electric_scooter", "lat": 38.91836716666667, "is_reserved": 0, "is_disabled": 0, "fusion_lon": 0.0, "bike_id": "d8c14fca1a5ccf8ea4516047147faa0b", "lon": -77.0318485, "rental_uris": {"ios": "https://dc.lft.to/lastmile_qr_scan", "android": "https://dc.lft.to/lastmile_qr_scan"}}, {"name": "48b302012e81ace24069474d895d1533", "fusion_lat": 0.0, "type": "electric_scooter", "lat": 38.928878166666664, "is_reserved": 0, "is_disabled": 0, "fusion_lon": 0.0, "bike_id": "48b302012e81ace24069474d895d1533", "lon": -77.01377383333333, "rental_uris": {"ios": "https://dc.lft.to/lastmile_qr_scan", "android": "https://dc.lft.to/lastmile_qr_scan"}}, {"name": "3f8f56576b1998158e12e9fd92ad15d8", "fusion_lat": 0.0, "type": "electric_scooter", "lat": 38.90039383333333, "is_reserved": 0, "is_disabled": 0, "fusion_lon": 0.0, "bike_id": "3f8f56576b1998158e12e9fd92ad15d8", "lon": -77.043172, "rental_uris": {"ios": "https://dc.lft.to/lastmile_qr_scan", "android": "https://dc.lft.to/lastmile_qr_scan"}}, {"name": "a80070105023f25ede9285954e7c6af1", "fusion_lat": 0.0, "type": "electric_scooter", "lat": 38.907578666666666, "is_reserved": 0, "is_disabled": 0, "fusion_lon": 0.0, "bike_id": "a80070105023f25ede9285954e7c6af1", "lon": -77.00033116666667, "rental_uris": {"ios": "https://dc.lft.to/lastmile_qr_scan", "android": "https://dc.lft.to/lastmile_qr_scan"}}, {"name": "1f88360d768320554736069a74fdd5db", "fusion_lat": 0.0, "type": "electric_scooter", "lat": 38.9052255, "is_reserved": 0, "is_disabled": 0, "fusion_lon": 0.0, "bike_id": "1f88360d768320554736069a74fdd5db", "lon": -77.06386933333333, "rental_uris": {"ios": "https://dc.lft.to/lastmile_qr_scan", "android": "https://dc.lft.to/lastmile_qr_scan"}}, {"name": "00b2bf97f71a523894f7075e35dcaea6", "fusion_lat": 0.0, "type": "electric_scooter", "lat": 38.9161395, "is_reserved": 0, "is_disabled": 0, "fusion_lon": 0.0, "bike_id": "00b2bf97f71a523894f7075e35dcaea6", "lon": -77.0386155, "rental_uris": {"ios": "https://dc.lft.to/lastmile_qr_scan", "android": "https://dc.lft.to/lastmile_qr_scan"}}, {"name": "bc4d87ae81c27428ad68fa086bea8644", "fusion_lat": 0.0, "type": "electric_scooter", "lat": 38.9418285, "is_reserved": 0, "is_disabled": 0, "fusion_lon": 0.0, "bike_id": "bc4d87ae81c27428ad68fa086bea8644", "lon": -77.02489516666667, "rental_uris": {"ios": "https://dc.lft.to/lastmile_qr_scan", "android": "https://dc.lft.to/lastmile_qr_scan"}}, {"name": "e2702e2302beb7adb0c6051facdc6766", "fusion_lat": 0.0, "type": "electric_bike", "lat": 38.97326733333333, "is_reserved": 0, "is_disabled": 0, "fusion_lon": 0.0, "bike_id": "e2702e2302beb7adb0c6051facdc6766", "lon": -77.02150266666666, "rental_uris": {"ios": "https://dc.lft.to/lastmile_qr_scan", "android": "https://dc.lft.to/lastmile_qr_scan"}}, {"name": "63685e36b39e8784cd1da4b11985a090", "fusion_lat": 0.0, "type": "electric_scooter", "lat": 38.9399375, "is_reserved": 0, "is_disabled": 0, "fusion_lon": 0.0, "bike_id": "63685e36b39e8784cd1da4b11985a090", "lon": -77.02959616666666, "rental_uris": {"ios": "https://dc.lft.to/lastmile_qr_scan", "android": "https://dc.lft.to/lastmile_qr_scan"}}, {"name": "8a0bd4c86dfab855e34bd38d4a525bee", "fusion_lat": 0.0, "type": "electric_scooter", "lat": 38.89853433333333, "is_reserved": 0, "is_disabled": 0, "fusion_lon": 0.0, "bike_id": "8a0bd4c86dfab855e34bd38d4a525bee", "lon": -76.99029783333333, "rental_uris": {"ios": "https://dc.lft.to/lastmile_qr_scan", "android": "https://dc.lft.to/lastmile_qr_scan"}}, {"name": "30f46b1179208bf76548a28c62bc43d9", "fusion_lat": 0.0, "type": "electric_scooter", "lat": 38.93254866666667, "is_reserved": 0, "is_disabled": 0, "fusion_lon": 0.0, "bike_id": "30f46b1179208bf76548a28c62bc43d9", "lon": -77.04002116666666, "rental_uris": {"ios": "https://dc.lft.to/lastmile_qr_scan", "android": "https://dc.lft.to/lastmile_qr_scan"}}, {"name": "981c136356685a65cbb2e8015a886b56", "fusion_lat": 0.0, "type": "electric_scooter", "lat": 38.89482616666667, "is_reserved": 0, "is_disabled": 0, "fusion_lon": 0.0, "bike_id": "981c136356685a65cbb2e8015a886b56", "lon": -76.9487325, "rental_uris": {"ios": "https://dc.lft.to/lastmile_qr_scan", "android": "https://dc.lft.to/lastmile_qr_scan"}}, {"name": "760f634dd230e4f3fdf72400397ff2d1", "fusion_lat": 0.0, "type": "electric_scooter", "lat": 38.90846783333333, "is_reserved": 0, "is_disabled": 0, "fusion_lon": 0.0, "bike_id": "760f634dd230e4f3fdf72400397ff2d1", "lon": -77.00007283333333, "rental_uris": {"ios": "https://dc.lft.to/lastmile_qr_scan", "android": "https://dc.lft.to/lastmile_qr_scan"}}, {"name": "5bb85e1fec451f4b3795e3b6883e5056", "fusion_lat": 0.0, "type": "electric_scooter", "lat": 38.90088316666667, "is_reserved": 0, "is_disabled": 0, "fusion_lon": 0.0, "bike_id": "5bb85e1fec451f4b3795e3b6883e5056", "lon": -77.01350383333333, "rental_uris": {"ios": "https://dc.lft.to/lastmile_qr_scan", "android": "https://dc.lft.to/lastmile_qr_scan"}}, {"name": "bc75ba433c49339c1e7dbad15abe74d1", "fusion_lat": 0.0, "type": "electric_scooter", "lat": 38.892625333333335, "is_reserved": 0, "is_disabled": 0, "fusion_lon": 0.0, "bike_id": "bc75ba433c49339c1e7dbad15abe74d1", "lon": -77.0320815, "rental_uris": {"ios": "https://dc.lft.to/lastmile_qr_scan", "android": "https://dc.lft.to/lastmile_qr_scan"}}, {"name": "1e89fd189e6b67eac88bb718834e0287", "fusion_lat": 0.0, "type": "electric_scooter", "lat": 38.931227166666666, "is_reserved": 0, "is_disabled": 0, "fusion_lon": 0.0, "bike_id": "1e89fd189e6b67eac88bb718834e0287", "lon": -77.03598966666667, "rental_uris": {"ios": "https://dc.lft.to/lastmile_qr_scan", "android": "https://dc.lft.to/lastmile_qr_scan"}}, {"name": "b9797188b2e09f3df6ec22e2c3d660f7", "fusion_lat": 0.0, "type": "electric_scooter", "lat": 38.897737, "is_reserved": 0, "is_disabled": 0, "fusion_lon": 0.0, "bike_id": "b9797188b2e09f3df6ec22e2c3d660f7", "lon": -76.99165383333333, "rental_uris": {"ios": "https://dc.lft.to/lastmile_qr_scan", "android": "https://dc.lft.to/lastmile_qr_scan"}}, {"name": "f83702d89761c1dc8832f29199a5fa00", "fusion_lat": 0.0, "type": "electric_scooter", "lat": 38.912775833333335, "is_reserved": 0, "is_disabled": 0, "fusion_lon": 0.0, "bike_id": "f83702d89761c1dc8832f29199a5fa00", "lon": -77.03206366666667, "rental_uris": {"ios": "https://dc.lft.to/lastmile_qr_scan", "android": "https://dc.lft.to/lastmile_qr_scan"}}, {"name": "5e8ee4440b78bf7e4ad5a6b67d58971b", "fusion_lat": 0.0, "type": "electric_bike", "lat": 39.003881, "is_reserved": 0, "is_disabled": 0, "fusion_lon": 0.0, "bike_id": "5e8ee4440b78bf7e4ad5a6b67d58971b", "lon": -77.01286166666667, "rental_uris": {"ios": "https://dc.lft.to/lastmile_qr_scan", "android": "https://dc.lft.to/lastmile_qr_scan"}}, {"name": "9eb00c2487914417a5e669a6fbd92767", "fusion_lat": 0.0, "type": "electric_bike", "lat": 38.80793416666667, "is_reserved": 0, "is_disabled": 0, "fusion_lon": 0.0, "bike_id": "9eb00c2487914417a5e669a6fbd92767", "lon": -77.12962366666666, "rental_uris": {"ios": "https://dc.lft.to/lastmile_qr_scan", "android": "https://dc.lft.to/lastmile_qr_scan"}}, {"name": "beaeda0d1b4249ad240e513cae15d8d2", "fusion_lat": 0.0, "type": "electric_scooter", "lat": 38.92632866666667, "is_reserved": 0, "is_disabled": 0, "fusion_lon": 0.0, "bike_id": "beaeda0d1b4249ad240e513cae15d8d2", "lon": -77.03717983333334, "rental_uris": {"ios": "https://dc.lft.to/lastmile_qr_scan", "android": "https://dc.lft.to/lastmile_qr_scan"}}, {"name": "7c7815f8f45ffded6f7c75363cd7795d", "fusion_lat": 0.0, "type": "electric_scooter", "lat": 38.85790433333333, "is_reserved": 0, "is_disabled": 0, "fusion_lon": 0.0, "bike_id": "7c7815f8f45ffded6f7c75363cd7795d", "lon": -76.99093066666667, "rental_uris": {"ios": "https://dc.lft.to/lastmile_qr_scan", "android": "https://dc.lft.to/lastmile_qr_scan"}}, {"name": "b64b64daa594ee6251e66b94d4652aed", "fusion_lat": 0.0, "type": "electric_scooter", "lat": 38.9056275, "is_reserved": 0, "is_disabled": 0, "fusion_lon": 0.0, "bike_id": "b64b64daa594ee6251e66b94d4652aed", "lon": -77.03463183333334, "rental_uris": {"ios": "https://dc.lft.to/lastmile_qr_scan", "android": "https://dc.lft.to/lastmile_qr_scan"}}, {"name": "9314347f4dc9d9bb52fcd4b3f41aa3fb", "fusion_lat": 0.0, "type": "electric_scooter", "lat": 38.9564655, "is_reserved": 0, "is_disabled": 0, "fusion_lon": 0.0, "bike_id": "9314347f4dc9d9bb52fcd4b3f41aa3fb", "lon": -77.03284366666666, "rental_uris": {"ios": "https://dc.lft.to/lastmile_qr_scan", "android": "https://dc.lft.to/lastmile_qr_scan"}}, {"name": "be71884f05ad1e910feb20536c7cd09f", "fusion_lat": 0.0, "type": "electric_scooter", "lat": 38.90170116666667, "is_reserved": 0, "is_disabled": 0, "fusion_lon": 0.0, "bike_id": "be71884f05ad1e910feb20536c7cd09f", "lon": -77.02509433333333, "rental_uris": {"ios": "https://dc.lft.to/lastmile_qr_scan", "android": "https://dc.lft.to/lastmile_qr_scan"}}, {"name": "c11d5a7adf80609c969f597c32cb5c0d", "fusion_lat": 0.0, "type": "electric_scooter", "lat": 38.92210033333333, "is_reserved": 0, "is_disabled": 0, "fusion_lon": 0.0, "bike_id": "c11d5a7adf80609c969f597c32cb5c0d", "lon": -76.98746816666667, "rental_uris": {"ios": "https://dc.lft.to/lastmile_qr_scan", "android": "https://dc.lft.to/lastmile_qr_scan"}}, {"name": "2261d6302316048f64104a547614c6a6", "fusion_lat": 0.0, "type": "electric_scooter", "lat": 38.9590605, "is_reserved": 0, "is_disabled": 0, "fusion_lon": 0.0, "bike_id": "2261d6302316048f64104a547614c6a6", "lon": -77.08076483333333, "rental_uris": {"ios": "https://dc.lft.to/lastmile_qr_scan", "android": "https://dc.lft.to/lastmile_qr_scan"}}, {"name": "4d23650277075f44726f1fabcb76efa3", "fusion_lat": 0.0, "type": "electric_scooter", "lat": 38.9320485, "is_reserved": 0, "is_disabled": 0, "fusion_lon": 0.0, "bike_id": "4d23650277075f44726f1fabcb76efa3", "lon": -77.03652283333334, "rental_uris": {"ios": "https://dc.lft.to/lastmile_qr_scan", "android": "https://dc.lft.to/lastmile_qr_scan"}}, {"name": "7333e32834a6f2175365bfdab10dca3f", "fusion_lat": 0.0, "type": "electric_scooter", "lat": 38.92487933333334, "is_reserved": 0, "is_disabled": 0, "fusion_lon": 0.0, "bike_id": "7333e32834a6f2175365bfdab10dca3f", "lon": -77.05206716666666, "rental_uris": {"ios": "https://dc.lft.to/lastmile_qr_scan", "android": "https://dc.lft.to/lastmile_qr_scan"}}, {"name": "7fd8a1dce84853a4f2f63d3793b36258", "fusion_lat": 0.0, "type": "electric_scooter", "lat": 38.939099166666665, "is_reserved": 0, "is_disabled": 0, "fusion_lon": 0.0, "bike_id": "7fd8a1dce84853a4f2f63d3793b36258", "lon": -77.06055566666667, "rental_uris": {"ios": "https://dc.lft.to/lastmile_qr_scan", "android": "https://dc.lft.to/lastmile_qr_scan"}}, {"name": "b6795c6ea62dc479c509554a4d5b80d4", "fusion_lat": 0.0, "type": "electric_scooter", "lat": 38.9057455, "is_reserved": 0, "is_disabled": 0, "fusion_lon": 0.0, "bike_id": "b6795c6ea62dc479c509554a4d5b80d4", "lon": -77.02988766666667, "rental_uris": {"ios": "https://dc.lft.to/lastmile_qr_scan", "android": "https://dc.lft.to/lastmile_qr_scan"}}, {"name": "fc2ff05c57e4fc4b616435d95c92a5d0", "fusion_lat": 0.0, "type": "electric_scooter", "lat": 38.90578083333333, "is_reserved": 0, "is_disabled": 0, "fusion_lon": 0.0, "bike_id": "fc2ff05c57e4fc4b616435d95c92a5d0", "lon": -77.02984133333334, "rental_uris": {"ios": "https://dc.lft.to/lastmile_qr_scan", "android": "https://dc.lft.to/lastmile_qr_scan"}}, {"name": "1b95390479db53dde2a43533ad2bd6f3", "fusion_lat": 0.0, "type": "electric_bike", "lat": 38.93488816666667, "is_reserved": 0, "is_disabled": 0, "fusion_lon": 0.0, "bike_id": "1b95390479db53dde2a43533ad2bd6f3", "lon": -77.03010916666666, "rental_uris": {"ios": "https://dc.lft.to/lastmile_qr_scan", "android": "https://dc.lft.to/lastmile_qr_scan"}}, {"name": "efddf81e8a420bced3adb1ecfe4ca603", "fusion_lat": 0.0, "type": "electric_scooter", "lat": 38.92050866666666, "is_reserved": 0, "is_disabled": 0, "fusion_lon": 0.0, "bike_id": "efddf81e8a420bced3adb1ecfe4ca603", "lon": -77.03447333333334, "rental_uris": {"ios": "https://dc.lft.to/lastmile_qr_scan", "android": "https://dc.lft.to/lastmile_qr_scan"}}, {"name": "16ab1137303f9564493cd6282574b967", "fusion_lat": 0.0, "type": "electric_scooter", "lat": 38.90061016666667, "is_reserved": 0, "is_disabled": 0, "fusion_lon": 0.0, "bike_id": "16ab1137303f9564493cd6282574b967", "lon": -77.04509, "rental_uris": {"ios": "https://dc.lft.to/lastmile_qr_scan", "android": "https://dc.lft.to/lastmile_qr_scan"}}, {"name": "91cd5a008f9c740338330bdc205df8b9", "fusion_lat": 0.0, "type": "electric_scooter", "lat": 38.918712166666666, "is_reserved": 0, "is_disabled": 0, "fusion_lon": 0.0, "bike_id": "91cd5a008f9c740338330bdc205df8b9", "lon": -77.04139766666667, "rental_uris": {"ios": "https://dc.lft.to/lastmile_qr_scan", "android": "https://dc.lft.to/lastmile_qr_scan"}}, {"name": "8df24245d21ec0be4f0a3672ee6f0591", "fusion_lat": 0.0, "type": "electric_scooter", "lat": 38.8850685, "is_reserved": 0, "is_disabled": 0, "fusion_lon": 0.0, "bike_id": "8df24245d21ec0be4f0a3672ee6f0591", "lon": -77.030683, "rental_uris": {"ios": "https://dc.lft.to/lastmile_qr_scan", "android": "https://dc.lft.to/lastmile_qr_scan"}}, {"name": "2531a6019cd082716753e03397436012", "fusion_lat": 0.0, "type": "electric_scooter", "lat": 38.9141515, "is_reserved": 0, "is_disabled": 0, "fusion_lon": 0.0, "bike_id": "2531a6019cd082716753e03397436012", "lon": -77.02646383333334, "rental_uris": {"ios": "https://dc.lft.to/lastmile_qr_scan", "android": "https://dc.lft.to/lastmile_qr_scan"}}, {"name": "17966b32a52d6249b1b18857c490fa17", "fusion_lat": 0.0, "type": "electric_scooter", "lat": 38.904876, "is_reserved": 0, "is_disabled": 0, "fusion_lon": 0.0, "bike_id": "17966b32a52d6249b1b18857c490fa17", "lon": -77.04844466666667, "rental_uris": {"ios": "https://dc.lft.to/lastmile_qr_scan", "android": "https://dc.lft.to/lastmile_qr_scan"}}, {"name": "b06df9d1724909b1205393b4383c9c7d", "fusion_lat": 0.0, "type": "electric_bike", "lat": 39.038811, "is_reserved": 0, "is_disabled": 0, "fusion_lon": 0.0, "bike_id": "b06df9d1724909b1205393b4383c9c7d", "lon": -76.990451, "rental_uris": {"ios": "https://dc.lft.to/lastmile_qr_scan", "android": "https://dc.lft.to/lastmile_qr_scan"}}, {"name": "70dd5117897ec3c488b55319e5e5a37e", "fusion_lat": 0.0, "type": "electric_scooter", "lat": 38.91565266666667, "is_reserved": 0, "is_disabled": 0, "fusion_lon": 0.0, "bike_id": "70dd5117897ec3c488b55319e5e5a37e", "lon": -77.03915233333333, "rental_uris": {"ios": "https://dc.lft.to/lastmile_qr_scan", "android": "https://dc.lft.to/lastmile_qr_scan"}}, {"name": "dd744e6689900317cca9627a85bc2f51", "fusion_lat": 0.0, "type": "electric_scooter", "lat": 38.92930483333333, "is_reserved": 0, "is_disabled": 0, "fusion_lon": 0.0, "bike_id": "dd744e6689900317cca9627a85bc2f51", "lon": -77.01963883333333, "rental_uris": {"ios": "https://dc.lft.to/lastmile_qr_scan", "android": "https://dc.lft.to/lastmile_qr_scan"}}, {"name": "6ab4d2d3c2aea6733a552877f127f96f", "fusion_lat": 0.0, "type": "electric_scooter", "lat": 38.9075305, "is_reserved": 0, "is_disabled": 0, "fusion_lon": 0.0, "bike_id": "6ab4d2d3c2aea6733a552877f127f96f", "lon": -77.03093483333333, "rental_uris": {"ios": "https://dc.lft.to/lastmile_qr_scan", "android": "https://dc.lft.to/lastmile_qr_scan"}}, {"name": "169def83a0e3cc9f9090d1788ab1e071", "fusion_lat": 0.0, "type": "electric_scooter", "lat": 38.9073675, "is_reserved": 0, "is_disabled": 0, "fusion_lon": 0.0, "bike_id": "169def83a0e3cc9f9090d1788ab1e071", "lon": -77.02971683333334, "rental_uris": {"ios": "https://dc.lft.to/lastmile_qr_scan", "android": "https://dc.lft.to/lastmile_qr_scan"}}, {"name": "a12676a9063612736653d548c9e1c621", "fusion_lat": 0.0, "type": "electric_scooter", "lat": 38.9133785, "is_reserved": 0, "is_disabled": 0, "fusion_lon": 0.0, "bike_id": "a12676a9063612736653d548c9e1c621", "lon": -77.03445016666667, "rental_uris": {"ios": "https://dc.lft.to/lastmile_qr_scan", "android": "https://dc.lft.to/lastmile_qr_scan"}}, {"name": "10b45d0a8ee1c395a8b6bd3fb766d10f", "fusion_lat": 0.0, "type": "electric_bike", "lat": 38.89286533333333, "is_reserved": 0, "is_disabled": 0, "fusion_lon": 0.0, "bike_id": "10b45d0a8ee1c395a8b6bd3fb766d10f", "lon": -76.98563216666666, "rental_uris": {"ios": "https://dc.lft.to/lastmile_qr_scan", "android": "https://dc.lft.to/lastmile_qr_scan"}}, {"name": "ca054decd3002cad0cf536edd188778b", "fusion_lat": 0.0, "type": "electric_scooter", "lat": 38.924375833333336, "is_reserved": 0, "is_disabled": 0, "fusion_lon": 0.0, "bike_id": "ca054decd3002cad0cf536edd188778b", "lon": -77.02981916666667, "rental_uris": {"ios": "https://dc.lft.to/lastmile_qr_scan", "android": "https://dc.lft.to/lastmile_qr_scan"}}, {"name": "0d4cb6c692b251a8c26f4e03ea6dd919", "fusion_lat": 0.0, "type": "electric_bike", "lat": 38.880459, "is_reserved": 0, "is_disabled": 0, "fusion_lon": 0.0, "bike_id": "0d4cb6c692b251a8c26f4e03ea6dd919", "lon": -77.01326716666667, "rental_uris": {"ios": "https://dc.lft.to/lastmile_qr_scan", "android": "https://dc.lft.to/lastmile_qr_scan"}}, {"name": "e1986dfc0ae0b3ed48533666788f9612", "fusion_lat": 0.0, "type": "electric_bike", "lat": 38.85233383333333, "is_reserved": 0, "is_disabled": 0, "fusion_lon": 0.0, "bike_id": "e1986dfc0ae0b3ed48533666788f9612", "lon": -77.10340216666667, "rental_uris": {"ios": "https://dc.lft.to/lastmile_qr_scan", "android": "https://dc.lft.to/lastmile_qr_scan"}}, {"name": "2d717a8e835c3cdadd4570e42a566cce", "fusion_lat": 0.0, "type": "electric_scooter", "lat": 38.949609, "is_reserved": 0, "is_disabled": 0, "fusion_lon": 0.0, "bike_id": "2d717a8e835c3cdadd4570e42a566cce", "lon": -77.02721816666667, "rental_uris": {"ios": "https://dc.lft.to/lastmile_qr_scan", "android": "https://dc.lft.to/lastmile_qr_scan"}}, {"name": "2c11d63a97c12b1c5f3ac19c3c62f317", "fusion_lat": 0.0, "type": "electric_scooter", "lat": 38.9159145, "is_reserved": 0, "is_disabled": 0, "fusion_lon": 0.0, "bike_id": "2c11d63a97c12b1c5f3ac19c3c62f317", "lon": -77.0435565, "rental_uris": {"ios": "https://dc.lft.to/lastmile_qr_scan", "android": "https://dc.lft.to/lastmile_qr_scan"}}, {"name": "d8f52cba696c0dcf39bde3d35cf16bb2", "fusion_lat": 0.0, "type": "electric_scooter", "lat": 38.9011855, "is_reserved": 0, "is_disabled": 0, "fusion_lon": 0.0, "bike_id": "d8f52cba696c0dcf39bde3d35cf16bb2", "lon": -77.02368016666667, "rental_uris": {"ios": "https://dc.lft.to/lastmile_qr_scan", "android": "https://dc.lft.to/lastmile_qr_scan"}}, {"name": "9a750a75ecde1ff73df281e0267c22bb", "fusion_lat": 0.0, "type": "electric_scooter", "lat": 38.924833, "is_reserved": 0, "is_disabled": 0, "fusion_lon": 0.0, "bike_id": "9a750a75ecde1ff73df281e0267c22bb", "lon": -77.02713816666666, "rental_uris": {"ios": "https://dc.lft.to/lastmile_qr_scan", "android": "https://dc.lft.to/lastmile_qr_scan"}}, {"name": "31bd5b59f53f309b3ee2a91d2561906d", "fusion_lat": 0.0, "type": "electric_scooter", "lat": 38.89725583333333, "is_reserved": 0, "is_disabled": 0, "fusion_lon": 0.0, "bike_id": "31bd5b59f53f309b3ee2a91d2561906d", "lon": -77.043355, "rental_uris": {"ios": "https://dc.lft.to/lastmile_qr_scan", "android": "https://dc.lft.to/lastmile_qr_scan"}}, {"name": "fc241f6a1bab6f7ae5bd073a7dc445b1", "fusion_lat": 0.0, "type": "electric_scooter", "lat": 38.892425, "is_reserved": 0, "is_disabled": 0, "fusion_lon": 0.0, "bike_id": "fc241f6a1bab6f7ae5bd073a7dc445b1", "lon": -77.03183066666666, "rental_uris": {"ios": "https://dc.lft.to/lastmile_qr_scan", "android": "https://dc.lft.to/lastmile_qr_scan"}}, {"name": "858bc4b579296806315b0ce2b57499cb", "fusion_lat": 0.0, "type": "electric_scooter", "lat": 38.90728083333333, "is_reserved": 0, "is_disabled": 0, "fusion_lon": 0.0, "bike_id": "858bc4b579296806315b0ce2b57499cb", "lon": -77.03360766666667, "rental_uris": {"ios": "https://dc.lft.to/lastmile_qr_scan", "android": "https://dc.lft.to/lastmile_qr_scan"}}, {"name": "d25507068f0c24f59cf5b2ca0afc934f", "fusion_lat": 0.0, "type": "electric_scooter", "lat": 38.930088833333336, "is_reserved": 0, "is_disabled": 0, "fusion_lon": 0.0, "bike_id": "d25507068f0c24f59cf5b2ca0afc934f", "lon": -77.023309, "rental_uris": {"ios": "https://dc.lft.to/lastmile_qr_scan", "android": "https://dc.lft.to/lastmile_qr_scan"}}, {"name": "2191cf11d3b7b7603932c5c40b0d28b3", "fusion_lat": 0.0, "type": "electric_bike", "lat": 38.84337433333334, "is_reserved": 0, "is_disabled": 0, "fusion_lon": 0.0, "bike_id": "2191cf11d3b7b7603932c5c40b0d28b3", "lon": -77.06346, "rental_uris": {"ios": "https://dc.lft.to/lastmile_qr_scan", "android": "https://dc.lft.to/lastmile_qr_scan"}}, {"name": "0e8eebe406cc72b79d2fcdc03e73041e", "fusion_lat": 0.0, "type": "electric_scooter", "lat": 38.909807, "is_reserved": 0, "is_disabled": 0, "fusion_lon": 0.0, "bike_id": "0e8eebe406cc72b79d2fcdc03e73041e", "lon": -77.04870616666666, "rental_uris": {"ios": "https://dc.lft.to/lastmile_qr_scan", "android": "https://dc.lft.to/lastmile_qr_scan"}}, {"name": "94433c90f8c03d678c851586902b42dd", "fusion_lat": 0.0, "type": "electric_scooter", "lat": 38.87283466666667, "is_reserved": 0, "is_disabled": 0, "fusion_lon": 0.0, "bike_id": "94433c90f8c03d678c851586902b42dd", "lon": -77.009892, "rental_uris": {"ios": "https://dc.lft.to/lastmile_qr_scan", "android": "https://dc.lft.to/lastmile_qr_scan"}}, {"name": "bb450fa91327b66005a3591d437668f4", "fusion_lat": 0.0, "type": "electric_scooter", "lat": 38.90840816666667, "is_reserved": 0, "is_disabled": 0, "fusion_lon": 0.0, "bike_id": "bb450fa91327b66005a3591d437668f4", "lon": -77.03184416666667, "rental_uris": {"ios": "https://dc.lft.to/lastmile_qr_scan", "android": "https://dc.lft.to/lastmile_qr_scan"}}, {"name": "fb02266df20d18b47e6938b86048588b", "fusion_lat": 0.0, "type": "electric_scooter", "lat": 38.90370866666667, "is_reserved": 0, "is_disabled": 0, "fusion_lon": 0.0, "bike_id": "fb02266df20d18b47e6938b86048588b", "lon": -77.04288766666667, "rental_uris": {"ios": "https://dc.lft.to/lastmile_qr_scan", "android": "https://dc.lft.to/lastmile_qr_scan"}}, {"name": "3501de1f2f863f60d3adf623fe8f417c", "fusion_lat": 0.0, "type": "electric_bike", "lat": 38.9933835, "is_reserved": 0, "is_disabled": 0, "fusion_lon": 0.0, "bike_id": "3501de1f2f863f60d3adf623fe8f417c", "lon": -77.02667, "rental_uris": {"ios": "https://dc.lft.to/lastmile_qr_scan", "android": "https://dc.lft.to/lastmile_qr_scan"}}, {"name": "667225f2b42064fbe3f7ff7996de6634", "fusion_lat": 0.0, "type": "electric_scooter", "lat": 38.909387333333335, "is_reserved": 0, "is_disabled": 0, "fusion_lon": 0.0, "bike_id": "667225f2b42064fbe3f7ff7996de6634", "lon": -77.04658916666666, "rental_uris": {"ios": "https://dc.lft.to/lastmile_qr_scan", "android": "https://dc.lft.to/lastmile_qr_scan"}}, {"name": "646e3b3a98761fa8d13e91966e4fbb56", "fusion_lat": 0.0, "type": "electric_scooter", "lat": 38.91180583333333, "is_reserved": 0, "is_disabled": 0, "fusion_lon": 0.0, "bike_id": "646e3b3a98761fa8d13e91966e4fbb56", "lon": -77.0415315, "rental_uris": {"ios": "https://dc.lft.to/lastmile_qr_scan", "android": "https://dc.lft.to/lastmile_qr_scan"}}, {"name": "c12166c12cf574d26ebf369b36037f1a", "fusion_lat": 0.0, "type": "electric_scooter", "lat": 38.93569333333333, "is_reserved": 0, "is_disabled": 0, "fusion_lon": 0.0, "bike_id": "c12166c12cf574d26ebf369b36037f1a", "lon": -77.0212465, "rental_uris": {"ios": "https://dc.lft.to/lastmile_qr_scan", "android": "https://dc.lft.to/lastmile_qr_scan"}}, {"name": "2a775f9823e4ede9697ace005bbf84b2", "fusion_lat": 0.0, "type": "electric_scooter", "lat": 38.89875766666667, "is_reserved": 0, "is_disabled": 0, "fusion_lon": 0.0, "bike_id": "2a775f9823e4ede9697ace005bbf84b2", "lon": -77.033307, "rental_uris": {"ios": "https://dc.lft.to/lastmile_qr_scan", "android": "https://dc.lft.to/lastmile_qr_scan"}}, {"name": "fe5650865948edc92e12e954bab7b61c", "fusion_lat": 0.0, "type": "electric_scooter", "lat": 38.935658, "is_reserved": 0, "is_disabled": 0, "fusion_lon": 0.0, "bike_id": "fe5650865948edc92e12e954bab7b61c", "lon": -77.0213915, "rental_uris": {"ios": "https://dc.lft.to/lastmile_qr_scan", "android": "https://dc.lft.to/lastmile_qr_scan"}}, {"name": "0c0dcf4d9b96115e35c3e3d1f685ebc0", "fusion_lat": 0.0, "type": "electric_scooter", "lat": 38.931028, "is_reserved": 0, "is_disabled": 0, "fusion_lon": 0.0, "bike_id": "0c0dcf4d9b96115e35c3e3d1f685ebc0", "lon": -77.02404983333334, "rental_uris": {"ios": "https://dc.lft.to/lastmile_qr_scan", "android": "https://dc.lft.to/lastmile_qr_scan"}}, {"name": "8cb75b3ca6f5ebcb7a756f433c842a94", "fusion_lat": 0.0, "type": "electric_scooter", "lat": 38.94464966666666, "is_reserved": 0, "is_disabled": 0, "fusion_lon": 0.0, "bike_id": "8cb75b3ca6f5ebcb7a756f433c842a94", "lon": -77.006593, "rental_uris": {"ios": "https://dc.lft.to/lastmile_qr_scan", "android": "https://dc.lft.to/lastmile_qr_scan"}}, {"name": "0f3e0dcce36d2a5dee4f2ba9ff996801", "fusion_lat": 0.0, "type": "electric_scooter", "lat": 38.90959733333333, "is_reserved": 0, "is_disabled": 0, "fusion_lon": 0.0, "bike_id": "0f3e0dcce36d2a5dee4f2ba9ff996801", "lon": -77.026855, "rental_uris": {"ios": "https://dc.lft.to/lastmile_qr_scan", "android": "https://dc.lft.to/lastmile_qr_scan"}}, {"name": "3d58a4df5febba70c3167b6f1e9d5784", "fusion_lat": 0.0, "type": "electric_bike", "lat": 38.897710000000004, "is_reserved": 0, "is_disabled": 0, "fusion_lon": 0.0, "bike_id": "3d58a4df5febba70c3167b6f1e9d5784", "lon": -76.9043795, "rental_uris": {"ios": "https://dc.lft.to/lastmile_qr_scan", "android": "https://dc.lft.to/lastmile_qr_scan"}}, {"name": "0496be8f007d009bee16a781d6c8456e", "fusion_lat": 0.0, "type": "electric_scooter", "lat": 38.896048, "is_reserved": 0, "is_disabled": 0, "fusion_lon": 0.0, "bike_id": "0496be8f007d009bee16a781d6c8456e", "lon": -77.05074083333334, "rental_uris": {"ios": "https://dc.lft.to/lastmile_qr_scan", "android": "https://dc.lft.to/lastmile_qr_scan"}}, {"name": "78940722dc111656254d10a5e5764e0b", "fusion_lat": 0.0, "type": "electric_scooter", "lat": 38.905076, "is_reserved": 0, "is_disabled": 0, "fusion_lon": 0.0, "bike_id": "78940722dc111656254d10a5e5764e0b", "lon": -77.0622775, "rental_uris": {"ios": "https://dc.lft.to/lastmile_qr_scan", "android": "https://dc.lft.to/lastmile_qr_scan"}}, {"name": "35b2264176ed9e24ae8e1e78242079b7", "fusion_lat": 0.0, "type": "electric_scooter", "lat": 38.9095935, "is_reserved": 0, "is_disabled": 0, "fusion_lon": 0.0, "bike_id": "35b2264176ed9e24ae8e1e78242079b7", "lon": -77.038664, "rental_uris": {"ios": "https://dc.lft.to/lastmile_qr_scan", "android": "https://dc.lft.to/lastmile_qr_scan"}}, {"name": "13aac279e2aa97dd306a725482f9595a", "fusion_lat": 0.0, "type": "electric_scooter", "lat": 38.9389925, "is_reserved": 0, "is_disabled": 0, "fusion_lon": 0.0, "bike_id": "13aac279e2aa97dd306a725482f9595a", "lon": -77.03279333333333, "rental_uris": {"ios": "https://dc.lft.to/lastmile_qr_scan", "android": "https://dc.lft.to/lastmile_qr_scan"}}, {"name": "355a49297fa2e5abec0d4098f4999e79", "fusion_lat": 0.0, "type": "electric_scooter", "lat": 38.9014085, "is_reserved": 0, "is_disabled": 0, "fusion_lon": 0.0, "bike_id": "355a49297fa2e5abec0d4098f4999e79", "lon": -77.05897916666666, "rental_uris": {"ios": "https://dc.lft.to/lastmile_qr_scan", "android": "https://dc.lft.to/lastmile_qr_scan"}}, {"name": "0e05d7149df6617677061314bb9bd977", "fusion_lat": 0.0, "type": "electric_bike", "lat": 38.81508933333333, "is_reserved": 0, "is_disabled": 0, "fusion_lon": 0.0, "bike_id": "0e05d7149df6617677061314bb9bd977", "lon": -77.12647716666666, "rental_uris": {"ios": "https://dc.lft.to/lastmile_qr_scan", "android": "https://dc.lft.to/lastmile_qr_scan"}}, {"name": "ad9defd65acc7117c2179609f7a72342", "fusion_lat": 0.0, "type": "electric_scooter", "lat": 38.896005833333334, "is_reserved": 0, "is_disabled": 0, "fusion_lon": 0.0, "bike_id": "ad9defd65acc7117c2179609f7a72342", "lon": -77.04699233333334, "rental_uris": {"ios": "https://dc.lft.to/lastmile_qr_scan", "android": "https://dc.lft.to/lastmile_qr_scan"}}, {"name": "cce1f0bd12cc1dad5733071bf020ae47", "fusion_lat": 0.0, "type": "electric_scooter", "lat": 38.93354983333333, "is_reserved": 0, "is_disabled": 0, "fusion_lon": 0.0, "bike_id": "cce1f0bd12cc1dad5733071bf020ae47", "lon": -77.0372985, "rental_uris": {"ios": "https://dc.lft.to/lastmile_qr_scan", "android": "https://dc.lft.to/lastmile_qr_scan"}}, {"name": "0ca4f87e0b79c216c8c395de73c49551", "fusion_lat": 0.0, "type": "electric_scooter", "lat": 38.91230633333333, "is_reserved": 0, "is_disabled": 0, "fusion_lon": 0.0, "bike_id": "0ca4f87e0b79c216c8c395de73c49551", "lon": -77.03844916666667, "rental_uris": {"ios": "https://dc.lft.to/lastmile_qr_scan", "android": "https://dc.lft.to/lastmile_qr_scan"}}, {"name": "44ce68c8c4d29ce126091f80205655c6", "fusion_lat": 0.0, "type": "electric_scooter", "lat": 38.917124666666666, "is_reserved": 0, "is_disabled": 0, "fusion_lon": 0.0, "bike_id": "44ce68c8c4d29ce126091f80205655c6", "lon": -77.02893983333334, "rental_uris": {"ios": "https://dc.lft.to/lastmile_qr_scan", "android": "https://dc.lft.to/lastmile_qr_scan"}}, {"name": "ff35b091823b13ebfecc2eb4004cc226", "fusion_lat": 0.0, "type": "electric_scooter", "lat": 38.90526666666667, "is_reserved": 0, "is_disabled": 0, "fusion_lon": 0.0, "bike_id": "ff35b091823b13ebfecc2eb4004cc226", "lon": -77.04746883333334, "rental_uris": {"ios": "https://dc.lft.to/lastmile_qr_scan", "android": "https://dc.lft.to/lastmile_qr_scan"}}, {"name": "b123fe7352978065c425f3854db1fea9", "fusion_lat": 0.0, "type": "electric_scooter", "lat": 38.906745, "is_reserved": 0, "is_disabled": 0, "fusion_lon": 0.0, "bike_id": "b123fe7352978065c425f3854db1fea9", "lon": -76.978177, "rental_uris": {"ios": "https://dc.lft.to/lastmile_qr_scan", "android": "https://dc.lft.to/lastmile_qr_scan"}}, {"name": "c477c9a44fb40b54cfdb04aae8393dcb", "fusion_lat": 0.0, "type": "electric_bike", "lat": 38.89187883333334, "is_reserved": 0, "is_disabled": 0, "fusion_lon": 0.0, "bike_id": "c477c9a44fb40b54cfdb04aae8393dcb", "lon": -77.12262166666666, "rental_uris": {"ios": "https://dc.lft.to/lastmile_qr_scan", "android": "https://dc.lft.to/lastmile_qr_scan"}}, {"name": "299005fd154206cc4c9c18de155db433", "fusion_lat": 0.0, "type": "electric_bike", "lat": 38.83191266666667, "is_reserved": 0, "is_disabled": 0, "fusion_lon": 0.0, "bike_id": "299005fd154206cc4c9c18de155db433", "lon": -77.0768185, "rental_uris": {"ios": "https://dc.lft.to/lastmile_qr_scan", "android": "https://dc.lft.to/lastmile_qr_scan"}}, {"name": "d4dde600fc00581b13a4b6e16aef3f1f", "fusion_lat": 0.0, "type": "electric_scooter", "lat": 38.92946116666667, "is_reserved": 0, "is_disabled": 0, "fusion_lon": 0.0, "bike_id": "d4dde600fc00581b13a4b6e16aef3f1f", "lon": -77.04410183333333, "rental_uris": {"ios": "https://dc.lft.to/lastmile_qr_scan", "android": "https://dc.lft.to/lastmile_qr_scan"}}, {"name": "9ea229321f844a7a8a82b1fdf27e4289", "fusion_lat": 0.0, "type": "electric_scooter", "lat": 38.9053245, "is_reserved": 0, "is_disabled": 0, "fusion_lon": 0.0, "bike_id": "9ea229321f844a7a8a82b1fdf27e4289", "lon": -77.0505045, "rental_uris": {"ios": "https://dc.lft.to/lastmile_qr_scan", "android": "https://dc.lft.to/lastmile_qr_scan"}}, {"name": "ba2cde42a1441795b78a51151809b1fc", "fusion_lat": 0.0, "type": "electric_bike", "lat": 38.95553066666667, "is_reserved": 0, "is_disabled": 0, "fusion_lon": 0.0, "bike_id": "ba2cde42a1441795b78a51151809b1fc", "lon": -76.93556166666667, "rental_uris": {"ios": "https://dc.lft.to/lastmile_qr_scan", "android": "https://dc.lft.to/lastmile_qr_scan"}}, {"name": "84bbe657fcd88dd10848066e72fb8071", "fusion_lat": 0.0, "type": "electric_scooter", "lat": 38.91108166666667, "is_reserved": 0, "is_disabled": 0, "fusion_lon": 0.0, "bike_id": "84bbe657fcd88dd10848066e72fb8071", "lon": -77.04929166666666, "rental_uris": {"ios": "https://dc.lft.to/lastmile_qr_scan", "android": "https://dc.lft.to/lastmile_qr_scan"}}, {"name": "c8d5f08c45a71b35e4986d27f7aaf325", "fusion_lat": 0.0, "type": "electric_scooter", "lat": 38.908651, "is_reserved": 0, "is_disabled": 0, "fusion_lon": 0.0, "bike_id": "c8d5f08c45a71b35e4986d27f7aaf325", "lon": -76.99950233333334, "rental_uris": {"ios": "https://dc.lft.to/lastmile_qr_scan", "android": "https://dc.lft.to/lastmile_qr_scan"}}, {"name": "10b19e3a846a1370fd46c2956beadb77", "fusion_lat": 0.0, "type": "electric_scooter", "lat": 38.919109166666665, "is_reserved": 0, "is_disabled": 0, "fusion_lon": 0.0, "bike_id": "10b19e3a846a1370fd46c2956beadb77", "lon": -77.03429183333333, "rental_uris": {"ios": "https://dc.lft.to/lastmile_qr_scan", "android": "https://dc.lft.to/lastmile_qr_scan"}}, {"name": "db90d876ccffdeb81b285f8e6607a7c6", "fusion_lat": 0.0, "type": "electric_scooter", "lat": 38.90449816666667, "is_reserved": 0, "is_disabled": 0, "fusion_lon": 0.0, "bike_id": "db90d876ccffdeb81b285f8e6607a7c6", "lon": -77.038267, "rental_uris": {"ios": "https://dc.lft.to/lastmile_qr_scan", "android": "https://dc.lft.to/lastmile_qr_scan"}}, {"name": "8c3fc841bca5848ea70ef9592d70b06e", "fusion_lat": 0.0, "type": "electric_scooter", "lat": 38.921805666666664, "is_reserved": 0, "is_disabled": 0, "fusion_lon": 0.0, "bike_id": "8c3fc841bca5848ea70ef9592d70b06e", "lon": -77.0425495, "rental_uris": {"ios": "https://dc.lft.to/lastmile_qr_scan", "android": "https://dc.lft.to/lastmile_qr_scan"}}, {"name": "1488e7b4767fc9edaf5d17d6529dce86", "fusion_lat": 0.0, "type": "electric_scooter", "lat": 38.91597383333333, "is_reserved": 0, "is_disabled": 0, "fusion_lon": 0.0, "bike_id": "1488e7b4767fc9edaf5d17d6529dce86", "lon": -77.0416095, "rental_uris": {"ios": "https://dc.lft.to/lastmile_qr_scan", "android": "https://dc.lft.to/lastmile_qr_scan"}}, {"name": "e76a2f012dd9e50993f5dbab89255445", "fusion_lat": 0.0, "type": "electric_scooter", "lat": 38.93252833333333, "is_reserved": 0, "is_disabled": 0, "fusion_lon": 0.0, "bike_id": "e76a2f012dd9e50993f5dbab89255445", "lon": -77.02381333333334, "rental_uris": {"ios": "https://dc.lft.to/lastmile_qr_scan", "android": "https://dc.lft.to/lastmile_qr_scan"}}, {"name": "7fabfd8e2115a1f14693dd9c03e88088", "fusion_lat": 0.0, "type": "electric_scooter", "lat": 38.907470333333336, "is_reserved": 0, "is_disabled": 0, "fusion_lon": 0.0, "bike_id": "7fabfd8e2115a1f14693dd9c03e88088", "lon": -77.02806966666667, "rental_uris": {"ios": "https://dc.lft.to/lastmile_qr_scan", "android": "https://dc.lft.to/lastmile_qr_scan"}}, {"name": "abb2e74bf7209d138ea4b8a760c7637f", "fusion_lat": 0.0, "type": "electric_scooter", "lat": 38.9172255, "is_reserved": 0, "is_disabled": 0, "fusion_lon": 0.0, "bike_id": "abb2e74bf7209d138ea4b8a760c7637f", "lon": -77.03838733333333, "rental_uris": {"ios": "https://dc.lft.to/lastmile_qr_scan", "android": "https://dc.lft.to/lastmile_qr_scan"}}, {"name": "842af03896b0c8dcd4f43f048cfc2b81", "fusion_lat": 0.0, "type": "electric_scooter", "lat": 38.902799333333334, "is_reserved": 0, "is_disabled": 0, "fusion_lon": 0.0, "bike_id": "842af03896b0c8dcd4f43f048cfc2b81", "lon": -77.03990933333333, "rental_uris": {"ios": "https://dc.lft.to/lastmile_qr_scan", "android": "https://dc.lft.to/lastmile_qr_scan"}}, {"name": "4e135c701dd4aaebf30160b7034b48ff", "fusion_lat": 0.0, "type": "electric_scooter", "lat": 38.89723633333333, "is_reserved": 0, "is_disabled": 0, "fusion_lon": 0.0, "bike_id": "4e135c701dd4aaebf30160b7034b48ff", "lon": -77.04649166666667, "rental_uris": {"ios": "https://dc.lft.to/lastmile_qr_scan", "android": "https://dc.lft.to/lastmile_qr_scan"}}, {"name": "cd4ba618cc0bce6796b7511e20c95ddd", "fusion_lat": 0.0, "type": "electric_scooter", "lat": 38.8991595, "is_reserved": 0, "is_disabled": 0, "fusion_lon": 0.0, "bike_id": "cd4ba618cc0bce6796b7511e20c95ddd", "lon": -76.9338125, "rental_uris": {"ios": "https://dc.lft.to/lastmile_qr_scan", "android": "https://dc.lft.to/lastmile_qr_scan"}}, {"name": "a395758337ebdec3d3d534e5da5eda44", "fusion_lat": 0.0, "type": "electric_bike", "lat": 38.824463, "is_reserved": 0, "is_disabled": 0, "fusion_lon": 0.0, "bike_id": "a395758337ebdec3d3d534e5da5eda44", "lon": -77.07042933333334, "rental_uris": {"ios": "https://dc.lft.to/lastmile_qr_scan", "android": "https://dc.lft.to/lastmile_qr_scan"}}, {"name": "47828c4ed771ef35eccc875486c2d063", "fusion_lat": 0.0, "type": "electric_scooter", "lat": 38.923339166666665, "is_reserved": 0, "is_disabled": 0, "fusion_lon": 0.0, "bike_id": "47828c4ed771ef35eccc875486c2d063", "lon": -77.03531366666667, "rental_uris": {"ios": "https://dc.lft.to/lastmile_qr_scan", "android": "https://dc.lft.to/lastmile_qr_scan"}}, {"name": "d9e2268e6ad6b765669a1ef62ac8963c", "fusion_lat": 0.0, "type": "electric_bike", "lat": 38.881226166666664, "is_reserved": 0, "is_disabled": 0, "fusion_lon": 0.0, "bike_id": "d9e2268e6ad6b765669a1ef62ac8963c", "lon": -77.016436, "rental_uris": {"ios": "https://dc.lft.to/lastmile_qr_scan", "android": "https://dc.lft.to/lastmile_qr_scan"}}, {"name": "9a56fcb4103b900e88dd91dd335494b8", "fusion_lat": 0.0, "type": "electric_scooter", "lat": 38.90201883333334, "is_reserved": 0, "is_disabled": 0, "fusion_lon": 0.0, "bike_id": "9a56fcb4103b900e88dd91dd335494b8", "lon": -77.021284, "rental_uris": {"ios": "https://dc.lft.to/lastmile_qr_scan", "android": "https://dc.lft.to/lastmile_qr_scan"}}, {"name": "72b3da03d78c9814fc495f3dde224bc1", "fusion_lat": 0.0, "type": "electric_scooter", "lat": 38.923070333333335, "is_reserved": 0, "is_disabled": 0, "fusion_lon": 0.0, "bike_id": "72b3da03d78c9814fc495f3dde224bc1", "lon": -77.0297155, "rental_uris": {"ios": "https://dc.lft.to/lastmile_qr_scan", "android": "https://dc.lft.to/lastmile_qr_scan"}}, {"name": "f1000e483465a80aeff938531ccc7df9", "fusion_lat": 0.0, "type": "electric_bike", "lat": 38.9186135, "is_reserved": 0, "is_disabled": 0, "fusion_lon": 0.0, "bike_id": "f1000e483465a80aeff938531ccc7df9", "lon": -76.960934, "rental_uris": {"ios": "https://dc.lft.to/lastmile_qr_scan", "android": "https://dc.lft.to/lastmile_qr_scan"}}, {"name": "050314f60e49beeb56c94013dce7a794", "fusion_lat": 0.0, "type": "electric_scooter", "lat": 38.9031935, "is_reserved": 0, "is_disabled": 0, "fusion_lon": 0.0, "bike_id": "050314f60e49beeb56c94013dce7a794", "lon": -77.05176216666666, "rental_uris": {"ios": "https://dc.lft.to/lastmile_qr_scan", "android": "https://dc.lft.to/lastmile_qr_scan"}}, {"name": "1955244ff4e445c374633310f4fdfcde", "fusion_lat": 0.0, "type": "electric_scooter", "lat": 38.8842895, "is_reserved": 0, "is_disabled": 0, "fusion_lon": 0.0, "bike_id": "1955244ff4e445c374633310f4fdfcde", "lon": -77.03027933333334, "rental_uris": {"ios": "https://dc.lft.to/lastmile_qr_scan", "android": "https://dc.lft.to/lastmile_qr_scan"}}, {"name": "ddb655061c562e5774ce3447dbc3478a", "fusion_lat": 0.0, "type": "electric_scooter", "lat": 38.923244833333335, "is_reserved": 0, "is_disabled": 0, "fusion_lon": 0.0, "bike_id": "ddb655061c562e5774ce3447dbc3478a", "lon": -77.03973716666667, "rental_uris": {"ios": "https://dc.lft.to/lastmile_qr_scan", "android": "https://dc.lft.to/lastmile_qr_scan"}}, {"name": "b56ed22af8e56c834fcff7d33b84caf1", "fusion_lat": 0.0, "type": "electric_scooter", "lat": 38.90614166666667, "is_reserved": 0, "is_disabled": 0, "fusion_lon": 0.0, "bike_id": "b56ed22af8e56c834fcff7d33b84caf1", "lon": -77.029554, "rental_uris": {"ios": "https://dc.lft.to/lastmile_qr_scan", "android": "https://dc.lft.to/lastmile_qr_scan"}}, {"name": "af6735b36af7c8ca0b03afc5343ecb26", "fusion_lat": 0.0, "type": "electric_scooter", "lat": 38.92465833333333, "is_reserved": 0, "is_disabled": 0, "fusion_lon": 0.0, "bike_id": "af6735b36af7c8ca0b03afc5343ecb26", "lon": -77.03639033333333, "rental_uris": {"ios": "https://dc.lft.to/lastmile_qr_scan", "android": "https://dc.lft.to/lastmile_qr_scan"}}, {"name": "c01293c177daf59390cbd2ad3322966d", "fusion_lat": 0.0, "type": "electric_scooter", "lat": 38.92812766666667, "is_reserved": 0, "is_disabled": 0, "fusion_lon": 0.0, "bike_id": "c01293c177daf59390cbd2ad3322966d", "lon": -77.03636116666667, "rental_uris": {"ios": "https://dc.lft.to/lastmile_qr_scan", "android": "https://dc.lft.to/lastmile_qr_scan"}}, {"name": "24407fbca25690a5acd3023c13c0d512", "fusion_lat": 0.0, "type": "electric_scooter", "lat": 38.8786425, "is_reserved": 0, "is_disabled": 0, "fusion_lon": 0.0, "bike_id": "24407fbca25690a5acd3023c13c0d512", "lon": -76.96527316666666, "rental_uris": {"ios": "https://dc.lft.to/lastmile_qr_scan", "android": "https://dc.lft.to/lastmile_qr_scan"}}, {"name": "36551623c8fcc6e368d392151553b630", "fusion_lat": 0.0, "type": "electric_scooter", "lat": 38.89513933333333, "is_reserved": 0, "is_disabled": 0, "fusion_lon": 0.0, "bike_id": "36551623c8fcc6e368d392151553b630", "lon": -76.992142, "rental_uris": {"ios": "https://dc.lft.to/lastmile_qr_scan", "android": "https://dc.lft.to/lastmile_qr_scan"}}, {"name": "d1326fb64d651fdf6d35bec59c8c8d1a", "fusion_lat": 0.0, "type": "electric_scooter", "lat": 38.90338583333333, "is_reserved": 0, "is_disabled": 0, "fusion_lon": 0.0, "bike_id": "d1326fb64d651fdf6d35bec59c8c8d1a", "lon": -77.0543525, "rental_uris": {"ios": "https://dc.lft.to/lastmile_qr_scan", "android": "https://dc.lft.to/lastmile_qr_scan"}}, {"name": "9b56d64a8d9ef5b483f54118a1acecfa", "fusion_lat": 0.0, "type": "electric_scooter", "lat": 38.900795333333335, "is_reserved": 0, "is_disabled": 0, "fusion_lon": 0.0, "bike_id": "9b56d64a8d9ef5b483f54118a1acecfa", "lon": -77.04989, "rental_uris": {"ios": "https://dc.lft.to/lastmile_qr_scan", "android": "https://dc.lft.to/lastmile_qr_scan"}}, {"name": "5205a9573b575fb90a24f3c6862b5631", "fusion_lat": 0.0, "type": "electric_scooter", "lat": 38.921042666666665, "is_reserved": 0, "is_disabled": 0, "fusion_lon": 0.0, "bike_id": "5205a9573b575fb90a24f3c6862b5631", "lon": -77.04696083333333, "rental_uris": {"ios": "https://dc.lft.to/lastmile_qr_scan", "android": "https://dc.lft.to/lastmile_qr_scan"}}, {"name": "8b7e7a43356a11a435d5d97815fda88b", "fusion_lat": 0.0, "type": "electric_scooter", "lat": 38.91210866666667, "is_reserved": 0, "is_disabled": 0, "fusion_lon": 0.0, "bike_id": "8b7e7a43356a11a435d5d97815fda88b", "lon": -77.036425, "rental_uris": {"ios": "https://dc.lft.to/lastmile_qr_scan", "android": "https://dc.lft.to/lastmile_qr_scan"}}, {"name": "153e243d0376d8266e8fda645d2e97ea", "fusion_lat": 0.0, "type": "electric_scooter", "lat": 38.9042405, "is_reserved": 0, "is_disabled": 0, "fusion_lon": 0.0, "bike_id": "153e243d0376d8266e8fda645d2e97ea", "lon": -77.03439133333333, "rental_uris": {"ios": "https://dc.lft.to/lastmile_qr_scan", "android": "https://dc.lft.to/lastmile_qr_scan"}}, {"name": "e10510495109c59cfbffcf7756f31a2e", "fusion_lat": 0.0, "type": "electric_scooter", "lat": 38.90229016666667, "is_reserved": 0, "is_disabled": 0, "fusion_lon": 0.0, "bike_id": "e10510495109c59cfbffcf7756f31a2e", "lon": -77.0268095, "rental_uris": {"ios": "https://dc.lft.to/lastmile_qr_scan", "android": "https://dc.lft.to/lastmile_qr_scan"}}, {"name": "52cd524378e033c259ec8b1008adf2a9", "fusion_lat": 0.0, "type": "electric_bike", "lat": 38.83865566666667, "is_reserved": 0, "is_disabled": 0, "fusion_lon": 0.0, "bike_id": "52cd524378e033c259ec8b1008adf2a9", "lon": -77.08865916666667, "rental_uris": {"ios": "https://dc.lft.to/lastmile_qr_scan", "android": "https://dc.lft.to/lastmile_qr_scan"}}, {"name": "c81aaa27673e9d52c57ce2d2696a880e", "fusion_lat": 0.0, "type": "electric_bike", "lat": 38.9732405, "is_reserved": 0, "is_disabled": 0, "fusion_lon": 0.0, "bike_id": "c81aaa27673e9d52c57ce2d2696a880e", "lon": -77.02148216666667, "rental_uris": {"ios": "https://dc.lft.to/lastmile_qr_scan", "android": "https://dc.lft.to/lastmile_qr_scan"}}, {"name": "3ad7bbfa21a0331c6ce630df639f1f53", "fusion_lat": 0.0, "type": "electric_scooter", "lat": 38.90328483333333, "is_reserved": 0, "is_disabled": 0, "fusion_lon": 0.0, "bike_id": "3ad7bbfa21a0331c6ce630df639f1f53", "lon": -77.038386, "rental_uris": {"ios": "https://dc.lft.to/lastmile_qr_scan", "android": "https://dc.lft.to/lastmile_qr_scan"}}, {"name": "bc3ab533c21597964315a490466be0fc", "fusion_lat": 0.0, "type": "electric_scooter", "lat": 38.91799666666667, "is_reserved": 0, "is_disabled": 0, "fusion_lon": 0.0, "bike_id": "bc3ab533c21597964315a490466be0fc", "lon": -77.0281615, "rental_uris": {"ios": "https://dc.lft.to/lastmile_qr_scan", "android": "https://dc.lft.to/lastmile_qr_scan"}}, {"name": "a69b5cd8f2dcd392becf0232e1d1151b", "fusion_lat": 0.0, "type": "electric_scooter", "lat": 38.9220555, "is_reserved": 0, "is_disabled": 0, "fusion_lon": 0.0, "bike_id": "a69b5cd8f2dcd392becf0232e1d1151b", "lon": -77.04238266666667, "rental_uris": {"ios": "https://dc.lft.to/lastmile_qr_scan", "android": "https://dc.lft.to/lastmile_qr_scan"}}, {"name": "c4fcbee1af0ff003af331c1985344986", "fusion_lat": 0.0, "type": "electric_scooter", "lat": 38.930981, "is_reserved": 0, "is_disabled": 0, "fusion_lon": 0.0, "bike_id": "c4fcbee1af0ff003af331c1985344986", "lon": -77.02420083333334, "rental_uris": {"ios": "https://dc.lft.to/lastmile_qr_scan", "android": "https://dc.lft.to/lastmile_qr_scan"}}, {"name": "bbce09f784871e8c4d2ea4f180cb0fae", "fusion_lat": 0.0, "type": "electric_scooter", "lat": 38.93962283333333, "is_reserved": 0, "is_disabled": 0, "fusion_lon": 0.0, "bike_id": "bbce09f784871e8c4d2ea4f180cb0fae", "lon": -77.03284, "rental_uris": {"ios": "https://dc.lft.to/lastmile_qr_scan", "android": "https://dc.lft.to/lastmile_qr_scan"}}, {"name": "7933ea7b129704e81b518644e8c5afbe", "fusion_lat": 0.0, "type": "electric_scooter", "lat": 38.90144516666667, "is_reserved": 0, "is_disabled": 0, "fusion_lon": 0.0, "bike_id": "7933ea7b129704e81b518644e8c5afbe", "lon": -76.9997405, "rental_uris": {"ios": "https://dc.lft.to/lastmile_qr_scan", "android": "https://dc.lft.to/lastmile_qr_scan"}}, {"name": "a5cfe92681edef9204a089926134747d", "fusion_lat": 0.0, "type": "electric_scooter", "lat": 38.91421783333333, "is_reserved": 0, "is_disabled": 0, "fusion_lon": 0.0, "bike_id": "a5cfe92681edef9204a089926134747d", "lon": -77.0261195, "rental_uris": {"ios": "https://dc.lft.to/lastmile_qr_scan", "android": "https://dc.lft.to/lastmile_qr_scan"}}, {"name": "a6bd3b2a3c14ec26fe72ca0721d976ad", "fusion_lat": 0.0, "type": "electric_scooter", "lat": 38.9030965, "is_reserved": 0, "is_disabled": 0, "fusion_lon": 0.0, "bike_id": "a6bd3b2a3c14ec26fe72ca0721d976ad", "lon": -77.031872, "rental_uris": {"ios": "https://dc.lft.to/lastmile_qr_scan", "android": "https://dc.lft.to/lastmile_qr_scan"}}, {"name": "44d179048fc085d9234b5383639411fd", "fusion_lat": 0.0, "type": "electric_scooter", "lat": 38.889328, "is_reserved": 0, "is_disabled": 0, "fusion_lon": 0.0, "bike_id": "44d179048fc085d9234b5383639411fd", "lon": -76.94783366666667, "rental_uris": {"ios": "https://dc.lft.to/lastmile_qr_scan", "android": "https://dc.lft.to/lastmile_qr_scan"}}, {"name": "d3e7c6c7522f37d1066a6b246efb7bd3", "fusion_lat": 0.0, "type": "electric_scooter", "lat": 38.903108833333334, "is_reserved": 0, "is_disabled": 0, "fusion_lon": 0.0, "bike_id": "d3e7c6c7522f37d1066a6b246efb7bd3", "lon": -77.04984583333334, "rental_uris": {"ios": "https://dc.lft.to/lastmile_qr_scan", "android": "https://dc.lft.to/lastmile_qr_scan"}}, {"name": "bdd854cac53d2f14a92606b9ded85bf9", "fusion_lat": 0.0, "type": "electric_scooter", "lat": 38.9339025, "is_reserved": 0, "is_disabled": 0, "fusion_lon": 0.0, "bike_id": "bdd854cac53d2f14a92606b9ded85bf9", "lon": -77.073868, "rental_uris": {"ios": "https://dc.lft.to/lastmile_qr_scan", "android": "https://dc.lft.to/lastmile_qr_scan"}}, {"name": "42dff57a51a7c11047ab66ee44261b6d", "fusion_lat": 0.0, "type": "electric_scooter", "lat": 38.894885, "is_reserved": 0, "is_disabled": 0, "fusion_lon": 0.0, "bike_id": "42dff57a51a7c11047ab66ee44261b6d", "lon": -77.0101455, "rental_uris": {"ios": "https://dc.lft.to/lastmile_qr_scan", "android": "https://dc.lft.to/lastmile_qr_scan"}}, {"name": "a4319ee21516cfbb1425f3e3d294cff2", "fusion_lat": 0.0, "type": "electric_scooter", "lat": 38.90267016666667, "is_reserved": 0, "is_disabled": 0, "fusion_lon": 0.0, "bike_id": "a4319ee21516cfbb1425f3e3d294cff2", "lon": -77.03814016666666, "rental_uris": {"ios": "https://dc.lft.to/lastmile_qr_scan", "android": "https://dc.lft.to/lastmile_qr_scan"}}, {"name": "cc0fde79b2b160d53d97ad2cfe7cdff9", "fusion_lat": 0.0, "type": "electric_scooter", "lat": 38.8625595, "is_reserved": 0, "is_disabled": 0, "fusion_lon": 0.0, "bike_id": "cc0fde79b2b160d53d97ad2cfe7cdff9", "lon": -76.98723966666667, "rental_uris": {"ios": "https://dc.lft.to/lastmile_qr_scan", "android": "https://dc.lft.to/lastmile_qr_scan"}}, {"name": "0bd9ac31e5b3d034a7afb15adf1f71cf", "fusion_lat": 0.0, "type": "electric_scooter", "lat": 38.90268833333333, "is_reserved": 0, "is_disabled": 0, "fusion_lon": 0.0, "bike_id": "0bd9ac31e5b3d034a7afb15adf1f71cf", "lon": -77.03836533333333, "rental_uris": {"ios": "https://dc.lft.to/lastmile_qr_scan", "android": "https://dc.lft.to/lastmile_qr_scan"}}, {"name": "8aaa31b3a3c435d604c9a6172f5c8f9b", "fusion_lat": 0.0, "type": "electric_scooter", "lat": 38.88395, "is_reserved": 0, "is_disabled": 0, "fusion_lon": 0.0, "bike_id": "8aaa31b3a3c435d604c9a6172f5c8f9b", "lon": -76.9304475, "rental_uris": {"ios": "https://dc.lft.to/lastmile_qr_scan", "android": "https://dc.lft.to/lastmile_qr_scan"}}, {"name": "4ecd349ce89e672f854dfc495385ac73", "fusion_lat": 0.0, "type": "electric_scooter", "lat": 38.93888966666667, "is_reserved": 0, "is_disabled": 0, "fusion_lon": 0.0, "bike_id": "4ecd349ce89e672f854dfc495385ac73", "lon": -77.02464516666667, "rental_uris": {"ios": "https://dc.lft.to/lastmile_qr_scan", "android": "https://dc.lft.to/lastmile_qr_scan"}}, {"name": "ace7ab6d756f7126de0c27cb1abf1ef2", "fusion_lat": 0.0, "type": "electric_scooter", "lat": 38.921703666666666, "is_reserved": 0, "is_disabled": 0, "fusion_lon": 0.0, "bike_id": "ace7ab6d756f7126de0c27cb1abf1ef2", "lon": -77.0332885, "rental_uris": {"ios": "https://dc.lft.to/lastmile_qr_scan", "android": "https://dc.lft.to/lastmile_qr_scan"}}, {"name": "8b1b2682fa95f0c82fa4ec5fe7638ea7", "fusion_lat": 0.0, "type": "electric_bike", "lat": 38.88618066666667, "is_reserved": 0, "is_disabled": 0, "fusion_lon": 0.0, "bike_id": "8b1b2682fa95f0c82fa4ec5fe7638ea7", "lon": -77.10755783333333, "rental_uris": {"ios": "https://dc.lft.to/lastmile_qr_scan", "android": "https://dc.lft.to/lastmile_qr_scan"}}, {"name": "8e836cd9a45256e0e41ea6234659d12c", "fusion_lat": 0.0, "type": "electric_scooter", "lat": 38.8875375, "is_reserved": 0, "is_disabled": 0, "fusion_lon": 0.0, "bike_id": "8e836cd9a45256e0e41ea6234659d12c", "lon": -76.97982333333333, "rental_uris": {"ios": "https://dc.lft.to/lastmile_qr_scan", "android": "https://dc.lft.to/lastmile_qr_scan"}}, {"name": "92a97accb80e05878b063a54193019eb", "fusion_lat": 0.0, "type": "electric_scooter", "lat": 38.9246225, "is_reserved": 0, "is_disabled": 0, "fusion_lon": 0.0, "bike_id": "92a97accb80e05878b063a54193019eb", "lon": -77.03137266666667, "rental_uris": {"ios": "https://dc.lft.to/lastmile_qr_scan", "android": "https://dc.lft.to/lastmile_qr_scan"}}, {"name": "4a4e005082b9b7e5abd71856272233c5", "fusion_lat": 0.0, "type": "electric_bike", "lat": 38.92213383333333, "is_reserved": 0, "is_disabled": 0, "fusion_lon": 0.0, "bike_id": "4a4e005082b9b7e5abd71856272233c5", "lon": -76.98798666666667, "rental_uris": {"ios": "https://dc.lft.to/lastmile_qr_scan", "android": "https://dc.lft.to/lastmile_qr_scan"}}, {"name": "24ff30348316b603ec6c955d409be0b9", "fusion_lat": 0.0, "type": "electric_scooter", "lat": 38.91256, "is_reserved": 0, "is_disabled": 0, "fusion_lon": 0.0, "bike_id": "24ff30348316b603ec6c955d409be0b9", "lon": -77.0076635, "rental_uris": {"ios": "https://dc.lft.to/lastmile_qr_scan", "android": "https://dc.lft.to/lastmile_qr_scan"}}, {"name": "280ef50efd5deb654e65d8fbb7575cf8", "fusion_lat": 0.0, "type": "electric_scooter", "lat": 38.9244305, "is_reserved": 0, "is_disabled": 0, "fusion_lon": 0.0, "bike_id": "280ef50efd5deb654e65d8fbb7575cf8", "lon": -77.02981183333333, "rental_uris": {"ios": "https://dc.lft.to/lastmile_qr_scan", "android": "https://dc.lft.to/lastmile_qr_scan"}}, {"name": "6759ff5bdba78203687a9d9cf19d8c69", "fusion_lat": 0.0, "type": "electric_scooter", "lat": 38.88353, "is_reserved": 0, "is_disabled": 0, "fusion_lon": 0.0, "bike_id": "6759ff5bdba78203687a9d9cf19d8c69", "lon": -76.94939133333334, "rental_uris": {"ios": "https://dc.lft.to/lastmile_qr_scan", "android": "https://dc.lft.to/lastmile_qr_scan"}}, {"name": "e56e2d3564e1149b376310695aceba03", "fusion_lat": 0.0, "type": "electric_scooter", "lat": 38.925607, "is_reserved": 0, "is_disabled": 0, "fusion_lon": 0.0, "bike_id": "e56e2d3564e1149b376310695aceba03", "lon": -77.062853, "rental_uris": {"ios": "https://dc.lft.to/lastmile_qr_scan", "android": "https://dc.lft.to/lastmile_qr_scan"}}, {"name": "be3855d7645fbb885ab8ae295d309d51", "fusion_lat": 0.0, "type": "electric_bike", "lat": 38.92853066666667, "is_reserved": 0, "is_disabled": 0, "fusion_lon": 0.0, "bike_id": "be3855d7645fbb885ab8ae295d309d51", "lon": -77.1067835, "rental_uris": {"ios": "https://dc.lft.to/lastmile_qr_scan", "android": "https://dc.lft.to/lastmile_qr_scan"}}, {"name": "83c7400fa2ec4266e0a1ac8eb936e269", "fusion_lat": 0.0, "type": "electric_scooter", "lat": 38.90269516666667, "is_reserved": 0, "is_disabled": 0, "fusion_lon": 0.0, "bike_id": "83c7400fa2ec4266e0a1ac8eb936e269", "lon": -77.0428015, "rental_uris": {"ios": "https://dc.lft.to/lastmile_qr_scan", "android": "https://dc.lft.to/lastmile_qr_scan"}}, {"name": "6345345987c61ff15a336f8115552674", "fusion_lat": 0.0, "type": "electric_scooter", "lat": 38.894858166666666, "is_reserved": 0, "is_disabled": 0, "fusion_lon": 0.0, "bike_id": "6345345987c61ff15a336f8115552674", "lon": -77.0108755, "rental_uris": {"ios": "https://dc.lft.to/lastmile_qr_scan", "android": "https://dc.lft.to/lastmile_qr_scan"}}, {"name": "3cd2488f53a42a038cf4d6d1c0cd1b09", "fusion_lat": 0.0, "type": "electric_scooter", "lat": 38.897234833333336, "is_reserved": 0, "is_disabled": 0, "fusion_lon": 0.0, "bike_id": "3cd2488f53a42a038cf4d6d1c0cd1b09", "lon": -77.04344683333333, "rental_uris": {"ios": "https://dc.lft.to/lastmile_qr_scan", "android": "https://dc.lft.to/lastmile_qr_scan"}}, {"name": "5b2cf4d8df3f209783a1d47bff64467b", "fusion_lat": 0.0, "type": "electric_scooter", "lat": 38.86370616666667, "is_reserved": 0, "is_disabled": 0, "fusion_lon": 0.0, "bike_id": "5b2cf4d8df3f209783a1d47bff64467b", "lon": -77.01363016666667, "rental_uris": {"ios": "https://dc.lft.to/lastmile_qr_scan", "android": "https://dc.lft.to/lastmile_qr_scan"}}, {"name": "15e6816a35879464e4bcf47aefc94363", "fusion_lat": 0.0, "type": "electric_scooter", "lat": 38.930615, "is_reserved": 0, "is_disabled": 0, "fusion_lon": 0.0, "bike_id": "15e6816a35879464e4bcf47aefc94363", "lon": -77.0232815, "rental_uris": {"ios": "https://dc.lft.to/lastmile_qr_scan", "android": "https://dc.lft.to/lastmile_qr_scan"}}, {"name": "0670d7b9df8292dd5906aa03569c017f", "fusion_lat": 0.0, "type": "electric_scooter", "lat": 38.908993833333334, "is_reserved": 0, "is_disabled": 0, "fusion_lon": 0.0, "bike_id": "0670d7b9df8292dd5906aa03569c017f", "lon": -77.032139, "rental_uris": {"ios": "https://dc.lft.to/lastmile_qr_scan", "android": "https://dc.lft.to/lastmile_qr_scan"}}, {"name": "a15369e9497bfc721f714dc9b51b8cf8", "fusion_lat": 0.0, "type": "electric_scooter", "lat": 38.89726733333333, "is_reserved": 0, "is_disabled": 0, "fusion_lon": 0.0, "bike_id": "a15369e9497bfc721f714dc9b51b8cf8", "lon": -77.047669, "rental_uris": {"ios": "https://dc.lft.to/lastmile_qr_scan", "android": "https://dc.lft.to/lastmile_qr_scan"}}, {"name": "bf04060bf2fed2da93afec4661d8aee5", "fusion_lat": 0.0, "type": "electric_scooter", "lat": 38.93462566666667, "is_reserved": 0, "is_disabled": 0, "fusion_lon": 0.0, "bike_id": "bf04060bf2fed2da93afec4661d8aee5", "lon": -77.08633633333334, "rental_uris": {"ios": "https://dc.lft.to/lastmile_qr_scan", "android": "https://dc.lft.to/lastmile_qr_scan"}}, {"name": "a4d0d61885cd4e0614dff83cc47c0ccf", "fusion_lat": 0.0, "type": "electric_scooter", "lat": 38.88776883333333, "is_reserved": 0, "is_disabled": 0, "fusion_lon": 0.0, "bike_id": "a4d0d61885cd4e0614dff83cc47c0ccf", "lon": -76.95533283333333, "rental_uris": {"ios": "https://dc.lft.to/lastmile_qr_scan", "android": "https://dc.lft.to/lastmile_qr_scan"}}, {"name": "c264ee6c2f58be3dedc8c39c5c3928d6", "fusion_lat": 0.0, "type": "electric_scooter", "lat": 38.9055735, "is_reserved": 0, "is_disabled": 0, "fusion_lon": 0.0, "bike_id": "c264ee6c2f58be3dedc8c39c5c3928d6", "lon": -77.022312, "rental_uris": {"ios": "https://dc.lft.to/lastmile_qr_scan", "android": "https://dc.lft.to/lastmile_qr_scan"}}, {"name": "fb00625e7e424bdc494e17b0ce1eba85", "fusion_lat": 0.0, "type": "electric_scooter", "lat": 38.91272, "is_reserved": 0, "is_disabled": 0, "fusion_lon": 0.0, "bike_id": "fb00625e7e424bdc494e17b0ce1eba85", "lon": -77.04506216666667, "rental_uris": {"ios": "https://dc.lft.to/lastmile_qr_scan", "android": "https://dc.lft.to/lastmile_qr_scan"}}, {"name": "7245eacdf76b9fa09c4aa576f3977b32", "fusion_lat": 0.0, "type": "electric_scooter", "lat": 38.9082455, "is_reserved": 0, "is_disabled": 0, "fusion_lon": 0.0, "bike_id": "7245eacdf76b9fa09c4aa576f3977b32", "lon": -77.03199683333334, "rental_uris": {"ios": "https://dc.lft.to/lastmile_qr_scan", "android": "https://dc.lft.to/lastmile_qr_scan"}}, {"name": "15f6b1f6d38189eb7b8ad1137221fee1", "fusion_lat": 0.0, "type": "electric_scooter", "lat": 38.8995115, "is_reserved": 0, "is_disabled": 0, "fusion_lon": 0.0, "bike_id": "15f6b1f6d38189eb7b8ad1137221fee1", "lon": -77.0526705, "rental_uris": {"ios": "https://dc.lft.to/lastmile_qr_scan", "android": "https://dc.lft.to/lastmile_qr_scan"}}, {"name": "f9cc938572ae22f6bf0b3d32132511e1", "fusion_lat": 0.0, "type": "electric_scooter", "lat": 38.903504166666664, "is_reserved": 0, "is_disabled": 0, "fusion_lon": 0.0, "bike_id": "f9cc938572ae22f6bf0b3d32132511e1", "lon": -77.052429, "rental_uris": {"ios": "https://dc.lft.to/lastmile_qr_scan", "android": "https://dc.lft.to/lastmile_qr_scan"}}, {"name": "a34149525aa7376a513ae3cad23bca46", "fusion_lat": 0.0, "type": "electric_scooter", "lat": 38.92006766666667, "is_reserved": 0, "is_disabled": 0, "fusion_lon": 0.0, "bike_id": "a34149525aa7376a513ae3cad23bca46", "lon": -76.98494466666666, "rental_uris": {"ios": "https://dc.lft.to/lastmile_qr_scan", "android": "https://dc.lft.to/lastmile_qr_scan"}}, {"name": "90be7279984a7a5f35ce51fc232f2f1e", "fusion_lat": 0.0, "type": "electric_scooter", "lat": 38.94229883333333, "is_reserved": 0, "is_disabled": 0, "fusion_lon": 0.0, "bike_id": "90be7279984a7a5f35ce51fc232f2f1e", "lon": -77.07681266666667, "rental_uris": {"ios": "https://dc.lft.to/lastmile_qr_scan", "android": "https://dc.lft.to/lastmile_qr_scan"}}, {"name": "53d8bf14aff3b640d4e792fe57c8d9bf", "fusion_lat": 0.0, "type": "electric_scooter", "lat": 38.90235833333333, "is_reserved": 0, "is_disabled": 0, "fusion_lon": 0.0, "bike_id": "53d8bf14aff3b640d4e792fe57c8d9bf", "lon": -77.00198116666667, "rental_uris": {"ios": "https://dc.lft.to/lastmile_qr_scan", "android": "https://dc.lft.to/lastmile_qr_scan"}}, {"name": "5bc95536b8402f84470cb71217ee93fb", "fusion_lat": 0.0, "type": "electric_bike", "lat": 38.850635833333335, "is_reserved": 0, "is_disabled": 0, "fusion_lon": 0.0, "bike_id": "5bc95536b8402f84470cb71217ee93fb", "lon": -76.9732595, "rental_uris": {"ios": "https://dc.lft.to/lastmile_qr_scan", "android": "https://dc.lft.to/lastmile_qr_scan"}}, {"name": "af56ecd81c37842aeb70ae677c1d193b", "fusion_lat": 0.0, "type": "electric_bike", "lat": 38.89823716666667, "is_reserved": 0, "is_disabled": 0, "fusion_lon": 0.0, "bike_id": "af56ecd81c37842aeb70ae677c1d193b", "lon": -77.00596233333333, "rental_uris": {"ios": "https://dc.lft.to/lastmile_qr_scan", "android": "https://dc.lft.to/lastmile_qr_scan"}}, {"name": "a58cbd8175a40673a44f251a5ea50a08", "fusion_lat": 0.0, "type": "electric_scooter", "lat": 38.906797, "is_reserved": 0, "is_disabled": 0, "fusion_lon": 0.0, "bike_id": "a58cbd8175a40673a44f251a5ea50a08", "lon": -77.03194266666667, "rental_uris": {"ios": "https://dc.lft.to/lastmile_qr_scan", "android": "https://dc.lft.to/lastmile_qr_scan"}}, {"name": "0d10c2ea9d56712faebd60d2a3b9730d", "fusion_lat": 0.0, "type": "electric_scooter", "lat": 38.90574866666667, "is_reserved": 0, "is_disabled": 0, "fusion_lon": 0.0, "bike_id": "0d10c2ea9d56712faebd60d2a3b9730d", "lon": -77.032678, "rental_uris": {"ios": "https://dc.lft.to/lastmile_qr_scan", "android": "https://dc.lft.to/lastmile_qr_scan"}}, {"name": "a7d21a18163269194371d8f9460145b4", "fusion_lat": 0.0, "type": "electric_scooter", "lat": 38.92537033333333, "is_reserved": 0, "is_disabled": 0, "fusion_lon": 0.0, "bike_id": "a7d21a18163269194371d8f9460145b4", "lon": -77.02642883333333, "rental_uris": {"ios": "https://dc.lft.to/lastmile_qr_scan", "android": "https://dc.lft.to/lastmile_qr_scan"}}, {"name": "9f35ddc04647e3a2effaee8470e0f941", "fusion_lat": 0.0, "type": "electric_scooter", "lat": 38.9161165, "is_reserved": 0, "is_disabled": 0, "fusion_lon": 0.0, "bike_id": "9f35ddc04647e3a2effaee8470e0f941", "lon": -77.02296016666666, "rental_uris": {"ios": "https://dc.lft.to/lastmile_qr_scan", "android": "https://dc.lft.to/lastmile_qr_scan"}}, {"name": "923ec3fc7038c7f4d1ec4f37bc87c49b", "fusion_lat": 0.0, "type": "electric_scooter", "lat": 38.922397833333335, "is_reserved": 0, "is_disabled": 0, "fusion_lon": 0.0, "bike_id": "923ec3fc7038c7f4d1ec4f37bc87c49b", "lon": -77.03904616666667, "rental_uris": {"ios": "https://dc.lft.to/lastmile_qr_scan", "android": "https://dc.lft.to/lastmile_qr_scan"}}, {"name": "1fce8059e6567275b0c460416400845a", "fusion_lat": 0.0, "type": "electric_scooter", "lat": 38.91368816666667, "is_reserved": 0, "is_disabled": 0, "fusion_lon": 0.0, "bike_id": "1fce8059e6567275b0c460416400845a", "lon": -77.0455055, "rental_uris": {"ios": "https://dc.lft.to/lastmile_qr_scan", "android": "https://dc.lft.to/lastmile_qr_scan"}}, {"name": "e7d1db79e8dcf6f0ad8686e2b2dc8a68", "fusion_lat": 0.0, "type": "electric_scooter", "lat": 38.92344816666667, "is_reserved": 0, "is_disabled": 0, "fusion_lon": 0.0, "bike_id": "e7d1db79e8dcf6f0ad8686e2b2dc8a68", "lon": -77.05099933333334, "rental_uris": {"ios": "https://dc.lft.to/lastmile_qr_scan", "android": "https://dc.lft.to/lastmile_qr_scan"}}, {"name": "b6eba2c6c65c5ea471a26eafee5433ab", "fusion_lat": 0.0, "type": "electric_scooter", "lat": 38.89124983333333, "is_reserved": 0, "is_disabled": 0, "fusion_lon": 0.0, "bike_id": "b6eba2c6c65c5ea471a26eafee5433ab", "lon": -76.99162066666666, "rental_uris": {"ios": "https://dc.lft.to/lastmile_qr_scan", "android": "https://dc.lft.to/lastmile_qr_scan"}}, {"name": "e441db8b7c3b95a65276ca50b6801de0", "fusion_lat": 0.0, "type": "electric_scooter", "lat": 38.90326866666667, "is_reserved": 0, "is_disabled": 0, "fusion_lon": 0.0, "bike_id": "e441db8b7c3b95a65276ca50b6801de0", "lon": -77.03626283333334, "rental_uris": {"ios": "https://dc.lft.to/lastmile_qr_scan", "android": "https://dc.lft.to/lastmile_qr_scan"}}, {"name": "c5c916daafb2ba8b06be49fb480644ca", "fusion_lat": 0.0, "type": "electric_scooter", "lat": 38.93776483333333, "is_reserved": 0, "is_disabled": 0, "fusion_lon": 0.0, "bike_id": "c5c916daafb2ba8b06be49fb480644ca", "lon": -77.0326, "rental_uris": {"ios": "https://dc.lft.to/lastmile_qr_scan", "android": "https://dc.lft.to/lastmile_qr_scan"}}, {"name": "5c3dd64a1bf8ceba0ecad6c042242b02", "fusion_lat": 0.0, "type": "electric_scooter", "lat": 38.91644683333333, "is_reserved": 0, "is_disabled": 0, "fusion_lon": 0.0, "bike_id": "5c3dd64a1bf8ceba0ecad6c042242b02", "lon": -77.0230115, "rental_uris": {"ios": "https://dc.lft.to/lastmile_qr_scan", "android": "https://dc.lft.to/lastmile_qr_scan"}}, {"name": "75a7255e9ea725aa372c3ac7d8e0a031", "fusion_lat": 0.0, "type": "electric_scooter", "lat": 38.92282866666667, "is_reserved": 0, "is_disabled": 0, "fusion_lon": 0.0, "bike_id": "75a7255e9ea725aa372c3ac7d8e0a031", "lon": -77.0366485, "rental_uris": {"ios": "https://dc.lft.to/lastmile_qr_scan", "android": "https://dc.lft.to/lastmile_qr_scan"}}, {"name": "26684aa33f5feb2e66b2057777d0137d", "fusion_lat": 0.0, "type": "electric_scooter", "lat": 38.909573333333334, "is_reserved": 0, "is_disabled": 0, "fusion_lon": 0.0, "bike_id": "26684aa33f5feb2e66b2057777d0137d", "lon": -77.01137283333334, "rental_uris": {"ios": "https://dc.lft.to/lastmile_qr_scan", "android": "https://dc.lft.to/lastmile_qr_scan"}}, {"name": "d98ba03c09c2af4b36b43f18d9584d87", "fusion_lat": 0.0, "type": "electric_bike", "lat": 38.94604016666667, "is_reserved": 0, "is_disabled": 0, "fusion_lon": 0.0, "bike_id": "d98ba03c09c2af4b36b43f18d9584d87", "lon": -77.02981883333334, "rental_uris": {"ios": "https://dc.lft.to/lastmile_qr_scan", "android": "https://dc.lft.to/lastmile_qr_scan"}}, {"name": "9cc5ef1fcc04648ff7caa1faa3650aba", "fusion_lat": 0.0, "type": "electric_scooter", "lat": 38.910344333333335, "is_reserved": 0, "is_disabled": 0, "fusion_lon": 0.0, "bike_id": "9cc5ef1fcc04648ff7caa1faa3650aba", "lon": -77.02393183333334, "rental_uris": {"ios": "https://dc.lft.to/lastmile_qr_scan", "android": "https://dc.lft.to/lastmile_qr_scan"}}, {"name": "308fba915ae788bab20a0eb426718bbb", "fusion_lat": 0.0, "type": "electric_bike", "lat": 38.8541165, "is_reserved": 0, "is_disabled": 0, "fusion_lon": 0.0, "bike_id": "308fba915ae788bab20a0eb426718bbb", "lon": -77.11823666666666, "rental_uris": {"ios": "https://dc.lft.to/lastmile_qr_scan", "android": "https://dc.lft.to/lastmile_qr_scan"}}, {"name": "17f4bb234759db4f373f04d4e306a011", "fusion_lat": 0.0, "type": "electric_scooter", "lat": 38.920723833333334, "is_reserved": 0, "is_disabled": 0, "fusion_lon": 0.0, "bike_id": "17f4bb234759db4f373f04d4e306a011", "lon": -77.02216016666667, "rental_uris": {"ios": "https://dc.lft.to/lastmile_qr_scan", "android": "https://dc.lft.to/lastmile_qr_scan"}}, {"name": "f02a10c6869f058155995ca3c247ee88", "fusion_lat": 0.0, "type": "electric_scooter", "lat": 38.89765333333333, "is_reserved": 0, "is_disabled": 0, "fusion_lon": 0.0, "bike_id": "f02a10c6869f058155995ca3c247ee88", "lon": -76.97723633333334, "rental_uris": {"ios": "https://dc.lft.to/lastmile_qr_scan", "android": "https://dc.lft.to/lastmile_qr_scan"}}, {"name": "a6ea76fdc164cac82c015527ac762ca9", "fusion_lat": 0.0, "type": "electric_scooter", "lat": 38.944357833333335, "is_reserved": 0, "is_disabled": 0, "fusion_lon": 0.0, "bike_id": "a6ea76fdc164cac82c015527ac762ca9", "lon": -77.032825, "rental_uris": {"ios": "https://dc.lft.to/lastmile_qr_scan", "android": "https://dc.lft.to/lastmile_qr_scan"}}, {"name": "202898d57a82bb52d0b9f72535b83620", "fusion_lat": 0.0, "type": "electric_scooter", "lat": 38.9372895, "is_reserved": 0, "is_disabled": 0, "fusion_lon": 0.0, "bike_id": "202898d57a82bb52d0b9f72535b83620", "lon": -77.03273466666667, "rental_uris": {"ios": "https://dc.lft.to/lastmile_qr_scan", "android": "https://dc.lft.to/lastmile_qr_scan"}}, {"name": "2c077e419e2e4f6aef59590f415f9596", "fusion_lat": 0.0, "type": "electric_bike", "lat": 38.91758566666667, "is_reserved": 0, "is_disabled": 0, "fusion_lon": 0.0, "bike_id": "2c077e419e2e4f6aef59590f415f9596", "lon": -77.01607333333334, "rental_uris": {"ios": "https://dc.lft.to/lastmile_qr_scan", "android": "https://dc.lft.to/lastmile_qr_scan"}},