{"data": {"bikes": [{"bike_id": "7cecf0b13258cef285c35f8f07a48502", "lon": -77.0430135, "lat": 38.923037, "fusion_lon": 0.0, "rental_uris": {"ios": "https://dc.lft.to/lastmile_qr_scan", "android": "https://dc.lft.to/lastmile_qr_scan"}, "is_disabled": 0, "is_reserved": 0, "name": "7cecf0b13258cef285c35f8f07a48502", "type": "electric_scooter", "fusion_lat": 0.0}, {"bike_id": "99c90a02bea39294d04c81d7884696ad", "lon": -77.022787, "lat": 38.90862933333333, "fusion_lon": 0.0, "rental_uris": {"ios": "https://dc.lft.to/lastmile_qr_scan", "android": "https://dc.lft.to/lastmile_qr_scan"}, "is_disabled": 0, "is_reserved": 0, "name": "99c90a02bea39294d04c81d7884696ad", "type": "electric_scooter", "fusion_lat": 0.0}, {"bike_id": "2c8ff6626d35a3bab1d39d7120780168", "lon": -77.03080516666667, "lat": 38.90749016666667, "fusion_lon": 0.0, "rental_uris": {"ios": "https://dc.lft.to/lastmile_qr_scan", "android": "https://dc.lft.to/lastmile_qr_scan"}, "is_disabled": 0, "is_reserved": 0, "name": "2c8ff6626d35a3bab1d39d7120780168", "type": "electric_scooter", "fusion_lat": 0.0}, {"bike_id": "859f7537f32d1c73d70de91aa957ad1a", "lon": -76.98162533333333, "lat": 38.89613816666667, "fusion_lon": 0.0, "rental_uris": {"ios": "https://dc.lft.to/lastmile_qr_scan", "android": "https://dc.lft.to/lastmile_qr_scan"}, "is_disabled": 0, "is_reserved": 0, "name": "859f7537f32d1c73d70de91aa957ad1a", "type": "electric_scooter", "fusion_lat": 0.0}, {"bike_id": "66fe58aa3a504e737af5b659f753f4dc", "lon": -76.99817916666666, "lat": 38.907169, "fusion_lon": 0.0, "rental_uris": {"ios": "https://dc.lft.to/lastmile_qr_scan", "android": "https://dc.lft.to/lastmile_qr_scan"}, "is_disabled": 0, "is_reserved": 0, "name": "66fe58aa3a504e737af5b659f753f4dc", "type": "electric_scooter", "fusion_lat": 0.0}, {"bike_id": "349cec8fc5a326114988d3f5ab42a072", "lon": -76.954466, "lat": 38.8838765, "fusion_lon": 0.0, "rental_uris": {"ios": "https://dc.lft.to/lastmile_qr_scan", "android": "https://dc.lft.to/lastmile_qr_scan"}, "is_disabled": 0, "is_reserved": 0, "name": "349cec8fc5a326114988d3f5ab42a072", "type": "electric_scooter", "fusion_lat": 0.0}, {"bike_id": "8b18b098220598c8d4deeb5576fc80eb", "lon": -77.04666333333333, "lat": 38.90203416666667, "fusion_lon": 0.0, "rental_uris": {"ios": "https://dc.lft.to/lastmile_qr_scan", "android": "https://dc.lft.to/lastmile_qr_scan"}, "is_disabled": 0, "is_reserved": 0, "name": "8b18b098220598c8d4deeb5576fc80eb", "type": "electric_scooter", "fusion_lat": 0.0}, {"bike_id": "515e9281784ca4f2be1b101a54d8f977", "lon": -77.04266533333333, "lat": 38.922948833333336, "fusion_lon": 0.0, "rental_uris": {"ios": "https://dc.lft.to/lastmile_qr_scan", "android": "https://dc.lft.to/lastmile_qr_scan"}, "is_disabled": 0, "is_reserved": 0, "name": "515e9281784ca4f2be1b101a54d8f977", "type": "electric_scooter", "fusion_lat": 0.0}, {"bike_id": "71e0bd60a4cd2287775ad9ed40add135", "lon": -77.02351683333333, "lat": 38.9250145, "fusion_lon": 0.0, "rental_uris": {"ios": "https://dc.lft.to/lastmile_qr_scan", "android": "https://dc.lft.to/lastmile_qr_scan"}, "is_disabled": 0, "is_reserved": 0, "name": "71e0bd60a4cd2287775ad9ed40add135", "type": "electric_scooter", "fusion_lat": 0.0}, {"bike_id": "a038adc025d5ef0967c162aa31688866", "lon": -77.02655816666666, "lat": 38.88470616666667, "fusion_lon": 0.0, "rental_uris": {"ios": "https://dc.lft.to/lastmile_qr_scan", "android": "https://dc.lft.to/lastmile_qr_scan"}, "is_disabled": 0, "is_reserved": 0, "name": "a038adc025d5ef0967c162aa31688866", "type": "electric_scooter", "fusion_lat": 0.0}, {"bike_id": "fdabd58fe3fb4bda6199218ebcffa30c", "lon": -76.99621983333333, "lat": 38.881348, "fusion_lon": 0.0, "rental_uris": {"ios": "https://dc.lft.to/lastmile_qr_scan", "android": "https://dc.lft.to/lastmile_qr_scan"}, "is_disabled": 0, "is_reserved": 0, "name": "fdabd58fe3fb4bda6199218ebcffa30c", "type": "electric_scooter", "fusion_lat": 0.0}, {"bike_id": "a510ed659f9065e444791415d56bca0f", "lon": -77.02614166666666, "lat": 38.95183433333333, "fusion_lon": 0.0, "rental_uris": {"ios": "https://dc.lft.to/lastmile_qr_scan", "android": "https://dc.lft.to/lastmile_qr_scan"}, "is_disabled": 0, "is_reserved": 0, "name": "a510ed659f9065e444791415d56bca0f", "type": "electric_scooter", "fusion_lat": 0.0}, {"bike_id": "e8d833d30bbfb383a0c38e85a6621779", "lon": -77.038197, "lat": 38.90775683333333, "fusion_lon": 0.0, "rental_uris": {"ios": "https://dc.lft.to/lastmile_qr_scan", "android": "https://dc.lft.to/lastmile_qr_scan"}, "is_disabled": 0, "is_reserved": 0, "name": "e8d833d30bbfb383a0c38e85a6621779", "type": "electric_scooter", "fusion_lat": 0.0}, {"bike_id": "00a229567b43e27387bd61911f50d6af", "lon": -77.0558565, "lat": 38.899953, "fusion_lon": 0.0, "rental_uris": {"ios": "https://dc.lft.to/lastmile_qr_scan", "android": "https://dc.lft.to/lastmile_qr_scan"}, "is_disabled": 0, "is_reserved": 0, "name": "00a229567b43e27387bd61911f50d6af", "type": "electric_scooter", "fusion_lat": 0.0}, {"bike_id": "34e39dd4a465c09bfce532924563aee4", "lon": -77.05491083333334, "lat": 38.89361683333333, "fusion_lon": 0.0, "rental_uris": {"ios": "https://dc.lft.to/lastmile_qr_scan", "android": "https://dc.lft.to/lastmile_qr_scan"}, "is_disabled": 0, "is_reserved": 0, "name": "34e39dd4a465c09bfce532924563aee4", "type": "electric_scooter", "fusion_lat": 0.0}, {"bike_id": "0bf833a0d9b239ab58f948181d8c9ab2", "lon": -77.01738966666667, "lat": 38.87720633333333, "fusion_lon": 0.0, "rental_uris": {"ios": "https://dc.lft.to/lastmile_qr_scan", "android": "https://dc.lft.to/lastmile_qr_scan"}, "is_disabled": 0, "is_reserved": 0, "name": "0bf833a0d9b239ab58f948181d8c9ab2", "type": "electric_scooter", "fusion_lat": 0.0}, {"bike_id": "5fdb36241a146a8b7ca70ab8bda149f9", "lon": -77.03420433333334, "lat": 38.909564, "fusion_lon": 0.0, "rental_uris": {"ios": "https://dc.lft.to/lastmile_qr_scan", "android": "https://dc.lft.to/lastmile_qr_scan"}, "is_disabled": 0, "is_reserved": 0, "name": "5fdb36241a146a8b7ca70ab8bda149f9", "type": "electric_scooter", "fusion_lat": 0.0}, {"bike_id": "1d4ab19f9aa89c497c4f3d984135d03d", "lon": -77.03217066666667, "lat": 38.91999466666667, "fusion_lon": 0.0, "rental_uris": {"ios": "https://dc.lft.to/lastmile_qr_scan", "android": "https://dc.lft.to/lastmile_qr_scan"}, "is_disabled": 0, "is_reserved": 0, "name": "1d4ab19f9aa89c497c4f3d984135d03d", "type": "electric_scooter", "fusion_lat": 0.0}, {"bike_id": "1bfad6f18cdb22b6573f60dc0a1c22db", "lon": -77.02987683333333, "lat": 38.92053033333333, "fusion_lon": 0.0, "rental_uris": {"ios": "https://dc.lft.to/lastmile_qr_scan", "android": "https://dc.lft.to/lastmile_qr_scan"}, "is_disabled": 0, "is_reserved": 0, "name": "1bfad6f18cdb22b6573f60dc0a1c22db", "type": "electric_scooter", "fusion_lat": 0.0}, {"bike_id": "04b65c146580413886029973f561c07b", "lon": -77.03147933333334, "lat": 38.9141545, "fusion_lon": 0.0, "rental_uris": {"ios": "https://dc.lft.to/lastmile_qr_scan", "android": "https://dc.lft.to/lastmile_qr_scan"}, "is_disabled": 0, "is_reserved": 0, "name": "04b65c146580413886029973f561c07b", "type": "electric_scooter", "fusion_lat": 0.0}, {"bike_id": "4d008114932cf4a8e3087919f53acc1a", "lon": -77.04245483333334, "lat": 38.921783166666664, "fusion_lon": 0.0, "rental_uris": {"ios": "https://dc.lft.to/lastmile_qr_scan", "android": "https://dc.lft.to/lastmile_qr_scan"}, "is_disabled": 0, "is_reserved": 0, "name": "4d008114932cf4a8e3087919f53acc1a", "type": "electric_scooter", "fusion_lat": 0.0}, {"bike_id": "db69f8b9322c8b19843f51ef7f6fa9ed", "lon": -77.09464983333334, "lat": 38.8076315, "fusion_lon": 0.0, "rental_uris": {"ios": "https://dc.lft.to/lastmile_qr_scan", "android": "https://dc.lft.to/lastmile_qr_scan"}, "is_disabled": 0, "is_reserved": 0, "name": "db69f8b9322c8b19843f51ef7f6fa9ed", "type": "electric_bike", "fusion_lat": 0.0}, {"bike_id": "32c87e247782a035e6bc3c60b2332906", "lon": -77.02488066666666, "lat": 38.94179283333333, "fusion_lon": 0.0, "rental_uris": {"ios": "https://dc.lft.to/lastmile_qr_scan", "android": "https://dc.lft.to/lastmile_qr_scan"}, "is_disabled": 0, "is_reserved": 0, "name": "32c87e247782a035e6bc3c60b2332906", "type": "electric_scooter", "fusion_lat": 0.0}, {"bike_id": "29b1189de90afe1e624c5a08916bf0c1", "lon": -77.021707, "lat": 38.94619433333333, "fusion_lon": 0.0, "rental_uris": {"ios": "https://dc.lft.to/lastmile_qr_scan", "android": "https://dc.lft.to/lastmile_qr_scan"}, "is_disabled": 0, "is_reserved": 0, "name": "29b1189de90afe1e624c5a08916bf0c1", "type": "electric_scooter", "fusion_lat": 0.0}, {"bike_id": "f8c982eaad698b083a7348532cbbc99d", "lon": -77.11577283333334, "lat": 38.993439333333335, "fusion_lon": 0.0, "rental_uris": {"ios": "https://dc.lft.to/lastmile_qr_scan", "android": "https://dc.lft.to/lastmile_qr_scan"}, "is_disabled": 0, "is_reserved": 0, "name": "f8c982eaad698b083a7348532cbbc99d", "type": "electric_bike", "fusion_lat": 0.0}, {"bike_id": "dffb6376d3b53911f8de04eebd210901", "lon": -77.02065933333333, "lat": 38.92718216666667, "fusion_lon": 0.0, "rental_uris": {"ios": "https://dc.lft.to/lastmile_qr_scan", "android": "https://dc.lft.to/lastmile_qr_scan"}, "is_disabled": 0, "is_reserved": 0, "name": "dffb6376d3b53911f8de04eebd210901", "type": "electric_scooter", "fusion_lat": 0.0}, {"bike_id": "3ddc13354aaf719f25adcb41fc8e7463", "lon": -76.980831, "lat": 38.87009183333333, "fusion_lon": 0.0, "rental_uris": {"ios": "https://dc.lft.to/lastmile_qr_scan", "android": "https://dc.lft.to/lastmile_qr_scan"}, "is_disabled": 0, "is_reserved": 0, "name": "3ddc13354aaf719f25adcb41fc8e7463", "type": "electric_scooter", "fusion_lat": 0.0}, {"bike_id": "18fccc2266139f97a385f1f02ef7397a", "lon": -77.03182316666667, "lat": 38.924862166666664, "fusion_lon": 0.0, "rental_uris": {"ios": "https://dc.lft.to/lastmile_qr_scan", "android": "https://dc.lft.to/lastmile_qr_scan"}, "is_disabled": 0, "is_reserved": 0, "name": "18fccc2266139f97a385f1f02ef7397a", "type": "electric_scooter", "fusion_lat": 0.0}, {"bike_id": "36ff443b380ba65f460283476c7358a4", "lon": -77.0315265, "lat": 38.91418816666667, "fusion_lon": 0.0, "rental_uris": {"ios": "https://dc.lft.to/lastmile_qr_scan", "android": "https://dc.lft.to/lastmile_qr_scan"}, "is_disabled": 0, "is_reserved": 0, "name": "36ff443b380ba65f460283476c7358a4", "type": "electric_scooter", "fusion_lat": 0.0}, {"bike_id": "bcab376e8bfc04ab8c23dd03e2473492", "lon": -77.01294883333334, "lat": 38.91262866666667, "fusion_lon": 0.0, "rental_uris": {"ios": "https://dc.lft.to/lastmile_qr_scan", "android": "https://dc.lft.to/lastmile_qr_scan"}, "is_disabled": 0, "is_reserved": 0, "name": "bcab376e8bfc04ab8c23dd03e2473492", "type": "electric_scooter", "fusion_lat": 0.0}, {"bike_id": "52cfecc6c7e63456d78745c96b6bafe3", "lon": -77.01856466666666, "lat": 38.973674333333335, "fusion_lon": 0.0, "rental_uris": {"ios": "https://dc.lft.to/lastmile_qr_scan", "android": "https://dc.lft.to/lastmile_qr_scan"}, "is_disabled": 0, "is_reserved": 0, "name": "52cfecc6c7e63456d78745c96b6bafe3", "type": "electric_scooter", "fusion_lat": 0.0}, {"bike_id": "c1e7bda644913e59a752775d061c4888", "lon": -77.0336295, "lat": 38.945144666666664, "fusion_lon": 0.0, "rental_uris": {"ios": "https://dc.lft.to/lastmile_qr_scan", "android": "https://dc.lft.to/lastmile_qr_scan"}, "is_disabled": 0, "is_reserved": 0, "name": "c1e7bda644913e59a752775d061c4888", "type": "electric_scooter", "fusion_lat": 0.0}, {"bike_id": "dd57828042d21ae529db2a532815fb96", "lon": -77.03206166666666, "lat": 38.892404, "fusion_lon": 0.0, "rental_uris": {"ios": "https://dc.lft.to/lastmile_qr_scan", "android": "https://dc.lft.to/lastmile_qr_scan"}, "is_disabled": 0, "is_reserved": 0, "name": "dd57828042d21ae529db2a532815fb96", "type": "electric_scooter", "fusion_lat": 0.0}, {"bike_id": "2656aa5ede163e385a5bbdf7870618f7", "lon": -77.0031895, "lat": 38.87651833333334, "fusion_lon": 0.0, "rental_uris": {"ios": "https://dc.lft.to/lastmile_qr_scan", "android": "https://dc.lft.to/lastmile_qr_scan"}, "is_disabled": 0, "is_reserved": 0, "name": "2656aa5ede163e385a5bbdf7870618f7", "type": "electric_scooter", "fusion_lat": 0.0}, {"bike_id": "5163542141d4f9c8d61695a42a893d44", "lon": -77.0412045, "lat": 38.91627733333333, "fusion_lon": 0.0, "rental_uris": {"ios": "https://dc.lft.to/lastmile_qr_scan", "android": "https://dc.lft.to/lastmile_qr_scan"}, "is_disabled": 0, "is_reserved": 0, "name": "5163542141d4f9c8d61695a42a893d44", "type": "electric_scooter", "fusion_lat": 0.0}, {"bike_id": "6a6190b3e3dc6068f6c1560b2ad4f8dd", "lon": -77.03886116666666, "lat": 38.92014116666667, "fusion_lon": 0.0, "rental_uris": {"ios": "https://dc.lft.to/lastmile_qr_scan", "android": "https://dc.lft.to/lastmile_qr_scan"}, "is_disabled": 0, "is_reserved": 0, "name": "6a6190b3e3dc6068f6c1560b2ad4f8dd", "type": "electric_scooter", "fusion_lat": 0.0}, {"bike_id": "67fd2baebcc138720a3fccafef51508c", "lon": -77.04699683333334, "lat": 38.902618333333336, "fusion_lon": 0.0, "rental_uris": {"ios": "https://dc.lft.to/lastmile_qr_scan", "android": "https://dc.lft.to/lastmile_qr_scan"}, "is_disabled": 0, "is_reserved": 0, "name": "67fd2baebcc138720a3fccafef51508c", "type": "electric_scooter", "fusion_lat": 0.0}, {"bike_id": "74e1e5cc91aca757e41684599a7e0588", "lon": -77.0322195, "lat": 38.914036, "fusion_lon": 0.0, "rental_uris": {"ios": "https://dc.lft.to/lastmile_qr_scan", "android": "https://dc.lft.to/lastmile_qr_scan"}, "is_disabled": 0, "is_reserved": 0, "name": "74e1e5cc91aca757e41684599a7e0588", "type": "electric_scooter", "fusion_lat": 0.0}, {"bike_id": "456979ebd8e135646ce4916165d5a6bf", "lon": -77.0359125, "lat": 38.93671066666667, "fusion_lon": 0.0, "rental_uris": {"ios": "https://dc.lft.to/lastmile_qr_scan", "android": "https://dc.lft.to/lastmile_qr_scan"}, "is_disabled": 0, "is_reserved": 0, "name": "456979ebd8e135646ce4916165d5a6bf", "type": "electric_scooter", "fusion_lat": 0.0}, {"bike_id": "712f1e5e21c302ace8941884d34b1c94", "lon": -77.02964516666667, "lat": 38.916517999999996, "fusion_lon": 0.0, "rental_uris": {"ios": "https://dc.lft.to/lastmile_qr_scan", "android": "https://dc.lft.to/lastmile_qr_scan"}, "is_disabled": 0, "is_reserved": 0, "name": "712f1e5e21c302ace8941884d34b1c94", "type": "electric_scooter", "fusion_lat": 0.0}, {"bike_id": "b691c686fcca39c7c1255554d78cccff", "lon": -77.0344015, "lat": 38.917966166666666, "fusion_lon": 0.0, "rental_uris": {"ios": "https://dc.lft.to/lastmile_qr_scan", "android": "https://dc.lft.to/lastmile_qr_scan"}, "is_disabled": 0, "is_reserved": 0, "name": "b691c686fcca39c7c1255554d78cccff", "type": "electric_scooter", "fusion_lat": 0.0}, {"bike_id": "10b0d39485eab079a309e86e4f1cc81d", "lon": -77.05479016666666, "lat": 38.800149, "fusion_lon": 0.0, "rental_uris": {"ios": "https://dc.lft.to/lastmile_qr_scan", "android": "https://dc.lft.to/lastmile_qr_scan"}, "is_disabled": 0, "is_reserved": 0, "name": "10b0d39485eab079a309e86e4f1cc81d", "type": "electric_bike", "fusion_lat": 0.0}, {"bike_id": "5f642643fcdc1cdc72e3173823f4695f", "lon": -77.01614433333333, "lat": 38.903302333333336, "fusion_lon": 0.0, "rental_uris": {"ios": "https://dc.lft.to/lastmile_qr_scan", "android": "https://dc.lft.to/lastmile_qr_scan"}, "is_disabled": 0, "is_reserved": 0, "name": "5f642643fcdc1cdc72e3173823f4695f", "type": "electric_scooter", "fusion_lat": 0.0}, {"bike_id": "d96360166e31f143f8d31e1c3dbe3d87", "lon": -77.029862, "lat": 38.920532666666666, "fusion_lon": 0.0, "rental_uris": {"ios": "https://dc.lft.to/lastmile_qr_scan", "android": "https://dc.lft.to/lastmile_qr_scan"}, "is_disabled": 0, "is_reserved": 0, "name": "d96360166e31f143f8d31e1c3dbe3d87", "type": "electric_scooter", "fusion_lat": 0.0}, {"bike_id": "e6be4831624ed38ad7b1333747f73b61", "lon": -77.11852216666666, "lat": 38.877283166666665, "fusion_lon": 0.0, "rental_uris": {"ios": "https://dc.lft.to/lastmile_qr_scan", "android": "https://dc.lft.to/lastmile_qr_scan"}, "is_disabled": 0, "is_reserved": 0, "name": "e6be4831624ed38ad7b1333747f73b61", "type": "electric_bike", "fusion_lat": 0.0}, {"bike_id": "d1186a4bb4dc713a6c8d62b0c78b6ecd", "lon": -77.02224116666666, "lat": 38.95686833333333, "fusion_lon": 0.0, "rental_uris": {"ios": "https://dc.lft.to/lastmile_qr_scan", "android": "https://dc.lft.to/lastmile_qr_scan"}, "is_disabled": 0, "is_reserved": 0, "name": "d1186a4bb4dc713a6c8d62b0c78b6ecd", "type": "electric_scooter", "fusion_lat": 0.0}, {"bike_id": "c7772e2672510df86714401c9b8db9a0", "lon": -77.13328833333334, "lat": 38.870495, "fusion_lon": 0.0, "rental_uris": {"ios": "https://dc.lft.to/lastmile_qr_scan", "android": "https://dc.lft.to/lastmile_qr_scan"}, "is_disabled": 0, "is_reserved": 0, "name": "c7772e2672510df86714401c9b8db9a0", "type": "electric_bike", "fusion_lat": 0.0}, {"bike_id": "f7442e25140712ce3baf06a7cd942746", "lon": -77.04232516666667, "lat": 38.92354483333333, "fusion_lon": 0.0, "rental_uris": {"ios": "https://dc.lft.to/lastmile_qr_scan", "android": "https://dc.lft.to/lastmile_qr_scan"}, "is_disabled": 0, "is_reserved": 0, "name": "f7442e25140712ce3baf06a7cd942746", "type": "electric_scooter", "fusion_lat": 0.0}, {"bike_id": "24f66a893709880fe7a62a14600cc8bc", "lon": -77.04361183333333, "lat": 38.921450166666666, "fusion_lon": 0.0, "rental_uris": {"ios": "https://dc.lft.to/lastmile_qr_scan", "android": "https://dc.lft.to/lastmile_qr_scan"}, "is_disabled": 0, "is_reserved": 0, "name": "24f66a893709880fe7a62a14600cc8bc", "type": "electric_scooter", "fusion_lat": 0.0}, {"bike_id": "ffb9e56638d0f72c9abdd55cda2727ab", "lon": -77.02730283333334, "lat": 38.95174433333333, "fusion_lon": 0.0, "rental_uris": {"ios": "https://dc.lft.to/lastmile_qr_scan", "android": "https://dc.lft.to/lastmile_qr_scan"}, "is_disabled": 0, "is_reserved": 0, "name": "ffb9e56638d0f72c9abdd55cda2727ab", "type": "electric_scooter", "fusion_lat": 0.0}, {"bike_id": "5fea1bf66ca15897d102dde0982d7cde", "lon": -77.03048216666667, "lat": 38.92773116666667, "fusion_lon": 0.0, "rental_uris": {"ios": "https://dc.lft.to/lastmile_qr_scan", "android": "https://dc.lft.to/lastmile_qr_scan"}, "is_disabled": 0, "is_reserved": 0, "name": "5fea1bf66ca15897d102dde0982d7cde", "type": "electric_scooter", "fusion_lat": 0.0}, {"bike_id": "d5db72df0116881f663ca37ac0941550", "lon": -77.02512333333334, "lat": 38.91917383333333, "fusion_lon": 0.0, "rental_uris": {"ios": "https://dc.lft.to/lastmile_qr_scan", "android": "https://dc.lft.to/lastmile_qr_scan"}, "is_disabled": 0, "is_reserved": 0, "name": "d5db72df0116881f663ca37ac0941550", "type": "electric_scooter", "fusion_lat": 0.0}, {"bike_id": "7b5154c31cd1d4d8c311c65d730e94ac", "lon": -77.0951825, "lat": 38.838075, "fusion_lon": 0.0, "rental_uris": {"ios": "https://dc.lft.to/lastmile_qr_scan", "android": "https://dc.lft.to/lastmile_qr_scan"}, "is_disabled": 0, "is_reserved": 0, "name": "7b5154c31cd1d4d8c311c65d730e94ac", "type": "electric_bike", "fusion_lat": 0.0}, {"bike_id": "ab2bd34af271c2edf92bce789b700cf4", "lon": -76.98761166666667, "lat": 38.857612833333334, "fusion_lon": 0.0, "rental_uris": {"ios": "https://dc.lft.to/lastmile_qr_scan", "android": "https://dc.lft.to/lastmile_qr_scan"}, "is_disabled": 0, "is_reserved": 0, "name": "ab2bd34af271c2edf92bce789b700cf4", "type": "electric_bike", "fusion_lat": 0.0}, {"bike_id": "189b6eddf17088621726de5e4019b443", "lon": -76.97715633333334, "lat": 38.898894, "fusion_lon": 0.0, "rental_uris": {"ios": "https://dc.lft.to/lastmile_qr_scan", "android": "https://dc.lft.to/lastmile_qr_scan"}, "is_disabled": 0, "is_reserved": 0, "name": "189b6eddf17088621726de5e4019b443", "type": "electric_scooter", "fusion_lat": 0.0}, {"bike_id": "4b70499d3aefafe9dfaae4694f00f5fd", "lon": -77.01681566666667, "lat": 38.9711885, "fusion_lon": 0.0, "rental_uris": {"ios": "https://dc.lft.to/lastmile_qr_scan", "android": "https://dc.lft.to/lastmile_qr_scan"}, "is_disabled": 0, "is_reserved": 0, "name": "4b70499d3aefafe9dfaae4694f00f5fd", "type": "electric_scooter", "fusion_lat": 0.0}, {"bike_id": "17cab0712b9a043b7c997e8615a7d2a3", "lon": -77.027773, "lat": 38.95529416666667, "fusion_lon": 0.0, "rental_uris": {"ios": "https://dc.lft.to/lastmile_qr_scan", "android": "https://dc.lft.to/lastmile_qr_scan"}, "is_disabled": 0, "is_reserved": 0, "name": "17cab0712b9a043b7c997e8615a7d2a3", "type": "electric_scooter", "fusion_lat": 0.0}, {"bike_id": "3722dee794d7d987c2ce40f6b48cf227", "lon": -77.06085833333333, "lat": 38.9301305, "fusion_lon": 0.0, "rental_uris": {"ios": "https://dc.lft.to/lastmile_qr_scan", "android": "https://dc.lft.to/lastmile_qr_scan"}, "is_disabled": 0, "is_reserved": 0, "name": "3722dee794d7d987c2ce40f6b48cf227", "type": "electric_scooter", "fusion_lat": 0.0}, {"bike_id": "f1ca7a4dc4d14f7a39be7e47e8a448b1", "lon": -77.03641166666667, "lat": 38.9080495, "fusion_lon": 0.0, "rental_uris": {"ios": "https://dc.lft.to/lastmile_qr_scan", "android": "https://dc.lft.to/lastmile_qr_scan"}, "is_disabled": 0, "is_reserved": 0, "name": "f1ca7a4dc4d14f7a39be7e47e8a448b1", "type": "electric_scooter", "fusion_lat": 0.0}, {"bike_id": "a51bb3f50e41f508cefe9277dd45c521", "lon": -77.01713766666667, "lat": 38.893426166666664, "fusion_lon": 0.0, "rental_uris": {"ios": "https://dc.lft.to/lastmile_qr_scan", "android": "https://dc.lft.to/lastmile_qr_scan"}, "is_disabled": 0, "is_reserved": 0, "name": "a51bb3f50e41f508cefe9277dd45c521", "type": "electric_scooter", "fusion_lat": 0.0}, {"bike_id": "e94109a911ed52fd5df97e65b05f5475", "lon": -77.04150483333333, "lat": 38.91842166666667, "fusion_lon": 0.0, "rental_uris": {"ios": "https://dc.lft.to/lastmile_qr_scan", "android": "https://dc.lft.to/lastmile_qr_scan"}, "is_disabled": 0, "is_reserved": 0, "name": "e94109a911ed52fd5df97e65b05f5475", "type": "electric_scooter", "fusion_lat": 0.0}, {"bike_id": "2e245081001e10f6e913247879b1ed93", "lon": -77.032182, "lat": 38.91241216666667, "fusion_lon": 0.0, "rental_uris": {"ios": "https://dc.lft.to/lastmile_qr_scan", "android": "https://dc.lft.to/lastmile_qr_scan"}, "is_disabled": 0, "is_reserved": 0, "name": "2e245081001e10f6e913247879b1ed93", "type": "electric_scooter", "fusion_lat": 0.0}, {"bike_id": "fa48cc19d401bae7138214e2324c6bed", "lon": -77.02775183333334, "lat": 38.917075833333335, "fusion_lon": 0.0, "rental_uris": {"ios": "https://dc.lft.to/lastmile_qr_scan", "android": "https://dc.lft.to/lastmile_qr_scan"}, "is_disabled": 0, "is_reserved": 0, "name": "fa48cc19d401bae7138214e2324c6bed", "type": "electric_scooter", "fusion_lat": 0.0}, {"bike_id": "0fd1900067255357b89b9c0c3bc57854", "lon": -76.999991, "lat": 38.88862483333333, "fusion_lon": 0.0, "rental_uris": {"ios": "https://dc.lft.to/lastmile_qr_scan", "android": "https://dc.lft.to/lastmile_qr_scan"}, "is_disabled": 0, "is_reserved": 0, "name": "0fd1900067255357b89b9c0c3bc57854", "type": "electric_scooter", "fusion_lat": 0.0}, {"bike_id": "6746d65ccf89df1106a82e8394f810e1", "lon": -77.04183983333333, "lat": 38.91981966666667, "fusion_lon": 0.0, "rental_uris": {"ios": "https://dc.lft.to/lastmile_qr_scan", "android": "https://dc.lft.to/lastmile_qr_scan"}, "is_disabled": 0, "is_reserved": 0, "name": "6746d65ccf89df1106a82e8394f810e1", "type": "electric_scooter", "fusion_lat": 0.0}, {"bike_id": "bad5e2d2650dc41139ef9332e3aac08f", "lon": -77.00121016666667, "lat": 38.90738483333333, "fusion_lon": 0.0, "rental_uris": {"ios": "https://dc.lft.to/lastmile_qr_scan", "android": "https://dc.lft.to/lastmile_qr_scan"}, "is_disabled": 0, "is_reserved": 0, "name": "bad5e2d2650dc41139ef9332e3aac08f", "type": "electric_scooter", "fusion_lat": 0.0}, {"bike_id": "71ce5be76bed60b706c016b8bcc9350f", "lon": -77.027131, "lat": 38.9076585, "fusion_lon": 0.0, "rental_uris": {"ios": "https://dc.lft.to/lastmile_qr_scan", "android": "https://dc.lft.to/lastmile_qr_scan"}, "is_disabled": 0, "is_reserved": 0, "name": "71ce5be76bed60b706c016b8bcc9350f", "type": "electric_scooter", "fusion_lat": 0.0}, {"bike_id": "bc03f2e8c5328493cedfc05322751b03", "lon": -77.02093033333334, "lat": 38.945293, "fusion_lon": 0.0, "rental_uris": {"ios": "https://dc.lft.to/lastmile_qr_scan", "android": "https://dc.lft.to/lastmile_qr_scan"}, "is_disabled": 0, "is_reserved": 0, "name": "bc03f2e8c5328493cedfc05322751b03", "type": "electric_scooter", "fusion_lat": 0.0}, {"bike_id": "286d970def850a946bfc4c469ebfdcc8", "lon": -77.01535716666666, "lat": 38.88739433333333, "fusion_lon": 0.0, "rental_uris": {"ios": "https://dc.lft.to/lastmile_qr_scan", "android": "https://dc.lft.to/lastmile_qr_scan"}, "is_disabled": 0, "is_reserved": 0, "name": "286d970def850a946bfc4c469ebfdcc8", "type": "electric_scooter", "fusion_lat": 0.0}, {"bike_id": "4d934b61deb7cbaecb4a7380b5f48e52", "lon": -76.9311095, "lat": 38.889892333333336, "fusion_lon": 0.0, "rental_uris": {"ios": "https://dc.lft.to/lastmile_qr_scan", "android": "https://dc.lft.to/lastmile_qr_scan"}, "is_disabled": 0, "is_reserved": 0, "name": "4d934b61deb7cbaecb4a7380b5f48e52", "type": "electric_scooter", "fusion_lat": 0.0}, {"bike_id": "f9da0dfa37eda5e4c3a7d714d3cf534e", "lon": -77.0065015, "lat": 38.949014166666664, "fusion_lon": 0.0, "rental_uris": {"ios": "https://dc.lft.to/lastmile_qr_scan", "android": "https://dc.lft.to/lastmile_qr_scan"}, "is_disabled": 0, "is_reserved": 0, "name": "f9da0dfa37eda5e4c3a7d714d3cf534e", "type": "electric_scooter", "fusion_lat": 0.0}, {"bike_id": "cab31a42949e43c5a07fa22559987f38", "lon": -77.060422, "lat": 38.939026, "fusion_lon": 0.0, "rental_uris": {"ios": "https://dc.lft.to/lastmile_qr_scan", "android": "https://dc.lft.to/lastmile_qr_scan"}, "is_disabled": 0, "is_reserved": 0, "name": "cab31a42949e43c5a07fa22559987f38", "type": "electric_scooter", "fusion_lat": 0.0}, {"bike_id": "c66ab4e1c8b298e2190950cb82b932ae", "lon": -77.055224, "lat": 38.89722066666667, "fusion_lon": 0.0, "rental_uris": {"ios": "https://dc.lft.to/lastmile_qr_scan", "android": "https://dc.lft.to/lastmile_qr_scan"}, "is_disabled": 0, "is_reserved": 0, "name": "c66ab4e1c8b298e2190950cb82b932ae", "type": "electric_scooter", "fusion_lat": 0.0}, {"bike_id": "8e5176936a3b29248af009bbe592a228", "lon": -77.03808016666666, "lat": 38.9255255, "fusion_lon": 0.0, "rental_uris": {"ios": "https://dc.lft.to/lastmile_qr_scan", "android": "https://dc.lft.to/lastmile_qr_scan"}, "is_disabled": 0, "is_reserved": 0, "name": "8e5176936a3b29248af009bbe592a228", "type": "electric_scooter", "fusion_lat": 0.0}, {"bike_id": "e9ef77dbcba1a17a1b38bedf8bd35d8a", "lon": -77.041418, "lat": 38.92144866666667, "fusion_lon": 0.0, "rental_uris": {"ios": "https://dc.lft.to/lastmile_qr_scan", "android": "https://dc.lft.to/lastmile_qr_scan"}, "is_disabled": 0, "is_reserved": 0, "name": "e9ef77dbcba1a17a1b38bedf8bd35d8a", "type": "electric_scooter", "fusion_lat": 0.0}, {"bike_id": "b4a6a6784e5c47c18e121dbf5b5a80b4", "lon": -77.02712266666667, "lat": 38.918186166666665, "fusion_lon": 0.0, "rental_uris": {"ios": "https://dc.lft.to/lastmile_qr_scan", "android": "https://dc.lft.to/lastmile_qr_scan"}, "is_disabled": 0, "is_reserved": 0, "name": "b4a6a6784e5c47c18e121dbf5b5a80b4", "type": "electric_scooter", "fusion_lat": 0.0}, {"bike_id": "a920cc6442333650eebf9a394afd085e", "lon": -77.0399155, "lat": 38.92456516666667, "fusion_lon": 0.0, "rental_uris": {"ios": "https://dc.lft.to/lastmile_qr_scan", "android": "https://dc.lft.to/lastmile_qr_scan"}, "is_disabled": 0, "is_reserved": 0, "name": "a920cc6442333650eebf9a394afd085e", "type": "electric_scooter", "fusion_lat": 0.0}, {"bike_id": "315816e5c560578c1d64bccb9591df41", "lon": -77.0132245, "lat": 38.92973766666667, "fusion_lon": 0.0, "rental_uris": {"ios": "https://dc.lft.to/lastmile_qr_scan", "android": "https://dc.lft.to/lastmile_qr_scan"}, "is_disabled": 0, "is_reserved": 0, "name": "315816e5c560578c1d64bccb9591df41", "type": "electric_scooter", "fusion_lat": 0.0}, {"bike_id": "e27666353b969410effcadffd4fe9df6", "lon": -76.92755383333333, "lat": 38.8986345, "fusion_lon": 0.0, "rental_uris": {"ios": "https://dc.lft.to/lastmile_qr_scan", "android": "https://dc.lft.to/lastmile_qr_scan"}, "is_disabled": 0, "is_reserved": 0, "name": "e27666353b969410effcadffd4fe9df6", "type": "electric_scooter", "fusion_lat": 0.0}, {"bike_id": "23f93541e4ff2e50382919c388b9c6e5", "lon": -77.0016285, "lat": 38.907371499999996, "fusion_lon": 0.0, "rental_uris": {"ios": "https://dc.lft.to/lastmile_qr_scan", "android": "https://dc.lft.to/lastmile_qr_scan"}, "is_disabled": 0, "is_reserved": 0, "name": "23f93541e4ff2e50382919c388b9c6e5", "type": "electric_scooter", "fusion_lat": 0.0}, {"bike_id": "05d308b8b7a2e3a33de28dc90ac28225", "lon": -76.98413266666667, "lat": 38.855371833333336, "fusion_lon": 0.0, "rental_uris": {"ios": "https://dc.lft.to/lastmile_qr_scan", "android": "https://dc.lft.to/lastmile_qr_scan"}, "is_disabled": 0, "is_reserved": 0, "name": "05d308b8b7a2e3a33de28dc90ac28225", "type": "electric_scooter", "fusion_lat": 0.0}, {"bike_id": "c42c89ab341d3a40a2d1f4e210660211", "lon": -77.0128155, "lat": 38.95646583333333, "fusion_lon": 0.0, "rental_uris": {"ios": "https://dc.lft.to/lastmile_qr_scan", "android": "https://dc.lft.to/lastmile_qr_scan"}, "is_disabled": 0, "is_reserved": 0, "name": "c42c89ab341d3a40a2d1f4e210660211", "type": "electric_bike", "fusion_lat": 0.0}, {"bike_id": "584ce78a6933e84eb5fd6d44ab098569", "lon": -76.92728316666667, "lat": 38.88694983333333, "fusion_lon": 0.0, "rental_uris": {"ios": "https://dc.lft.to/lastmile_qr_scan", "android": "https://dc.lft.to/lastmile_qr_scan"}, "is_disabled": 0, "is_reserved": 0, "name": "584ce78a6933e84eb5fd6d44ab098569", "type": "electric_scooter", "fusion_lat": 0.0}, {"bike_id": "3c0cd417607355af32b98da522b4bb4b", "lon": -76.9301895, "lat": 38.9008375, "fusion_lon": 0.0, "rental_uris": {"ios": "https://dc.lft.to/lastmile_qr_scan", "android": "https://dc.lft.to/lastmile_qr_scan"}, "is_disabled": 0, "is_reserved": 0, "name": "3c0cd417607355af32b98da522b4bb4b", "type": "electric_scooter", "fusion_lat": 0.0}, {"bike_id": "6cb06a5783142aad7ec638243d3e877e", "lon": -77.04060333333334, "lat": 38.9176985, "fusion_lon": 0.0, "rental_uris": {"ios": "https://dc.lft.to/lastmile_qr_scan", "android": "https://dc.lft.to/lastmile_qr_scan"}, "is_disabled": 0, "is_reserved": 0, "name": "6cb06a5783142aad7ec638243d3e877e", "type": "electric_scooter", "fusion_lat": 0.0}, {"bike_id": "7e676b70d0ee7bed8acf77c7bb85370d", "lon": -77.02691766666666, "lat": 38.916836333333336, "fusion_lon": 0.0, "rental_uris": {"ios": "https://dc.lft.to/lastmile_qr_scan", "android": "https://dc.lft.to/lastmile_qr_scan"}, "is_disabled": 0, "is_reserved": 0, "name": "7e676b70d0ee7bed8acf77c7bb85370d", "type": "electric_scooter", "fusion_lat": 0.0}, {"bike_id": "0c127fc71c2d8299db7123dc0c6af086", "lon": -77.0244355, "lat": 38.9185835, "fusion_lon": 0.0, "rental_uris": {"ios": "https://dc.lft.to/lastmile_qr_scan", "android": "https://dc.lft.to/lastmile_qr_scan"}, "is_disabled": 0, "is_reserved": 0, "name": "0c127fc71c2d8299db7123dc0c6af086", "type": "electric_scooter", "fusion_lat": 0.0}, {"bike_id": "3af40852a41fdf97f186c031a4a8ca7b", "lon": -77.0523135, "lat": 38.924661666666665, "fusion_lon": 0.0, "rental_uris": {"ios": "https://dc.lft.to/lastmile_qr_scan", "android": "https://dc.lft.to/lastmile_qr_scan"}, "is_disabled": 0, "is_reserved": 0, "name": "3af40852a41fdf97f186c031a4a8ca7b", "type": "electric_scooter", "fusion_lat": 0.0}, {"bike_id": "84922aab2fe74ea23ebaf4868ffd5a8b", "lon": -76.9848695, "lat": 38.90440616666667, "fusion_lon": 0.0, "rental_uris": {"ios": "https://dc.lft.to/lastmile_qr_scan", "android": "https://dc.lft.to/lastmile_qr_scan"}, "is_disabled": 0, "is_reserved": 0, "name": "84922aab2fe74ea23ebaf4868ffd5a8b", "type": "electric_scooter", "fusion_lat": 0.0}, {"bike_id": "76915315ca5559710a55796e0ae9add2", "lon": -77.01784, "lat": 38.911924166666665, "fusion_lon": 0.0, "rental_uris": {"ios": "https://dc.lft.to/lastmile_qr_scan", "android": "https://dc.lft.to/lastmile_qr_scan"}, "is_disabled": 0, "is_reserved": 0, "name": "76915315ca5559710a55796e0ae9add2", "type": "electric_scooter", "fusion_lat": 0.0}, {"bike_id": "8f939984ed209447576d3613b448e467", "lon": -77.036787, "lat": 38.902558166666665, "fusion_lon": 0.0, "rental_uris": {"ios": "https://dc.lft.to/lastmile_qr_scan", "android": "https://dc.lft.to/lastmile_qr_scan"}, "is_disabled": 0, "is_reserved": 0, "name": "8f939984ed209447576d3613b448e467", "type": "electric_scooter", "fusion_lat": 0.0}, {"bike_id": "37dda65d7769fcc8d19b3775d3bed766", "lon": -77.00248733333333, "lat": 38.91109, "fusion_lon": 0.0, "rental_uris": {"ios": "https://dc.lft.to/lastmile_qr_scan", "android": "https://dc.lft.to/lastmile_qr_scan"}, "is_disabled": 0, "is_reserved": 0, "name": "37dda65d7769fcc8d19b3775d3bed766", "type": "electric_scooter", "fusion_lat": 0.0}, {"bike_id": "2fe6ac018c79b1288a6b8de1f2822362", "lon": -76.9805115, "lat": 38.900193333333334, "fusion_lon": 0.0, "rental_uris": {"ios": "https://dc.lft.to/lastmile_qr_scan", "android": "https://dc.lft.to/lastmile_qr_scan"}, "is_disabled": 0, "is_reserved": 0, "name": "2fe6ac018c79b1288a6b8de1f2822362", "type": "electric_scooter", "fusion_lat": 0.0}, {"bike_id": "df034e384ca6a7274e8e5f77444a19dc", "lon": -77.02985, "lat": 38.8962445, "fusion_lon": 0.0, "rental_uris": {"ios": "https://dc.lft.to/lastmile_qr_scan", "android": "https://dc.lft.to/lastmile_qr_scan"}, "is_disabled": 0, "is_reserved": 0, "name": "df034e384ca6a7274e8e5f77444a19dc", "type": "electric_scooter", "fusion_lat": 0.0}, {"bike_id": "1f91061729a94b4f3363327816be7a62", "lon": -77.005601, "lat": 38.835808166666666, "fusion_lon": 0.0, "rental_uris": {"ios": "https://dc.lft.to/lastmile_qr_scan", "android": "https://dc.lft.to/lastmile_qr_scan"}, "is_disabled": 0, "is_reserved": 0, "name": "1f91061729a94b4f3363327816be7a62", "type": "electric_scooter", "fusion_lat": 0.0}, {"bike_id": "bdf38626e95d9db60850d6bdd275bb62", "lon": -77.03221483333333, "lat": 38.9285845, "fusion_lon": 0.0, "rental_uris": {"ios": "https://dc.lft.to/lastmile_qr_scan", "android": "https://dc.lft.to/lastmile_qr_scan"}, "is_disabled": 0, "is_reserved": 0, "name": "bdf38626e95d9db60850d6bdd275bb62", "type": "electric_scooter", "fusion_lat": 0.0}, {"bike_id": "4a36a5743983dbf6b58578ccec9e1fac", "lon": -77.02724533333334, "lat": 38.95179316666667, "fusion_lon": 0.0, "rental_uris": {"ios": "https://dc.lft.to/lastmile_qr_scan", "android": "https://dc.lft.to/lastmile_qr_scan"}, "is_disabled": 0, "is_reserved": 0, "name": "4a36a5743983dbf6b58578ccec9e1fac", "type": "electric_scooter", "fusion_lat": 0.0}, {"bike_id": "8b27e21016edb7b8befb38c6f5952db6", "lon": -77.01453683333334, "lat": 38.942146, "fusion_lon": 0.0, "rental_uris": {"ios": "https://dc.lft.to/lastmile_qr_scan", "android": "https://dc.lft.to/lastmile_qr_scan"}, "is_disabled": 0, "is_reserved": 0, "name": "8b27e21016edb7b8befb38c6f5952db6", "type": "electric_scooter", "fusion_lat": 0.0}, {"bike_id": "ea776f65a7c989a76eca1635e32afa0a", "lon": -77.0218745, "lat": 38.900771666666664, "fusion_lon": 0.0, "rental_uris": {"ios": "https://dc.lft.to/lastmile_qr_scan", "android": "https://dc.lft.to/lastmile_qr_scan"}, "is_disabled": 0, "is_reserved": 0, "name": "ea776f65a7c989a76eca1635e32afa0a", "type": "electric_scooter", "fusion_lat": 0.0}, {"bike_id": "40c0de523e7dbeeabd4b423582fa5562", "lon": -76.999033, "lat": 38.900068, "fusion_lon": 0.0, "rental_uris": {"ios": "https://dc.lft.to/lastmile_qr_scan", "android": "https://dc.lft.to/lastmile_qr_scan"}, "is_disabled": 0, "is_reserved": 0, "name": "40c0de523e7dbeeabd4b423582fa5562", "type": "electric_scooter", "fusion_lat": 0.0}, {"bike_id": "ca5f406799317bd7fce2c53c4b139927", "lon": -77.02300916666667, "lat": 38.9293705, "fusion_lon": 0.0, "rental_uris": {"ios": "https://dc.lft.to/lastmile_qr_scan", "android": "https://dc.lft.to/lastmile_qr_scan"}, "is_disabled": 0, "is_reserved": 0, "name": "ca5f406799317bd7fce2c53c4b139927", "type": "electric_scooter", "fusion_lat": 0.0}, {"bike_id": "4854284d1414a16b15e14f4f46d160ec", "lon": -77.021338, "lat": 38.89932, "fusion_lon": 0.0, "rental_uris": {"ios": "https://dc.lft.to/lastmile_qr_scan", "android": "https://dc.lft.to/lastmile_qr_scan"}, "is_disabled": 0, "is_reserved": 0, "name": "4854284d1414a16b15e14f4f46d160ec", "type": "electric_scooter", "fusion_lat": 0.0}, {"bike_id": "452e1f21f9a5e74205eb031ceccc0e55", "lon": -76.96886183333334, "lat": 38.861020833333335, "fusion_lon": 0.0, "rental_uris": {"ios": "https://dc.lft.to/lastmile_qr_scan", "android": "https://dc.lft.to/lastmile_qr_scan"}, "is_disabled": 0, "is_reserved": 0, "name": "452e1f21f9a5e74205eb031ceccc0e55", "type": "electric_scooter", "fusion_lat": 0.0}, {"bike_id": "66599748ff66c35d8af86f370a36c589", "lon": -77.04501316666666, "lat": 38.914145500000004, "fusion_lon": 0.0, "rental_uris": {"ios": "https://dc.lft.to/lastmile_qr_scan", "android": "https://dc.lft.to/lastmile_qr_scan"}, "is_disabled": 0, "is_reserved": 0, "name": "66599748ff66c35d8af86f370a36c589", "type": "electric_scooter", "fusion_lat": 0.0}, {"bike_id": "a0a3ef40e5df6b98e64fb52cd374a5bb", "lon": -77.02743566666666, "lat": 38.943013666666666, "fusion_lon": 0.0, "rental_uris": {"ios": "https://dc.lft.to/lastmile_qr_scan", "android": "https://dc.lft.to/lastmile_qr_scan"}, "is_disabled": 0, "is_reserved": 0, "name": "a0a3ef40e5df6b98e64fb52cd374a5bb", "type": "electric_scooter", "fusion_lat": 0.0}, {"bike_id": "f6719d24821900cf4ca5279d8e7c3952", "lon": -77.00200683333334, "lat": 38.873717, "fusion_lon": 0.0, "rental_uris": {"ios": "https://dc.lft.to/lastmile_qr_scan", "android": "https://dc.lft.to/lastmile_qr_scan"}, "is_disabled": 0, "is_reserved": 0, "name": "f6719d24821900cf4ca5279d8e7c3952", "type": "electric_scooter", "fusion_lat": 0.0}, {"bike_id": "5685a0ee64b10fbeb69dec25d614613c", "lon": -77.0283575, "lat": 38.932298, "fusion_lon": 0.0, "rental_uris": {"ios": "https://dc.lft.to/lastmile_qr_scan", "android": "https://dc.lft.to/lastmile_qr_scan"}, "is_disabled": 0, "is_reserved": 0, "name": "5685a0ee64b10fbeb69dec25d614613c", "type": "electric_scooter", "fusion_lat": 0.0}, {"bike_id": "f682cb02deb43a5dc4536a28c18b20e9", "lon": -77.02530833333333, "lat": 38.880446666666664, "fusion_lon": 0.0, "rental_uris": {"ios": "https://dc.lft.to/lastmile_qr_scan", "android": "https://dc.lft.to/lastmile_qr_scan"}, "is_disabled": 0, "is_reserved": 0, "name": "f682cb02deb43a5dc4536a28c18b20e9", "type": "electric_scooter", "fusion_lat": 0.0}, {"bike_id": "77bbf6b14eb80e98358351ee13d017b6", "lon": -77.03834333333333, "lat": 38.9118955, "fusion_lon": 0.0, "rental_uris": {"ios": "https://dc.lft.to/lastmile_qr_scan", "android": "https://dc.lft.to/lastmile_qr_scan"}, "is_disabled": 0, "is_reserved": 0, "name": "77bbf6b14eb80e98358351ee13d017b6", "type": "electric_scooter", "fusion_lat": 0.0}, {"bike_id": "97a966dd3d00edb0b3b3036f6dc96774", "lon": -77.01283516666666, "lat": 38.956511, "fusion_lon": 0.0, "rental_uris": {"ios": "https://dc.lft.to/lastmile_qr_scan", "android": "https://dc.lft.to/lastmile_qr_scan"}, "is_disabled": 0, "is_reserved": 0, "name": "97a966dd3d00edb0b3b3036f6dc96774", "type": "electric_bike", "fusion_lat": 0.0}, {"bike_id": "c409fd1d8fdcda40e011c274fb82bb78", "lon": -77.01546266666666, "lat": 38.893693, "fusion_lon": 0.0, "rental_uris": {"ios": "https://dc.lft.to/lastmile_qr_scan", "android": "https://dc.lft.to/lastmile_qr_scan"}, "is_disabled": 0, "is_reserved": 0, "name": "c409fd1d8fdcda40e011c274fb82bb78", "type": "electric_scooter", "fusion_lat": 0.0}, {"bike_id": "08fccf451841202a13c96398554daf7b", "lon": -77.01504133333333, "lat": 38.90048633333333, "fusion_lon": 0.0, "rental_uris": {"ios": "https://dc.lft.to/lastmile_qr_scan", "android": "https://dc.lft.to/lastmile_qr_scan"}, "is_disabled": 0, "is_reserved": 0, "name": "08fccf451841202a13c96398554daf7b", "type": "electric_scooter", "fusion_lat": 0.0}, {"bike_id": "331e2a405960f0b7c013d8a2b0d0ad7c", "lon": -77.071351, "lat": 38.90667416666667, "fusion_lon": 0.0, "rental_uris": {"ios": "https://dc.lft.to/lastmile_qr_scan", "android": "https://dc.lft.to/lastmile_qr_scan"}, "is_disabled": 0, "is_reserved": 0, "name": "331e2a405960f0b7c013d8a2b0d0ad7c", "type": "electric_scooter", "fusion_lat": 0.0}, {"bike_id": "90ae79333a7f1095cac66fba8c3df85f", "lon": -77.0220005, "lat": 38.9198925, "fusion_lon": 0.0, "rental_uris": {"ios": "https://dc.lft.to/lastmile_qr_scan", "android": "https://dc.lft.to/lastmile_qr_scan"}, "is_disabled": 0, "is_reserved": 0, "name": "90ae79333a7f1095cac66fba8c3df85f", "type": "electric_scooter", "fusion_lat": 0.0}, {"bike_id": "7e608d826ef9fd96f74ec51f74e298a7", "lon": -76.98882283333333, "lat": 38.866552666666664, "fusion_lon": 0.0, "rental_uris": {"ios": "https://dc.lft.to/lastmile_qr_scan", "android": "https://dc.lft.to/lastmile_qr_scan"}, "is_disabled": 0, "is_reserved": 0, "name": "7e608d826ef9fd96f74ec51f74e298a7", "type": "electric_scooter", "fusion_lat": 0.0}, {"bike_id": "2c2c8fd73db68cf68d97a6b2a155f12e", "lon": -77.037067, "lat": 38.916498, "fusion_lon": 0.0, "rental_uris": {"ios": "https://dc.lft.to/lastmile_qr_scan", "android": "https://dc.lft.to/lastmile_qr_scan"}, "is_disabled": 0, "is_reserved": 0, "name": "2c2c8fd73db68cf68d97a6b2a155f12e", "type": "electric_scooter", "fusion_lat": 0.0}, {"bike_id": "b111ac2f0496de1c76358ca81650b9b8", "lon": -77.04401433333334, "lat": 38.910637666666666, "fusion_lon": 0.0, "rental_uris": {"ios": "https://dc.lft.to/lastmile_qr_scan", "android": "https://dc.lft.to/lastmile_qr_scan"}, "is_disabled": 0, "is_reserved": 0, "name": "b111ac2f0496de1c76358ca81650b9b8", "type": "electric_scooter", "fusion_lat": 0.0}, {"bike_id": "4069a5bd081c19700d32301923e1e9a0", "lon": -77.00433566666666, "lat": 38.99002483333334, "fusion_lon": 0.0, "rental_uris": {"ios": "https://dc.lft.to/lastmile_qr_scan", "android": "https://dc.lft.to/lastmile_qr_scan"}, "is_disabled": 0, "is_reserved": 0, "name": "4069a5bd081c19700d32301923e1e9a0", "type": "electric_bike", "fusion_lat": 0.0}, {"bike_id": "9a6c008dc6d626d494683aba28e2d50f", "lon": -76.95741166666667, "lat": 38.8845455, "fusion_lon": 0.0, "rental_uris": {"ios": "https://dc.lft.to/lastmile_qr_scan", "android": "https://dc.lft.to/lastmile_qr_scan"}, "is_disabled": 0, "is_reserved": 0, "name": "9a6c008dc6d626d494683aba28e2d50f", "type": "electric_scooter", "fusion_lat": 0.0}, {"bike_id": "aeccf621ba89fce943ff0fbae2383696", "lon": -77.03334933333333, "lat": 38.92155183333333, "fusion_lon": 0.0, "rental_uris": {"ios": "https://dc.lft.to/lastmile_qr_scan", "android": "https://dc.lft.to/lastmile_qr_scan"}, "is_disabled": 0, "is_reserved": 0, "name": "aeccf621ba89fce943ff0fbae2383696", "type": "electric_scooter", "fusion_lat": 0.0}, {"bike_id": "684cc6f679f9df51f97bd2f5931f36b0", "lon": -76.97799833333333, "lat": 38.903127833333336, "fusion_lon": 0.0, "rental_uris": {"ios": "https://dc.lft.to/lastmile_qr_scan", "android": "https://dc.lft.to/lastmile_qr_scan"}, "is_disabled": 0, "is_reserved": 0, "name": "684cc6f679f9df51f97bd2f5931f36b0", "type": "electric_scooter", "fusion_lat": 0.0}, {"bike_id": "45a5130769ba98e2b6d1981c930fb7d9", "lon": -77.03351383333333, "lat": 38.90125166666667, "fusion_lon": 0.0, "rental_uris": {"ios": "https://dc.lft.to/lastmile_qr_scan", "android": "https://dc.lft.to/lastmile_qr_scan"}, "is_disabled": 0, "is_reserved": 0, "name": "45a5130769ba98e2b6d1981c930fb7d9", "type": "electric_scooter", "fusion_lat": 0.0}, {"bike_id": "6d42391f5638a6648f03021b4c797141", "lon": -77.11861316666666, "lat": 38.85887666666667, "fusion_lon": 0.0, "rental_uris": {"ios": "https://dc.lft.to/lastmile_qr_scan", "android": "https://dc.lft.to/lastmile_qr_scan"}, "is_disabled": 0, "is_reserved": 0, "name": "6d42391f5638a6648f03021b4c797141", "type": "electric_bike", "fusion_lat": 0.0}, {"bike_id": "aa387e85aabd3db69662de38b1879042", "lon": -77.00991983333333, "lat": 38.919117666666665, "fusion_lon": 0.0, "rental_uris": {"ios": "https://dc.lft.to/lastmile_qr_scan", "android": "https://dc.lft.to/lastmile_qr_scan"}, "is_disabled": 0, "is_reserved": 0, "name": "aa387e85aabd3db69662de38b1879042", "type": "electric_scooter", "fusion_lat": 0.0}, {"bike_id": "3bb3a36c6e9e2901aabefdded1a70ade", "lon": -77.0386625, "lat": 38.90787433333333, "fusion_lon": 0.0, "rental_uris": {"ios": "https://dc.lft.to/lastmile_qr_scan", "android": "https://dc.lft.to/lastmile_qr_scan"}, "is_disabled": 0, "is_reserved": 0, "name": "3bb3a36c6e9e2901aabefdded1a70ade", "type": "electric_scooter", "fusion_lat": 0.0}, {"bike_id": "dd7b0ef8bdf10d290d18d1458111a395", "lon": -77.0436515, "lat": 38.92149333333333, "fusion_lon": 0.0, "rental_uris": {"ios": "https://dc.lft.to/lastmile_qr_scan", "android": "https://dc.lft.to/lastmile_qr_scan"}, "is_disabled": 0, "is_reserved": 0, "name": "dd7b0ef8bdf10d290d18d1458111a395", "type": "electric_scooter", "fusion_lat": 0.0}, {"bike_id": "1c392a9791f09ac6a945f6f423b3ad30", "lon": -76.9927385, "lat": 38.9060695, "fusion_lon": 0.0, "rental_uris": {"ios": "https://dc.lft.to/lastmile_qr_scan", "android": "https://dc.lft.to/lastmile_qr_scan"}, "is_disabled": 0, "is_reserved": 0, "name": "1c392a9791f09ac6a945f6f423b3ad30", "type": "electric_scooter", "fusion_lat": 0.0}, {"bike_id": "5fd34c02d8a8a6edf32c56885eb4e0af", "lon": -77.03313633333333, "lat": 38.94511166666667, "fusion_lon": 0.0, "rental_uris": {"ios": "https://dc.lft.to/lastmile_qr_scan", "android": "https://dc.lft.to/lastmile_qr_scan"}, "is_disabled": 0, "is_reserved": 0, "name": "5fd34c02d8a8a6edf32c56885eb4e0af", "type": "electric_scooter", "fusion_lat": 0.0}, {"bike_id": "98d35f7ad08cf7d944d31f33bbf5bdda", "lon": -77.01135683333334, "lat": 38.907273833333335, "fusion_lon": 0.0, "rental_uris": {"ios": "https://dc.lft.to/lastmile_qr_scan", "android": "https://dc.lft.to/lastmile_qr_scan"}, "is_disabled": 0, "is_reserved": 0, "name": "98d35f7ad08cf7d944d31f33bbf5bdda", "type": "electric_scooter", "fusion_lat": 0.0}, {"bike_id": "96d79ed90f3c68fc6baf1db73476250a", "lon": -77.02536316666666, "lat": 38.88043033333334, "fusion_lon": 0.0, "rental_uris": {"ios": "https://dc.lft.to/lastmile_qr_scan", "android": "https://dc.lft.to/lastmile_qr_scan"}, "is_disabled": 0, "is_reserved": 0, "name": "96d79ed90f3c68fc6baf1db73476250a", "type": "electric_scooter", "fusion_lat": 0.0}, {"bike_id": "7187d13b6402605076cc374c904fd124", "lon": -77.0476045, "lat": 38.912400833333336, "fusion_lon": 0.0, "rental_uris": {"ios": "https://dc.lft.to/lastmile_qr_scan", "android": "https://dc.lft.to/lastmile_qr_scan"}, "is_disabled": 0, "is_reserved": 0, "name": "7187d13b6402605076cc374c904fd124", "type": "electric_scooter", "fusion_lat": 0.0}, {"bike_id": "de4867e09d4fffb61589752ea3945b2c", "lon": -76.987568, "lat": 38.94559316666667, "fusion_lon": 0.0, "rental_uris": {"ios": "https://dc.lft.to/lastmile_qr_scan", "android": "https://dc.lft.to/lastmile_qr_scan"}, "is_disabled": 0, "is_reserved": 0, "name": "de4867e09d4fffb61589752ea3945b2c", "type": "electric_bike", "fusion_lat": 0.0}, {"bike_id": "bd24234479e183d976e8f8d249d33c87", "lon": -77.03181083333334, "lat": 38.917960666666666, "fusion_lon": 0.0, "rental_uris": {"ios": "https://dc.lft.to/lastmile_qr_scan", "android": "https://dc.lft.to/lastmile_qr_scan"}, "is_disabled": 0, "is_reserved": 0, "name": "bd24234479e183d976e8f8d249d33c87", "type": "electric_scooter", "fusion_lat": 0.0}, {"bike_id": "fa3c275b12a862a022ed8108a9e15132", "lon": -77.02421183333334, "lat": 38.89799133333333, "fusion_lon": 0.0, "rental_uris": {"ios": "https://dc.lft.to/lastmile_qr_scan", "android": "https://dc.lft.to/lastmile_qr_scan"}, "is_disabled": 0, "is_reserved": 0, "name": "fa3c275b12a862a022ed8108a9e15132", "type": "electric_scooter", "fusion_lat": 0.0}, {"bike_id": "60d027c08cc7deee2a798cbcd31ebc6b", "lon": -77.00039866666667, "lat": 38.967731666666666, "fusion_lon": 0.0, "rental_uris": {"ios": "https://dc.lft.to/lastmile_qr_scan", "android": "https://dc.lft.to/lastmile_qr_scan"}, "is_disabled": 0, "is_reserved": 0, "name": "60d027c08cc7deee2a798cbcd31ebc6b", "type": "electric_bike", "fusion_lat": 0.0}, {"bike_id": "c7e5d4a482b52a1e6c616298ec99a9e8", "lon": -76.99019716666666, "lat": 38.865145, "fusion_lon": 0.0, "rental_uris": {"ios": "https://dc.lft.to/lastmile_qr_scan", "android": "https://dc.lft.to/lastmile_qr_scan"}, "is_disabled": 0, "is_reserved": 0, "name": "c7e5d4a482b52a1e6c616298ec99a9e8", "type": "electric_scooter", "fusion_lat": 0.0}, {"bike_id": "557c59028c57ae2b9674204391b8f5a9", "lon": -77.02388583333334, "lat": 38.8984355, "fusion_lon": 0.0, "rental_uris": {"ios": "https://dc.lft.to/lastmile_qr_scan", "android": "https://dc.lft.to/lastmile_qr_scan"}, "is_disabled": 0, "is_reserved": 0, "name": "557c59028c57ae2b9674204391b8f5a9", "type": "electric_scooter", "fusion_lat": 0.0}, {"bike_id": "1012a44424877f8db247e28cf638c633", "lon": -77.03594766666667, "lat": 38.909638666666666, "fusion_lon": 0.0, "rental_uris": {"ios": "https://dc.lft.to/lastmile_qr_scan", "android": "https://dc.lft.to/lastmile_qr_scan"}, "is_disabled": 0, "is_reserved": 0, "name": "1012a44424877f8db247e28cf638c633", "type": "electric_scooter", "fusion_lat": 0.0}, {"bike_id": "7951aca37f753af86ecfa7d120792d50", "lon": -76.99822766666666, "lat": 38.885326166666665, "fusion_lon": 0.0, "rental_uris": {"ios": "https://dc.lft.to/lastmile_qr_scan", "android": "https://dc.lft.to/lastmile_qr_scan"}, "is_disabled": 0, "is_reserved": 0, "name": "7951aca37f753af86ecfa7d120792d50", "type": "electric_scooter", "fusion_lat": 0.0}, {"bike_id": "64683a84e2a51584053cad0e13789cd8", "lon": -76.98000416666666, "lat": 38.90447133333333, "fusion_lon": 0.0, "rental_uris": {"ios": "https://dc.lft.to/lastmile_qr_scan", "android": "https://dc.lft.to/lastmile_qr_scan"}, "is_disabled": 0, "is_reserved": 0, "name": "64683a84e2a51584053cad0e13789cd8", "type": "electric_scooter", "fusion_lat": 0.0}, {"bike_id": "000d30afa554e58bc92d394f85565538", "lon": -77.0376375, "lat": 38.91561166666666, "fusion_lon": 0.0, "rental_uris": {"ios": "https://dc.lft.to/lastmile_qr_scan", "android": "https://dc.lft.to/lastmile_qr_scan"}, "is_disabled": 0, "is_reserved": 0, "name": "000d30afa554e58bc92d394f85565538", "type": "electric_scooter", "fusion_lat": 0.0}, {"bike_id": "3c400660dde215959c6ee5a45f64c58f", "lon": -77.03839483333333, "lat": 38.903429833333334, "fusion_lon": 0.0, "rental_uris": {"ios": "https://dc.lft.to/lastmile_qr_scan", "android": "https://dc.lft.to/lastmile_qr_scan"}, "is_disabled": 0, "is_reserved": 0, "name": "3c400660dde215959c6ee5a45f64c58f", "type": "electric_scooter", "fusion_lat": 0.0}, {"bike_id": "c94b815e0cd6fd6eb85e472e947c106c", "lon": -77.02058216666667, "lat": 38.93531133333333, "fusion_lon": 0.0, "rental_uris": {"ios": "https://dc.lft.to/lastmile_qr_scan", "android": "https://dc.lft.to/lastmile_qr_scan"}, "is_disabled": 0, "is_reserved": 0, "name": "c94b815e0cd6fd6eb85e472e947c106c", "type": "electric_scooter", "fusion_lat": 0.0}, {"bike_id": "bfc0498617f98c6166f62c958d8b95c6", "lon": -77.03835683333334, "lat": 38.921707, "fusion_lon": 0.0, "rental_uris": {"ios": "https://dc.lft.to/lastmile_qr_scan", "android": "https://dc.lft.to/lastmile_qr_scan"}, "is_disabled": 0, "is_reserved": 0, "name": "bfc0498617f98c6166f62c958d8b95c6", "type": "electric_scooter", "fusion_lat": 0.0}, {"bike_id": "1dc973c8c72bce85c592dfbd84699b6f", "lon": -77.04343333333334, "lat": 38.90058283333333, "fusion_lon": 0.0, "rental_uris": {"ios": "https://dc.lft.to/lastmile_qr_scan", "android": "https://dc.lft.to/lastmile_qr_scan"}, "is_disabled": 0, "is_reserved": 0, "name": "1dc973c8c72bce85c592dfbd84699b6f", "type": "electric_scooter", "fusion_lat": 0.0}, {"bike_id": "b1b8a61dc9dd4ec6e8d2d05405eae046", "lon": -77.04231266666666, "lat": 38.907371833333336, "fusion_lon": 0.0, "rental_uris": {"ios": "https://dc.lft.to/lastmile_qr_scan", "android": "https://dc.lft.to/lastmile_qr_scan"}, "is_disabled": 0, "is_reserved": 0, "name": "b1b8a61dc9dd4ec6e8d2d05405eae046", "type": "electric_scooter", "fusion_lat": 0.0}, {"bike_id": "699d249dfbda192215a8a3ff2c042ca3", "lon": -77.04255383333333, "lat": 38.92185833333333, "fusion_lon": 0.0, "rental_uris": {"ios": "https://dc.lft.to/lastmile_qr_scan", "android": "https://dc.lft.to/lastmile_qr_scan"}, "is_disabled": 0, "is_reserved": 0, "name": "699d249dfbda192215a8a3ff2c042ca3", "type": "electric_scooter", "fusion_lat": 0.0}, {"bike_id": "fe726a2fc0884ea436b82022561250ae", "lon": -77.031859, "lat": 38.9178795, "fusion_lon": 0.0, "rental_uris": {"ios": "https://dc.lft.to/lastmile_qr_scan", "android": "https://dc.lft.to/lastmile_qr_scan"}, "is_disabled": 0, "is_reserved": 0, "name": "fe726a2fc0884ea436b82022561250ae", "type": "electric_scooter", "fusion_lat": 0.0}, {"bike_id": "db81bf308a57ded47d791e9da707456a", "lon": -77.01801933333333, "lat": 38.920986666666664, "fusion_lon": 0.0, "rental_uris": {"ios": "https://dc.lft.to/lastmile_qr_scan", "android": "https://dc.lft.to/lastmile_qr_scan"}, "is_disabled": 0, "is_reserved": 0, "name": "db81bf308a57ded47d791e9da707456a", "type": "electric_scooter", "fusion_lat": 0.0}, {"bike_id": "8b2aa56f6dd961a0a856616a57a89d86", "lon": -76.91191466666666, "lat": 38.891802166666665, "fusion_lon": 0.0, "rental_uris": {"ios": "https://dc.lft.to/lastmile_qr_scan", "android": "https://dc.lft.to/lastmile_qr_scan"}, "is_disabled": 0, "is_reserved": 0, "name": "8b2aa56f6dd961a0a856616a57a89d86", "type": "electric_scooter", "fusion_lat": 0.0}, {"bike_id": "589d98948c660b17cca5534c8334f53b", "lon": -77.043322, "lat": 38.90075933333333, "fusion_lon": 0.0, "rental_uris": {"ios": "https://dc.lft.to/lastmile_qr_scan", "android": "https://dc.lft.to/lastmile_qr_scan"}, "is_disabled": 0, "is_reserved": 0, "name": "589d98948c660b17cca5534c8334f53b", "type": "electric_scooter", "fusion_lat": 0.0}, {"bike_id": "aa725c5e11f9d9ce93bdbba3a59bf408", "lon": -76.977462, "lat": 38.871654, "fusion_lon": 0.0, "rental_uris": {"ios": "https://dc.lft.to/lastmile_qr_scan", "android": "https://dc.lft.to/lastmile_qr_scan"}, "is_disabled": 0, "is_reserved": 0, "name": "aa725c5e11f9d9ce93bdbba3a59bf408", "type": "electric_scooter", "fusion_lat": 0.0}, {"bike_id": "0a2ecde1f339a915655d58b9ff8e75f5", "lon": -77.03835783333334, "lat": 38.911353, "fusion_lon": 0.0, "rental_uris": {"ios": "https://dc.lft.to/lastmile_qr_scan", "android": "https://dc.lft.to/lastmile_qr_scan"}, "is_disabled": 0, "is_reserved": 0, "name": "0a2ecde1f339a915655d58b9ff8e75f5", "type": "electric_scooter", "fusion_lat": 0.0}, {"bike_id": "00d08a5dd2cd963228266182575afe2f", "lon": -77.00783733333333, "lat": 38.92685633333333, "fusion_lon": 0.0, "rental_uris": {"ios": "https://dc.lft.to/lastmile_qr_scan", "android": "https://dc.lft.to/lastmile_qr_scan"}, "is_disabled": 0, "is_reserved": 0, "name": "00d08a5dd2cd963228266182575afe2f", "type": "electric_scooter", "fusion_lat": 0.0}, {"bike_id": "051e0be1bdda5e05228fadfb50ef6b88", "lon": -77.02957566666667, "lat": 38.922691666666665, "fusion_lon": 0.0, "rental_uris": {"ios": "https://dc.lft.to/lastmile_qr_scan", "android": "https://dc.lft.to/lastmile_qr_scan"}, "is_disabled": 0, "is_reserved": 0, "name": "051e0be1bdda5e05228fadfb50ef6b88", "type": "electric_scooter", "fusion_lat": 0.0}, {"bike_id": "4a9e15aaaa2907b95462bf98bd32db3d", "lon": -77.1175, "lat": 38.88219566666667, "fusion_lon": 0.0, "rental_uris": {"ios": "https://dc.lft.to/lastmile_qr_scan", "android": "https://dc.lft.to/lastmile_qr_scan"}, "is_disabled": 0, "is_reserved": 0, "name": "4a9e15aaaa2907b95462bf98bd32db3d", "type": "electric_bike", "fusion_lat": 0.0}, {"bike_id": "987bcc291a58ef672bfae8146d92661b", "lon": -76.934765, "lat": 38.89503933333334, "fusion_lon": 0.0, "rental_uris": {"ios": "https://dc.lft.to/lastmile_qr_scan", "android": "https://dc.lft.to/lastmile_qr_scan"}, "is_disabled": 0, "is_reserved": 0, "name": "987bcc291a58ef672bfae8146d92661b", "type": "electric_scooter", "fusion_lat": 0.0}, {"bike_id": "18cc66a7604fffeb73fbadb1355420f5", "lon": -77.01687633333333, "lat": 38.914248666666666, "fusion_lon": 0.0, "rental_uris": {"ios": "https://dc.lft.to/lastmile_qr_scan", "android": "https://dc.lft.to/lastmile_qr_scan"}, "is_disabled": 0, "is_reserved": 0, "name": "18cc66a7604fffeb73fbadb1355420f5", "type": "electric_scooter", "fusion_lat": 0.0}, {"bike_id": "ae398158b53fab95bbc238b3e005e469", "lon": -77.03353416666667, "lat": 38.9227195, "fusion_lon": 0.0, "rental_uris": {"ios": "https://dc.lft.to/lastmile_qr_scan", "android": "https://dc.lft.to/lastmile_qr_scan"}, "is_disabled": 0, "is_reserved": 0, "name": "ae398158b53fab95bbc238b3e005e469", "type": "electric_scooter", "fusion_lat": 0.0}, {"bike_id": "243fb921dd7ac7eeb21dd6735f91441e", "lon": -77.116104, "lat": 38.8548295, "fusion_lon": 0.0, "rental_uris": {"ios": "https://dc.lft.to/lastmile_qr_scan", "android": "https://dc.lft.to/lastmile_qr_scan"}, "is_disabled": 0, "is_reserved": 0, "name": "243fb921dd7ac7eeb21dd6735f91441e", "type": "electric_bike", "fusion_lat": 0.0}, {"bike_id": "8b95e01772d42d6ba7634414dfb81731", "lon": -77.04332433333333, "lat": 38.92613766666667, "fusion_lon": 0.0, "rental_uris": {"ios": "https://dc.lft.to/lastmile_qr_scan", "android": "https://dc.lft.to/lastmile_qr_scan"}, "is_disabled": 0, "is_reserved": 0, "name": "8b95e01772d42d6ba7634414dfb81731", "type": "electric_scooter", "fusion_lat": 0.0}, {"bike_id": "8171555d95327ed66d0c7b2db6663d1e", "lon": -77.0694355, "lat": 38.9952815, "fusion_lon": 0.0, "rental_uris": {"ios": "https://dc.lft.to/lastmile_qr_scan", "android": "https://dc.lft.to/lastmile_qr_scan"}, "is_disabled": 0, "is_reserved": 0, "name": "8171555d95327ed66d0c7b2db6663d1e", "type": "electric_bike", "fusion_lat": 0.0}, {"bike_id": "43f10fad4471c48da9af42644022939e", "lon": -77.01234316666667, "lat": 38.869397, "fusion_lon": 0.0, "rental_uris": {"ios": "https://dc.lft.to/lastmile_qr_scan", "android": "https://dc.lft.to/lastmile_qr_scan"}, "is_disabled": 0, "is_reserved": 0, "name": "43f10fad4471c48da9af42644022939e", "type": "electric_bike", "fusion_lat": 0.0}, {"bike_id": "f2322239adfee3156aa017735bdfe611", "lon": -77.056632, "lat": 38.89544466666667, "fusion_lon": 0.0, "rental_uris": {"ios": "https://dc.lft.to/lastmile_qr_scan", "android": "https://dc.lft.to/lastmile_qr_scan"}, "is_disabled": 0, "is_reserved": 0, "name": "f2322239adfee3156aa017735bdfe611", "type": "electric_scooter", "fusion_lat": 0.0}, {"bike_id": "2dbcf5227f5c65f71e1236647f703c81", "lon": -77.021256, "lat": 38.91114616666667, "fusion_lon": 0.0, "rental_uris": {"ios": "https://dc.lft.to/lastmile_qr_scan", "android": "https://dc.lft.to/lastmile_qr_scan"}, "is_disabled": 0, "is_reserved": 0, "name": "2dbcf5227f5c65f71e1236647f703c81", "type": "electric_scooter", "fusion_lat": 0.0}, {"bike_id": "6ef14e2c5ced7755900bca086c113e0d", "lon": -77.034702, "lat": 38.91967733333333, "fusion_lon": 0.0, "rental_uris": {"ios": "https://dc.lft.to/lastmile_qr_scan", "android": "https://dc.lft.to/lastmile_qr_scan"}, "is_disabled": 0, "is_reserved": 0, "name": "6ef14e2c5ced7755900bca086c113e0d", "type": "electric_scooter", "fusion_lat": 0.0}, {"bike_id": "f11e97452078f97359432d890a779dda", "lon": -77.04191116666667, "lat": 38.90543866666667, "fusion_lon": 0.0, "rental_uris": {"ios": "https://dc.lft.to/lastmile_qr_scan", "android": "https://dc.lft.to/lastmile_qr_scan"}, "is_disabled": 0, "is_reserved": 0, "name": "f11e97452078f97359432d890a779dda", "type": "electric_scooter", "fusion_lat": 0.0}, {"bike_id": "52a41975129bc5003cba385b670b38c1", "lon": -77.07414666666666, "lat": 38.908202, "fusion_lon": 0.0, "rental_uris": {"ios": "https://dc.lft.to/lastmile_qr_scan", "android": "https://dc.lft.to/lastmile_qr_scan"}, "is_disabled": 0, "is_reserved": 0, "name": "52a41975129bc5003cba385b670b38c1", "type": "electric_scooter", "fusion_lat": 0.0}, {"bike_id": "53188caecfa83cc51d05ebbcb7b5f906", "lon": -77.017008, "lat": 38.88149, "fusion_lon": 0.0, "rental_uris": {"ios": "https://dc.lft.to/lastmile_qr_scan", "android": "https://dc.lft.to/lastmile_qr_scan"}, "is_disabled": 0, "is_reserved": 0, "name": "53188caecfa83cc51d05ebbcb7b5f906", "type": "electric_bike", "fusion_lat": 0.0}, {"bike_id": "111daac4709e73d4cee51d209099f0dc", "lon": -77.03350966666666, "lat": 38.8999, "fusion_lon": 0.0, "rental_uris": {"ios": "https://dc.lft.to/lastmile_qr_scan", "android": "https://dc.lft.to/lastmile_qr_scan"}, "is_disabled": 0, "is_reserved": 0, "name": "111daac4709e73d4cee51d209099f0dc", "type": "electric_scooter", "fusion_lat": 0.0}, {"bike_id": "2f0313e9e67d5a0b155da62f6b6d2901", "lon": -77.00457033333333, "lat": 38.87671016666667, "fusion_lon": 0.0, "rental_uris": {"ios": "https://dc.lft.to/lastmile_qr_scan", "android": "https://dc.lft.to/lastmile_qr_scan"}, "is_disabled": 0, "is_reserved": 0, "name": "2f0313e9e67d5a0b155da62f6b6d2901", "type": "electric_scooter", "fusion_lat": 0.0}, {"bike_id": "d1f8b8a53b16cc1eb44483ff6c0b36bd", "lon": -77.06053033333333, "lat": 38.939325333333336, "fusion_lon": 0.0, "rental_uris": {"ios": "https://dc.lft.to/lastmile_qr_scan", "android": "https://dc.lft.to/lastmile_qr_scan"}, "is_disabled": 0, "is_reserved": 0, "name": "d1f8b8a53b16cc1eb44483ff6c0b36bd", "type": "electric_scooter", "fusion_lat": 0.0}, {"bike_id": "99d1ad1f9156f8528d0d12a8995d9dc7", "lon": -76.97323516666667, "lat": 38.904732333333335, "fusion_lon": 0.0, "rental_uris": {"ios": "https://dc.lft.to/lastmile_qr_scan", "android": "https://dc.lft.to/lastmile_qr_scan"}, "is_disabled": 0, "is_reserved": 0, "name": "99d1ad1f9156f8528d0d12a8995d9dc7", "type": "electric_bike", "fusion_lat": 0.0}, {"bike_id": "ec6d9de6ea155bc6e66383546d8830c4", "lon": -77.00029766666667, "lat": 38.875896166666664, "fusion_lon": 0.0, "rental_uris": {"ios": "https://dc.lft.to/lastmile_qr_scan", "android": "https://dc.lft.to/lastmile_qr_scan"}, "is_disabled": 0, "is_reserved": 0, "name": "ec6d9de6ea155bc6e66383546d8830c4", "type": "electric_scooter", "fusion_lat": 0.0}, {"bike_id": "46f6bd91e01720690112f49c7684cfce", "lon": -77.03307866666667, "lat": 38.9273985, "fusion_lon": 0.0, "rental_uris": {"ios": "https://dc.lft.to/lastmile_qr_scan", "android": "https://dc.lft.to/lastmile_qr_scan"}, "is_disabled": 0, "is_reserved": 0, "name": "46f6bd91e01720690112f49c7684cfce", "type": "electric_scooter", "fusion_lat": 0.0}, {"bike_id": "7f940bcb956f8bfca51b0332a42f16c3", "lon": -77.05312583333334, "lat": 38.91541016666667, "fusion_lon": 0.0, "rental_uris": {"ios": "https://dc.lft.to/lastmile_qr_scan", "android": "https://dc.lft.to/lastmile_qr_scan"}, "is_disabled": 0, "is_reserved": 0, "name": "7f940bcb956f8bfca51b0332a42f16c3", "type": "electric_scooter", "fusion_lat": 0.0}, {"bike_id": "51021c05b201751e389627fe2b03301d", "lon": -76.9721315, "lat": 38.925339666666666, "fusion_lon": 0.0, "rental_uris": {"ios": "https://dc.lft.to/lastmile_qr_scan", "android": "https://dc.lft.to/lastmile_qr_scan"}, "is_disabled": 0, "is_reserved": 0, "name": "51021c05b201751e389627fe2b03301d", "type": "electric_scooter", "fusion_lat": 0.0}, {"bike_id": "61324967f4ecd123e3cc24fd52d9037f", "lon": -77.03203716666667, "lat": 38.91522766666667, "fusion_lon": 0.0, "rental_uris": {"ios": "https://dc.lft.to/lastmile_qr_scan", "android": "https://dc.lft.to/lastmile_qr_scan"}, "is_disabled": 0, "is_reserved": 0, "name": "61324967f4ecd123e3cc24fd52d9037f", "type": "electric_scooter", "fusion_lat": 0.0}, {"bike_id": "94f5fb78a1fba06e146bfc666449abd6", "lon": -76.9303245, "lat": 38.900126, "fusion_lon": 0.0, "rental_uris": {"ios": "https://dc.lft.to/lastmile_qr_scan", "android": "https://dc.lft.to/lastmile_qr_scan"}, "is_disabled": 0, "is_reserved": 0, "name": "94f5fb78a1fba06e146bfc666449abd6", "type": "electric_scooter", "fusion_lat": 0.0}, {"bike_id": "75037f60eebf5537888d6db031f2b375", "lon": -77.02381966666667, "lat": 38.90958033333333, "fusion_lon": 0.0, "rental_uris": {"ios": "https://dc.lft.to/lastmile_qr_scan", "android": "https://dc.lft.to/lastmile_qr_scan"}, "is_disabled": 0, "is_reserved": 0, "name": "75037f60eebf5537888d6db031f2b375", "type": "electric_scooter", "fusion_lat": 0.0}, {"bike_id": "b811243a20a334f39773991557b5397d", "lon": -77.02415266666667, "lat": 38.926068, "fusion_lon": 0.0, "rental_uris": {"ios": "https://dc.lft.to/lastmile_qr_scan", "android": "https://dc.lft.to/lastmile_qr_scan"}, "is_disabled": 0, "is_reserved": 0, "name": "b811243a20a334f39773991557b5397d", "type": "electric_scooter", "fusion_lat": 0.0}, {"bike_id": "478f04d4a5454d3816c6ddb486d9e4d0", "lon": -77.0218315, "lat": 38.91050666666667, "fusion_lon": 0.0, "rental_uris": {"ios": "https://dc.lft.to/lastmile_qr_scan", "android": "https://dc.lft.to/lastmile_qr_scan"}, "is_disabled": 0, "is_reserved": 0, "name": "478f04d4a5454d3816c6ddb486d9e4d0", "type": "electric_scooter", "fusion_lat": 0.0}, {"bike_id": "34ed452926d4f123e74ead9d18134dbe", "lon": -77.02102216666667, "lat": 38.932721, "fusion_lon": 0.0, "rental_uris": {"ios": "https://dc.lft.to/lastmile_qr_scan", "android": "https://dc.lft.to/lastmile_qr_scan"}, "is_disabled": 0, "is_reserved": 0, "name": "34ed452926d4f123e74ead9d18134dbe", "type": "electric_scooter", "fusion_lat": 0.0}, {"bike_id": "21901534f3bdc35f86430237fb039c8b", "lon": -77.0137175, "lat": 38.870872, "fusion_lon": 0.0, "rental_uris": {"ios": "https://dc.lft.to/lastmile_qr_scan", "android": "https://dc.lft.to/lastmile_qr_scan"}, "is_disabled": 0, "is_reserved": 0, "name": "21901534f3bdc35f86430237fb039c8b", "type": "electric_scooter", "fusion_lat": 0.0}, {"bike_id": "bfae5d8c11a4515880fa6e3738f3dc00", "lon": -77.00654966666667, "lat": 38.90005216666667, "fusion_lon": 0.0, "rental_uris": {"ios": "https://dc.lft.to/lastmile_qr_scan", "android": "https://dc.lft.to/lastmile_qr_scan"}, "is_disabled": 0, "is_reserved": 0, "name": "bfae5d8c11a4515880fa6e3738f3dc00", "type": "electric_scooter", "fusion_lat": 0.0}, {"bike_id": "99440c19a45c811ddb9bd45983c2f349", "lon": -77.04112316666667, "lat": 38.924442166666665, "fusion_lon": 0.0, "rental_uris": {"ios": "https://dc.lft.to/lastmile_qr_scan", "android": "https://dc.lft.to/lastmile_qr_scan"}, "is_disabled": 0, "is_reserved": 0, "name": "99440c19a45c811ddb9bd45983c2f349", "type": "electric_scooter", "fusion_lat": 0.0}, {"bike_id": "13d9004fd08f54d53da478625e55889d", "lon": -76.9853775, "lat": 38.908815833333335, "fusion_lon": 0.0, "rental_uris": {"ios": "https://dc.lft.to/lastmile_qr_scan", "android": "https://dc.lft.to/lastmile_qr_scan"}, "is_disabled": 0, "is_reserved": 0, "name": "13d9004fd08f54d53da478625e55889d", "type": "electric_scooter", "fusion_lat": 0.0}, {"bike_id": "cffd7a29e290f588693434b83452af5c", "lon": -77.02732133333333, "lat": 38.88741433333333, "fusion_lon": 0.0, "rental_uris": {"ios": "https://dc.lft.to/lastmile_qr_scan", "android": "https://dc.lft.to/lastmile_qr_scan"}, "is_disabled": 0, "is_reserved": 0, "name": "cffd7a29e290f588693434b83452af5c", "type": "electric_scooter", "fusion_lat": 0.0}, {"bike_id": "67cf07f66b9022cfe17c9bb993f652e3", "lon": -77.01705183333333, "lat": 38.920952, "fusion_lon": 0.0, "rental_uris": {"ios": "https://dc.lft.to/lastmile_qr_scan", "android": "https://dc.lft.to/lastmile_qr_scan"}, "is_disabled": 0, "is_reserved": 0, "name": "67cf07f66b9022cfe17c9bb993f652e3", "type": "electric_scooter", "fusion_lat": 0.0}, {"bike_id": "83a479e93992c8d891dfefc877312851", "lon": -77.0396025, "lat": 38.909521, "fusion_lon": 0.0, "rental_uris": {"ios": "https://dc.lft.to/lastmile_qr_scan", "android": "https://dc.lft.to/lastmile_qr_scan"}, "is_disabled": 0, "is_reserved": 0, "name": "83a479e93992c8d891dfefc877312851", "type": "electric_scooter", "fusion_lat": 0.0}, {"bike_id": "0e99b540f28a3580c88f4552fbc31cee", "lon": -76.9850515, "lat": 38.9034395, "fusion_lon": 0.0, "rental_uris": {"ios": "https://dc.lft.to/lastmile_qr_scan", "android": "https://dc.lft.to/lastmile_qr_scan"}, "is_disabled": 0, "is_reserved": 0, "name": "0e99b540f28a3580c88f4552fbc31cee", "type": "electric_scooter", "fusion_lat": 0.0}, {"bike_id": "eef6485a09dd0095e9b199f4a608289b", "lon": -76.95464733333333, "lat": 38.88682766666667, "fusion_lon": 0.0, "rental_uris": {"ios": "https://dc.lft.to/lastmile_qr_scan", "android": "https://dc.lft.to/lastmile_qr_scan"}, "is_disabled": 0, "is_reserved": 0, "name": "eef6485a09dd0095e9b199f4a608289b", "type": "electric_scooter", "fusion_lat": 0.0}, {"bike_id": "4ee15b0d0a150607963e73a61e368257", "lon": -77.02209516666667, "lat": 38.91551616666667, "fusion_lon": 0.0, "rental_uris": {"ios": "https://dc.lft.to/lastmile_qr_scan", "android": "https://dc.lft.to/lastmile_qr_scan"}, "is_disabled": 0, "is_reserved": 0, "name": "4ee15b0d0a150607963e73a61e368257", "type": "electric_scooter", "fusion_lat": 0.0}, {"bike_id": "968c7c6b345844f17fed866053171868", "lon": -77.0298835, "lat": 38.9203555, "fusion_lon": 0.0, "rental_uris": {"ios": "https://dc.lft.to/lastmile_qr_scan", "android": "https://dc.lft.to/lastmile_qr_scan"}, "is_disabled": 0, "is_reserved": 0, "name": "968c7c6b345844f17fed866053171868", "type": "electric_scooter", "fusion_lat": 0.0}, {"bike_id": "2825b00dc5da37e5701e2db118369a6a", "lon": -76.98742083333333, "lat": 38.863501166666666, "fusion_lon": 0.0, "rental_uris": {"ios": "https://dc.lft.to/lastmile_qr_scan", "android": "https://dc.lft.to/lastmile_qr_scan"}, "is_disabled": 0, "is_reserved": 0, "name": "2825b00dc5da37e5701e2db118369a6a", "type": "electric_scooter", "fusion_lat": 0.0}, {"bike_id": "09917a66b58abe37e26c655d72fc2989", "lon": -77.023503, "lat": 38.93533266666667, "fusion_lon": 0.0, "rental_uris": {"ios": "https://dc.lft.to/lastmile_qr_scan", "android": "https://dc.lft.to/lastmile_qr_scan"}, "is_disabled": 0, "is_reserved": 0, "name": "09917a66b58abe37e26c655d72fc2989", "type": "electric_scooter", "fusion_lat": 0.0}, {"bike_id": "c081934653c257efc8ad921fd434e2af", "lon": -77.00455783333334, "lat": 38.876387, "fusion_lon": 0.0, "rental_uris": {"ios": "https://dc.lft.to/lastmile_qr_scan", "android": "https://dc.lft.to/lastmile_qr_scan"}, "is_disabled": 0, "is_reserved": 0, "name": "c081934653c257efc8ad921fd434e2af", "type": "electric_scooter", "fusion_lat": 0.0}, {"bike_id": "a0576a745258ff4b4cfcca4da020d25d", "lon": -77.03127683333334, "lat": 38.8922525, "fusion_lon": 0.0, "rental_uris": {"ios": "https://dc.lft.to/lastmile_qr_scan", "android": "https://dc.lft.to/lastmile_qr_scan"}, "is_disabled": 0, "is_reserved": 0, "name": "a0576a745258ff4b4cfcca4da020d25d", "type": "electric_scooter", "fusion_lat": 0.0}, {"bike_id": "87a0fa1263946c1325981fc1365040aa", "lon": -76.98705233333334, "lat": 38.90060483333333, "fusion_lon": 0.0, "rental_uris": {"ios": "https://dc.lft.to/lastmile_qr_scan", "android": "https://dc.lft.to/lastmile_qr_scan"}, "is_disabled": 0, "is_reserved": 0, "name": "87a0fa1263946c1325981fc1365040aa", "type": "electric_scooter", "fusion_lat": 0.0}, {"bike_id": "2d7cca2240ce4ef0051dc47571b79059", "lon": -77.03907283333334, "lat": 38.910278166666664, "fusion_lon": 0.0, "rental_uris": {"ios": "https://dc.lft.to/lastmile_qr_scan", "android": "https://dc.lft.to/lastmile_qr_scan"}, "is_disabled": 0, "is_reserved": 0, "name": "2d7cca2240ce4ef0051dc47571b79059", "type": "electric_scooter", "fusion_lat": 0.0}, {"bike_id": "3bc9d181e54be8d55dd4d05faeef08f7", "lon": -77.018666, "lat": 38.95150983333333, "fusion_lon": 0.0, "rental_uris": {"ios": "https://dc.lft.to/lastmile_qr_scan", "android": "https://dc.lft.to/lastmile_qr_scan"}, "is_disabled": 0, "is_reserved": 0, "name": "3bc9d181e54be8d55dd4d05faeef08f7", "type": "electric_scooter", "fusion_lat": 0.0}, {"bike_id": "2fc147ba24f61151513842ad8cad7ba5", "lon": -77.0334665, "lat": 38.903301, "fusion_lon": 0.0, "rental_uris": {"ios": "https://dc.lft.to/lastmile_qr_scan", "android": "https://dc.lft.to/lastmile_qr_scan"}, "is_disabled": 0, "is_reserved": 0, "name": "2fc147ba24f61151513842ad8cad7ba5", "type": "electric_scooter", "fusion_lat": 0.0}, {"bike_id": "a4c4c9fae1ae9b97932dda285b67c877", "lon": -77.04655283333334, "lat": 38.905438333333336, "fusion_lon": 0.0, "rental_uris": {"ios": "https://dc.lft.to/lastmile_qr_scan", "android": "https://dc.lft.to/lastmile_qr_scan"}, "is_disabled": 0, "is_reserved": 0, "name": "a4c4c9fae1ae9b97932dda285b67c877", "type": "electric_scooter", "fusion_lat": 0.0}, {"bike_id": "906f2fb9755e362f366cf38848f8b335", "lon": -77.02807766666666, "lat": 38.961590666666666, "fusion_lon": 0.0, "rental_uris": {"ios": "https://dc.lft.to/lastmile_qr_scan", "android": "https://dc.lft.to/lastmile_qr_scan"}, "is_disabled": 0, "is_reserved": 0, "name": "906f2fb9755e362f366cf38848f8b335", "type": "electric_bike", "fusion_lat": 0.0}, {"bike_id": "936f403e6ec844a36eb3b0857c8b0619", "lon": -77.04205133333333, "lat": 38.920955166666666, "fusion_lon": 0.0, "rental_uris": {"ios": "https://dc.lft.to/lastmile_qr_scan", "android": "https://dc.lft.to/lastmile_qr_scan"}, "is_disabled": 0, "is_reserved": 0, "name": "936f403e6ec844a36eb3b0857c8b0619", "type": "electric_scooter", "fusion_lat": 0.0}, {"bike_id": "39a2d244460fe2731b7e5d57da340ba6", "lon": -77.02559383333333, "lat": 38.918770333333335, "fusion_lon": 0.0, "rental_uris": {"ios": "https://dc.lft.to/lastmile_qr_scan", "android": "https://dc.lft.to/lastmile_qr_scan"}, "is_disabled": 0, "is_reserved": 0, "name": "39a2d244460fe2731b7e5d57da340ba6", "type": "electric_scooter", "fusion_lat": 0.0}, {"bike_id": "c235c1e1bef58f83479a55133a92b5e9", "lon": -77.04331266666667, "lat": 38.901352833333334, "fusion_lon": 0.0, "rental_uris": {"ios": "https://dc.lft.to/lastmile_qr_scan", "android": "https://dc.lft.to/lastmile_qr_scan"}, "is_disabled": 0, "is_reserved": 0, "name": "c235c1e1bef58f83479a55133a92b5e9", "type": "electric_scooter", "fusion_lat": 0.0}, {"bike_id": "c07c1afd2c0efdbaea630bf109f9a777", "lon": -76.99848016666667, "lat": 38.896210833333335, "fusion_lon": 0.0, "rental_uris": {"ios": "https://dc.lft.to/lastmile_qr_scan", "android": "https://dc.lft.to/lastmile_qr_scan"}, "is_disabled": 0, "is_reserved": 0, "name": "c07c1afd2c0efdbaea630bf109f9a777", "type": "electric_scooter", "fusion_lat": 0.0}, {"bike_id": "4df4d8790c47c25cf5ad2b03ad9b3e34", "lon": -76.973282, "lat": 38.90411666666667, "fusion_lon": 0.0, "rental_uris": {"ios": "https://dc.lft.to/lastmile_qr_scan", "android": "https://dc.lft.to/lastmile_qr_scan"}, "is_disabled": 0, "is_reserved": 0, "name": "4df4d8790c47c25cf5ad2b03ad9b3e34", "type": "electric_scooter", "fusion_lat": 0.0}, {"bike_id": "19b5cc593eabf37aef5b17f60bc7a67d", "lon": -77.01920766666667, "lat": 38.921693, "fusion_lon": 0.0, "rental_uris": {"ios": "https://dc.lft.to/lastmile_qr_scan", "android": "https://dc.lft.to/lastmile_qr_scan"}, "is_disabled": 0, "is_reserved": 0, "name": "19b5cc593eabf37aef5b17f60bc7a67d", "type": "electric_scooter", "fusion_lat": 0.0}, {"bike_id": "3e5a6c8b107b2edea6712d6e4baf0a0e", "lon": -77.02068366666667, "lat": 38.92150616666667, "fusion_lon": 0.0, "rental_uris": {"ios": "https://dc.lft.to/lastmile_qr_scan", "android": "https://dc.lft.to/lastmile_qr_scan"}, "is_disabled": 0, "is_reserved": 0, "name": "3e5a6c8b107b2edea6712d6e4baf0a0e", "type": "electric_scooter", "fusion_lat": 0.0}, {"bike_id": "301e52d6bc5e409cb1ba4d53debf5404", "lon": -77.06298283333334, "lat": 38.903972, "fusion_lon": 0.0, "rental_uris": {"ios": "https://dc.lft.to/lastmile_qr_scan", "android": "https://dc.lft.to/lastmile_qr_scan"}, "is_disabled": 0, "is_reserved": 0, "name": "301e52d6bc5e409cb1ba4d53debf5404", "type": "electric_scooter", "fusion_lat": 0.0}, {"bike_id": "609dfbb97ea7594a109272740c263862", "lon": -77.04351216666667, "lat": 38.92324133333334, "fusion_lon": 0.0, "rental_uris": {"ios": "https://dc.lft.to/lastmile_qr_scan", "android": "https://dc.lft.to/lastmile_qr_scan"}, "is_disabled": 0, "is_reserved": 0, "name": "609dfbb97ea7594a109272740c263862", "type": "electric_scooter", "fusion_lat": 0.0}, {"bike_id": "270fefce53479dd401e1f513162e2933", "lon": -77.0118695, "lat": 38.9001245, "fusion_lon": 0.0, "rental_uris": {"ios": "https://dc.lft.to/lastmile_qr_scan", "android": "https://dc.lft.to/lastmile_qr_scan"}, "is_disabled": 0, "is_reserved": 0, "name": "270fefce53479dd401e1f513162e2933", "type": "electric_scooter", "fusion_lat": 0.0}, {"bike_id": "3b17dd3193193cfa789a49e2bd56fddd", "lon": -76.99472566666667, "lat": 38.8621165, "fusion_lon": 0.0, "rental_uris": {"ios": "https://dc.lft.to/lastmile_qr_scan", "android": "https://dc.lft.to/lastmile_qr_scan"}, "is_disabled": 0, "is_reserved": 0, "name": "3b17dd3193193cfa789a49e2bd56fddd", "type": "electric_scooter", "fusion_lat": 0.0}, {"bike_id": "9604ddc58dd90f3e53cb0dab818a065b", "lon": -77.04872, "lat": 38.893174, "fusion_lon": 0.0, "rental_uris": {"ios": "https://dc.lft.to/lastmile_qr_scan", "android": "https://dc.lft.to/lastmile_qr_scan"}, "is_disabled": 0, "is_reserved": 0, "name": "9604ddc58dd90f3e53cb0dab818a065b", "type": "electric_scooter", "fusion_lat": 0.0}, {"bike_id": "a6cfe7a779578d71829f0af05786a42b", "lon": -77.02820366666667, "lat": 38.887292, "fusion_lon": 0.0, "rental_uris": {"ios": "https://dc.lft.to/lastmile_qr_scan", "android": "https://dc.lft.to/lastmile_qr_scan"}, "is_disabled": 0, "is_reserved": 0, "name": "a6cfe7a779578d71829f0af05786a42b", "type": "electric_scooter", "fusion_lat": 0.0}, {"bike_id": "e80ecbf07895e0d15e669f60c0440050", "lon": -77.02140833333333, "lat": 38.924033, "fusion_lon": 0.0, "rental_uris": {"ios": "https://dc.lft.to/lastmile_qr_scan", "android": "https://dc.lft.to/lastmile_qr_scan"}, "is_disabled": 0, "is_reserved": 0, "name": "e80ecbf07895e0d15e669f60c0440050", "type": "electric_scooter", "fusion_lat": 0.0}, {"bike_id": "ff3546aa299b7e81d53b8d0c4e2d3612", "lon": -77.2331825, "lat": 38.87273033333334, "fusion_lon": 0.0, "rental_uris": {"ios": "https://dc.lft.to/lastmile_qr_scan", "android": "https://dc.lft.to/lastmile_qr_scan"}, "is_disabled": 0, "is_reserved": 0, "name": "ff3546aa299b7e81d53b8d0c4e2d3612", "type": "electric_bike", "fusion_lat": 0.0}, {"bike_id": "f052d985608a8a6bf05960709f88acc7", "lon": -76.96238783333334, "lat": 38.88056533333334, "fusion_lon": 0.0, "rental_uris": {"ios": "https://dc.lft.to/lastmile_qr_scan", "android": "https://dc.lft.to/lastmile_qr_scan"}, "is_disabled": 0, "is_reserved": 0, "name": "f052d985608a8a6bf05960709f88acc7", "type": "electric_bike", "fusion_lat": 0.0}, {"bike_id": "4b6c9ddb888b912d46dc5e3685ad8427", "lon": -77.00566483333333, "lat": 38.885154, "fusion_lon": 0.0, "rental_uris": {"ios": "https://dc.lft.to/lastmile_qr_scan", "android": "https://dc.lft.to/lastmile_qr_scan"}, "is_disabled": 0, "is_reserved": 0, "name": "4b6c9ddb888b912d46dc5e3685ad8427", "type": "electric_scooter", "fusion_lat": 0.0}, {"bike_id": "4dbb776449b2cf08a6b8b14fc03f90ea", "lon": -77.05688066666667, "lat": 38.905995, "fusion_lon": 0.0, "rental_uris": {"ios": "https://dc.lft.to/lastmile_qr_scan", "android": "https://dc.lft.to/lastmile_qr_scan"}, "is_disabled": 0, "is_reserved": 0, "name": "4dbb776449b2cf08a6b8b14fc03f90ea", "type": "electric_scooter", "fusion_lat": 0.0}, {"bike_id": "955bc7cb2be5317b816213999cc62aa2", "lon": -77.03636933333334, "lat": 38.913077, "fusion_lon": 0.0, "rental_uris": {"ios": "https://dc.lft.to/lastmile_qr_scan", "android": "https://dc.lft.to/lastmile_qr_scan"}, "is_disabled": 0, "is_reserved": 0, "name": "955bc7cb2be5317b816213999cc62aa2", "type": "electric_scooter", "fusion_lat": 0.0}, {"bike_id": "4f9f061b48cb615b267692237e1e1f7e", "lon": -77.02763783333333, "lat": 38.923123333333336, "fusion_lon": 0.0, "rental_uris": {"ios": "https://dc.lft.to/lastmile_qr_scan", "android": "https://dc.lft.to/lastmile_qr_scan"}, "is_disabled": 0, "is_reserved": 0, "name": "4f9f061b48cb615b267692237e1e1f7e", "type": "electric_scooter", "fusion_lat": 0.0}, {"bike_id": "76e0f59529b019817d0f94a4fe4b37bb", "lon": -77.02513583333334, "lat": 38.94201983333333, "fusion_lon": 0.0, "rental_uris": {"ios": "https://dc.lft.to/lastmile_qr_scan", "android": "https://dc.lft.to/lastmile_qr_scan"}, "is_disabled": 0, "is_reserved": 0, "name": "76e0f59529b019817d0f94a4fe4b37bb", "type": "electric_scooter", "fusion_lat": 0.0}, {"bike_id": "d3a3961dc4b66850ed478559a81580ae", "lon": -77.0382895, "lat": 38.90401216666667, "fusion_lon": 0.0, "rental_uris": {"ios": "https://dc.lft.to/lastmile_qr_scan", "android": "https://dc.lft.to/lastmile_qr_scan"}, "is_disabled": 0, "is_reserved": 0, "name": "d3a3961dc4b66850ed478559a81580ae", "type": "electric_scooter", "fusion_lat": 0.0}, {"bike_id": "5f5714c6dee7c75775805a93b90e4806", "lon": -76.99514616666667, "lat": 38.862509, "fusion_lon": 0.0, "rental_uris": {"ios": "https://dc.lft.to/lastmile_qr_scan", "android": "https://dc.lft.to/lastmile_qr_scan"}, "is_disabled": 0, "is_reserved": 0, "name": "5f5714c6dee7c75775805a93b90e4806", "type": "electric_scooter", "fusion_lat": 0.0}, {"bike_id": "f3cf38b1c255f72ca2f4fcf7fa8ae532", "lon": -77.2279295, "lat": 38.91011483333333, "fusion_lon": 0.0, "rental_uris": {"ios": "https://dc.lft.to/lastmile_qr_scan", "android": "https://dc.lft.to/lastmile_qr_scan"}, "is_disabled": 0, "is_reserved": 0, "name": "f3cf38b1c255f72ca2f4fcf7fa8ae532", "type": "electric_bike", "fusion_lat": 0.0}, {"bike_id": "557734ac6edd8470966349f4aa259842", "lon": -77.000344, "lat": 38.875978833333335, "fusion_lon": 0.0, "rental_uris": {"ios": "https://dc.lft.to/lastmile_qr_scan", "android": "https://dc.lft.to/lastmile_qr_scan"}, "is_disabled": 0, "is_reserved": 0, "name": "557734ac6edd8470966349f4aa259842", "type": "electric_scooter", "fusion_lat": 0.0}, {"bike_id": "9d2627d55449ec82dcb9f33b577fac79", "lon": -77.033244, "lat": 38.898148166666665, "fusion_lon": 0.0, "rental_uris": {"ios": "https://dc.lft.to/lastmile_qr_scan", "android": "https://dc.lft.to/lastmile_qr_scan"}, "is_disabled": 0, "is_reserved": 0, "name": "9d2627d55449ec82dcb9f33b577fac79", "type": "electric_scooter", "fusion_lat": 0.0}, {"bike_id": "d229e45614eb30099f88713df341d42c", "lon": -77.023292, "lat": 38.932105, "fusion_lon": 0.0, "rental_uris": {"ios": "https://dc.lft.to/lastmile_qr_scan", "android": "https://dc.lft.to/lastmile_qr_scan"}, "is_disabled": 0, "is_reserved": 0, "name": "d229e45614eb30099f88713df341d42c", "type": "electric_bike", "fusion_lat": 0.0}, {"bike_id": "f71135d045949192d8351a7db0950a02", "lon": -77.024769, "lat": 38.8801665, "fusion_lon": 0.0, "rental_uris": {"ios": "https://dc.lft.to/lastmile_qr_scan", "android": "https://dc.lft.to/lastmile_qr_scan"}, "is_disabled": 0, "is_reserved": 0, "name": "f71135d045949192d8351a7db0950a02", "type": "electric_scooter", "fusion_lat": 0.0}, {"bike_id": "487cf6a635d058720b1b2a635b6c07cc", "lon": -77.077297, "lat": 38.943997, "fusion_lon": 0.0, "rental_uris": {"ios": "https://dc.lft.to/lastmile_qr_scan", "android": "https://dc.lft.to/lastmile_qr_scan"}, "is_disabled": 0, "is_reserved": 0, "name": "487cf6a635d058720b1b2a635b6c07cc", "type": "electric_bike", "fusion_lat": 0.0}, {"bike_id": "56d0e0a49ce37093e90bed9bc4bc2a68", "lon": -77.02803983333334, "lat": 38.89516166666667, "fusion_lon": 0.0, "rental_uris": {"ios": "https://dc.lft.to/lastmile_qr_scan", "android": "https://dc.lft.to/lastmile_qr_scan"}, "is_disabled": 0, "is_reserved": 0, "name": "56d0e0a49ce37093e90bed9bc4bc2a68", "type": "electric_scooter", "fusion_lat": 0.0}, {"bike_id": "8fb627ade181e54459eb7bbb713e2de7", "lon": -77.02201116666667, "lat": 38.9105375, "fusion_lon": 0.0, "rental_uris": {"ios": "https://dc.lft.to/lastmile_qr_scan", "android": "https://dc.lft.to/lastmile_qr_scan"}, "is_disabled": 0, "is_reserved": 0, "name": "8fb627ade181e54459eb7bbb713e2de7", "type": "electric_scooter", "fusion_lat": 0.0}, {"bike_id": "dff9795690150624be0b89cfd1561bcd", "lon": -77.02693866666667, "lat": 38.91682383333333, "fusion_lon": 0.0, "rental_uris": {"ios": "https://dc.lft.to/lastmile_qr_scan", "android": "https://dc.lft.to/lastmile_qr_scan"}, "is_disabled": 0, "is_reserved": 0, "name": "dff9795690150624be0b89cfd1561bcd", "type": "electric_scooter", "fusion_lat": 0.0}, {"bike_id": "2aae7ed340a4c5667cf807b368781b02", "lon": -77.02657383333333, "lat": 38.921802, "fusion_lon": 0.0, "rental_uris": {"ios": "https://dc.lft.to/lastmile_qr_scan", "android": "https://dc.lft.to/lastmile_qr_scan"}, "is_disabled": 0, "is_reserved": 0, "name": "2aae7ed340a4c5667cf807b368781b02", "type": "electric_scooter", "fusion_lat": 0.0}, {"bike_id": "5da96ab374e6a72a42827f5c8495fac1", "lon": -77.0410315, "lat": 38.923079666666666, "fusion_lon": 0.0, "rental_uris": {"ios": "https://dc.lft.to/lastmile_qr_scan", "android": "https://dc.lft.to/lastmile_qr_scan"}, "is_disabled": 0, "is_reserved": 0, "name": "5da96ab374e6a72a42827f5c8495fac1", "type": "electric_scooter", "fusion_lat": 0.0}, {"bike_id": "953b9e01d14130e677b005222042ae7c", "lon": -76.94937166666666, "lat": 38.893595833333336, "fusion_lon": 0.0, "rental_uris": {"ios": "https://dc.lft.to/lastmile_qr_scan", "android": "https://dc.lft.to/lastmile_qr_scan"}, "is_disabled": 0, "is_reserved": 0, "name": "953b9e01d14130e677b005222042ae7c", "type": "electric_scooter", "fusion_lat": 0.0}, {"bike_id": "befd2dae4c9975c09032086f508c38ef", "lon": -76.99611633333333, "lat": 38.93076033333333, "fusion_lon": 0.0, "rental_uris": {"ios": "https://dc.lft.to/lastmile_qr_scan", "android": "https://dc.lft.to/lastmile_qr_scan"}, "is_disabled": 0, "is_reserved": 0, "name": "befd2dae4c9975c09032086f508c38ef", "type": "electric_scooter", "fusion_lat": 0.0}, {"bike_id": "ea02a39db25e7fa0080ceefc2d6708c9", "lon": -77.02292116666666, "lat": 38.91567416666667, "fusion_lon": 0.0, "rental_uris": {"ios": "https://dc.lft.to/lastmile_qr_scan", "android": "https://dc.lft.to/lastmile_qr_scan"}, "is_disabled": 0, "is_reserved": 0, "name": "ea02a39db25e7fa0080ceefc2d6708c9", "type": "electric_scooter", "fusion_lat": 0.0}, {"bike_id": "fd6579e5b76fd844611c99b15d1a7639", "lon": -77.01012033333333, "lat": 38.91184916666667, "fusion_lon": 0.0, "rental_uris": {"ios": "https://dc.lft.to/lastmile_qr_scan", "android": "https://dc.lft.to/lastmile_qr_scan"}, "is_disabled": 0, "is_reserved": 0, "name": "fd6579e5b76fd844611c99b15d1a7639", "type": "electric_scooter", "fusion_lat": 0.0}, {"bike_id": "5dc901fbd580d2ddc451f3623f45855c", "lon": -77.02405133333333, "lat": 38.915598833333334, "fusion_lon": 0.0, "rental_uris": {"ios": "https://dc.lft.to/lastmile_qr_scan", "android": "https://dc.lft.to/lastmile_qr_scan"}, "is_disabled": 0, "is_reserved": 0, "name": "5dc901fbd580d2ddc451f3623f45855c", "type": "electric_scooter", "fusion_lat": 0.0}, {"bike_id": "3f5ecd598b7da3ee48401f2ecdad1087", "lon": -76.95745616666666, "lat": 38.969555166666666, "fusion_lon": 0.0, "rental_uris": {"ios": "https://dc.lft.to/lastmile_qr_scan", "android": "https://dc.lft.to/lastmile_qr_scan"}, "is_disabled": 0, "is_reserved": 0, "name": "3f5ecd598b7da3ee48401f2ecdad1087", "type": "electric_bike", "fusion_lat": 0.0}, {"bike_id": "cb00569272116f217a2d11f01f6b9a03", "lon": -77.022484, "lat": 38.92466866666667, "fusion_lon": 0.0, "rental_uris": {"ios": "https://dc.lft.to/lastmile_qr_scan", "android": "https://dc.lft.to/lastmile_qr_scan"}, "is_disabled": 0, "is_reserved": 0, "name": "cb00569272116f217a2d11f01f6b9a03", "type": "electric_scooter", "fusion_lat": 0.0}, {"bike_id": "73ba5cac7e92ddb29c21be6c7a8aa165", "lon": -77.0349725, "lat": 38.94501366666667, "fusion_lon": 0.0, "rental_uris": {"ios": "https://dc.lft.to/lastmile_qr_scan", "android": "https://dc.lft.to/lastmile_qr_scan"}, "is_disabled": 0, "is_reserved": 0, "name": "73ba5cac7e92ddb29c21be6c7a8aa165", "type": "electric_scooter", "fusion_lat": 0.0}, {"bike_id": "d084b935855f1e5d272d592b6caf99df", "lon": -77.06933966666666, "lat": 38.960963166666666, "fusion_lon": 0.0, "rental_uris": {"ios": "https://dc.lft.to/lastmile_qr_scan", "android": "https://dc.lft.to/lastmile_qr_scan"}, "is_disabled": 0, "is_reserved": 0, "name": "d084b935855f1e5d272d592b6caf99df", "type": "electric_bike", "fusion_lat": 0.0}, {"bike_id": "8c663be6347ff68edd90157978aae599", "lon": -77.02492633333334, "lat": 38.917101, "fusion_lon": 0.0, "rental_uris": {"ios": "https://dc.lft.to/lastmile_qr_scan", "android": "https://dc.lft.to/lastmile_qr_scan"}, "is_disabled": 0, "is_reserved": 0, "name": "8c663be6347ff68edd90157978aae599", "type": "electric_scooter", "fusion_lat": 0.0}, {"bike_id": "f4305c2ad7d366d8eedff7ea30dc8661", "lon": -77.06935733333333, "lat": 38.9554905, "fusion_lon": 0.0, "rental_uris": {"ios": "https://dc.lft.to/lastmile_qr_scan", "android": "https://dc.lft.to/lastmile_qr_scan"}, "is_disabled": 0, "is_reserved": 0, "name": "f4305c2ad7d366d8eedff7ea30dc8661", "type": "electric_bike", "fusion_lat": 0.0}, {"bike_id": "16b29d75d7177db446c16a48127fcd15", "lon": -76.93028033333333, "lat": 38.900861666666664, "fusion_lon": 0.0, "rental_uris": {"ios": "https://dc.lft.to/lastmile_qr_scan", "android": "https://dc.lft.to/lastmile_qr_scan"}, "is_disabled": 0, "is_reserved": 0, "name": "16b29d75d7177db446c16a48127fcd15", "type": "electric_scooter", "fusion_lat": 0.0}, {"bike_id": "44e6a5410782b68e972fe006e759c58e", "lon": -77.00779666666666, "lat": 38.9056745, "fusion_lon": 0.0, "rental_uris": {"ios": "https://dc.lft.to/lastmile_qr_scan", "android": "https://dc.lft.to/lastmile_qr_scan"}, "is_disabled": 0, "is_reserved": 0, "name": "44e6a5410782b68e972fe006e759c58e", "type": "electric_scooter", "fusion_lat": 0.0}, {"bike_id": "8d2cdbd110c10976fb66f2dbbefc8552", "lon": -77.02514683333334, "lat": 38.916876333333335, "fusion_lon": 0.0, "rental_uris": {"ios": "https://dc.lft.to/lastmile_qr_scan", "android": "https://dc.lft.to/lastmile_qr_scan"}, "is_disabled": 0, "is_reserved": 0, "name": "8d2cdbd110c10976fb66f2dbbefc8552", "type": "electric_scooter", "fusion_lat": 0.0}, {"bike_id": "a05400e41917769ec0ed491403240e66", "lon": -77.008749, "lat": 38.88496683333334, "fusion_lon": 0.0, "rental_uris": {"ios": "https://dc.lft.to/lastmile_qr_scan", "android": "https://dc.lft.to/lastmile_qr_scan"}, "is_disabled": 0, "is_reserved": 0, "name": "a05400e41917769ec0ed491403240e66", "type": "electric_scooter", "fusion_lat": 0.0}, {"bike_id": "a0a461268329c7dee1566328057794fe", "lon": -76.92741633333333, "lat": 38.900609833333334, "fusion_lon": 0.0, "rental_uris": {"ios": "https://dc.lft.to/lastmile_qr_scan", "android": "https://dc.lft.to/lastmile_qr_scan"}, "is_disabled": 0, "is_reserved": 0, "name": "a0a461268329c7dee1566328057794fe", "type": "electric_scooter", "fusion_lat": 0.0}, {"bike_id": "30a2d1333655dad108cffb8645aeaa56", "lon": -77.02502916666667, "lat": 38.942031, "fusion_lon": 0.0, "rental_uris": {"ios": "https://dc.lft.to/lastmile_qr_scan", "android": "https://dc.lft.to/lastmile_qr_scan"}, "is_disabled": 0, "is_reserved": 0, "name": "30a2d1333655dad108cffb8645aeaa56", "type": "electric_scooter", "fusion_lat": 0.0}, {"bike_id": "c00a3246cfb93144cd4408843c02f54d", "lon": -77.03292383333333, "lat": 38.934400833333335, "fusion_lon": 0.0, "rental_uris": {"ios": "https://dc.lft.to/lastmile_qr_scan", "android": "https://dc.lft.to/lastmile_qr_scan"}, "is_disabled": 0, "is_reserved": 0, "name": "c00a3246cfb93144cd4408843c02f54d", "type": "electric_scooter", "fusion_lat": 0.0}, {"bike_id": "5e8cd292631ced2714643fa989e13f25", "lon": -77.05274333333334, "lat": 38.9101535, "fusion_lon": 0.0, "rental_uris": {"ios": "https://dc.lft.to/lastmile_qr_scan", "android": "https://dc.lft.to/lastmile_qr_scan"}, "is_disabled": 0, "is_reserved": 0, "name": "5e8cd292631ced2714643fa989e13f25", "type": "electric_scooter", "fusion_lat": 0.0}, {"bike_id": "6884b93cf8cb4e9dcd27398be6ef5e21", "lon": -77.01133216666666, "lat": 38.8803575, "fusion_lon": 0.0, "rental_uris": {"ios": "https://dc.lft.to/lastmile_qr_scan", "android": "https://dc.lft.to/lastmile_qr_scan"}, "is_disabled": 0, "is_reserved": 0, "name": "6884b93cf8cb4e9dcd27398be6ef5e21", "type": "electric_bike", "fusion_lat": 0.0}, {"bike_id": "8899fea3a5a27cc15f67a3ebbf051aa3", "lon": -77.00568733333333, "lat": 38.87444983333334, "fusion_lon": 0.0, "rental_uris": {"ios": "https://dc.lft.to/lastmile_qr_scan", "android": "https://dc.lft.to/lastmile_qr_scan"}, "is_disabled": 0, "is_reserved": 0, "name": "8899fea3a5a27cc15f67a3ebbf051aa3", "type": "electric_scooter", "fusion_lat": 0.0}, {"bike_id": "6bdef031c59b0240ea43dff8ffd56f8a", "lon": -77.03831416666667, "lat": 38.92154333333333, "fusion_lon": 0.0, "rental_uris": {"ios": "https://dc.lft.to/lastmile_qr_scan", "android": "https://dc.lft.to/lastmile_qr_scan"}, "is_disabled": 0, "is_reserved": 0, "name": "6bdef031c59b0240ea43dff8ffd56f8a", "type": "electric_scooter", "fusion_lat": 0.0}, {"bike_id": "8f310f3294bb985bc3152b37ad3e1b6b", "lon": -77.02581983333333, "lat": 38.89512466666667, "fusion_lon": 0.0, "rental_uris": {"ios": "https://dc.lft.to/lastmile_qr_scan", "android": "https://dc.lft.to/lastmile_qr_scan"}, "is_disabled": 0, "is_reserved": 0, "name": "8f310f3294bb985bc3152b37ad3e1b6b", "type": "electric_scooter", "fusion_lat": 0.0}, {"bike_id": "9e12a2e385b9ecf27b7652dde6a496ea", "lon": -77.03285783333334, "lat": 38.902568, "fusion_lon": 0.0, "rental_uris": {"ios": "https://dc.lft.to/lastmile_qr_scan", "android": "https://dc.lft.to/lastmile_qr_scan"}, "is_disabled": 0, "is_reserved": 0, "name": "9e12a2e385b9ecf27b7652dde6a496ea", "type": "electric_scooter", "fusion_lat": 0.0}, {"bike_id": "e2bad75cc11283042623677cf14c1f4b", "lon": -77.012113, "lat": 38.92120083333333, "fusion_lon": 0.0, "rental_uris": {"ios": "https://dc.lft.to/lastmile_qr_scan", "android": "https://dc.lft.to/lastmile_qr_scan"}, "is_disabled": 0, "is_reserved": 0, "name": "e2bad75cc11283042623677cf14c1f4b", "type": "electric_bike", "fusion_lat": 0.0}, {"bike_id": "5ed84664d5160b74ceefed45ba64e6ef", "lon": -77.04585116666667, "lat": 38.90331716666667, "fusion_lon": 0.0, "rental_uris": {"ios": "https://dc.lft.to/lastmile_qr_scan", "android": "https://dc.lft.to/lastmile_qr_scan"}, "is_disabled": 0, "is_reserved": 0, "name": "5ed84664d5160b74ceefed45ba64e6ef", "type": "electric_scooter", "fusion_lat": 0.0}, {"bike_id": "027eecf73a7488da2fafe65e928f76db", "lon": -76.9962685, "lat": 38.90000883333333, "fusion_lon": 0.0, "rental_uris": {"ios": "https://dc.lft.to/lastmile_qr_scan", "android": "https://dc.lft.to/lastmile_qr_scan"}, "is_disabled": 0, "is_reserved": 0, "name": "027eecf73a7488da2fafe65e928f76db", "type": "electric_scooter", "fusion_lat": 0.0}, {"bike_id": "f443d3e8f3758e6dfd22d62e8b00c8f3", "lon": -77.03452833333333, "lat": 38.90941183333333, "fusion_lon": 0.0, "rental_uris": {"ios": "https://dc.lft.to/lastmile_qr_scan", "android": "https://dc.lft.to/lastmile_qr_scan"}, "is_disabled": 0, "is_reserved": 0, "name": "f443d3e8f3758e6dfd22d62e8b00c8f3", "type": "electric_scooter", "fusion_lat": 0.0}, {"bike_id": "b4a01798826005cb8f10630d28772981", "lon": -77.02382883333334, "lat": 38.91290333333333, "fusion_lon": 0.0, "rental_uris": {"ios": "https://dc.lft.to/lastmile_qr_scan", "android": "https://dc.lft.to/lastmile_qr_scan"}, "is_disabled": 0, "is_reserved": 0, "name": "b4a01798826005cb8f10630d28772981", "type": "electric_scooter", "fusion_lat": 0.0}, {"bike_id": "16281d67999d5be2712335a669d9e01b", "lon": -76.989044, "lat": 38.866279666666664, "fusion_lon": 0.0, "rental_uris": {"ios": "https://dc.lft.to/lastmile_qr_scan", "android": "https://dc.lft.to/lastmile_qr_scan"}, "is_disabled": 0, "is_reserved": 0, "name": "16281d67999d5be2712335a669d9e01b", "type": "electric_scooter", "fusion_lat": 0.0}, {"bike_id": "abfad9ab5d35eb48d8f43de56b071dca", "lon": -77.02384266666667, "lat": 38.916706, "fusion_lon": 0.0, "rental_uris": {"ios": "https://dc.lft.to/lastmile_qr_scan", "android": "https://dc.lft.to/lastmile_qr_scan"}, "is_disabled": 0, "is_reserved": 0, "name": "abfad9ab5d35eb48d8f43de56b071dca", "type": "electric_scooter", "fusion_lat": 0.0}, {"bike_id": "cf8fb3b9825fdca955189a44bc8d1650", "lon": -76.929997, "lat": 38.89696983333333, "fusion_lon": 0.0, "rental_uris": {"ios": "https://dc.lft.to/lastmile_qr_scan", "android": "https://dc.lft.to/lastmile_qr_scan"}, "is_disabled": 0, "is_reserved": 0, "name": "cf8fb3b9825fdca955189a44bc8d1650", "type": "electric_scooter", "fusion_lat": 0.0}, {"bike_id": "8afa524c241dfa3f840c28767c21cf46", "lon": -77.02492166666667, "lat": 38.917094666666664, "fusion_lon": 0.0, "rental_uris": {"ios": "https://dc.lft.to/lastmile_qr_scan", "android": "https://dc.lft.to/lastmile_qr_scan"}, "is_disabled": 0, "is_reserved": 0, "name": "8afa524c241dfa3f840c28767c21cf46", "type": "electric_scooter", "fusion_lat": 0.0}, {"bike_id": "04e249f068021e4c3c70686d26402449", "lon": -77.0226065, "lat": 38.916330333333335, "fusion_lon": 0.0, "rental_uris": {"ios": "https://dc.lft.to/lastmile_qr_scan", "android": "https://dc.lft.to/lastmile_qr_scan"}, "is_disabled": 0, "is_reserved": 0, "name": "04e249f068021e4c3c70686d26402449", "type": "electric_scooter", "fusion_lat": 0.0}, {"bike_id": "c14f2b65d272badc39619b980d0757b5", "lon": -77.02322566666666, "lat": 38.93056816666667, "fusion_lon": 0.0, "rental_uris": {"ios": "https://dc.lft.to/lastmile_qr_scan", "android": "https://dc.lft.to/lastmile_qr_scan"}, "is_disabled": 0, "is_reserved": 0, "name": "c14f2b65d272badc39619b980d0757b5", "type": "electric_scooter", "fusion_lat": 0.0}, {"bike_id": "1a4a2619c19e07c6bb475cb616da7869", "lon": -77.00883133333333, "lat": 38.923616833333334, "fusion_lon": 0.0, "rental_uris": {"ios": "https://dc.lft.to/lastmile_qr_scan", "android": "https://dc.lft.to/lastmile_qr_scan"}, "is_disabled": 0, "is_reserved": 0, "name": "1a4a2619c19e07c6bb475cb616da7869", "type": "electric_scooter", "fusion_lat": 0.0}, {"bike_id": "39fef182bb8b29f5bc3c9305b7fbd9f8", "lon": -77.0237615, "lat": 38.898546, "fusion_lon": 0.0, "rental_uris": {"ios": "https://dc.lft.to/lastmile_qr_scan", "android": "https://dc.lft.to/lastmile_qr_scan"}, "is_disabled": 0, "is_reserved": 0, "name": "39fef182bb8b29f5bc3c9305b7fbd9f8", "type": "electric_scooter", "fusion_lat": 0.0}, {"bike_id": "39d156e72ffddefd6ab577633a4dc882", "lon": -77.04486383333334, "lat": 38.90306966666667, "fusion_lon": 0.0, "rental_uris": {"ios": "https://dc.lft.to/lastmile_qr_scan", "android": "https://dc.lft.to/lastmile_qr_scan"}, "is_disabled": 0, "is_reserved": 0, "name": "39d156e72ffddefd6ab577633a4dc882", "type": "electric_scooter", "fusion_lat": 0.0}, {"bike_id": "8d95e1fc1167b98e29e1ca26c64842ba", "lon": -77.03214366666667, "lat": 38.91994033333334, "fusion_lon": 0.0, "rental_uris": {"ios": "https://dc.lft.to/lastmile_qr_scan", "android": "https://dc.lft.to/lastmile_qr_scan"}, "is_disabled": 0, "is_reserved": 0, "name": "8d95e1fc1167b98e29e1ca26c64842ba", "type": "electric_scooter", "fusion_lat": 0.0}, {"bike_id": "313c1e3852690a67eb317dfee9cd5295", "lon": -77.070613, "lat": 38.8991915, "fusion_lon": 0.0, "rental_uris": {"ios": "https://dc.lft.to/lastmile_qr_scan", "android": "https://dc.lft.to/lastmile_qr_scan"}, "is_disabled": 0, "is_reserved": 0, "name": "313c1e3852690a67eb317dfee9cd5295", "type": "electric_scooter", "fusion_lat": 0.0}, {"bike_id": "6e4dedd6f6670b1c2b105f22e2fd8d0d", "lon": -77.02129066666667, "lat": 38.936905, "fusion_lon": 0.0, "rental_uris": {"ios": "https://dc.lft.to/lastmile_qr_scan", "android": "https://dc.lft.to/lastmile_qr_scan"}, "is_disabled": 0, "is_reserved": 0, "name": "6e4dedd6f6670b1c2b105f22e2fd8d0d", "type": "electric_bike", "fusion_lat": 0.0}, {"bike_id": "edc02f4b8e84f4127af843e84212dfd0", "lon": -77.02521866666666, "lat": 38.921358833333336, "fusion_lon": 0.0, "rental_uris": {"ios": "https://dc.lft.to/lastmile_qr_scan", "android": "https://dc.lft.to/lastmile_qr_scan"}, "is_disabled": 0, "is_reserved": 0, "name": "edc02f4b8e84f4127af843e84212dfd0", "type": "electric_scooter", "fusion_lat": 0.0}, {"bike_id": "256479bb0ef794ca111a5da5d8a3c531", "lon": -77.008161, "lat": 38.87831516666667, "fusion_lon": 0.0, "rental_uris": {"ios": "https://dc.lft.to/lastmile_qr_scan", "android": "https://dc.lft.to/lastmile_qr_scan"}, "is_disabled": 0, "is_reserved": 0, "name": "256479bb0ef794ca111a5da5d8a3c531", "type": "electric_scooter", "fusion_lat": 0.0}, {"bike_id": "66ac54e47995a492df5d79440f491ea6", "lon": -77.05524616666666, "lat": 38.897321166666664, "fusion_lon": 0.0, "rental_uris": {"ios": "https://dc.lft.to/lastmile_qr_scan", "android": "https://dc.lft.to/lastmile_qr_scan"}, "is_disabled": 0, "is_reserved": 0, "name": "66ac54e47995a492df5d79440f491ea6", "type": "electric_scooter", "fusion_lat": 0.0},