{"data": {"bikes": [{"lon": -77.04119483333334, "lat": 38.91891566666666, "name": "0de41a5dd11ccacb50f476986b39f77d", "fusion_lat": 0.0, "fusion_lon": 0.0, "rental_uris": {"android": "https://dc.lft.to/lastmile_qr_scan", "ios": "https://dc.lft.to/lastmile_qr_scan"}, "is_reserved": 0, "is_disabled": 0, "type": "electric_scooter", "bike_id": "0de41a5dd11ccacb50f476986b39f77d"}, {"lon": -77.0484825, "lat": 38.90077016666667, "name": "d0e90649d8651c1512dac1cd2542ff6f", "fusion_lat": 0.0, "fusion_lon": 0.0, "rental_uris": {"android": "https://dc.lft.to/lastmile_qr_scan", "ios": "https://dc.lft.to/lastmile_qr_scan"}, "is_reserved": 0, "is_disabled": 0, "type": "electric_scooter", "bike_id": "d0e90649d8651c1512dac1cd2542ff6f"}, {"lon": -77.03372366666666, "lat": 38.903769, "name": "69408095084933906089783c31b19518", "fusion_lat": 0.0, "fusion_lon": 0.0, "rental_uris": {"android": "https://dc.lft.to/lastmile_qr_scan", "ios": "https://dc.lft.to/lastmile_qr_scan"}, "is_reserved": 0, "is_disabled": 0, "type": "electric_scooter", "bike_id": "69408095084933906089783c31b19518"}, {"lon": -77.04617566666667, "lat": 38.91535833333333, "name": "13a6f4f4f56210e99b38fb488a62bf22", "fusion_lat": 0.0, "fusion_lon": 0.0, "rental_uris": {"android": "https://dc.lft.to/lastmile_qr_scan", "ios": "https://dc.lft.to/lastmile_qr_scan"}, "is_reserved": 0, "is_disabled": 0, "type": "electric_scooter", "bike_id": "13a6f4f4f56210e99b38fb488a62bf22"}, {"lon": -77.0347215, "lat": 38.917046666666664, "name": "8582b829672691cb13ad041beeafd6af", "fusion_lat": 0.0, "fusion_lon": 0.0, "rental_uris": {"android": "https://dc.lft.to/lastmile_qr_scan", "ios": "https://dc.lft.to/lastmile_qr_scan"}, "is_reserved": 0, "is_disabled": 0, "type": "electric_scooter", "bike_id": "8582b829672691cb13ad041beeafd6af"}, {"lon": -77.01590016666667, "lat": 38.8768465, "name": "bafaa6126fba793c9a417ac873016e38", "fusion_lat": 0.0, "fusion_lon": 0.0, "rental_uris": {"android": "https://dc.lft.to/lastmile_qr_scan", "ios": "https://dc.lft.to/lastmile_qr_scan"}, "is_reserved": 0, "is_disabled": 0, "type": "electric_scooter", "bike_id": "bafaa6126fba793c9a417ac873016e38"}, {"lon": -76.98411216666666, "lat": 38.899977666666665, "name": "05891fadf906afea7bf652faa176ff55", "fusion_lat": 0.0, "fusion_lon": 0.0, "rental_uris": {"android": "https://dc.lft.to/lastmile_qr_scan", "ios": "https://dc.lft.to/lastmile_qr_scan"}, "is_reserved": 0, "is_disabled": 0, "type": "electric_scooter", "bike_id": "05891fadf906afea7bf652faa176ff55"}, {"lon": -77.031834, "lat": 38.899947, "name": "06079b4e311ef2c6acc04de193ba62f8", "fusion_lat": 0.0, "fusion_lon": 0.0, "rental_uris": {"android": "https://dc.lft.to/lastmile_qr_scan", "ios": "https://dc.lft.to/lastmile_qr_scan"}, "is_reserved": 0, "is_disabled": 0, "type": "electric_scooter", "bike_id": "06079b4e311ef2c6acc04de193ba62f8"}, {"lon": -77.0634265, "lat": 38.906832333333334, "name": "15f3159575635ef201eb26ed00917bcd", "fusion_lat": 0.0, "fusion_lon": 0.0, "rental_uris": {"android": "https://dc.lft.to/lastmile_qr_scan", "ios": "https://dc.lft.to/lastmile_qr_scan"}, "is_reserved": 0, "is_disabled": 0, "type": "electric_scooter", "bike_id": "15f3159575635ef201eb26ed00917bcd"}, {"lon": -77.03668233333333, "lat": 38.9126505, "name": "cb137f00cc40a7f9d7ec8f77b8cc2111", "fusion_lat": 0.0, "fusion_lon": 0.0, "rental_uris": {"android": "https://dc.lft.to/lastmile_qr_scan", "ios": "https://dc.lft.to/lastmile_qr_scan"}, "is_reserved": 0, "is_disabled": 0, "type": "electric_scooter", "bike_id": "cb137f00cc40a7f9d7ec8f77b8cc2111"}, {"lon": -77.04701616666667, "lat": 38.921604, "name": "2928dbb1552122af950a64f0d33fc64b", "fusion_lat": 0.0, "fusion_lon": 0.0, "rental_uris": {"android": "https://dc.lft.to/lastmile_qr_scan", "ios": "https://dc.lft.to/lastmile_qr_scan"}, "is_reserved": 0, "is_disabled": 0, "type": "electric_scooter", "bike_id": "2928dbb1552122af950a64f0d33fc64b"}, {"lon": -77.0313345, "lat": 38.919313, "name": "85f9e72c2bc1f90ddb23d2e5ebfc60ba", "fusion_lat": 0.0, "fusion_lon": 0.0, "rental_uris": {"android": "https://dc.lft.to/lastmile_qr_scan", "ios": "https://dc.lft.to/lastmile_qr_scan"}, "is_reserved": 0, "is_disabled": 0, "type": "electric_scooter", "bike_id": "85f9e72c2bc1f90ddb23d2e5ebfc60ba"}, {"lon": -76.91926816666667, "lat": 38.890797666666664, "name": "debce7f0e8e64fec97b1b565571fba3e", "fusion_lat": 0.0, "fusion_lon": 0.0, "rental_uris": {"android": "https://dc.lft.to/lastmile_qr_scan", "ios": "https://dc.lft.to/lastmile_qr_scan"}, "is_reserved": 0, "is_disabled": 0, "type": "electric_scooter", "bike_id": "debce7f0e8e64fec97b1b565571fba3e"}, {"lon": -76.99132666666667, "lat": 38.903274833333334, "name": "e5e04172afdfd438243e08ec7399b0dd", "fusion_lat": 0.0, "fusion_lon": 0.0, "rental_uris": {"android": "https://dc.lft.to/lastmile_qr_scan", "ios": "https://dc.lft.to/lastmile_qr_scan"}, "is_reserved": 0, "is_disabled": 0, "type": "electric_bike", "bike_id": "e5e04172afdfd438243e08ec7399b0dd"}, {"lon": -77.00600283333333, "lat": 38.898117, "name": "6beb064c3d55afdb3b5299840938f844", "fusion_lat": 0.0, "fusion_lon": 0.0, "rental_uris": {"android": "https://dc.lft.to/lastmile_qr_scan", "ios": "https://dc.lft.to/lastmile_qr_scan"}, "is_reserved": 0, "is_disabled": 0, "type": "electric_bike", "bike_id": "6beb064c3d55afdb3b5299840938f844"}, {"lon": -77.03468216666667, "lat": 38.90474783333333, "name": "5fc8202d200492a2d7f3c5d94de7482d", "fusion_lat": 0.0, "fusion_lon": 0.0, "rental_uris": {"android": "https://dc.lft.to/lastmile_qr_scan", "ios": "https://dc.lft.to/lastmile_qr_scan"}, "is_reserved": 0, "is_disabled": 0, "type": "electric_scooter", "bike_id": "5fc8202d200492a2d7f3c5d94de7482d"}, {"lon": -77.04482183333333, "lat": 38.91082816666667, "name": "e055e42c9c66ec28dc9be214fea47e8a", "fusion_lat": 0.0, "fusion_lon": 0.0, "rental_uris": {"android": "https://dc.lft.to/lastmile_qr_scan", "ios": "https://dc.lft.to/lastmile_qr_scan"}, "is_reserved": 0, "is_disabled": 0, "type": "electric_scooter", "bike_id": "e055e42c9c66ec28dc9be214fea47e8a"}, {"lon": -76.98475633333334, "lat": 38.92896366666667, "name": "39712dba019d297341baf6f974e07f3d", "fusion_lat": 0.0, "fusion_lon": 0.0, "rental_uris": {"android": "https://dc.lft.to/lastmile_qr_scan", "ios": "https://dc.lft.to/lastmile_qr_scan"}, "is_reserved": 0, "is_disabled": 0, "type": "electric_scooter", "bike_id": "39712dba019d297341baf6f974e07f3d"}, {"lon": -77.03076583333333, "lat": 38.905771333333334, "name": "8d1cb975ab30d27ab6067f3d722982da", "fusion_lat": 0.0, "fusion_lon": 0.0, "rental_uris": {"android": "https://dc.lft.to/lastmile_qr_scan", "ios": "https://dc.lft.to/lastmile_qr_scan"}, "is_reserved": 0, "is_disabled": 0, "type": "electric_scooter", "bike_id": "8d1cb975ab30d27ab6067f3d722982da"}, {"lon": -77.02403883333334, "lat": 38.91990966666667, "name": "8bac6127bb7b3f317b450aa0331532b4", "fusion_lat": 0.0, "fusion_lon": 0.0, "rental_uris": {"android": "https://dc.lft.to/lastmile_qr_scan", "ios": "https://dc.lft.to/lastmile_qr_scan"}, "is_reserved": 0, "is_disabled": 0, "type": "electric_scooter", "bike_id": "8bac6127bb7b3f317b450aa0331532b4"}, {"lon": -77.03705133333334, "lat": 38.926421166666664, "name": "50e0957fcc129fdc41bc44a639ab1f97", "fusion_lat": 0.0, "fusion_lon": 0.0, "rental_uris": {"android": "https://dc.lft.to/lastmile_qr_scan", "ios": "https://dc.lft.to/lastmile_qr_scan"}, "is_reserved": 0, "is_disabled": 0, "type": "electric_scooter", "bike_id": "50e0957fcc129fdc41bc44a639ab1f97"}, {"lon": -77.03818383333333, "lat": 38.92062933333333, "name": "0825e82420a4a46005bb689aa01da260", "fusion_lat": 0.0, "fusion_lon": 0.0, "rental_uris": {"android": "https://dc.lft.to/lastmile_qr_scan", "ios": "https://dc.lft.to/lastmile_qr_scan"}, "is_reserved": 0, "is_disabled": 0, "type": "electric_scooter", "bike_id": "0825e82420a4a46005bb689aa01da260"}, {"lon": -77.04777633333333, "lat": 38.89368783333333, "name": "737c9777f1350803fe1cb57e9a2bdf2c", "fusion_lat": 0.0, "fusion_lon": 0.0, "rental_uris": {"android": "https://dc.lft.to/lastmile_qr_scan", "ios": "https://dc.lft.to/lastmile_qr_scan"}, "is_reserved": 0, "is_disabled": 0, "type": "electric_scooter", "bike_id": "737c9777f1350803fe1cb57e9a2bdf2c"}, {"lon": -77.03194033333334, "lat": 38.894001, "name": "a261bcee7dabf2fce3478c0b6700ad85", "fusion_lat": 0.0, "fusion_lon": 0.0, "rental_uris": {"android": "https://dc.lft.to/lastmile_qr_scan", "ios": "https://dc.lft.to/lastmile_qr_scan"}, "is_reserved": 0, "is_disabled": 0, "type": "electric_scooter", "bike_id": "a261bcee7dabf2fce3478c0b6700ad85"}, {"lon": -77.0296205, "lat": 38.940324333333336, "name": "87a7fbdd2788646d0f33d2e14bcd92a8", "fusion_lat": 0.0, "fusion_lon": 0.0, "rental_uris": {"android": "https://dc.lft.to/lastmile_qr_scan", "ios": "https://dc.lft.to/lastmile_qr_scan"}, "is_reserved": 0, "is_disabled": 0, "type": "electric_scooter", "bike_id": "87a7fbdd2788646d0f33d2e14bcd92a8"}, {"lon": -76.99914116666666, "lat": 38.9095635, "name": "65f4dc438d1836941c3c8b9fcb2e96c1", "fusion_lat": 0.0, "fusion_lon": 0.0, "rental_uris": {"android": "https://dc.lft.to/lastmile_qr_scan", "ios": "https://dc.lft.to/lastmile_qr_scan"}, "is_reserved": 0, "is_disabled": 0, "type": "electric_scooter", "bike_id": "65f4dc438d1836941c3c8b9fcb2e96c1"}, {"lon": -76.98226416666667, "lat": 38.86678883333333, "name": "c115a55d1a76ceb3c997306b7be6dac0", "fusion_lat": 0.0, "fusion_lon": 0.0, "rental_uris": {"android": "https://dc.lft.to/lastmile_qr_scan", "ios": "https://dc.lft.to/lastmile_qr_scan"}, "is_reserved": 0, "is_disabled": 0, "type": "electric_bike", "bike_id": "c115a55d1a76ceb3c997306b7be6dac0"}, {"lon": -77.0215745, "lat": 38.9283735, "name": "f34fb3953e3888ce74109235aff847da", "fusion_lat": 0.0, "fusion_lon": 0.0, "rental_uris": {"android": "https://dc.lft.to/lastmile_qr_scan", "ios": "https://dc.lft.to/lastmile_qr_scan"}, "is_reserved": 0, "is_disabled": 0, "type": "electric_scooter", "bike_id": "f34fb3953e3888ce74109235aff847da"}, {"lon": -77.02573066666666, "lat": 38.88743933333333, "name": "a21d475fbdafe7c1c5caa7f2eaf12bbe", "fusion_lat": 0.0, "fusion_lon": 0.0, "rental_uris": {"android": "https://dc.lft.to/lastmile_qr_scan", "ios": "https://dc.lft.to/lastmile_qr_scan"}, "is_reserved": 0, "is_disabled": 0, "type": "electric_scooter", "bike_id": "a21d475fbdafe7c1c5caa7f2eaf12bbe"}, {"lon": -76.99513966666666, "lat": 38.844685166666665, "name": "099173372a62da1f232370f06ae4d265", "fusion_lat": 0.0, "fusion_lon": 0.0, "rental_uris": {"android": "https://dc.lft.to/lastmile_qr_scan", "ios": "https://dc.lft.to/lastmile_qr_scan"}, "is_reserved": 0, "is_disabled": 0, "type": "electric_scooter", "bike_id": "099173372a62da1f232370f06ae4d265"}, {"lon": -77.039626, "lat": 38.903673166666664, "name": "e0fb8ff41d73b5bf8c199dd713ef2fcd", "fusion_lat": 0.0, "fusion_lon": 0.0, "rental_uris": {"android": "https://dc.lft.to/lastmile_qr_scan", "ios": "https://dc.lft.to/lastmile_qr_scan"}, "is_reserved": 0, "is_disabled": 0, "type": "electric_scooter", "bike_id": "e0fb8ff41d73b5bf8c199dd713ef2fcd"}, {"lon": -77.03269466666667, "lat": 38.92929316666667, "name": "2d837dfa5355060860f74d71e9f401f3", "fusion_lat": 0.0, "fusion_lon": 0.0, "rental_uris": {"android": "https://dc.lft.to/lastmile_qr_scan", "ios": "https://dc.lft.to/lastmile_qr_scan"}, "is_reserved": 0, "is_disabled": 0, "type": "electric_scooter", "bike_id": "2d837dfa5355060860f74d71e9f401f3"}, {"lon": -77.01187, "lat": 38.90035016666667, "name": "053f53520ca7e7ca09e0ada6fda85a8b", "fusion_lat": 0.0, "fusion_lon": 0.0, "rental_uris": {"android": "https://dc.lft.to/lastmile_qr_scan", "ios": "https://dc.lft.to/lastmile_qr_scan"}, "is_reserved": 0, "is_disabled": 0, "type": "electric_scooter", "bike_id": "053f53520ca7e7ca09e0ada6fda85a8b"}, {"lon": -77.028047, "lat": 38.909277333333335, "name": "f4e90f8638a5d422df3efbfb390a9a31", "fusion_lat": 0.0, "fusion_lon": 0.0, "rental_uris": {"android": "https://dc.lft.to/lastmile_qr_scan", "ios": "https://dc.lft.to/lastmile_qr_scan"}, "is_reserved": 0, "is_disabled": 0, "type": "electric_scooter", "bike_id": "f4e90f8638a5d422df3efbfb390a9a31"}, {"lon": -77.02750216666666, "lat": 38.966277, "name": "0fb5df6efb8b7241308551d5292ac3f3", "fusion_lat": 0.0, "fusion_lon": 0.0, "rental_uris": {"android": "https://dc.lft.to/lastmile_qr_scan", "ios": "https://dc.lft.to/lastmile_qr_scan"}, "is_reserved": 0, "is_disabled": 0, "type": "electric_scooter", "bike_id": "0fb5df6efb8b7241308551d5292ac3f3"}, {"lon": -77.03986116666667, "lat": 38.8030315, "name": "e5200c53986824ad9bce613710135b3a", "fusion_lat": 0.0, "fusion_lon": 0.0, "rental_uris": {"android": "https://dc.lft.to/lastmile_qr_scan", "ios": "https://dc.lft.to/lastmile_qr_scan"}, "is_reserved": 0, "is_disabled": 0, "type": "electric_bike", "bike_id": "e5200c53986824ad9bce613710135b3a"}, {"lon": -77.02719516666667, "lat": 38.906792833333334, "name": "a3c45e346c4179c8274b54637c80b708", "fusion_lat": 0.0, "fusion_lon": 0.0, "rental_uris": {"android": "https://dc.lft.to/lastmile_qr_scan", "ios": "https://dc.lft.to/lastmile_qr_scan"}, "is_reserved": 0, "is_disabled": 0, "type": "electric_scooter", "bike_id": "a3c45e346c4179c8274b54637c80b708"}, {"lon": -76.99029983333334, "lat": 38.898480666666664, "name": "9bcb608ee29588d333c42d404f3f7f50", "fusion_lat": 0.0, "fusion_lon": 0.0, "rental_uris": {"android": "https://dc.lft.to/lastmile_qr_scan", "ios": "https://dc.lft.to/lastmile_qr_scan"}, "is_reserved": 0, "is_disabled": 0, "type": "electric_scooter", "bike_id": "9bcb608ee29588d333c42d404f3f7f50"}, {"lon": -76.9826135, "lat": 38.863536833333335, "name": "cc504f4f5a0ca87440fb105ee6ed1eaa", "fusion_lat": 0.0, "fusion_lon": 0.0, "rental_uris": {"android": "https://dc.lft.to/lastmile_qr_scan", "ios": "https://dc.lft.to/lastmile_qr_scan"}, "is_reserved": 0, "is_disabled": 0, "type": "electric_scooter", "bike_id": "cc504f4f5a0ca87440fb105ee6ed1eaa"}, {"lon": -77.0165635, "lat": 38.9533465, "name": "51d61b63ac1512b290d61129506864fc", "fusion_lat": 0.0, "fusion_lon": 0.0, "rental_uris": {"android": "https://dc.lft.to/lastmile_qr_scan", "ios": "https://dc.lft.to/lastmile_qr_scan"}, "is_reserved": 0, "is_disabled": 0, "type": "electric_scooter", "bike_id": "51d61b63ac1512b290d61129506864fc"}, {"lon": -76.97560933333334, "lat": 38.9245935, "name": "347158916f2c3b20d01b1639a56f6826", "fusion_lat": 0.0, "fusion_lon": 0.0, "rental_uris": {"android": "https://dc.lft.to/lastmile_qr_scan", "ios": "https://dc.lft.to/lastmile_qr_scan"}, "is_reserved": 0, "is_disabled": 0, "type": "electric_bike", "bike_id": "347158916f2c3b20d01b1639a56f6826"}, {"lon": -77.01840883333334, "lat": 38.90879566666667, "name": "53d8fbf1ea91cceb9f9cfb94a2993c06", "fusion_lat": 0.0, "fusion_lon": 0.0, "rental_uris": {"android": "https://dc.lft.to/lastmile_qr_scan", "ios": "https://dc.lft.to/lastmile_qr_scan"}, "is_reserved": 0, "is_disabled": 0, "type": "electric_scooter", "bike_id": "53d8fbf1ea91cceb9f9cfb94a2993c06"}, {"lon": -77.02202216666667, "lat": 38.931331666666665, "name": "9cb25a9982516e754d279db23ca5f35e", "fusion_lat": 0.0, "fusion_lon": 0.0, "rental_uris": {"android": "https://dc.lft.to/lastmile_qr_scan", "ios": "https://dc.lft.to/lastmile_qr_scan"}, "is_reserved": 0, "is_disabled": 0, "type": "electric_scooter", "bike_id": "9cb25a9982516e754d279db23ca5f35e"}, {"lon": -77.0440985, "lat": 38.90574133333333, "name": "78ead57dccb75f5ff40f90ac3687632c", "fusion_lat": 0.0, "fusion_lon": 0.0, "rental_uris": {"android": "https://dc.lft.to/lastmile_qr_scan", "ios": "https://dc.lft.to/lastmile_qr_scan"}, "is_reserved": 0, "is_disabled": 0, "type": "electric_scooter", "bike_id": "78ead57dccb75f5ff40f90ac3687632c"}, {"lon": -77.04232116666667, "lat": 38.93866366666666, "name": "ac3116022a86242c80b3c3e31cc1591a", "fusion_lat": 0.0, "fusion_lon": 0.0, "rental_uris": {"android": "https://dc.lft.to/lastmile_qr_scan", "ios": "https://dc.lft.to/lastmile_qr_scan"}, "is_reserved": 0, "is_disabled": 0, "type": "electric_bike", "bike_id": "ac3116022a86242c80b3c3e31cc1591a"}, {"lon": -77.03263583333333, "lat": 38.938247833333335, "name": "e088d6f6d9ca34e4c55198a5994f0ec5", "fusion_lat": 0.0, "fusion_lon": 0.0, "rental_uris": {"android": "https://dc.lft.to/lastmile_qr_scan", "ios": "https://dc.lft.to/lastmile_qr_scan"}, "is_reserved": 0, "is_disabled": 0, "type": "electric_scooter", "bike_id": "e088d6f6d9ca34e4c55198a5994f0ec5"}, {"lon": -76.99759866666666, "lat": 38.92273, "name": "3087bedb752e37946d0a0a69fcfaaeb4", "fusion_lat": 0.0, "fusion_lon": 0.0, "rental_uris": {"android": "https://dc.lft.to/lastmile_qr_scan", "ios": "https://dc.lft.to/lastmile_qr_scan"}, "is_reserved": 0, "is_disabled": 0, "type": "electric_scooter", "bike_id": "3087bedb752e37946d0a0a69fcfaaeb4"}, {"lon": -77.097619, "lat": 38.85849316666667, "name": "e5d40fbf83dba5c2de5d01058fad50a9", "fusion_lat": 0.0, "fusion_lon": 0.0, "rental_uris": {"android": "https://dc.lft.to/lastmile_qr_scan", "ios": "https://dc.lft.to/lastmile_qr_scan"}, "is_reserved": 0, "is_disabled": 0, "type": "electric_bike", "bike_id": "e5d40fbf83dba5c2de5d01058fad50a9"}, {"lon": -77.04991033333333, "lat": 38.9011575, "name": "8167fa69cb6d15c384b6b087228a816f", "fusion_lat": 0.0, "fusion_lon": 0.0, "rental_uris": {"android": "https://dc.lft.to/lastmile_qr_scan", "ios": "https://dc.lft.to/lastmile_qr_scan"}, "is_reserved": 0, "is_disabled": 0, "type": "electric_scooter", "bike_id": "8167fa69cb6d15c384b6b087228a816f"}, {"lon": -76.94843133333333, "lat": 38.894846333333334, "name": "462abb22a36e09da0180c2a4db7b88a3", "fusion_lat": 0.0, "fusion_lon": 0.0, "rental_uris": {"android": "https://dc.lft.to/lastmile_qr_scan", "ios": "https://dc.lft.to/lastmile_qr_scan"}, "is_reserved": 0, "is_disabled": 0, "type": "electric_scooter", "bike_id": "462abb22a36e09da0180c2a4db7b88a3"}, {"lon": -77.03350183333333, "lat": 38.9084105, "name": "09f609079d36fefb04b913a0fe8a9c54", "fusion_lat": 0.0, "fusion_lon": 0.0, "rental_uris": {"android": "https://dc.lft.to/lastmile_qr_scan", "ios": "https://dc.lft.to/lastmile_qr_scan"}, "is_reserved": 0, "is_disabled": 0, "type": "electric_scooter", "bike_id": "09f609079d36fefb04b913a0fe8a9c54"}, {"lon": -77.01290816666666, "lat": 39.00378083333333, "name": "4b6773e4d75e99d92343fb9599ce9f7d", "fusion_lat": 0.0, "fusion_lon": 0.0, "rental_uris": {"android": "https://dc.lft.to/lastmile_qr_scan", "ios": "https://dc.lft.to/lastmile_qr_scan"}, "is_reserved": 0, "is_disabled": 0, "type": "electric_bike", "bike_id": "4b6773e4d75e99d92343fb9599ce9f7d"}, {"lon": -77.02555583333333, "lat": 38.892270333333336, "name": "98e1dd245759b205f7b69158acdbf8b6", "fusion_lat": 0.0, "fusion_lon": 0.0, "rental_uris": {"android": "https://dc.lft.to/lastmile_qr_scan", "ios": "https://dc.lft.to/lastmile_qr_scan"}, "is_reserved": 0, "is_disabled": 0, "type": "electric_scooter", "bike_id": "98e1dd245759b205f7b69158acdbf8b6"}, {"lon": -77.011535, "lat": 38.9038205, "name": "19a58692d7ccea79ea049ce6af27e884", "fusion_lat": 0.0, "fusion_lon": 0.0, "rental_uris": {"android": "https://dc.lft.to/lastmile_qr_scan", "ios": "https://dc.lft.to/lastmile_qr_scan"}, "is_reserved": 0, "is_disabled": 0, "type": "electric_scooter", "bike_id": "19a58692d7ccea79ea049ce6af27e884"}, {"lon": -77.04837866666666, "lat": 38.91340916666667, "name": "a6ba3843315879cd5cf4e331f13ef06f", "fusion_lat": 0.0, "fusion_lon": 0.0, "rental_uris": {"android": "https://dc.lft.to/lastmile_qr_scan", "ios": "https://dc.lft.to/lastmile_qr_scan"}, "is_reserved": 0, "is_disabled": 0, "type": "electric_scooter", "bike_id": "a6ba3843315879cd5cf4e331f13ef06f"}, {"lon": -77.027114, "lat": 38.906716, "name": "0a55837e577c74f1053c728ace9c5a7d", "fusion_lat": 0.0, "fusion_lon": 0.0, "rental_uris": {"android": "https://dc.lft.to/lastmile_qr_scan", "ios": "https://dc.lft.to/lastmile_qr_scan"}, "is_reserved": 0, "is_disabled": 0, "type": "electric_scooter", "bike_id": "0a55837e577c74f1053c728ace9c5a7d"}, {"lon": -76.99629583333333, "lat": 38.9003325, "name": "8c49c1b90138f10aaf8ba147f4698d91", "fusion_lat": 0.0, "fusion_lon": 0.0, "rental_uris": {"android": "https://dc.lft.to/lastmile_qr_scan", "ios": "https://dc.lft.to/lastmile_qr_scan"}, "is_reserved": 0, "is_disabled": 0, "type": "electric_scooter", "bike_id": "8c49c1b90138f10aaf8ba147f4698d91"}, {"lon": -77.021809, "lat": 38.91886783333333, "name": "3378649838185796102b2e4f80fb1d44", "fusion_lat": 0.0, "fusion_lon": 0.0, "rental_uris": {"android": "https://dc.lft.to/lastmile_qr_scan", "ios": "https://dc.lft.to/lastmile_qr_scan"}, "is_reserved": 0, "is_disabled": 0, "type": "electric_scooter", "bike_id": "3378649838185796102b2e4f80fb1d44"}, {"lon": -77.02917533333333, "lat": 38.884605666666666, "name": "509b59da799df0c1dd984d7692f339ec", "fusion_lat": 0.0, "fusion_lon": 0.0, "rental_uris": {"android": "https://dc.lft.to/lastmile_qr_scan", "ios": "https://dc.lft.to/lastmile_qr_scan"}, "is_reserved": 0, "is_disabled": 0, "type": "electric_scooter", "bike_id": "509b59da799df0c1dd984d7692f339ec"}, {"lon": -77.02954783333334, "lat": 38.9050015, "name": "2a71c2161073abf48a5aaeff1cf009c0", "fusion_lat": 0.0, "fusion_lon": 0.0, "rental_uris": {"android": "https://dc.lft.to/lastmile_qr_scan", "ios": "https://dc.lft.to/lastmile_qr_scan"}, "is_reserved": 0, "is_disabled": 0, "type": "electric_scooter", "bike_id": "2a71c2161073abf48a5aaeff1cf009c0"}, {"lon": -77.03703933333334, "lat": 38.91661916666666, "name": "0c5378a76c7e7ec7b6171bd6eba683f4", "fusion_lat": 0.0, "fusion_lon": 0.0, "rental_uris": {"android": "https://dc.lft.to/lastmile_qr_scan", "ios": "https://dc.lft.to/lastmile_qr_scan"}, "is_reserved": 0, "is_disabled": 0, "type": "electric_scooter", "bike_id": "0c5378a76c7e7ec7b6171bd6eba683f4"}, {"lon": -77.0085965, "lat": 38.869473666666664, "name": "010d8ead1c3f7718d5c81e48188e5358", "fusion_lat": 0.0, "fusion_lon": 0.0, "rental_uris": {"android": "https://dc.lft.to/lastmile_qr_scan", "ios": "https://dc.lft.to/lastmile_qr_scan"}, "is_reserved": 0, "is_disabled": 0, "type": "electric_scooter", "bike_id": "010d8ead1c3f7718d5c81e48188e5358"}, {"lon": -77.0153315, "lat": 38.88738416666666, "name": "0044b2b08eb7345a4057a0ea8a33c068", "fusion_lat": 0.0, "fusion_lon": 0.0, "rental_uris": {"android": "https://dc.lft.to/lastmile_qr_scan", "ios": "https://dc.lft.to/lastmile_qr_scan"}, "is_reserved": 0, "is_disabled": 0, "type": "electric_scooter", "bike_id": "0044b2b08eb7345a4057a0ea8a33c068"}, {"lon": -77.0132685, "lat": 38.91486666666667, "name": "7a05617cefab693d51b9d06154a6369f", "fusion_lat": 0.0, "fusion_lon": 0.0, "rental_uris": {"android": "https://dc.lft.to/lastmile_qr_scan", "ios": "https://dc.lft.to/lastmile_qr_scan"}, "is_reserved": 0, "is_disabled": 0, "type": "electric_scooter", "bike_id": "7a05617cefab693d51b9d06154a6369f"}, {"lon": -77.11419633333334, "lat": 38.842773, "name": "c5f4fa988b1368ad4079a12bc64306ed", "fusion_lat": 0.0, "fusion_lon": 0.0, "rental_uris": {"android": "https://dc.lft.to/lastmile_qr_scan", "ios": "https://dc.lft.to/lastmile_qr_scan"}, "is_reserved": 0, "is_disabled": 0, "type": "electric_bike", "bike_id": "c5f4fa988b1368ad4079a12bc64306ed"}, {"lon": -77.02516766666666, "lat": 38.92137983333333, "name": "4385766f95e05980151d8989ed060daf", "fusion_lat": 0.0, "fusion_lon": 0.0, "rental_uris": {"android": "https://dc.lft.to/lastmile_qr_scan", "ios": "https://dc.lft.to/lastmile_qr_scan"}, "is_reserved": 0, "is_disabled": 0, "type": "electric_scooter", "bike_id": "4385766f95e05980151d8989ed060daf"}, {"lon": -77.03181483333333, "lat": 38.91327966666667, "name": "71a7f84159b1e42a31c4765ded2a48bf", "fusion_lat": 0.0, "fusion_lon": 0.0, "rental_uris": {"android": "https://dc.lft.to/lastmile_qr_scan", "ios": "https://dc.lft.to/lastmile_qr_scan"}, "is_reserved": 0, "is_disabled": 0, "type": "electric_scooter", "bike_id": "71a7f84159b1e42a31c4765ded2a48bf"}, {"lon": -77.05311116666667, "lat": 38.82044166666667, "name": "1ffec99d1bc7c482f086a1355dfd7a47", "fusion_lat": 0.0, "fusion_lon": 0.0, "rental_uris": {"android": "https://dc.lft.to/lastmile_qr_scan", "ios": "https://dc.lft.to/lastmile_qr_scan"}, "is_reserved": 0, "is_disabled": 0, "type": "electric_bike", "bike_id": "1ffec99d1bc7c482f086a1355dfd7a47"}, {"lon": -77.07906733333333, "lat": 38.83934966666666, "name": "82f04ac73d5ee7bde411332c11b8e357", "fusion_lat": 0.0, "fusion_lon": 0.0, "rental_uris": {"android": "https://dc.lft.to/lastmile_qr_scan", "ios": "https://dc.lft.to/lastmile_qr_scan"}, "is_reserved": 0, "is_disabled": 0, "type": "electric_bike", "bike_id": "82f04ac73d5ee7bde411332c11b8e357"}, {"lon": -77.132322, "lat": 38.86974633333333, "name": "e90f33c1ac37ca5b3d46fdd9c928aff3", "fusion_lat": 0.0, "fusion_lon": 0.0, "rental_uris": {"android": "https://dc.lft.to/lastmile_qr_scan", "ios": "https://dc.lft.to/lastmile_qr_scan"}, "is_reserved": 0, "is_disabled": 0, "type": "electric_bike", "bike_id": "e90f33c1ac37ca5b3d46fdd9c928aff3"}, {"lon": -77.03837566666667, "lat": 38.91188116666667, "name": "5226692e430c761729ca32201d2c0586", "fusion_lat": 0.0, "fusion_lon": 0.0, "rental_uris": {"android": "https://dc.lft.to/lastmile_qr_scan", "ios": "https://dc.lft.to/lastmile_qr_scan"}, "is_reserved": 0, "is_disabled": 0, "type": "electric_scooter", "bike_id": "5226692e430c761729ca32201d2c0586"}, {"lon": -77.03268283333334, "lat": 38.92862266666667, "name": "a6d6a644f2bb70db786f82efc955070d", "fusion_lat": 0.0, "fusion_lon": 0.0, "rental_uris": {"android": "https://dc.lft.to/lastmile_qr_scan", "ios": "https://dc.lft.to/lastmile_qr_scan"}, "is_reserved": 0, "is_disabled": 0, "type": "electric_scooter", "bike_id": "a6d6a644f2bb70db786f82efc955070d"}, {"lon": -77.032593, "lat": 38.932445, "name": "e6bb68655a99b603f42d643e56ab5943", "fusion_lat": 0.0, "fusion_lon": 0.0, "rental_uris": {"android": "https://dc.lft.to/lastmile_qr_scan", "ios": "https://dc.lft.to/lastmile_qr_scan"}, "is_reserved": 0, "is_disabled": 0, "type": "electric_scooter", "bike_id": "e6bb68655a99b603f42d643e56ab5943"}, {"lon": -77.02686866666667, "lat": 38.898332833333335, "name": "eabab5fe767a5f979831da77060024d0", "fusion_lat": 0.0, "fusion_lon": 0.0, "rental_uris": {"android": "https://dc.lft.to/lastmile_qr_scan", "ios": "https://dc.lft.to/lastmile_qr_scan"}, "is_reserved": 0, "is_disabled": 0, "type": "electric_scooter", "bike_id": "eabab5fe767a5f979831da77060024d0"}, {"lon": -77.0296325, "lat": 38.90382533333333, "name": "77166386748729edce111c2d562e03b2", "fusion_lat": 0.0, "fusion_lon": 0.0, "rental_uris": {"android": "https://dc.lft.to/lastmile_qr_scan", "ios": "https://dc.lft.to/lastmile_qr_scan"}, "is_reserved": 0, "is_disabled": 0, "type": "electric_scooter", "bike_id": "77166386748729edce111c2d562e03b2"}, {"lon": -77.03237983333334, "lat": 38.914828, "name": "47fd6c7590d2cd60087798ad3811ac64", "fusion_lat": 0.0, "fusion_lon": 0.0, "rental_uris": {"android": "https://dc.lft.to/lastmile_qr_scan", "ios": "https://dc.lft.to/lastmile_qr_scan"}, "is_reserved": 0, "is_disabled": 0, "type": "electric_scooter", "bike_id": "47fd6c7590d2cd60087798ad3811ac64"}, {"lon": -76.98548316666667, "lat": 38.88392416666667, "name": "e4bf290a791cbb309070d049aa939ab7", "fusion_lat": 0.0, "fusion_lon": 0.0, "rental_uris": {"android": "https://dc.lft.to/lastmile_qr_scan", "ios": "https://dc.lft.to/lastmile_qr_scan"}, "is_reserved": 0, "is_disabled": 0, "type": "electric_scooter", "bike_id": "e4bf290a791cbb309070d049aa939ab7"}, {"lon": -76.99953333333333, "lat": 38.90867016666667, "name": "e8528165b8fca12e24f7f7a4c4513a65", "fusion_lat": 0.0, "fusion_lon": 0.0, "rental_uris": {"android": "https://dc.lft.to/lastmile_qr_scan", "ios": "https://dc.lft.to/lastmile_qr_scan"}, "is_reserved": 0, "is_disabled": 0, "type": "electric_scooter", "bike_id": "e8528165b8fca12e24f7f7a4c4513a65"}, {"lon": -77.04887116666667, "lat": 38.909537666666665, "name": "cd123971b5d24f4e97c985aa9c80cd61", "fusion_lat": 0.0, "fusion_lon": 0.0, "rental_uris": {"android": "https://dc.lft.to/lastmile_qr_scan", "ios": "https://dc.lft.to/lastmile_qr_scan"}, "is_reserved": 0, "is_disabled": 0, "type": "electric_scooter", "bike_id": "cd123971b5d24f4e97c985aa9c80cd61"}, {"lon": -77.00903233333334, "lat": 38.8973095, "name": "5885d80eef8bc9eb7a92e5dac7616d2d", "fusion_lat": 0.0, "fusion_lon": 0.0, "rental_uris": {"android": "https://dc.lft.to/lastmile_qr_scan", "ios": "https://dc.lft.to/lastmile_qr_scan"}, "is_reserved": 0, "is_disabled": 0, "type": "electric_scooter", "bike_id": "5885d80eef8bc9eb7a92e5dac7616d2d"}, {"lon": -77.019007, "lat": 38.911876666666664, "name": "5e1d94eca48859e87e289ca72ccc32da", "fusion_lat": 0.0, "fusion_lon": 0.0, "rental_uris": {"android": "https://dc.lft.to/lastmile_qr_scan", "ios": "https://dc.lft.to/lastmile_qr_scan"}, "is_reserved": 0, "is_disabled": 0, "type": "electric_scooter", "bike_id": "5e1d94eca48859e87e289ca72ccc32da"}, {"lon": -77.00211816666666, "lat": 38.90718233333333, "name": "329e9f34cb235d87693adcf1f00c7cc5", "fusion_lat": 0.0, "fusion_lon": 0.0, "rental_uris": {"android": "https://dc.lft.to/lastmile_qr_scan", "ios": "https://dc.lft.to/lastmile_qr_scan"}, "is_reserved": 0, "is_disabled": 0, "type": "electric_scooter", "bike_id": "329e9f34cb235d87693adcf1f00c7cc5"}, {"lon": -77.033513, "lat": 38.897345, "name": "c3d6cb121633f5e5aca5c447c92e8dbb", "fusion_lat": 0.0, "fusion_lon": 0.0, "rental_uris": {"android": "https://dc.lft.to/lastmile_qr_scan", "ios": "https://dc.lft.to/lastmile_qr_scan"}, "is_reserved": 0, "is_disabled": 0, "type": "electric_scooter", "bike_id": "c3d6cb121633f5e5aca5c447c92e8dbb"}, {"lon": -77.04275, "lat": 38.923071166666666, "name": "b95cf6716f9bd7f92e82bdf5b179bed9", "fusion_lat": 0.0, "fusion_lon": 0.0, "rental_uris": {"android": "https://dc.lft.to/lastmile_qr_scan", "ios": "https://dc.lft.to/lastmile_qr_scan"}, "is_reserved": 0, "is_disabled": 0, "type": "electric_scooter", "bike_id": "b95cf6716f9bd7f92e82bdf5b179bed9"}, {"lon": -77.07604316666666, "lat": 38.912159, "name": "2e84b4a2b53f833384cd1d3fec6ee8f0", "fusion_lat": 0.0, "fusion_lon": 0.0, "rental_uris": {"android": "https://dc.lft.to/lastmile_qr_scan", "ios": "https://dc.lft.to/lastmile_qr_scan"}, "is_reserved": 0, "is_disabled": 0, "type": "electric_scooter", "bike_id": "2e84b4a2b53f833384cd1d3fec6ee8f0"}, {"lon": -77.03813416666667, "lat": 38.9311955, "name": "a6dbcee6c849ccf655a70590d1630c03", "fusion_lat": 0.0, "fusion_lon": 0.0, "rental_uris": {"android": "https://dc.lft.to/lastmile_qr_scan", "ios": "https://dc.lft.to/lastmile_qr_scan"}, "is_reserved": 0, "is_disabled": 0, "type": "electric_scooter", "bike_id": "a6dbcee6c849ccf655a70590d1630c03"}, {"lon": -76.97252766666666, "lat": 38.957414666666665, "name": "52156595a051e4409d1b7d7f4375459c", "fusion_lat": 0.0, "fusion_lon": 0.0, "rental_uris": {"android": "https://dc.lft.to/lastmile_qr_scan", "ios": "https://dc.lft.to/lastmile_qr_scan"}, "is_reserved": 0, "is_disabled": 0, "type": "electric_bike", "bike_id": "52156595a051e4409d1b7d7f4375459c"}, {"lon": -76.95656433333333, "lat": 38.89611283333333, "name": "2278a748e66c7ad1d5261028137aaa64", "fusion_lat": 0.0, "fusion_lon": 0.0, "rental_uris": {"android": "https://dc.lft.to/lastmile_qr_scan", "ios": "https://dc.lft.to/lastmile_qr_scan"}, "is_reserved": 0, "is_disabled": 0, "type": "electric_scooter", "bike_id": "2278a748e66c7ad1d5261028137aaa64"}, {"lon": -76.94653583333333, "lat": 38.898265333333335, "name": "9e28c13fb505dddbf7f66a7cf8239fed", "fusion_lat": 0.0, "fusion_lon": 0.0, "rental_uris": {"android": "https://dc.lft.to/lastmile_qr_scan", "ios": "https://dc.lft.to/lastmile_qr_scan"}, "is_reserved": 0, "is_disabled": 0, "type": "electric_scooter", "bike_id": "9e28c13fb505dddbf7f66a7cf8239fed"}, {"lon": -77.03846066666667, "lat": 38.91208666666667, "name": "fcdfed32340d9971cc38d0617260d045", "fusion_lat": 0.0, "fusion_lon": 0.0, "rental_uris": {"android": "https://dc.lft.to/lastmile_qr_scan", "ios": "https://dc.lft.to/lastmile_qr_scan"}, "is_reserved": 0, "is_disabled": 0, "type": "electric_scooter", "bike_id": "fcdfed32340d9971cc38d0617260d045"}, {"lon": -77.026507, "lat": 38.93863, "name": "405bf90d2a6e0060270fef7d5e1794d5", "fusion_lat": 0.0, "fusion_lon": 0.0, "rental_uris": {"android": "https://dc.lft.to/lastmile_qr_scan", "ios": "https://dc.lft.to/lastmile_qr_scan"}, "is_reserved": 0, "is_disabled": 0, "type": "electric_scooter", "bike_id": "405bf90d2a6e0060270fef7d5e1794d5"}, {"lon": -77.03473666666666, "lat": 38.91712033333334, "name": "c3f7551ba1c9dd9b3d1561c500fe7bd8", "fusion_lat": 0.0, "fusion_lon": 0.0, "rental_uris": {"android": "https://dc.lft.to/lastmile_qr_scan", "ios": "https://dc.lft.to/lastmile_qr_scan"}, "is_reserved": 0, "is_disabled": 0, "type": "electric_scooter", "bike_id": "c3f7551ba1c9dd9b3d1561c500fe7bd8"}, {"lon": -77.099649, "lat": 38.922439833333335, "name": "f5c0e7b0c6d8372d9edcd0751679a0fc", "fusion_lat": 0.0, "fusion_lon": 0.0, "rental_uris": {"android": "https://dc.lft.to/lastmile_qr_scan", "ios": "https://dc.lft.to/lastmile_qr_scan"}, "is_reserved": 0, "is_disabled": 0, "type": "electric_scooter", "bike_id": "f5c0e7b0c6d8372d9edcd0751679a0fc"}, {"lon": -77.04644416666666, "lat": 38.922319333333334, "name": "f378fdf43c608a88f2a68dfa72a91389", "fusion_lat": 0.0, "fusion_lon": 0.0, "rental_uris": {"android": "https://dc.lft.to/lastmile_qr_scan", "ios": "https://dc.lft.to/lastmile_qr_scan"}, "is_reserved": 0, "is_disabled": 0, "type": "electric_scooter", "bike_id": "f378fdf43c608a88f2a68dfa72a91389"}, {"lon": -76.96628483333333, "lat": 38.9419965, "name": "9467fd552ecbe607f2d7082262a00c95", "fusion_lat": 0.0, "fusion_lon": 0.0, "rental_uris": {"android": "https://dc.lft.to/lastmile_qr_scan", "ios": "https://dc.lft.to/lastmile_qr_scan"}, "is_reserved": 0, "is_disabled": 0, "type": "electric_bike", "bike_id": "9467fd552ecbe607f2d7082262a00c95"}, {"lon": -77.078324, "lat": 38.9266955, "name": "f271523ac0c34aa80a57306815e93308", "fusion_lat": 0.0, "fusion_lon": 0.0, "rental_uris": {"android": "https://dc.lft.to/lastmile_qr_scan", "ios": "https://dc.lft.to/lastmile_qr_scan"}, "is_reserved": 0, "is_disabled": 0, "type": "electric_scooter", "bike_id": "f271523ac0c34aa80a57306815e93308"}, {"lon": -77.03652316666667, "lat": 38.921142, "name": "1c2948d16d804c5f7b352182316c95b5", "fusion_lat": 0.0, "fusion_lon": 0.0, "rental_uris": {"android": "https://dc.lft.to/lastmile_qr_scan", "ios": "https://dc.lft.to/lastmile_qr_scan"}, "is_reserved": 0, "is_disabled": 0, "type": "electric_scooter", "bike_id": "1c2948d16d804c5f7b352182316c95b5"}, {"lon": -77.01613516666667, "lat": 38.887516833333336, "name": "f17d807a99b45144168d94625eb7af5d", "fusion_lat": 0.0, "fusion_lon": 0.0, "rental_uris": {"android": "https://dc.lft.to/lastmile_qr_scan", "ios": "https://dc.lft.to/lastmile_qr_scan"}, "is_reserved": 0, "is_disabled": 0, "type": "electric_scooter", "bike_id": "f17d807a99b45144168d94625eb7af5d"}, {"lon": -77.02232783333334, "lat": 38.912683333333334, "name": "17b361dba634bc472196332b1ea4cdb9", "fusion_lat": 0.0, "fusion_lon": 0.0, "rental_uris": {"android": "https://dc.lft.to/lastmile_qr_scan", "ios": "https://dc.lft.to/lastmile_qr_scan"}, "is_reserved": 0, "is_disabled": 0, "type": "electric_scooter", "bike_id": "17b361dba634bc472196332b1ea4cdb9"}, {"lon": -77.03197916666667, "lat": 38.9142025, "name": "ac30e41e55d1835a761673e8d9457c59", "fusion_lat": 0.0, "fusion_lon": 0.0, "rental_uris": {"android": "https://dc.lft.to/lastmile_qr_scan", "ios": "https://dc.lft.to/lastmile_qr_scan"}, "is_reserved": 0, "is_disabled": 0, "type": "electric_scooter", "bike_id": "ac30e41e55d1835a761673e8d9457c59"}, {"lon": -77.0220225, "lat": 38.88623416666667, "name": "b91f4affd855773a8462729de99f6054", "fusion_lat": 0.0, "fusion_lon": 0.0, "rental_uris": {"android": "https://dc.lft.to/lastmile_qr_scan", "ios": "https://dc.lft.to/lastmile_qr_scan"}, "is_reserved": 0, "is_disabled": 0, "type": "electric_scooter", "bike_id": "b91f4affd855773a8462729de99f6054"}, {"lon": -76.9870565, "lat": 38.900225666666664, "name": "29596e52a0bada74c315ca0ab64a9d24", "fusion_lat": 0.0, "fusion_lon": 0.0, "rental_uris": {"android": "https://dc.lft.to/lastmile_qr_scan", "ios": "https://dc.lft.to/lastmile_qr_scan"}, "is_reserved": 0, "is_disabled": 0, "type": "electric_scooter", "bike_id": "29596e52a0bada74c315ca0ab64a9d24"}, {"lon": -77.03456616666666, "lat": 38.902714, "name": "f0e42fd42b785135905f4afa4dad3c83", "fusion_lat": 0.0, "fusion_lon": 0.0, "rental_uris": {"android": "https://dc.lft.to/lastmile_qr_scan", "ios": "https://dc.lft.to/lastmile_qr_scan"}, "is_reserved": 0, "is_disabled": 0, "type": "electric_scooter", "bike_id": "f0e42fd42b785135905f4afa4dad3c83"}, {"lon": -77.00827133333334, "lat": 38.91370333333333, "name": "6627081a6ae9722a70e3b90c8fe64381", "fusion_lat": 0.0, "fusion_lon": 0.0, "rental_uris": {"android": "https://dc.lft.to/lastmile_qr_scan", "ios": "https://dc.lft.to/lastmile_qr_scan"}, "is_reserved": 0, "is_disabled": 0, "type": "electric_scooter", "bike_id": "6627081a6ae9722a70e3b90c8fe64381"}, {"lon": -77.0075575, "lat": 38.87116816666666, "name": "6c2af8541146648077ace23a3d43c28e", "fusion_lat": 0.0, "fusion_lon": 0.0, "rental_uris": {"android": "https://dc.lft.to/lastmile_qr_scan", "ios": "https://dc.lft.to/lastmile_qr_scan"}, "is_reserved": 0, "is_disabled": 0, "type": "electric_scooter", "bike_id": "6c2af8541146648077ace23a3d43c28e"}, {"lon": -77.02724166666667, "lat": 38.95131516666667, "name": "95e32db24014b51b35c48d33a2273bc6", "fusion_lat": 0.0, "fusion_lon": 0.0, "rental_uris": {"android": "https://dc.lft.to/lastmile_qr_scan", "ios": "https://dc.lft.to/lastmile_qr_scan"}, "is_reserved": 0, "is_disabled": 0, "type": "electric_scooter", "bike_id": "95e32db24014b51b35c48d33a2273bc6"}, {"lon": -77.00928283333333, "lat": 38.89606166666667, "name": "0bcc75611b06a511287419923af4ba47", "fusion_lat": 0.0, "fusion_lon": 0.0, "rental_uris": {"android": "https://dc.lft.to/lastmile_qr_scan", "ios": "https://dc.lft.to/lastmile_qr_scan"}, "is_reserved": 0, "is_disabled": 0, "type": "electric_scooter", "bike_id": "0bcc75611b06a511287419923af4ba47"}, {"lon": -77.35309366666667, "lat": 38.95002783333333, "name": "ed44f1dfaa441d226147a40b56171f4c", "fusion_lat": 0.0, "fusion_lon": 0.0, "rental_uris": {"android": "https://dc.lft.to/lastmile_qr_scan", "ios": "https://dc.lft.to/lastmile_qr_scan"}, "is_reserved": 0, "is_disabled": 0, "type": "electric_bike", "bike_id": "ed44f1dfaa441d226147a40b56171f4c"}, {"lon": -77.0385365, "lat": 38.912612333333335, "name": "3d3c5154d262f69a1d343db30604fa70", "fusion_lat": 0.0, "fusion_lon": 0.0, "rental_uris": {"android": "https://dc.lft.to/lastmile_qr_scan", "ios": "https://dc.lft.to/lastmile_qr_scan"}, "is_reserved": 0, "is_disabled": 0, "type": "electric_scooter", "bike_id": "3d3c5154d262f69a1d343db30604fa70"}, {"lon": -77.01511466666666, "lat": 38.913422833333335, "name": "a51ec373d77519e7c9c7100f037100b7", "fusion_lat": 0.0, "fusion_lon": 0.0, "rental_uris": {"android": "https://dc.lft.to/lastmile_qr_scan", "ios": "https://dc.lft.to/lastmile_qr_scan"}, "is_reserved": 0, "is_disabled": 0, "type": "electric_scooter", "bike_id": "a51ec373d77519e7c9c7100f037100b7"}, {"lon": -77.02683266666666, "lat": 38.902554, "name": "51b4c28fc24bf152af682988b795c866", "fusion_lat": 0.0, "fusion_lon": 0.0, "rental_uris": {"android": "https://dc.lft.to/lastmile_qr_scan", "ios": "https://dc.lft.to/lastmile_qr_scan"}, "is_reserved": 0, "is_disabled": 0, "type": "electric_scooter", "bike_id": "51b4c28fc24bf152af682988b795c866"}, {"lon": -76.99172116666666, "lat": 38.879267666666664, "name": "a71d5b18eebfe4b5897d97387c73de1d", "fusion_lat": 0.0, "fusion_lon": 0.0, "rental_uris": {"android": "https://dc.lft.to/lastmile_qr_scan", "ios": "https://dc.lft.to/lastmile_qr_scan"}, "is_reserved": 0, "is_disabled": 0, "type": "electric_scooter", "bike_id": "a71d5b18eebfe4b5897d97387c73de1d"}, {"lon": -77.0441955, "lat": 38.91132266666666, "name": "0f9e35e61178320855c99a5692101966", "fusion_lat": 0.0, "fusion_lon": 0.0, "rental_uris": {"android": "https://dc.lft.to/lastmile_qr_scan", "ios": "https://dc.lft.to/lastmile_qr_scan"}, "is_reserved": 0, "is_disabled": 0, "type": "electric_scooter", "bike_id": "0f9e35e61178320855c99a5692101966"}, {"lon": -76.99882766666667, "lat": 38.907535, "name": "8b490b77a8fcd1fd22dd3b80871a862b", "fusion_lat": 0.0, "fusion_lon": 0.0, "rental_uris": {"android": "https://dc.lft.to/lastmile_qr_scan", "ios": "https://dc.lft.to/lastmile_qr_scan"}, "is_reserved": 0, "is_disabled": 0, "type": "electric_scooter", "bike_id": "8b490b77a8fcd1fd22dd3b80871a862b"}, {"lon": -77.03450833333333, "lat": 38.90474966666667, "name": "01b17c487f5c9a735e41baa145f19b7a", "fusion_lat": 0.0, "fusion_lon": 0.0, "rental_uris": {"android": "https://dc.lft.to/lastmile_qr_scan", "ios": "https://dc.lft.to/lastmile_qr_scan"}, "is_reserved": 0, "is_disabled": 0, "type": "electric_scooter", "bike_id": "01b17c487f5c9a735e41baa145f19b7a"}, {"lon": -77.03164666666666, "lat": 38.91413333333333, "name": "ac412fff99173dcbc29d3131285ea335", "fusion_lat": 0.0, "fusion_lon": 0.0, "rental_uris": {"android": "https://dc.lft.to/lastmile_qr_scan", "ios": "https://dc.lft.to/lastmile_qr_scan"}, "is_reserved": 0, "is_disabled": 0, "type": "electric_scooter", "bike_id": "ac412fff99173dcbc29d3131285ea335"}, {"lon": -77.06475833333333, "lat": 38.973810666666665, "name": "f64381c99d7ed8fb48ed4eb036bb39a1", "fusion_lat": 0.0, "fusion_lon": 0.0, "rental_uris": {"android": "https://dc.lft.to/lastmile_qr_scan", "ios": "https://dc.lft.to/lastmile_qr_scan"}, "is_reserved": 0, "is_disabled": 0, "type": "electric_bike", "bike_id": "f64381c99d7ed8fb48ed4eb036bb39a1"}, {"lon": -77.0338795, "lat": 38.921591666666664, "name": "90935fb3ec708a3d21ac529b662297a9", "fusion_lat": 0.0, "fusion_lon": 0.0, "rental_uris": {"android": "https://dc.lft.to/lastmile_qr_scan", "ios": "https://dc.lft.to/lastmile_qr_scan"}, "is_reserved": 0, "is_disabled": 0, "type": "electric_scooter", "bike_id": "90935fb3ec708a3d21ac529b662297a9"}, {"lon": -77.0280045, "lat": 38.89241366666667, "name": "d5f0e541e499ffde867977ba8d76f8a2", "fusion_lat": 0.0, "fusion_lon": 0.0, "rental_uris": {"android": "https://dc.lft.to/lastmile_qr_scan", "ios": "https://dc.lft.to/lastmile_qr_scan"}, "is_reserved": 0, "is_disabled": 0, "type": "electric_scooter", "bike_id": "d5f0e541e499ffde867977ba8d76f8a2"}, {"lon": -77.02061966666666, "lat": 38.920175666666665, "name": "8162b05c49bc8537503cfe3e1219a093", "fusion_lat": 0.0, "fusion_lon": 0.0, "rental_uris": {"android": "https://dc.lft.to/lastmile_qr_scan", "ios": "https://dc.lft.to/lastmile_qr_scan"}, "is_reserved": 0, "is_disabled": 0, "type": "electric_scooter", "bike_id": "8162b05c49bc8537503cfe3e1219a093"}, {"lon": -77.00211, "lat": 38.905118, "name": "43ab610584d8fd91243f851e3f2f3269", "fusion_lat": 0.0, "fusion_lon": 0.0, "rental_uris": {"android": "https://dc.lft.to/lastmile_qr_scan", "ios": "https://dc.lft.to/lastmile_qr_scan"}, "is_reserved": 0, "is_disabled": 0, "type": "electric_scooter", "bike_id": "43ab610584d8fd91243f851e3f2f3269"}, {"lon": -77.038593, "lat": 38.912614, "name": "51ca72417c24c229547a21e03444c65c", "fusion_lat": 0.0, "fusion_lon": 0.0, "rental_uris": {"android": "https://dc.lft.to/lastmile_qr_scan", "ios": "https://dc.lft.to/lastmile_qr_scan"}, "is_reserved": 0, "is_disabled": 0, "type": "electric_scooter", "bike_id": "51ca72417c24c229547a21e03444c65c"}, {"lon": -77.01157483333333, "lat": 38.89343133333333, "name": "f84bbac0afee08c565b6ce6f85ef11fd", "fusion_lat": 0.0, "fusion_lon": 0.0, "rental_uris": {"android": "https://dc.lft.to/lastmile_qr_scan", "ios": "https://dc.lft.to/lastmile_qr_scan"}, "is_reserved": 0, "is_disabled": 0, "type": "electric_scooter", "bike_id": "f84bbac0afee08c565b6ce6f85ef11fd"}, {"lon": -76.94946683333333, "lat": 38.8832395, "name": "a65071152b54c4826c6dc2edef464e53", "fusion_lat": 0.0, "fusion_lon": 0.0, "rental_uris": {"android": "https://dc.lft.to/lastmile_qr_scan", "ios": "https://dc.lft.to/lastmile_qr_scan"}, "is_reserved": 0, "is_disabled": 0, "type": "electric_scooter", "bike_id": "a65071152b54c4826c6dc2edef464e53"}, {"lon": -77.00922533333333, "lat": 38.89725816666667, "name": "d2439ce6ada3acb777d53fe12ca3fb94", "fusion_lat": 0.0, "fusion_lon": 0.0, "rental_uris": {"android": "https://dc.lft.to/lastmile_qr_scan", "ios": "https://dc.lft.to/lastmile_qr_scan"}, "is_reserved": 0, "is_disabled": 0, "type": "electric_scooter", "bike_id": "d2439ce6ada3acb777d53fe12ca3fb94"}, {"lon": -77.0037005, "lat": 38.836126, "name": "cfa3d43436313f51d23ce0476747b6cb", "fusion_lat": 0.0, "fusion_lon": 0.0, "rental_uris": {"android": "https://dc.lft.to/lastmile_qr_scan", "ios": "https://dc.lft.to/lastmile_qr_scan"}, "is_reserved": 0, "is_disabled": 0, "type": "electric_bike", "bike_id": "cfa3d43436313f51d23ce0476747b6cb"}, {"lon": -77.03511016666667, "lat": 38.975906, "name": "df00469b1f9c68281e67f16b843a8350", "fusion_lat": 0.0, "fusion_lon": 0.0, "rental_uris": {"android": "https://dc.lft.to/lastmile_qr_scan", "ios": "https://dc.lft.to/lastmile_qr_scan"}, "is_reserved": 0, "is_disabled": 0, "type": "electric_bike", "bike_id": "df00469b1f9c68281e67f16b843a8350"}, {"lon": -76.99779183333334, "lat": 38.844262, "name": "e4e92198ba3997dd75002735f1e22c02", "fusion_lat": 0.0, "fusion_lon": 0.0, "rental_uris": {"android": "https://dc.lft.to/lastmile_qr_scan", "ios": "https://dc.lft.to/lastmile_qr_scan"}, "is_reserved": 0, "is_disabled": 0, "type": "electric_scooter", "bike_id": "e4e92198ba3997dd75002735f1e22c02"}, {"lon": -77.03649333333334, "lat": 38.9127275, "name": "fa76cfaeb454c1cb73a65481e0e36553", "fusion_lat": 0.0, "fusion_lon": 0.0, "rental_uris": {"android": "https://dc.lft.to/lastmile_qr_scan", "ios": "https://dc.lft.to/lastmile_qr_scan"}, "is_reserved": 0, "is_disabled": 0, "type": "electric_scooter", "bike_id": "fa76cfaeb454c1cb73a65481e0e36553"}, {"lon": -77.04284483333333, "lat": 38.907174499999996, "name": "f663f2547618a4363069d940219b3401", "fusion_lat": 0.0, "fusion_lon": 0.0, "rental_uris": {"android": "https://dc.lft.to/lastmile_qr_scan", "ios": "https://dc.lft.to/lastmile_qr_scan"}, "is_reserved": 0, "is_disabled": 0, "type": "electric_scooter", "bike_id": "f663f2547618a4363069d940219b3401"}, {"lon": -77.09551266666666, "lat": 38.837321, "name": "3b1d131bc763663b2def43615d8a5131", "fusion_lat": 0.0, "fusion_lon": 0.0, "rental_uris": {"android": "https://dc.lft.to/lastmile_qr_scan", "ios": "https://dc.lft.to/lastmile_qr_scan"}, "is_reserved": 0, "is_disabled": 0, "type": "electric_bike", "bike_id": "3b1d131bc763663b2def43615d8a5131"}, {"lon": -77.07636316666667, "lat": 38.906165, "name": "0e505c3e08c5ec94c8e7bbe365e82670", "fusion_lat": 0.0, "fusion_lon": 0.0, "rental_uris": {"android": "https://dc.lft.to/lastmile_qr_scan", "ios": "https://dc.lft.to/lastmile_qr_scan"}, "is_reserved": 0, "is_disabled": 0, "type": "electric_bike", "bike_id": "0e505c3e08c5ec94c8e7bbe365e82670"}, {"lon": -77.01214883333333, "lat": 38.914976333333335, "name": "c705644d7d86ef0f23ed677757ab3a8f", "fusion_lat": 0.0, "fusion_lon": 0.0, "rental_uris": {"android": "https://dc.lft.to/lastmile_qr_scan", "ios": "https://dc.lft.to/lastmile_qr_scan"}, "is_reserved": 0, "is_disabled": 0, "type": "electric_scooter", "bike_id": "c705644d7d86ef0f23ed677757ab3a8f"}, {"lon": -77.0326165, "lat": 38.90228166666667, "name": "ba72a7856d1d63515252bf3e4366a4c6", "fusion_lat": 0.0, "fusion_lon": 0.0, "rental_uris": {"android": "https://dc.lft.to/lastmile_qr_scan", "ios": "https://dc.lft.to/lastmile_qr_scan"}, "is_reserved": 0, "is_disabled": 0, "type": "electric_scooter", "bike_id": "ba72a7856d1d63515252bf3e4366a4c6"}, {"lon": -77.02368333333334, "lat": 38.91984733333334, "name": "0731df78fa766252c1ffdcc4585d0dd7", "fusion_lat": 0.0, "fusion_lon": 0.0, "rental_uris": {"android": "https://dc.lft.to/lastmile_qr_scan", "ios": "https://dc.lft.to/lastmile_qr_scan"}, "is_reserved": 0, "is_disabled": 0, "type": "electric_scooter", "bike_id": "0731df78fa766252c1ffdcc4585d0dd7"}, {"lon": -77.018418, "lat": 38.946326666666664, "name": "5323edd1957d9792e337a49f866f4cd9", "fusion_lat": 0.0, "fusion_lon": 0.0, "rental_uris": {"android": "https://dc.lft.to/lastmile_qr_scan", "ios": "https://dc.lft.to/lastmile_qr_scan"}, "is_reserved": 0, "is_disabled": 0, "type": "electric_scooter", "bike_id": "5323edd1957d9792e337a49f866f4cd9"}, {"lon": -77.04079383333334, "lat": 38.923877166666664, "name": "d5a0bcbb8c018d236e9eb37f5dd820de", "fusion_lat": 0.0, "fusion_lon": 0.0, "rental_uris": {"android": "https://dc.lft.to/lastmile_qr_scan", "ios": "https://dc.lft.to/lastmile_qr_scan"}, "is_reserved": 0, "is_disabled": 0, "type": "electric_scooter", "bike_id": "d5a0bcbb8c018d236e9eb37f5dd820de"}, {"lon": -77.02905383333334, "lat": 38.95846083333333, "name": "9582460ee3242aaf3fcdc51d76b26f63", "fusion_lat": 0.0, "fusion_lon": 0.0, "rental_uris": {"android": "https://dc.lft.to/lastmile_qr_scan", "ios": "https://dc.lft.to/lastmile_qr_scan"}, "is_reserved": 0, "is_disabled": 0, "type": "electric_scooter", "bike_id": "9582460ee3242aaf3fcdc51d76b26f63"}, {"lon": -77.0414425, "lat": 38.8922385, "name": "589d241ab621933f1dbbc46636618dd8", "fusion_lat": 0.0, "fusion_lon": 0.0, "rental_uris": {"android": "https://dc.lft.to/lastmile_qr_scan", "ios": "https://dc.lft.to/lastmile_qr_scan"}, "is_reserved": 0, "is_disabled": 0, "type": "electric_scooter", "bike_id": "589d241ab621933f1dbbc46636618dd8"}, {"lon": -77.02986433333334, "lat": 38.907335833333335, "name": "ab1b3a1203d2be077c80b9a353302ae8", "fusion_lat": 0.0, "fusion_lon": 0.0, "rental_uris": {"android": "https://dc.lft.to/lastmile_qr_scan", "ios": "https://dc.lft.to/lastmile_qr_scan"}, "is_reserved": 0, "is_disabled": 0, "type": "electric_scooter", "bike_id": "ab1b3a1203d2be077c80b9a353302ae8"}, {"lon": -77.03267083333333, "lat": 38.908649, "name": "288fa9f384939cb944623a6dfae36d03", "fusion_lat": 0.0, "fusion_lon": 0.0, "rental_uris": {"android": "https://dc.lft.to/lastmile_qr_scan", "ios": "https://dc.lft.to/lastmile_qr_scan"}, "is_reserved": 0, "is_disabled": 0, "type": "electric_scooter", "bike_id": "288fa9f384939cb944623a6dfae36d03"}, {"lon": -76.98733166666666, "lat": 38.8671605, "name": "b599e1091f118187ecf87310477f3ef0", "fusion_lat": 0.0, "fusion_lon": 0.0, "rental_uris": {"android": "https://dc.lft.to/lastmile_qr_scan", "ios": "https://dc.lft.to/lastmile_qr_scan"}, "is_reserved": 0, "is_disabled": 0, "type": "electric_scooter", "bike_id": "b599e1091f118187ecf87310477f3ef0"}, {"lon": -76.99935466666666, "lat": 38.896188, "name": "c05b719a608fb8eb8b597a1da97ad8be", "fusion_lat": 0.0, "fusion_lon": 0.0, "rental_uris": {"android": "https://dc.lft.to/lastmile_qr_scan", "ios": "https://dc.lft.to/lastmile_qr_scan"}, "is_reserved": 0, "is_disabled": 0, "type": "electric_scooter", "bike_id": "c05b719a608fb8eb8b597a1da97ad8be"}, {"lon": -77.11428583333333, "lat": 38.852472166666665, "name": "c86b939a979a661bafc8f236bd947d76", "fusion_lat": 0.0, "fusion_lon": 0.0, "rental_uris": {"android": "https://dc.lft.to/lastmile_qr_scan", "ios": "https://dc.lft.to/lastmile_qr_scan"}, "is_reserved": 0, "is_disabled": 0, "type": "electric_bike", "bike_id": "c86b939a979a661bafc8f236bd947d76"}, {"lon": -77.0403735, "lat": 38.92379116666667, "name": "041837c7442f03674b7822d8cfa78978", "fusion_lat": 0.0, "fusion_lon": 0.0, "rental_uris": {"android": "https://dc.lft.to/lastmile_qr_scan", "ios": "https://dc.lft.to/lastmile_qr_scan"}, "is_reserved": 0, "is_disabled": 0, "type": "electric_scooter", "bike_id": "041837c7442f03674b7822d8cfa78978"}, {"lon": -77.0444325, "lat": 38.9082365, "name": "8c771499ddef891a3b87aa408c8fe32f", "fusion_lat": 0.0, "fusion_lon": 0.0, "rental_uris": {"android": "https://dc.lft.to/lastmile_qr_scan", "ios": "https://dc.lft.to/lastmile_qr_scan"}, "is_reserved": 0, "is_disabled": 0, "type": "electric_scooter", "bike_id": "8c771499ddef891a3b87aa408c8fe32f"}, {"lon": -77.00341183333333, "lat": 38.8935505, "name": "2b4405d644920e395199f226cd2b827c", "fusion_lat": 0.0, "fusion_lon": 0.0, "rental_uris": {"android": "https://dc.lft.to/lastmile_qr_scan", "ios": "https://dc.lft.to/lastmile_qr_scan"}, "is_reserved": 0, "is_disabled": 0, "type": "electric_scooter", "bike_id": "2b4405d644920e395199f226cd2b827c"}, {"lon": -76.98361483333333, "lat": 38.86486766666667, "name": "c2e540aecb715d496bb8c8a57f397a70", "fusion_lat": 0.0, "fusion_lon": 0.0, "rental_uris": {"android": "https://dc.lft.to/lastmile_qr_scan", "ios": "https://dc.lft.to/lastmile_qr_scan"}, "is_reserved": 0, "is_disabled": 0, "type": "electric_scooter", "bike_id": "c2e540aecb715d496bb8c8a57f397a70"}, {"lon": -76.99778083333334, "lat": 38.92282633333333, "name": "c4ea97c453f026664ab9718bcabb980f", "fusion_lat": 0.0, "fusion_lon": 0.0, "rental_uris": {"android": "https://dc.lft.to/lastmile_qr_scan", "ios": "https://dc.lft.to/lastmile_qr_scan"}, "is_reserved": 0, "is_disabled": 0, "type": "electric_scooter", "bike_id": "c4ea97c453f026664ab9718bcabb980f"}, {"lon": -77.03636733333333, "lat": 38.91628566666667, "name": "0b1f194737d66aab978592db27b0ea87", "fusion_lat": 0.0, "fusion_lon": 0.0, "rental_uris": {"android": "https://dc.lft.to/lastmile_qr_scan", "ios": "https://dc.lft.to/lastmile_qr_scan"}, "is_reserved": 0, "is_disabled": 0, "type": "electric_scooter", "bike_id": "0b1f194737d66aab978592db27b0ea87"}, {"lon": -77.03832483333333, "lat": 38.9119185, "name": "5b58247af42bdfa09a191b2bafd8651d", "fusion_lat": 0.0, "fusion_lon": 0.0, "rental_uris": {"android": "https://dc.lft.to/lastmile_qr_scan", "ios": "https://dc.lft.to/lastmile_qr_scan"}, "is_reserved": 0, "is_disabled": 0, "type": "electric_scooter", "bike_id": "5b58247af42bdfa09a191b2bafd8651d"}, {"lon": -76.97092133333334, "lat": 38.87880066666666, "name": "769b35d6537f6ba589a4a48a1796e160", "fusion_lat": 0.0, "fusion_lon": 0.0, "rental_uris": {"android": "https://dc.lft.to/lastmile_qr_scan", "ios": "https://dc.lft.to/lastmile_qr_scan"}, "is_reserved": 0, "is_disabled": 0, "type": "electric_scooter", "bike_id": "769b35d6537f6ba589a4a48a1796e160"}, {"lon": -77.04481833333334, "lat": 38.91108883333333, "name": "60b1c77777c2cf8552afe7bca9308fe8", "fusion_lat": 0.0, "fusion_lon": 0.0, "rental_uris": {"android": "https://dc.lft.to/lastmile_qr_scan", "ios": "https://dc.lft.to/lastmile_qr_scan"}, "is_reserved": 0, "is_disabled": 0, "type": "electric_scooter", "bike_id": "60b1c77777c2cf8552afe7bca9308fe8"}, {"lon": -77.03867366666667, "lat": 38.909687, "name": "3ffabe36f337ab0d193876363cb60f43", "fusion_lat": 0.0, "fusion_lon": 0.0, "rental_uris": {"android": "https://dc.lft.to/lastmile_qr_scan", "ios": "https://dc.lft.to/lastmile_qr_scan"}, "is_reserved": 0, "is_disabled": 0, "type": "electric_scooter", "bike_id": "3ffabe36f337ab0d193876363cb60f43"}, {"lon": -77.0434545, "lat": 38.9056655, "name": "75431da07cd6f8adef294f08e40a0c12", "fusion_lat": 0.0, "fusion_lon": 0.0, "rental_uris": {"android": "https://dc.lft.to/lastmile_qr_scan", "ios": "https://dc.lft.to/lastmile_qr_scan"}, "is_reserved": 0, "is_disabled": 0, "type": "electric_scooter", "bike_id": "75431da07cd6f8adef294f08e40a0c12"}, {"lon": -76.99732316666666, "lat": 38.90794366666667, "name": "8dd55721d866cf53af25a780bb05ec0d", "fusion_lat": 0.0, "fusion_lon": 0.0, "rental_uris": {"android": "https://dc.lft.to/lastmile_qr_scan", "ios": "https://dc.lft.to/lastmile_qr_scan"}, "is_reserved": 0, "is_disabled": 0, "type": "electric_scooter", "bike_id": "8dd55721d866cf53af25a780bb05ec0d"}, {"lon": -77.0349835, "lat": 38.921522333333336, "name": "32447b9063107d8f709777907675b5e9", "fusion_lat": 0.0, "fusion_lon": 0.0, "rental_uris": {"android": "https://dc.lft.to/lastmile_qr_scan", "ios": "https://dc.lft.to/lastmile_qr_scan"}, "is_reserved": 0, "is_disabled": 0, "type": "electric_scooter", "bike_id": "32447b9063107d8f709777907675b5e9"}, {"lon": -77.01516866666667, "lat": 38.88523583333333, "name": "a62b72b9fa54b9604081380c427cfb96", "fusion_lat": 0.0, "fusion_lon": 0.0, "rental_uris": {"android": "https://dc.lft.to/lastmile_qr_scan", "ios": "https://dc.lft.to/lastmile_qr_scan"}, "is_reserved": 0, "is_disabled": 0, "type": "electric_bike", "bike_id": "a62b72b9fa54b9604081380c427cfb96"}, {"lon": -77.02822316666666, "lat": 38.916549, "name": "3fbab25339af20b39d4b5c15a785a6db", "fusion_lat": 0.0, "fusion_lon": 0.0, "rental_uris": {"android": "https://dc.lft.to/lastmile_qr_scan", "ios": "https://dc.lft.to/lastmile_qr_scan"}, "is_reserved": 0, "is_disabled": 0, "type": "electric_scooter", "bike_id": "3fbab25339af20b39d4b5c15a785a6db"}, {"lon": -76.95817166666667, "lat": 38.8905525, "name": "f1e917c9500449e1ffc6bd174a1c4a5e", "fusion_lat": 0.0, "fusion_lon": 0.0, "rental_uris": {"android": "https://dc.lft.to/lastmile_qr_scan", "ios": "https://dc.lft.to/lastmile_qr_scan"}, "is_reserved": 0, "is_disabled": 0, "type": "electric_scooter", "bike_id": "f1e917c9500449e1ffc6bd174a1c4a5e"}, {"lon": -77.05583516666667, "lat": 38.927814833333336, "name": "3538d10e3425ebbbf9bdf2a4e5fd4257", "fusion_lat": 0.0, "fusion_lon": 0.0, "rental_uris": {"android": "https://dc.lft.to/lastmile_qr_scan", "ios": "https://dc.lft.to/lastmile_qr_scan"}, "is_reserved": 0, "is_disabled": 0, "type": "electric_scooter", "bike_id": "3538d10e3425ebbbf9bdf2a4e5fd4257"}, {"lon": -77.04690266666667, "lat": 38.92104166666667, "name": "1e2dfb1000ae76e9735b8c2287165b40", "fusion_lat": 0.0, "fusion_lon": 0.0, "rental_uris": {"android": "https://dc.lft.to/lastmile_qr_scan", "ios": "https://dc.lft.to/lastmile_qr_scan"}, "is_reserved": 0, "is_disabled": 0, "type": "electric_scooter", "bike_id": "1e2dfb1000ae76e9735b8c2287165b40"}, {"lon": -77.095268, "lat": 38.83813033333333, "name": "09e44a2658eb160f78ff952b07cd405d", "fusion_lat": 0.0, "fusion_lon": 0.0, "rental_uris": {"android": "https://dc.lft.to/lastmile_qr_scan", "ios": "https://dc.lft.to/lastmile_qr_scan"}, "is_reserved": 0, "is_disabled": 0, "type": "electric_bike", "bike_id": "09e44a2658eb160f78ff952b07cd405d"}, {"lon": -77.03867166666667, "lat": 38.9026885, "name": "279a2b6a28c14b122d7c1968c32f5565", "fusion_lat": 0.0, "fusion_lon": 0.0, "rental_uris": {"android": "https://dc.lft.to/lastmile_qr_scan", "ios": "https://dc.lft.to/lastmile_qr_scan"}, "is_reserved": 0, "is_disabled": 0, "type": "electric_scooter", "bike_id": "279a2b6a28c14b122d7c1968c32f5565"}, {"lon": -77.038548, "lat": 38.915457, "name": "943dd9a492255b257b6544f9079783d1", "fusion_lat": 0.0, "fusion_lon": 0.0, "rental_uris": {"android": "https://dc.lft.to/lastmile_qr_scan", "ios": "https://dc.lft.to/lastmile_qr_scan"}, "is_reserved": 0, "is_disabled": 0, "type": "electric_scooter", "bike_id": "943dd9a492255b257b6544f9079783d1"}, {"lon": -77.033473, "lat": 38.88510816666667, "name": "5b26fb7b4f0d09a7038dacffd280e82b", "fusion_lat": 0.0, "fusion_lon": 0.0, "rental_uris": {"android": "https://dc.lft.to/lastmile_qr_scan", "ios": "https://dc.lft.to/lastmile_qr_scan"}, "is_reserved": 0, "is_disabled": 0, "type": "electric_scooter", "bike_id": "5b26fb7b4f0d09a7038dacffd280e82b"}, {"lon": -77.04403516666666, "lat": 38.929509, "name": "6ce35d60d2804c3046aa4ce2caa3a781", "fusion_lat": 0.0, "fusion_lon": 0.0, "rental_uris": {"android": "https://dc.lft.to/lastmile_qr_scan", "ios": "https://dc.lft.to/lastmile_qr_scan"}, "is_reserved": 0, "is_disabled": 0, "type": "electric_scooter", "bike_id": "6ce35d60d2804c3046aa4ce2caa3a781"}, {"lon": -77.02793533333333, "lat": 38.89371966666667, "name": "47a0588e53e45119164cf241f9cdf48c", "fusion_lat": 0.0, "fusion_lon": 0.0, "rental_uris": {"android": "https://dc.lft.to/lastmile_qr_scan", "ios": "https://dc.lft.to/lastmile_qr_scan"}, "is_reserved": 0, "is_disabled": 0, "type": "electric_scooter", "bike_id": "47a0588e53e45119164cf241f9cdf48c"}, {"lon": -77.04374916666667, "lat": 38.89220616666667, "name": "216701367acb75848e63192305913dc5", "fusion_lat": 0.0, "fusion_lon": 0.0, "rental_uris": {"android": "https://dc.lft.to/lastmile_qr_scan", "ios": "https://dc.lft.to/lastmile_qr_scan"}, "is_reserved": 0, "is_disabled": 0, "type": "electric_scooter", "bike_id": "216701367acb75848e63192305913dc5"}, {"lon": -77.02810916666667, "lat": 38.92370866666667, "name": "d85dce78588e3bca6cbc83c0972c33c1", "fusion_lat": 0.0, "fusion_lon": 0.0, "rental_uris": {"android": "https://dc.lft.to/lastmile_qr_scan", "ios": "https://dc.lft.to/lastmile_qr_scan"}, "is_reserved": 0, "is_disabled": 0, "type": "electric_scooter", "bike_id": "d85dce78588e3bca6cbc83c0972c33c1"}, {"lon": -77.04741383333334, "lat": 38.912602166666666, "name": "17fc83ede590f1126b1bc0f1434cdf40", "fusion_lat": 0.0, "fusion_lon": 0.0, "rental_uris": {"android": "https://dc.lft.to/lastmile_qr_scan", "ios": "https://dc.lft.to/lastmile_qr_scan"}, "is_reserved": 0, "is_disabled": 0, "type": "electric_scooter", "bike_id": "17fc83ede590f1126b1bc0f1434cdf40"}, {"lon": -77.02580866666666, "lat": 38.89250833333333, "name": "8d44eca556eee016332f02f3fb51559e", "fusion_lat": 0.0, "fusion_lon": 0.0, "rental_uris": {"android": "https://dc.lft.to/lastmile_qr_scan", "ios": "https://dc.lft.to/lastmile_qr_scan"}, "is_reserved": 0, "is_disabled": 0, "type": "electric_scooter", "bike_id": "8d44eca556eee016332f02f3fb51559e"}, {"lon": -77.00334983333333, "lat": 38.89358216666667, "name": "3f6b2b4c42ff28717a2a5d3d29ef9af0", "fusion_lat": 0.0, "fusion_lon": 0.0, "rental_uris": {"android": "https://dc.lft.to/lastmile_qr_scan", "ios": "https://dc.lft.to/lastmile_qr_scan"}, "is_reserved": 0, "is_disabled": 0, "type": "electric_scooter", "bike_id": "3f6b2b4c42ff28717a2a5d3d29ef9af0"}, {"lon": -77.023807, "lat": 38.902121, "name": "9e99f1ba109bd68fb6400f6c147bb065", "fusion_lat": 0.0, "fusion_lon": 0.0, "rental_uris": {"android": "https://dc.lft.to/lastmile_qr_scan", "ios": "https://dc.lft.to/lastmile_qr_scan"}, "is_reserved": 0, "is_disabled": 0, "type": "electric_scooter", "bike_id": "9e99f1ba109bd68fb6400f6c147bb065"}, {"lon": -77.03934933333333, "lat": 38.908077166666665, "name": "8a466b5ee727f2e5c3fbe2f8db6aa29e", "fusion_lat": 0.0, "fusion_lon": 0.0, "rental_uris": {"android": "https://dc.lft.to/lastmile_qr_scan", "ios": "https://dc.lft.to/lastmile_qr_scan"}, "is_reserved": 0, "is_disabled": 0, "type": "electric_scooter", "bike_id": "8a466b5ee727f2e5c3fbe2f8db6aa29e"}, {"lon": -77.04680033333334, "lat": 38.921378, "name": "8d6e318b05457e842e9f31de977b3086", "fusion_lat": 0.0, "fusion_lon": 0.0, "rental_uris": {"android": "https://dc.lft.to/lastmile_qr_scan", "ios": "https://dc.lft.to/lastmile_qr_scan"}, "is_reserved": 0, "is_disabled": 0, "type": "electric_scooter", "bike_id": "8d6e318b05457e842e9f31de977b3086"}, {"lon": -76.94664633333333, "lat": 38.8986965, "name": "7d7b87437dc6c0720cac24edf5220f65", "fusion_lat": 0.0, "fusion_lon": 0.0, "rental_uris": {"android": "https://dc.lft.to/lastmile_qr_scan", "ios": "https://dc.lft.to/lastmile_qr_scan"}, "is_reserved": 0, "is_disabled": 0, "type": "electric_scooter", "bike_id": "7d7b87437dc6c0720cac24edf5220f65"}, {"lon": -77.02791983333333, "lat": 38.930803833333336, "name": "817607f0d693c68b059243b08eae0459", "fusion_lat": 0.0, "fusion_lon": 0.0, "rental_uris": {"android": "https://dc.lft.to/lastmile_qr_scan", "ios": "https://dc.lft.to/lastmile_qr_scan"}, "is_reserved": 0, "is_disabled": 0, "type": "electric_scooter", "bike_id": "817607f0d693c68b059243b08eae0459"}, {"lon": -76.9913755, "lat": 38.900322, "name": "0970fec5417385030b88fd9147fbfdd5", "fusion_lat": 0.0, "fusion_lon": 0.0, "rental_uris": {"android": "https://dc.lft.to/lastmile_qr_scan", "ios": "https://dc.lft.to/lastmile_qr_scan"}, "is_reserved": 0, "is_disabled": 0, "type": "electric_scooter", "bike_id": "0970fec5417385030b88fd9147fbfdd5"}, {"lon": -77.03923033333334, "lat": 38.918399, "name": "c72eaf3305dad4733d4b8e4ccdfe9c21", "fusion_lat": 0.0, "fusion_lon": 0.0, "rental_uris": {"android": "https://dc.lft.to/lastmile_qr_scan", "ios": "https://dc.lft.to/lastmile_qr_scan"}, "is_reserved": 0, "is_disabled": 0, "type": "electric_scooter", "bike_id": "c72eaf3305dad4733d4b8e4ccdfe9c21"}, {"lon": -77.04525283333334, "lat": 38.902713, "name": "a8a145608fe63e3d29dac8454f58bf5e", "fusion_lat": 0.0, "fusion_lon": 0.0, "rental_uris": {"android": "https://dc.lft.to/lastmile_qr_scan", "ios": "https://dc.lft.to/lastmile_qr_scan"}, "is_reserved": 0, "is_disabled": 0, "type": "electric_scooter", "bike_id": "a8a145608fe63e3d29dac8454f58bf5e"}, {"lon": -77.0388135, "lat": 38.91411183333334, "name": "c756f7fee2cc6969e2670634ab78db20", "fusion_lat": 0.0, "fusion_lon": 0.0, "rental_uris": {"android": "https://dc.lft.to/lastmile_qr_scan", "ios": "https://dc.lft.to/lastmile_qr_scan"}, "is_reserved": 0, "is_disabled": 0, "type": "electric_scooter", "bike_id": "c756f7fee2cc6969e2670634ab78db20"}, {"lon": -77.024227, "lat": 38.90426816666667, "name": "bbfdb792132cf84f84810e17ee7d5b60", "fusion_lat": 0.0, "fusion_lon": 0.0, "rental_uris": {"android": "https://dc.lft.to/lastmile_qr_scan", "ios": "https://dc.lft.to/lastmile_qr_scan"}, "is_reserved": 0, "is_disabled": 0, "type": "electric_scooter", "bike_id": "bbfdb792132cf84f84810e17ee7d5b60"}, {"lon": -76.9790515, "lat": 38.8943335, "name": "e91c4b9dc4486e79a112ef7e469d87b4", "fusion_lat": 0.0, "fusion_lon": 0.0, "rental_uris": {"android": "https://dc.lft.to/lastmile_qr_scan", "ios": "https://dc.lft.to/lastmile_qr_scan"}, "is_reserved": 0, "is_disabled": 0, "type": "electric_scooter", "bike_id": "e91c4b9dc4486e79a112ef7e469d87b4"}, {"lon": -77.00429866666667, "lat": 38.87656916666667, "name": "cf8ef600c4df39f257ffc6a4e2820663", "fusion_lat": 0.0, "fusion_lon": 0.0, "rental_uris": {"android": "https://dc.lft.to/lastmile_qr_scan", "ios": "https://dc.lft.to/lastmile_qr_scan"}, "is_reserved": 0, "is_disabled": 0, "type": "electric_bike", "bike_id": "cf8ef600c4df39f257ffc6a4e2820663"}, {"lon": -77.04657433333334, "lat": 38.89339016666667, "name": "97666602cd00b50e57724a7f9976965d", "fusion_lat": 0.0, "fusion_lon": 0.0, "rental_uris": {"android": "https://dc.lft.to/lastmile_qr_scan", "ios": "https://dc.lft.to/lastmile_qr_scan"}, "is_reserved": 0, "is_disabled": 0, "type": "electric_scooter", "bike_id": "97666602cd00b50e57724a7f9976965d"}, {"lon": -77.03645666666667, "lat": 38.918816, "name": "02d5f0d981631a2591d3472d78c6e345", "fusion_lat": 0.0, "fusion_lon": 0.0, "rental_uris": {"android": "https://dc.lft.to/lastmile_qr_scan", "ios": "https://dc.lft.to/lastmile_qr_scan"}, "is_reserved": 0, "is_disabled": 0, "type": "electric_scooter", "bike_id": "02d5f0d981631a2591d3472d78c6e345"}, {"lon": -77.04458083333333, "lat": 38.918556, "name": "20466a6ecccbaf345bd6560a71993f19", "fusion_lat": 0.0, "fusion_lon": 0.0, "rental_uris": {"android": "https://dc.lft.to/lastmile_qr_scan", "ios": "https://dc.lft.to/lastmile_qr_scan"}, "is_reserved": 0, "is_disabled": 0, "type": "electric_scooter", "bike_id": "20466a6ecccbaf345bd6560a71993f19"}, {"lon": -77.03223833333334, "lat": 38.9305035, "name": "06af36b2b03f2373d787258886e0fb54", "fusion_lat": 0.0, "fusion_lon": 0.0, "rental_uris": {"android": "https://dc.lft.to/lastmile_qr_scan", "ios": "https://dc.lft.to/lastmile_qr_scan"}, "is_reserved": 0, "is_disabled": 0, "type": "electric_scooter", "bike_id": "06af36b2b03f2373d787258886e0fb54"}, {"lon": -77.01024883333334, "lat": 38.921280333333335, "name": "cb02a8ab423b26e58d1282113afd6e08", "fusion_lat": 0.0, "fusion_lon": 0.0, "rental_uris": {"android": "https://dc.lft.to/lastmile_qr_scan", "ios": "https://dc.lft.to/lastmile_qr_scan"}, "is_reserved": 0, "is_disabled": 0, "type": "electric_scooter", "bike_id": "cb02a8ab423b26e58d1282113afd6e08"}, {"lon": -77.10683483333334, "lat": 38.935801166666664, "name": "ab389b48bb1805ae0cfa411cab74e896", "fusion_lat": 0.0, "fusion_lon": 0.0, "rental_uris": {"android": "https://dc.lft.to/lastmile_qr_scan", "ios": "https://dc.lft.to/lastmile_qr_scan"}, "is_reserved": 0, "is_disabled": 0, "type": "electric_bike", "bike_id": "ab389b48bb1805ae0cfa411cab74e896"}, {"lon": -76.9994495, "lat": 38.9085865, "name": "a373a43c1ac34481d67e56b0a7ae183e", "fusion_lat": 0.0, "fusion_lon": 0.0, "rental_uris": {"android": "https://dc.lft.to/lastmile_qr_scan", "ios": "https://dc.lft.to/lastmile_qr_scan"}, "is_reserved": 0, "is_disabled": 0, "type": "electric_scooter", "bike_id": "a373a43c1ac34481d67e56b0a7ae183e"}, {"lon": -76.97020499999999, "lat": 38.92031466666667, "name": "bfb866a95ec168196c8cbafbd590e845", "fusion_lat": 0.0, "fusion_lon": 0.0, "rental_uris": {"android": "https://dc.lft.to/lastmile_qr_scan", "ios": "https://dc.lft.to/lastmile_qr_scan"}, "is_reserved": 0, "is_disabled": 0, "type": "electric_scooter", "bike_id": "bfb866a95ec168196c8cbafbd590e845"}, {"lon": -77.019009, "lat": 38.939173333333336, "name": "59db59342be678ba97825ed0edce705b", "fusion_lat": 0.0, "fusion_lon": 0.0, "rental_uris": {"android": "https://dc.lft.to/lastmile_qr_scan", "ios": "https://dc.lft.to/lastmile_qr_scan"}, "is_reserved": 0, "is_disabled": 0, "type": "electric_scooter", "bike_id": "59db59342be678ba97825ed0edce705b"}, {"lon": -77.037427, "lat": 38.921971666666664, "name": "433d86f050720ae00c55dd6009facb37", "fusion_lat": 0.0, "fusion_lon": 0.0, "rental_uris": {"android": "https://dc.lft.to/lastmile_qr_scan", "ios": "https://dc.lft.to/lastmile_qr_scan"}, "is_reserved": 0, "is_disabled": 0, "type": "electric_scooter", "bike_id": "433d86f050720ae00c55dd6009facb37"}, {"lon": -77.0447795, "lat": 38.900246333333335, "name": "53a3a199dd33936fdf1e018815aec9fa", "fusion_lat": 0.0, "fusion_lon": 0.0, "rental_uris": {"android": "https://dc.lft.to/lastmile_qr_scan", "ios": "https://dc.lft.to/lastmile_qr_scan"}, "is_reserved": 0, "is_disabled": 0, "type": "electric_scooter", "bike_id": "53a3a199dd33936fdf1e018815aec9fa"}, {"lon": -77.05936983333334, "lat": 38.9366685, "name": "96bfc4d87d342ae306907ff0063f7f1a", "fusion_lat": 0.0, "fusion_lon": 0.0, "rental_uris": {"android": "https://dc.lft.to/lastmile_qr_scan", "ios": "https://dc.lft.to/lastmile_qr_scan"}, "is_reserved": 0, "is_disabled": 0, "type": "electric_scooter", "bike_id": "96bfc4d87d342ae306907ff0063f7f1a"}, {"lon": -77.03503383333333, "lat": 38.9373885, "name": "748b605ccee88941e42a798b67d3a946", "fusion_lat": 0.0, "fusion_lon": 0.0, "rental_uris": {"android": "https://dc.lft.to/lastmile_qr_scan", "ios": "https://dc.lft.to/lastmile_qr_scan"}, "is_reserved": 0, "is_disabled": 0, "type": "electric_scooter", "bike_id": "748b605ccee88941e42a798b67d3a946"}, {"lon": -77.03343183333334, "lat": 38.898342166666666, "name": "0ae708be84947ac386bbe6773a944584", "fusion_lat": 0.0, "fusion_lon": 0.0, "rental_uris": {"android": "https://dc.lft.to/lastmile_qr_scan", "ios": "https://dc.lft.to/lastmile_qr_scan"}, "is_reserved": 0, "is_disabled": 0, "type": "electric_scooter", "bike_id": "0ae708be84947ac386bbe6773a944584"}, {"lon": -77.03180083333334, "lat": 38.892398166666666, "name": "3ea99d95d2ab6db9b79202cf5e904f6b", "fusion_lat": 0.0, "fusion_lon": 0.0, "rental_uris": {"android": "https://dc.lft.to/lastmile_qr_scan", "ios": "https://dc.lft.to/lastmile_qr_scan"}, "is_reserved": 0, "is_disabled": 0, "type": "electric_scooter", "bike_id": "3ea99d95d2ab6db9b79202cf5e904f6b"}, {"lon": -77.04546183333333, "lat": 38.89487333333334, "name": "b6a5f54576530df7035b8664ab206528", "fusion_lat": 0.0, "fusion_lon": 0.0, "rental_uris": {"android": "https://dc.lft.to/lastmile_qr_scan", "ios": "https://dc.lft.to/lastmile_qr_scan"}, "is_reserved": 0, "is_disabled": 0, "type": "electric_scooter", "bike_id": "b6a5f54576530df7035b8664ab206528"}, {"lon": -77.02826416666667, "lat": 38.887429166666664, "name": "540e06d6aaa31fe987ebb93c07bd8879", "fusion_lat": 0.0, "fusion_lon": 0.0, "rental_uris": {"android": "https://dc.lft.to/lastmile_qr_scan", "ios": "https://dc.lft.to/lastmile_qr_scan"}, "is_reserved": 0, "is_disabled": 0, "type": "electric_scooter", "bike_id": "540e06d6aaa31fe987ebb93c07bd8879"}, {"lon": -76.94804383333333, "lat": 38.89639283333333, "name": "81667fc012f59eeab86b751b96720dcd", "fusion_lat": 0.0, "fusion_lon": 0.0, "rental_uris": {"android": "https://dc.lft.to/lastmile_qr_scan", "ios": "https://dc.lft.to/lastmile_qr_scan"}, "is_reserved": 0, "is_disabled": 0, "type": "electric_bike", "bike_id": "81667fc012f59eeab86b751b96720dcd"}, {"lon": -77.029904, "lat": 38.916831, "name": "b02cae2ec23ca01a554c2dedf75dd52e", "fusion_lat": 0.0, "fusion_lon": 0.0, "rental_uris": {"android": "https://dc.lft.to/lastmile_qr_scan", "ios": "https://dc.lft.to/lastmile_qr_scan"}, "is_reserved": 0, "is_disabled": 0, "type": "electric_scooter", "bike_id": "b02cae2ec23ca01a554c2dedf75dd52e"}, {"lon": -76.99079666666667, "lat": 38.842878166666665, "name": "fe0ad2aa48a2ace5ef560b6e10879d03", "fusion_lat": 0.0, "fusion_lon": 0.0, "rental_uris": {"android": "https://dc.lft.to/lastmile_qr_scan", "ios": "https://dc.lft.to/lastmile_qr_scan"}, "is_reserved": 0, "is_disabled": 0, "type": "electric_scooter", "bike_id": "fe0ad2aa48a2ace5ef560b6e10879d03"}, {"lon": -77.10769533333334, "lat": 38.892276, "name": "06499f7ca044894e1400626c3ef87f08", "fusion_lat": 0.0, "fusion_lon": 0.0, "rental_uris": {"android": "https://dc.lft.to/lastmile_qr_scan", "ios": "https://dc.lft.to/lastmile_qr_scan"}, "is_reserved": 0, "is_disabled": 0, "type": "electric_bike", "bike_id": "06499f7ca044894e1400626c3ef87f08"}, {"lon": -77.04994466666666, "lat": 38.901257, "name": "2db072a4f7021bbe22c8e56b6a8e8fe1", "fusion_lat": 0.0, "fusion_lon": 0.0, "rental_uris": {"android": "https://dc.lft.to/lastmile_qr_scan", "ios": "https://dc.lft.to/lastmile_qr_scan"}, "is_reserved": 0, "is_disabled": 0, "type": "electric_bike", "bike_id": "2db072a4f7021bbe22c8e56b6a8e8fe1"}, {"lon": -77.02697916666666, "lat": 38.91519816666667, "name": "07155c9307ec05556d2de2aa9c67fd3d", "fusion_lat": 0.0, "fusion_lon": 0.0, "rental_uris": {"android": "https://dc.lft.to/lastmile_qr_scan", "ios": "https://dc.lft.to/lastmile_qr_scan"}, "is_reserved": 0, "is_disabled": 0, "type": "electric_scooter", "bike_id": "07155c9307ec05556d2de2aa9c67fd3d"}, {"lon": -77.01755016666667, "lat": 38.902616333333334, "name": "548288a94f852e44b418ca8731571053", "fusion_lat": 0.0, "fusion_lon": 0.0, "rental_uris": {"android": "https://dc.lft.to/lastmile_qr_scan", "ios": "https://dc.lft.to/lastmile_qr_scan"}, "is_reserved": 0, "is_disabled": 0, "type": "electric_scooter", "bike_id": "548288a94f852e44b418ca8731571053"}, {"lon": -77.03448383333334, "lat": 38.90739516666667, "name": "7bd88e288d54dcaa0a1842cfa0ff04c8", "fusion_lat": 0.0, "fusion_lon": 0.0, "rental_uris": {"android": "https://dc.lft.to/lastmile_qr_scan", "ios": "https://dc.lft.to/lastmile_qr_scan"}, "is_reserved": 0, "is_disabled": 0, "type": "electric_scooter", "bike_id": "7bd88e288d54dcaa0a1842cfa0ff04c8"}, {"lon": -76.91651533333334, "lat": 38.86857, "name": "133f73f47bdfb939d69faed53250a4de", "fusion_lat": 0.0, "fusion_lon": 0.0, "rental_uris": {"android": "https://dc.lft.to/lastmile_qr_scan", "ios": "https://dc.lft.to/lastmile_qr_scan"}, "is_reserved": 0, "is_disabled": 0, "type": "electric_bike", "bike_id": "133f73f47bdfb939d69faed53250a4de"}, {"lon": -77.04383516666667, "lat": 38.90368566666667, "name": "56e683e283515734c4d0207feab018b5", "fusion_lat": 0.0, "fusion_lon": 0.0, "rental_uris": {"android": "https://dc.lft.to/lastmile_qr_scan", "ios": "https://dc.lft.to/lastmile_qr_scan"}, "is_reserved": 0, "is_disabled": 0, "type": "electric_scooter", "bike_id": "56e683e283515734c4d0207feab018b5"}, {"lon": -76.95410233333334, "lat": 38.8916125, "name": "1a77a2c92d23adf09b5534abec16f152", "fusion_lat": 0.0, "fusion_lon": 0.0, "rental_uris": {"android": "https://dc.lft.to/lastmile_qr_scan", "ios": "https://dc.lft.to/lastmile_qr_scan"}, "is_reserved": 0, "is_disabled": 0, "type": "electric_scooter", "bike_id": "1a77a2c92d23adf09b5534abec16f152"}, {"lon": -77.03180933333333, "lat": 38.919217333333336, "name": "285f61fae6e8fbc3af56aeed566bbb33", "fusion_lat": 0.0, "fusion_lon": 0.0, "rental_uris": {"android": "https://dc.lft.to/lastmile_qr_scan", "ios": "https://dc.lft.to/lastmile_qr_scan"}, "is_reserved": 0, "is_disabled": 0, "type": "electric_scooter", "bike_id": "285f61fae6e8fbc3af56aeed566bbb33"}, {"lon": -77.072693, "lat": 38.90911666666667, "name": "a53f8e99bc139fd6f5467659b784edba", "fusion_lat": 0.0, "fusion_lon": 0.0, "rental_uris": {"android": "https://dc.lft.to/lastmile_qr_scan", "ios": "https://dc.lft.to/lastmile_qr_scan"}, "is_reserved": 0, "is_disabled": 0, "type": "electric_scooter", "bike_id": "a53f8e99bc139fd6f5467659b784edba"}, {"lon": -77.02975233333333, "lat": 38.922516, "name": "64b2199f46b623d54932e47b5b2fc72e", "fusion_lat": 0.0, "fusion_lon": 0.0, "rental_uris": {"android": "https://dc.lft.to/lastmile_qr_scan", "ios": "https://dc.lft.to/lastmile_qr_scan"}, "is_reserved": 0, "is_disabled": 0, "type": "electric_scooter", "bike_id": "64b2199f46b623d54932e47b5b2fc72e"}, {"lon": -77.00206366666667, "lat": 38.90222333333333, "name": "d20816e6463309116cae8320f8e91dbb", "fusion_lat": 0.0, "fusion_lon": 0.0, "rental_uris": {"android": "https://dc.lft.to/lastmile_qr_scan", "ios": "https://dc.lft.to/lastmile_qr_scan"}, "is_reserved": 0, "is_disabled": 0, "type": "electric_scooter", "bike_id": "d20816e6463309116cae8320f8e91dbb"}, {"lon": -76.97218566666666, "lat": 38.844784833333335, "name": "f4e8f4b89f9d6c039bee7cee412204ad", "fusion_lat": 0.0, "fusion_lon": 0.0, "rental_uris": {"android": "https://dc.lft.to/lastmile_qr_scan", "ios": "https://dc.lft.to/lastmile_qr_scan"}, "is_reserved": 0, "is_disabled": 0, "type": "electric_bike", "bike_id": "f4e8f4b89f9d6c039bee7cee412204ad"}, {"lon": -77.026892, "lat": 38.9024105, "name": "4b029466c03a9f0b17e9c28abd2a4cfc", "fusion_lat": 0.0, "fusion_lon": 0.0, "rental_uris": {"android": "https://dc.lft.to/lastmile_qr_scan", "ios": "https://dc.lft.to/lastmile_qr_scan"}, "is_reserved": 0, "is_disabled": 0, "type": "electric_scooter", "bike_id": "4b029466c03a9f0b17e9c28abd2a4cfc"}, {"lon": -77.02237883333333, "lat": 38.92225366666667, "name": "0612eccc475cad9e0c1cc37dc1d161d2", "fusion_lat": 0.0, "fusion_lon": 0.0, "rental_uris": {"android": "https://dc.lft.to/lastmile_qr_scan", "ios": "https://dc.lft.to/lastmile_qr_scan"}, "is_reserved": 0, "is_disabled": 0, "type": "electric_bike", "bike_id": "0612eccc475cad9e0c1cc37dc1d161d2"}, {"lon": -77.00727983333333, "lat": 38.959699666666666, "name": "7d4c846e76de2d0671afc272b052b07c", "fusion_lat": 0.0, "fusion_lon": 0.0, "rental_uris": {"android": "https://dc.lft.to/lastmile_qr_scan", "ios": "https://dc.lft.to/lastmile_qr_scan"}, "is_reserved": 0, "is_disabled": 0, "type": "electric_scooter", "bike_id": "7d4c846e76de2d0671afc272b052b07c"}, {"lon": -76.99125916666667, "lat": 38.90012433333333, "name": "efdf643c707f53516cff3f24aef538c1", "fusion_lat": 0.0, "fusion_lon": 0.0, "rental_uris": {"android": "https://dc.lft.to/lastmile_qr_scan", "ios": "https://dc.lft.to/lastmile_qr_scan"}, "is_reserved": 0, "is_disabled": 0, "type": "electric_scooter", "bike_id": "efdf643c707f53516cff3f24aef538c1"}, {"lon": -76.96878283333334, "lat": 38.846103, "name": "0605acc3f06db14abfcc7ce44c169fcf", "fusion_lat": 0.0, "fusion_lon": 0.0, "rental_uris": {"android": "https://dc.lft.to/lastmile_qr_scan", "ios": "https://dc.lft.to/lastmile_qr_scan"}, "is_reserved": 0, "is_disabled": 0, "type": "electric_bike", "bike_id": "0605acc3f06db14abfcc7ce44c169fcf"}, {"lon": -77.0677785, "lat": 38.9497685, "name": "be7ffb9158660520d7a79bcf0467090a", "fusion_lat": 0.0, "fusion_lon": 0.0, "rental_uris": {"android": "https://dc.lft.to/lastmile_qr_scan", "ios": "https://dc.lft.to/lastmile_qr_scan"}, "is_reserved": 0, "is_disabled": 0, "type": "electric_scooter", "bike_id": "be7ffb9158660520d7a79bcf0467090a"}, {"lon": -77.06418133333334, "lat": 38.905915666666665, "name": "172402f12631c8013a867d6641abe5f0", "fusion_lat": 0.0, "fusion_lon": 0.0, "rental_uris": {"android": "https://dc.lft.to/lastmile_qr_scan", "ios": "https://dc.lft.to/lastmile_qr_scan"}, "is_reserved": 0, "is_disabled": 0, "type": "electric_bike", "bike_id": "172402f12631c8013a867d6641abe5f0"}, {"lon": -77.0184935, "lat": 38.919804166666665, "name": "4e1b8f7934509cd13073c79ec27ba7f8", "fusion_lat": 0.0, "fusion_lon": 0.0, "rental_uris": {"android": "https://dc.lft.to/lastmile_qr_scan", "ios": "https://dc.lft.to/lastmile_qr_scan"}, "is_reserved": 0, "is_disabled": 0, "type": "electric_scooter", "bike_id": "4e1b8f7934509cd13073c79ec27ba7f8"}, {"lon": -77.03639233333334, "lat": 38.924208666666665, "name": "4a1a29bb2b64609d10b92efae27d7710", "fusion_lat": 0.0, "fusion_lon": 0.0, "rental_uris": {"android": "https://dc.lft.to/lastmile_qr_scan", "ios": "https://dc.lft.to/lastmile_qr_scan"}, "is_reserved": 0, "is_disabled": 0, "type": "electric_scooter", "bike_id": "4a1a29bb2b64609d10b92efae27d7710"}, {"lon": -77.0383975, "lat": 38.91191666666667, "name": "da81366b7585eccfb60ab8530639e552", "fusion_lat": 0.0, "fusion_lon": 0.0, "rental_uris": {"android": "https://dc.lft.to/lastmile_qr_scan", "ios": "https://dc.lft.to/lastmile_qr_scan"}, "is_reserved": 0, "is_disabled": 0, "type": "electric_scooter", "bike_id": "da81366b7585eccfb60ab8530639e552"}, {"lon": -77.02594216666667, "lat": 38.8835805, "name": "9a4d03e269999ab7d4fdd23393e2ef71", "fusion_lat": 0.0, "fusion_lon": 0.0, "rental_uris": {"android": "https://dc.lft.to/lastmile_qr_scan", "ios": "https://dc.lft.to/lastmile_qr_scan"}, "is_reserved": 0, "is_disabled": 0, "type": "electric_scooter", "bike_id": "9a4d03e269999ab7d4fdd23393e2ef71"}, {"lon": -77.04303933333334, "lat": 38.907372333333335, "name": "a7862af968d45b2f3096c346d92b339e", "fusion_lat": 0.0, "fusion_lon": 0.0, "rental_uris": {"android": "https://dc.lft.to/lastmile_qr_scan", "ios": "https://dc.lft.to/lastmile_qr_scan"}, "is_reserved": 0, "is_disabled": 0, "type": "electric_scooter", "bike_id": "a7862af968d45b2f3096c346d92b339e"}, {"lon": -77.029308, "lat": 38.930670166666665, "name": "4b42ba3fceaf445abc54a391ae8810d7", "fusion_lat": 0.0, "fusion_lon": 0.0, "rental_uris": {"android": "https://dc.lft.to/lastmile_qr_scan", "ios": "https://dc.lft.to/lastmile_qr_scan"}, "is_reserved": 0, "is_disabled": 0, "type": "electric_scooter", "bike_id": "4b42ba3fceaf445abc54a391ae8810d7"}, {"lon": -77.019192, "lat": 38.916661500000004, "name": "d0c0e69e1245bb1bef0c138d36ef165f", "fusion_lat": 0.0, "fusion_lon": 0.0, "rental_uris": {"android": "https://dc.lft.to/lastmile_qr_scan", "ios": "https://dc.lft.to/lastmile_qr_scan"}, "is_reserved": 0, "is_disabled": 0, "type": "electric_scooter", "bike_id": "d0c0e69e1245bb1bef0c138d36ef165f"}, {"lon": -77.03216883333333, "lat": 38.92002133333333, "name": "04f97e5a4be94a39690e63fd6e2a75b9", "fusion_lat": 0.0, "fusion_lon": 0.0, "rental_uris": {"android": "https://dc.lft.to/lastmile_qr_scan", "ios": "https://dc.lft.to/lastmile_qr_scan"}, "is_reserved": 0, "is_disabled": 0, "type": "electric_scooter", "bike_id": "04f97e5a4be94a39690e63fd6e2a75b9"}, {"lon": -77.034189, "lat": 38.92958016666667, "name": "327f23b947b21aee458132af81ca17b9", "fusion_lat": 0.0, "fusion_lon": 0.0, "rental_uris": {"android": "https://dc.lft.to/lastmile_qr_scan", "ios": "https://dc.lft.to/lastmile_qr_scan"}, "is_reserved": 0, "is_disabled": 0, "type": "electric_scooter", "bike_id": "327f23b947b21aee458132af81ca17b9"}, {"lon": -77.13186483333334, "lat": 38.869091833333336, "name": "25f269f09c4de55b9c38ac90832135d0", "fusion_lat": 0.0, "fusion_lon": 0.0, "rental_uris": {"android": "https://dc.lft.to/lastmile_qr_scan", "ios": "https://dc.lft.to/lastmile_qr_scan"}, "is_reserved": 0, "is_disabled": 0, "type": "electric_bike", "bike_id": "25f269f09c4de55b9c38ac90832135d0"}, {"lon": -77.023743, "lat": 38.91975566666667, "name": "11175c0fe1c9182d677fe5bbc484e2e1", "fusion_lat": 0.0, "fusion_lon": 0.0, "rental_uris": {"android": "https://dc.lft.to/lastmile_qr_scan", "ios": "https://dc.lft.to/lastmile_qr_scan"}, "is_reserved": 0, "is_disabled": 0, "type": "electric_scooter", "bike_id": "11175c0fe1c9182d677fe5bbc484e2e1"}, {"lon": -77.02947766666666, "lat": 38.922785, "name": "a04f49827ee32a1d4f84e6319dfa9c71", "fusion_lat": 0.0, "fusion_lon": 0.0, "rental_uris": {"android": "https://dc.lft.to/lastmile_qr_scan", "ios": "https://dc.lft.to/lastmile_qr_scan"}, "is_reserved": 0, "is_disabled": 0, "type": "electric_scooter", "bike_id": "a04f49827ee32a1d4f84e6319dfa9c71"}, {"lon": -77.048173, "lat": 38.9110175, "name": "cea8321ebfd332438dd00c6617f0f95c", "fusion_lat": 0.0, "fusion_lon": 0.0, "rental_uris": {"android": "https://dc.lft.to/lastmile_qr_scan", "ios": "https://dc.lft.to/lastmile_qr_scan"}, "is_reserved": 0, "is_disabled": 0, "type": "electric_scooter", "bike_id": "cea8321ebfd332438dd00c6617f0f95c"}, {"lon": -76.94778916666667, "lat": 38.89443466666667, "name": "248cf0cb3a593e982074660f95cb154a", "fusion_lat": 0.0, "fusion_lon": 0.0, "rental_uris": {"android": "https://dc.lft.to/lastmile_qr_scan", "ios": "https://dc.lft.to/lastmile_qr_scan"}, "is_reserved": 0, "is_disabled": 0, "type": "electric_scooter", "bike_id": "248cf0cb3a593e982074660f95cb154a"}, {"lon": -77.04457316666667, "lat": 38.91857666666667, "name": "c6c32455e4dd210305090cfa44da6db1", "fusion_lat": 0.0, "fusion_lon": 0.0, "rental_uris": {"android": "https://dc.lft.to/lastmile_qr_scan", "ios": "https://dc.lft.to/lastmile_qr_scan"}, "is_reserved": 0, "is_disabled": 0, "type": "electric_scooter", "bike_id": "c6c32455e4dd210305090cfa44da6db1"}, {"lon": -77.03783333333334, "lat": 38.996882666666664, "name": "ff8afbe8c4d02a262ba6936022d2c6fd", "fusion_lat": 0.0, "fusion_lon": 0.0, "rental_uris": {"android": "https://dc.lft.to/lastmile_qr_scan", "ios": "https://dc.lft.to/lastmile_qr_scan"}, "is_reserved": 0, "is_disabled": 0, "type": "electric_bike", "bike_id": "ff8afbe8c4d02a262ba6936022d2c6fd"}, {"lon": -77.04653783333333, "lat": 38.915608666666664, "name": "92d007059003bfb7a6b4d61690d07d40", "fusion_lat": 0.0, "fusion_lon": 0.0, "rental_uris": {"android": "https://dc.lft.to/lastmile_qr_scan", "ios": "https://dc.lft.to/lastmile_qr_scan"}, "is_reserved": 0, "is_disabled": 0, "type": "electric_scooter", "bike_id": "92d007059003bfb7a6b4d61690d07d40"}, {"lon": -77.02436633333333, "lat": 38.923814, "name": "3beb3977a458a3b8428ddf9b6be0e4cf", "fusion_lat": 0.0, "fusion_lon": 0.0, "rental_uris": {"android": "https://dc.lft.to/lastmile_qr_scan", "ios": "https://dc.lft.to/lastmile_qr_scan"}, "is_reserved": 0, "is_disabled": 0, "type": "electric_bike", "bike_id": "3beb3977a458a3b8428ddf9b6be0e4cf"}, {"lon": -77.0306905, "lat": 38.880443666666665, "name": "1d0eebc3431b8589ede066d73b30bd9f", "fusion_lat": 0.0, "fusion_lon": 0.0, "rental_uris": {"android": "https://dc.lft.to/lastmile_qr_scan", "ios": "https://dc.lft.to/lastmile_qr_scan"}, "is_reserved": 0, "is_disabled": 0, "type": "electric_scooter", "bike_id": "1d0eebc3431b8589ede066d73b30bd9f"}, {"lon": -76.99870433333334, "lat": 38.90019083333333, "name": "56b77454704b8b14451b30e9a0bb9bb9", "fusion_lat": 0.0, "fusion_lon": 0.0, "rental_uris": {"android": "https://dc.lft.to/lastmile_qr_scan", "ios": "https://dc.lft.to/lastmile_qr_scan"}, "is_reserved": 0, "is_disabled": 0, "type": "electric_scooter", "bike_id": "56b77454704b8b14451b30e9a0bb9bb9"}, {"lon": -77.04463233333334, "lat": 38.918590333333334, "name": "d3933a6561699df57969c08017584b2c", "fusion_lat": 0.0, "fusion_lon": 0.0, "rental_uris": {"android": "https://dc.lft.to/lastmile_qr_scan", "ios": "https://dc.lft.to/lastmile_qr_scan"}, "is_reserved": 0, "is_disabled": 0, "type": "electric_scooter", "bike_id": "d3933a6561699df57969c08017584b2c"}, {"lon": -77.02411883333333, "lat": 38.90958883333333, "name": "1e154c47e8de5316cc7994872e50c62e", "fusion_lat": 0.0, "fusion_lon": 0.0, "rental_uris": {"android": "https://dc.lft.to/lastmile_qr_scan", "ios": "https://dc.lft.to/lastmile_qr_scan"}, "is_reserved": 0, "is_disabled": 0, "type": "electric_scooter", "bike_id": "1e154c47e8de5316cc7994872e50c62e"}, {"lon": -77.03645766666666, "lat": 38.91719833333333, "name": "09f291ec179a2b57b97f4e9997ccb872", "fusion_lat": 0.0, "fusion_lon": 0.0, "rental_uris": {"android": "https://dc.lft.to/lastmile_qr_scan", "ios": "https://dc.lft.to/lastmile_qr_scan"}, "is_reserved": 0, "is_disabled": 0, "type": "electric_scooter", "bike_id": "09f291ec179a2b57b97f4e9997ccb872"}, {"lon": -77.01401583333333, "lat": 38.928532833333335, "name": "1d2aed9d4f6fffe5c0d1852dcb416647", "fusion_lat": 0.0, "fusion_lon": 0.0, "rental_uris": {"android": "https://dc.lft.to/lastmile_qr_scan", "ios": "https://dc.lft.to/lastmile_qr_scan"}, "is_reserved": 0, "is_disabled": 0, "type": "electric_scooter", "bike_id": "1d2aed9d4f6fffe5c0d1852dcb416647"}, {"lon": -77.01298366666667, "lat": 38.93029533333333, "name": "a057436d8080816689a5d34e4956e16f", "fusion_lat": 0.0, "fusion_lon": 0.0, "rental_uris": {"android": "https://dc.lft.to/lastmile_qr_scan", "ios": "https://dc.lft.to/lastmile_qr_scan"}, "is_reserved": 0, "is_disabled": 0, "type": "electric_scooter", "bike_id": "a057436d8080816689a5d34e4956e16f"}, {"lon": -77.0330685, "lat": 38.92847166666667, "name": "9cfee8c6eaa30c3c6e14ccf670ca651f", "fusion_lat": 0.0, "fusion_lon": 0.0, "rental_uris": {"android": "https://dc.lft.to/lastmile_qr_scan", "ios": "https://dc.lft.to/lastmile_qr_scan"}, "is_reserved": 0, "is_disabled": 0, "type": "electric_scooter", "bike_id": "9cfee8c6eaa30c3c6e14ccf670ca651f"}, {"lon": -77.02694216666667, "lat": 38.912701, "name": "b365b08197160e9b9a3db6bc0821a59a", "fusion_lat": 0.0, "fusion_lon": 0.0, "rental_uris": {"android": "https://dc.lft.to/lastmile_qr_scan", "ios": "https://dc.lft.to/lastmile_qr_scan"}, "is_reserved": 0, "is_disabled": 0, "type": "electric_scooter", "bike_id": "b365b08197160e9b9a3db6bc0821a59a"}, {"lon": -77.02407983333333, "lat": 38.911029166666665, "name": "ab0655cd957f618613d3bdf6d6ae2fc4", "fusion_lat": 0.0, "fusion_lon": 0.0, "rental_uris": {"android": "https://dc.lft.to/lastmile_qr_scan", "ios": "https://dc.lft.to/lastmile_qr_scan"}, "is_reserved": 0, "is_disabled": 0, "type": "electric_scooter", "bike_id": "ab0655cd957f618613d3bdf6d6ae2fc4"}, {"lon": -77.00146533333333, "lat": 38.900081666666665, "name": "2c3ac491ad98dab5bb93b987666e0e72", "fusion_lat": 0.0, "fusion_lon": 0.0, "rental_uris": {"android": "https://dc.lft.to/lastmile_qr_scan", "ios": "https://dc.lft.to/lastmile_qr_scan"}, "is_reserved": 0, "is_disabled": 0, "type": "electric_scooter", "bike_id": "2c3ac491ad98dab5bb93b987666e0e72"}, {"lon": -77.05004016666666, "lat": 38.892310333333334, "name": "8dd6a6fc9378c71e3932ea71da31507b", "fusion_lat": 0.0, "fusion_lon": 0.0, "rental_uris": {"android": "https://dc.lft.to/lastmile_qr_scan", "ios": "https://dc.lft.to/lastmile_qr_scan"}, "is_reserved": 0, "is_disabled": 0, "type": "electric_scooter", "bike_id": "8dd6a6fc9378c71e3932ea71da31507b"}, {"lon": -77.01700283333334, "lat": 38.920262, "name": "fc418aec28f393e4fbb44dad9d638c3f", "fusion_lat": 0.0, "fusion_lon": 0.0, "rental_uris": {"android": "https://dc.lft.to/lastmile_qr_scan", "ios": "https://dc.lft.to/lastmile_qr_scan"}, "is_reserved": 0, "is_disabled": 0, "type": "electric_scooter", "bike_id": "fc418aec28f393e4fbb44dad9d638c3f"}, {"lon": -77.045078, "lat": 38.91275783333333, "name": "d1e60bbc6d4ed0e99ed461f9dfa7ace7", "fusion_lat": 0.0, "fusion_lon": 0.0, "rental_uris": {"android": "https://dc.lft.to/lastmile_qr_scan", "ios": "https://dc.lft.to/lastmile_qr_scan"}, "is_reserved": 0, "is_disabled": 0, "type": "electric_scooter", "bike_id": "d1e60bbc6d4ed0e99ed461f9dfa7ace7"}, {"lon": -77.03910566666667, "lat": 38.92177266666667, "name": "fcc2e54b88ee508ae52dccf64d354b9b", "fusion_lat": 0.0, "fusion_lon": 0.0, "rental_uris": {"android": "https://dc.lft.to/lastmile_qr_scan", "ios": "https://dc.lft.to/lastmile_qr_scan"}, "is_reserved": 0, "is_disabled": 0, "type": "electric_scooter", "bike_id": "fcc2e54b88ee508ae52dccf64d354b9b"}, {"lon": -77.02386066666666, "lat": 38.9197785, "name": "b4673d955797dac7fa77af90ec0330b0", "fusion_lat": 0.0, "fusion_lon": 0.0, "rental_uris": {"android": "https://dc.lft.to/lastmile_qr_scan", "ios": "https://dc.lft.to/lastmile_qr_scan"}, "is_reserved": 0, "is_disabled": 0, "type": "electric_scooter", "bike_id": "b4673d955797dac7fa77af90ec0330b0"}, {"lon": -77.029309, "lat": 38.88218916666667, "name": "6abf3d52a23fb423d608a6d462a40aad", "fusion_lat": 0.0, "fusion_lon": 0.0, "rental_uris": {"android": "https://dc.lft.to/lastmile_qr_scan", "ios": "https://dc.lft.to/lastmile_qr_scan"}, "is_reserved": 0, "is_disabled": 0, "type": "electric_scooter", "bike_id": "6abf3d52a23fb423d608a6d462a40aad"}, {"lon": -77.018726, "lat": 38.94899733333333, "name": "fff797f4feeeb6b1370ac09c55c0edb7", "fusion_lat": 0.0, "fusion_lon": 0.0, "rental_uris": {"android": "https://dc.lft.to/lastmile_qr_scan", "ios": "https://dc.lft.to/lastmile_qr_scan"}, "is_reserved": 0, "is_disabled": 0, "type": "electric_scooter", "bike_id": "fff797f4feeeb6b1370ac09c55c0edb7"}, {"lon": -77.02409033333333, "lat": 38.909628, "name": "a9cea1364fb0333d275367aae7ce9334", "fusion_lat": 0.0, "fusion_lon": 0.0, "rental_uris": {"android": "https://dc.lft.to/lastmile_qr_scan", "ios": "https://dc.lft.to/lastmile_qr_scan"}, "is_reserved": 0, "is_disabled": 0, "type": "electric_scooter", "bike_id": "a9cea1364fb0333d275367aae7ce9334"}, {"lon": -77.01096066666666, "lat": 38.905734333333335, "name": "402b58419e07deef3ecad4c19f627d64", "fusion_lat": 0.0, "fusion_lon": 0.0, "rental_uris": {"android": "https://dc.lft.to/lastmile_qr_scan", "ios": "https://dc.lft.to/lastmile_qr_scan"}, "is_reserved": 0, "is_disabled": 0, "type": "electric_scooter", "bike_id": "402b58419e07deef3ecad4c19f627d64"}, {"lon": -77.03941033333334, "lat": 38.9141225, "name": "20026c1612967795024706e396e01fbd", "fusion_lat": 0.0, "fusion_lon": 0.0, "rental_uris": {"android": "https://dc.lft.to/lastmile_qr_scan", "ios": "https://dc.lft.to/lastmile_qr_scan"}, "is_reserved": 0, "is_disabled": 0, "type": "electric_scooter", "bike_id": "20026c1612967795024706e396e01fbd"}, {"lon": -76.98161466666667, "lat": 38.9595735, "name": "1ff24f8d4c5356b40b112d47f1000038", "fusion_lat": 0.0, "fusion_lon": 0.0, "rental_uris": {"android": "https://dc.lft.to/lastmile_qr_scan", "ios": "https://dc.lft.to/lastmile_qr_scan"}, "is_reserved": 0, "is_disabled": 0, "type": "electric_bike", "bike_id": "1ff24f8d4c5356b40b112d47f1000038"}, {"lon": -76.96523433333333, "lat": 38.876243833333334, "name": "f1f2e4de48e51eb4bc181f71050722a2", "fusion_lat": 0.0, "fusion_lon": 0.0, "rental_uris": {"android": "https://dc.lft.to/lastmile_qr_scan", "ios": "https://dc.lft.to/lastmile_qr_scan"}, "is_reserved": 0, "is_disabled": 0, "type": "electric_scooter", "bike_id": "f1f2e4de48e51eb4bc181f71050722a2"}, {"lon": -77.05572133333334, "lat": 38.89965433333333, "name": "37a7464d04133200043caf0e225076dc", "fusion_lat": 0.0, "fusion_lon": 0.0, "rental_uris": {"android": "https://dc.lft.to/lastmile_qr_scan", "ios": "https://dc.lft.to/lastmile_qr_scan"}, "is_reserved": 0, "is_disabled": 0, "type": "electric_scooter", "bike_id": "37a7464d04133200043caf0e225076dc"}, {"lon": -77.07272183333333, "lat": 38.934757833333336, "name": "df81214bbeb7261b568bdaaeeb07c6ad", "fusion_lat": 0.0, "fusion_lon": 0.0, "rental_uris": {"android": "https://dc.lft.to/lastmile_qr_scan", "ios": "https://dc.lft.to/lastmile_qr_scan"}, "is_reserved": 0, "is_disabled": 0, "type": "electric_scooter", "bike_id": "df81214bbeb7261b568bdaaeeb07c6ad"}, {"lon": -76.985664, "lat": 38.85588933333333, "name": "4b6a8947ffa1b1d4ff4cb88afeeadfe1", "fusion_lat": 0.0, "fusion_lon": 0.0, "rental_uris": {"android": "https://dc.lft.to/lastmile_qr_scan", "ios": "https://dc.lft.to/lastmile_qr_scan"}, "is_reserved": 0, "is_disabled": 0, "type": "electric_scooter", "bike_id": "4b6a8947ffa1b1d4ff4cb88afeeadfe1"}, {"lon": -77.0417505, "lat": 38.90722266666667, "name": "64e72993d70722a3922964dd1625a5ac", "fusion_lat": 0.0, "fusion_lon": 0.0, "rental_uris": {"android": "https://dc.lft.to/lastmile_qr_scan", "ios": "https://dc.lft.to/lastmile_qr_scan"}, "is_reserved": 0, "is_disabled": 0, "type": "electric_scooter", "bike_id": "64e72993d70722a3922964dd1625a5ac"}, {"lon": -77.032117, "lat": 38.9171875, "name": "0b1ed55eb92a84802196bcf45f2456bf", "fusion_lat": 0.0, "fusion_lon": 0.0, "rental_uris": {"android": "https://dc.lft.to/lastmile_qr_scan", "ios": "https://dc.lft.to/lastmile_qr_scan"}, "is_reserved": 0, "is_disabled": 0, "type": "electric_scooter", "bike_id": "0b1ed55eb92a84802196bcf45f2456bf"}, {"lon": -77.02592783333333, "lat": 38.90044416666667, "name": "90299025581382d60b4187ae2db42957", "fusion_lat": 0.0, "fusion_lon": 0.0, "rental_uris": {"android": "https://dc.lft.to/lastmile_qr_scan", "ios": "https://dc.lft.to/lastmile_qr_scan"}, "is_reserved": 0, "is_disabled": 0, "type": "electric_scooter", "bike_id": "90299025581382d60b4187ae2db42957"}, {"lon": -77.033597, "lat": 38.899665666666664, "name": "26027fc2996333c0c6b38fd5922d1ad0", "fusion_lat": 0.0, "fusion_lon": 0.0, "rental_uris": {"android": "https://dc.lft.to/lastmile_qr_scan", "ios": "https://dc.lft.to/lastmile_qr_scan"}, "is_reserved": 0, "is_disabled": 0, "type": "electric_scooter", "bike_id": "26027fc2996333c0c6b38fd5922d1ad0"}, {"lon": -77.034517, "lat": 38.90880133333334, "name": "08dfa4bdf636f4b262fa2fd970997a9b", "fusion_lat": 0.0, "fusion_lon": 0.0, "rental_uris": {"android": "https://dc.lft.to/lastmile_qr_scan", "ios": "https://dc.lft.to/lastmile_qr_scan"}, "is_reserved": 0, "is_disabled": 0, "type": "electric_scooter", "bike_id": "08dfa4bdf636f4b262fa2fd970997a9b"}, {"lon": -77.008652, "lat": 38.8272715, "name": "4be8f17d9203794d0078884196cca66f", "fusion_lat": 0.0, "fusion_lon": 0.0, "rental_uris": {"android": "https://dc.lft.to/lastmile_qr_scan", "ios": "https://dc.lft.to/lastmile_qr_scan"}, "is_reserved": 0, "is_disabled": 0, "type": "electric_bike", "bike_id": "4be8f17d9203794d0078884196cca66f"}, {"lon": -77.00368566666667, "lat": 38.899367, "name": "d25e739e07af019aebe078b7d6fa88d1", "fusion_lat": 0.0, "fusion_lon": 0.0, "rental_uris": {"android": "https://dc.lft.to/lastmile_qr_scan", "ios": "https://dc.lft.to/lastmile_qr_scan"}, "is_reserved": 0, "is_disabled": 0, "type": "electric_scooter", "bike_id": "d25e739e07af019aebe078b7d6fa88d1"}, {"lon": -77.07364133333333, "lat": 38.943222, "name": "c6460a72f26cd1ab81b361dccc29d6ac", "fusion_lat": 0.0, "fusion_lon": 0.0, "rental_uris": {"android": "https://dc.lft.to/lastmile_qr_scan", "ios": "https://dc.lft.to/lastmile_qr_scan"}, "is_reserved": 0, "is_disabled": 0, "type": "electric_scooter", "bike_id": "c6460a72f26cd1ab81b361dccc29d6ac"}, {"lon": -77.03677616666667, "lat": 38.908374, "name": "452fff5701cf5d2a2470222b0b54fb45", "fusion_lat": 0.0, "fusion_lon": 0.0, "rental_uris": {"android": "https://dc.lft.to/lastmile_qr_scan", "ios": "https://dc.lft.to/lastmile_qr_scan"}, "is_reserved": 0, "is_disabled": 0, "type": "electric_scooter", "bike_id": "452fff5701cf5d2a2470222b0b54fb45"}, {"lon": -77.02236783333333, "lat": 38.911114, "name": "ff9049bf527d14d65d25268ccc111540", "fusion_lat": 0.0, "fusion_lon": 0.0, "rental_uris": {"android": "https://dc.lft.to/lastmile_qr_scan", "ios": "https://dc.lft.to/lastmile_qr_scan"}, "is_reserved": 0, "is_disabled": 0, "type": "electric_scooter", "bike_id": "ff9049bf527d14d65d25268ccc111540"}, {"lon": -77.05618166666666, "lat": 38.924206166666664, "name": "53d16ba5b01a680cbac710bbd0a49bbb", "fusion_lat": 0.0, "fusion_lon": 0.0, "rental_uris": {"android": "https://dc.lft.to/lastmile_qr_scan", "ios": "https://dc.lft.to/lastmile_qr_scan"}, "is_reserved": 0, "is_disabled": 0, "type": "electric_scooter", "bike_id": "53d16ba5b01a680cbac710bbd0a49bbb"}, {"lon": -77.02690816666667, "lat": 38.91272216666667, "name": "ff01df293669e51c0634ef44309cf4ae", "fusion_lat": 0.0, "fusion_lon": 0.0, "rental_uris": {"android": "https://dc.lft.to/lastmile_qr_scan", "ios": "https://dc.lft.to/lastmile_qr_scan"}, "is_reserved": 0, "is_disabled": 0, "type": "electric_scooter", "bike_id": "ff01df293669e51c0634ef44309cf4ae"}, {"lon": -77.04262, "lat": 38.91708583333333, "name": "78c9dac5955aa77e501aa86cc45b8065", "fusion_lat": 0.0, "fusion_lon": 0.0, "rental_uris": {"android": "https://dc.lft.to/lastmile_qr_scan", "ios": "https://dc.lft.to/lastmile_qr_scan"}, "is_reserved": 0, "is_disabled": 0, "type": "electric_scooter", "bike_id": "78c9dac5955aa77e501aa86cc45b8065"},