{"data": {"bikes": [{"lon": -77.024005, "bike_id": "7ed8d1b1d00afaf4255df5e7efbb9922", "lat": 38.90698666666667, "fusion_lon": 0.0, "fusion_lat": 0.0, "type": "electric_scooter", "name": "7ed8d1b1d00afaf4255df5e7efbb9922", "is_disabled": 0, "rental_uris": {"ios": "https://dc.lft.to/lastmile_qr_scan", "android": "https://dc.lft.to/lastmile_qr_scan"}, "is_reserved": 0}, {"lon": -77.0209095, "bike_id": "a526eaa0d31855cd5811ac94af6930b1", "lat": 38.9271205, "fusion_lon": 0.0, "fusion_lat": 0.0, "type": "electric_scooter", "name": "a526eaa0d31855cd5811ac94af6930b1", "is_disabled": 0, "rental_uris": {"ios": "https://dc.lft.to/lastmile_qr_scan", "android": "https://dc.lft.to/lastmile_qr_scan"}, "is_reserved": 0}, {"lon": -77.02963816666667, "bike_id": "7197c9058a316686bb02ead63e071fdf", "lat": 38.90491166666666, "fusion_lon": 0.0, "fusion_lat": 0.0, "type": "electric_scooter", "name": "7197c9058a316686bb02ead63e071fdf", "is_disabled": 0, "rental_uris": {"ios": "https://dc.lft.to/lastmile_qr_scan", "android": "https://dc.lft.to/lastmile_qr_scan"}, "is_reserved": 0}, {"lon": -77.01484816666667, "bike_id": "c6bbb571e16302102902dd49b3c77a31", "lat": 38.91919, "fusion_lon": 0.0, "fusion_lat": 0.0, "type": "electric_scooter", "name": "c6bbb571e16302102902dd49b3c77a31", "is_disabled": 0, "rental_uris": {"ios": "https://dc.lft.to/lastmile_qr_scan", "android": "https://dc.lft.to/lastmile_qr_scan"}, "is_reserved": 0}, {"lon": -77.00580316666667, "bike_id": "f331a6d6698d10beb175c605c9838b09", "lat": 38.873038666666666, "fusion_lon": 0.0, "fusion_lat": 0.0, "type": "electric_scooter", "name": "f331a6d6698d10beb175c605c9838b09", "is_disabled": 0, "rental_uris": {"ios": "https://dc.lft.to/lastmile_qr_scan", "android": "https://dc.lft.to/lastmile_qr_scan"}, "is_reserved": 0}, {"lon": -77.01625866666667, "bike_id": "d24cb83e458776009d0e02fa26673033", "lat": 38.906930333333335, "fusion_lon": 0.0, "fusion_lat": 0.0, "type": "electric_scooter", "name": "d24cb83e458776009d0e02fa26673033", "is_disabled": 0, "rental_uris": {"ios": "https://dc.lft.to/lastmile_qr_scan", "android": "https://dc.lft.to/lastmile_qr_scan"}, "is_reserved": 0}, {"lon": -77.09492216666666, "bike_id": "551a285d1d28fc75757ac079e964ed4b", "lat": 38.80765566666667, "fusion_lon": 0.0, "fusion_lat": 0.0, "type": "electric_bike", "name": "551a285d1d28fc75757ac079e964ed4b", "is_disabled": 0, "rental_uris": {"ios": "https://dc.lft.to/lastmile_qr_scan", "android": "https://dc.lft.to/lastmile_qr_scan"}, "is_reserved": 0}, {"lon": -77.0487715, "bike_id": "8a0ada1a558884e528b42e635f18186a", "lat": 38.89233383333333, "fusion_lon": 0.0, "fusion_lat": 0.0, "type": "electric_scooter", "name": "8a0ada1a558884e528b42e635f18186a", "is_disabled": 0, "rental_uris": {"ios": "https://dc.lft.to/lastmile_qr_scan", "android": "https://dc.lft.to/lastmile_qr_scan"}, "is_reserved": 0}, {"lon": -77.031938, "bike_id": "95d5d27f8119abd08ca04da51ed220dc", "lat": 38.899664, "fusion_lon": 0.0, "fusion_lat": 0.0, "type": "electric_scooter", "name": "95d5d27f8119abd08ca04da51ed220dc", "is_disabled": 0, "rental_uris": {"ios": "https://dc.lft.to/lastmile_qr_scan", "android": "https://dc.lft.to/lastmile_qr_scan"}, "is_reserved": 0}, {"lon": -76.988306, "bike_id": "d7dac837eb4e369d3ba57ef914ef23fc", "lat": 38.90127583333334, "fusion_lon": 0.0, "fusion_lat": 0.0, "type": "electric_scooter", "name": "d7dac837eb4e369d3ba57ef914ef23fc", "is_disabled": 0, "rental_uris": {"ios": "https://dc.lft.to/lastmile_qr_scan", "android": "https://dc.lft.to/lastmile_qr_scan"}, "is_reserved": 0}, {"lon": -77.04017016666667, "bike_id": "7c8bf0a0718ba3579adc41ef4519973b", "lat": 38.921734, "fusion_lon": 0.0, "fusion_lat": 0.0, "type": "electric_scooter", "name": "7c8bf0a0718ba3579adc41ef4519973b", "is_disabled": 0, "rental_uris": {"ios": "https://dc.lft.to/lastmile_qr_scan", "android": "https://dc.lft.to/lastmile_qr_scan"}, "is_reserved": 0}, {"lon": -77.03644833333334, "bike_id": "0dda63cf1b5896ef1fc19de44d152ee5", "lat": 38.924601833333334, "fusion_lon": 0.0, "fusion_lat": 0.0, "type": "electric_scooter", "name": "0dda63cf1b5896ef1fc19de44d152ee5", "is_disabled": 0, "rental_uris": {"ios": "https://dc.lft.to/lastmile_qr_scan", "android": "https://dc.lft.to/lastmile_qr_scan"}, "is_reserved": 0}, {"lon": -77.04469616666667, "bike_id": "f433f89acb6ef50f2c648a9abeb1ad97", "lat": 38.89222316666667, "fusion_lon": 0.0, "fusion_lat": 0.0, "type": "electric_scooter", "name": "f433f89acb6ef50f2c648a9abeb1ad97", "is_disabled": 0, "rental_uris": {"ios": "https://dc.lft.to/lastmile_qr_scan", "android": "https://dc.lft.to/lastmile_qr_scan"}, "is_reserved": 0}, {"lon": -77.03184316666666, "bike_id": "9580a9cdabd69acb4c5f58aeab2e407d", "lat": 38.892317166666665, "fusion_lon": 0.0, "fusion_lat": 0.0, "type": "electric_scooter", "name": "9580a9cdabd69acb4c5f58aeab2e407d", "is_disabled": 0, "rental_uris": {"ios": "https://dc.lft.to/lastmile_qr_scan", "android": "https://dc.lft.to/lastmile_qr_scan"}, "is_reserved": 0}, {"lon": -77.01258783333333, "bike_id": "71cc60e5a71c4e3cb158833a78b4f330", "lat": 38.908438333333336, "fusion_lon": 0.0, "fusion_lat": 0.0, "type": "electric_scooter", "name": "71cc60e5a71c4e3cb158833a78b4f330", "is_disabled": 0, "rental_uris": {"ios": "https://dc.lft.to/lastmile_qr_scan", "android": "https://dc.lft.to/lastmile_qr_scan"}, "is_reserved": 0}, {"lon": -77.03663633333333, "bike_id": "d50337733cbecbea243aac888320abcb", "lat": 38.91715266666667, "fusion_lon": 0.0, "fusion_lat": 0.0, "type": "electric_scooter", "name": "d50337733cbecbea243aac888320abcb", "is_disabled": 0, "rental_uris": {"ios": "https://dc.lft.to/lastmile_qr_scan", "android": "https://dc.lft.to/lastmile_qr_scan"}, "is_reserved": 0}, {"lon": -76.9983135, "bike_id": "c81e45af4de26b80755272d61f771651", "lat": 38.908594666666666, "fusion_lon": 0.0, "fusion_lat": 0.0, "type": "electric_scooter", "name": "c81e45af4de26b80755272d61f771651", "is_disabled": 0, "rental_uris": {"ios": "https://dc.lft.to/lastmile_qr_scan", "android": "https://dc.lft.to/lastmile_qr_scan"}, "is_reserved": 0}, {"lon": -76.98023816666667, "bike_id": "563929e32a2f38ab3e837bd9c3797345", "lat": 38.85323016666667, "fusion_lon": 0.0, "fusion_lat": 0.0, "type": "electric_bike", "name": "563929e32a2f38ab3e837bd9c3797345", "is_disabled": 0, "rental_uris": {"ios": "https://dc.lft.to/lastmile_qr_scan", "android": "https://dc.lft.to/lastmile_qr_scan"}, "is_reserved": 0}, {"lon": -77.0353445, "bike_id": "7d4c8a65c62f4a2e945044964338e7a9", "lat": 38.92484133333333, "fusion_lon": 0.0, "fusion_lat": 0.0, "type": "electric_scooter", "name": "7d4c8a65c62f4a2e945044964338e7a9", "is_disabled": 0, "rental_uris": {"ios": "https://dc.lft.to/lastmile_qr_scan", "android": "https://dc.lft.to/lastmile_qr_scan"}, "is_reserved": 0}, {"lon": -77.00379683333334, "bike_id": "e9a11621d2d7f13e0df585d46a4ef78f", "lat": 38.876327333333336, "fusion_lon": 0.0, "fusion_lat": 0.0, "type": "electric_scooter", "name": "e9a11621d2d7f13e0df585d46a4ef78f", "is_disabled": 0, "rental_uris": {"ios": "https://dc.lft.to/lastmile_qr_scan", "android": "https://dc.lft.to/lastmile_qr_scan"}, "is_reserved": 0}, {"lon": -76.99515733333334, "bike_id": "00a91530c144b3c376d2d55e71fefae0", "lat": 38.86260816666667, "fusion_lon": 0.0, "fusion_lat": 0.0, "type": "electric_scooter", "name": "00a91530c144b3c376d2d55e71fefae0", "is_disabled": 0, "rental_uris": {"ios": "https://dc.lft.to/lastmile_qr_scan", "android": "https://dc.lft.to/lastmile_qr_scan"}, "is_reserved": 0}, {"lon": -76.9488535, "bike_id": "772bba6086ebe84e2d211c35efd31930", "lat": 38.8951235, "fusion_lon": 0.0, "fusion_lat": 0.0, "type": "electric_scooter", "name": "772bba6086ebe84e2d211c35efd31930", "is_disabled": 0, "rental_uris": {"ios": "https://dc.lft.to/lastmile_qr_scan", "android": "https://dc.lft.to/lastmile_qr_scan"}, "is_reserved": 0}, {"lon": -77.03208866666667, "bike_id": "3562c0a30fc6b2952e15becdfb918951", "lat": 38.9173225, "fusion_lon": 0.0, "fusion_lat": 0.0, "type": "electric_scooter", "name": "3562c0a30fc6b2952e15becdfb918951", "is_disabled": 0, "rental_uris": {"ios": "https://dc.lft.to/lastmile_qr_scan", "android": "https://dc.lft.to/lastmile_qr_scan"}, "is_reserved": 0}, {"lon": -77.0322565, "bike_id": "f9df5e8f9d42a8466812634c8a606b8c", "lat": 38.89744116666667, "fusion_lon": 0.0, "fusion_lat": 0.0, "type": "electric_scooter", "name": "f9df5e8f9d42a8466812634c8a606b8c", "is_disabled": 0, "rental_uris": {"ios": "https://dc.lft.to/lastmile_qr_scan", "android": "https://dc.lft.to/lastmile_qr_scan"}, "is_reserved": 0}, {"lon": -77.02010433333334, "bike_id": "aacef6724ce6abebc0aa6d4123a167e4", "lat": 38.9242145, "fusion_lon": 0.0, "fusion_lat": 0.0, "type": "electric_scooter", "name": "aacef6724ce6abebc0aa6d4123a167e4", "is_disabled": 0, "rental_uris": {"ios": "https://dc.lft.to/lastmile_qr_scan", "android": "https://dc.lft.to/lastmile_qr_scan"}, "is_reserved": 0}, {"lon": -76.9898865, "bike_id": "bf87fec1a67fd09306aa6a27688cd782", "lat": 38.93361983333333, "fusion_lon": 0.0, "fusion_lat": 0.0, "type": "electric_scooter", "name": "bf87fec1a67fd09306aa6a27688cd782", "is_disabled": 0, "rental_uris": {"ios": "https://dc.lft.to/lastmile_qr_scan", "android": "https://dc.lft.to/lastmile_qr_scan"}, "is_reserved": 0}, {"lon": -77.05746333333333, "bike_id": "3cdd4fb502e8aa7b257d59fd15b33548", "lat": 38.93354566666667, "fusion_lon": 0.0, "fusion_lat": 0.0, "type": "electric_scooter", "name": "3cdd4fb502e8aa7b257d59fd15b33548", "is_disabled": 0, "rental_uris": {"ios": "https://dc.lft.to/lastmile_qr_scan", "android": "https://dc.lft.to/lastmile_qr_scan"}, "is_reserved": 0}, {"lon": -77.03282216666666, "bike_id": "f37d1105546064efa13e04c41827a78d", "lat": 38.90155216666667, "fusion_lon": 0.0, "fusion_lat": 0.0, "type": "electric_scooter", "name": "f37d1105546064efa13e04c41827a78d", "is_disabled": 0, "rental_uris": {"ios": "https://dc.lft.to/lastmile_qr_scan", "android": "https://dc.lft.to/lastmile_qr_scan"}, "is_reserved": 0}, {"lon": -77.03207016666667, "bike_id": "66f7e3f3e0466ce66deae409cdf42b0d", "lat": 38.914766166666666, "fusion_lon": 0.0, "fusion_lat": 0.0, "type": "electric_scooter", "name": "66f7e3f3e0466ce66deae409cdf42b0d", "is_disabled": 0, "rental_uris": {"ios": "https://dc.lft.to/lastmile_qr_scan", "android": "https://dc.lft.to/lastmile_qr_scan"}, "is_reserved": 0}, {"lon": -76.990351, "bike_id": "a16b6e9f74bb8c7c81f7ea233468f8e3", "lat": 38.88873816666667, "fusion_lon": 0.0, "fusion_lat": 0.0, "type": "electric_scooter", "name": "a16b6e9f74bb8c7c81f7ea233468f8e3", "is_disabled": 0, "rental_uris": {"ios": "https://dc.lft.to/lastmile_qr_scan", "android": "https://dc.lft.to/lastmile_qr_scan"}, "is_reserved": 0}, {"lon": -77.04329483333333, "bike_id": "e82bdf97baf2ae2f719af9ebf94099f6", "lat": 38.9070715, "fusion_lon": 0.0, "fusion_lat": 0.0, "type": "electric_scooter", "name": "e82bdf97baf2ae2f719af9ebf94099f6", "is_disabled": 0, "rental_uris": {"ios": "https://dc.lft.to/lastmile_qr_scan", "android": "https://dc.lft.to/lastmile_qr_scan"}, "is_reserved": 0}, {"lon": -77.0173835, "bike_id": "1c3205f9ec12f1d1989023e581d1e61b", "lat": 38.88745383333333, "fusion_lon": 0.0, "fusion_lat": 0.0, "type": "electric_scooter", "name": "1c3205f9ec12f1d1989023e581d1e61b", "is_disabled": 0, "rental_uris": {"ios": "https://dc.lft.to/lastmile_qr_scan", "android": "https://dc.lft.to/lastmile_qr_scan"}, "is_reserved": 0}, {"lon": -77.0228855, "bike_id": "ada527289b16e88d2007f3c6e704de74", "lat": 38.91665233333333, "fusion_lon": 0.0, "fusion_lat": 0.0, "type": "electric_scooter", "name": "ada527289b16e88d2007f3c6e704de74", "is_disabled": 0, "rental_uris": {"ios": "https://dc.lft.to/lastmile_qr_scan", "android": "https://dc.lft.to/lastmile_qr_scan"}, "is_reserved": 0}, {"lon": -76.99802083333333, "bike_id": "dabd55b8de1e519138dff15bf2e7b6f0", "lat": 38.908536, "fusion_lon": 0.0, "fusion_lat": 0.0, "type": "electric_scooter", "name": "dabd55b8de1e519138dff15bf2e7b6f0", "is_disabled": 0, "rental_uris": {"ios": "https://dc.lft.to/lastmile_qr_scan", "android": "https://dc.lft.to/lastmile_qr_scan"}, "is_reserved": 0}, {"lon": -77.02603133333334, "bike_id": "d5ec2297a90eefcde87241d0054c10d0", "lat": 38.933804333333335, "fusion_lon": 0.0, "fusion_lat": 0.0, "type": "electric_scooter", "name": "d5ec2297a90eefcde87241d0054c10d0", "is_disabled": 0, "rental_uris": {"ios": "https://dc.lft.to/lastmile_qr_scan", "android": "https://dc.lft.to/lastmile_qr_scan"}, "is_reserved": 0}, {"lon": -76.99487933333333, "bike_id": "f18349fae8c9896564cdfcc3d63272c5", "lat": 38.88610116666667, "fusion_lon": 0.0, "fusion_lat": 0.0, "type": "electric_scooter", "name": "f18349fae8c9896564cdfcc3d63272c5", "is_disabled": 0, "rental_uris": {"ios": "https://dc.lft.to/lastmile_qr_scan", "android": "https://dc.lft.to/lastmile_qr_scan"}, "is_reserved": 0}, {"lon": -77.02219783333334, "bike_id": "17e58814a400f0edd43c8ddc27fc1265", "lat": 38.8922065, "fusion_lon": 0.0, "fusion_lat": 0.0, "type": "electric_scooter", "name": "17e58814a400f0edd43c8ddc27fc1265", "is_disabled": 0, "rental_uris": {"ios": "https://dc.lft.to/lastmile_qr_scan", "android": "https://dc.lft.to/lastmile_qr_scan"}, "is_reserved": 0}, {"lon": -76.97935033333333, "bike_id": "c53d64abfa3becacea2caa0f8b1b4e87", "lat": 38.90243366666667, "fusion_lon": 0.0, "fusion_lat": 0.0, "type": "electric_scooter", "name": "c53d64abfa3becacea2caa0f8b1b4e87", "is_disabled": 0, "rental_uris": {"ios": "https://dc.lft.to/lastmile_qr_scan", "android": "https://dc.lft.to/lastmile_qr_scan"}, "is_reserved": 0}, {"lon": -77.02282633333333, "bike_id": "afcf737fe48727cfeaae2b1cf88a4f34", "lat": 38.917032166666665, "fusion_lon": 0.0, "fusion_lat": 0.0, "type": "electric_scooter", "name": "afcf737fe48727cfeaae2b1cf88a4f34", "is_disabled": 0, "rental_uris": {"ios": "https://dc.lft.to/lastmile_qr_scan", "android": "https://dc.lft.to/lastmile_qr_scan"}, "is_reserved": 0}, {"lon": -77.047161, "bike_id": "a6f1bce17b201d0220707180b6808124", "lat": 38.9231825, "fusion_lon": 0.0, "fusion_lat": 0.0, "type": "electric_scooter", "name": "a6f1bce17b201d0220707180b6808124", "is_disabled": 0, "rental_uris": {"ios": "https://dc.lft.to/lastmile_qr_scan", "android": "https://dc.lft.to/lastmile_qr_scan"}, "is_reserved": 0}, {"lon": -76.98529366666666, "bike_id": "31035276b478eb5b52bed05b6664df02", "lat": 38.86689716666667, "fusion_lon": 0.0, "fusion_lat": 0.0, "type": "electric_scooter", "name": "31035276b478eb5b52bed05b6664df02", "is_disabled": 0, "rental_uris": {"ios": "https://dc.lft.to/lastmile_qr_scan", "android": "https://dc.lft.to/lastmile_qr_scan"}, "is_reserved": 0}, {"lon": -77.031295, "bike_id": "608965c32da532d211807300584d7fb3", "lat": 38.92017716666667, "fusion_lon": 0.0, "fusion_lat": 0.0, "type": "electric_scooter", "name": "608965c32da532d211807300584d7fb3", "is_disabled": 0, "rental_uris": {"ios": "https://dc.lft.to/lastmile_qr_scan", "android": "https://dc.lft.to/lastmile_qr_scan"}, "is_reserved": 0}, {"lon": -77.0447235, "bike_id": "f1c8f78e21c33f6dcc393e442d279a93", "lat": 38.923944, "fusion_lon": 0.0, "fusion_lat": 0.0, "type": "electric_scooter", "name": "f1c8f78e21c33f6dcc393e442d279a93", "is_disabled": 0, "rental_uris": {"ios": "https://dc.lft.to/lastmile_qr_scan", "android": "https://dc.lft.to/lastmile_qr_scan"}, "is_reserved": 0}, {"lon": -77.0398615, "bike_id": "e9cd54053269fe47727c99d2acf26403", "lat": 38.9334015, "fusion_lon": 0.0, "fusion_lat": 0.0, "type": "electric_scooter", "name": "e9cd54053269fe47727c99d2acf26403", "is_disabled": 0, "rental_uris": {"ios": "https://dc.lft.to/lastmile_qr_scan", "android": "https://dc.lft.to/lastmile_qr_scan"}, "is_reserved": 0}, {"lon": -76.90739766666667, "bike_id": "cf60fd4c381f6331cfad13bbde0c5c18", "lat": 38.89615366666666, "fusion_lon": 0.0, "fusion_lat": 0.0, "type": "electric_bike", "name": "cf60fd4c381f6331cfad13bbde0c5c18", "is_disabled": 0, "rental_uris": {"ios": "https://dc.lft.to/lastmile_qr_scan", "android": "https://dc.lft.to/lastmile_qr_scan"}, "is_reserved": 0}, {"lon": -76.9953885, "bike_id": "2d6d532aaf9c219367b690df74b93753", "lat": 38.88373633333333, "fusion_lon": 0.0, "fusion_lat": 0.0, "type": "electric_scooter", "name": "2d6d532aaf9c219367b690df74b93753", "is_disabled": 0, "rental_uris": {"ios": "https://dc.lft.to/lastmile_qr_scan", "android": "https://dc.lft.to/lastmile_qr_scan"}, "is_reserved": 0}, {"lon": -77.0279165, "bike_id": "05513c177856fc94dd486974531d5f39", "lat": 38.961325333333335, "fusion_lon": 0.0, "fusion_lat": 0.0, "type": "electric_scooter", "name": "05513c177856fc94dd486974531d5f39", "is_disabled": 0, "rental_uris": {"ios": "https://dc.lft.to/lastmile_qr_scan", "android": "https://dc.lft.to/lastmile_qr_scan"}, "is_reserved": 0}, {"lon": -77.04178816666666, "bike_id": "0cfe931078ac7e82f175c4d05d7b9a38", "lat": 38.90548966666667, "fusion_lon": 0.0, "fusion_lat": 0.0, "type": "electric_scooter", "name": "0cfe931078ac7e82f175c4d05d7b9a38", "is_disabled": 0, "rental_uris": {"ios": "https://dc.lft.to/lastmile_qr_scan", "android": "https://dc.lft.to/lastmile_qr_scan"}, "is_reserved": 0}, {"lon": -77.04875683333333, "bike_id": "c506c09b3099a15147dc6bfa349cf300", "lat": 38.892871666666665, "fusion_lon": 0.0, "fusion_lat": 0.0, "type": "electric_scooter", "name": "c506c09b3099a15147dc6bfa349cf300", "is_disabled": 0, "rental_uris": {"ios": "https://dc.lft.to/lastmile_qr_scan", "android": "https://dc.lft.to/lastmile_qr_scan"}, "is_reserved": 0}, {"lon": -77.07510016666667, "bike_id": "8a7c6f5918574a673085fc7b515b6167", "lat": 38.936864666666665, "fusion_lon": 0.0, "fusion_lat": 0.0, "type": "electric_bike", "name": "8a7c6f5918574a673085fc7b515b6167", "is_disabled": 0, "rental_uris": {"ios": "https://dc.lft.to/lastmile_qr_scan", "android": "https://dc.lft.to/lastmile_qr_scan"}, "is_reserved": 0}, {"lon": -77.02904, "bike_id": "6ccd303b27721901bb0f36a7b4322104", "lat": 38.94045366666667, "fusion_lon": 0.0, "fusion_lat": 0.0, "type": "electric_scooter", "name": "6ccd303b27721901bb0f36a7b4322104", "is_disabled": 0, "rental_uris": {"ios": "https://dc.lft.to/lastmile_qr_scan", "android": "https://dc.lft.to/lastmile_qr_scan"}, "is_reserved": 0}, {"lon": -77.04545883333333, "bike_id": "3e323f19fb38b6b0994715e39d8f9a12", "lat": 38.913394833333335, "fusion_lon": 0.0, "fusion_lat": 0.0, "type": "electric_scooter", "name": "3e323f19fb38b6b0994715e39d8f9a12", "is_disabled": 0, "rental_uris": {"ios": "https://dc.lft.to/lastmile_qr_scan", "android": "https://dc.lft.to/lastmile_qr_scan"}, "is_reserved": 0}, {"lon": -76.99484916666667, "bike_id": "9a4ad350d69e1556a376bbcfba9b404d", "lat": 38.89738416666667, "fusion_lon": 0.0, "fusion_lat": 0.0, "type": "electric_scooter", "name": "9a4ad350d69e1556a376bbcfba9b404d", "is_disabled": 0, "rental_uris": {"ios": "https://dc.lft.to/lastmile_qr_scan", "android": "https://dc.lft.to/lastmile_qr_scan"}, "is_reserved": 0}, {"lon": -77.0251065, "bike_id": "41f33f855b0b02f563ad4b801cdefdd7", "lat": 38.919240333333335, "fusion_lon": 0.0, "fusion_lat": 0.0, "type": "electric_scooter", "name": "41f33f855b0b02f563ad4b801cdefdd7", "is_disabled": 0, "rental_uris": {"ios": "https://dc.lft.to/lastmile_qr_scan", "android": "https://dc.lft.to/lastmile_qr_scan"}, "is_reserved": 0}, {"lon": -77.0271905, "bike_id": "e64c61556c639cda2b3bbc1d6978131b", "lat": 38.89733666666667, "fusion_lon": 0.0, "fusion_lat": 0.0, "type": "electric_scooter", "name": "e64c61556c639cda2b3bbc1d6978131b", "is_disabled": 0, "rental_uris": {"ios": "https://dc.lft.to/lastmile_qr_scan", "android": "https://dc.lft.to/lastmile_qr_scan"}, "is_reserved": 0}, {"lon": -77.024731, "bike_id": "71e566037cd5032fc17172e7718ddc1d", "lat": 38.91818466666667, "fusion_lon": 0.0, "fusion_lat": 0.0, "type": "electric_scooter", "name": "71e566037cd5032fc17172e7718ddc1d", "is_disabled": 0, "rental_uris": {"ios": "https://dc.lft.to/lastmile_qr_scan", "android": "https://dc.lft.to/lastmile_qr_scan"}, "is_reserved": 0}, {"lon": -77.00343183333334, "bike_id": "7895bc1be27c171280f961080b49bfb1", "lat": 38.89930566666666, "fusion_lon": 0.0, "fusion_lat": 0.0, "type": "electric_scooter", "name": "7895bc1be27c171280f961080b49bfb1", "is_disabled": 0, "rental_uris": {"ios": "https://dc.lft.to/lastmile_qr_scan", "android": "https://dc.lft.to/lastmile_qr_scan"}, "is_reserved": 0}, {"lon": -77.0265545, "bike_id": "b3d4efef9f2e1d5850eb319c87ef6c26", "lat": 38.92182583333334, "fusion_lon": 0.0, "fusion_lat": 0.0, "type": "electric_scooter", "name": "b3d4efef9f2e1d5850eb319c87ef6c26", "is_disabled": 0, "rental_uris": {"ios": "https://dc.lft.to/lastmile_qr_scan", "android": "https://dc.lft.to/lastmile_qr_scan"}, "is_reserved": 0}, {"lon": -77.0147645, "bike_id": "2e844b1ecb44b4e16b77d89b7d5c87ef", "lat": 38.94065366666667, "fusion_lon": 0.0, "fusion_lat": 0.0, "type": "electric_bike", "name": "2e844b1ecb44b4e16b77d89b7d5c87ef", "is_disabled": 0, "rental_uris": {"ios": "https://dc.lft.to/lastmile_qr_scan", "android": "https://dc.lft.to/lastmile_qr_scan"}, "is_reserved": 0}, {"lon": -77.0435645, "bike_id": "dbe22e8a05212bd1885f8cf780532c51", "lat": 38.92172083333333, "fusion_lon": 0.0, "fusion_lat": 0.0, "type": "electric_scooter", "name": "dbe22e8a05212bd1885f8cf780532c51", "is_disabled": 0, "rental_uris": {"ios": "https://dc.lft.to/lastmile_qr_scan", "android": "https://dc.lft.to/lastmile_qr_scan"}, "is_reserved": 0}, {"lon": -77.02689983333333, "bike_id": "b692f5987ecefab030552543c8ee5017", "lat": 38.92665066666667, "fusion_lon": 0.0, "fusion_lat": 0.0, "type": "electric_scooter", "name": "b692f5987ecefab030552543c8ee5017", "is_disabled": 0, "rental_uris": {"ios": "https://dc.lft.to/lastmile_qr_scan", "android": "https://dc.lft.to/lastmile_qr_scan"}, "is_reserved": 0}, {"lon": -77.031798, "bike_id": "c9fc3774bf619bfc4734323728ceef5e", "lat": 38.89201166666667, "fusion_lon": 0.0, "fusion_lat": 0.0, "type": "electric_scooter", "name": "c9fc3774bf619bfc4734323728ceef5e", "is_disabled": 0, "rental_uris": {"ios": "https://dc.lft.to/lastmile_qr_scan", "android": "https://dc.lft.to/lastmile_qr_scan"}, "is_reserved": 0}, {"lon": -77.02258166666667, "bike_id": "61062636f07750d28fd09456ea5c3a75", "lat": 38.937631833333334, "fusion_lon": 0.0, "fusion_lat": 0.0, "type": "electric_scooter", "name": "61062636f07750d28fd09456ea5c3a75", "is_disabled": 0, "rental_uris": {"ios": "https://dc.lft.to/lastmile_qr_scan", "android": "https://dc.lft.to/lastmile_qr_scan"}, "is_reserved": 0}, {"lon": -77.0448785, "bike_id": "b85931ecbdd392187a22783a53f22ced", "lat": 38.892407166666665, "fusion_lon": 0.0, "fusion_lat": 0.0, "type": "electric_scooter", "name": "b85931ecbdd392187a22783a53f22ced", "is_disabled": 0, "rental_uris": {"ios": "https://dc.lft.to/lastmile_qr_scan", "android": "https://dc.lft.to/lastmile_qr_scan"}, "is_reserved": 0}, {"lon": -77.00532516666667, "bike_id": "9c099e34a3c711e8f3e308279ddf277e", "lat": 38.9297695, "fusion_lon": 0.0, "fusion_lat": 0.0, "type": "electric_scooter", "name": "9c099e34a3c711e8f3e308279ddf277e", "is_disabled": 0, "rental_uris": {"ios": "https://dc.lft.to/lastmile_qr_scan", "android": "https://dc.lft.to/lastmile_qr_scan"}, "is_reserved": 0}, {"lon": -77.01281383333334, "bike_id": "516db38c517d17666a78d254ce1f8e26", "lat": 38.915706, "fusion_lon": 0.0, "fusion_lat": 0.0, "type": "electric_scooter", "name": "516db38c517d17666a78d254ce1f8e26", "is_disabled": 0, "rental_uris": {"ios": "https://dc.lft.to/lastmile_qr_scan", "android": "https://dc.lft.to/lastmile_qr_scan"}, "is_reserved": 0}, {"lon": -77.0526075, "bike_id": "b606a44425846cb59fb30acc21440cf6", "lat": 38.9256585, "fusion_lon": 0.0, "fusion_lat": 0.0, "type": "electric_scooter", "name": "b606a44425846cb59fb30acc21440cf6", "is_disabled": 0, "rental_uris": {"ios": "https://dc.lft.to/lastmile_qr_scan", "android": "https://dc.lft.to/lastmile_qr_scan"}, "is_reserved": 0}, {"lon": -77.020822, "bike_id": "aa700c425012b58563d9fd856eccb066", "lat": 38.89986616666667, "fusion_lon": 0.0, "fusion_lat": 0.0, "type": "electric_scooter", "name": "aa700c425012b58563d9fd856eccb066", "is_disabled": 0, "rental_uris": {"ios": "https://dc.lft.to/lastmile_qr_scan", "android": "https://dc.lft.to/lastmile_qr_scan"}, "is_reserved": 0}, {"lon": -76.98525966666666, "bike_id": "df15d780b53503760d7adfee5a02b054", "lat": 38.86685666666666, "fusion_lon": 0.0, "fusion_lat": 0.0, "type": "electric_scooter", "name": "df15d780b53503760d7adfee5a02b054", "is_disabled": 0, "rental_uris": {"ios": "https://dc.lft.to/lastmile_qr_scan", "android": "https://dc.lft.to/lastmile_qr_scan"}, "is_reserved": 0}, {"lon": -77.02230683333333, "bike_id": "870933c15a2491160674248f3986de7e", "lat": 38.9126925, "fusion_lon": 0.0, "fusion_lat": 0.0, "type": "electric_scooter", "name": "870933c15a2491160674248f3986de7e", "is_disabled": 0, "rental_uris": {"ios": "https://dc.lft.to/lastmile_qr_scan", "android": "https://dc.lft.to/lastmile_qr_scan"}, "is_reserved": 0}, {"lon": -76.930613, "bike_id": "20bd03fdfa346b2eaf977e2e6e5bbe14", "lat": 38.883865166666666, "fusion_lon": 0.0, "fusion_lat": 0.0, "type": "electric_scooter", "name": "20bd03fdfa346b2eaf977e2e6e5bbe14", "is_disabled": 0, "rental_uris": {"ios": "https://dc.lft.to/lastmile_qr_scan", "android": "https://dc.lft.to/lastmile_qr_scan"}, "is_reserved": 0}, {"lon": -77.020358, "bike_id": "fe7eb9c2b916fffb2cb0fa34afa21775", "lat": 38.90861666666667, "fusion_lon": 0.0, "fusion_lat": 0.0, "type": "electric_scooter", "name": "fe7eb9c2b916fffb2cb0fa34afa21775", "is_disabled": 0, "rental_uris": {"ios": "https://dc.lft.to/lastmile_qr_scan", "android": "https://dc.lft.to/lastmile_qr_scan"}, "is_reserved": 0}, {"lon": -77.02658616666666, "bike_id": "0b54a1c9513927a255086cd3f5cb1104", "lat": 38.916964, "fusion_lon": 0.0, "fusion_lat": 0.0, "type": "electric_scooter", "name": "0b54a1c9513927a255086cd3f5cb1104", "is_disabled": 0, "rental_uris": {"ios": "https://dc.lft.to/lastmile_qr_scan", "android": "https://dc.lft.to/lastmile_qr_scan"}, "is_reserved": 0}, {"lon": -77.0417845, "bike_id": "1b8139b228dd2371f42d65ba07beb0d2", "lat": 38.91975166666667, "fusion_lon": 0.0, "fusion_lat": 0.0, "type": "electric_scooter", "name": "1b8139b228dd2371f42d65ba07beb0d2", "is_disabled": 0, "rental_uris": {"ios": "https://dc.lft.to/lastmile_qr_scan", "android": "https://dc.lft.to/lastmile_qr_scan"}, "is_reserved": 0}, {"lon": -77.02566583333333, "bike_id": "6e3c93e5e617bcb2ed02a715fea4e224", "lat": 38.882971, "fusion_lon": 0.0, "fusion_lat": 0.0, "type": "electric_scooter", "name": "6e3c93e5e617bcb2ed02a715fea4e224", "is_disabled": 0, "rental_uris": {"ios": "https://dc.lft.to/lastmile_qr_scan", "android": "https://dc.lft.to/lastmile_qr_scan"}, "is_reserved": 0}, {"lon": -77.0328945, "bike_id": "c46c43eb7ccb6aeed8403b92a2f249a5", "lat": 38.95650033333333, "fusion_lon": 0.0, "fusion_lat": 0.0, "type": "electric_scooter", "name": "c46c43eb7ccb6aeed8403b92a2f249a5", "is_disabled": 0, "rental_uris": {"ios": "https://dc.lft.to/lastmile_qr_scan", "android": "https://dc.lft.to/lastmile_qr_scan"}, "is_reserved": 0}, {"lon": -77.02398333333333, "bike_id": "da064fd83909e732847a6fd920a8b6ab", "lat": 38.881289333333335, "fusion_lon": 0.0, "fusion_lat": 0.0, "type": "electric_scooter", "name": "da064fd83909e732847a6fd920a8b6ab", "is_disabled": 0, "rental_uris": {"ios": "https://dc.lft.to/lastmile_qr_scan", "android": "https://dc.lft.to/lastmile_qr_scan"}, "is_reserved": 0}, {"lon": -77.0485055, "bike_id": "79ad6830b584b924e32b1110e990a95f", "lat": 38.915153333333336, "fusion_lon": 0.0, "fusion_lat": 0.0, "type": "electric_scooter", "name": "79ad6830b584b924e32b1110e990a95f", "is_disabled": 0, "rental_uris": {"ios": "https://dc.lft.to/lastmile_qr_scan", "android": "https://dc.lft.to/lastmile_qr_scan"}, "is_reserved": 0}, {"lon": -77.03995333333333, "bike_id": "de6ac297dfe0e70fc09137e457c761d2", "lat": 38.93333416666667, "fusion_lon": 0.0, "fusion_lat": 0.0, "type": "electric_scooter", "name": "de6ac297dfe0e70fc09137e457c761d2", "is_disabled": 0, "rental_uris": {"ios": "https://dc.lft.to/lastmile_qr_scan", "android": "https://dc.lft.to/lastmile_qr_scan"}, "is_reserved": 0}, {"lon": -77.0160955, "bike_id": "b4419ce00c9318dfba4664b25a48714e", "lat": 38.89962933333334, "fusion_lon": 0.0, "fusion_lat": 0.0, "type": "electric_scooter", "name": "b4419ce00c9318dfba4664b25a48714e", "is_disabled": 0, "rental_uris": {"ios": "https://dc.lft.to/lastmile_qr_scan", "android": "https://dc.lft.to/lastmile_qr_scan"}, "is_reserved": 0}, {"lon": -77.011907, "bike_id": "ff61c4beef08dbcf18b11de4317e60e6", "lat": 38.900355166666664, "fusion_lon": 0.0, "fusion_lat": 0.0, "type": "electric_scooter", "name": "ff61c4beef08dbcf18b11de4317e60e6", "is_disabled": 0, "rental_uris": {"ios": "https://dc.lft.to/lastmile_qr_scan", "android": "https://dc.lft.to/lastmile_qr_scan"}, "is_reserved": 0}, {"lon": -77.03196733333333, "bike_id": "5905510b32d26b6aee78234f41a591d4", "lat": 38.9156985, "fusion_lon": 0.0, "fusion_lat": 0.0, "type": "electric_scooter", "name": "5905510b32d26b6aee78234f41a591d4", "is_disabled": 0, "rental_uris": {"ios": "https://dc.lft.to/lastmile_qr_scan", "android": "https://dc.lft.to/lastmile_qr_scan"}, "is_reserved": 0}, {"lon": -76.9979015, "bike_id": "b8201f4dcf27f8215973f41c40940a86", "lat": 38.956413, "fusion_lon": 0.0, "fusion_lat": 0.0, "type": "electric_bike", "name": "b8201f4dcf27f8215973f41c40940a86", "is_disabled": 0, "rental_uris": {"ios": "https://dc.lft.to/lastmile_qr_scan", "android": "https://dc.lft.to/lastmile_qr_scan"}, "is_reserved": 0}, {"lon": -77.02180716666666, "bike_id": "2de28ca8a6846fad01ecb5aa4868a270", "lat": 38.909808166666664, "fusion_lon": 0.0, "fusion_lat": 0.0, "type": "electric_scooter", "name": "2de28ca8a6846fad01ecb5aa4868a270", "is_disabled": 0, "rental_uris": {"ios": "https://dc.lft.to/lastmile_qr_scan", "android": "https://dc.lft.to/lastmile_qr_scan"}, "is_reserved": 0}, {"lon": -76.9732945, "bike_id": "c66f690f29b700299793a2bffd70081f", "lat": 38.90482133333333, "fusion_lon": 0.0, "fusion_lat": 0.0, "type": "electric_bike", "name": "c66f690f29b700299793a2bffd70081f", "is_disabled": 0, "rental_uris": {"ios": "https://dc.lft.to/lastmile_qr_scan", "android": "https://dc.lft.to/lastmile_qr_scan"}, "is_reserved": 0}, {"lon": -77.04193616666667, "bike_id": "ecee5478543df8eeb46188b950e31ec9", "lat": 38.89979366666667, "fusion_lon": 0.0, "fusion_lat": 0.0, "type": "electric_scooter", "name": "ecee5478543df8eeb46188b950e31ec9", "is_disabled": 0, "rental_uris": {"ios": "https://dc.lft.to/lastmile_qr_scan", "android": "https://dc.lft.to/lastmile_qr_scan"}, "is_reserved": 0}, {"lon": -77.03836683333333, "bike_id": "194570f5e62b7ef3c6cb9ab3206e18b1", "lat": 38.910414833333334, "fusion_lon": 0.0, "fusion_lat": 0.0, "type": "electric_scooter", "name": "194570f5e62b7ef3c6cb9ab3206e18b1", "is_disabled": 0, "rental_uris": {"ios": "https://dc.lft.to/lastmile_qr_scan", "android": "https://dc.lft.to/lastmile_qr_scan"}, "is_reserved": 0}, {"lon": -77.0501205, "bike_id": "bcb962d971321fc86d5ce3e8605e35ad", "lat": 38.9052455, "fusion_lon": 0.0, "fusion_lat": 0.0, "type": "electric_scooter", "name": "bcb962d971321fc86d5ce3e8605e35ad", "is_disabled": 0, "rental_uris": {"ios": "https://dc.lft.to/lastmile_qr_scan", "android": "https://dc.lft.to/lastmile_qr_scan"}, "is_reserved": 0}, {"lon": -77.02213716666667, "bike_id": "91e3b7d5baa4b2e085c43292a5d854fd", "lat": 38.8873145, "fusion_lon": 0.0, "fusion_lat": 0.0, "type": "electric_scooter", "name": "91e3b7d5baa4b2e085c43292a5d854fd", "is_disabled": 0, "rental_uris": {"ios": "https://dc.lft.to/lastmile_qr_scan", "android": "https://dc.lft.to/lastmile_qr_scan"}, "is_reserved": 0}, {"lon": -77.03607566666666, "bike_id": "cbd9c2dd4372c063a0671047fd4b723e", "lat": 38.934833833333336, "fusion_lon": 0.0, "fusion_lat": 0.0, "type": "electric_scooter", "name": "cbd9c2dd4372c063a0671047fd4b723e", "is_disabled": 0, "rental_uris": {"ios": "https://dc.lft.to/lastmile_qr_scan", "android": "https://dc.lft.to/lastmile_qr_scan"}, "is_reserved": 0}, {"lon": -77.08001783333333, "bike_id": "fef63bc3c1afc3d23c7d613e237b0d8f", "lat": 38.964863333333334, "fusion_lon": 0.0, "fusion_lat": 0.0, "type": "electric_scooter", "name": "fef63bc3c1afc3d23c7d613e237b0d8f", "is_disabled": 0, "rental_uris": {"ios": "https://dc.lft.to/lastmile_qr_scan", "android": "https://dc.lft.to/lastmile_qr_scan"}, "is_reserved": 0}, {"lon": -77.01495566666667, "bike_id": "89719bd19b14526d9c5b5be4c78dc038", "lat": 38.91754616666667, "fusion_lon": 0.0, "fusion_lat": 0.0, "type": "electric_scooter", "name": "89719bd19b14526d9c5b5be4c78dc038", "is_disabled": 0, "rental_uris": {"ios": "https://dc.lft.to/lastmile_qr_scan", "android": "https://dc.lft.to/lastmile_qr_scan"}, "is_reserved": 0}, {"lon": -76.9220015, "bike_id": "fed6f4ed1f0cf952fffd5e3b319df49a", "lat": 38.89505916666667, "fusion_lon": 0.0, "fusion_lat": 0.0, "type": "electric_bike", "name": "fed6f4ed1f0cf952fffd5e3b319df49a", "is_disabled": 0, "rental_uris": {"ios": "https://dc.lft.to/lastmile_qr_scan", "android": "https://dc.lft.to/lastmile_qr_scan"}, "is_reserved": 0}, {"lon": -76.93188716666667, "bike_id": "df9e64765ce98028a0eacfc24c60a5ef", "lat": 38.89878316666667, "fusion_lon": 0.0, "fusion_lat": 0.0, "type": "electric_scooter", "name": "df9e64765ce98028a0eacfc24c60a5ef", "is_disabled": 0, "rental_uris": {"ios": "https://dc.lft.to/lastmile_qr_scan", "android": "https://dc.lft.to/lastmile_qr_scan"}, "is_reserved": 0}, {"lon": -77.07905233333334, "bike_id": "3b9d130658c5a2510c07732622c893d1", "lat": 38.83933433333333, "fusion_lon": 0.0, "fusion_lat": 0.0, "type": "electric_bike", "name": "3b9d130658c5a2510c07732622c893d1", "is_disabled": 0, "rental_uris": {"ios": "https://dc.lft.to/lastmile_qr_scan", "android": "https://dc.lft.to/lastmile_qr_scan"}, "is_reserved": 0}, {"lon": -76.99017133333334, "bike_id": "6ed4490ec8a941f0bcadb5e89d15fcce", "lat": 38.88278616666667, "fusion_lon": 0.0, "fusion_lat": 0.0, "type": "electric_scooter", "name": "6ed4490ec8a941f0bcadb5e89d15fcce", "is_disabled": 0, "rental_uris": {"ios": "https://dc.lft.to/lastmile_qr_scan", "android": "https://dc.lft.to/lastmile_qr_scan"}, "is_reserved": 0}, {"lon": -77.00370166666667, "bike_id": "e25e9cd7de84c49aa0d362a7f886b5f6", "lat": 38.89734166666667, "fusion_lon": 0.0, "fusion_lat": 0.0, "type": "electric_scooter", "name": "e25e9cd7de84c49aa0d362a7f886b5f6", "is_disabled": 0, "rental_uris": {"ios": "https://dc.lft.to/lastmile_qr_scan", "android": "https://dc.lft.to/lastmile_qr_scan"}, "is_reserved": 0}, {"lon": -77.0239075, "bike_id": "c39a06532c9f3094bdaaf98b239007d3", "lat": 38.914368333333336, "fusion_lon": 0.0, "fusion_lat": 0.0, "type": "electric_scooter", "name": "c39a06532c9f3094bdaaf98b239007d3", "is_disabled": 0, "rental_uris": {"ios": "https://dc.lft.to/lastmile_qr_scan", "android": "https://dc.lft.to/lastmile_qr_scan"}, "is_reserved": 0}, {"lon": -76.9803595, "bike_id": "3d01bbe095ed479c033f2118eaf32f36", "lat": 38.889673, "fusion_lon": 0.0, "fusion_lat": 0.0, "type": "electric_scooter", "name": "3d01bbe095ed479c033f2118eaf32f36", "is_disabled": 0, "rental_uris": {"ios": "https://dc.lft.to/lastmile_qr_scan", "android": "https://dc.lft.to/lastmile_qr_scan"}, "is_reserved": 0}, {"lon": -77.00570583333334, "bike_id": "718127f167ca93eae2ac4c4dd2b8cb3e", "lat": 38.90565483333334, "fusion_lon": 0.0, "fusion_lat": 0.0, "type": "electric_scooter", "name": "718127f167ca93eae2ac4c4dd2b8cb3e", "is_disabled": 0, "rental_uris": {"ios": "https://dc.lft.to/lastmile_qr_scan", "android": "https://dc.lft.to/lastmile_qr_scan"}, "is_reserved": 0}, {"lon": -77.03295483333333, "bike_id": "8a6d67ee92a6ae20aded9b986ce8b6fc", "lat": 38.907301333333336, "fusion_lon": 0.0, "fusion_lat": 0.0, "type": "electric_scooter", "name": "8a6d67ee92a6ae20aded9b986ce8b6fc", "is_disabled": 0, "rental_uris": {"ios": "https://dc.lft.to/lastmile_qr_scan", "android": "https://dc.lft.to/lastmile_qr_scan"}, "is_reserved": 0}, {"lon": -76.984027, "bike_id": "0d92086ca7646792c16f45f5d7223eef", "lat": 38.8663865, "fusion_lon": 0.0, "fusion_lat": 0.0, "type": "electric_scooter", "name": "0d92086ca7646792c16f45f5d7223eef", "is_disabled": 0, "rental_uris": {"ios": "https://dc.lft.to/lastmile_qr_scan", "android": "https://dc.lft.to/lastmile_qr_scan"}, "is_reserved": 0}, {"lon": -76.9840955, "bike_id": "0691e61bcbab47a57dadaaa820efdf5c", "lat": 38.90629283333333, "fusion_lon": 0.0, "fusion_lat": 0.0, "type": "electric_scooter", "name": "0691e61bcbab47a57dadaaa820efdf5c", "is_disabled": 0, "rental_uris": {"ios": "https://dc.lft.to/lastmile_qr_scan", "android": "https://dc.lft.to/lastmile_qr_scan"}, "is_reserved": 0}, {"lon": -77.01856283333333, "bike_id": "b3aaf62ef6d38c0136b72cda8c47860a", "lat": 38.9737075, "fusion_lon": 0.0, "fusion_lat": 0.0, "type": "electric_scooter", "name": "b3aaf62ef6d38c0136b72cda8c47860a", "is_disabled": 0, "rental_uris": {"ios": "https://dc.lft.to/lastmile_qr_scan", "android": "https://dc.lft.to/lastmile_qr_scan"}, "is_reserved": 0}, {"lon": -77.04210616666667, "bike_id": "f5bbe4e1c7c891cdf02bb7f2b2795fee", "lat": 38.921256, "fusion_lon": 0.0, "fusion_lat": 0.0, "type": "electric_scooter", "name": "f5bbe4e1c7c891cdf02bb7f2b2795fee", "is_disabled": 0, "rental_uris": {"ios": "https://dc.lft.to/lastmile_qr_scan", "android": "https://dc.lft.to/lastmile_qr_scan"}, "is_reserved": 0}, {"lon": -77.0395595, "bike_id": "90bb1d8d0d883b686dc43aa86cb61145", "lat": 38.91625966666667, "fusion_lon": 0.0, "fusion_lat": 0.0, "type": "electric_scooter", "name": "90bb1d8d0d883b686dc43aa86cb61145", "is_disabled": 0, "rental_uris": {"ios": "https://dc.lft.to/lastmile_qr_scan", "android": "https://dc.lft.to/lastmile_qr_scan"}, "is_reserved": 0}, {"lon": -77.012237, "bike_id": "aef7151f649f0604e73ce717a215c9c1", "lat": 38.9154265, "fusion_lon": 0.0, "fusion_lat": 0.0, "type": "electric_scooter", "name": "aef7151f649f0604e73ce717a215c9c1", "is_disabled": 0, "rental_uris": {"ios": "https://dc.lft.to/lastmile_qr_scan", "android": "https://dc.lft.to/lastmile_qr_scan"}, "is_reserved": 0}, {"lon": -77.02539383333334, "bike_id": "6bd1bc8fc553af885e6e1f3f48c7615d", "lat": 38.9410055, "fusion_lon": 0.0, "fusion_lat": 0.0, "type": "electric_scooter", "name": "6bd1bc8fc553af885e6e1f3f48c7615d", "is_disabled": 0, "rental_uris": {"ios": "https://dc.lft.to/lastmile_qr_scan", "android": "https://dc.lft.to/lastmile_qr_scan"}, "is_reserved": 0}, {"lon": -77.02474083333334, "bike_id": "4cf2839ee559a0ce7032802bee6db859", "lat": 38.9181675, "fusion_lon": 0.0, "fusion_lat": 0.0, "type": "electric_scooter", "name": "4cf2839ee559a0ce7032802bee6db859", "is_disabled": 0, "rental_uris": {"ios": "https://dc.lft.to/lastmile_qr_scan", "android": "https://dc.lft.to/lastmile_qr_scan"}, "is_reserved": 0}, {"lon": -77.03934933333333, "bike_id": "aa26152a46c8d21a3658d01e1997513f", "lat": 38.89899583333333, "fusion_lon": 0.0, "fusion_lat": 0.0, "type": "electric_scooter", "name": "aa26152a46c8d21a3658d01e1997513f", "is_disabled": 0, "rental_uris": {"ios": "https://dc.lft.to/lastmile_qr_scan", "android": "https://dc.lft.to/lastmile_qr_scan"}, "is_reserved": 0}, {"lon": -76.990356, "bike_id": "4baf796ab18b5e43da470e1e88d6eee2", "lat": 38.8987875, "fusion_lon": 0.0, "fusion_lat": 0.0, "type": "electric_scooter", "name": "4baf796ab18b5e43da470e1e88d6eee2", "is_disabled": 0, "rental_uris": {"ios": "https://dc.lft.to/lastmile_qr_scan", "android": "https://dc.lft.to/lastmile_qr_scan"}, "is_reserved": 0}, {"lon": -76.98526466666667, "bike_id": "5c43dd579a40aef9731e6dc0018c4296", "lat": 38.866874, "fusion_lon": 0.0, "fusion_lat": 0.0, "type": "electric_scooter", "name": "5c43dd579a40aef9731e6dc0018c4296", "is_disabled": 0, "rental_uris": {"ios": "https://dc.lft.to/lastmile_qr_scan", "android": "https://dc.lft.to/lastmile_qr_scan"}, "is_reserved": 0}, {"lon": -77.0222365, "bike_id": "65a5de72beda0f1abc02ca13731c7ca1", "lat": 38.912536333333335, "fusion_lon": 0.0, "fusion_lat": 0.0, "type": "electric_scooter", "name": "65a5de72beda0f1abc02ca13731c7ca1", "is_disabled": 0, "rental_uris": {"ios": "https://dc.lft.to/lastmile_qr_scan", "android": "https://dc.lft.to/lastmile_qr_scan"}, "is_reserved": 0}, {"lon": -77.024798, "bike_id": "e65294cad88076c4b998f7f953658875", "lat": 38.938542166666664, "fusion_lon": 0.0, "fusion_lat": 0.0, "type": "electric_scooter", "name": "e65294cad88076c4b998f7f953658875", "is_disabled": 0, "rental_uris": {"ios": "https://dc.lft.to/lastmile_qr_scan", "android": "https://dc.lft.to/lastmile_qr_scan"}, "is_reserved": 0}, {"lon": -76.94194916666666, "bike_id": "2f0c9f5cf9168dcedf420fcdfa8843aa", "lat": 38.893124, "fusion_lon": 0.0, "fusion_lat": 0.0, "type": "electric_bike", "name": "2f0c9f5cf9168dcedf420fcdfa8843aa", "is_disabled": 0, "rental_uris": {"ios": "https://dc.lft.to/lastmile_qr_scan", "android": "https://dc.lft.to/lastmile_qr_scan"}, "is_reserved": 0}, {"lon": -77.00888666666667, "bike_id": "fc4ecda67183667a3539172d02495d88", "lat": 38.916299, "fusion_lon": 0.0, "fusion_lat": 0.0, "type": "electric_bike", "name": "fc4ecda67183667a3539172d02495d88", "is_disabled": 0, "rental_uris": {"ios": "https://dc.lft.to/lastmile_qr_scan", "android": "https://dc.lft.to/lastmile_qr_scan"}, "is_reserved": 0}, {"lon": -77.033632, "bike_id": "07ca9f650e1e91976cd351f1ddbee79e", "lat": 38.928989666666666, "fusion_lon": 0.0, "fusion_lat": 0.0, "type": "electric_scooter", "name": "07ca9f650e1e91976cd351f1ddbee79e", "is_disabled": 0, "rental_uris": {"ios": "https://dc.lft.to/lastmile_qr_scan", "android": "https://dc.lft.to/lastmile_qr_scan"}, "is_reserved": 0}, {"lon": -76.936184, "bike_id": "286453b0e161dc59cc15c87ae082f5d0", "lat": 38.970698166666665, "fusion_lon": 0.0, "fusion_lat": 0.0, "type": "electric_bike", "name": "286453b0e161dc59cc15c87ae082f5d0", "is_disabled": 0, "rental_uris": {"ios": "https://dc.lft.to/lastmile_qr_scan", "android": "https://dc.lft.to/lastmile_qr_scan"}, "is_reserved": 0}, {"lon": -77.03472633333334, "bike_id": "38ca59a45dd7c6b71a663e98768e0c6f", "lat": 38.907276333333336, "fusion_lon": 0.0, "fusion_lat": 0.0, "type": "electric_scooter", "name": "38ca59a45dd7c6b71a663e98768e0c6f", "is_disabled": 0, "rental_uris": {"ios": "https://dc.lft.to/lastmile_qr_scan", "android": "https://dc.lft.to/lastmile_qr_scan"}, "is_reserved": 0}, {"lon": -76.97326683333333, "bike_id": "2317b2b14803120380859ca14d58696d", "lat": 38.904126833333336, "fusion_lon": 0.0, "fusion_lat": 0.0, "type": "electric_scooter", "name": "2317b2b14803120380859ca14d58696d", "is_disabled": 0, "rental_uris": {"ios": "https://dc.lft.to/lastmile_qr_scan", "android": "https://dc.lft.to/lastmile_qr_scan"}, "is_reserved": 0}, {"lon": -77.038744, "bike_id": "6eeef8b0427889cbfc9ec8b5c2d9d34a", "lat": 38.912698, "fusion_lon": 0.0, "fusion_lat": 0.0, "type": "electric_scooter", "name": "6eeef8b0427889cbfc9ec8b5c2d9d34a", "is_disabled": 0, "rental_uris": {"ios": "https://dc.lft.to/lastmile_qr_scan", "android": "https://dc.lft.to/lastmile_qr_scan"}, "is_reserved": 0}, {"lon": -77.0365585, "bike_id": "e055bd3a399c3e7e9b907ce888389b5a", "lat": 38.90273083333334, "fusion_lon": 0.0, "fusion_lat": 0.0, "type": "electric_scooter", "name": "e055bd3a399c3e7e9b907ce888389b5a", "is_disabled": 0, "rental_uris": {"ios": "https://dc.lft.to/lastmile_qr_scan", "android": "https://dc.lft.to/lastmile_qr_scan"}, "is_reserved": 0}, {"lon": -77.01332333333333, "bike_id": "2ee1396530fd0dfbdf8f3e7759c0322b", "lat": 38.900373333333334, "fusion_lon": 0.0, "fusion_lat": 0.0, "type": "electric_scooter", "name": "2ee1396530fd0dfbdf8f3e7759c0322b", "is_disabled": 0, "rental_uris": {"ios": "https://dc.lft.to/lastmile_qr_scan", "android": "https://dc.lft.to/lastmile_qr_scan"}, "is_reserved": 0}, {"lon": -77.06855366666667, "bike_id": "0ee5c1c94583c4002c7d4b3ea548ec1f", "lat": 38.938084, "fusion_lon": 0.0, "fusion_lat": 0.0, "type": "electric_bike", "name": "0ee5c1c94583c4002c7d4b3ea548ec1f", "is_disabled": 0, "rental_uris": {"ios": "https://dc.lft.to/lastmile_qr_scan", "android": "https://dc.lft.to/lastmile_qr_scan"}, "is_reserved": 0}, {"lon": -77.035123, "bike_id": "b832db3142d67157c66853c09ee2b703", "lat": 38.923403, "fusion_lon": 0.0, "fusion_lat": 0.0, "type": "electric_scooter", "name": "b832db3142d67157c66853c09ee2b703", "is_disabled": 0, "rental_uris": {"ios": "https://dc.lft.to/lastmile_qr_scan", "android": "https://dc.lft.to/lastmile_qr_scan"}, "is_reserved": 0}, {"lon": -77.03474783333333, "bike_id": "8fe7e4582441f101519d24a8862b1165", "lat": 38.917092333333336, "fusion_lon": 0.0, "fusion_lat": 0.0, "type": "electric_scooter", "name": "8fe7e4582441f101519d24a8862b1165", "is_disabled": 0, "rental_uris": {"ios": "https://dc.lft.to/lastmile_qr_scan", "android": "https://dc.lft.to/lastmile_qr_scan"}, "is_reserved": 0}, {"lon": -77.04498116666667, "bike_id": "4c108f2202f31f232d43aa8cc63cf8f5", "lat": 38.9037295, "fusion_lon": 0.0, "fusion_lat": 0.0, "type": "electric_scooter", "name": "4c108f2202f31f232d43aa8cc63cf8f5", "is_disabled": 0, "rental_uris": {"ios": "https://dc.lft.to/lastmile_qr_scan", "android": "https://dc.lft.to/lastmile_qr_scan"}, "is_reserved": 0}, {"lon": -77.00138033333333, "bike_id": "da46e0da179bdf555ef7367f17b16409", "lat": 38.89465933333334, "fusion_lon": 0.0, "fusion_lat": 0.0, "type": "electric_scooter", "name": "da46e0da179bdf555ef7367f17b16409", "is_disabled": 0, "rental_uris": {"ios": "https://dc.lft.to/lastmile_qr_scan", "android": "https://dc.lft.to/lastmile_qr_scan"}, "is_reserved": 0}, {"lon": -76.92673383333333, "bike_id": "7ff61f8e4cc44676df54b6511eb80fdb", "lat": 38.880537833333335, "fusion_lon": 0.0, "fusion_lat": 0.0, "type": "electric_scooter", "name": "7ff61f8e4cc44676df54b6511eb80fdb", "is_disabled": 0, "rental_uris": {"ios": "https://dc.lft.to/lastmile_qr_scan", "android": "https://dc.lft.to/lastmile_qr_scan"}, "is_reserved": 0}, {"lon": -77.02976116666666, "bike_id": "880a6af2ce8bc7913acf4a85c49d085c", "lat": 38.924483333333335, "fusion_lon": 0.0, "fusion_lat": 0.0, "type": "electric_scooter", "name": "880a6af2ce8bc7913acf4a85c49d085c", "is_disabled": 0, "rental_uris": {"ios": "https://dc.lft.to/lastmile_qr_scan", "android": "https://dc.lft.to/lastmile_qr_scan"}, "is_reserved": 0}, {"lon": -77.03181783333333, "bike_id": "93bc4a0e8f45b87c49c71ba548785d5e", "lat": 38.9099345, "fusion_lon": 0.0, "fusion_lat": 0.0, "type": "electric_scooter", "name": "93bc4a0e8f45b87c49c71ba548785d5e", "is_disabled": 0, "rental_uris": {"ios": "https://dc.lft.to/lastmile_qr_scan", "android": "https://dc.lft.to/lastmile_qr_scan"}, "is_reserved": 0}, {"lon": -76.99922316666667, "bike_id": "9ca23f89a08038bd0d79ed56f2eac876", "lat": 38.9091685, "fusion_lon": 0.0, "fusion_lat": 0.0, "type": "electric_scooter", "name": "9ca23f89a08038bd0d79ed56f2eac876", "is_disabled": 0, "rental_uris": {"ios": "https://dc.lft.to/lastmile_qr_scan", "android": "https://dc.lft.to/lastmile_qr_scan"}, "is_reserved": 0}, {"lon": -77.0345645, "bike_id": "cfd734ac06cd2284ec0239ff6fae6810", "lat": 38.908106333333336, "fusion_lon": 0.0, "fusion_lat": 0.0, "type": "electric_scooter", "name": "cfd734ac06cd2284ec0239ff6fae6810", "is_disabled": 0, "rental_uris": {"ios": "https://dc.lft.to/lastmile_qr_scan", "android": "https://dc.lft.to/lastmile_qr_scan"}, "is_reserved": 0}, {"lon": -76.93745533333333, "bike_id": "0841df4d848953c9d02423ff0f513743", "lat": 38.89007333333333, "fusion_lon": 0.0, "fusion_lat": 0.0, "type": "electric_scooter", "name": "0841df4d848953c9d02423ff0f513743", "is_disabled": 0, "rental_uris": {"ios": "https://dc.lft.to/lastmile_qr_scan", "android": "https://dc.lft.to/lastmile_qr_scan"}, "is_reserved": 0}, {"lon": -77.03848816666667, "bike_id": "e2d876e051175f3ea3924281624a8e83", "lat": 38.915486, "fusion_lon": 0.0, "fusion_lat": 0.0, "type": "electric_scooter", "name": "e2d876e051175f3ea3924281624a8e83", "is_disabled": 0, "rental_uris": {"ios": "https://dc.lft.to/lastmile_qr_scan", "android": "https://dc.lft.to/lastmile_qr_scan"}, "is_reserved": 0}, {"lon": -77.02193266666667, "bike_id": "2bc843aac2bde168e1b34a004330d809", "lat": 38.929117833333336, "fusion_lon": 0.0, "fusion_lat": 0.0, "type": "electric_scooter", "name": "2bc843aac2bde168e1b34a004330d809", "is_disabled": 0, "rental_uris": {"ios": "https://dc.lft.to/lastmile_qr_scan", "android": "https://dc.lft.to/lastmile_qr_scan"}, "is_reserved": 0}, {"lon": -77.03260616666667, "bike_id": "38881a95cb81b0c4ecef1358e63639b6", "lat": 38.93777133333333, "fusion_lon": 0.0, "fusion_lat": 0.0, "type": "electric_scooter", "name": "38881a95cb81b0c4ecef1358e63639b6", "is_disabled": 0, "rental_uris": {"ios": "https://dc.lft.to/lastmile_qr_scan", "android": "https://dc.lft.to/lastmile_qr_scan"}, "is_reserved": 0}, {"lon": -77.0317715, "bike_id": "31b725108cd7c2416d5de971acb72fd8", "lat": 38.916359666666665, "fusion_lon": 0.0, "fusion_lat": 0.0, "type": "electric_scooter", "name": "31b725108cd7c2416d5de971acb72fd8", "is_disabled": 0, "rental_uris": {"ios": "https://dc.lft.to/lastmile_qr_scan", "android": "https://dc.lft.to/lastmile_qr_scan"}, "is_reserved": 0}, {"lon": -77.059024, "bike_id": "6fa9bd94e4fe9a4de7fcd7b59b0ebdb6", "lat": 38.9038135, "fusion_lon": 0.0, "fusion_lat": 0.0, "type": "electric_bike", "name": "6fa9bd94e4fe9a4de7fcd7b59b0ebdb6", "is_disabled": 0, "rental_uris": {"ios": "https://dc.lft.to/lastmile_qr_scan", "android": "https://dc.lft.to/lastmile_qr_scan"}, "is_reserved": 0}, {"lon": -76.988992, "bike_id": "46df37be3cfaf89f047f0f06c1bed22c", "lat": 38.866672666666666, "fusion_lon": 0.0, "fusion_lat": 0.0, "type": "electric_scooter", "name": "46df37be3cfaf89f047f0f06c1bed22c", "is_disabled": 0, "rental_uris": {"ios": "https://dc.lft.to/lastmile_qr_scan", "android": "https://dc.lft.to/lastmile_qr_scan"}, "is_reserved": 0}, {"lon": -77.04494766666667, "bike_id": "36f89167529fd50f3d0f3ed56ef3a7a3", "lat": 38.913578, "fusion_lon": 0.0, "fusion_lat": 0.0, "type": "electric_scooter", "name": "36f89167529fd50f3d0f3ed56ef3a7a3", "is_disabled": 0, "rental_uris": {"ios": "https://dc.lft.to/lastmile_qr_scan", "android": "https://dc.lft.to/lastmile_qr_scan"}, "is_reserved": 0}, {"lon": -77.01899533333334, "bike_id": "3aff1fac98701beaceed262ea2dc525c", "lat": 38.908978833333336, "fusion_lon": 0.0, "fusion_lat": 0.0, "type": "electric_scooter", "name": "3aff1fac98701beaceed262ea2dc525c", "is_disabled": 0, "rental_uris": {"ios": "https://dc.lft.to/lastmile_qr_scan", "android": "https://dc.lft.to/lastmile_qr_scan"}, "is_reserved": 0}, {"lon": -76.96524733333334, "bike_id": "932abe5572700c74a27c0224591d5aa1", "lat": 38.876305, "fusion_lon": 0.0, "fusion_lat": 0.0, "type": "electric_scooter", "name": "932abe5572700c74a27c0224591d5aa1", "is_disabled": 0, "rental_uris": {"ios": "https://dc.lft.to/lastmile_qr_scan", "android": "https://dc.lft.to/lastmile_qr_scan"}, "is_reserved": 0}, {"lon": -76.98495316666667, "bike_id": "2348db2e5c792f943674cf049a291490", "lat": 38.878350166666664, "fusion_lon": 0.0, "fusion_lat": 0.0, "type": "electric_scooter", "name": "2348db2e5c792f943674cf049a291490", "is_disabled": 0, "rental_uris": {"ios": "https://dc.lft.to/lastmile_qr_scan", "android": "https://dc.lft.to/lastmile_qr_scan"}, "is_reserved": 0}, {"lon": -77.04979233333333, "bike_id": "740817310f5149c34e5f646c98fc7477", "lat": 38.901199, "fusion_lon": 0.0, "fusion_lat": 0.0, "type": "electric_scooter", "name": "740817310f5149c34e5f646c98fc7477", "is_disabled": 0, "rental_uris": {"ios": "https://dc.lft.to/lastmile_qr_scan", "android": "https://dc.lft.to/lastmile_qr_scan"}, "is_reserved": 0}, {"lon": -77.00597583333334, "bike_id": "f3647c39010cb4da92bbc9451b6327d4", "lat": 38.871858333333336, "fusion_lon": 0.0, "fusion_lat": 0.0, "type": "electric_scooter", "name": "f3647c39010cb4da92bbc9451b6327d4", "is_disabled": 0, "rental_uris": {"ios": "https://dc.lft.to/lastmile_qr_scan", "android": "https://dc.lft.to/lastmile_qr_scan"}, "is_reserved": 0}, {"lon": -77.0217305, "bike_id": "b9eb52494ae51734ba10a1611a629f17", "lat": 38.887210333333336, "fusion_lon": 0.0, "fusion_lat": 0.0, "type": "electric_scooter", "name": "b9eb52494ae51734ba10a1611a629f17", "is_disabled": 0, "rental_uris": {"ios": "https://dc.lft.to/lastmile_qr_scan", "android": "https://dc.lft.to/lastmile_qr_scan"}, "is_reserved": 0}, {"lon": -77.02361516666667, "bike_id": "20c2ce15779c042d9374d480add178c5", "lat": 38.892244166666664, "fusion_lon": 0.0, "fusion_lat": 0.0, "type": "electric_scooter", "name": "20c2ce15779c042d9374d480add178c5", "is_disabled": 0, "rental_uris": {"ios": "https://dc.lft.to/lastmile_qr_scan", "android": "https://dc.lft.to/lastmile_qr_scan"}, "is_reserved": 0}, {"lon": -77.03450733333334, "bike_id": "6a90cc941d9347e793e764301c7d175c", "lat": 38.908742333333336, "fusion_lon": 0.0, "fusion_lat": 0.0, "type": "electric_scooter", "name": "6a90cc941d9347e793e764301c7d175c", "is_disabled": 0, "rental_uris": {"ios": "https://dc.lft.to/lastmile_qr_scan", "android": "https://dc.lft.to/lastmile_qr_scan"}, "is_reserved": 0}, {"lon": -77.06008333333334, "bike_id": "b1ee5671eb6b31f917a531cdb5995550", "lat": 38.90113566666667, "fusion_lon": 0.0, "fusion_lat": 0.0, "type": "electric_scooter", "name": "b1ee5671eb6b31f917a531cdb5995550", "is_disabled": 0, "rental_uris": {"ios": "https://dc.lft.to/lastmile_qr_scan", "android": "https://dc.lft.to/lastmile_qr_scan"}, "is_reserved": 0}, {"lon": -77.00786066666667, "bike_id": "2f51946ecf836975c47b3401883a9119", "lat": 38.905691, "fusion_lon": 0.0, "fusion_lat": 0.0, "type": "electric_scooter", "name": "2f51946ecf836975c47b3401883a9119", "is_disabled": 0, "rental_uris": {"ios": "https://dc.lft.to/lastmile_qr_scan", "android": "https://dc.lft.to/lastmile_qr_scan"}, "is_reserved": 0}, {"lon": -77.0320495, "bike_id": "16537fad5d5da0cf7e7f0a584d99dfad", "lat": 38.91736783333333, "fusion_lon": 0.0, "fusion_lat": 0.0, "type": "electric_scooter", "name": "16537fad5d5da0cf7e7f0a584d99dfad", "is_disabled": 0, "rental_uris": {"ios": "https://dc.lft.to/lastmile_qr_scan", "android": "https://dc.lft.to/lastmile_qr_scan"}, "is_reserved": 0}, {"lon": -77.0421535, "bike_id": "f1416d27e209dd6097485da0c7d8322b", "lat": 38.914105166666666, "fusion_lon": 0.0, "fusion_lat": 0.0, "type": "electric_scooter", "name": "f1416d27e209dd6097485da0c7d8322b", "is_disabled": 0, "rental_uris": {"ios": "https://dc.lft.to/lastmile_qr_scan", "android": "https://dc.lft.to/lastmile_qr_scan"}, "is_reserved": 0}, {"lon": -76.99160716666667, "bike_id": "0fa3441d20a78427461ebc0925b18024", "lat": 38.900351, "fusion_lon": 0.0, "fusion_lat": 0.0, "type": "electric_scooter", "name": "0fa3441d20a78427461ebc0925b18024", "is_disabled": 0, "rental_uris": {"ios": "https://dc.lft.to/lastmile_qr_scan", "android": "https://dc.lft.to/lastmile_qr_scan"}, "is_reserved": 0}, {"lon": -77.03853783333334, "bike_id": "7d6b14e0889ee62c0c20147b553238d2", "lat": 38.91018316666667, "fusion_lon": 0.0, "fusion_lat": 0.0, "type": "electric_scooter", "name": "7d6b14e0889ee62c0c20147b553238d2", "is_disabled": 0, "rental_uris": {"ios": "https://dc.lft.to/lastmile_qr_scan", "android": "https://dc.lft.to/lastmile_qr_scan"}, "is_reserved": 0}, {"lon": -77.04675833333333, "bike_id": "fa74176a35f7f94e189910ab8c60d6ae", "lat": 38.892275833333336, "fusion_lon": 0.0, "fusion_lat": 0.0, "type": "electric_scooter", "name": "fa74176a35f7f94e189910ab8c60d6ae", "is_disabled": 0, "rental_uris": {"ios": "https://dc.lft.to/lastmile_qr_scan", "android": "https://dc.lft.to/lastmile_qr_scan"}, "is_reserved": 0}, {"lon": -77.03170183333333, "bike_id": "23872863778009cd7b206f787431045d", "lat": 38.91828483333333, "fusion_lon": 0.0, "fusion_lat": 0.0, "type": "electric_scooter", "name": "23872863778009cd7b206f787431045d", "is_disabled": 0, "rental_uris": {"ios": "https://dc.lft.to/lastmile_qr_scan", "android": "https://dc.lft.to/lastmile_qr_scan"}, "is_reserved": 0}, {"lon": -77.043918, "bike_id": "816be8b65326d4596f984a6b1dad0230", "lat": 38.92114683333333, "fusion_lon": 0.0, "fusion_lat": 0.0, "type": "electric_scooter", "name": "816be8b65326d4596f984a6b1dad0230", "is_disabled": 0, "rental_uris": {"ios": "https://dc.lft.to/lastmile_qr_scan", "android": "https://dc.lft.to/lastmile_qr_scan"}, "is_reserved": 0}, {"lon": -77.025579, "bike_id": "c243200ea4cbbbc65b20f1a8c5104c5c", "lat": 38.941699166666666, "fusion_lon": 0.0, "fusion_lat": 0.0, "type": "electric_scooter", "name": "c243200ea4cbbbc65b20f1a8c5104c5c", "is_disabled": 0, "rental_uris": {"ios": "https://dc.lft.to/lastmile_qr_scan", "android": "https://dc.lft.to/lastmile_qr_scan"}, "is_reserved": 0}, {"lon": -76.999042, "bike_id": "8a9fd479570fb6e717697c36e109f53b", "lat": 38.90725316666666, "fusion_lon": 0.0, "fusion_lat": 0.0, "type": "electric_scooter", "name": "8a9fd479570fb6e717697c36e109f53b", "is_disabled": 0, "rental_uris": {"ios": "https://dc.lft.to/lastmile_qr_scan", "android": "https://dc.lft.to/lastmile_qr_scan"}, "is_reserved": 0}, {"lon": -76.895385, "bike_id": "492e48957092a05efbb09a6d692b368b", "lat": 38.94552233333334, "fusion_lon": 0.0, "fusion_lat": 0.0, "type": "electric_bike", "name": "492e48957092a05efbb09a6d692b368b", "is_disabled": 0, "rental_uris": {"ios": "https://dc.lft.to/lastmile_qr_scan", "android": "https://dc.lft.to/lastmile_qr_scan"}, "is_reserved": 0}, {"lon": -77.04262416666667, "bike_id": "dbf395ae15bf4029f004a2f696233f2c", "lat": 38.92285666666667, "fusion_lon": 0.0, "fusion_lat": 0.0, "type": "electric_scooter", "name": "dbf395ae15bf4029f004a2f696233f2c", "is_disabled": 0, "rental_uris": {"ios": "https://dc.lft.to/lastmile_qr_scan", "android": "https://dc.lft.to/lastmile_qr_scan"}, "is_reserved": 0}, {"lon": -77.02565983333334, "bike_id": "159949cd42986d4607b78860d0230a66", "lat": 38.91489683333333, "fusion_lon": 0.0, "fusion_lat": 0.0, "type": "electric_scooter", "name": "159949cd42986d4607b78860d0230a66", "is_disabled": 0, "rental_uris": {"ios": "https://dc.lft.to/lastmile_qr_scan", "android": "https://dc.lft.to/lastmile_qr_scan"}, "is_reserved": 0}, {"lon": -77.03790283333333, "bike_id": "759f3e14b8e586d793bfa6f47bc6a7e6", "lat": 38.93028616666667, "fusion_lon": 0.0, "fusion_lat": 0.0, "type": "electric_scooter", "name": "759f3e14b8e586d793bfa6f47bc6a7e6", "is_disabled": 0, "rental_uris": {"ios": "https://dc.lft.to/lastmile_qr_scan", "android": "https://dc.lft.to/lastmile_qr_scan"}, "is_reserved": 0}, {"lon": -77.02511633333333, "bike_id": "ee228849760f4043db77d366fd9bf9d2", "lat": 38.926455, "fusion_lon": 0.0, "fusion_lat": 0.0, "type": "electric_scooter", "name": "ee228849760f4043db77d366fd9bf9d2", "is_disabled": 0, "rental_uris": {"ios": "https://dc.lft.to/lastmile_qr_scan", "android": "https://dc.lft.to/lastmile_qr_scan"}, "is_reserved": 0}, {"lon": -77.040323, "bike_id": "6a5f86a66386c6da2afa74a720241d8f", "lat": 38.906116833333336, "fusion_lon": 0.0, "fusion_lat": 0.0, "type": "electric_scooter", "name": "6a5f86a66386c6da2afa74a720241d8f", "is_disabled": 0, "rental_uris": {"ios": "https://dc.lft.to/lastmile_qr_scan", "android": "https://dc.lft.to/lastmile_qr_scan"}, "is_reserved": 0}, {"lon": -77.00598783333334, "bike_id": "ef464ea0fac2f0c87e1d94f75512ffd7", "lat": 38.8718625, "fusion_lon": 0.0, "fusion_lat": 0.0, "type": "electric_scooter", "name": "ef464ea0fac2f0c87e1d94f75512ffd7", "is_disabled": 0, "rental_uris": {"ios": "https://dc.lft.to/lastmile_qr_scan", "android": "https://dc.lft.to/lastmile_qr_scan"}, "is_reserved": 0}, {"lon": -77.03124816666667, "bike_id": "6630a6e2fd09b59160511072535c7387", "lat": 38.9237245, "fusion_lon": 0.0, "fusion_lat": 0.0, "type": "electric_scooter", "name": "6630a6e2fd09b59160511072535c7387", "is_disabled": 0, "rental_uris": {"ios": "https://dc.lft.to/lastmile_qr_scan", "android": "https://dc.lft.to/lastmile_qr_scan"}, "is_reserved": 0}, {"lon": -77.03282033333333, "bike_id": "03292d7305c8766b688f3b0e0ae38c74", "lat": 38.90161716666667, "fusion_lon": 0.0, "fusion_lat": 0.0, "type": "electric_scooter", "name": "03292d7305c8766b688f3b0e0ae38c74", "is_disabled": 0, "rental_uris": {"ios": "https://dc.lft.to/lastmile_qr_scan", "android": "https://dc.lft.to/lastmile_qr_scan"}, "is_reserved": 0}, {"lon": -77.006807, "bike_id": "6ad246841e47ae0be3166853c898403e", "lat": 38.944961666666664, "fusion_lon": 0.0, "fusion_lat": 0.0, "type": "electric_bike", "name": "6ad246841e47ae0be3166853c898403e", "is_disabled": 0, "rental_uris": {"ios": "https://dc.lft.to/lastmile_qr_scan", "android": "https://dc.lft.to/lastmile_qr_scan"}, "is_reserved": 0}, {"lon": -77.04215633333334, "bike_id": "8e24724bdde8f469fd813dfe516851cb", "lat": 38.9230605, "fusion_lon": 0.0, "fusion_lat": 0.0, "type": "electric_scooter", "name": "8e24724bdde8f469fd813dfe516851cb", "is_disabled": 0, "rental_uris": {"ios": "https://dc.lft.to/lastmile_qr_scan", "android": "https://dc.lft.to/lastmile_qr_scan"}, "is_reserved": 0}, {"lon": -77.026995, "bike_id": "2d58c579da3668f10d37db9646a3feaf", "lat": 38.90655866666667, "fusion_lon": 0.0, "fusion_lat": 0.0, "type": "electric_scooter", "name": "2d58c579da3668f10d37db9646a3feaf", "is_disabled": 0, "rental_uris": {"ios": "https://dc.lft.to/lastmile_qr_scan", "android": "https://dc.lft.to/lastmile_qr_scan"}, "is_reserved": 0}, {"lon": -76.978121, "bike_id": "9a6a0a7cacad57ae551fdc1314fc7cfe", "lat": 38.906704500000004, "fusion_lon": 0.0, "fusion_lat": 0.0, "type": "electric_scooter", "name": "9a6a0a7cacad57ae551fdc1314fc7cfe", "is_disabled": 0, "rental_uris": {"ios": "https://dc.lft.to/lastmile_qr_scan", "android": "https://dc.lft.to/lastmile_qr_scan"}, "is_reserved": 0}, {"lon": -77.07122816666667, "bike_id": "7521e4e833ea0037df8a37095ca41a8b", "lat": 38.919685, "fusion_lon": 0.0, "fusion_lat": 0.0, "type": "electric_scooter", "name": "7521e4e833ea0037df8a37095ca41a8b", "is_disabled": 0, "rental_uris": {"ios": "https://dc.lft.to/lastmile_qr_scan", "android": "https://dc.lft.to/lastmile_qr_scan"}, "is_reserved": 0}, {"lon": -77.056634, "bike_id": "142a9b61a44969497889dda8be096622", "lat": 38.895467333333336, "fusion_lon": 0.0, "fusion_lat": 0.0, "type": "electric_scooter", "name": "142a9b61a44969497889dda8be096622", "is_disabled": 0, "rental_uris": {"ios": "https://dc.lft.to/lastmile_qr_scan", "android": "https://dc.lft.to/lastmile_qr_scan"}, "is_reserved": 0}, {"lon": -77.01776483333333, "bike_id": "74e4c31117accdc6dcde3bfac0497b16", "lat": 38.883892333333336, "fusion_lon": 0.0, "fusion_lat": 0.0, "type": "electric_scooter", "name": "74e4c31117accdc6dcde3bfac0497b16", "is_disabled": 0, "rental_uris": {"ios": "https://dc.lft.to/lastmile_qr_scan", "android": "https://dc.lft.to/lastmile_qr_scan"}, "is_reserved": 0}, {"lon": -77.02582833333334, "bike_id": "a2418eb19ded1c0a2447047263005080", "lat": 38.887404, "fusion_lon": 0.0, "fusion_lat": 0.0, "type": "electric_scooter", "name": "a2418eb19ded1c0a2447047263005080", "is_disabled": 0, "rental_uris": {"ios": "https://dc.lft.to/lastmile_qr_scan", "android": "https://dc.lft.to/lastmile_qr_scan"}, "is_reserved": 0}, {"lon": -77.04877266666666, "bike_id": "0a0fd15bb72c9514b37abc063b6ce663", "lat": 38.89233016666667, "fusion_lon": 0.0, "fusion_lat": 0.0, "type": "electric_scooter", "name": "0a0fd15bb72c9514b37abc063b6ce663", "is_disabled": 0, "rental_uris": {"ios": "https://dc.lft.to/lastmile_qr_scan", "android": "https://dc.lft.to/lastmile_qr_scan"}, "is_reserved": 0}, {"lon": -76.99484833333334, "bike_id": "c30de9e45db537f4803c341c7da52f0d", "lat": 38.88608333333333, "fusion_lon": 0.0, "fusion_lat": 0.0, "type": "electric_scooter", "name": "c30de9e45db537f4803c341c7da52f0d", "is_disabled": 0, "rental_uris": {"ios": "https://dc.lft.to/lastmile_qr_scan", "android": "https://dc.lft.to/lastmile_qr_scan"}, "is_reserved": 0}, {"lon": -77.02380566666666, "bike_id": "70d97534c99aecf28b8f8d012e4ea700", "lat": 38.9095825, "fusion_lon": 0.0, "fusion_lat": 0.0, "type": "electric_scooter", "name": "70d97534c99aecf28b8f8d012e4ea700", "is_disabled": 0, "rental_uris": {"ios": "https://dc.lft.to/lastmile_qr_scan", "android": "https://dc.lft.to/lastmile_qr_scan"}, "is_reserved": 0}, {"lon": -77.02189333333334, "bike_id": "4658222b287507123c4fe6ce4532ebb9", "lat": 38.887232833333336, "fusion_lon": 0.0, "fusion_lat": 0.0, "type": "electric_scooter", "name": "4658222b287507123c4fe6ce4532ebb9", "is_disabled": 0, "rental_uris": {"ios": "https://dc.lft.to/lastmile_qr_scan", "android": "https://dc.lft.to/lastmile_qr_scan"}, "is_reserved": 0}, {"lon": -77.02179566666666, "bike_id": "a356d244e4423974046c24792fa404fe", "lat": 38.914784833333336, "fusion_lon": 0.0, "fusion_lat": 0.0, "type": "electric_scooter", "name": "a356d244e4423974046c24792fa404fe", "is_disabled": 0, "rental_uris": {"ios": "https://dc.lft.to/lastmile_qr_scan", "android": "https://dc.lft.to/lastmile_qr_scan"}, "is_reserved": 0}, {"lon": -77.0322765, "bike_id": "bff817d7117175417688742c9b6bc670", "lat": 38.91406216666667, "fusion_lon": 0.0, "fusion_lat": 0.0, "type": "electric_scooter", "name": "bff817d7117175417688742c9b6bc670", "is_disabled": 0, "rental_uris": {"ios": "https://dc.lft.to/lastmile_qr_scan", "android": "https://dc.lft.to/lastmile_qr_scan"}, "is_reserved": 0}, {"lon": -77.02056666666667, "bike_id": "94ad767c11eabb200fa1d4f2d532e57d", "lat": 38.95757166666667, "fusion_lon": 0.0, "fusion_lat": 0.0, "type": "electric_bike", "name": "94ad767c11eabb200fa1d4f2d532e57d", "is_disabled": 0, "rental_uris": {"ios": "https://dc.lft.to/lastmile_qr_scan", "android": "https://dc.lft.to/lastmile_qr_scan"}, "is_reserved": 0}, {"lon": -77.04500066666667, "bike_id": "7dbe5e3e1c4ecbf9a814334e911e9837", "lat": 38.90380833333333, "fusion_lon": 0.0, "fusion_lat": 0.0, "type": "electric_scooter", "name": "7dbe5e3e1c4ecbf9a814334e911e9837", "is_disabled": 0, "rental_uris": {"ios": "https://dc.lft.to/lastmile_qr_scan", "android": "https://dc.lft.to/lastmile_qr_scan"}, "is_reserved": 0}, {"lon": -77.03200233333334, "bike_id": "1304f637f61710327ba0c70760861fad", "lat": 38.89361683333333, "fusion_lon": 0.0, "fusion_lat": 0.0, "type": "electric_scooter", "name": "1304f637f61710327ba0c70760861fad", "is_disabled": 0, "rental_uris": {"ios": "https://dc.lft.to/lastmile_qr_scan", "android": "https://dc.lft.to/lastmile_qr_scan"}, "is_reserved": 0}, {"lon": -76.98230016666666, "bike_id": "ffce15f7179f5dd174a77c93452f6d26", "lat": 38.868927, "fusion_lon": 0.0, "fusion_lat": 0.0, "type": "electric_scooter", "name": "ffce15f7179f5dd174a77c93452f6d26", "is_disabled": 0, "rental_uris": {"ios": "https://dc.lft.to/lastmile_qr_scan", "android": "https://dc.lft.to/lastmile_qr_scan"}, "is_reserved": 0}, {"lon": -76.99199916666667, "bike_id": "a89694f6033c401827f67614182b31d7", "lat": 38.862928333333336, "fusion_lon": 0.0, "fusion_lat": 0.0, "type": "electric_scooter", "name": "a89694f6033c401827f67614182b31d7", "is_disabled": 0, "rental_uris": {"ios": "https://dc.lft.to/lastmile_qr_scan", "android": "https://dc.lft.to/lastmile_qr_scan"}, "is_reserved": 0}, {"lon": -77.04162616666666, "bike_id": "7e5909c5f8164bec349294ffc1156497", "lat": 38.90544716666667, "fusion_lon": 0.0, "fusion_lat": 0.0, "type": "electric_scooter", "name": "7e5909c5f8164bec349294ffc1156497", "is_disabled": 0, "rental_uris": {"ios": "https://dc.lft.to/lastmile_qr_scan", "android": "https://dc.lft.to/lastmile_qr_scan"}, "is_reserved": 0}, {"lon": -77.0432845, "bike_id": "abda718d0aad612db5a091d7112a92c9", "lat": 38.90238866666667, "fusion_lon": 0.0, "fusion_lat": 0.0, "type": "electric_scooter", "name": "abda718d0aad612db5a091d7112a92c9", "is_disabled": 0, "rental_uris": {"ios": "https://dc.lft.to/lastmile_qr_scan", "android": "https://dc.lft.to/lastmile_qr_scan"}, "is_reserved": 0}, {"lon": -77.038472, "bike_id": "3916b3e163739b76561f14c29302ae7d", "lat": 38.912831, "fusion_lon": 0.0, "fusion_lat": 0.0, "type": "electric_scooter", "name": "3916b3e163739b76561f14c29302ae7d", "is_disabled": 0, "rental_uris": {"ios": "https://dc.lft.to/lastmile_qr_scan", "android": "https://dc.lft.to/lastmile_qr_scan"}, "is_reserved": 0}, {"lon": -77.026934, "bike_id": "908f91e85b85fc9d7a0e88aa6b5c216c", "lat": 38.90450383333334, "fusion_lon": 0.0, "fusion_lat": 0.0, "type": "electric_scooter", "name": "908f91e85b85fc9d7a0e88aa6b5c216c", "is_disabled": 0, "rental_uris": {"ios": "https://dc.lft.to/lastmile_qr_scan", "android": "https://dc.lft.to/lastmile_qr_scan"}, "is_reserved": 0}, {"lon": -77.0449845, "bike_id": "2db73d4b50efca61d135e82a49dd4ed5", "lat": 38.897787, "fusion_lon": 0.0, "fusion_lat": 0.0, "type": "electric_scooter", "name": "2db73d4b50efca61d135e82a49dd4ed5", "is_disabled": 0, "rental_uris": {"ios": "https://dc.lft.to/lastmile_qr_scan", "android": "https://dc.lft.to/lastmile_qr_scan"}, "is_reserved": 0}, {"lon": -77.01208683333333, "bike_id": "299d15159d4d47a71b6d0f7cd1d1e65b", "lat": 38.900228166666665, "fusion_lon": 0.0, "fusion_lat": 0.0, "type": "electric_bike", "name": "299d15159d4d47a71b6d0f7cd1d1e65b", "is_disabled": 0, "rental_uris": {"ios": "https://dc.lft.to/lastmile_qr_scan", "android": "https://dc.lft.to/lastmile_qr_scan"}, "is_reserved": 0}, {"lon": -77.0236915, "bike_id": "042043d702863df4b2bbc0adfe9ea6fa", "lat": 38.91996533333333, "fusion_lon": 0.0, "fusion_lat": 0.0, "type": "electric_scooter", "name": "042043d702863df4b2bbc0adfe9ea6fa", "is_disabled": 0, "rental_uris": {"ios": "https://dc.lft.to/lastmile_qr_scan", "android": "https://dc.lft.to/lastmile_qr_scan"}, "is_reserved": 0}, {"lon": -77.02397483333333, "bike_id": "e1ea3fc559e1a7978beb317372c422a1", "lat": 38.930930833333335, "fusion_lon": 0.0, "fusion_lat": 0.0, "type": "electric_scooter", "name": "e1ea3fc559e1a7978beb317372c422a1", "is_disabled": 0, "rental_uris": {"ios": "https://dc.lft.to/lastmile_qr_scan", "android": "https://dc.lft.to/lastmile_qr_scan"}, "is_reserved": 0}, {"lon": -77.03854333333334, "bike_id": "8b2fe73c1c2a6486ffee9690c9999755", "lat": 38.902759833333334, "fusion_lon": 0.0, "fusion_lat": 0.0, "type": "electric_scooter", "name": "8b2fe73c1c2a6486ffee9690c9999755", "is_disabled": 0, "rental_uris": {"ios": "https://dc.lft.to/lastmile_qr_scan", "android": "https://dc.lft.to/lastmile_qr_scan"}, "is_reserved": 0}, {"lon": -77.02594583333334, "bike_id": "14e4a38c284c6bc415daeb1baf15afb5", "lat": 38.963922833333335, "fusion_lon": 0.0, "fusion_lat": 0.0, "type": "electric_scooter", "name": "14e4a38c284c6bc415daeb1baf15afb5", "is_disabled": 0, "rental_uris": {"ios": "https://dc.lft.to/lastmile_qr_scan", "android": "https://dc.lft.to/lastmile_qr_scan"}, "is_reserved": 0}, {"lon": -77.02975916666666, "bike_id": "07d390ccdbec6aa7ced7d19d55a82ecb", "lat": 38.92874483333333, "fusion_lon": 0.0, "fusion_lat": 0.0, "type": "electric_scooter", "name": "07d390ccdbec6aa7ced7d19d55a82ecb", "is_disabled": 0, "rental_uris": {"ios": "https://dc.lft.to/lastmile_qr_scan", "android": "https://dc.lft.to/lastmile_qr_scan"}, "is_reserved": 0}, {"lon": -77.03286483333333, "bike_id": "1ed05608cda70c87c1a693eb7e1a6b9c", "lat": 38.91990966666667, "fusion_lon": 0.0, "fusion_lat": 0.0, "type": "electric_scooter", "name": "1ed05608cda70c87c1a693eb7e1a6b9c", "is_disabled": 0, "rental_uris": {"ios": "https://dc.lft.to/lastmile_qr_scan", "android": "https://dc.lft.to/lastmile_qr_scan"}, "is_reserved": 0}, {"lon": -76.987123, "bike_id": "a6c9599f87e26ee869566f72881cac87", "lat": 38.866975833333335, "fusion_lon": 0.0, "fusion_lat": 0.0, "type": "electric_scooter", "name": "a6c9599f87e26ee869566f72881cac87", "is_disabled": 0, "rental_uris": {"ios": "https://dc.lft.to/lastmile_qr_scan", "android": "https://dc.lft.to/lastmile_qr_scan"}, "is_reserved": 0}, {"lon": -76.93730566666666, "bike_id": "9ceb2fc0bde1b96ad8172aabf72ebd9f", "lat": 38.890163666666666, "fusion_lon": 0.0, "fusion_lat": 0.0, "type": "electric_scooter", "name": "9ceb2fc0bde1b96ad8172aabf72ebd9f", "is_disabled": 0, "rental_uris": {"ios": "https://dc.lft.to/lastmile_qr_scan", "android": "https://dc.lft.to/lastmile_qr_scan"}, "is_reserved": 0}, {"lon": -76.978318, "bike_id": "668b2485d6a9fcc9748bad846bd6c0a2", "lat": 38.89911766666667, "fusion_lon": 0.0, "fusion_lat": 0.0, "type": "electric_scooter", "name": "668b2485d6a9fcc9748bad846bd6c0a2", "is_disabled": 0, "rental_uris": {"ios": "https://dc.lft.to/lastmile_qr_scan", "android": "https://dc.lft.to/lastmile_qr_scan"}, "is_reserved": 0}, {"lon": -77.0367865, "bike_id": "4b364be767710bd897db6d178090d321", "lat": 38.936408666666665, "fusion_lon": 0.0, "fusion_lat": 0.0, "type": "electric_scooter", "name": "4b364be767710bd897db6d178090d321", "is_disabled": 0, "rental_uris": {"ios": "https://dc.lft.to/lastmile_qr_scan", "android": "https://dc.lft.to/lastmile_qr_scan"}, "is_reserved": 0}, {"lon": -76.998708, "bike_id": "41143d9d9b144137e543d13341bcd17a", "lat": 38.90031916666667, "fusion_lon": 0.0, "fusion_lat": 0.0, "type": "electric_scooter", "name": "41143d9d9b144137e543d13341bcd17a", "is_disabled": 0, "rental_uris": {"ios": "https://dc.lft.to/lastmile_qr_scan", "android": "https://dc.lft.to/lastmile_qr_scan"}, "is_reserved": 0}, {"lon": -77.04403466666666, "bike_id": "59e6c1e3b79cff0e8bada035c0686d8f", "lat": 38.897702, "fusion_lon": 0.0, "fusion_lat": 0.0, "type": "electric_scooter", "name": "59e6c1e3b79cff0e8bada035c0686d8f", "is_disabled": 0, "rental_uris": {"ios": "https://dc.lft.to/lastmile_qr_scan", "android": "https://dc.lft.to/lastmile_qr_scan"}, "is_reserved": 0}, {"lon": -77.034451, "bike_id": "daf08bcd061cef6e066f73796793c674", "lat": 38.90949916666667, "fusion_lon": 0.0, "fusion_lat": 0.0, "type": "electric_scooter", "name": "daf08bcd061cef6e066f73796793c674", "is_disabled": 0, "rental_uris": {"ios": "https://dc.lft.to/lastmile_qr_scan", "android": "https://dc.lft.to/lastmile_qr_scan"}, "is_reserved": 0}, {"lon": -77.0366695, "bike_id": "5d48aaf650b81f1770f1ea3da568b0b9", "lat": 38.93204083333333, "fusion_lon": 0.0, "fusion_lat": 0.0, "type": "electric_scooter", "name": "5d48aaf650b81f1770f1ea3da568b0b9", "is_disabled": 0, "rental_uris": {"ios": "https://dc.lft.to/lastmile_qr_scan", "android": "https://dc.lft.to/lastmile_qr_scan"}, "is_reserved": 0}, {"lon": -77.01918383333333, "bike_id": "7b02f1a85507dea9063d88856edad61d", "lat": 38.915128833333334, "fusion_lon": 0.0, "fusion_lat": 0.0, "type": "electric_scooter", "name": "7b02f1a85507dea9063d88856edad61d", "is_disabled": 0, "rental_uris": {"ios": "https://dc.lft.to/lastmile_qr_scan", "android": "https://dc.lft.to/lastmile_qr_scan"}, "is_reserved": 0}, {"lon": -77.02295716666667, "bike_id": "662a37d006e656d0c787ce13016ec5b9", "lat": 38.91749383333333, "fusion_lon": 0.0, "fusion_lat": 0.0, "type": "electric_scooter", "name": "662a37d006e656d0c787ce13016ec5b9", "is_disabled": 0, "rental_uris": {"ios": "https://dc.lft.to/lastmile_qr_scan", "android": "https://dc.lft.to/lastmile_qr_scan"}, "is_reserved": 0}, {"lon": -76.995845, "bike_id": "e6bf399faa8736c6ea235c9c52059e89", "lat": 38.8517895, "fusion_lon": 0.0, "fusion_lat": 0.0, "type": "electric_scooter", "name": "e6bf399faa8736c6ea235c9c52059e89", "is_disabled": 0, "rental_uris": {"ios": "https://dc.lft.to/lastmile_qr_scan", "android": "https://dc.lft.to/lastmile_qr_scan"}, "is_reserved": 0}, {"lon": -77.0448435, "bike_id": "527edeab6e360ed127f3c8979c77bbe5", "lat": 38.89237816666667, "fusion_lon": 0.0, "fusion_lat": 0.0, "type": "electric_scooter", "name": "527edeab6e360ed127f3c8979c77bbe5", "is_disabled": 0, "rental_uris": {"ios": "https://dc.lft.to/lastmile_qr_scan", "android": "https://dc.lft.to/lastmile_qr_scan"}, "is_reserved": 0}, {"lon": -77.0407145, "bike_id": "f081ed447d52b7e25be4fb6f1a193d29", "lat": 38.90889166666667, "fusion_lon": 0.0, "fusion_lat": 0.0, "type": "electric_scooter", "name": "f081ed447d52b7e25be4fb6f1a193d29", "is_disabled": 0, "rental_uris": {"ios": "https://dc.lft.to/lastmile_qr_scan", "android": "https://dc.lft.to/lastmile_qr_scan"}, "is_reserved": 0}, {"lon": -77.0332165, "bike_id": "ad40da54c638f5d1a6b4b77df10d9167", "lat": 38.94714966666667, "fusion_lon": 0.0, "fusion_lat": 0.0, "type": "electric_scooter", "name": "ad40da54c638f5d1a6b4b77df10d9167", "is_disabled": 0, "rental_uris": {"ios": "https://dc.lft.to/lastmile_qr_scan", "android": "https://dc.lft.to/lastmile_qr_scan"}, "is_reserved": 0}, {"lon": -77.03209916666667, "bike_id": "73bbca2834ff74a8ae5a88002deb9124", "lat": 38.90727916666667, "fusion_lon": 0.0, "fusion_lat": 0.0, "type": "electric_scooter", "name": "73bbca2834ff74a8ae5a88002deb9124", "is_disabled": 0, "rental_uris": {"ios": "https://dc.lft.to/lastmile_qr_scan", "android": "https://dc.lft.to/lastmile_qr_scan"}, "is_reserved": 0}, {"lon": -77.03306633333334, "bike_id": "8dd7daeb9fe85b34f407b72afdbe728b", "lat": 38.925535833333335, "fusion_lon": 0.0, "fusion_lat": 0.0, "type": "electric_scooter", "name": "8dd7daeb9fe85b34f407b72afdbe728b", "is_disabled": 0, "rental_uris": {"ios": "https://dc.lft.to/lastmile_qr_scan", "android": "https://dc.lft.to/lastmile_qr_scan"}, "is_reserved": 0}, {"lon": -77.04772316666667, "bike_id": "14b8565c49a83a82c37df6e498f6904d", "lat": 38.92141016666667, "fusion_lon": 0.0, "fusion_lat": 0.0, "type": "electric_scooter", "name": "14b8565c49a83a82c37df6e498f6904d", "is_disabled": 0, "rental_uris": {"ios": "https://dc.lft.to/lastmile_qr_scan", "android": "https://dc.lft.to/lastmile_qr_scan"}, "is_reserved": 0}, {"lon": -77.02541366666667, "bike_id": "15b479c103dc21ac7ae7598395605904", "lat": 38.99297083333333, "fusion_lon": 0.0, "fusion_lat": 0.0, "type": "electric_bike", "name": "15b479c103dc21ac7ae7598395605904", "is_disabled": 0, "rental_uris": {"ios": "https://dc.lft.to/lastmile_qr_scan", "android": "https://dc.lft.to/lastmile_qr_scan"}, "is_reserved": 0}, {"lon": -77.02114333333333, "bike_id": "b019b00cd3d3543ac554cb9a541476d9", "lat": 38.915878, "fusion_lon": 0.0, "fusion_lat": 0.0, "type": "electric_scooter", "name": "b019b00cd3d3543ac554cb9a541476d9", "is_disabled": 0, "rental_uris": {"ios": "https://dc.lft.to/lastmile_qr_scan", "android": "https://dc.lft.to/lastmile_qr_scan"}, "is_reserved": 0}, {"lon": -76.976275, "bike_id": "9588dfe21b8863699d72f2b9ab8e9305", "lat": 38.905735666666665, "fusion_lon": 0.0, "fusion_lat": 0.0, "type": "electric_scooter", "name": "9588dfe21b8863699d72f2b9ab8e9305", "is_disabled": 0, "rental_uris": {"ios": "https://dc.lft.to/lastmile_qr_scan", "android": "https://dc.lft.to/lastmile_qr_scan"}, "is_reserved": 0}, {"lon": -77.0382845, "bike_id": "78acc3e9c1976adcf3039b968f5f2bdb", "lat": 38.91038983333333, "fusion_lon": 0.0, "fusion_lat": 0.0, "type": "electric_scooter", "name": "78acc3e9c1976adcf3039b968f5f2bdb", "is_disabled": 0, "rental_uris": {"ios": "https://dc.lft.to/lastmile_qr_scan", "android": "https://dc.lft.to/lastmile_qr_scan"}, "is_reserved": 0}, {"lon": -76.99491016666667, "bike_id": "6f8c20a35d5e824c959aed51d3b61eea", "lat": 38.862454166666666, "fusion_lon": 0.0, "fusion_lat": 0.0, "type": "electric_scooter", "name": "6f8c20a35d5e824c959aed51d3b61eea", "is_disabled": 0, "rental_uris": {"ios": "https://dc.lft.to/lastmile_qr_scan", "android": "https://dc.lft.to/lastmile_qr_scan"}, "is_reserved": 0}, {"lon": -77.041639, "bike_id": "66462d93bcdd9d0137bc0a1b0512b066", "lat": 38.912494333333335, "fusion_lon": 0.0, "fusion_lat": 0.0, "type": "electric_scooter", "name": "66462d93bcdd9d0137bc0a1b0512b066", "is_disabled": 0, "rental_uris": {"ios": "https://dc.lft.to/lastmile_qr_scan", "android": "https://dc.lft.to/lastmile_qr_scan"}, "is_reserved": 0}, {"lon": -76.93062483333334, "bike_id": "849769ebc274e5819df901ca0892136c", "lat": 38.901544333333334, "fusion_lon": 0.0, "fusion_lat": 0.0, "type": "electric_scooter", "name": "849769ebc274e5819df901ca0892136c", "is_disabled": 0, "rental_uris": {"ios": "https://dc.lft.to/lastmile_qr_scan", "android": "https://dc.lft.to/lastmile_qr_scan"}, "is_reserved": 0}, {"lon": -77.02960716666666, "bike_id": "52dda8107e119eb13add5728a8cfca23", "lat": 38.916807666666664, "fusion_lon": 0.0, "fusion_lat": 0.0, "type": "electric_scooter", "name": "52dda8107e119eb13add5728a8cfca23", "is_disabled": 0, "rental_uris": {"ios": "https://dc.lft.to/lastmile_qr_scan", "android": "https://dc.lft.to/lastmile_qr_scan"}, "is_reserved": 0}, {"lon": -77.01940133333333, "bike_id": "c5dbc8f037eff0e9c9341683d9dd6004", "lat": 38.936845166666664, "fusion_lon": 0.0, "fusion_lat": 0.0, "type": "electric_scooter", "name": "c5dbc8f037eff0e9c9341683d9dd6004", "is_disabled": 0, "rental_uris": {"ios": "https://dc.lft.to/lastmile_qr_scan", "android": "https://dc.lft.to/lastmile_qr_scan"}, "is_reserved": 0}, {"lon": -76.98549616666666, "bike_id": "687523ed21a3e0778a4ddffb0e101473", "lat": 38.8965575, "fusion_lon": 0.0, "fusion_lat": 0.0, "type": "electric_scooter", "name": "687523ed21a3e0778a4ddffb0e101473", "is_disabled": 0, "rental_uris": {"ios": "https://dc.lft.to/lastmile_qr_scan", "android": "https://dc.lft.to/lastmile_qr_scan"}, "is_reserved": 0}, {"lon": -77.03177, "bike_id": "588cb4559535d743a7bd98b56d66f785", "lat": 38.919086, "fusion_lon": 0.0, "fusion_lat": 0.0, "type": "electric_scooter", "name": "588cb4559535d743a7bd98b56d66f785", "is_disabled": 0, "rental_uris": {"ios": "https://dc.lft.to/lastmile_qr_scan", "android": "https://dc.lft.to/lastmile_qr_scan"}, "is_reserved": 0}, {"lon": -77.028045, "bike_id": "8ca078b76c78ca6ad3c3570e3ba55d57", "lat": 38.91130416666667, "fusion_lon": 0.0, "fusion_lat": 0.0, "type": "electric_scooter", "name": "8ca078b76c78ca6ad3c3570e3ba55d57", "is_disabled": 0, "rental_uris": {"ios": "https://dc.lft.to/lastmile_qr_scan", "android": "https://dc.lft.to/lastmile_qr_scan"}, "is_reserved": 0}, {"lon": -77.00192866666667, "bike_id": "1fe654b011b56d256c63329049591e21", "lat": 38.89099483333333, "fusion_lon": 0.0, "fusion_lat": 0.0, "type": "electric_scooter", "name": "1fe654b011b56d256c63329049591e21", "is_disabled": 0, "rental_uris": {"ios": "https://dc.lft.to/lastmile_qr_scan", "android": "https://dc.lft.to/lastmile_qr_scan"}, "is_reserved": 0}, {"lon": -77.03002333333333, "bike_id": "aa5a1cee7ac2462e178f022135869b91", "lat": 39.041958666666666, "fusion_lon": 0.0, "fusion_lat": 0.0, "type": "electric_bike", "name": "aa5a1cee7ac2462e178f022135869b91", "is_disabled": 0, "rental_uris": {"ios": "https://dc.lft.to/lastmile_qr_scan", "android": "https://dc.lft.to/lastmile_qr_scan"}, "is_reserved": 0}, {"lon": -77.01991383333333, "bike_id": "219bc80ef9194bffc428aab8d75d706f", "lat": 38.886088, "fusion_lon": 0.0, "fusion_lat": 0.0, "type": "electric_scooter", "name": "219bc80ef9194bffc428aab8d75d706f", "is_disabled": 0, "rental_uris": {"ios": "https://dc.lft.to/lastmile_qr_scan", "android": "https://dc.lft.to/lastmile_qr_scan"}, "is_reserved": 0}, {"lon": -77.04983883333334, "bike_id": "b4970615cb46eb7583622282f8c6ecd0", "lat": 38.8999905, "fusion_lon": 0.0, "fusion_lat": 0.0, "type": "electric_scooter", "name": "b4970615cb46eb7583622282f8c6ecd0", "is_disabled": 0, "rental_uris": {"ios": "https://dc.lft.to/lastmile_qr_scan", "android": "https://dc.lft.to/lastmile_qr_scan"}, "is_reserved": 0}, {"lon": -77.03592666666667, "bike_id": "6f07c6e9d901be5021a6811d02710888", "lat": 38.90970333333333, "fusion_lon": 0.0, "fusion_lat": 0.0, "type": "electric_scooter", "name": "6f07c6e9d901be5021a6811d02710888", "is_disabled": 0, "rental_uris": {"ios": "https://dc.lft.to/lastmile_qr_scan", "android": "https://dc.lft.to/lastmile_qr_scan"}, "is_reserved": 0}, {"lon": -77.04998816666667, "bike_id": "730f5858fb179ba5c758d6a84c57daf9", "lat": 38.900956666666666, "fusion_lon": 0.0, "fusion_lat": 0.0, "type": "electric_scooter", "name": "730f5858fb179ba5c758d6a84c57daf9", "is_disabled": 0, "rental_uris": {"ios": "https://dc.lft.to/lastmile_qr_scan", "android": "https://dc.lft.to/lastmile_qr_scan"}, "is_reserved": 0}, {"lon": -77.07791, "bike_id": "5cdaecbf0654eded9a5b3b907c22568b", "lat": 38.996054, "fusion_lon": 0.0, "fusion_lat": 0.0, "type": "electric_bike", "name": "5cdaecbf0654eded9a5b3b907c22568b", "is_disabled": 0, "rental_uris": {"ios": "https://dc.lft.to/lastmile_qr_scan", "android": "https://dc.lft.to/lastmile_qr_scan"}, "is_reserved": 0}, {"lon": -77.06136866666667, "bike_id": "cea0daab396365ca1eefb59c0d80d17e", "lat": 38.943516333333335, "fusion_lon": 0.0, "fusion_lat": 0.0, "type": "electric_scooter", "name": "cea0daab396365ca1eefb59c0d80d17e", "is_disabled": 0, "rental_uris": {"ios": "https://dc.lft.to/lastmile_qr_scan", "android": "https://dc.lft.to/lastmile_qr_scan"}, "is_reserved": 0}, {"lon": -76.97648333333333, "bike_id": "a05c140b0dc57a023a7d4c8fdcf936e7", "lat": 38.898743833333334, "fusion_lon": 0.0, "fusion_lat": 0.0, "type": "electric_bike", "name": "a05c140b0dc57a023a7d4c8fdcf936e7", "is_disabled": 0, "rental_uris": {"ios": "https://dc.lft.to/lastmile_qr_scan", "android": "https://dc.lft.to/lastmile_qr_scan"}, "is_reserved": 0}, {"lon": -77.0251425, "bike_id": "b72d275f5987e33fb7d782c8abde085f", "lat": 38.92081833333334, "fusion_lon": 0.0, "fusion_lat": 0.0, "type": "electric_scooter", "name": "b72d275f5987e33fb7d782c8abde085f", "is_disabled": 0, "rental_uris": {"ios": "https://dc.lft.to/lastmile_qr_scan", "android": "https://dc.lft.to/lastmile_qr_scan"}, "is_reserved": 0}, {"lon": -77.02698866666667, "bike_id": "0c6a25ff5a3639ed30b567bfea32987d", "lat": 38.90241066666667, "fusion_lon": 0.0, "fusion_lat": 0.0, "type": "electric_scooter", "name": "0c6a25ff5a3639ed30b567bfea32987d", "is_disabled": 0, "rental_uris": {"ios": "https://dc.lft.to/lastmile_qr_scan", "android": "https://dc.lft.to/lastmile_qr_scan"}, "is_reserved": 0}, {"lon": -77.03408, "bike_id": "f75b0e139fb9ca04f20ab5d9e2df1884", "lat": 38.9227075, "fusion_lon": 0.0, "fusion_lat": 0.0, "type": "electric_scooter", "name": "f75b0e139fb9ca04f20ab5d9e2df1884", "is_disabled": 0, "rental_uris": {"ios": "https://dc.lft.to/lastmile_qr_scan", "android": "https://dc.lft.to/lastmile_qr_scan"}, "is_reserved": 0}, {"lon": -77.03373533333334, "bike_id": "e0d75f863de55bd93bad27a756d1b0a5", "lat": 38.902611666666665, "fusion_lon": 0.0, "fusion_lat": 0.0, "type": "electric_scooter", "name": "e0d75f863de55bd93bad27a756d1b0a5", "is_disabled": 0, "rental_uris": {"ios": "https://dc.lft.to/lastmile_qr_scan", "android": "https://dc.lft.to/lastmile_qr_scan"}, "is_reserved": 0}, {"lon": -76.999447, "bike_id": "6b013f49bd1dadee5063ec4c7b521dc0", "lat": 38.9192395, "fusion_lon": 0.0, "fusion_lat": 0.0, "type": "electric_scooter", "name": "6b013f49bd1dadee5063ec4c7b521dc0", "is_disabled": 0, "rental_uris": {"ios": "https://dc.lft.to/lastmile_qr_scan", "android": "https://dc.lft.to/lastmile_qr_scan"}, "is_reserved": 0}, {"lon": -77.022022, "bike_id": "bfeb0280fa312afd4dc0489eaea6c789", "lat": 38.910514666666664, "fusion_lon": 0.0, "fusion_lat": 0.0, "type": "electric_scooter", "name": "bfeb0280fa312afd4dc0489eaea6c789", "is_disabled": 0, "rental_uris": {"ios": "https://dc.lft.to/lastmile_qr_scan", "android": "https://dc.lft.to/lastmile_qr_scan"}, "is_reserved": 0}, {"lon": -77.02211066666666, "bike_id": "6af32b90da898c44fef473a9d880787e", "lat": 38.87897133333333, "fusion_lon": 0.0, "fusion_lat": 0.0, "type": "electric_scooter", "name": "6af32b90da898c44fef473a9d880787e", "is_disabled": 0, "rental_uris": {"ios": "https://dc.lft.to/lastmile_qr_scan", "android": "https://dc.lft.to/lastmile_qr_scan"}, "is_reserved": 0}, {"lon": -77.032236, "bike_id": "d0c010bb9f99dbe5d12fd1e121131780", "lat": 38.90740133333333, "fusion_lon": 0.0, "fusion_lat": 0.0, "type": "electric_scooter", "name": "d0c010bb9f99dbe5d12fd1e121131780", "is_disabled": 0, "rental_uris": {"ios": "https://dc.lft.to/lastmile_qr_scan", "android": "https://dc.lft.to/lastmile_qr_scan"}, "is_reserved": 0}, {"lon": -77.03178566666666, "bike_id": "d5537b4803880f84281e25fa11459d14", "lat": 38.90114833333333, "fusion_lon": 0.0, "fusion_lat": 0.0, "type": "electric_scooter", "name": "d5537b4803880f84281e25fa11459d14", "is_disabled": 0, "rental_uris": {"ios": "https://dc.lft.to/lastmile_qr_scan", "android": "https://dc.lft.to/lastmile_qr_scan"}, "is_reserved": 0}, {"lon": -77.02273, "bike_id": "d21d28256a2e3567bd5f932109ecc370", "lat": 38.90953483333333, "fusion_lon": 0.0, "fusion_lat": 0.0, "type": "electric_scooter", "name": "d21d28256a2e3567bd5f932109ecc370", "is_disabled": 0, "rental_uris": {"ios": "https://dc.lft.to/lastmile_qr_scan", "android": "https://dc.lft.to/lastmile_qr_scan"}, "is_reserved": 0}, {"lon": -77.05934483333333, "bike_id": "a969eaca223d332dd819db7ae7a64557", "lat": 38.905303, "fusion_lon": 0.0, "fusion_lat": 0.0, "type": "electric_bike", "name": "a969eaca223d332dd819db7ae7a64557", "is_disabled": 0, "rental_uris": {"ios": "https://dc.lft.to/lastmile_qr_scan", "android": "https://dc.lft.to/lastmile_qr_scan"}, "is_reserved": 0}, {"lon": -77.02201983333333, "bike_id": "c602ea8ad3f83633914169da12144c83", "lat": 38.89290733333333, "fusion_lon": 0.0, "fusion_lat": 0.0, "type": "electric_scooter", "name": "c602ea8ad3f83633914169da12144c83", "is_disabled": 0, "rental_uris": {"ios": "https://dc.lft.to/lastmile_qr_scan", "android": "https://dc.lft.to/lastmile_qr_scan"}, "is_reserved": 0}, {"lon": -77.032065, "bike_id": "54d254352cc2f9f7afa3edf052ee07fe", "lat": 38.917410833333335, "fusion_lon": 0.0, "fusion_lat": 0.0, "type": "electric_scooter", "name": "54d254352cc2f9f7afa3edf052ee07fe", "is_disabled": 0, "rental_uris": {"ios": "https://dc.lft.to/lastmile_qr_scan", "android": "https://dc.lft.to/lastmile_qr_scan"}, "is_reserved": 0}, {"lon": -76.98833583333334, "bike_id": "b9502669445c6b8fd23dd535dab1e583", "lat": 38.900990166666666, "fusion_lon": 0.0, "fusion_lat": 0.0, "type": "electric_scooter", "name": "b9502669445c6b8fd23dd535dab1e583", "is_disabled": 0, "rental_uris": {"ios": "https://dc.lft.to/lastmile_qr_scan", "android": "https://dc.lft.to/lastmile_qr_scan"}, "is_reserved": 0}, {"lon": -77.025933, "bike_id": "ba9716646064124075bc49c33caca43c", "lat": 38.941980666666666, "fusion_lon": 0.0, "fusion_lat": 0.0, "type": "electric_scooter", "name": "ba9716646064124075bc49c33caca43c", "is_disabled": 0, "rental_uris": {"ios": "https://dc.lft.to/lastmile_qr_scan", "android": "https://dc.lft.to/lastmile_qr_scan"}, "is_reserved": 0}, {"lon": -77.03184316666666, "bike_id": "6257b1fe51668b225d725b5658a03f48", "lat": 38.89627383333333, "fusion_lon": 0.0, "fusion_lat": 0.0, "type": "electric_scooter", "name": "6257b1fe51668b225d725b5658a03f48", "is_disabled": 0, "rental_uris": {"ios": "https://dc.lft.to/lastmile_qr_scan", "android": "https://dc.lft.to/lastmile_qr_scan"}, "is_reserved": 0}, {"lon": -77.0177, "bike_id": "9da88f4cc0acff54d02407bfe7403f08", "lat": 38.877153666666665, "fusion_lon": 0.0, "fusion_lat": 0.0, "type": "electric_scooter", "name": "9da88f4cc0acff54d02407bfe7403f08", "is_disabled": 0, "rental_uris": {"ios": "https://dc.lft.to/lastmile_qr_scan", "android": "https://dc.lft.to/lastmile_qr_scan"}, "is_reserved": 0}, {"lon": -77.10808866666666, "bike_id": "b924aff2bc7679a7c85528e535af8b29", "lat": 38.81204783333333, "fusion_lon": 0.0, "fusion_lat": 0.0, "type": "electric_bike", "name": "b924aff2bc7679a7c85528e535af8b29", "is_disabled": 0, "rental_uris": {"ios": "https://dc.lft.to/lastmile_qr_scan", "android": "https://dc.lft.to/lastmile_qr_scan"}, "is_reserved": 0}, {"lon": -77.01759616666666, "bike_id": "7fbcee1280a18fe1d8094a0f79a95053", "lat": 38.87670933333333, "fusion_lon": 0.0, "fusion_lat": 0.0, "type": "electric_scooter", "name": "7fbcee1280a18fe1d8094a0f79a95053", "is_disabled": 0, "rental_uris": {"ios": "https://dc.lft.to/lastmile_qr_scan", "android": "https://dc.lft.to/lastmile_qr_scan"}, "is_reserved": 0}, {"lon": -77.046908, "bike_id": "bcdd412d715bed1bb95aaf10cb202c33", "lat": 38.892214, "fusion_lon": 0.0, "fusion_lat": 0.0, "type": "electric_scooter", "name": "bcdd412d715bed1bb95aaf10cb202c33", "is_disabled": 0, "rental_uris": {"ios": "https://dc.lft.to/lastmile_qr_scan", "android": "https://dc.lft.to/lastmile_qr_scan"}, "is_reserved": 0}, {"lon": -77.02980166666667, "bike_id": "30089fcf72f80eebb41e9e64e20b70d8", "lat": 38.916282833333334, "fusion_lon": 0.0, "fusion_lat": 0.0, "type": "electric_scooter", "name": "30089fcf72f80eebb41e9e64e20b70d8", "is_disabled": 0, "rental_uris": {"ios": "https://dc.lft.to/lastmile_qr_scan", "android": "https://dc.lft.to/lastmile_qr_scan"}, "is_reserved": 0}, {"lon": -77.02712316666667, "bike_id": "183b39b7667836f200bda2006a36b346", "lat": 38.92034916666667, "fusion_lon": 0.0, "fusion_lat": 0.0, "type": "electric_scooter", "name": "183b39b7667836f200bda2006a36b346", "is_disabled": 0, "rental_uris": {"ios": "https://dc.lft.to/lastmile_qr_scan", "android": "https://dc.lft.to/lastmile_qr_scan"}, "is_reserved": 0}, {"lon": -76.96914116666667, "bike_id": "c7b9fbff49475e86b7ea90f95e29cc0d", "lat": 38.84611733333333, "fusion_lon": 0.0, "fusion_lat": 0.0, "type": "electric_bike", "name": "c7b9fbff49475e86b7ea90f95e29cc0d", "is_disabled": 0, "rental_uris": {"ios": "https://dc.lft.to/lastmile_qr_scan", "android": "https://dc.lft.to/lastmile_qr_scan"}, "is_reserved": 0}, {"lon": -77.0298125, "bike_id": "4e5e4cab284124dd3fc59ef91f096428", "lat": 38.907214833333335, "fusion_lon": 0.0, "fusion_lat": 0.0, "type": "electric_scooter", "name": "4e5e4cab284124dd3fc59ef91f096428", "is_disabled": 0, "rental_uris": {"ios": "https://dc.lft.to/lastmile_qr_scan", "android": "https://dc.lft.to/lastmile_qr_scan"}, "is_reserved": 0}, {"lon": -77.02591316666667, "bike_id": "56bca2839c9776d67ce6f8639dc9a370", "lat": 38.90347783333333, "fusion_lon": 0.0, "fusion_lat": 0.0, "type": "electric_scooter", "name": "56bca2839c9776d67ce6f8639dc9a370", "is_disabled": 0, "rental_uris": {"ios": "https://dc.lft.to/lastmile_qr_scan", "android": "https://dc.lft.to/lastmile_qr_scan"}, "is_reserved": 0}, {"lon": -77.00068316666666, "bike_id": "ff7f4673c3b6b87f5309f8865135c4cd", "lat": 38.901475, "fusion_lon": 0.0, "fusion_lat": 0.0, "type": "electric_bike", "name": "ff7f4673c3b6b87f5309f8865135c4cd", "is_disabled": 0, "rental_uris": {"ios": "https://dc.lft.to/lastmile_qr_scan", "android": "https://dc.lft.to/lastmile_qr_scan"}, "is_reserved": 0}, {"lon": -77.115926, "bike_id": "a838249a2f865610e101c645f4715f5b", "lat": 39.07492833333333, "fusion_lon": 0.0, "fusion_lat": 0.0, "type": "electric_bike", "name": "a838249a2f865610e101c645f4715f5b", "is_disabled": 0, "rental_uris": {"ios": "https://dc.lft.to/lastmile_qr_scan", "android": "https://dc.lft.to/lastmile_qr_scan"}, "is_reserved": 0}, {"lon": -77.00450066666667, "bike_id": "99c4985ca851a35640c184e9e7f72db5", "lat": 38.880402, "fusion_lon": 0.0, "fusion_lat": 0.0, "type": "electric_scooter", "name": "99c4985ca851a35640c184e9e7f72db5", "is_disabled": 0, "rental_uris": {"ios": "https://dc.lft.to/lastmile_qr_scan", "android": "https://dc.lft.to/lastmile_qr_scan"}, "is_reserved": 0}, {"lon": -76.990279, "bike_id": "1aff3d35c955b5f68c9deb42476bec4e", "lat": 38.8639995, "fusion_lon": 0.0, "fusion_lat": 0.0, "type": "electric_scooter", "name": "1aff3d35c955b5f68c9deb42476bec4e", "is_disabled": 0, "rental_uris": {"ios": "https://dc.lft.to/lastmile_qr_scan", "android": "https://dc.lft.to/lastmile_qr_scan"}, "is_reserved": 0}, {"lon": -77.03218016666666, "bike_id": "0f40326c80440135467bd88e7f5f8cce", "lat": 38.892432, "fusion_lon": 0.0, "fusion_lat": 0.0, "type": "electric_scooter", "name": "0f40326c80440135467bd88e7f5f8cce", "is_disabled": 0, "rental_uris": {"ios": "https://dc.lft.to/lastmile_qr_scan", "android": "https://dc.lft.to/lastmile_qr_scan"}, "is_reserved": 0}, {"lon": -77.03129166666666, "bike_id": "b9affea60d30ea2385f6b897ebca48da", "lat": 38.9126505, "fusion_lon": 0.0, "fusion_lat": 0.0, "type": "electric_scooter", "name": "b9affea60d30ea2385f6b897ebca48da", "is_disabled": 0, "rental_uris": {"ios": "https://dc.lft.to/lastmile_qr_scan", "android": "https://dc.lft.to/lastmile_qr_scan"}, "is_reserved": 0}, {"lon": -77.0259005, "bike_id": "bc1556d0c83eeefa3fdfa1c1e37b59a5", "lat": 38.9149655, "fusion_lon": 0.0, "fusion_lat": 0.0, "type": "electric_scooter", "name": "bc1556d0c83eeefa3fdfa1c1e37b59a5", "is_disabled": 0, "rental_uris": {"ios": "https://dc.lft.to/lastmile_qr_scan", "android": "https://dc.lft.to/lastmile_qr_scan"}, "is_reserved": 0}, {"lon": -77.031685, "bike_id": "422e62d98903bc28e365f3387195e4be", "lat": 38.9181045, "fusion_lon": 0.0, "fusion_lat": 0.0, "type": "electric_scooter", "name": "422e62d98903bc28e365f3387195e4be", "is_disabled": 0, "rental_uris": {"ios": "https://dc.lft.to/lastmile_qr_scan", "android": "https://dc.lft.to/lastmile_qr_scan"}, "is_reserved": 0}, {"lon": -77.01359066666667, "bike_id": "214f0d51da2c9812f792e0f80e23005a", "lat": 38.912727333333336, "fusion_lon": 0.0, "fusion_lat": 0.0, "type": "electric_scooter", "name": "214f0d51da2c9812f792e0f80e23005a", "is_disabled": 0, "rental_uris": {"ios": "https://dc.lft.to/lastmile_qr_scan", "android": "https://dc.lft.to/lastmile_qr_scan"}, "is_reserved": 0}, {"lon": -77.04269166666667, "bike_id": "e6520f8ac34a1473fddf0c4d9e0d6a86", "lat": 38.922339, "fusion_lon": 0.0, "fusion_lat": 0.0, "type": "electric_scooter", "name": "e6520f8ac34a1473fddf0c4d9e0d6a86", "is_disabled": 0, "rental_uris": {"ios": "https://dc.lft.to/lastmile_qr_scan", "android": "https://dc.lft.to/lastmile_qr_scan"}, "is_reserved": 0}, {"lon": -77.03375483333333, "bike_id": "dbab34d3213df27cb57d6e934a7a5a22", "lat": 38.902612500000004, "fusion_lon": 0.0, "fusion_lat": 0.0, "type": "electric_scooter", "name": "dbab34d3213df27cb57d6e934a7a5a22", "is_disabled": 0, "rental_uris": {"ios": "https://dc.lft.to/lastmile_qr_scan", "android": "https://dc.lft.to/lastmile_qr_scan"}, "is_reserved": 0}, {"lon": -77.028323, "bike_id": "16090cdbe18f6f0e1e470ff5ee96f944", "lat": 38.902356, "fusion_lon": 0.0, "fusion_lat": 0.0, "type": "electric_scooter", "name": "16090cdbe18f6f0e1e470ff5ee96f944", "is_disabled": 0, "rental_uris": {"ios": "https://dc.lft.to/lastmile_qr_scan", "android": "https://dc.lft.to/lastmile_qr_scan"}, "is_reserved": 0}, {"lon": -77.04348283333333, "bike_id": "07b3cc087d57ce53cd5c36e24188af8e", "lat": 38.91323966666667, "fusion_lon": 0.0, "fusion_lat": 0.0, "type": "electric_scooter", "name": "07b3cc087d57ce53cd5c36e24188af8e", "is_disabled": 0, "rental_uris": {"ios": "https://dc.lft.to/lastmile_qr_scan", "android": "https://dc.lft.to/lastmile_qr_scan"}, "is_reserved": 0}, {"lon": -77.04091783333334, "bike_id": "dae696ef13d75884147a7ddc7ecd6fcd", "lat": 38.91558533333333, "fusion_lon": 0.0, "fusion_lat": 0.0, "type": "electric_scooter", "name": "dae696ef13d75884147a7ddc7ecd6fcd", "is_disabled": 0, "rental_uris": {"ios": "https://dc.lft.to/lastmile_qr_scan", "android": "https://dc.lft.to/lastmile_qr_scan"}, "is_reserved": 0}, {"lon": -77.0382715, "bike_id": "65b4cdab40124995f21bea37b69c8af3", "lat": 38.9067325, "fusion_lon": 0.0, "fusion_lat": 0.0, "type": "electric_scooter", "name": "65b4cdab40124995f21bea37b69c8af3", "is_disabled": 0, "rental_uris": {"ios": "https://dc.lft.to/lastmile_qr_scan", "android": "https://dc.lft.to/lastmile_qr_scan"}, "is_reserved": 0}, {"lon": -77.01195416666667, "bike_id": "6f21d2986141551e607cae80061a8b83", "lat": 38.90019683333333, "fusion_lon": 0.0, "fusion_lat": 0.0, "type": "electric_scooter", "name": "6f21d2986141551e607cae80061a8b83", "is_disabled": 0, "rental_uris": {"ios": "https://dc.lft.to/lastmile_qr_scan", "android": "https://dc.lft.to/lastmile_qr_scan"}, "is_reserved": 0}, {"lon": -77.00695616666667, "bike_id": "ae478c8575245e111d36164a6a4a2d4d", "lat": 38.90513116666666, "fusion_lon": 0.0, "fusion_lat": 0.0, "type": "electric_scooter", "name": "ae478c8575245e111d36164a6a4a2d4d", "is_disabled": 0, "rental_uris": {"ios": "https://dc.lft.to/lastmile_qr_scan", "android": "https://dc.lft.to/lastmile_qr_scan"}, "is_reserved": 0}, {"lon": -77.02171483333333, "bike_id": "b654b6218b152192fed33d3c792d04a8", "lat": 38.9429235, "fusion_lon": 0.0, "fusion_lat": 0.0, "type": "electric_scooter", "name": "b654b6218b152192fed33d3c792d04a8", "is_disabled": 0, "rental_uris": {"ios": "https://dc.lft.to/lastmile_qr_scan", "android": "https://dc.lft.to/lastmile_qr_scan"}, "is_reserved": 0}, {"lon": -77.031782, "bike_id": "2068804ba7a3b3fa52a33e12f8d1bec7", "lat": 38.89198666666667, "fusion_lon": 0.0, "fusion_lat": 0.0, "type": "electric_scooter", "name": "2068804ba7a3b3fa52a33e12f8d1bec7", "is_disabled": 0, "rental_uris": {"ios": "https://dc.lft.to/lastmile_qr_scan", "android": "https://dc.lft.to/lastmile_qr_scan"}, "is_reserved": 0},