{"data": {"bikes": [{"rental_uris": {"ios": "https://dc.lft.to/lastmile_qr_scan", "android": "https://dc.lft.to/lastmile_qr_scan"}, "lon": -77.02949483333333, "type": "electric_scooter", "fusion_lat": 0.0, "lat": 38.903748, "name": "c4947e5982f4ec55f11c031e261e4fc2", "fusion_lon": 0.0, "bike_id": "c4947e5982f4ec55f11c031e261e4fc2", "is_disabled": 0, "is_reserved": 0}, {"rental_uris": {"ios": "https://dc.lft.to/lastmile_qr_scan", "android": "https://dc.lft.to/lastmile_qr_scan"}, "lon": -76.93375966666666, "type": "electric_scooter", "fusion_lat": 0.0, "lat": 38.899193333333336, "name": "372d3c5b33cf3a728b7145d0a4dffcfb", "fusion_lon": 0.0, "bike_id": "372d3c5b33cf3a728b7145d0a4dffcfb", "is_disabled": 0, "is_reserved": 0}, {"rental_uris": {"ios": "https://dc.lft.to/lastmile_qr_scan", "android": "https://dc.lft.to/lastmile_qr_scan"}, "lon": -77.0234865, "type": "electric_scooter", "fusion_lat": 0.0, "lat": 38.935335, "name": "e749a66956eaee11fa65cb2f950d4201", "fusion_lon": 0.0, "bike_id": "e749a66956eaee11fa65cb2f950d4201", "is_disabled": 0, "is_reserved": 0}, {"rental_uris": {"ios": "https://dc.lft.to/lastmile_qr_scan", "android": "https://dc.lft.to/lastmile_qr_scan"}, "lon": -77.03184416666667, "type": "electric_scooter", "fusion_lat": 0.0, "lat": 38.90421716666667, "name": "c31b7dc14aacb0c473afebe20d6fc44a", "fusion_lon": 0.0, "bike_id": "c31b7dc14aacb0c473afebe20d6fc44a", "is_disabled": 0, "is_reserved": 0}, {"rental_uris": {"ios": "https://dc.lft.to/lastmile_qr_scan", "android": "https://dc.lft.to/lastmile_qr_scan"}, "lon": -76.98992766666667, "type": "electric_bike", "fusion_lat": 0.0, "lat": 38.91230266666667, "name": "5de4a3df634131a1e2f54a1baea34bf2", "fusion_lon": 0.0, "bike_id": "5de4a3df634131a1e2f54a1baea34bf2", "is_disabled": 0, "is_reserved": 0}, {"rental_uris": {"ios": "https://dc.lft.to/lastmile_qr_scan", "android": "https://dc.lft.to/lastmile_qr_scan"}, "lon": -77.02454183333333, "type": "electric_scooter", "fusion_lat": 0.0, "lat": 38.897278166666666, "name": "c207458f4a349928c765b428658226cb", "fusion_lon": 0.0, "bike_id": "c207458f4a349928c765b428658226cb", "is_disabled": 0, "is_reserved": 0}, {"rental_uris": {"ios": "https://dc.lft.to/lastmile_qr_scan", "android": "https://dc.lft.to/lastmile_qr_scan"}, "lon": -77.00652166666667, "type": "electric_scooter", "fusion_lat": 0.0, "lat": 38.90861866666667, "name": "cdceb4e0e497b7472dc9d82d9cdb0473", "fusion_lon": 0.0, "bike_id": "cdceb4e0e497b7472dc9d82d9cdb0473", "is_disabled": 0, "is_reserved": 0}, {"rental_uris": {"ios": "https://dc.lft.to/lastmile_qr_scan", "android": "https://dc.lft.to/lastmile_qr_scan"}, "lon": -77.19907233333333, "type": "electric_bike", "fusion_lat": 0.0, "lat": 38.87528266666666, "name": "115c4f0ce73151ee16915795a8082661", "fusion_lon": 0.0, "bike_id": "115c4f0ce73151ee16915795a8082661", "is_disabled": 0, "is_reserved": 0}, {"rental_uris": {"ios": "https://dc.lft.to/lastmile_qr_scan", "android": "https://dc.lft.to/lastmile_qr_scan"}, "lon": -77.035687, "type": "electric_scooter", "fusion_lat": 0.0, "lat": 38.91631683333333, "name": "1c6207687a81acd4a5517edb25bd47e7", "fusion_lon": 0.0, "bike_id": "1c6207687a81acd4a5517edb25bd47e7", "is_disabled": 0, "is_reserved": 0}, {"rental_uris": {"ios": "https://dc.lft.to/lastmile_qr_scan", "android": "https://dc.lft.to/lastmile_qr_scan"}, "lon": -77.1499375, "type": "electric_bike", "fusion_lat": 0.0, "lat": 39.094654166666665, "name": "8bb136b577e36a453cc39bcde83df3de", "fusion_lon": 0.0, "bike_id": "8bb136b577e36a453cc39bcde83df3de", "is_disabled": 0, "is_reserved": 0}, {"rental_uris": {"ios": "https://dc.lft.to/lastmile_qr_scan", "android": "https://dc.lft.to/lastmile_qr_scan"}, "lon": -77.02390216666667, "type": "electric_scooter", "fusion_lat": 0.0, "lat": 38.915901833333336, "name": "d1a66cc1f54c2686383c8b6bb143dca3", "fusion_lon": 0.0, "bike_id": "d1a66cc1f54c2686383c8b6bb143dca3", "is_disabled": 0, "is_reserved": 0}, {"rental_uris": {"ios": "https://dc.lft.to/lastmile_qr_scan", "android": "https://dc.lft.to/lastmile_qr_scan"}, "lon": -77.00937216666667, "type": "electric_scooter", "fusion_lat": 0.0, "lat": 38.87631416666667, "name": "90087934736b7011e9b1c7d032167976", "fusion_lon": 0.0, "bike_id": "90087934736b7011e9b1c7d032167976", "is_disabled": 0, "is_reserved": 0}, {"rental_uris": {"ios": "https://dc.lft.to/lastmile_qr_scan", "android": "https://dc.lft.to/lastmile_qr_scan"}, "lon": -76.94621633333334, "type": "electric_bike", "fusion_lat": 0.0, "lat": 38.832342, "name": "40ee545c8b1a367819deb54807a1a439", "fusion_lon": 0.0, "bike_id": "40ee545c8b1a367819deb54807a1a439", "is_disabled": 0, "is_reserved": 0}, {"rental_uris": {"ios": "https://dc.lft.to/lastmile_qr_scan", "android": "https://dc.lft.to/lastmile_qr_scan"}, "lon": -77.0036275, "type": "electric_scooter", "fusion_lat": 0.0, "lat": 38.87772416666667, "name": "3f742bd3db02466f51b291edf6f2e5bf", "fusion_lon": 0.0, "bike_id": "3f742bd3db02466f51b291edf6f2e5bf", "is_disabled": 0, "is_reserved": 0}, {"rental_uris": {"ios": "https://dc.lft.to/lastmile_qr_scan", "android": "https://dc.lft.to/lastmile_qr_scan"}, "lon": -77.000498, "type": "electric_scooter", "fusion_lat": 0.0, "lat": 38.90879566666667, "name": "3672a7b75add441a817cccf85b5ff37f", "fusion_lon": 0.0, "bike_id": "3672a7b75add441a817cccf85b5ff37f", "is_disabled": 0, "is_reserved": 0}, {"rental_uris": {"ios": "https://dc.lft.to/lastmile_qr_scan", "android": "https://dc.lft.to/lastmile_qr_scan"}, "lon": -77.04365, "type": "electric_scooter", "fusion_lat": 0.0, "lat": 38.933376, "name": "8be22f19476fd1f6fc26ec7161086948", "fusion_lon": 0.0, "bike_id": "8be22f19476fd1f6fc26ec7161086948", "is_disabled": 0, "is_reserved": 0}, {"rental_uris": {"ios": "https://dc.lft.to/lastmile_qr_scan", "android": "https://dc.lft.to/lastmile_qr_scan"}, "lon": -77.04016666666666, "type": "electric_scooter", "fusion_lat": 0.0, "lat": 38.9037485, "name": "7a492bf70bb96935161b2e323da7edac", "fusion_lon": 0.0, "bike_id": "7a492bf70bb96935161b2e323da7edac", "is_disabled": 0, "is_reserved": 0}, {"rental_uris": {"ios": "https://dc.lft.to/lastmile_qr_scan", "android": "https://dc.lft.to/lastmile_qr_scan"}, "lon": -77.05462116666666, "type": "electric_scooter", "fusion_lat": 0.0, "lat": 38.896731833333334, "name": "37e74c40821eb3737f11f94d7e756e9a", "fusion_lon": 0.0, "bike_id": "37e74c40821eb3737f11f94d7e756e9a", "is_disabled": 0, "is_reserved": 0}, {"rental_uris": {"ios": "https://dc.lft.to/lastmile_qr_scan", "android": "https://dc.lft.to/lastmile_qr_scan"}, "lon": -77.02582166666667, "type": "electric_scooter", "fusion_lat": 0.0, "lat": 38.88366583333333, "name": "71d4eb1d96ba123f857d4c5a664ff9bf", "fusion_lon": 0.0, "bike_id": "71d4eb1d96ba123f857d4c5a664ff9bf", "is_disabled": 0, "is_reserved": 0}, {"rental_uris": {"ios": "https://dc.lft.to/lastmile_qr_scan", "android": "https://dc.lft.to/lastmile_qr_scan"}, "lon": -77.00711183333334, "type": "electric_scooter", "fusion_lat": 0.0, "lat": 38.88491633333334, "name": "9a5da484dcbfd5f77eed805060afb459", "fusion_lon": 0.0, "bike_id": "9a5da484dcbfd5f77eed805060afb459", "is_disabled": 0, "is_reserved": 0}, {"rental_uris": {"ios": "https://dc.lft.to/lastmile_qr_scan", "android": "https://dc.lft.to/lastmile_qr_scan"}, "lon": -76.9759455, "type": "electric_scooter", "fusion_lat": 0.0, "lat": 38.90329416666667, "name": "8dacf4aebb01ba3a1edb8c37bd3aaf0f", "fusion_lon": 0.0, "bike_id": "8dacf4aebb01ba3a1edb8c37bd3aaf0f", "is_disabled": 0, "is_reserved": 0}, {"rental_uris": {"ios": "https://dc.lft.to/lastmile_qr_scan", "android": "https://dc.lft.to/lastmile_qr_scan"}, "lon": -77.02674533333334, "type": "electric_scooter", "fusion_lat": 0.0, "lat": 38.899976, "name": "bd2f92136776b8d1e87932ac785da5fd", "fusion_lon": 0.0, "bike_id": "bd2f92136776b8d1e87932ac785da5fd", "is_disabled": 0, "is_reserved": 0}, {"rental_uris": {"ios": "https://dc.lft.to/lastmile_qr_scan", "android": "https://dc.lft.to/lastmile_qr_scan"}, "lon": -77.04537683333334, "type": "electric_scooter", "fusion_lat": 0.0, "lat": 38.919391833333336, "name": "54223a0655230d584f8200757db4526e", "fusion_lon": 0.0, "bike_id": "54223a0655230d584f8200757db4526e", "is_disabled": 0, "is_reserved": 0}, {"rental_uris": {"ios": "https://dc.lft.to/lastmile_qr_scan", "android": "https://dc.lft.to/lastmile_qr_scan"}, "lon": -77.008885, "type": "electric_scooter", "fusion_lat": 0.0, "lat": 38.92307916666667, "name": "1bcee147778cf2dfaab26be5a07d8722", "fusion_lon": 0.0, "bike_id": "1bcee147778cf2dfaab26be5a07d8722", "is_disabled": 0, "is_reserved": 0}, {"rental_uris": {"ios": "https://dc.lft.to/lastmile_qr_scan", "android": "https://dc.lft.to/lastmile_qr_scan"}, "lon": -77.02201166666667, "type": "electric_scooter", "fusion_lat": 0.0, "lat": 38.88048366666666, "name": "db90b25597c821ab30276f29dac77db7", "fusion_lon": 0.0, "bike_id": "db90b25597c821ab30276f29dac77db7", "is_disabled": 0, "is_reserved": 0}, {"rental_uris": {"ios": "https://dc.lft.to/lastmile_qr_scan", "android": "https://dc.lft.to/lastmile_qr_scan"}, "lon": -77.042143, "type": "electric_scooter", "fusion_lat": 0.0, "lat": 38.92312066666667, "name": "8c6c5fd6dd89c604a8974d05a2ed088c", "fusion_lon": 0.0, "bike_id": "8c6c5fd6dd89c604a8974d05a2ed088c", "is_disabled": 0, "is_reserved": 0}, {"rental_uris": {"ios": "https://dc.lft.to/lastmile_qr_scan", "android": "https://dc.lft.to/lastmile_qr_scan"}, "lon": -76.9732755, "type": "electric_bike", "fusion_lat": 0.0, "lat": 38.85066533333333, "name": "428970c3599eb2cb91af43571630cb37", "fusion_lon": 0.0, "bike_id": "428970c3599eb2cb91af43571630cb37", "is_disabled": 0, "is_reserved": 0}, {"rental_uris": {"ios": "https://dc.lft.to/lastmile_qr_scan", "android": "https://dc.lft.to/lastmile_qr_scan"}, "lon": -77.03970116666666, "type": "electric_scooter", "fusion_lat": 0.0, "lat": 38.90248316666667, "name": "4dd188f9c61fce55554c6a0d35c78c80", "fusion_lon": 0.0, "bike_id": "4dd188f9c61fce55554c6a0d35c78c80", "is_disabled": 0, "is_reserved": 0}, {"rental_uris": {"ios": "https://dc.lft.to/lastmile_qr_scan", "android": "https://dc.lft.to/lastmile_qr_scan"}, "lon": -77.00584433333333, "type": "electric_scooter", "fusion_lat": 0.0, "lat": 38.9039945, "name": "d8fb89aef460133fe9b0843aae7fa247", "fusion_lon": 0.0, "bike_id": "d8fb89aef460133fe9b0843aae7fa247", "is_disabled": 0, "is_reserved": 0}, {"rental_uris": {"ios": "https://dc.lft.to/lastmile_qr_scan", "android": "https://dc.lft.to/lastmile_qr_scan"}, "lon": -77.0257875, "type": "electric_scooter", "fusion_lat": 0.0, "lat": 38.918175166666664, "name": "59762d89033f0f852d9fb68002a059e9", "fusion_lon": 0.0, "bike_id": "59762d89033f0f852d9fb68002a059e9", "is_disabled": 0, "is_reserved": 0}, {"rental_uris": {"ios": "https://dc.lft.to/lastmile_qr_scan", "android": "https://dc.lft.to/lastmile_qr_scan"}, "lon": -77.0528325, "type": "electric_scooter", "fusion_lat": 0.0, "lat": 38.91009666666667, "name": "a06a9b82b5936defa71ea43e5e999360", "fusion_lon": 0.0, "bike_id": "a06a9b82b5936defa71ea43e5e999360", "is_disabled": 0, "is_reserved": 0}, {"rental_uris": {"ios": "https://dc.lft.to/lastmile_qr_scan", "android": "https://dc.lft.to/lastmile_qr_scan"}, "lon": -77.04171366666667, "type": "electric_scooter", "fusion_lat": 0.0, "lat": 38.91768916666667, "name": "746b8d966b1a276dc2ba23ba060ea489", "fusion_lon": 0.0, "bike_id": "746b8d966b1a276dc2ba23ba060ea489", "is_disabled": 0, "is_reserved": 0}, {"rental_uris": {"ios": "https://dc.lft.to/lastmile_qr_scan", "android": "https://dc.lft.to/lastmile_qr_scan"}, "lon": -77.02453933333334, "type": "electric_scooter", "fusion_lat": 0.0, "lat": 38.979378833333335, "name": "91c1561be100398eaf66861dfd5fed4b", "fusion_lon": 0.0, "bike_id": "91c1561be100398eaf66861dfd5fed4b", "is_disabled": 0, "is_reserved": 0}, {"rental_uris": {"ios": "https://dc.lft.to/lastmile_qr_scan", "android": "https://dc.lft.to/lastmile_qr_scan"}, "lon": -77.03224666666667, "type": "electric_scooter", "fusion_lat": 0.0, "lat": 38.91815066666667, "name": "67e46adea30bf476889deb1a80887dc1", "fusion_lon": 0.0, "bike_id": "67e46adea30bf476889deb1a80887dc1", "is_disabled": 0, "is_reserved": 0}, {"rental_uris": {"ios": "https://dc.lft.to/lastmile_qr_scan", "android": "https://dc.lft.to/lastmile_qr_scan"}, "lon": -77.0362735, "type": "electric_scooter", "fusion_lat": 0.0, "lat": 38.956439333333336, "name": "6c20cdd97a1367766df062423764b26d", "fusion_lon": 0.0, "bike_id": "6c20cdd97a1367766df062423764b26d", "is_disabled": 0, "is_reserved": 0}, {"rental_uris": {"ios": "https://dc.lft.to/lastmile_qr_scan", "android": "https://dc.lft.to/lastmile_qr_scan"}, "lon": -77.025773, "type": "electric_scooter", "fusion_lat": 0.0, "lat": 38.880813, "name": "2e4471348cd4256a9d5e1b2d19e51b5a", "fusion_lon": 0.0, "bike_id": "2e4471348cd4256a9d5e1b2d19e51b5a", "is_disabled": 0, "is_reserved": 0}, {"rental_uris": {"ios": "https://dc.lft.to/lastmile_qr_scan", "android": "https://dc.lft.to/lastmile_qr_scan"}, "lon": -77.048996, "type": "electric_scooter", "fusion_lat": 0.0, "lat": 38.89002033333333, "name": "5f09c0d63e05437e8264f2ce7b2cd2e8", "fusion_lon": 0.0, "bike_id": "5f09c0d63e05437e8264f2ce7b2cd2e8", "is_disabled": 0, "is_reserved": 0}, {"rental_uris": {"ios": "https://dc.lft.to/lastmile_qr_scan", "android": "https://dc.lft.to/lastmile_qr_scan"}, "lon": -76.99945466666667, "type": "electric_scooter", "fusion_lat": 0.0, "lat": 38.842917666666665, "name": "8449c3b65428d711b0f66a519de5cbee", "fusion_lon": 0.0, "bike_id": "8449c3b65428d711b0f66a519de5cbee", "is_disabled": 0, "is_reserved": 0}, {"rental_uris": {"ios": "https://dc.lft.to/lastmile_qr_scan", "android": "https://dc.lft.to/lastmile_qr_scan"}, "lon": -76.99181483333334, "type": "electric_scooter", "fusion_lat": 0.0, "lat": 38.90452883333333, "name": "482989bd750bfd4bf3e448b7e0368901", "fusion_lon": 0.0, "bike_id": "482989bd750bfd4bf3e448b7e0368901", "is_disabled": 0, "is_reserved": 0}, {"rental_uris": {"ios": "https://dc.lft.to/lastmile_qr_scan", "android": "https://dc.lft.to/lastmile_qr_scan"}, "lon": -76.90813083333333, "type": "electric_bike", "fusion_lat": 0.0, "lat": 39.002485, "name": "68e2b70c583e73da741b1c2caf77a93a", "fusion_lon": 0.0, "bike_id": "68e2b70c583e73da741b1c2caf77a93a", "is_disabled": 0, "is_reserved": 0}, {"rental_uris": {"ios": "https://dc.lft.to/lastmile_qr_scan", "android": "https://dc.lft.to/lastmile_qr_scan"}, "lon": -77.11214783333334, "type": "electric_bike", "fusion_lat": 0.0, "lat": 38.82878016666667, "name": "d9b20c261cb41c73dbea80769b3d854b", "fusion_lon": 0.0, "bike_id": "d9b20c261cb41c73dbea80769b3d854b", "is_disabled": 0, "is_reserved": 0}, {"rental_uris": {"ios": "https://dc.lft.to/lastmile_qr_scan", "android": "https://dc.lft.to/lastmile_qr_scan"}, "lon": -77.02403633333333, "type": "electric_scooter", "fusion_lat": 0.0, "lat": 38.915700666666666, "name": "12780d3f02cb59dac6e014f8d0d4b16c", "fusion_lon": 0.0, "bike_id": "12780d3f02cb59dac6e014f8d0d4b16c", "is_disabled": 0, "is_reserved": 0}, {"rental_uris": {"ios": "https://dc.lft.to/lastmile_qr_scan", "android": "https://dc.lft.to/lastmile_qr_scan"}, "lon": -77.024863, "type": "electric_scooter", "fusion_lat": 0.0, "lat": 38.93756966666667, "name": "a19329184609a299e494c4111f9432cb", "fusion_lon": 0.0, "bike_id": "a19329184609a299e494c4111f9432cb", "is_disabled": 0, "is_reserved": 0}, {"rental_uris": {"ios": "https://dc.lft.to/lastmile_qr_scan", "android": "https://dc.lft.to/lastmile_qr_scan"}, "lon": -77.02974966666666, "type": "electric_bike", "fusion_lat": 0.0, "lat": 38.92442033333333, "name": "dfdd42a1815b9d858ff6f28d15decd6b", "fusion_lon": 0.0, "bike_id": "dfdd42a1815b9d858ff6f28d15decd6b", "is_disabled": 0, "is_reserved": 0}, {"rental_uris": {"ios": "https://dc.lft.to/lastmile_qr_scan", "android": "https://dc.lft.to/lastmile_qr_scan"}, "lon": -77.02686433333334, "type": "electric_bike", "fusion_lat": 0.0, "lat": 38.911382, "name": "78213f9de0167a44729550868b433f63", "fusion_lon": 0.0, "bike_id": "78213f9de0167a44729550868b433f63", "is_disabled": 0, "is_reserved": 0}, {"rental_uris": {"ios": "https://dc.lft.to/lastmile_qr_scan", "android": "https://dc.lft.to/lastmile_qr_scan"}, "lon": -77.05510066666666, "type": "electric_scooter", "fusion_lat": 0.0, "lat": 38.92841116666666, "name": "91d5fa57fabfdd7688e3d6235b1e5a96", "fusion_lon": 0.0, "bike_id": "91d5fa57fabfdd7688e3d6235b1e5a96", "is_disabled": 0, "is_reserved": 0}, {"rental_uris": {"ios": "https://dc.lft.to/lastmile_qr_scan", "android": "https://dc.lft.to/lastmile_qr_scan"}, "lon": -77.0697905, "type": "electric_bike", "fusion_lat": 0.0, "lat": 38.952731166666666, "name": "6561072c5e839e3369ca72b5c9f758f0", "fusion_lon": 0.0, "bike_id": "6561072c5e839e3369ca72b5c9f758f0", "is_disabled": 0, "is_reserved": 0}, {"rental_uris": {"ios": "https://dc.lft.to/lastmile_qr_scan", "android": "https://dc.lft.to/lastmile_qr_scan"}, "lon": -77.07164516666667, "type": "electric_scooter", "fusion_lat": 0.0, "lat": 38.914535, "name": "1fe9fa79c609e3a46b617487e7d2f427", "fusion_lon": 0.0, "bike_id": "1fe9fa79c609e3a46b617487e7d2f427", "is_disabled": 0, "is_reserved": 0}, {"rental_uris": {"ios": "https://dc.lft.to/lastmile_qr_scan", "android": "https://dc.lft.to/lastmile_qr_scan"}, "lon": -77.0161345, "type": "electric_scooter", "fusion_lat": 0.0, "lat": 38.90658916666667, "name": "fd1e5ac3a5c5aad538e1b7dc668aab3b", "fusion_lon": 0.0, "bike_id": "fd1e5ac3a5c5aad538e1b7dc668aab3b", "is_disabled": 0, "is_reserved": 0}, {"rental_uris": {"ios": "https://dc.lft.to/lastmile_qr_scan", "android": "https://dc.lft.to/lastmile_qr_scan"}, "lon": -77.05903733333334, "type": "electric_scooter", "fusion_lat": 0.0, "lat": 38.900853166666664, "name": "7191060d958172b1ba0b6d0bfedc8366", "fusion_lon": 0.0, "bike_id": "7191060d958172b1ba0b6d0bfedc8366", "is_disabled": 0, "is_reserved": 0}, {"rental_uris": {"ios": "https://dc.lft.to/lastmile_qr_scan", "android": "https://dc.lft.to/lastmile_qr_scan"}, "lon": -77.03263216666667, "type": "electric_scooter", "fusion_lat": 0.0, "lat": 38.934469, "name": "e46eff5d8697f9efced624886284466c", "fusion_lon": 0.0, "bike_id": "e46eff5d8697f9efced624886284466c", "is_disabled": 0, "is_reserved": 0}, {"rental_uris": {"ios": "https://dc.lft.to/lastmile_qr_scan", "android": "https://dc.lft.to/lastmile_qr_scan"}, "lon": -77.04443666666667, "type": "electric_scooter", "fusion_lat": 0.0, "lat": 38.905761166666665, "name": "e69bb862a6e60c36c78cdc56c150362a", "fusion_lon": 0.0, "bike_id": "e69bb862a6e60c36c78cdc56c150362a", "is_disabled": 0, "is_reserved": 0}, {"rental_uris": {"ios": "https://dc.lft.to/lastmile_qr_scan", "android": "https://dc.lft.to/lastmile_qr_scan"}, "lon": -77.0233255, "type": "electric_scooter", "fusion_lat": 0.0, "lat": 38.8847415, "name": "08e10816c74660d430885ae1a8fdbc62", "fusion_lon": 0.0, "bike_id": "08e10816c74660d430885ae1a8fdbc62", "is_disabled": 0, "is_reserved": 0}, {"rental_uris": {"ios": "https://dc.lft.to/lastmile_qr_scan", "android": "https://dc.lft.to/lastmile_qr_scan"}, "lon": -77.03070166666667, "type": "electric_scooter", "fusion_lat": 0.0, "lat": 38.899707, "name": "64e29904f349c7f920cef2455d392121", "fusion_lon": 0.0, "bike_id": "64e29904f349c7f920cef2455d392121", "is_disabled": 0, "is_reserved": 0}, {"rental_uris": {"ios": "https://dc.lft.to/lastmile_qr_scan", "android": "https://dc.lft.to/lastmile_qr_scan"}, "lon": -77.009187, "type": "electric_scooter", "fusion_lat": 0.0, "lat": 38.87349533333333, "name": "f0b0d1a2a50a5cff38ac5fb531c84ec5", "fusion_lon": 0.0, "bike_id": "f0b0d1a2a50a5cff38ac5fb531c84ec5", "is_disabled": 0, "is_reserved": 0}, {"rental_uris": {"ios": "https://dc.lft.to/lastmile_qr_scan", "android": "https://dc.lft.to/lastmile_qr_scan"}, "lon": -76.98375883333334, "type": "electric_scooter", "fusion_lat": 0.0, "lat": 38.915219, "name": "9202e9b810d1841ebb844d5b7298f62c", "fusion_lon": 0.0, "bike_id": "9202e9b810d1841ebb844d5b7298f62c", "is_disabled": 0, "is_reserved": 0}, {"rental_uris": {"ios": "https://dc.lft.to/lastmile_qr_scan", "android": "https://dc.lft.to/lastmile_qr_scan"}, "lon": -77.0222405, "type": "electric_scooter", "fusion_lat": 0.0, "lat": 38.883994333333334, "name": "5695775c09e51799c67f69a2871743b0", "fusion_lon": 0.0, "bike_id": "5695775c09e51799c67f69a2871743b0", "is_disabled": 0, "is_reserved": 0}, {"rental_uris": {"ios": "https://dc.lft.to/lastmile_qr_scan", "android": "https://dc.lft.to/lastmile_qr_scan"}, "lon": -77.03213833333334, "type": "electric_scooter", "fusion_lat": 0.0, "lat": 38.91695083333333, "name": "f3f6772723ff7b4333badf64df4067e8", "fusion_lon": 0.0, "bike_id": "f3f6772723ff7b4333badf64df4067e8", "is_disabled": 0, "is_reserved": 0}, {"rental_uris": {"ios": "https://dc.lft.to/lastmile_qr_scan", "android": "https://dc.lft.to/lastmile_qr_scan"}, "lon": -77.02346766666666, "type": "electric_scooter", "fusion_lat": 0.0, "lat": 38.915531666666666, "name": "7fdc171d6c45b24b3a55b8b46bc33400", "fusion_lon": 0.0, "bike_id": "7fdc171d6c45b24b3a55b8b46bc33400", "is_disabled": 0, "is_reserved": 0}, {"rental_uris": {"ios": "https://dc.lft.to/lastmile_qr_scan", "android": "https://dc.lft.to/lastmile_qr_scan"}, "lon": -77.03198383333333, "type": "electric_scooter", "fusion_lat": 0.0, "lat": 38.92677333333334, "name": "5116d2af3e4fad8194b292bc39397873", "fusion_lon": 0.0, "bike_id": "5116d2af3e4fad8194b292bc39397873", "is_disabled": 0, "is_reserved": 0}, {"rental_uris": {"ios": "https://dc.lft.to/lastmile_qr_scan", "android": "https://dc.lft.to/lastmile_qr_scan"}, "lon": -77.03228866666667, "type": "electric_scooter", "fusion_lat": 0.0, "lat": 38.914050333333336, "name": "9dc7d6108d371e10acfad6f2d1c1de1d", "fusion_lon": 0.0, "bike_id": "9dc7d6108d371e10acfad6f2d1c1de1d", "is_disabled": 0, "is_reserved": 0}, {"rental_uris": {"ios": "https://dc.lft.to/lastmile_qr_scan", "android": "https://dc.lft.to/lastmile_qr_scan"}, "lon": -76.946283, "type": "electric_scooter", "fusion_lat": 0.0, "lat": 38.898446, "name": "fc38a38c0696455474e9b17bb6fa5f17", "fusion_lon": 0.0, "bike_id": "fc38a38c0696455474e9b17bb6fa5f17", "is_disabled": 0, "is_reserved": 0}, {"rental_uris": {"ios": "https://dc.lft.to/lastmile_qr_scan", "android": "https://dc.lft.to/lastmile_qr_scan"}, "lon": -76.908146, "type": "electric_bike", "fusion_lat": 0.0, "lat": 38.99454083333333, "name": "cd5830757bb9ef7cedd79dcb1016775b", "fusion_lon": 0.0, "bike_id": "cd5830757bb9ef7cedd79dcb1016775b", "is_disabled": 0, "is_reserved": 0}, {"rental_uris": {"ios": "https://dc.lft.to/lastmile_qr_scan", "android": "https://dc.lft.to/lastmile_qr_scan"}, "lon": -77.04257333333334, "type": "electric_scooter", "fusion_lat": 0.0, "lat": 38.922132833333336, "name": "e28f4415ef78ecfc21bdfdf164198158", "fusion_lon": 0.0, "bike_id": "e28f4415ef78ecfc21bdfdf164198158", "is_disabled": 0, "is_reserved": 0}, {"rental_uris": {"ios": "https://dc.lft.to/lastmile_qr_scan", "android": "https://dc.lft.to/lastmile_qr_scan"}, "lon": -77.06293583333333, "type": "electric_scooter", "fusion_lat": 0.0, "lat": 38.903962166666666, "name": "4c35b296bde13b461e736731f779c12c", "fusion_lon": 0.0, "bike_id": "4c35b296bde13b461e736731f779c12c", "is_disabled": 0, "is_reserved": 0}, {"rental_uris": {"ios": "https://dc.lft.to/lastmile_qr_scan", "android": "https://dc.lft.to/lastmile_qr_scan"}, "lon": -76.94077066666667, "type": "electric_bike", "fusion_lat": 0.0, "lat": 38.87596716666667, "name": "305084b31e0fe77a5c6e25fa1a11814d", "fusion_lon": 0.0, "bike_id": "305084b31e0fe77a5c6e25fa1a11814d", "is_disabled": 0, "is_reserved": 0}, {"rental_uris": {"ios": "https://dc.lft.to/lastmile_qr_scan", "android": "https://dc.lft.to/lastmile_qr_scan"}, "lon": -77.04816383333333, "type": "electric_scooter", "fusion_lat": 0.0, "lat": 38.9133385, "name": "1fcaced1e00d38bbb8bf9be2a370b16e", "fusion_lon": 0.0, "bike_id": "1fcaced1e00d38bbb8bf9be2a370b16e", "is_disabled": 0, "is_reserved": 0}, {"rental_uris": {"ios": "https://dc.lft.to/lastmile_qr_scan", "android": "https://dc.lft.to/lastmile_qr_scan"}, "lon": -77.01137333333334, "type": "electric_scooter", "fusion_lat": 0.0, "lat": 38.89545533333333, "name": "709a20956945bc4a87048f02debf5662", "fusion_lon": 0.0, "bike_id": "709a20956945bc4a87048f02debf5662", "is_disabled": 0, "is_reserved": 0}, {"rental_uris": {"ios": "https://dc.lft.to/lastmile_qr_scan", "android": "https://dc.lft.to/lastmile_qr_scan"}, "lon": -77.072337, "type": "electric_scooter", "fusion_lat": 0.0, "lat": 38.934557, "name": "51080cec126b1487bf6d7aa4faceca4b", "fusion_lon": 0.0, "bike_id": "51080cec126b1487bf6d7aa4faceca4b", "is_disabled": 0, "is_reserved": 0}, {"rental_uris": {"ios": "https://dc.lft.to/lastmile_qr_scan", "android": "https://dc.lft.to/lastmile_qr_scan"}, "lon": -77.02987016666667, "type": "electric_scooter", "fusion_lat": 0.0, "lat": 38.915501666666664, "name": "071fd2e3870a4f5fc752b4e3c721363b", "fusion_lon": 0.0, "bike_id": "071fd2e3870a4f5fc752b4e3c721363b", "is_disabled": 0, "is_reserved": 0}, {"rental_uris": {"ios": "https://dc.lft.to/lastmile_qr_scan", "android": "https://dc.lft.to/lastmile_qr_scan"}, "lon": -77.03216216666667, "type": "electric_scooter", "fusion_lat": 0.0, "lat": 38.919895, "name": "19f48ad2be3c6f473c65402fc4a89d2e", "fusion_lon": 0.0, "bike_id": "19f48ad2be3c6f473c65402fc4a89d2e", "is_disabled": 0, "is_reserved": 0}, {"rental_uris": {"ios": "https://dc.lft.to/lastmile_qr_scan", "android": "https://dc.lft.to/lastmile_qr_scan"}, "lon": -77.04168183333333, "type": "electric_scooter", "fusion_lat": 0.0, "lat": 38.91938416666667, "name": "60ea0158d9c0bd40e204b5ab57240f99", "fusion_lon": 0.0, "bike_id": "60ea0158d9c0bd40e204b5ab57240f99", "is_disabled": 0, "is_reserved": 0}, {"rental_uris": {"ios": "https://dc.lft.to/lastmile_qr_scan", "android": "https://dc.lft.to/lastmile_qr_scan"}, "lon": -77.0449765, "type": "electric_scooter", "fusion_lat": 0.0, "lat": 38.890519833333336, "name": "c69a8d79bb57529c99e81e642b61c5f6", "fusion_lon": 0.0, "bike_id": "c69a8d79bb57529c99e81e642b61c5f6", "is_disabled": 0, "is_reserved": 0}, {"rental_uris": {"ios": "https://dc.lft.to/lastmile_qr_scan", "android": "https://dc.lft.to/lastmile_qr_scan"}, "lon": -76.98515916666666, "type": "electric_scooter", "fusion_lat": 0.0, "lat": 38.90611333333333, "name": "011f856d54b5d8de74cb760b916587b6", "fusion_lon": 0.0, "bike_id": "011f856d54b5d8de74cb760b916587b6", "is_disabled": 0, "is_reserved": 0}, {"rental_uris": {"ios": "https://dc.lft.to/lastmile_qr_scan", "android": "https://dc.lft.to/lastmile_qr_scan"}, "lon": -77.015621, "type": "electric_scooter", "fusion_lat": 0.0, "lat": 38.8917505, "name": "5360a007f89dd6f14afcc78dbda5dedd", "fusion_lon": 0.0, "bike_id": "5360a007f89dd6f14afcc78dbda5dedd", "is_disabled": 0, "is_reserved": 0}, {"rental_uris": {"ios": "https://dc.lft.to/lastmile_qr_scan", "android": "https://dc.lft.to/lastmile_qr_scan"}, "lon": -77.00602783333333, "type": "electric_scooter", "fusion_lat": 0.0, "lat": 38.87717383333333, "name": "68f110338f3232dd01322bd1810c8b05", "fusion_lon": 0.0, "bike_id": "68f110338f3232dd01322bd1810c8b05", "is_disabled": 0, "is_reserved": 0}, {"rental_uris": {"ios": "https://dc.lft.to/lastmile_qr_scan", "android": "https://dc.lft.to/lastmile_qr_scan"}, "lon": -77.06612866666667, "type": "electric_scooter", "fusion_lat": 0.0, "lat": 38.9118735, "name": "9e4f577dcc6cff57b12eb659975e553d", "fusion_lon": 0.0, "bike_id": "9e4f577dcc6cff57b12eb659975e553d", "is_disabled": 0, "is_reserved": 0}, {"rental_uris": {"ios": "https://dc.lft.to/lastmile_qr_scan", "android": "https://dc.lft.to/lastmile_qr_scan"}, "lon": -77.03680766666666, "type": "electric_scooter", "fusion_lat": 0.0, "lat": 38.90571116666667, "name": "e532d04d402e72a4cc4c8cccc1a6b62e", "fusion_lon": 0.0, "bike_id": "e532d04d402e72a4cc4c8cccc1a6b62e", "is_disabled": 0, "is_reserved": 0}, {"rental_uris": {"ios": "https://dc.lft.to/lastmile_qr_scan", "android": "https://dc.lft.to/lastmile_qr_scan"}, "lon": -77.04059116666667, "type": "electric_scooter", "fusion_lat": 0.0, "lat": 38.90267016666667, "name": "2d9a10742519153bbf99a2e5b34fe47b", "fusion_lon": 0.0, "bike_id": "2d9a10742519153bbf99a2e5b34fe47b", "is_disabled": 0, "is_reserved": 0}, {"rental_uris": {"ios": "https://dc.lft.to/lastmile_qr_scan", "android": "https://dc.lft.to/lastmile_qr_scan"}, "lon": -76.9998545, "type": "electric_scooter", "fusion_lat": 0.0, "lat": 38.909372833333336, "name": "df6729adcc95e671c7703733aee6a523", "fusion_lon": 0.0, "bike_id": "df6729adcc95e671c7703733aee6a523", "is_disabled": 0, "is_reserved": 0}, {"rental_uris": {"ios": "https://dc.lft.to/lastmile_qr_scan", "android": "https://dc.lft.to/lastmile_qr_scan"}, "lon": -77.03558783333334, "type": "electric_bike", "fusion_lat": 0.0, "lat": 38.964726, "name": "6dbf856057b734b04929e4d2427928da", "fusion_lon": 0.0, "bike_id": "6dbf856057b734b04929e4d2427928da", "is_disabled": 0, "is_reserved": 0}, {"rental_uris": {"ios": "https://dc.lft.to/lastmile_qr_scan", "android": "https://dc.lft.to/lastmile_qr_scan"}, "lon": -76.9981775, "type": "electric_scooter", "fusion_lat": 0.0, "lat": 38.888688, "name": "252146844eeab02616c2db7c9dad1772", "fusion_lon": 0.0, "bike_id": "252146844eeab02616c2db7c9dad1772", "is_disabled": 0, "is_reserved": 0}, {"rental_uris": {"ios": "https://dc.lft.to/lastmile_qr_scan", "android": "https://dc.lft.to/lastmile_qr_scan"}, "lon": -77.0208805, "type": "electric_scooter", "fusion_lat": 0.0, "lat": 38.89416833333333, "name": "28293d83f5d98fab8af0bb0da4a1635b", "fusion_lon": 0.0, "bike_id": "28293d83f5d98fab8af0bb0da4a1635b", "is_disabled": 0, "is_reserved": 0}, {"rental_uris": {"ios": "https://dc.lft.to/lastmile_qr_scan", "android": "https://dc.lft.to/lastmile_qr_scan"}, "lon": -77.01775966666666, "type": "electric_scooter", "fusion_lat": 0.0, "lat": 38.88718216666667, "name": "76cf565e1a7657d83154ea88594eaa6c", "fusion_lon": 0.0, "bike_id": "76cf565e1a7657d83154ea88594eaa6c", "is_disabled": 0, "is_reserved": 0}, {"rental_uris": {"ios": "https://dc.lft.to/lastmile_qr_scan", "android": "https://dc.lft.to/lastmile_qr_scan"}, "lon": -77.02102466666666, "type": "electric_bike", "fusion_lat": 0.0, "lat": 38.89475516666667, "name": "a2589774ce8ad920b8474632d34d8b9b", "fusion_lon": 0.0, "bike_id": "a2589774ce8ad920b8474632d34d8b9b", "is_disabled": 0, "is_reserved": 0}, {"rental_uris": {"ios": "https://dc.lft.to/lastmile_qr_scan", "android": "https://dc.lft.to/lastmile_qr_scan"}, "lon": -76.98903016666667, "type": "electric_scooter", "fusion_lat": 0.0, "lat": 38.866905333333335, "name": "8a0219b606b07be9ac36d46f371dfc8e", "fusion_lon": 0.0, "bike_id": "8a0219b606b07be9ac36d46f371dfc8e", "is_disabled": 0, "is_reserved": 0}, {"rental_uris": {"ios": "https://dc.lft.to/lastmile_qr_scan", "android": "https://dc.lft.to/lastmile_qr_scan"}, "lon": -77.022904, "type": "electric_scooter", "fusion_lat": 0.0, "lat": 38.91691516666667, "name": "85150c0be06e582fbe66604cc340cf19", "fusion_lon": 0.0, "bike_id": "85150c0be06e582fbe66604cc340cf19", "is_disabled": 0, "is_reserved": 0}, {"rental_uris": {"ios": "https://dc.lft.to/lastmile_qr_scan", "android": "https://dc.lft.to/lastmile_qr_scan"}, "lon": -76.92711916666667, "type": "electric_scooter", "fusion_lat": 0.0, "lat": 38.887663833333335, "name": "825c69fbfb1b70c1640d673c35f8387c", "fusion_lon": 0.0, "bike_id": "825c69fbfb1b70c1640d673c35f8387c", "is_disabled": 0, "is_reserved": 0}, {"rental_uris": {"ios": "https://dc.lft.to/lastmile_qr_scan", "android": "https://dc.lft.to/lastmile_qr_scan"}, "lon": -77.01221383333333, "type": "electric_scooter", "fusion_lat": 0.0, "lat": 38.869744833333336, "name": "cae53e50432c2eb58927f7ece5590742", "fusion_lon": 0.0, "bike_id": "cae53e50432c2eb58927f7ece5590742", "is_disabled": 0, "is_reserved": 0}, {"rental_uris": {"ios": "https://dc.lft.to/lastmile_qr_scan", "android": "https://dc.lft.to/lastmile_qr_scan"}, "lon": -77.10782, "type": "electric_bike", "fusion_lat": 0.0, "lat": 38.89216233333333, "name": "4aa0feff5dbb8e3bcd04b3a340d0879f", "fusion_lon": 0.0, "bike_id": "4aa0feff5dbb8e3bcd04b3a340d0879f", "is_disabled": 0, "is_reserved": 0}, {"rental_uris": {"ios": "https://dc.lft.to/lastmile_qr_scan", "android": "https://dc.lft.to/lastmile_qr_scan"}, "lon": -77.01095366666667, "type": "electric_bike", "fusion_lat": 0.0, "lat": 38.90849766666667, "name": "d94f1c29edd704be94fa0014097bfbb3", "fusion_lon": 0.0, "bike_id": "d94f1c29edd704be94fa0014097bfbb3", "is_disabled": 0, "is_reserved": 0}, {"rental_uris": {"ios": "https://dc.lft.to/lastmile_qr_scan", "android": "https://dc.lft.to/lastmile_qr_scan"}, "lon": -77.06632, "type": "electric_scooter", "fusion_lat": 0.0, "lat": 38.928039, "name": "c84b53db0c4612d493affb5a8fe8ea25", "fusion_lon": 0.0, "bike_id": "c84b53db0c4612d493affb5a8fe8ea25", "is_disabled": 0, "is_reserved": 0}, {"rental_uris": {"ios": "https://dc.lft.to/lastmile_qr_scan", "android": "https://dc.lft.to/lastmile_qr_scan"}, "lon": -77.05119133333334, "type": "electric_bike", "fusion_lat": 0.0, "lat": 38.999640166666666, "name": "fd0e1181d9370b9a705cab2073691bb9", "fusion_lon": 0.0, "bike_id": "fd0e1181d9370b9a705cab2073691bb9", "is_disabled": 0, "is_reserved": 0}, {"rental_uris": {"ios": "https://dc.lft.to/lastmile_qr_scan", "android": "https://dc.lft.to/lastmile_qr_scan"}, "lon": -77.04072133333334, "type": "electric_scooter", "fusion_lat": 0.0, "lat": 38.90554066666667, "name": "7e05251d00744b1beb8250bcfe75f6b6", "fusion_lon": 0.0, "bike_id": "7e05251d00744b1beb8250bcfe75f6b6", "is_disabled": 0, "is_reserved": 0}, {"rental_uris": {"ios": "https://dc.lft.to/lastmile_qr_scan", "android": "https://dc.lft.to/lastmile_qr_scan"}, "lon": -77.03161383333334, "type": "electric_scooter", "fusion_lat": 0.0, "lat": 38.893566166666666, "name": "5774276c7b1716bfa45155d6594e5ec2", "fusion_lon": 0.0, "bike_id": "5774276c7b1716bfa45155d6594e5ec2", "is_disabled": 0, "is_reserved": 0}, {"rental_uris": {"ios": "https://dc.lft.to/lastmile_qr_scan", "android": "https://dc.lft.to/lastmile_qr_scan"}, "lon": -76.98881516666667, "type": "electric_scooter", "fusion_lat": 0.0, "lat": 38.86658116666667, "name": "242af1fbef293ff4b060157be63bf918", "fusion_lon": 0.0, "bike_id": "242af1fbef293ff4b060157be63bf918", "is_disabled": 0, "is_reserved": 0}, {"rental_uris": {"ios": "https://dc.lft.to/lastmile_qr_scan", "android": "https://dc.lft.to/lastmile_qr_scan"}, "lon": -77.023808, "type": "electric_scooter", "fusion_lat": 0.0, "lat": 38.931987666666664, "name": "4a8f943b7f337965f557db4ad530e8a0", "fusion_lon": 0.0, "bike_id": "4a8f943b7f337965f557db4ad530e8a0", "is_disabled": 0, "is_reserved": 0}, {"rental_uris": {"ios": "https://dc.lft.to/lastmile_qr_scan", "android": "https://dc.lft.to/lastmile_qr_scan"}, "lon": -77.00425116666666, "type": "electric_scooter", "fusion_lat": 0.0, "lat": 38.90396616666666, "name": "624efc912a98b765a9ffc4f193f38231", "fusion_lon": 0.0, "bike_id": "624efc912a98b765a9ffc4f193f38231", "is_disabled": 0, "is_reserved": 0}, {"rental_uris": {"ios": "https://dc.lft.to/lastmile_qr_scan", "android": "https://dc.lft.to/lastmile_qr_scan"}, "lon": -77.057891, "type": "electric_scooter", "fusion_lat": 0.0, "lat": 38.90510283333333, "name": "1b8f989dfc869b395fa37fc846e09369", "fusion_lon": 0.0, "bike_id": "1b8f989dfc869b395fa37fc846e09369", "is_disabled": 0, "is_reserved": 0}, {"rental_uris": {"ios": "https://dc.lft.to/lastmile_qr_scan", "android": "https://dc.lft.to/lastmile_qr_scan"}, "lon": -77.03020566666666, "type": "electric_scooter", "fusion_lat": 0.0, "lat": 38.897535, "name": "48aecc522394aa3743055b8d2f92ad08", "fusion_lon": 0.0, "bike_id": "48aecc522394aa3743055b8d2f92ad08", "is_disabled": 0, "is_reserved": 0}, {"rental_uris": {"ios": "https://dc.lft.to/lastmile_qr_scan", "android": "https://dc.lft.to/lastmile_qr_scan"}, "lon": -76.9382955, "type": "electric_scooter", "fusion_lat": 0.0, "lat": 38.897578833333334, "name": "31c276490629469b96fd6088669d10d3", "fusion_lon": 0.0, "bike_id": "31c276490629469b96fd6088669d10d3", "is_disabled": 0, "is_reserved": 0}, {"rental_uris": {"ios": "https://dc.lft.to/lastmile_qr_scan", "android": "https://dc.lft.to/lastmile_qr_scan"}, "lon": -77.03239383333333, "type": "electric_scooter", "fusion_lat": 0.0, "lat": 38.914345833333336, "name": "a7f460488979ec87da7a6571ae5ad76a", "fusion_lon": 0.0, "bike_id": "a7f460488979ec87da7a6571ae5ad76a", "is_disabled": 0, "is_reserved": 0}, {"rental_uris": {"ios": "https://dc.lft.to/lastmile_qr_scan", "android": "https://dc.lft.to/lastmile_qr_scan"}, "lon": -77.04415666666667, "type": "electric_scooter", "fusion_lat": 0.0, "lat": 38.92121916666667, "name": "390b6cb9017352d0126a638b915cbc6e", "fusion_lon": 0.0, "bike_id": "390b6cb9017352d0126a638b915cbc6e", "is_disabled": 0, "is_reserved": 0}, {"rental_uris": {"ios": "https://dc.lft.to/lastmile_qr_scan", "android": "https://dc.lft.to/lastmile_qr_scan"}, "lon": -77.00114516666666, "type": "electric_scooter", "fusion_lat": 0.0, "lat": 38.894333833333334, "name": "0a873e23fd0114008b88c8532c7570ec", "fusion_lon": 0.0, "bike_id": "0a873e23fd0114008b88c8532c7570ec", "is_disabled": 0, "is_reserved": 0}, {"rental_uris": {"ios": "https://dc.lft.to/lastmile_qr_scan", "android": "https://dc.lft.to/lastmile_qr_scan"}, "lon": -76.96503016666666, "type": "electric_scooter", "fusion_lat": 0.0, "lat": 38.876478666666664, "name": "ee8d1e2c9b5a57c6ca5b3685aebcbea2", "fusion_lon": 0.0, "bike_id": "ee8d1e2c9b5a57c6ca5b3685aebcbea2", "is_disabled": 0, "is_reserved": 0}, {"rental_uris": {"ios": "https://dc.lft.to/lastmile_qr_scan", "android": "https://dc.lft.to/lastmile_qr_scan"}, "lon": -77.0295855, "type": "electric_scooter", "fusion_lat": 0.0, "lat": 38.90503066666667, "name": "c2454ab0ba35abdcdc9f2d0c26f3cda8", "fusion_lon": 0.0, "bike_id": "c2454ab0ba35abdcdc9f2d0c26f3cda8", "is_disabled": 0, "is_reserved": 0}, {"rental_uris": {"ios": "https://dc.lft.to/lastmile_qr_scan", "android": "https://dc.lft.to/lastmile_qr_scan"}, "lon": -77.02796133333334, "type": "electric_scooter", "fusion_lat": 0.0, "lat": 38.924718, "name": "97f3aab25e83b7d420663859d15a12f3", "fusion_lon": 0.0, "bike_id": "97f3aab25e83b7d420663859d15a12f3", "is_disabled": 0, "is_reserved": 0}, {"rental_uris": {"ios": "https://dc.lft.to/lastmile_qr_scan", "android": "https://dc.lft.to/lastmile_qr_scan"}, "lon": -76.99900083333333, "type": "electric_scooter", "fusion_lat": 0.0, "lat": 38.9094495, "name": "953ef8f9f75b554098c47c9668fd08ae", "fusion_lon": 0.0, "bike_id": "953ef8f9f75b554098c47c9668fd08ae", "is_disabled": 0, "is_reserved": 0}, {"rental_uris": {"ios": "https://dc.lft.to/lastmile_qr_scan", "android": "https://dc.lft.to/lastmile_qr_scan"}, "lon": -76.933682, "type": "electric_scooter", "fusion_lat": 0.0, "lat": 38.899159, "name": "f0aaf08261bf176c6ec721ecc87af7e0", "fusion_lon": 0.0, "bike_id": "f0aaf08261bf176c6ec721ecc87af7e0", "is_disabled": 0, "is_reserved": 0}, {"rental_uris": {"ios": "https://dc.lft.to/lastmile_qr_scan", "android": "https://dc.lft.to/lastmile_qr_scan"}, "lon": -77.00597466666666, "type": "electric_scooter", "fusion_lat": 0.0, "lat": 38.906348, "name": "041352e31d83aa0e5b373edb0cbfa677", "fusion_lon": 0.0, "bike_id": "041352e31d83aa0e5b373edb0cbfa677", "is_disabled": 0, "is_reserved": 0}, {"rental_uris": {"ios": "https://dc.lft.to/lastmile_qr_scan", "android": "https://dc.lft.to/lastmile_qr_scan"}, "lon": -77.04668183333334, "type": "electric_scooter", "fusion_lat": 0.0, "lat": 38.90955183333333, "name": "8d47020e5afe6d479ab06ae9004eea34", "fusion_lon": 0.0, "bike_id": "8d47020e5afe6d479ab06ae9004eea34", "is_disabled": 0, "is_reserved": 0}, {"rental_uris": {"ios": "https://dc.lft.to/lastmile_qr_scan", "android": "https://dc.lft.to/lastmile_qr_scan"}, "lon": -76.99505966666666, "type": "electric_scooter", "fusion_lat": 0.0, "lat": 38.88310083333333, "name": "01843ce8c5eec59a78b3c20c8218c604", "fusion_lon": 0.0, "bike_id": "01843ce8c5eec59a78b3c20c8218c604", "is_disabled": 0, "is_reserved": 0}, {"rental_uris": {"ios": "https://dc.lft.to/lastmile_qr_scan", "android": "https://dc.lft.to/lastmile_qr_scan"}, "lon": -76.93646433333333, "type": "electric_scooter", "fusion_lat": 0.0, "lat": 38.8899935, "name": "e8e38066a84fccb89a8c578d6b166b56", "fusion_lon": 0.0, "bike_id": "e8e38066a84fccb89a8c578d6b166b56", "is_disabled": 0, "is_reserved": 0}, {"rental_uris": {"ios": "https://dc.lft.to/lastmile_qr_scan", "android": "https://dc.lft.to/lastmile_qr_scan"}, "lon": -77.0636225, "type": "electric_scooter", "fusion_lat": 0.0, "lat": 38.909290666666664, "name": "af2ee0014c1c79384934d5e9fe447494", "fusion_lon": 0.0, "bike_id": "af2ee0014c1c79384934d5e9fe447494", "is_disabled": 0, "is_reserved": 0}, {"rental_uris": {"ios": "https://dc.lft.to/lastmile_qr_scan", "android": "https://dc.lft.to/lastmile_qr_scan"}, "lon": -77.03141883333333, "type": "electric_scooter", "fusion_lat": 0.0, "lat": 38.92003866666667, "name": "f410260406eb56bc473ed10e6d1fbdb3", "fusion_lon": 0.0, "bike_id": "f410260406eb56bc473ed10e6d1fbdb3", "is_disabled": 0, "is_reserved": 0}, {"rental_uris": {"ios": "https://dc.lft.to/lastmile_qr_scan", "android": "https://dc.lft.to/lastmile_qr_scan"}, "lon": -77.042603, "type": "electric_scooter", "fusion_lat": 0.0, "lat": 38.90574266666667, "name": "d270604265a794dddc9689fa85517c22", "fusion_lon": 0.0, "bike_id": "d270604265a794dddc9689fa85517c22", "is_disabled": 0, "is_reserved": 0}, {"rental_uris": {"ios": "https://dc.lft.to/lastmile_qr_scan", "android": "https://dc.lft.to/lastmile_qr_scan"}, "lon": -77.02953583333333, "type": "electric_scooter", "fusion_lat": 0.0, "lat": 38.91666933333333, "name": "13608f9de87998f16de4a78cd1310db6", "fusion_lon": 0.0, "bike_id": "13608f9de87998f16de4a78cd1310db6", "is_disabled": 0, "is_reserved": 0}, {"rental_uris": {"ios": "https://dc.lft.to/lastmile_qr_scan", "android": "https://dc.lft.to/lastmile_qr_scan"}, "lon": -77.03828783333333, "type": "electric_scooter", "fusion_lat": 0.0, "lat": 38.916961, "name": "7b2a2760d4a30636b24109fefd55995c", "fusion_lon": 0.0, "bike_id": "7b2a2760d4a30636b24109fefd55995c", "is_disabled": 0, "is_reserved": 0}, {"rental_uris": {"ios": "https://dc.lft.to/lastmile_qr_scan", "android": "https://dc.lft.to/lastmile_qr_scan"}, "lon": -77.02233833333334, "type": "electric_scooter", "fusion_lat": 0.0, "lat": 38.914228, "name": "eea613dad747c887fe41970800bf5d83", "fusion_lon": 0.0, "bike_id": "eea613dad747c887fe41970800bf5d83", "is_disabled": 0, "is_reserved": 0}, {"rental_uris": {"ios": "https://dc.lft.to/lastmile_qr_scan", "android": "https://dc.lft.to/lastmile_qr_scan"}, "lon": -77.041627, "type": "electric_scooter", "fusion_lat": 0.0, "lat": 38.9151475, "name": "6b3e39537def15afd3d706e9e70ff277", "fusion_lon": 0.0, "bike_id": "6b3e39537def15afd3d706e9e70ff277", "is_disabled": 0, "is_reserved": 0}, {"rental_uris": {"ios": "https://dc.lft.to/lastmile_qr_scan", "android": "https://dc.lft.to/lastmile_qr_scan"}, "lon": -77.00560183333333, "type": "electric_scooter", "fusion_lat": 0.0, "lat": 38.87174366666667, "name": "6065a2b8fd232fb5b569da3251e57c81", "fusion_lon": 0.0, "bike_id": "6065a2b8fd232fb5b569da3251e57c81", "is_disabled": 0, "is_reserved": 0}, {"rental_uris": {"ios": "https://dc.lft.to/lastmile_qr_scan", "android": "https://dc.lft.to/lastmile_qr_scan"}, "lon": -77.04439716666667, "type": "electric_scooter", "fusion_lat": 0.0, "lat": 38.918718166666665, "name": "55798983ebc705ae08de287544106d7b", "fusion_lon": 0.0, "bike_id": "55798983ebc705ae08de287544106d7b", "is_disabled": 0, "is_reserved": 0}, {"rental_uris": {"ios": "https://dc.lft.to/lastmile_qr_scan", "android": "https://dc.lft.to/lastmile_qr_scan"}, "lon": -77.04002916666667, "type": "electric_scooter", "fusion_lat": 0.0, "lat": 38.918186166666665, "name": "775a953a06f9e3e32f92a4ccb0a75389", "fusion_lon": 0.0, "bike_id": "775a953a06f9e3e32f92a4ccb0a75389", "is_disabled": 0, "is_reserved": 0}, {"rental_uris": {"ios": "https://dc.lft.to/lastmile_qr_scan", "android": "https://dc.lft.to/lastmile_qr_scan"}, "lon": -77.043713, "type": "electric_scooter", "fusion_lat": 0.0, "lat": 38.92091383333333, "name": "6ceadbf7874e1eab5faba7cad8e72e74", "fusion_lon": 0.0, "bike_id": "6ceadbf7874e1eab5faba7cad8e72e74", "is_disabled": 0, "is_reserved": 0}, {"rental_uris": {"ios": "https://dc.lft.to/lastmile_qr_scan", "android": "https://dc.lft.to/lastmile_qr_scan"}, "lon": -77.10962033333334, "type": "electric_bike", "fusion_lat": 0.0, "lat": 38.8130175, "name": "d0fc3f75e81534f70d738efb51f88e38", "fusion_lon": 0.0, "bike_id": "d0fc3f75e81534f70d738efb51f88e38", "is_disabled": 0, "is_reserved": 0}, {"rental_uris": {"ios": "https://dc.lft.to/lastmile_qr_scan", "android": "https://dc.lft.to/lastmile_qr_scan"}, "lon": -76.9732655, "type": "electric_scooter", "fusion_lat": 0.0, "lat": 38.904828, "name": "71bd9ff3ae0013293eef134646243abd", "fusion_lon": 0.0, "bike_id": "71bd9ff3ae0013293eef134646243abd", "is_disabled": 0, "is_reserved": 0}, {"rental_uris": {"ios": "https://dc.lft.to/lastmile_qr_scan", "android": "https://dc.lft.to/lastmile_qr_scan"}, "lon": -77.05805766666667, "type": "electric_scooter", "fusion_lat": 0.0, "lat": 38.902954333333334, "name": "e947116b0e7bc718a71c27a8970f39a5", "fusion_lon": 0.0, "bike_id": "e947116b0e7bc718a71c27a8970f39a5", "is_disabled": 0, "is_reserved": 0}, {"rental_uris": {"ios": "https://dc.lft.to/lastmile_qr_scan", "android": "https://dc.lft.to/lastmile_qr_scan"}, "lon": -76.99147733333334, "type": "electric_scooter", "fusion_lat": 0.0, "lat": 38.8934475, "name": "b3e8ec0b715dda0cfd233505486904cb", "fusion_lon": 0.0, "bike_id": "b3e8ec0b715dda0cfd233505486904cb", "is_disabled": 0, "is_reserved": 0}, {"rental_uris": {"ios": "https://dc.lft.to/lastmile_qr_scan", "android": "https://dc.lft.to/lastmile_qr_scan"}, "lon": -77.00861266666666, "type": "electric_bike", "fusion_lat": 0.0, "lat": 38.827327, "name": "0623685e3183ca6165e4bc72ca2a85db", "fusion_lon": 0.0, "bike_id": "0623685e3183ca6165e4bc72ca2a85db", "is_disabled": 0, "is_reserved": 0}, {"rental_uris": {"ios": "https://dc.lft.to/lastmile_qr_scan", "android": "https://dc.lft.to/lastmile_qr_scan"}, "lon": -77.06752233333333, "type": "electric_scooter", "fusion_lat": 0.0, "lat": 38.9036295, "name": "8e168fdb1d124011fe42c1716b74f4ec", "fusion_lon": 0.0, "bike_id": "8e168fdb1d124011fe42c1716b74f4ec", "is_disabled": 0, "is_reserved": 0}, {"rental_uris": {"ios": "https://dc.lft.to/lastmile_qr_scan", "android": "https://dc.lft.to/lastmile_qr_scan"}, "lon": -77.02203883333334, "type": "electric_scooter", "fusion_lat": 0.0, "lat": 38.89489716666667, "name": "3921cd78de4b5758b9ba6d9bc7a75efb", "fusion_lon": 0.0, "bike_id": "3921cd78de4b5758b9ba6d9bc7a75efb", "is_disabled": 0, "is_reserved": 0}, {"rental_uris": {"ios": "https://dc.lft.to/lastmile_qr_scan", "android": "https://dc.lft.to/lastmile_qr_scan"}, "lon": -76.94891083333333, "type": "electric_scooter", "fusion_lat": 0.0, "lat": 38.89528716666667, "name": "eb28538f02aca7579d7e01ba7a20151c", "fusion_lon": 0.0, "bike_id": "eb28538f02aca7579d7e01ba7a20151c", "is_disabled": 0, "is_reserved": 0}, {"rental_uris": {"ios": "https://dc.lft.to/lastmile_qr_scan", "android": "https://dc.lft.to/lastmile_qr_scan"}, "lon": -77.035417, "type": "electric_scooter", "fusion_lat": 0.0, "lat": 38.924134, "name": "19298e97ac6a6f7f8ee02d35ea2d4c7d", "fusion_lon": 0.0, "bike_id": "19298e97ac6a6f7f8ee02d35ea2d4c7d", "is_disabled": 0, "is_reserved": 0}, {"rental_uris": {"ios": "https://dc.lft.to/lastmile_qr_scan", "android": "https://dc.lft.to/lastmile_qr_scan"}, "lon": -76.9855435, "type": "electric_scooter", "fusion_lat": 0.0, "lat": 38.85588383333333, "name": "e246c97080c5143351923c068ef52f0e", "fusion_lon": 0.0, "bike_id": "e246c97080c5143351923c068ef52f0e", "is_disabled": 0, "is_reserved": 0}, {"rental_uris": {"ios": "https://dc.lft.to/lastmile_qr_scan", "android": "https://dc.lft.to/lastmile_qr_scan"}, "lon": -77.05508883333333, "type": "electric_scooter", "fusion_lat": 0.0, "lat": 38.929744166666666, "name": "2cc0892913a885269cffff087c51dfe2", "fusion_lon": 0.0, "bike_id": "2cc0892913a885269cffff087c51dfe2", "is_disabled": 0, "is_reserved": 0}, {"rental_uris": {"ios": "https://dc.lft.to/lastmile_qr_scan", "android": "https://dc.lft.to/lastmile_qr_scan"}, "lon": -77.070651, "type": "electric_scooter", "fusion_lat": 0.0, "lat": 38.95221016666667, "name": "b2f4b2ab31f9d417ab320740e2459649", "fusion_lon": 0.0, "bike_id": "b2f4b2ab31f9d417ab320740e2459649", "is_disabled": 0, "is_reserved": 0}, {"rental_uris": {"ios": "https://dc.lft.to/lastmile_qr_scan", "android": "https://dc.lft.to/lastmile_qr_scan"}, "lon": -77.00740766666667, "type": "electric_scooter", "fusion_lat": 0.0, "lat": 38.90364866666667, "name": "a0bfa5ac4b97f4077fda55599fca8dac", "fusion_lon": 0.0, "bike_id": "a0bfa5ac4b97f4077fda55599fca8dac", "is_disabled": 0, "is_reserved": 0}, {"rental_uris": {"ios": "https://dc.lft.to/lastmile_qr_scan", "android": "https://dc.lft.to/lastmile_qr_scan"}, "lon": -77.0203645, "type": "electric_scooter", "fusion_lat": 0.0, "lat": 38.92409816666667, "name": "21b23525abd48cb1f1b332c6ad931022", "fusion_lon": 0.0, "bike_id": "21b23525abd48cb1f1b332c6ad931022", "is_disabled": 0, "is_reserved": 0}, {"rental_uris": {"ios": "https://dc.lft.to/lastmile_qr_scan", "android": "https://dc.lft.to/lastmile_qr_scan"}, "lon": -77.0448905, "type": "electric_scooter", "fusion_lat": 0.0, "lat": 38.9195095, "name": "61b05732fca210b00a494630fd51be6f", "fusion_lon": 0.0, "bike_id": "61b05732fca210b00a494630fd51be6f", "is_disabled": 0, "is_reserved": 0}, {"rental_uris": {"ios": "https://dc.lft.to/lastmile_qr_scan", "android": "https://dc.lft.to/lastmile_qr_scan"}, "lon": -77.04190983333334, "type": "electric_scooter", "fusion_lat": 0.0, "lat": 38.90343983333333, "name": "f41832412022a112ee7af4c7a7d5199a", "fusion_lon": 0.0, "bike_id": "f41832412022a112ee7af4c7a7d5199a", "is_disabled": 0, "is_reserved": 0}, {"rental_uris": {"ios": "https://dc.lft.to/lastmile_qr_scan", "android": "https://dc.lft.to/lastmile_qr_scan"}, "lon": -77.02850066666667, "type": "electric_scooter", "fusion_lat": 0.0, "lat": 38.8962475, "name": "94a2786a54a316d5ef8995000b96cd9f", "fusion_lon": 0.0, "bike_id": "94a2786a54a316d5ef8995000b96cd9f", "is_disabled": 0, "is_reserved": 0}, {"rental_uris": {"ios": "https://dc.lft.to/lastmile_qr_scan", "android": "https://dc.lft.to/lastmile_qr_scan"}, "lon": -77.047149, "type": "electric_scooter", "fusion_lat": 0.0, "lat": 38.92238366666667, "name": "94ec2d81d658ebbd74558ab14eb1b049", "fusion_lon": 0.0, "bike_id": "94ec2d81d658ebbd74558ab14eb1b049", "is_disabled": 0, "is_reserved": 0}, {"rental_uris": {"ios": "https://dc.lft.to/lastmile_qr_scan", "android": "https://dc.lft.to/lastmile_qr_scan"}, "lon": -76.98999466666666, "type": "electric_scooter", "fusion_lat": 0.0, "lat": 38.865074166666666, "name": "ea2029514856020afaca2801bcdb55b7", "fusion_lon": 0.0, "bike_id": "ea2029514856020afaca2801bcdb55b7", "is_disabled": 0, "is_reserved": 0}, {"rental_uris": {"ios": "https://dc.lft.to/lastmile_qr_scan", "android": "https://dc.lft.to/lastmile_qr_scan"}, "lon": -77.01946583333333, "type": "electric_scooter", "fusion_lat": 0.0, "lat": 38.924164166666664, "name": "b84d488f23a4b6d07fb1128318fbbab5", "fusion_lon": 0.0, "bike_id": "b84d488f23a4b6d07fb1128318fbbab5", "is_disabled": 0, "is_reserved": 0}, {"rental_uris": {"ios": "https://dc.lft.to/lastmile_qr_scan", "android": "https://dc.lft.to/lastmile_qr_scan"}, "lon": -77.04651283333334, "type": "electric_scooter", "fusion_lat": 0.0, "lat": 38.892273333333335, "name": "0752dbcf5d3d320d89a6bd49539ad15b", "fusion_lon": 0.0, "bike_id": "0752dbcf5d3d320d89a6bd49539ad15b", "is_disabled": 0, "is_reserved": 0}, {"rental_uris": {"ios": "https://dc.lft.to/lastmile_qr_scan", "android": "https://dc.lft.to/lastmile_qr_scan"}, "lon": -77.017593, "type": "electric_scooter", "fusion_lat": 0.0, "lat": 38.885877, "name": "87aa597b009b1bb32d4765a51d8717b5", "fusion_lon": 0.0, "bike_id": "87aa597b009b1bb32d4765a51d8717b5", "is_disabled": 0, "is_reserved": 0}, {"rental_uris": {"ios": "https://dc.lft.to/lastmile_qr_scan", "android": "https://dc.lft.to/lastmile_qr_scan"}, "lon": -77.0156765, "type": "electric_bike", "fusion_lat": 0.0, "lat": 38.9394985, "name": "95d845964a8ff971d3897ec58ed7be10", "fusion_lon": 0.0, "bike_id": "95d845964a8ff971d3897ec58ed7be10", "is_disabled": 0, "is_reserved": 0}, {"rental_uris": {"ios": "https://dc.lft.to/lastmile_qr_scan", "android": "https://dc.lft.to/lastmile_qr_scan"}, "lon": -77.02526283333333, "type": "electric_scooter", "fusion_lat": 0.0, "lat": 38.94303, "name": "140e2085a48268d1393e3eec42fefbe2", "fusion_lon": 0.0, "bike_id": "140e2085a48268d1393e3eec42fefbe2", "is_disabled": 0, "is_reserved": 0}, {"rental_uris": {"ios": "https://dc.lft.to/lastmile_qr_scan", "android": "https://dc.lft.to/lastmile_qr_scan"}, "lon": -77.07246616666667, "type": "electric_scooter", "fusion_lat": 0.0, "lat": 38.9337345, "name": "9205c08e1924df3619accd3d0fee5d55", "fusion_lon": 0.0, "bike_id": "9205c08e1924df3619accd3d0fee5d55", "is_disabled": 0, "is_reserved": 0}, {"rental_uris": {"ios": "https://dc.lft.to/lastmile_qr_scan", "android": "https://dc.lft.to/lastmile_qr_scan"}, "lon": -77.00337283333333, "type": "electric_scooter", "fusion_lat": 0.0, "lat": 38.907161333333335, "name": "3e1bc370e6f809831be2c511b361ca55", "fusion_lon": 0.0, "bike_id": "3e1bc370e6f809831be2c511b361ca55", "is_disabled": 0, "is_reserved": 0}, {"rental_uris": {"ios": "https://dc.lft.to/lastmile_qr_scan", "android": "https://dc.lft.to/lastmile_qr_scan"}, "lon": -77.02634966666666, "type": "electric_scooter", "fusion_lat": 0.0, "lat": 38.93041983333333, "name": "2664a444be9b0d1d1d8dfa46af9ca54f", "fusion_lon": 0.0, "bike_id": "2664a444be9b0d1d1d8dfa46af9ca54f", "is_disabled": 0, "is_reserved": 0}, {"rental_uris": {"ios": "https://dc.lft.to/lastmile_qr_scan", "android": "https://dc.lft.to/lastmile_qr_scan"}, "lon": -77.040406, "type": "electric_scooter", "fusion_lat": 0.0, "lat": 38.9247015, "name": "c381111dbe688d1c51412f086cd9b3e2", "fusion_lon": 0.0, "bike_id": "c381111dbe688d1c51412f086cd9b3e2", "is_disabled": 0, "is_reserved": 0}, {"rental_uris": {"ios": "https://dc.lft.to/lastmile_qr_scan", "android": "https://dc.lft.to/lastmile_qr_scan"}, "lon": -77.04619633333333, "type": "electric_scooter", "fusion_lat": 0.0, "lat": 38.9163075, "name": "4c0fc1add8388184e537bdcf94301654", "fusion_lon": 0.0, "bike_id": "4c0fc1add8388184e537bdcf94301654", "is_disabled": 0, "is_reserved": 0}, {"rental_uris": {"ios": "https://dc.lft.to/lastmile_qr_scan", "android": "https://dc.lft.to/lastmile_qr_scan"}, "lon": -76.95447116666666, "type": "electric_bike", "fusion_lat": 0.0, "lat": 38.920942, "name": "27e58f192f80dc6779a2db89e0ba5e99", "fusion_lon": 0.0, "bike_id": "27e58f192f80dc6779a2db89e0ba5e99", "is_disabled": 0, "is_reserved": 0}, {"rental_uris": {"ios": "https://dc.lft.to/lastmile_qr_scan", "android": "https://dc.lft.to/lastmile_qr_scan"}, "lon": -77.0721085, "type": "electric_scooter", "fusion_lat": 0.0, "lat": 38.93460966666667, "name": "273b23b56de62d882f9bf5da0efea090", "fusion_lon": 0.0, "bike_id": "273b23b56de62d882f9bf5da0efea090", "is_disabled": 0, "is_reserved": 0}, {"rental_uris": {"ios": "https://dc.lft.to/lastmile_qr_scan", "android": "https://dc.lft.to/lastmile_qr_scan"}, "lon": -77.026097, "type": "electric_scooter", "fusion_lat": 0.0, "lat": 38.91673683333333, "name": "927adbc8d142ac289ea317a7ee779b6a", "fusion_lon": 0.0, "bike_id": "927adbc8d142ac289ea317a7ee779b6a", "is_disabled": 0, "is_reserved": 0}, {"rental_uris": {"ios": "https://dc.lft.to/lastmile_qr_scan", "android": "https://dc.lft.to/lastmile_qr_scan"}, "lon": -77.0591945, "type": "electric_scooter", "fusion_lat": 0.0, "lat": 38.9045265, "name": "df2f7049b02ac2abd92a68816a0af1bf", "fusion_lon": 0.0, "bike_id": "df2f7049b02ac2abd92a68816a0af1bf", "is_disabled": 0, "is_reserved": 0}, {"rental_uris": {"ios": "https://dc.lft.to/lastmile_qr_scan", "android": "https://dc.lft.to/lastmile_qr_scan"}, "lon": -76.98021633333333, "type": "electric_scooter", "fusion_lat": 0.0, "lat": 38.887673166666666, "name": "dd55a13d97fcfeb94445238e1fe34bf2", "fusion_lon": 0.0, "bike_id": "dd55a13d97fcfeb94445238e1fe34bf2", "is_disabled": 0, "is_reserved": 0}, {"rental_uris": {"ios": "https://dc.lft.to/lastmile_qr_scan", "android": "https://dc.lft.to/lastmile_qr_scan"}, "lon": -76.99544466666667, "type": "electric_scooter", "fusion_lat": 0.0, "lat": 38.926688166666665, "name": "800fe1f42512061e54eb9c83de7647fa", "fusion_lon": 0.0, "bike_id": "800fe1f42512061e54eb9c83de7647fa", "is_disabled": 0, "is_reserved": 0}, {"rental_uris": {"ios": "https://dc.lft.to/lastmile_qr_scan", "android": "https://dc.lft.to/lastmile_qr_scan"}, "lon": -77.01392283333334, "type": "electric_scooter", "fusion_lat": 0.0, "lat": 38.970131, "name": "a916dbd4370364127ad46b33fcc583c7", "fusion_lon": 0.0, "bike_id": "a916dbd4370364127ad46b33fcc583c7", "is_disabled": 0, "is_reserved": 0}, {"rental_uris": {"ios": "https://dc.lft.to/lastmile_qr_scan", "android": "https://dc.lft.to/lastmile_qr_scan"}, "lon": -76.98565883333333, "type": "electric_scooter", "fusion_lat": 0.0, "lat": 38.89204433333333, "name": "e72b108a2c2e55efa64b282e23317504", "fusion_lon": 0.0, "bike_id": "e72b108a2c2e55efa64b282e23317504", "is_disabled": 0, "is_reserved": 0}, {"rental_uris": {"ios": "https://dc.lft.to/lastmile_qr_scan", "android": "https://dc.lft.to/lastmile_qr_scan"}, "lon": -77.02212883333333, "type": "electric_scooter", "fusion_lat": 0.0, "lat": 38.915496, "name": "9ec1c3ada4b85abd90888adfc3580dc1", "fusion_lon": 0.0, "bike_id": "9ec1c3ada4b85abd90888adfc3580dc1", "is_disabled": 0, "is_reserved": 0}, {"rental_uris": {"ios": "https://dc.lft.to/lastmile_qr_scan", "android": "https://dc.lft.to/lastmile_qr_scan"}, "lon": -77.10088483333334, "type": "electric_bike", "fusion_lat": 0.0, "lat": 38.95958183333333, "name": "6ce666046db773c1ed9e2e1bc5fbb906", "fusion_lon": 0.0, "bike_id": "6ce666046db773c1ed9e2e1bc5fbb906", "is_disabled": 0, "is_reserved": 0}, {"rental_uris": {"ios": "https://dc.lft.to/lastmile_qr_scan", "android": "https://dc.lft.to/lastmile_qr_scan"}, "lon": -76.98494983333333, "type": "electric_scooter", "fusion_lat": 0.0, "lat": 38.86046133333333, "name": "9d9e2473935f1a781013fe15b829c4f6", "fusion_lon": 0.0, "bike_id": "9d9e2473935f1a781013fe15b829c4f6", "is_disabled": 0, "is_reserved": 0}, {"rental_uris": {"ios": "https://dc.lft.to/lastmile_qr_scan", "android": "https://dc.lft.to/lastmile_qr_scan"}, "lon": -76.995104, "type": "electric_scooter", "fusion_lat": 0.0, "lat": 38.84472066666667, "name": "4ff94f7885aa0e5f330b253d98efc800", "fusion_lon": 0.0, "bike_id": "4ff94f7885aa0e5f330b253d98efc800", "is_disabled": 0, "is_reserved": 0}, {"rental_uris": {"ios": "https://dc.lft.to/lastmile_qr_scan", "android": "https://dc.lft.to/lastmile_qr_scan"}, "lon": -77.0517225, "type": "electric_scooter", "fusion_lat": 0.0, "lat": 38.92419833333334, "name": "28f56970d7940c0e7bdf84d907165741", "fusion_lon": 0.0, "bike_id": "28f56970d7940c0e7bdf84d907165741", "is_disabled": 0, "is_reserved": 0}, {"rental_uris": {"ios": "https://dc.lft.to/lastmile_qr_scan", "android": "https://dc.lft.to/lastmile_qr_scan"}, "lon": -77.05502983333334, "type": "electric_scooter", "fusion_lat": 0.0, "lat": 38.92976183333333, "name": "f26be3154ddec6be8f833f38ebf54f6c", "fusion_lon": 0.0, "bike_id": "f26be3154ddec6be8f833f38ebf54f6c", "is_disabled": 0, "is_reserved": 0}, {"rental_uris": {"ios": "https://dc.lft.to/lastmile_qr_scan", "android": "https://dc.lft.to/lastmile_qr_scan"}, "lon": -77.04999266666667, "type": "electric_scooter", "fusion_lat": 0.0, "lat": 38.89227016666667, "name": "3d1b321804487434dfb46250c335d21e", "fusion_lon": 0.0, "bike_id": "3d1b321804487434dfb46250c335d21e", "is_disabled": 0, "is_reserved": 0}, {"rental_uris": {"ios": "https://dc.lft.to/lastmile_qr_scan", "android": "https://dc.lft.to/lastmile_qr_scan"}, "lon": -76.97888166666667, "type": "electric_scooter", "fusion_lat": 0.0, "lat": 38.9042125, "name": "b6e569426aa1ffeb8ac5b3a19215520c", "fusion_lon": 0.0, "bike_id": "b6e569426aa1ffeb8ac5b3a19215520c", "is_disabled": 0, "is_reserved": 0}, {"rental_uris": {"ios": "https://dc.lft.to/lastmile_qr_scan", "android": "https://dc.lft.to/lastmile_qr_scan"}, "lon": -77.0331765, "type": "electric_scooter", "fusion_lat": 0.0, "lat": 38.89752033333333, "name": "cabe81865d09f3a6ae9be9e1d38307a6", "fusion_lon": 0.0, "bike_id": "cabe81865d09f3a6ae9be9e1d38307a6", "is_disabled": 0, "is_reserved": 0}, {"rental_uris": {"ios": "https://dc.lft.to/lastmile_qr_scan", "android": "https://dc.lft.to/lastmile_qr_scan"}, "lon": -76.98836816666666, "type": "electric_bike", "fusion_lat": 0.0, "lat": 38.84268933333333, "name": "31afd6ebaa666c77db5438dd4b7d51eb", "fusion_lon": 0.0, "bike_id": "31afd6ebaa666c77db5438dd4b7d51eb", "is_disabled": 0, "is_reserved": 0}, {"rental_uris": {"ios": "https://dc.lft.to/lastmile_qr_scan", "android": "https://dc.lft.to/lastmile_qr_scan"}, "lon": -77.0386305, "type": "electric_scooter", "fusion_lat": 0.0, "lat": 38.904063666666666, "name": "ffc420d942157aea5d3c507485496726", "fusion_lon": 0.0, "bike_id": "ffc420d942157aea5d3c507485496726", "is_disabled": 0, "is_reserved": 0}, {"rental_uris": {"ios": "https://dc.lft.to/lastmile_qr_scan", "android": "https://dc.lft.to/lastmile_qr_scan"}, "lon": -77.00127083333334, "type": "electric_bike", "fusion_lat": 0.0, "lat": 38.95870816666667, "name": "5736492cf345993ee856e717a347c106", "fusion_lon": 0.0, "bike_id": "5736492cf345993ee856e717a347c106", "is_disabled": 0, "is_reserved": 0}, {"rental_uris": {"ios": "https://dc.lft.to/lastmile_qr_scan", "android": "https://dc.lft.to/lastmile_qr_scan"}, "lon": -77.01506283333333, "type": "electric_scooter", "fusion_lat": 0.0, "lat": 38.87212533333334, "name": "c5d729514f8ca96e4a714b80a53b27f2", "fusion_lon": 0.0, "bike_id": "c5d729514f8ca96e4a714b80a53b27f2", "is_disabled": 0, "is_reserved": 0}, {"rental_uris": {"ios": "https://dc.lft.to/lastmile_qr_scan", "android": "https://dc.lft.to/lastmile_qr_scan"}, "lon": -77.02612016666667, "type": "electric_scooter", "fusion_lat": 0.0, "lat": 38.9171145, "name": "8620735324cba27c4f420e377fb040eb", "fusion_lon": 0.0, "bike_id": "8620735324cba27c4f420e377fb040eb", "is_disabled": 0, "is_reserved": 0}, {"rental_uris": {"ios": "https://dc.lft.to/lastmile_qr_scan", "android": "https://dc.lft.to/lastmile_qr_scan"}, "lon": -77.00205066666666, "type": "electric_scooter", "fusion_lat": 0.0, "lat": 38.899839, "name": "4dfeaa69eda47044cb1984cfa9d7528c", "fusion_lon": 0.0, "bike_id": "4dfeaa69eda47044cb1984cfa9d7528c", "is_disabled": 0, "is_reserved": 0}, {"rental_uris": {"ios": "https://dc.lft.to/lastmile_qr_scan", "android": "https://dc.lft.to/lastmile_qr_scan"}, "lon": -77.031713, "type": "electric_scooter", "fusion_lat": 0.0, "lat": 38.893564166666664, "name": "afc86f2becef5cbfb49daf79ad65239c", "fusion_lon": 0.0, "bike_id": "afc86f2becef5cbfb49daf79ad65239c", "is_disabled": 0, "is_reserved": 0}, {"rental_uris": {"ios": "https://dc.lft.to/lastmile_qr_scan", "android": "https://dc.lft.to/lastmile_qr_scan"}, "lon": -77.014327, "type": "electric_scooter", "fusion_lat": 0.0, "lat": 38.9299055, "name": "f421b552b657d64623b0e725a686f8fe", "fusion_lon": 0.0, "bike_id": "f421b552b657d64623b0e725a686f8fe", "is_disabled": 0, "is_reserved": 0}, {"rental_uris": {"ios": "https://dc.lft.to/lastmile_qr_scan", "android": "https://dc.lft.to/lastmile_qr_scan"}, "lon": -77.02502833333334, "type": "electric_scooter", "fusion_lat": 0.0, "lat": 38.90168466666667, "name": "fb200ee0850b87988d7c1147b773e076", "fusion_lon": 0.0, "bike_id": "fb200ee0850b87988d7c1147b773e076", "is_disabled": 0, "is_reserved": 0}, {"rental_uris": {"ios": "https://dc.lft.to/lastmile_qr_scan", "android": "https://dc.lft.to/lastmile_qr_scan"}, "lon": -77.01638116666666, "type": "electric_scooter", "fusion_lat": 0.0, "lat": 38.929300833333336, "name": "5bf739cd29a581dd95afe3d129dfe264", "fusion_lon": 0.0, "bike_id": "5bf739cd29a581dd95afe3d129dfe264", "is_disabled": 0, "is_reserved": 0}, {"rental_uris": {"ios": "https://dc.lft.to/lastmile_qr_scan", "android": "https://dc.lft.to/lastmile_qr_scan"}, "lon": -77.03504366666667, "type": "electric_scooter", "fusion_lat": 0.0, "lat": 38.90672766666667, "name": "a89a7659ebddb83188d1c20bde16c62d", "fusion_lon": 0.0, "bike_id": "a89a7659ebddb83188d1c20bde16c62d", "is_disabled": 0, "is_reserved": 0}, {"rental_uris": {"ios": "https://dc.lft.to/lastmile_qr_scan", "android": "https://dc.lft.to/lastmile_qr_scan"}, "lon": -77.02774283333333, "type": "electric_scooter", "fusion_lat": 0.0, "lat": 38.896989833333336, "name": "81532bdf11d4e963f39f2b54b54117d8", "fusion_lon": 0.0, "bike_id": "81532bdf11d4e963f39f2b54b54117d8", "is_disabled": 0, "is_reserved": 0}, {"rental_uris": {"ios": "https://dc.lft.to/lastmile_qr_scan", "android": "https://dc.lft.to/lastmile_qr_scan"}, "lon": -77.059946, "type": "electric_scooter", "fusion_lat": 0.0, "lat": 38.90532366666667, "name": "e7a91aa5c07f34b16366d7229a9b8a05", "fusion_lon": 0.0, "bike_id": "e7a91aa5c07f34b16366d7229a9b8a05", "is_disabled": 0, "is_reserved": 0}, {"rental_uris": {"ios": "https://dc.lft.to/lastmile_qr_scan", "android": "https://dc.lft.to/lastmile_qr_scan"}, "lon": -77.02240866666666, "type": "electric_scooter", "fusion_lat": 0.0, "lat": 38.91645916666667, "name": "c04b61a54aaf57f27e936d60650d5c0a", "fusion_lon": 0.0, "bike_id": "c04b61a54aaf57f27e936d60650d5c0a", "is_disabled": 0, "is_reserved": 0}, {"rental_uris": {"ios": "https://dc.lft.to/lastmile_qr_scan", "android": "https://dc.lft.to/lastmile_qr_scan"}, "lon": -77.04279333333334, "type": "electric_scooter", "fusion_lat": 0.0, "lat": 38.9079585, "name": "831466df48163d84334a8ec56ce32dd9", "fusion_lon": 0.0, "bike_id": "831466df48163d84334a8ec56ce32dd9", "is_disabled": 0, "is_reserved": 0}, {"rental_uris": {"ios": "https://dc.lft.to/lastmile_qr_scan", "android": "https://dc.lft.to/lastmile_qr_scan"}, "lon": -77.06322966666667, "type": "electric_scooter", "fusion_lat": 0.0, "lat": 38.9052395, "name": "1fe0d016bd1625955f58f630fd5b930e", "fusion_lon": 0.0, "bike_id": "1fe0d016bd1625955f58f630fd5b930e", "is_disabled": 0, "is_reserved": 0}, {"rental_uris": {"ios": "https://dc.lft.to/lastmile_qr_scan", "android": "https://dc.lft.to/lastmile_qr_scan"}, "lon": -77.02200083333334, "type": "electric_scooter", "fusion_lat": 0.0, "lat": 38.9142245, "name": "40484943696bb2e4e1c360940f69c7d8", "fusion_lon": 0.0, "bike_id": "40484943696bb2e4e1c360940f69c7d8", "is_disabled": 0, "is_reserved": 0}, {"rental_uris": {"ios": "https://dc.lft.to/lastmile_qr_scan", "android": "https://dc.lft.to/lastmile_qr_scan"}, "lon": -77.0005565, "type": "electric_scooter", "fusion_lat": 0.0, "lat": 38.908814666666665, "name": "7df0c2a15e137297caca634e1fe1b801", "fusion_lon": 0.0, "bike_id": "7df0c2a15e137297caca634e1fe1b801", "is_disabled": 0, "is_reserved": 0}, {"rental_uris": {"ios": "https://dc.lft.to/lastmile_qr_scan", "android": "https://dc.lft.to/lastmile_qr_scan"}, "lon": -77.00849866666667, "type": "electric_scooter", "fusion_lat": 0.0, "lat": 38.905331333333336, "name": "dfb56f128b5e51fa653bfe77b442f4ad", "fusion_lon": 0.0, "bike_id": "dfb56f128b5e51fa653bfe77b442f4ad", "is_disabled": 0, "is_reserved": 0}, {"rental_uris": {"ios": "https://dc.lft.to/lastmile_qr_scan", "android": "https://dc.lft.to/lastmile_qr_scan"}, "lon": -76.9518295, "type": "electric_scooter", "fusion_lat": 0.0, "lat": 38.891351666666665, "name": "c44560d414d0704ae22d2e6656a56087", "fusion_lon": 0.0, "bike_id": "c44560d414d0704ae22d2e6656a56087", "is_disabled": 0, "is_reserved": 0}, {"rental_uris": {"ios": "https://dc.lft.to/lastmile_qr_scan", "android": "https://dc.lft.to/lastmile_qr_scan"}, "lon": -77.0344015, "type": "electric_scooter", "fusion_lat": 0.0, "lat": 38.9287345, "name": "162d6bd70ca3e51a95778d2ab3864c0e", "fusion_lon": 0.0, "bike_id": "162d6bd70ca3e51a95778d2ab3864c0e", "is_disabled": 0, "is_reserved": 0}, {"rental_uris": {"ios": "https://dc.lft.to/lastmile_qr_scan", "android": "https://dc.lft.to/lastmile_qr_scan"}, "lon": -77.01342916666667, "type": "electric_bike", "fusion_lat": 0.0, "lat": 38.99995333333333, "name": "6f5c964fcf35c6848ab51f8079ab9cc3", "fusion_lon": 0.0, "bike_id": "6f5c964fcf35c6848ab51f8079ab9cc3", "is_disabled": 0, "is_reserved": 0}, {"rental_uris": {"ios": "https://dc.lft.to/lastmile_qr_scan", "android": "https://dc.lft.to/lastmile_qr_scan"}, "lon": -77.01098466666667, "type": "electric_scooter", "fusion_lat": 0.0, "lat": 38.90351616666667, "name": "bbe1f88c41f438de680d3dc6957ea43c", "fusion_lon": 0.0, "bike_id": "bbe1f88c41f438de680d3dc6957ea43c", "is_disabled": 0, "is_reserved": 0}, {"rental_uris": {"ios": "https://dc.lft.to/lastmile_qr_scan", "android": "https://dc.lft.to/lastmile_qr_scan"}, "lon": -77.02544766666666, "type": "electric_scooter", "fusion_lat": 0.0, "lat": 38.8923325, "name": "520291b7d9454e1352a99cb97c84b9ca", "fusion_lon": 0.0, "bike_id": "520291b7d9454e1352a99cb97c84b9ca", "is_disabled": 0, "is_reserved": 0}, {"rental_uris": {"ios": "https://dc.lft.to/lastmile_qr_scan", "android": "https://dc.lft.to/lastmile_qr_scan"}, "lon": -77.0080225, "type": "electric_scooter", "fusion_lat": 0.0, "lat": 38.88334116666667, "name": "3392cac7961bb1d3f6fc47d7be389662", "fusion_lon": 0.0, "bike_id": "3392cac7961bb1d3f6fc47d7be389662", "is_disabled": 0, "is_reserved": 0}, {"rental_uris": {"ios": "https://dc.lft.to/lastmile_qr_scan", "android": "https://dc.lft.to/lastmile_qr_scan"}, "lon": -77.00056183333334, "type": "electric_scooter", "fusion_lat": 0.0, "lat": 38.88898183333333, "name": "a3efa1e70a5b45956403a26a3a16a5bd", "fusion_lon": 0.0, "bike_id": "a3efa1e70a5b45956403a26a3a16a5bd", "is_disabled": 0, "is_reserved": 0}, {"rental_uris": {"ios": "https://dc.lft.to/lastmile_qr_scan", "android": "https://dc.lft.to/lastmile_qr_scan"}, "lon": -77.04096816666667, "type": "electric_scooter", "fusion_lat": 0.0, "lat": 38.91773166666667, "name": "60a516bca24737ddb61eaee03ceb9991", "fusion_lon": 0.0, "bike_id": "60a516bca24737ddb61eaee03ceb9991", "is_disabled": 0, "is_reserved": 0}, {"rental_uris": {"ios": "https://dc.lft.to/lastmile_qr_scan", "android": "https://dc.lft.to/lastmile_qr_scan"}, "lon": -77.022042, "type": "electric_scooter", "fusion_lat": 0.0, "lat": 38.89490933333333, "name": "26db52ca2609b4692c06ba6d78f7991a", "fusion_lon": 0.0, "bike_id": "26db52ca2609b4692c06ba6d78f7991a", "is_disabled": 0, "is_reserved": 0}, {"rental_uris": {"ios": "https://dc.lft.to/lastmile_qr_scan", "android": "https://dc.lft.to/lastmile_qr_scan"}, "lon": -77.02099583333333, "type": "electric_scooter", "fusion_lat": 0.0, "lat": 38.88741733333333, "name": "3e27a9beb024162793a80086f36da746", "fusion_lon": 0.0, "bike_id": "3e27a9beb024162793a80086f36da746", "is_disabled": 0, "is_reserved": 0}, {"rental_uris": {"ios": "https://dc.lft.to/lastmile_qr_scan", "android": "https://dc.lft.to/lastmile_qr_scan"}, "lon": -76.98837366666666, "type": "electric_scooter", "fusion_lat": 0.0, "lat": 38.894667166666665, "name": "da3b25fae3e3da8f93f3f3550d3afc15", "fusion_lon": 0.0, "bike_id": "da3b25fae3e3da8f93f3f3550d3afc15", "is_disabled": 0, "is_reserved": 0}, {"rental_uris": {"ios": "https://dc.lft.to/lastmile_qr_scan", "android": "https://dc.lft.to/lastmile_qr_scan"}, "lon": -77.03131, "type": "electric_scooter", "fusion_lat": 0.0, "lat": 38.92371683333333, "name": "434da965973d8a0fec0c9615e5bf94e9", "fusion_lon": 0.0, "bike_id": "434da965973d8a0fec0c9615e5bf94e9", "is_disabled": 0, "is_reserved": 0}, {"rental_uris": {"ios": "https://dc.lft.to/lastmile_qr_scan", "android": "https://dc.lft.to/lastmile_qr_scan"}, "lon": -77.02650033333333, "type": "electric_scooter", "fusion_lat": 0.0, "lat": 38.93863866666667, "name": "965f630e5aec3f7a1c1543aba54b326a", "fusion_lon": 0.0, "bike_id": "965f630e5aec3f7a1c1543aba54b326a", "is_disabled": 0, "is_reserved": 0}, {"rental_uris": {"ios": "https://dc.lft.to/lastmile_qr_scan", "android": "https://dc.lft.to/lastmile_qr_scan"}, "lon": -77.016923, "type": "electric_scooter", "fusion_lat": 0.0, "lat": 38.92035833333333, "name": "54ee7f7d1adaedf790359c0020b32115", "fusion_lon": 0.0, "bike_id": "54ee7f7d1adaedf790359c0020b32115", "is_disabled": 0, "is_reserved": 0}, {"rental_uris": {"ios": "https://dc.lft.to/lastmile_qr_scan", "android": "https://dc.lft.to/lastmile_qr_scan"}, "lon": -77.0320135, "type": "electric_scooter", "fusion_lat": 0.0, "lat": 38.91750183333333, "name": "01c58f6b481b09a2cf61700d57ceb75e", "fusion_lon": 0.0, "bike_id": "01c58f6b481b09a2cf61700d57ceb75e", "is_disabled": 0, "is_reserved": 0}, {"rental_uris": {"ios": "https://dc.lft.to/lastmile_qr_scan", "android": "https://dc.lft.to/lastmile_qr_scan"}, "lon": -76.9998315, "type": "electric_scooter", "fusion_lat": 0.0, "lat": 38.908177, "name": "f018eb7fbbf9b7b2fbf130c17c0f52f7", "fusion_lon": 0.0, "bike_id": "f018eb7fbbf9b7b2fbf130c17c0f52f7", "is_disabled": 0, "is_reserved": 0}, {"rental_uris": {"ios": "https://dc.lft.to/lastmile_qr_scan", "android": "https://dc.lft.to/lastmile_qr_scan"}, "lon": -77.01292683333334, "type": "electric_scooter", "fusion_lat": 0.0, "lat": 38.90057133333333, "name": "ce2bc55773e01a2eb78d0df8cc6c2c07", "fusion_lon": 0.0, "bike_id": "ce2bc55773e01a2eb78d0df8cc6c2c07", "is_disabled": 0, "is_reserved": 0}, {"rental_uris": {"ios": "https://dc.lft.to/lastmile_qr_scan", "android": "https://dc.lft.to/lastmile_qr_scan"}, "lon": -77.04568466666667, "type": "electric_scooter", "fusion_lat": 0.0, "lat": 38.91786716666667, "name": "5c71e2579dba0c5456b7cdae73cece22", "fusion_lon": 0.0, "bike_id": "5c71e2579dba0c5456b7cdae73cece22", "is_disabled": 0, "is_reserved": 0}, {"rental_uris": {"ios": "https://dc.lft.to/lastmile_qr_scan", "android": "https://dc.lft.to/lastmile_qr_scan"}, "lon": -77.03341366666666, "type": "electric_scooter", "fusion_lat": 0.0, "lat": 38.92875216666667, "name": "4f9a054fc9b61fd28f1c458ebe1f1f91", "fusion_lon": 0.0, "bike_id": "4f9a054fc9b61fd28f1c458ebe1f1f91", "is_disabled": 0, "is_reserved": 0}, {"rental_uris": {"ios": "https://dc.lft.to/lastmile_qr_scan", "android": "https://dc.lft.to/lastmile_qr_scan"}, "lon": -77.0249555, "type": "electric_scooter", "fusion_lat": 0.0, "lat": 38.91806916666667, "name": "d9fec51282fd749beb09f04285110f0a", "fusion_lon": 0.0, "bike_id": "d9fec51282fd749beb09f04285110f0a", "is_disabled": 0, "is_reserved": 0}, {"rental_uris": {"ios": "https://dc.lft.to/lastmile_qr_scan", "android": "https://dc.lft.to/lastmile_qr_scan"}, "lon": -77.03218283333334, "type": "electric_scooter", "fusion_lat": 0.0, "lat": 38.914057166666666, "name": "c75cfb94519a60d797302426a676e315", "fusion_lon": 0.0, "bike_id": "c75cfb94519a60d797302426a676e315", "is_disabled": 0, "is_reserved": 0}, {"rental_uris": {"ios": "https://dc.lft.to/lastmile_qr_scan", "android": "https://dc.lft.to/lastmile_qr_scan"}, "lon": -77.04500566666667, "type": "electric_scooter", "fusion_lat": 0.0, "lat": 38.9157495, "name": "df9030a085b82bd5b60b17df286935f7", "fusion_lon": 0.0, "bike_id": "df9030a085b82bd5b60b17df286935f7", "is_disabled": 0, "is_reserved": 0}, {"rental_uris": {"ios": "https://dc.lft.to/lastmile_qr_scan", "android": "https://dc.lft.to/lastmile_qr_scan"}, "lon": -77.041215, "type": "electric_scooter", "fusion_lat": 0.0, "lat": 38.92157383333333, "name": "fd9a14c3040aa61694a3acacef706084", "fusion_lon": 0.0, "bike_id": "fd9a14c3040aa61694a3acacef706084", "is_disabled": 0, "is_reserved": 0}, {"rental_uris": {"ios": "https://dc.lft.to/lastmile_qr_scan", "android": "https://dc.lft.to/lastmile_qr_scan"}, "lon": -77.0321305, "type": "electric_scooter", "fusion_lat": 0.0, "lat": 38.91745233333333, "name": "509db9c93c96f3efa3342dedf4a4cb44", "fusion_lon": 0.0, "bike_id": "509db9c93c96f3efa3342dedf4a4cb44", "is_disabled": 0, "is_reserved": 0}, {"rental_uris": {"ios": "https://dc.lft.to/lastmile_qr_scan", "android": "https://dc.lft.to/lastmile_qr_scan"}, "lon": -76.98618383333333, "type": "electric_scooter", "fusion_lat": 0.0, "lat": 38.868164, "name": "52f04bc7ee3545ef361f1edf179d32aa", "fusion_lon": 0.0, "bike_id": "52f04bc7ee3545ef361f1edf179d32aa", "is_disabled": 0, "is_reserved": 0}, {"rental_uris": {"ios": "https://dc.lft.to/lastmile_qr_scan", "android": "https://dc.lft.to/lastmile_qr_scan"}, "lon": -77.0280835, "type": "electric_scooter", "fusion_lat": 0.0, "lat": 38.893961, "name": "562c32abdf0370de3642136e080f9f61", "fusion_lon": 0.0, "bike_id": "562c32abdf0370de3642136e080f9f61", "is_disabled": 0, "is_reserved": 0}, {"rental_uris": {"ios": "https://dc.lft.to/lastmile_qr_scan", "android": "https://dc.lft.to/lastmile_qr_scan"}, "lon": -77.04310133333334, "type": "electric_scooter", "fusion_lat": 0.0, "lat": 38.90948266666667, "name": "6cd791e5a48b9a3f186500b5bf3a3edc", "fusion_lon": 0.0, "bike_id": "6cd791e5a48b9a3f186500b5bf3a3edc", "is_disabled": 0, "is_reserved": 0}, {"rental_uris": {"ios": "https://dc.lft.to/lastmile_qr_scan", "android": "https://dc.lft.to/lastmile_qr_scan"}, "lon": -76.95818766666666, "type": "electric_scooter", "fusion_lat": 0.0, "lat": 38.890561, "name": "b018f2cc2988190e8d24504db6f37127", "fusion_lon": 0.0, "bike_id": "b018f2cc2988190e8d24504db6f37127", "is_disabled": 0, "is_reserved": 0}, {"rental_uris": {"ios": "https://dc.lft.to/lastmile_qr_scan", "android": "https://dc.lft.to/lastmile_qr_scan"}, "lon": -77.02882383333333, "type": "electric_scooter", "fusion_lat": 0.0, "lat": 38.91687366666667, "name": "c6ad4aa09e4f81d0c8a09d4c7a4e0440", "fusion_lon": 0.0, "bike_id": "c6ad4aa09e4f81d0c8a09d4c7a4e0440", "is_disabled": 0, "is_reserved": 0}, {"rental_uris": {"ios": "https://dc.lft.to/lastmile_qr_scan", "android": "https://dc.lft.to/lastmile_qr_scan"}, "lon": -77.05588533333334, "type": "electric_scooter", "fusion_lat": 0.0, "lat": 38.92782166666667, "name": "44130fd4af00f7d20b2be3dcb716603e", "fusion_lon": 0.0, "bike_id": "44130fd4af00f7d20b2be3dcb716603e", "is_disabled": 0, "is_reserved": 0}, {"rental_uris": {"ios": "https://dc.lft.to/lastmile_qr_scan", "android": "https://dc.lft.to/lastmile_qr_scan"}, "lon": -77.012104, "type": "electric_scooter", "fusion_lat": 0.0, "lat": 38.912747833333334, "name": "232b378efc77453793b7c21af23a46c3", "fusion_lon": 0.0, "bike_id": "232b378efc77453793b7c21af23a46c3", "is_disabled": 0, "is_reserved": 0}, {"rental_uris": {"ios": "https://dc.lft.to/lastmile_qr_scan", "android": "https://dc.lft.to/lastmile_qr_scan"}, "lon": -77.027019, "type": "electric_scooter", "fusion_lat": 0.0, "lat": 38.881461333333334, "name": "63de697c9ca6135be18644552fcc6b23", "fusion_lon": 0.0, "bike_id": "63de697c9ca6135be18644552fcc6b23", "is_disabled": 0, "is_reserved": 0}, {"rental_uris": {"ios": "https://dc.lft.to/lastmile_qr_scan", "android": "https://dc.lft.to/lastmile_qr_scan"}, "lon": -77.03730616666667, "type": "electric_scooter", "fusion_lat": 0.0, "lat": 38.9259585, "name": "1501ba0cb46c789f32a73e9e116d71e4", "fusion_lon": 0.0, "bike_id": "1501ba0cb46c789f32a73e9e116d71e4", "is_disabled": 0, "is_reserved": 0}, {"rental_uris": {"ios": "https://dc.lft.to/lastmile_qr_scan", "android": "https://dc.lft.to/lastmile_qr_scan"}, "lon": -77.02135066666666, "type": "electric_scooter", "fusion_lat": 0.0, "lat": 38.89589266666667, "name": "f0ba4caacf8fa9a5f53a07c10f0446ca", "fusion_lon": 0.0, "bike_id": "f0ba4caacf8fa9a5f53a07c10f0446ca", "is_disabled": 0, "is_reserved": 0}, {"rental_uris": {"ios": "https://dc.lft.to/lastmile_qr_scan", "android": "https://dc.lft.to/lastmile_qr_scan"}, "lon": -77.0952195, "type": "electric_bike", "fusion_lat": 0.0, "lat": 38.838130166666666, "name": "d2e332bb2a75c3166771cf0dd1f558fd", "fusion_lon": 0.0, "bike_id": "d2e332bb2a75c3166771cf0dd1f558fd", "is_disabled": 0, "is_reserved": 0}, {"rental_uris": {"ios": "https://dc.lft.to/lastmile_qr_scan", "android": "https://dc.lft.to/lastmile_qr_scan"}, "lon": -77.03250683333333, "type": "electric_scooter", "fusion_lat": 0.0, "lat": 38.91816033333333, "name": "8bcb36ed7fa2ef7538ccffa84870c4cd", "fusion_lon": 0.0, "bike_id": "8bcb36ed7fa2ef7538ccffa84870c4cd", "is_disabled": 0, "is_reserved": 0}, {"rental_uris": {"ios": "https://dc.lft.to/lastmile_qr_scan", "android": "https://dc.lft.to/lastmile_qr_scan"}, "lon": -77.02160266666667, "type": "electric_scooter", "fusion_lat": 0.0, "lat": 38.916219, "name": "d64bda97c9f74b22b51563ace3a4a7c9", "fusion_lon": 0.0, "bike_id": "d64bda97c9f74b22b51563ace3a4a7c9", "is_disabled": 0, "is_reserved": 0}, {"rental_uris": {"ios": "https://dc.lft.to/lastmile_qr_scan", "android": "https://dc.lft.to/lastmile_qr_scan"}, "lon": -77.05881866666667, "type": "electric_scooter", "fusion_lat": 0.0, "lat": 38.93640166666667, "name": "02743e5bb43a6692bc9835ef3b6cec4a", "fusion_lon": 0.0, "bike_id": "02743e5bb43a6692bc9835ef3b6cec4a", "is_disabled": 0, "is_reserved": 0}, {"rental_uris": {"ios": "https://dc.lft.to/lastmile_qr_scan", "android": "https://dc.lft.to/lastmile_qr_scan"}, "lon": -77.04251266666667, "type": "electric_scooter", "fusion_lat": 0.0, "lat": 38.90782033333333, "name": "ddbc97db275932ab337b008e57db02ca", "fusion_lon": 0.0, "bike_id": "ddbc97db275932ab337b008e57db02ca", "is_disabled": 0, "is_reserved": 0}, {"rental_uris": {"ios": "https://dc.lft.to/lastmile_qr_scan", "android": "https://dc.lft.to/lastmile_qr_scan"}, "lon": -76.94652633333334, "type": "electric_scooter", "fusion_lat": 0.0, "lat": 38.8982555, "name": "d7437433239ef7f2404aafd2842d9594", "fusion_lon": 0.0, "bike_id": "d7437433239ef7f2404aafd2842d9594", "is_disabled": 0, "is_reserved": 0}, {"rental_uris": {"ios": "https://dc.lft.to/lastmile_qr_scan", "android": "https://dc.lft.to/lastmile_qr_scan"}, "lon": -77.01111716666666, "type": "electric_scooter", "fusion_lat": 0.0, "lat": 38.895322, "name": "01ea8d75cbe3d084c8b6ad0df4fe918d", "fusion_lon": 0.0, "bike_id": "01ea8d75cbe3d084c8b6ad0df4fe918d", "is_disabled": 0, "is_reserved": 0}, {"rental_uris": {"ios": "https://dc.lft.to/lastmile_qr_scan", "android": "https://dc.lft.to/lastmile_qr_scan"}, "lon": -77.0318025, "type": "electric_scooter", "fusion_lat": 0.0, "lat": 38.92132983333333, "name": "3140f6a22268be1afb9b0769febb06b5", "fusion_lon": 0.0, "bike_id": "3140f6a22268be1afb9b0769febb06b5", "is_disabled": 0, "is_reserved": 0}, {"rental_uris": {"ios": "https://dc.lft.to/lastmile_qr_scan", "android": "https://dc.lft.to/lastmile_qr_scan"}, "lon": -77.0238875, "type": "electric_scooter", "fusion_lat": 0.0, "lat": 38.91604783333333, "name": "46b269e850c3ff2357dd8ece1f6d7da7", "fusion_lon": 0.0, "bike_id": "46b269e850c3ff2357dd8ece1f6d7da7", "is_disabled": 0, "is_reserved": 0}, {"rental_uris": {"ios": "https://dc.lft.to/lastmile_qr_scan", "android": "https://dc.lft.to/lastmile_qr_scan"}, "lon": -77.03344916666667, "type": "electric_scooter", "fusion_lat": 0.0, "lat": 38.906412, "name": "28e49d02958e96a9480461f84b35a9c5", "fusion_lon": 0.0, "bike_id": "28e49d02958e96a9480461f84b35a9c5", "is_disabled": 0, "is_reserved": 0}, {"rental_uris": {"ios": "https://dc.lft.to/lastmile_qr_scan", "android": "https://dc.lft.to/lastmile_qr_scan"}, "lon": -77.04857883333334, "type": "electric_scooter", "fusion_lat": 0.0, "lat": 38.906465, "name": "b924b9089c788597e7cba98628dc385b", "fusion_lon": 0.0, "bike_id": "b924b9089c788597e7cba98628dc385b", "is_disabled": 0, "is_reserved": 0}, {"rental_uris": {"ios": "https://dc.lft.to/lastmile_qr_scan", "android": "https://dc.lft.to/lastmile_qr_scan"}, "lon": -77.022603, "type": "electric_scooter", "fusion_lat": 0.0, "lat": 38.927377, "name": "5f4a9ca1a55078cb77e6b89c6a29406e", "fusion_lon": 0.0, "bike_id": "5f4a9ca1a55078cb77e6b89c6a29406e", "is_disabled": 0, "is_reserved": 0}, {"rental_uris": {"ios": "https://dc.lft.to/lastmile_qr_scan", "android": "https://dc.lft.to/lastmile_qr_scan"}, "lon": -77.06354266666666, "type": "electric_bike", "fusion_lat": 0.0, "lat": 38.90851333333333, "name": "4239780c787f1538b6215025c1ff801c", "fusion_lon": 0.0, "bike_id": "4239780c787f1538b6215025c1ff801c", "is_disabled": 0, "is_reserved": 0}, {"rental_uris": {"ios": "https://dc.lft.to/lastmile_qr_scan", "android": "https://dc.lft.to/lastmile_qr_scan"}, "lon": -77.0153425, "type": "electric_scooter", "fusion_lat": 0.0, "lat": 38.90240983333333, "name": "e726330dccaf4ca7a985b696070f5c02", "fusion_lon": 0.0, "bike_id": "e726330dccaf4ca7a985b696070f5c02", "is_disabled": 0, "is_reserved": 0}, {"rental_uris": {"ios": "https://dc.lft.to/lastmile_qr_scan", "android": "https://dc.lft.to/lastmile_qr_scan"}, "lon": -77.0320645, "type": "electric_scooter", "fusion_lat": 0.0, "lat": 38.937589, "name": "91432da3c7ad8db3a22190781007d3a5", "fusion_lon": 0.0, "bike_id": "91432da3c7ad8db3a22190781007d3a5", "is_disabled": 0, "is_reserved": 0}, {"rental_uris": {"ios": "https://dc.lft.to/lastmile_qr_scan", "android": "https://dc.lft.to/lastmile_qr_scan"}, "lon": -77.00485483333334, "type": "electric_scooter", "fusion_lat": 0.0, "lat": 38.91252883333333, "name": "b327c2ea469bbe6f8ef2a5ae251996e6", "fusion_lon": 0.0, "bike_id": "b327c2ea469bbe6f8ef2a5ae251996e6", "is_disabled": 0, "is_reserved": 0}, {"rental_uris": {"ios": "https://dc.lft.to/lastmile_qr_scan", "android": "https://dc.lft.to/lastmile_qr_scan"}, "lon": -76.97249416666666, "type": "electric_bike", "fusion_lat": 0.0, "lat": 38.95742, "name": "cbc6ae98697b464f2834addaf31c978c", "fusion_lon": 0.0, "bike_id": "cbc6ae98697b464f2834addaf31c978c", "is_disabled": 0, "is_reserved": 0}, {"rental_uris": {"ios": "https://dc.lft.to/lastmile_qr_scan", "android": "https://dc.lft.to/lastmile_qr_scan"}, "lon": -77.02688133333334, "type": "electric_scooter", "fusion_lat": 0.0, "lat": 38.916901833333334, "name": "b5946d4bfe7481d5f8810960370102fb", "fusion_lon": 0.0, "bike_id": "b5946d4bfe7481d5f8810960370102fb", "is_disabled": 0, "is_reserved": 0}, {"rental_uris": {"ios": "https://dc.lft.to/lastmile_qr_scan", "android": "https://dc.lft.to/lastmile_qr_scan"}, "lon": -77.05008833333333, "type": "electric_scooter", "fusion_lat": 0.0, "lat": 38.923589, "name": "a573fd443cb54aea8871b9a05e990143", "fusion_lon": 0.0, "bike_id": "a573fd443cb54aea8871b9a05e990143", "is_disabled": 0, "is_reserved": 0}, {"rental_uris": {"ios": "https://dc.lft.to/lastmile_qr_scan", "android": "https://dc.lft.to/lastmile_qr_scan"}, "lon": -77.00595916666667, "type": "electric_scooter", "fusion_lat": 0.0, "lat": 38.90371016666667, "name": "53bfbb6bdf5a8d0863d579462b17fe48", "fusion_lon": 0.0, "bike_id": "53bfbb6bdf5a8d0863d579462b17fe48", "is_disabled": 0, "is_reserved": 0}, {"rental_uris": {"ios": "https://dc.lft.to/lastmile_qr_scan", "android": "https://dc.lft.to/lastmile_qr_scan"}, "lon": -77.02834933333334, "type": "electric_scooter", "fusion_lat": 0.0, "lat": 38.8877025, "name": "846dc32c1ce94478b738178ac1e54f2c", "fusion_lon": 0.0, "bike_id": "846dc32c1ce94478b738178ac1e54f2c", "is_disabled": 0, "is_reserved": 0}, {"rental_uris": {"ios": "https://dc.lft.to/lastmile_qr_scan", "android": "https://dc.lft.to/lastmile_qr_scan"}, "lon": -77.05686616666667, "type": "electric_scooter", "fusion_lat": 0.0, "lat": 38.90532233333333, "name": "a8981a273373087827daa06afcba914b", "fusion_lon": 0.0, "bike_id": "a8981a273373087827daa06afcba914b", "is_disabled": 0, "is_reserved": 0}, {"rental_uris": {"ios": "https://dc.lft.to/lastmile_qr_scan", "android": "https://dc.lft.to/lastmile_qr_scan"}, "lon": -77.01428666666666, "type": "electric_scooter", "fusion_lat": 0.0, "lat": 38.929952166666666, "name": "8dd2a6f89c5ef0390c0db2c47d4d9714", "fusion_lon": 0.0, "bike_id": "8dd2a6f89c5ef0390c0db2c47d4d9714", "is_disabled": 0, "is_reserved": 0}, {"rental_uris": {"ios": "https://dc.lft.to/lastmile_qr_scan", "android": "https://dc.lft.to/lastmile_qr_scan"}, "lon": -77.036539, "type": "electric_scooter", "fusion_lat": 0.0, "lat": 38.91722383333333, "name": "337dee60538bf3467f01d92f381684b0", "fusion_lon": 0.0, "bike_id": "337dee60538bf3467f01d92f381684b0", "is_disabled": 0, "is_reserved": 0}, {"rental_uris": {"ios": "https://dc.lft.to/lastmile_qr_scan", "android": "https://dc.lft.to/lastmile_qr_scan"}, "lon": -77.01294483333334, "type": "electric_scooter", "fusion_lat": 0.0, "lat": 38.95659883333333, "name": "26fc2ab810e48fe2cd829e7933763c00", "fusion_lon": 0.0, "bike_id": "26fc2ab810e48fe2cd829e7933763c00", "is_disabled": 0, "is_reserved": 0}, {"rental_uris": {"ios": "https://dc.lft.to/lastmile_qr_scan", "android": "https://dc.lft.to/lastmile_qr_scan"}, "lon": -77.031624, "type": "electric_scooter", "fusion_lat": 0.0, "lat": 38.91565683333334, "name": "0b529f10e6e73d9cac5467f14726dfee", "fusion_lon": 0.0, "bike_id": "0b529f10e6e73d9cac5467f14726dfee", "is_disabled": 0, "is_reserved": 0}, {"rental_uris": {"ios": "https://dc.lft.to/lastmile_qr_scan", "android": "https://dc.lft.to/lastmile_qr_scan"}, "lon": -77.02286616666666, "type": "electric_scooter", "fusion_lat": 0.0, "lat": 38.91106, "name": "05dcf7f172eaed4ffd3c37a6b496814b", "fusion_lon": 0.0, "bike_id": "05dcf7f172eaed4ffd3c37a6b496814b", "is_disabled": 0, "is_reserved": 0}, {"rental_uris": {"ios": "https://dc.lft.to/lastmile_qr_scan", "android": "https://dc.lft.to/lastmile_qr_scan"}, "lon": -76.995189, "type": "electric_scooter", "fusion_lat": 0.0, "lat": 38.862564, "name": "2763a7961cbaca464852dc2f89c9de31", "fusion_lon": 0.0, "bike_id": "2763a7961cbaca464852dc2f89c9de31", "is_disabled": 0, "is_reserved": 0}, {"rental_uris": {"ios": "https://dc.lft.to/lastmile_qr_scan", "android": "https://dc.lft.to/lastmile_qr_scan"}, "lon": -77.02420366666666, "type": "electric_scooter", "fusion_lat": 0.0, "lat": 38.89521933333333, "name": "165c677b1179a20da7df4f451dd69217", "fusion_lon": 0.0, "bike_id": "165c677b1179a20da7df4f451dd69217", "is_disabled": 0, "is_reserved": 0}, {"rental_uris": {"ios": "https://dc.lft.to/lastmile_qr_scan", "android": "https://dc.lft.to/lastmile_qr_scan"}, "lon": -76.93868483333333, "type": "electric_scooter", "fusion_lat": 0.0, "lat": 38.9008405, "name": "5a99395a89b88227c9e13f69bc68aede", "fusion_lon": 0.0, "bike_id": "5a99395a89b88227c9e13f69bc68aede", "is_disabled": 0, "is_reserved": 0}, {"rental_uris": {"ios": "https://dc.lft.to/lastmile_qr_scan", "android": "https://dc.lft.to/lastmile_qr_scan"}, "lon": -77.012234, "type": "electric_scooter", "fusion_lat": 0.0, "lat": 38.90043133333333, "name": "8b8ea33dbf1cb09ced5c7fa691aba97a", "fusion_lon": 0.0, "bike_id": "8b8ea33dbf1cb09ced5c7fa691aba97a", "is_disabled": 0, "is_reserved": 0}, {"rental_uris": {"ios": "https://dc.lft.to/lastmile_qr_scan", "android": "https://dc.lft.to/lastmile_qr_scan"}, "lon": -76.98657833333333, "type": "electric_scooter", "fusion_lat": 0.0, "lat": 38.858065333333336, "name": "a71335f226dcc5252f435c9a399fc27b", "fusion_lon": 0.0, "bike_id": "a71335f226dcc5252f435c9a399fc27b", "is_disabled": 0, "is_reserved": 0}, {"rental_uris": {"ios": "https://dc.lft.to/lastmile_qr_scan", "android": "https://dc.lft.to/lastmile_qr_scan"}, "lon": -77.0450135, "type": "electric_scooter", "fusion_lat": 0.0, "lat": 38.90017066666667, "name": "d3ef6847baa1c21daafb5f6f57c9c329", "fusion_lon": 0.0, "bike_id": "d3ef6847baa1c21daafb5f6f57c9c329", "is_disabled": 0, "is_reserved": 0}, {"rental_uris": {"ios": "https://dc.lft.to/lastmile_qr_scan", "android": "https://dc.lft.to/lastmile_qr_scan"}, "lon": -77.03342683333334, "type": "electric_scooter", "fusion_lat": 0.0, "lat": 38.92884883333333, "name": "9ec60897285b5d0c350710670c2b588c", "fusion_lon": 0.0, "bike_id": "9ec60897285b5d0c350710670c2b588c", "is_disabled": 0, "is_reserved": 0}, {"rental_uris": {"ios": "https://dc.lft.to/lastmile_qr_scan", "android": "https://dc.lft.to/lastmile_qr_scan"}, "lon": -76.9967195, "type": "electric_scooter", "fusion_lat": 0.0, "lat": 38.91016583333333, "name": "78d16ca174f3845dd21c1434d9efbc09", "fusion_lon": 0.0, "bike_id": "78d16ca174f3845dd21c1434d9efbc09", "is_disabled": 0, "is_reserved": 0}, {"rental_uris": {"ios": "https://dc.lft.to/lastmile_qr_scan", "android": "https://dc.lft.to/lastmile_qr_scan"}, "lon": -77.028106, "type": "electric_scooter", "fusion_lat": 0.0, "lat": 38.881781, "name": "85617bee0f3e15cb7744fc438c2688ef", "fusion_lon": 0.0, "bike_id": "85617bee0f3e15cb7744fc438c2688ef", "is_disabled": 0, "is_reserved": 0}, {"rental_uris": {"ios": "https://dc.lft.to/lastmile_qr_scan", "android": "https://dc.lft.to/lastmile_qr_scan"}, "lon": -77.024941, "type": "electric_scooter", "fusion_lat": 0.0, "lat": 38.9180555, "name": "da1607c312377e70c94ba355a4fdd6fa", "fusion_lon": 0.0, "bike_id": "da1607c312377e70c94ba355a4fdd6fa", "is_disabled": 0, "is_reserved": 0}, {"rental_uris": {"ios": "https://dc.lft.to/lastmile_qr_scan", "android": "https://dc.lft.to/lastmile_qr_scan"}, "lon": -76.995623, "type": "electric_scooter", "fusion_lat": 0.0, "lat": 38.928811, "name": "0779e2cb69a32d0d627e914814fd934e", "fusion_lon": 0.0, "bike_id": "0779e2cb69a32d0d627e914814fd934e", "is_disabled": 0, "is_reserved": 0}, {"rental_uris": {"ios": "https://dc.lft.to/lastmile_qr_scan", "android": "https://dc.lft.to/lastmile_qr_scan"}, "lon": -76.94791683333334, "type": "electric_scooter", "fusion_lat": 0.0, "lat": 38.896314833333335, "name": "7d7a698d67e9052889a7eb2093470890", "fusion_lon": 0.0, "bike_id": "7d7a698d67e9052889a7eb2093470890", "is_disabled": 0, "is_reserved": 0}, {"rental_uris": {"ios": "https://dc.lft.to/lastmile_qr_scan", "android": "https://dc.lft.to/lastmile_qr_scan"}, "lon": -77.02974766666667, "type": "electric_scooter", "fusion_lat": 0.0, "lat": 38.962301833333335, "name": "6ac643dae1a4a074b8555550fe88f462", "fusion_lon": 0.0, "bike_id": "6ac643dae1a4a074b8555550fe88f462", "is_disabled": 0, "is_reserved": 0}, {"rental_uris": {"ios": "https://dc.lft.to/lastmile_qr_scan", "android": "https://dc.lft.to/lastmile_qr_scan"}, "lon": -77.00874616666667, "type": "electric_scooter", "fusion_lat": 0.0, "lat": 38.914052166666664, "name": "5fc8f6950428de7dbb7a26fdb34b08e8", "fusion_lon": 0.0, "bike_id": "5fc8f6950428de7dbb7a26fdb34b08e8", "is_disabled": 0, "is_reserved": 0}, {"rental_uris": {"ios": "https://dc.lft.to/lastmile_qr_scan", "android": "https://dc.lft.to/lastmile_qr_scan"}, "lon": -77.001349, "type": "electric_scooter", "fusion_lat": 0.0, "lat": 38.90412083333333, "name": "8709c2af2694efd54aca50f54b74f6ca", "fusion_lon": 0.0, "bike_id": "8709c2af2694efd54aca50f54b74f6ca", "is_disabled": 0, "is_reserved": 0}, {"rental_uris": {"ios": "https://dc.lft.to/lastmile_qr_scan", "android": "https://dc.lft.to/lastmile_qr_scan"}, "lon": -77.10339066666667, "type": "electric_bike", "fusion_lat": 0.0, "lat": 38.852279333333335, "name": "61ccb6bfa15dbd39889c29a6eef286e6", "fusion_lon": 0.0, "bike_id": "61ccb6bfa15dbd39889c29a6eef286e6", "is_disabled": 0, "is_reserved": 0}, {"rental_uris": {"ios": "https://dc.lft.to/lastmile_qr_scan", "android": "https://dc.lft.to/lastmile_qr_scan"}, "lon": -77.01620216666667, "type": "electric_scooter", "fusion_lat": 0.0, "lat": 38.88743733333333, "name": "32a6709b43e93a9c5fc8018a5f3a177d", "fusion_lon": 0.0, "bike_id": "32a6709b43e93a9c5fc8018a5f3a177d", "is_disabled": 0, "is_reserved": 0}, {"rental_uris": {"ios": "https://dc.lft.to/lastmile_qr_scan", "android": "https://dc.lft.to/lastmile_qr_scan"}, "lon": -77.029532, "type": "electric_scooter", "fusion_lat": 0.0, "lat": 38.9166875, "name": "470e183f3c5ce82c75391dafc5516fcf", "fusion_lon": 0.0, "bike_id": "470e183f3c5ce82c75391dafc5516fcf", "is_disabled": 0, "is_reserved": 0}, {"rental_uris": {"ios": "https://dc.lft.to/lastmile_qr_scan", "android": "https://dc.lft.to/lastmile_qr_scan"}, "lon": -77.02707383333333, "type": "electric_scooter", "fusion_lat": 0.0, "lat": 38.917234666666666, "name": "25c7bddd3e9fa95e4420367b0149b4ab", "fusion_lon": 0.0, "bike_id": "25c7bddd3e9fa95e4420367b0149b4ab", "is_disabled": 0, "is_reserved": 0}, {"rental_uris": {"ios": "https://dc.lft.to/lastmile_qr_scan", "android": "https://dc.lft.to/lastmile_qr_scan"}, "lon": -77.03289266666667, "type": "electric_scooter", "fusion_lat": 0.0, "lat": 38.901059000000004, "name": "ae1f8c8c95569c9eda5d4aadeaf9e097", "fusion_lon": 0.0, "bike_id": "ae1f8c8c95569c9eda5d4aadeaf9e097", "is_disabled": 0, "is_reserved": 0}, {"rental_uris": {"ios": "https://dc.lft.to/lastmile_qr_scan", "android": "https://dc.lft.to/lastmile_qr_scan"}, "lon": -76.9977905, "type": "electric_scooter", "fusion_lat": 0.0, "lat": 38.8442465, "name": "254684b7e166579d5d3b6265a3c60107", "fusion_lon": 0.0, "bike_id": "254684b7e166579d5d3b6265a3c60107", "is_disabled": 0, "is_reserved": 0}, {"rental_uris": {"ios": "https://dc.lft.to/lastmile_qr_scan", "android": "https://dc.lft.to/lastmile_qr_scan"}, "lon": -77.00643933333333, "type": "electric_scooter", "fusion_lat": 0.0, "lat": 38.917045, "name": "10ba586d483156ae86a53b4def2e65ed", "fusion_lon": 0.0, "bike_id": "10ba586d483156ae86a53b4def2e65ed", "is_disabled": 0, "is_reserved": 0}, {"rental_uris": {"ios": "https://dc.lft.to/lastmile_qr_scan", "android": "https://dc.lft.to/lastmile_qr_scan"}, "lon": -76.99275633333333, "type": "electric_scooter", "fusion_lat": 0.0, "lat": 38.92135183333333, "name": "8550e6e570a8acf6a386b2dc9ec9e33b", "fusion_lon": 0.0, "bike_id": "8550e6e570a8acf6a386b2dc9ec9e33b", "is_disabled": 0, "is_reserved": 0}, {"rental_uris": {"ios": "https://dc.lft.to/lastmile_qr_scan", "android": "https://dc.lft.to/lastmile_qr_scan"}, "lon": -77.06401466666667, "type": "electric_bike", "fusion_lat": 0.0, "lat": 38.843484, "name": "5952e15917d16ea9242f9dd21496d638", "fusion_lon": 0.0, "bike_id": "5952e15917d16ea9242f9dd21496d638", "is_disabled": 0, "is_reserved": 0}, {"rental_uris": {"ios": "https://dc.lft.to/lastmile_qr_scan", "android": "https://dc.lft.to/lastmile_qr_scan"}, "lon": -77.0465865, "type": "electric_scooter", "fusion_lat": 0.0, "lat": 38.893399, "name": "623ed09a10ed6720a3ee37e1dbb7995b", "fusion_lon": 0.0, "bike_id": "623ed09a10ed6720a3ee37e1dbb7995b", "is_disabled": 0, "is_reserved": 0}, {"rental_uris": {"ios": "https://dc.lft.to/lastmile_qr_scan", "android": "https://dc.lft.to/lastmile_qr_scan"}, "lon": -77.06592316666666, "type": "electric_scooter", "fusion_lat": 0.0, "lat": 38.90520133333333, "name": "99f068481d0731cb46af77e8d5ae24ee", "fusion_lon": 0.0, "bike_id": "99f068481d0731cb46af77e8d5ae24ee", "is_disabled": 0, "is_reserved": 0}, {"rental_uris": {"ios": "https://dc.lft.to/lastmile_qr_scan", "android": "https://dc.lft.to/lastmile_qr_scan"}, "lon": -77.0369565, "type": "electric_bike", "fusion_lat": 0.0, "lat": 38.935636833333334, "name": "924ff0ba979ce04746edc036d3b5c64d", "fusion_lon": 0.0, "bike_id": "924ff0ba979ce04746edc036d3b5c64d", "is_disabled": 0, "is_reserved": 0}, {"rental_uris": {"ios": "https://dc.lft.to/lastmile_qr_scan", "android": "https://dc.lft.to/lastmile_qr_scan"}, "lon": -77.04272866666666, "type": "electric_scooter", "fusion_lat": 0.0, "lat": 38.9028065, "name": "e12d67b26dae3b58e625e7ff1cabbcd1", "fusion_lon": 0.0, "bike_id": "e12d67b26dae3b58e625e7ff1cabbcd1", "is_disabled": 0, "is_reserved": 0}, {"rental_uris": {"ios": "https://dc.lft.to/lastmile_qr_scan", "android": "https://dc.lft.to/lastmile_qr_scan"}, "lon": -76.94878433333334, "type": "electric_scooter", "fusion_lat": 0.0, "lat": 38.8950335, "name": "454ee47665a4eafa0102958d36f45937", "fusion_lon": 0.0, "bike_id": "454ee47665a4eafa0102958d36f45937", "is_disabled": 0, "is_reserved": 0}, {"rental_uris": {"ios": "https://dc.lft.to/lastmile_qr_scan", "android": "https://dc.lft.to/lastmile_qr_scan"}, "lon": -77.05174666666667, "type": "electric_scooter", "fusion_lat": 0.0, "lat": 38.923420166666666, "name": "cbc874c4e88bcb07a37fb1e9e65cbc6a", "fusion_lon": 0.0, "bike_id": "cbc874c4e88bcb07a37fb1e9e65cbc6a", "is_disabled": 0, "is_reserved": 0}, {"rental_uris": {"ios": "https://dc.lft.to/lastmile_qr_scan", "android": "https://dc.lft.to/lastmile_qr_scan"}, "lon": -77.0075325, "type": "electric_scooter", "fusion_lat": 0.0, "lat": 38.89734133333333, "name": "2e89e4a2b19653fec67e0fcba5d6a5e3", "fusion_lon": 0.0, "bike_id": "2e89e4a2b19653fec67e0fcba5d6a5e3", "is_disabled": 0, "is_reserved": 0}, {"rental_uris": {"ios": "https://dc.lft.to/lastmile_qr_scan", "android": "https://dc.lft.to/lastmile_qr_scan"}, "lon": -77.0326025, "type": "electric_scooter", "fusion_lat": 0.0, "lat": 38.93524883333333, "name": "385ec19d1f0a5e8c065d589bf3c4df59", "fusion_lon": 0.0, "bike_id": "385ec19d1f0a5e8c065d589bf3c4df59", "is_disabled": 0, "is_reserved": 0}, {"rental_uris": {"ios": "https://dc.lft.to/lastmile_qr_scan", "android": "https://dc.lft.to/lastmile_qr_scan"},