{"data": {"bikes": [{"is_reserved": 0, "is_disabled": 0, "fusion_lon": 0.0, "lat": 38.804063666666664, "name": "6b1537a621ae641bf248f15082c65c0f", "bike_id": "6b1537a621ae641bf248f15082c65c0f", "lon": -77.1133105, "fusion_lat": 0.0, "rental_uris": {"android": "https://dc.lft.to/lastmile_qr_scan", "ios": "https://dc.lft.to/lastmile_qr_scan"}, "type": "electric_bike"}, {"is_reserved": 0, "is_disabled": 0, "fusion_lon": 0.0, "lat": 38.9056945, "name": "b5a606d7f8516f9fd7231d80454ca9b4", "bike_id": "b5a606d7f8516f9fd7231d80454ca9b4", "lon": -77.03418283333333, "fusion_lat": 0.0, "rental_uris": {"android": "https://dc.lft.to/lastmile_qr_scan", "ios": "https://dc.lft.to/lastmile_qr_scan"}, "type": "electric_scooter"}, {"is_reserved": 0, "is_disabled": 0, "fusion_lon": 0.0, "lat": 38.91803183333333, "name": "4f646077a7b29ac3fd140788cb75177f", "bike_id": "4f646077a7b29ac3fd140788cb75177f", "lon": -77.0344005, "fusion_lat": 0.0, "rental_uris": {"android": "https://dc.lft.to/lastmile_qr_scan", "ios": "https://dc.lft.to/lastmile_qr_scan"}, "type": "electric_scooter"}, {"is_reserved": 0, "is_disabled": 0, "fusion_lon": 0.0, "lat": 38.903320666666666, "name": "4897917e256ccac51b2ce1a5b64220bf", "bike_id": "4897917e256ccac51b2ce1a5b64220bf", "lon": -76.97525483333334, "fusion_lat": 0.0, "rental_uris": {"android": "https://dc.lft.to/lastmile_qr_scan", "ios": "https://dc.lft.to/lastmile_qr_scan"}, "type": "electric_bike"}, {"is_reserved": 0, "is_disabled": 0, "fusion_lon": 0.0, "lat": 38.909616, "name": "8a2d02e6950b5e8d8e362756763d46f8", "bike_id": "8a2d02e6950b5e8d8e362756763d46f8", "lon": -77.02581183333334, "fusion_lat": 0.0, "rental_uris": {"android": "https://dc.lft.to/lastmile_qr_scan", "ios": "https://dc.lft.to/lastmile_qr_scan"}, "type": "electric_scooter"}, {"is_reserved": 0, "is_disabled": 0, "fusion_lon": 0.0, "lat": 38.92385933333333, "name": "9dd71c78d1a9421253923efb27dfc83d", "bike_id": "9dd71c78d1a9421253923efb27dfc83d", "lon": -77.025829, "fusion_lat": 0.0, "rental_uris": {"android": "https://dc.lft.to/lastmile_qr_scan", "ios": "https://dc.lft.to/lastmile_qr_scan"}, "type": "electric_scooter"}, {"is_reserved": 0, "is_disabled": 0, "fusion_lon": 0.0, "lat": 38.87213366666667, "name": "c5a4288b1ba57793761ae5faeb5848c8", "bike_id": "c5a4288b1ba57793761ae5faeb5848c8", "lon": -77.01608616666667, "fusion_lat": 0.0, "rental_uris": {"android": "https://dc.lft.to/lastmile_qr_scan", "ios": "https://dc.lft.to/lastmile_qr_scan"}, "type": "electric_scooter"}, {"is_reserved": 0, "is_disabled": 0, "fusion_lon": 0.0, "lat": 38.910478833333336, "name": "36606a900eeca543101d823f8f2056f4", "bike_id": "36606a900eeca543101d823f8f2056f4", "lon": -77.04081033333334, "fusion_lat": 0.0, "rental_uris": {"android": "https://dc.lft.to/lastmile_qr_scan", "ios": "https://dc.lft.to/lastmile_qr_scan"}, "type": "electric_scooter"}, {"is_reserved": 0, "is_disabled": 0, "fusion_lon": 0.0, "lat": 38.920716666666664, "name": "f83f34bb0ca402e4076dcabd430c92fc", "bike_id": "f83f34bb0ca402e4076dcabd430c92fc", "lon": -77.074599, "fusion_lat": 0.0, "rental_uris": {"android": "https://dc.lft.to/lastmile_qr_scan", "ios": "https://dc.lft.to/lastmile_qr_scan"}, "type": "electric_scooter"}, {"is_reserved": 0, "is_disabled": 0, "fusion_lon": 0.0, "lat": 38.90061866666667, "name": "7b2e6bdc57d35db17c533534c4bd3805", "bike_id": "7b2e6bdc57d35db17c533534c4bd3805", "lon": -76.98700683333334, "fusion_lat": 0.0, "rental_uris": {"android": "https://dc.lft.to/lastmile_qr_scan", "ios": "https://dc.lft.to/lastmile_qr_scan"}, "type": "electric_scooter"}, {"is_reserved": 0, "is_disabled": 0, "fusion_lon": 0.0, "lat": 38.89699566666667, "name": "e5702ac1da3c802d144c46b3cb958698", "bike_id": "e5702ac1da3c802d144c46b3cb958698", "lon": -76.94720433333333, "fusion_lat": 0.0, "rental_uris": {"android": "https://dc.lft.to/lastmile_qr_scan", "ios": "https://dc.lft.to/lastmile_qr_scan"}, "type": "electric_bike"}, {"is_reserved": 0, "is_disabled": 0, "fusion_lon": 0.0, "lat": 38.89927616666667, "name": "6c8026b817065d10dc97a7c2a6b95ad8", "bike_id": "6c8026b817065d10dc97a7c2a6b95ad8", "lon": -76.99744883333334, "fusion_lat": 0.0, "rental_uris": {"android": "https://dc.lft.to/lastmile_qr_scan", "ios": "https://dc.lft.to/lastmile_qr_scan"}, "type": "electric_scooter"}, {"is_reserved": 0, "is_disabled": 0, "fusion_lon": 0.0, "lat": 38.8962975, "name": "58944dbdd83248ae2458d93d3e11a8e8", "bike_id": "58944dbdd83248ae2458d93d3e11a8e8", "lon": -77.04328283333334, "fusion_lat": 0.0, "rental_uris": {"android": "https://dc.lft.to/lastmile_qr_scan", "ios": "https://dc.lft.to/lastmile_qr_scan"}, "type": "electric_scooter"}, {"is_reserved": 0, "is_disabled": 0, "fusion_lon": 0.0, "lat": 38.9069455, "name": "99c005719aef19515550b74daf7ca7e1", "bike_id": "99c005719aef19515550b74daf7ca7e1", "lon": -77.00321583333333, "fusion_lat": 0.0, "rental_uris": {"android": "https://dc.lft.to/lastmile_qr_scan", "ios": "https://dc.lft.to/lastmile_qr_scan"}, "type": "electric_scooter"}, {"is_reserved": 0, "is_disabled": 0, "fusion_lon": 0.0, "lat": 39.0389765, "name": "0a64bf51cd4906de3f94e419482580b8", "bike_id": "0a64bf51cd4906de3f94e419482580b8", "lon": -77.05030516666666, "fusion_lat": 0.0, "rental_uris": {"android": "https://dc.lft.to/lastmile_qr_scan", "ios": "https://dc.lft.to/lastmile_qr_scan"}, "type": "electric_bike"}, {"is_reserved": 0, "is_disabled": 0, "fusion_lon": 0.0, "lat": 38.882169, "name": "279a6801c46032b9c02ca575bcd719a7", "bike_id": "279a6801c46032b9c02ca575bcd719a7", "lon": -76.93923216666667, "fusion_lat": 0.0, "rental_uris": {"android": "https://dc.lft.to/lastmile_qr_scan", "ios": "https://dc.lft.to/lastmile_qr_scan"}, "type": "electric_scooter"}, {"is_reserved": 0, "is_disabled": 0, "fusion_lon": 0.0, "lat": 38.914061833333335, "name": "6e22a30eeab36233ea4b1c1668762a63", "bike_id": "6e22a30eeab36233ea4b1c1668762a63", "lon": -77.0181615, "fusion_lat": 0.0, "rental_uris": {"android": "https://dc.lft.to/lastmile_qr_scan", "ios": "https://dc.lft.to/lastmile_qr_scan"}, "type": "electric_scooter"}, {"is_reserved": 0, "is_disabled": 0, "fusion_lon": 0.0, "lat": 38.88380433333333, "name": "5d404fe18bae7a4cbcd48287dac15691", "bike_id": "5d404fe18bae7a4cbcd48287dac15691", "lon": -77.008843, "fusion_lat": 0.0, "rental_uris": {"android": "https://dc.lft.to/lastmile_qr_scan", "ios": "https://dc.lft.to/lastmile_qr_scan"}, "type": "electric_scooter"}, {"is_reserved": 0, "is_disabled": 0, "fusion_lon": 0.0, "lat": 38.9257015, "name": "dfd47dcff78e84a87087170b5ed87f0a", "bike_id": "dfd47dcff78e84a87087170b5ed87f0a", "lon": -77.03778883333334, "fusion_lat": 0.0, "rental_uris": {"android": "https://dc.lft.to/lastmile_qr_scan", "ios": "https://dc.lft.to/lastmile_qr_scan"}, "type": "electric_scooter"}, {"is_reserved": 0, "is_disabled": 0, "fusion_lon": 0.0, "lat": 38.927673166666665, "name": "a793847099eb1472f5e247ac95cf1d8e", "bike_id": "a793847099eb1472f5e247ac95cf1d8e", "lon": -77.02915883333333, "fusion_lat": 0.0, "rental_uris": {"android": "https://dc.lft.to/lastmile_qr_scan", "ios": "https://dc.lft.to/lastmile_qr_scan"}, "type": "electric_scooter"}, {"is_reserved": 0, "is_disabled": 0, "fusion_lon": 0.0, "lat": 38.89219766666667, "name": "6bd50514a85ccf1baf26e512da90b360", "bike_id": "6bd50514a85ccf1baf26e512da90b360", "lon": -77.04870516666666, "fusion_lat": 0.0, "rental_uris": {"android": "https://dc.lft.to/lastmile_qr_scan", "ios": "https://dc.lft.to/lastmile_qr_scan"}, "type": "electric_scooter"}, {"is_reserved": 0, "is_disabled": 0, "fusion_lon": 0.0, "lat": 38.9208675, "name": "55b412196c5e9215932029e9ad44c45d", "bike_id": "55b412196c5e9215932029e9ad44c45d", "lon": -77.02512566666667, "fusion_lat": 0.0, "rental_uris": {"android": "https://dc.lft.to/lastmile_qr_scan", "ios": "https://dc.lft.to/lastmile_qr_scan"}, "type": "electric_scooter"}, {"is_reserved": 0, "is_disabled": 0, "fusion_lon": 0.0, "lat": 38.926747666666664, "name": "4c9822c987ccd3cb23fa230b2f514dc8", "bike_id": "4c9822c987ccd3cb23fa230b2f514dc8", "lon": -77.02752583333333, "fusion_lat": 0.0, "rental_uris": {"android": "https://dc.lft.to/lastmile_qr_scan", "ios": "https://dc.lft.to/lastmile_qr_scan"}, "type": "electric_scooter"}, {"is_reserved": 0, "is_disabled": 0, "fusion_lon": 0.0, "lat": 38.92730816666667, "name": "25b3a6b8e3e41fb720eeea527e733d4a", "bike_id": "25b3a6b8e3e41fb720eeea527e733d4a", "lon": -77.03231983333333, "fusion_lat": 0.0, "rental_uris": {"android": "https://dc.lft.to/lastmile_qr_scan", "ios": "https://dc.lft.to/lastmile_qr_scan"}, "type": "electric_scooter"}, {"is_reserved": 0, "is_disabled": 0, "fusion_lon": 0.0, "lat": 38.933803833333336, "name": "403c581f4bae22c50edafd272a9887fa", "bike_id": "403c581f4bae22c50edafd272a9887fa", "lon": -77.03260116666667, "fusion_lat": 0.0, "rental_uris": {"android": "https://dc.lft.to/lastmile_qr_scan", "ios": "https://dc.lft.to/lastmile_qr_scan"}, "type": "electric_scooter"}, {"is_reserved": 0, "is_disabled": 0, "fusion_lon": 0.0, "lat": 38.91857683333333, "name": "fe98b5c835cc0c08a6cd0fcee09593dd", "bike_id": "fe98b5c835cc0c08a6cd0fcee09593dd", "lon": -77.04597733333334, "fusion_lat": 0.0, "rental_uris": {"android": "https://dc.lft.to/lastmile_qr_scan", "ios": "https://dc.lft.to/lastmile_qr_scan"}, "type": "electric_scooter"}, {"is_reserved": 0, "is_disabled": 0, "fusion_lon": 0.0, "lat": 38.89956466666667, "name": "8a8e48b1ec31b4898f32b96ebd4a367e", "bike_id": "8a8e48b1ec31b4898f32b96ebd4a367e", "lon": -77.04143, "fusion_lat": 0.0, "rental_uris": {"android": "https://dc.lft.to/lastmile_qr_scan", "ios": "https://dc.lft.to/lastmile_qr_scan"}, "type": "electric_scooter"}, {"is_reserved": 0, "is_disabled": 0, "fusion_lon": 0.0, "lat": 38.932774, "name": "0d1f85234aa5f07e1bf9e33ef8ea0285", "bike_id": "0d1f85234aa5f07e1bf9e33ef8ea0285", "lon": -77.02656266666666, "fusion_lat": 0.0, "rental_uris": {"android": "https://dc.lft.to/lastmile_qr_scan", "ios": "https://dc.lft.to/lastmile_qr_scan"}, "type": "electric_scooter"}, {"is_reserved": 0, "is_disabled": 0, "fusion_lon": 0.0, "lat": 38.924993666666666, "name": "cbbace75dad70bc40a21e9da9c2bde83", "bike_id": "cbbace75dad70bc40a21e9da9c2bde83", "lon": -77.02154766666666, "fusion_lat": 0.0, "rental_uris": {"android": "https://dc.lft.to/lastmile_qr_scan", "ios": "https://dc.lft.to/lastmile_qr_scan"}, "type": "electric_scooter"}, {"is_reserved": 0, "is_disabled": 0, "fusion_lon": 0.0, "lat": 38.935341, "name": "440d7d98f425d85208137318396339e9", "bike_id": "440d7d98f425d85208137318396339e9", "lon": -77.023694, "fusion_lat": 0.0, "rental_uris": {"android": "https://dc.lft.to/lastmile_qr_scan", "ios": "https://dc.lft.to/lastmile_qr_scan"}, "type": "electric_scooter"}, {"is_reserved": 0, "is_disabled": 0, "fusion_lon": 0.0, "lat": 38.90616883333333, "name": "6d5f6288adfedec34defb8631e79a85d", "bike_id": "6d5f6288adfedec34defb8631e79a85d", "lon": -77.0627285, "fusion_lat": 0.0, "rental_uris": {"android": "https://dc.lft.to/lastmile_qr_scan", "ios": "https://dc.lft.to/lastmile_qr_scan"}, "type": "electric_scooter"}, {"is_reserved": 0, "is_disabled": 0, "fusion_lon": 0.0, "lat": 38.91921216666667, "name": "24ee20dae8b205a5c7f680e47c053d56", "bike_id": "24ee20dae8b205a5c7f680e47c053d56", "lon": -77.04558316666666, "fusion_lat": 0.0, "rental_uris": {"android": "https://dc.lft.to/lastmile_qr_scan", "ios": "https://dc.lft.to/lastmile_qr_scan"}, "type": "electric_scooter"}, {"is_reserved": 0, "is_disabled": 0, "fusion_lon": 0.0, "lat": 38.91728966666667, "name": "3e8a5874e691ac41a213e3ff1150435c", "bike_id": "3e8a5874e691ac41a213e3ff1150435c", "lon": -77.032079, "fusion_lat": 0.0, "rental_uris": {"android": "https://dc.lft.to/lastmile_qr_scan", "ios": "https://dc.lft.to/lastmile_qr_scan"}, "type": "electric_scooter"}, {"is_reserved": 0, "is_disabled": 0, "fusion_lon": 0.0, "lat": 38.896322833333336, "name": "a02998eb641ba78e346d3ad6da467c20", "bike_id": "a02998eb641ba78e346d3ad6da467c20", "lon": -76.92967316666666, "fusion_lat": 0.0, "rental_uris": {"android": "https://dc.lft.to/lastmile_qr_scan", "ios": "https://dc.lft.to/lastmile_qr_scan"}, "type": "electric_scooter"}, {"is_reserved": 0, "is_disabled": 0, "fusion_lon": 0.0, "lat": 38.88123516666667, "name": "6b8e1817d592ebd0d027c3da77d6a1b1", "bike_id": "6b8e1817d592ebd0d027c3da77d6a1b1", "lon": -77.01678, "fusion_lat": 0.0, "rental_uris": {"android": "https://dc.lft.to/lastmile_qr_scan", "ios": "https://dc.lft.to/lastmile_qr_scan"}, "type": "electric_bike"}, {"is_reserved": 0, "is_disabled": 0, "fusion_lon": 0.0, "lat": 38.8289145, "name": "b4eb115a29330afbc88416a0ac2ba077", "bike_id": "b4eb115a29330afbc88416a0ac2ba077", "lon": -77.01206133333334, "fusion_lat": 0.0, "rental_uris": {"android": "https://dc.lft.to/lastmile_qr_scan", "ios": "https://dc.lft.to/lastmile_qr_scan"}, "type": "electric_bike"}, {"is_reserved": 0, "is_disabled": 0, "fusion_lon": 0.0, "lat": 38.9020015, "name": "4a7aecf72a8575397e89cf7967e40597", "bike_id": "4a7aecf72a8575397e89cf7967e40597", "lon": -76.9983955, "fusion_lat": 0.0, "rental_uris": {"android": "https://dc.lft.to/lastmile_qr_scan", "ios": "https://dc.lft.to/lastmile_qr_scan"}, "type": "electric_scooter"}, {"is_reserved": 0, "is_disabled": 0, "fusion_lon": 0.0, "lat": 38.9573265, "name": "9867184df0da3768cbc6bb0f737b64d3", "bike_id": "9867184df0da3768cbc6bb0f737b64d3", "lon": -77.02749966666667, "fusion_lat": 0.0, "rental_uris": {"android": "https://dc.lft.to/lastmile_qr_scan", "ios": "https://dc.lft.to/lastmile_qr_scan"}, "type": "electric_scooter"}, {"is_reserved": 0, "is_disabled": 0, "fusion_lon": 0.0, "lat": 38.93148, "name": "5a6e767ccee774736e1ca1df6b68faf6", "bike_id": "5a6e767ccee774736e1ca1df6b68faf6", "lon": -77.039422, "fusion_lat": 0.0, "rental_uris": {"android": "https://dc.lft.to/lastmile_qr_scan", "ios": "https://dc.lft.to/lastmile_qr_scan"}, "type": "electric_scooter"}, {"is_reserved": 0, "is_disabled": 0, "fusion_lon": 0.0, "lat": 38.90865933333333, "name": "a739f6898d3bad1b73487083be12ab41", "bike_id": "a739f6898d3bad1b73487083be12ab41", "lon": -77.0451945, "fusion_lat": 0.0, "rental_uris": {"android": "https://dc.lft.to/lastmile_qr_scan", "ios": "https://dc.lft.to/lastmile_qr_scan"}, "type": "electric_scooter"}, {"is_reserved": 0, "is_disabled": 0, "fusion_lon": 0.0, "lat": 38.96151283333333, "name": "79a0f8c98280c27879dce17e157bf194", "bike_id": "79a0f8c98280c27879dce17e157bf194", "lon": -76.9978225, "fusion_lat": 0.0, "rental_uris": {"android": "https://dc.lft.to/lastmile_qr_scan", "ios": "https://dc.lft.to/lastmile_qr_scan"}, "type": "electric_bike"}, {"is_reserved": 0, "is_disabled": 0, "fusion_lon": 0.0, "lat": 38.89598983333333, "name": "acdedb887e49556316d8e98b589ca76f", "bike_id": "acdedb887e49556316d8e98b589ca76f", "lon": -77.0479785, "fusion_lat": 0.0, "rental_uris": {"android": "https://dc.lft.to/lastmile_qr_scan", "ios": "https://dc.lft.to/lastmile_qr_scan"}, "type": "electric_scooter"}, {"is_reserved": 0, "is_disabled": 0, "fusion_lon": 0.0, "lat": 38.9077845, "name": "db5859a5ebebe4acf84fb4e8ccb94160", "bike_id": "db5859a5ebebe4acf84fb4e8ccb94160", "lon": -76.99709316666667, "fusion_lat": 0.0, "rental_uris": {"android": "https://dc.lft.to/lastmile_qr_scan", "ios": "https://dc.lft.to/lastmile_qr_scan"}, "type": "electric_scooter"}, {"is_reserved": 0, "is_disabled": 0, "fusion_lon": 0.0, "lat": 38.90202516666667, "name": "051332aaea4f4c83e6f79342c9525e9b", "bike_id": "051332aaea4f4c83e6f79342c9525e9b", "lon": -77.05241466666666, "fusion_lat": 0.0, "rental_uris": {"android": "https://dc.lft.to/lastmile_qr_scan", "ios": "https://dc.lft.to/lastmile_qr_scan"}, "type": "electric_scooter"}, {"is_reserved": 0, "is_disabled": 0, "fusion_lon": 0.0, "lat": 38.936242166666666, "name": "c98fe0aa33e495b9cedcc66f5b9b5aec", "bike_id": "c98fe0aa33e495b9cedcc66f5b9b5aec", "lon": -77.06413966666666, "fusion_lat": 0.0, "rental_uris": {"android": "https://dc.lft.to/lastmile_qr_scan", "ios": "https://dc.lft.to/lastmile_qr_scan"}, "type": "electric_scooter"}, {"is_reserved": 0, "is_disabled": 0, "fusion_lon": 0.0, "lat": 38.91328033333333, "name": "a7e24e8ee38f327e9d473507c8f1c7a7", "bike_id": "a7e24e8ee38f327e9d473507c8f1c7a7", "lon": -77.0317855, "fusion_lat": 0.0, "rental_uris": {"android": "https://dc.lft.to/lastmile_qr_scan", "ios": "https://dc.lft.to/lastmile_qr_scan"}, "type": "electric_scooter"}, {"is_reserved": 0, "is_disabled": 0, "fusion_lon": 0.0, "lat": 38.923627333333336, "name": "6f7156bcd12632ed8a95b86f3fee0fd9", "bike_id": "6f7156bcd12632ed8a95b86f3fee0fd9", "lon": -77.01913866666666, "fusion_lat": 0.0, "rental_uris": {"android": "https://dc.lft.to/lastmile_qr_scan", "ios": "https://dc.lft.to/lastmile_qr_scan"}, "type": "electric_scooter"}, {"is_reserved": 0, "is_disabled": 0, "fusion_lon": 0.0, "lat": 38.899614, "name": "451e6d6d86758f6c61abf9fc1ed84280", "bike_id": "451e6d6d86758f6c61abf9fc1ed84280", "lon": -77.045088, "fusion_lat": 0.0, "rental_uris": {"android": "https://dc.lft.to/lastmile_qr_scan", "ios": "https://dc.lft.to/lastmile_qr_scan"}, "type": "electric_scooter"}, {"is_reserved": 0, "is_disabled": 0, "fusion_lon": 0.0, "lat": 38.91557983333333, "name": "7b7570dcb1177195de3052b69a8f65af", "bike_id": "7b7570dcb1177195de3052b69a8f65af", "lon": -77.04621866666666, "fusion_lat": 0.0, "rental_uris": {"android": "https://dc.lft.to/lastmile_qr_scan", "ios": "https://dc.lft.to/lastmile_qr_scan"}, "type": "electric_scooter"}, {"is_reserved": 0, "is_disabled": 0, "fusion_lon": 0.0, "lat": 38.95056616666667, "name": "2b5a305ada597fe516bafc039e21ad37", "bike_id": "2b5a305ada597fe516bafc039e21ad37", "lon": -77.06639133333333, "fusion_lat": 0.0, "rental_uris": {"android": "https://dc.lft.to/lastmile_qr_scan", "ios": "https://dc.lft.to/lastmile_qr_scan"}, "type": "electric_bike"}, {"is_reserved": 0, "is_disabled": 0, "fusion_lon": 0.0, "lat": 38.91904916666667, "name": "4d799c9434f2a8038076b2e248e12488", "bike_id": "4d799c9434f2a8038076b2e248e12488", "lon": -77.01217766666667, "fusion_lat": 0.0, "rental_uris": {"android": "https://dc.lft.to/lastmile_qr_scan", "ios": "https://dc.lft.to/lastmile_qr_scan"}, "type": "electric_scooter"}, {"is_reserved": 0, "is_disabled": 0, "fusion_lon": 0.0, "lat": 38.914001166666665, "name": "dacd8ebab8bdd48d988a20bc3e54d4e5", "bike_id": "dacd8ebab8bdd48d988a20bc3e54d4e5", "lon": -77.01820483333333, "fusion_lat": 0.0, "rental_uris": {"android": "https://dc.lft.to/lastmile_qr_scan", "ios": "https://dc.lft.to/lastmile_qr_scan"}, "type": "electric_scooter"}, {"is_reserved": 0, "is_disabled": 0, "fusion_lon": 0.0, "lat": 38.92764483333333, "name": "d2a7f351470a011152fbcaf681ed2b4c", "bike_id": "d2a7f351470a011152fbcaf681ed2b4c", "lon": -77.0277285, "fusion_lat": 0.0, "rental_uris": {"android": "https://dc.lft.to/lastmile_qr_scan", "ios": "https://dc.lft.to/lastmile_qr_scan"}, "type": "electric_scooter"}, {"is_reserved": 0, "is_disabled": 0, "fusion_lon": 0.0, "lat": 38.91997166666667, "name": "9113cef11fa6c39da1a85984571b2dfe", "bike_id": "9113cef11fa6c39da1a85984571b2dfe", "lon": -77.023805, "fusion_lat": 0.0, "rental_uris": {"android": "https://dc.lft.to/lastmile_qr_scan", "ios": "https://dc.lft.to/lastmile_qr_scan"}, "type": "electric_scooter"}, {"is_reserved": 0, "is_disabled": 0, "fusion_lon": 0.0, "lat": 38.934039, "name": "c5dc99769fcea92c806d70d407f8ab55", "bike_id": "c5dc99769fcea92c806d70d407f8ab55", "lon": -77.04551216666667, "fusion_lat": 0.0, "rental_uris": {"android": "https://dc.lft.to/lastmile_qr_scan", "ios": "https://dc.lft.to/lastmile_qr_scan"}, "type": "electric_scooter"}, {"is_reserved": 0, "is_disabled": 0, "fusion_lon": 0.0, "lat": 38.92794716666667, "name": "bf3ab30664f9889f6af5c62335d5d8da", "bike_id": "bf3ab30664f9889f6af5c62335d5d8da", "lon": -77.03142316666667, "fusion_lat": 0.0, "rental_uris": {"android": "https://dc.lft.to/lastmile_qr_scan", "ios": "https://dc.lft.to/lastmile_qr_scan"}, "type": "electric_scooter"}, {"is_reserved": 0, "is_disabled": 0, "fusion_lon": 0.0, "lat": 38.9168875, "name": "74aed194f1559a3f0285d99fbf8d6f06", "bike_id": "74aed194f1559a3f0285d99fbf8d6f06", "lon": -77.01728783333333, "fusion_lat": 0.0, "rental_uris": {"android": "https://dc.lft.to/lastmile_qr_scan", "ios": "https://dc.lft.to/lastmile_qr_scan"}, "type": "electric_scooter"}, {"is_reserved": 0, "is_disabled": 0, "fusion_lon": 0.0, "lat": 39.02925966666667, "name": "6a10ae613aeb3a8c7e78ff6f398df31e", "bike_id": "6a10ae613aeb3a8c7e78ff6f398df31e", "lon": -77.0135745, "fusion_lat": 0.0, "rental_uris": {"android": "https://dc.lft.to/lastmile_qr_scan", "ios": "https://dc.lft.to/lastmile_qr_scan"}, "type": "electric_bike"}, {"is_reserved": 0, "is_disabled": 0, "fusion_lon": 0.0, "lat": 38.8966635, "name": "69e858a2f814395922d820cd92840456", "bike_id": "69e858a2f814395922d820cd92840456", "lon": -77.04348666666667, "fusion_lat": 0.0, "rental_uris": {"android": "https://dc.lft.to/lastmile_qr_scan", "ios": "https://dc.lft.to/lastmile_qr_scan"}, "type": "electric_scooter"}, {"is_reserved": 0, "is_disabled": 0, "fusion_lon": 0.0, "lat": 38.9078635, "name": "dcae302a813c8a0da33ae368d2e84960", "bike_id": "dcae302a813c8a0da33ae368d2e84960", "lon": -77.0318465, "fusion_lat": 0.0, "rental_uris": {"android": "https://dc.lft.to/lastmile_qr_scan", "ios": "https://dc.lft.to/lastmile_qr_scan"}, "type": "electric_scooter"}, {"is_reserved": 0, "is_disabled": 0, "fusion_lon": 0.0, "lat": 38.87800416666666, "name": "f6ffb167c001a41e7a5c48283cfa8da5", "bike_id": "f6ffb167c001a41e7a5c48283cfa8da5", "lon": -76.98823733333333, "fusion_lat": 0.0, "rental_uris": {"android": "https://dc.lft.to/lastmile_qr_scan", "ios": "https://dc.lft.to/lastmile_qr_scan"}, "type": "electric_scooter"}, {"is_reserved": 0, "is_disabled": 0, "fusion_lon": 0.0, "lat": 38.85802, "name": "2545cdf58af295f3c0797662da088b8a", "bike_id": "2545cdf58af295f3c0797662da088b8a", "lon": -76.98747383333334, "fusion_lat": 0.0, "rental_uris": {"android": "https://dc.lft.to/lastmile_qr_scan", "ios": "https://dc.lft.to/lastmile_qr_scan"}, "type": "electric_bike"}, {"is_reserved": 0, "is_disabled": 0, "fusion_lon": 0.0, "lat": 39.00160566666667, "name": "8a043dc910a9ecdb08666aee5f70029d", "bike_id": "8a043dc910a9ecdb08666aee5f70029d", "lon": -76.9024505, "fusion_lat": 0.0, "rental_uris": {"android": "https://dc.lft.to/lastmile_qr_scan", "ios": "https://dc.lft.to/lastmile_qr_scan"}, "type": "electric_bike"}, {"is_reserved": 0, "is_disabled": 0, "fusion_lon": 0.0, "lat": 38.90959483333334, "name": "c039cf643719f27c2f68c0847d5ed6b2", "bike_id": "c039cf643719f27c2f68c0847d5ed6b2", "lon": -77.0227585, "fusion_lat": 0.0, "rental_uris": {"android": "https://dc.lft.to/lastmile_qr_scan", "ios": "https://dc.lft.to/lastmile_qr_scan"}, "type": "electric_scooter"}, {"is_reserved": 0, "is_disabled": 0, "fusion_lon": 0.0, "lat": 38.95112866666667, "name": "bc8c37d53f9e0cd2ea6bdce3572f358b", "bike_id": "bc8c37d53f9e0cd2ea6bdce3572f358b", "lon": -77.08869566666667, "fusion_lat": 0.0, "rental_uris": {"android": "https://dc.lft.to/lastmile_qr_scan", "ios": "https://dc.lft.to/lastmile_qr_scan"}, "type": "electric_bike"}, {"is_reserved": 0, "is_disabled": 0, "fusion_lon": 0.0, "lat": 38.93636733333334, "name": "07217dc2fb7f32a4c283caed3c474e66", "bike_id": "07217dc2fb7f32a4c283caed3c474e66", "lon": -76.95458966666666, "fusion_lat": 0.0, "rental_uris": {"android": "https://dc.lft.to/lastmile_qr_scan", "ios": "https://dc.lft.to/lastmile_qr_scan"}, "type": "electric_bike"}, {"is_reserved": 0, "is_disabled": 0, "fusion_lon": 0.0, "lat": 38.923217666666666, "name": "2293f6bd434a75254117af4a6909ddf1", "bike_id": "2293f6bd434a75254117af4a6909ddf1", "lon": -77.02885566666667, "fusion_lat": 0.0, "rental_uris": {"android": "https://dc.lft.to/lastmile_qr_scan", "ios": "https://dc.lft.to/lastmile_qr_scan"}, "type": "electric_scooter"}, {"is_reserved": 0, "is_disabled": 0, "fusion_lon": 0.0, "lat": 38.93704483333333, "name": "646db36e1a5eb181eec1811045508af1", "bike_id": "646db36e1a5eb181eec1811045508af1", "lon": -77.0561105, "fusion_lat": 0.0, "rental_uris": {"android": "https://dc.lft.to/lastmile_qr_scan", "ios": "https://dc.lft.to/lastmile_qr_scan"}, "type": "electric_scooter"}, {"is_reserved": 0, "is_disabled": 0, "fusion_lon": 0.0, "lat": 38.919206333333335, "name": "af880528c87431eeffde889eda0c41af", "bike_id": "af880528c87431eeffde889eda0c41af", "lon": -77.02614133333333, "fusion_lat": 0.0, "rental_uris": {"android": "https://dc.lft.to/lastmile_qr_scan", "ios": "https://dc.lft.to/lastmile_qr_scan"}, "type": "electric_scooter"}, {"is_reserved": 0, "is_disabled": 0, "fusion_lon": 0.0, "lat": 38.90674033333333, "name": "55988a57c6e9606fa3b6bb2b3bb3bfbf", "bike_id": "55988a57c6e9606fa3b6bb2b3bb3bfbf", "lon": -77.02406116666667, "fusion_lat": 0.0, "rental_uris": {"android": "https://dc.lft.to/lastmile_qr_scan", "ios": "https://dc.lft.to/lastmile_qr_scan"}, "type": "electric_scooter"}, {"is_reserved": 0, "is_disabled": 0, "fusion_lon": 0.0, "lat": 38.89492333333333, "name": "074904d5f3661741f655625dd4a8df81", "bike_id": "074904d5f3661741f655625dd4a8df81", "lon": -76.94892016666667, "fusion_lat": 0.0, "rental_uris": {"android": "https://dc.lft.to/lastmile_qr_scan", "ios": "https://dc.lft.to/lastmile_qr_scan"}, "type": "electric_scooter"}, {"is_reserved": 0, "is_disabled": 0, "fusion_lon": 0.0, "lat": 38.92479383333333, "name": "ff3d69b5fc62dde553106c3507b4fe7b", "bike_id": "ff3d69b5fc62dde553106c3507b4fe7b", "lon": -77.0300765, "fusion_lat": 0.0, "rental_uris": {"android": "https://dc.lft.to/lastmile_qr_scan", "ios": "https://dc.lft.to/lastmile_qr_scan"}, "type": "electric_scooter"}, {"is_reserved": 0, "is_disabled": 0, "fusion_lon": 0.0, "lat": 38.934625833333335, "name": "aef306b5bd66546eaafc6cbfebd04efb", "bike_id": "aef306b5bd66546eaafc6cbfebd04efb", "lon": -77.05806866666667, "fusion_lat": 0.0, "rental_uris": {"android": "https://dc.lft.to/lastmile_qr_scan", "ios": "https://dc.lft.to/lastmile_qr_scan"}, "type": "electric_scooter"}, {"is_reserved": 0, "is_disabled": 0, "fusion_lon": 0.0, "lat": 38.9573195, "name": "5093363f7aea83bff57380ea95e1b6e7", "bike_id": "5093363f7aea83bff57380ea95e1b6e7", "lon": -77.0239965, "fusion_lat": 0.0, "rental_uris": {"android": "https://dc.lft.to/lastmile_qr_scan", "ios": "https://dc.lft.to/lastmile_qr_scan"}, "type": "electric_scooter"}, {"is_reserved": 0, "is_disabled": 0, "fusion_lon": 0.0, "lat": 38.90073616666667, "name": "08670361f2a47ba0627a723ac8f86aad", "bike_id": "08670361f2a47ba0627a723ac8f86aad", "lon": -77.01791833333333, "fusion_lat": 0.0, "rental_uris": {"android": "https://dc.lft.to/lastmile_qr_scan", "ios": "https://dc.lft.to/lastmile_qr_scan"}, "type": "electric_scooter"}, {"is_reserved": 0, "is_disabled": 0, "fusion_lon": 0.0, "lat": 38.9068105, "name": "3b2d2e56ba56a12a9d4ed112c77fe6de", "bike_id": "3b2d2e56ba56a12a9d4ed112c77fe6de", "lon": -77.02691933333334, "fusion_lat": 0.0, "rental_uris": {"android": "https://dc.lft.to/lastmile_qr_scan", "ios": "https://dc.lft.to/lastmile_qr_scan"}, "type": "electric_scooter"}, {"is_reserved": 0, "is_disabled": 0, "fusion_lon": 0.0, "lat": 38.926158666666666, "name": "3d955e5a4036bf42a7d888612d04db78", "bike_id": "3d955e5a4036bf42a7d888612d04db78", "lon": -77.039607, "fusion_lat": 0.0, "rental_uris": {"android": "https://dc.lft.to/lastmile_qr_scan", "ios": "https://dc.lft.to/lastmile_qr_scan"}, "type": "electric_scooter"}, {"is_reserved": 0, "is_disabled": 0, "fusion_lon": 0.0, "lat": 38.90566333333334, "name": "2e7c957ebf47db3db3ae034436a37577", "bike_id": "2e7c957ebf47db3db3ae034436a37577", "lon": -77.05694166666666, "fusion_lat": 0.0, "rental_uris": {"android": "https://dc.lft.to/lastmile_qr_scan", "ios": "https://dc.lft.to/lastmile_qr_scan"}, "type": "electric_scooter"}, {"is_reserved": 0, "is_disabled": 0, "fusion_lon": 0.0, "lat": 38.9415095, "name": "16d886d54abcbf44ea7f0d908c5dc7a2", "bike_id": "16d886d54abcbf44ea7f0d908c5dc7a2", "lon": -77.00197183333333, "fusion_lat": 0.0, "rental_uris": {"android": "https://dc.lft.to/lastmile_qr_scan", "ios": "https://dc.lft.to/lastmile_qr_scan"}, "type": "electric_bike"}, {"is_reserved": 0, "is_disabled": 0, "fusion_lon": 0.0, "lat": 38.915556333333335, "name": "c57c90181532cf3c031ac904e2d26cf0", "bike_id": "c57c90181532cf3c031ac904e2d26cf0", "lon": -77.05094366666667, "fusion_lat": 0.0, "rental_uris": {"android": "https://dc.lft.to/lastmile_qr_scan", "ios": "https://dc.lft.to/lastmile_qr_scan"}, "type": "electric_scooter"}, {"is_reserved": 0, "is_disabled": 0, "fusion_lon": 0.0, "lat": 38.889691, "name": "ef556660b06af1725521e7fbd982bf54", "bike_id": "ef556660b06af1725521e7fbd982bf54", "lon": -76.980376, "fusion_lat": 0.0, "rental_uris": {"android": "https://dc.lft.to/lastmile_qr_scan", "ios": "https://dc.lft.to/lastmile_qr_scan"}, "type": "electric_scooter"}, {"is_reserved": 0, "is_disabled": 0, "fusion_lon": 0.0, "lat": 38.89752083333333, "name": "1fdb92a8fdb1a537d0f5aae1dd1a3c60", "bike_id": "1fdb92a8fdb1a537d0f5aae1dd1a3c60", "lon": -77.029848, "fusion_lat": 0.0, "rental_uris": {"android": "https://dc.lft.to/lastmile_qr_scan", "ios": "https://dc.lft.to/lastmile_qr_scan"}, "type": "electric_scooter"}, {"is_reserved": 0, "is_disabled": 0, "fusion_lon": 0.0, "lat": 38.91047433333333, "name": "88949b653c37bfc3fea472ab1263e12e", "bike_id": "88949b653c37bfc3fea472ab1263e12e", "lon": -77.032461, "fusion_lat": 0.0, "rental_uris": {"android": "https://dc.lft.to/lastmile_qr_scan", "ios": "https://dc.lft.to/lastmile_qr_scan"}, "type": "electric_scooter"}, {"is_reserved": 0, "is_disabled": 0, "fusion_lon": 0.0, "lat": 38.84673383333333, "name": "84e16626ea16ac2fa84b0edaa4940e45", "bike_id": "84e16626ea16ac2fa84b0edaa4940e45", "lon": -77.1392135, "fusion_lat": 0.0, "rental_uris": {"android": "https://dc.lft.to/lastmile_qr_scan", "ios": "https://dc.lft.to/lastmile_qr_scan"}, "type": "electric_bike"}, {"is_reserved": 0, "is_disabled": 0, "fusion_lon": 0.0, "lat": 38.923800666666665, "name": "6ebc9f24b673b5fdcb0fd68937b7f9a6", "bike_id": "6ebc9f24b673b5fdcb0fd68937b7f9a6", "lon": -77.03048333333334, "fusion_lat": 0.0, "rental_uris": {"android": "https://dc.lft.to/lastmile_qr_scan", "ios": "https://dc.lft.to/lastmile_qr_scan"}, "type": "electric_scooter"}, {"is_reserved": 0, "is_disabled": 0, "fusion_lon": 0.0, "lat": 38.895159666666665, "name": "106d9702743a146a2ae84c5cdb08193b", "bike_id": "106d9702743a146a2ae84c5cdb08193b", "lon": -77.04482, "fusion_lat": 0.0, "rental_uris": {"android": "https://dc.lft.to/lastmile_qr_scan", "ios": "https://dc.lft.to/lastmile_qr_scan"}, "type": "electric_scooter"}, {"is_reserved": 0, "is_disabled": 0, "fusion_lon": 0.0, "lat": 38.91326333333333, "name": "a091e0b11b202bd095ffb0aea1e045a6", "bike_id": "a091e0b11b202bd095ffb0aea1e045a6", "lon": -77.045379, "fusion_lat": 0.0, "rental_uris": {"android": "https://dc.lft.to/lastmile_qr_scan", "ios": "https://dc.lft.to/lastmile_qr_scan"}, "type": "electric_scooter"}, {"is_reserved": 0, "is_disabled": 0, "fusion_lon": 0.0, "lat": 38.9094895, "name": "543cab6ef94284ad4dd10c8c07c32f42", "bike_id": "543cab6ef94284ad4dd10c8c07c32f42", "lon": -77.0238105, "fusion_lat": 0.0, "rental_uris": {"android": "https://dc.lft.to/lastmile_qr_scan", "ios": "https://dc.lft.to/lastmile_qr_scan"}, "type": "electric_scooter"}, {"is_reserved": 0, "is_disabled": 0, "fusion_lon": 0.0, "lat": 38.92311816666667, "name": "c864a29943f85e06e2599f9d44860119", "bike_id": "c864a29943f85e06e2599f9d44860119", "lon": -77.027087, "fusion_lat": 0.0, "rental_uris": {"android": "https://dc.lft.to/lastmile_qr_scan", "ios": "https://dc.lft.to/lastmile_qr_scan"}, "type": "electric_scooter"}, {"is_reserved": 0, "is_disabled": 0, "fusion_lon": 0.0, "lat": 38.91807933333333, "name": "de28dd6eac1b1c2b4eeda2baf01d19b6", "bike_id": "de28dd6eac1b1c2b4eeda2baf01d19b6", "lon": -77.01424466666667, "fusion_lat": 0.0, "rental_uris": {"android": "https://dc.lft.to/lastmile_qr_scan", "ios": "https://dc.lft.to/lastmile_qr_scan"}, "type": "electric_scooter"}, {"is_reserved": 0, "is_disabled": 0, "fusion_lon": 0.0, "lat": 38.957572666666664, "name": "3ae84fcb3304815d57dbaa71cc6bd506", "bike_id": "3ae84fcb3304815d57dbaa71cc6bd506", "lon": -77.00912966666667, "fusion_lat": 0.0, "rental_uris": {"android": "https://dc.lft.to/lastmile_qr_scan", "ios": "https://dc.lft.to/lastmile_qr_scan"}, "type": "electric_scooter"}, {"is_reserved": 0, "is_disabled": 0, "fusion_lon": 0.0, "lat": 38.8950445, "name": "ed3d4dbfb381c007e6080f43b1b1a8e4", "bike_id": "ed3d4dbfb381c007e6080f43b1b1a8e4", "lon": -77.0463665, "fusion_lat": 0.0, "rental_uris": {"android": "https://dc.lft.to/lastmile_qr_scan", "ios": "https://dc.lft.to/lastmile_qr_scan"}, "type": "electric_scooter"}, {"is_reserved": 0, "is_disabled": 0, "fusion_lon": 0.0, "lat": 38.87070533333333, "name": "2269ba04269b925a0d364cb4864d5d6f", "bike_id": "2269ba04269b925a0d364cb4864d5d6f", "lon": -77.1105785, "fusion_lat": 0.0, "rental_uris": {"android": "https://dc.lft.to/lastmile_qr_scan", "ios": "https://dc.lft.to/lastmile_qr_scan"}, "type": "electric_bike"}, {"is_reserved": 0, "is_disabled": 0, "fusion_lon": 0.0, "lat": 38.90112333333333, "name": "8fbe28a635ad76939967de7513c76ffa", "bike_id": "8fbe28a635ad76939967de7513c76ffa", "lon": -77.031746, "fusion_lat": 0.0, "rental_uris": {"android": "https://dc.lft.to/lastmile_qr_scan", "ios": "https://dc.lft.to/lastmile_qr_scan"}, "type": "electric_scooter"}, {"is_reserved": 0, "is_disabled": 0, "fusion_lon": 0.0, "lat": 38.924030333333334, "name": "65104885d414d20034507906e30c91d8", "bike_id": "65104885d414d20034507906e30c91d8", "lon": -77.0193925, "fusion_lat": 0.0, "rental_uris": {"android": "https://dc.lft.to/lastmile_qr_scan", "ios": "https://dc.lft.to/lastmile_qr_scan"}, "type": "electric_scooter"}, {"is_reserved": 0, "is_disabled": 0, "fusion_lon": 0.0, "lat": 38.91193116666667, "name": "dcebd031e8de09f174c08172f233ceb9", "bike_id": "dcebd031e8de09f174c08172f233ceb9", "lon": -77.01081933333333, "fusion_lat": 0.0, "rental_uris": {"android": "https://dc.lft.to/lastmile_qr_scan", "ios": "https://dc.lft.to/lastmile_qr_scan"}, "type": "electric_scooter"}, {"is_reserved": 0, "is_disabled": 0, "fusion_lon": 0.0, "lat": 38.9272905, "name": "c228a0d8621d6890207a19819607e196", "bike_id": "c228a0d8621d6890207a19819607e196", "lon": -77.022745, "fusion_lat": 0.0, "rental_uris": {"android": "https://dc.lft.to/lastmile_qr_scan", "ios": "https://dc.lft.to/lastmile_qr_scan"}, "type": "electric_scooter"}, {"is_reserved": 0, "is_disabled": 0, "fusion_lon": 0.0, "lat": 38.916813, "name": "f897925e5fc94463e0b6bb467e58be79", "bike_id": "f897925e5fc94463e0b6bb467e58be79", "lon": -77.02939433333333, "fusion_lat": 0.0, "rental_uris": {"android": "https://dc.lft.to/lastmile_qr_scan", "ios": "https://dc.lft.to/lastmile_qr_scan"}, "type": "electric_scooter"}, {"is_reserved": 0, "is_disabled": 0, "fusion_lon": 0.0, "lat": 38.91943833333333, "name": "25c343e42d97280ffca4fb226e694b2e", "bike_id": "25c343e42d97280ffca4fb226e694b2e", "lon": -77.04553533333333, "fusion_lat": 0.0, "rental_uris": {"android": "https://dc.lft.to/lastmile_qr_scan", "ios": "https://dc.lft.to/lastmile_qr_scan"}, "type": "electric_scooter"}, {"is_reserved": 0, "is_disabled": 0, "fusion_lon": 0.0, "lat": 38.92347783333334, "name": "8027e73d96a307de3634f5d011b129dc", "bike_id": "8027e73d96a307de3634f5d011b129dc", "lon": -77.03538416666666, "fusion_lat": 0.0, "rental_uris": {"android": "https://dc.lft.to/lastmile_qr_scan", "ios": "https://dc.lft.to/lastmile_qr_scan"}, "type": "electric_scooter"}, {"is_reserved": 0, "is_disabled": 0, "fusion_lon": 0.0, "lat": 38.93591683333333, "name": "91d96083360960525111485121497ac8", "bike_id": "91d96083360960525111485121497ac8", "lon": -77.02114816666666, "fusion_lat": 0.0, "rental_uris": {"android": "https://dc.lft.to/lastmile_qr_scan", "ios": "https://dc.lft.to/lastmile_qr_scan"}, "type": "electric_bike"}, {"is_reserved": 0, "is_disabled": 0, "fusion_lon": 0.0, "lat": 38.927537, "name": "6209df888723b53f1ae7e97e49a05eb2", "bike_id": "6209df888723b53f1ae7e97e49a05eb2", "lon": -77.02111733333334, "fusion_lat": 0.0, "rental_uris": {"android": "https://dc.lft.to/lastmile_qr_scan", "ios": "https://dc.lft.to/lastmile_qr_scan"}, "type": "electric_scooter"}, {"is_reserved": 0, "is_disabled": 0, "fusion_lon": 0.0, "lat": 38.919823, "name": "3b84228b7a65f4c6111e5ba69142c7aa", "bike_id": "3b84228b7a65f4c6111e5ba69142c7aa", "lon": -77.0219495, "fusion_lat": 0.0, "rental_uris": {"android": "https://dc.lft.to/lastmile_qr_scan", "ios": "https://dc.lft.to/lastmile_qr_scan"}, "type": "electric_scooter"}, {"is_reserved": 0, "is_disabled": 0, "fusion_lon": 0.0, "lat": 38.9140405, "name": "836f2c32f4d8ad3a82456360966b5aed", "bike_id": "836f2c32f4d8ad3a82456360966b5aed", "lon": -77.03261733333333, "fusion_lat": 0.0, "rental_uris": {"android": "https://dc.lft.to/lastmile_qr_scan", "ios": "https://dc.lft.to/lastmile_qr_scan"}, "type": "electric_scooter"}, {"is_reserved": 0, "is_disabled": 0, "fusion_lon": 0.0, "lat": 38.923938, "name": "9f572ac55799033ab9540476268191bf", "bike_id": "9f572ac55799033ab9540476268191bf", "lon": -77.02735283333334, "fusion_lat": 0.0, "rental_uris": {"android": "https://dc.lft.to/lastmile_qr_scan", "ios": "https://dc.lft.to/lastmile_qr_scan"}, "type": "electric_scooter"}, {"is_reserved": 0, "is_disabled": 0, "fusion_lon": 0.0, "lat": 38.95603066666666, "name": "122d58866fbcb6344d0fdda13fd964c1", "bike_id": "122d58866fbcb6344d0fdda13fd964c1", "lon": -77.01014283333333, "fusion_lat": 0.0, "rental_uris": {"android": "https://dc.lft.to/lastmile_qr_scan", "ios": "https://dc.lft.to/lastmile_qr_scan"}, "type": "electric_bike"}, {"is_reserved": 0, "is_disabled": 0, "fusion_lon": 0.0, "lat": 38.92031016666667, "name": "111b3ddea0edcb7a95c4f4036da23bcd", "bike_id": "111b3ddea0edcb7a95c4f4036da23bcd", "lon": -77.012202, "fusion_lat": 0.0, "rental_uris": {"android": "https://dc.lft.to/lastmile_qr_scan", "ios": "https://dc.lft.to/lastmile_qr_scan"}, "type": "electric_scooter"}, {"is_reserved": 0, "is_disabled": 0, "fusion_lon": 0.0, "lat": 38.842248166666664, "name": "5674c905d23d796dd9bd13feb0eb3a89", "bike_id": "5674c905d23d796dd9bd13feb0eb3a89", "lon": -76.94891883333334, "fusion_lat": 0.0, "rental_uris": {"android": "https://dc.lft.to/lastmile_qr_scan", "ios": "https://dc.lft.to/lastmile_qr_scan"}, "type": "electric_bike"}, {"is_reserved": 0, "is_disabled": 0, "fusion_lon": 0.0, "lat": 38.92557816666667, "name": "9e1c0a2313cacf816b0860e3703ed7d0", "bike_id": "9e1c0a2313cacf816b0860e3703ed7d0", "lon": -77.022837, "fusion_lat": 0.0, "rental_uris": {"android": "https://dc.lft.to/lastmile_qr_scan", "ios": "https://dc.lft.to/lastmile_qr_scan"}, "type": "electric_scooter"}, {"is_reserved": 0, "is_disabled": 0, "fusion_lon": 0.0, "lat": 38.894758333333336, "name": "c339f26bdc3a30284ec9fed782d2b8c4", "bike_id": "c339f26bdc3a30284ec9fed782d2b8c4", "lon": -77.04170816666667, "fusion_lat": 0.0, "rental_uris": {"android": "https://dc.lft.to/lastmile_qr_scan", "ios": "https://dc.lft.to/lastmile_qr_scan"}, "type": "electric_scooter"}, {"is_reserved": 0, "is_disabled": 0, "fusion_lon": 0.0, "lat": 38.923380333333334, "name": "70431b676369880f8ecd2ff203929bc4", "bike_id": "70431b676369880f8ecd2ff203929bc4", "lon": -77.05675666666667, "fusion_lat": 0.0, "rental_uris": {"android": "https://dc.lft.to/lastmile_qr_scan", "ios": "https://dc.lft.to/lastmile_qr_scan"}, "type": "electric_scooter"}, {"is_reserved": 0, "is_disabled": 0, "fusion_lon": 0.0, "lat": 38.911090333333334, "name": "1dc02fb407ca94b78e60966308d99501", "bike_id": "1dc02fb407ca94b78e60966308d99501", "lon": -77.04518266666666, "fusion_lat": 0.0, "rental_uris": {"android": "https://dc.lft.to/lastmile_qr_scan", "ios": "https://dc.lft.to/lastmile_qr_scan"}, "type": "electric_scooter"}, {"is_reserved": 0, "is_disabled": 0, "fusion_lon": 0.0, "lat": 38.926982333333335, "name": "1521d6f87fba634c7fee3d46167e7599", "bike_id": "1521d6f87fba634c7fee3d46167e7599", "lon": -77.02073816666666, "fusion_lat": 0.0, "rental_uris": {"android": "https://dc.lft.to/lastmile_qr_scan", "ios": "https://dc.lft.to/lastmile_qr_scan"}, "type": "electric_scooter"}, {"is_reserved": 0, "is_disabled": 0, "fusion_lon": 0.0, "lat": 38.86058833333333, "name": "8fc67067f35abfebddd2fc1fe401811f", "bike_id": "8fc67067f35abfebddd2fc1fe401811f", "lon": -76.984228, "fusion_lat": 0.0, "rental_uris": {"android": "https://dc.lft.to/lastmile_qr_scan", "ios": "https://dc.lft.to/lastmile_qr_scan"}, "type": "electric_scooter"}, {"is_reserved": 0, "is_disabled": 0, "fusion_lon": 0.0, "lat": 38.89221383333334, "name": "01a650df6701fdc05fffd1208ae58252", "bike_id": "01a650df6701fdc05fffd1208ae58252", "lon": -77.0486815, "fusion_lat": 0.0, "rental_uris": {"android": "https://dc.lft.to/lastmile_qr_scan", "ios": "https://dc.lft.to/lastmile_qr_scan"}, "type": "electric_scooter"}, {"is_reserved": 0, "is_disabled": 0, "fusion_lon": 0.0, "lat": 38.91801733333333, "name": "744a1096c8bcbf96fa56095dc42fe5f7", "bike_id": "744a1096c8bcbf96fa56095dc42fe5f7", "lon": -77.04017266666666, "fusion_lat": 0.0, "rental_uris": {"android": "https://dc.lft.to/lastmile_qr_scan", "ios": "https://dc.lft.to/lastmile_qr_scan"}, "type": "electric_scooter"}, {"is_reserved": 0, "is_disabled": 0, "fusion_lon": 0.0, "lat": 38.902353833333336, "name": "d45bfdbc4e5b0430e98a214892c7a331", "bike_id": "d45bfdbc4e5b0430e98a214892c7a331", "lon": -77.03018333333333, "fusion_lat": 0.0, "rental_uris": {"android": "https://dc.lft.to/lastmile_qr_scan", "ios": "https://dc.lft.to/lastmile_qr_scan"}, "type": "electric_scooter"}, {"is_reserved": 0, "is_disabled": 0, "fusion_lon": 0.0, "lat": 38.8521975, "name": "5649802a3349fa57302a5a52678dc2c0", "bike_id": "5649802a3349fa57302a5a52678dc2c0", "lon": -76.99373633333333, "fusion_lat": 0.0, "rental_uris": {"android": "https://dc.lft.to/lastmile_qr_scan", "ios": "https://dc.lft.to/lastmile_qr_scan"}, "type": "electric_scooter"}, {"is_reserved": 0, "is_disabled": 0, "fusion_lon": 0.0, "lat": 38.92683616666667, "name": "a684095d5242968596bdcbbce8fba325", "bike_id": "a684095d5242968596bdcbbce8fba325", "lon": -77.01504366666667, "fusion_lat": 0.0, "rental_uris": {"android": "https://dc.lft.to/lastmile_qr_scan", "ios": "https://dc.lft.to/lastmile_qr_scan"}, "type": "electric_scooter"}, {"is_reserved": 0, "is_disabled": 0, "fusion_lon": 0.0, "lat": 38.90513266666667, "name": "46c4af1eccd7864a5a2c5dd6e7ea1e4e", "bike_id": "46c4af1eccd7864a5a2c5dd6e7ea1e4e", "lon": -77.02959883333334, "fusion_lat": 0.0, "rental_uris": {"android": "https://dc.lft.to/lastmile_qr_scan", "ios": "https://dc.lft.to/lastmile_qr_scan"}, "type": "electric_scooter"}, {"is_reserved": 0, "is_disabled": 0, "fusion_lon": 0.0, "lat": 38.92233933333333, "name": "e498fc8655e3782cada1c3a42afa06e7", "bike_id": "e498fc8655e3782cada1c3a42afa06e7", "lon": -77.0284705, "fusion_lat": 0.0, "rental_uris": {"android": "https://dc.lft.to/lastmile_qr_scan", "ios": "https://dc.lft.to/lastmile_qr_scan"}, "type": "electric_scooter"}, {"is_reserved": 0, "is_disabled": 0, "fusion_lon": 0.0, "lat": 38.91482383333334, "name": "e46e67271abab888d77d645a18dc313a", "bike_id": "e46e67271abab888d77d645a18dc313a", "lon": -77.002224, "fusion_lat": 0.0, "rental_uris": {"android": "https://dc.lft.to/lastmile_qr_scan", "ios": "https://dc.lft.to/lastmile_qr_scan"}, "type": "electric_scooter"}, {"is_reserved": 0, "is_disabled": 0, "fusion_lon": 0.0, "lat": 38.89599316666666, "name": "51d7f484e77276a31ba9e511a47e19ec", "bike_id": "51d7f484e77276a31ba9e511a47e19ec", "lon": -77.01902783333334, "fusion_lat": 0.0, "rental_uris": {"android": "https://dc.lft.to/lastmile_qr_scan", "ios": "https://dc.lft.to/lastmile_qr_scan"}, "type": "electric_scooter"}, {"is_reserved": 0, "is_disabled": 0, "fusion_lon": 0.0, "lat": 38.920971333333334, "name": "d4f247ab2df0ae9e2c6f08428ec4ca6e", "bike_id": "d4f247ab2df0ae9e2c6f08428ec4ca6e", "lon": -77.025357, "fusion_lat": 0.0, "rental_uris": {"android": "https://dc.lft.to/lastmile_qr_scan", "ios": "https://dc.lft.to/lastmile_qr_scan"}, "type": "electric_scooter"}, {"is_reserved": 0, "is_disabled": 0, "fusion_lon": 0.0, "lat": 38.8968485, "name": "81549f2b8c5bf15244c64288e57f4e8e", "bike_id": "81549f2b8c5bf15244c64288e57f4e8e", "lon": -76.927907, "fusion_lat": 0.0, "rental_uris": {"android": "https://dc.lft.to/lastmile_qr_scan", "ios": "https://dc.lft.to/lastmile_qr_scan"}, "type": "electric_scooter"}, {"is_reserved": 0, "is_disabled": 0, "fusion_lon": 0.0, "lat": 38.96213816666667, "name": "4d2b1ddb3d70ecf0947617237c227ced", "bike_id": "4d2b1ddb3d70ecf0947617237c227ced", "lon": -77.02795716666667, "fusion_lat": 0.0, "rental_uris": {"android": "https://dc.lft.to/lastmile_qr_scan", "ios": "https://dc.lft.to/lastmile_qr_scan"}, "type": "electric_scooter"}, {"is_reserved": 0, "is_disabled": 0, "fusion_lon": 0.0, "lat": 38.9037115, "name": "3746b6950a20babccd44701771680562", "bike_id": "3746b6950a20babccd44701771680562", "lon": -77.0374085, "fusion_lat": 0.0, "rental_uris": {"android": "https://dc.lft.to/lastmile_qr_scan", "ios": "https://dc.lft.to/lastmile_qr_scan"}, "type": "electric_scooter"}, {"is_reserved": 0, "is_disabled": 0, "fusion_lon": 0.0, "lat": 38.89216866666666, "name": "5d38a756440925a89540acb4783ecf56", "bike_id": "5d38a756440925a89540acb4783ecf56", "lon": -77.02368166666666, "fusion_lat": 0.0, "rental_uris": {"android": "https://dc.lft.to/lastmile_qr_scan", "ios": "https://dc.lft.to/lastmile_qr_scan"}, "type": "electric_scooter"}, {"is_reserved": 0, "is_disabled": 0, "fusion_lon": 0.0, "lat": 38.9041075, "name": "ad42116c38b1f1d434979f5167081496", "bike_id": "ad42116c38b1f1d434979f5167081496", "lon": -76.9732835, "fusion_lat": 0.0, "rental_uris": {"android": "https://dc.lft.to/lastmile_qr_scan", "ios": "https://dc.lft.to/lastmile_qr_scan"}, "type": "electric_scooter"}, {"is_reserved": 0, "is_disabled": 0, "fusion_lon": 0.0, "lat": 38.92465266666667, "name": "4eed4a25e061ba4f5244b9ea441bf340", "bike_id": "4eed4a25e061ba4f5244b9ea441bf340", "lon": -77.02201933333333, "fusion_lat": 0.0, "rental_uris": {"android": "https://dc.lft.to/lastmile_qr_scan", "ios": "https://dc.lft.to/lastmile_qr_scan"}, "type": "electric_scooter"}, {"is_reserved": 0, "is_disabled": 0, "fusion_lon": 0.0, "lat": 38.89505066666667, "name": "18f7da5e7c8f346315c8aaf9cc4092a9", "bike_id": "18f7da5e7c8f346315c8aaf9cc4092a9", "lon": -76.93473, "fusion_lat": 0.0, "rental_uris": {"android": "https://dc.lft.to/lastmile_qr_scan", "ios": "https://dc.lft.to/lastmile_qr_scan"}, "type": "electric_scooter"}, {"is_reserved": 0, "is_disabled": 0, "fusion_lon": 0.0, "lat": 38.906467, "name": "f4f1483c5c9bb204e6319ebd1a70162e", "bike_id": "f4f1483c5c9bb204e6319ebd1a70162e", "lon": -77.0176605, "fusion_lat": 0.0, "rental_uris": {"android": "https://dc.lft.to/lastmile_qr_scan", "ios": "https://dc.lft.to/lastmile_qr_scan"}, "type": "electric_scooter"}, {"is_reserved": 0, "is_disabled": 0, "fusion_lon": 0.0, "lat": 38.928572333333335, "name": "2fa98cc9e60ce49c5fb6e85aa46adef4", "bike_id": "2fa98cc9e60ce49c5fb6e85aa46adef4", "lon": -77.05434283333334, "fusion_lat": 0.0, "rental_uris": {"android": "https://dc.lft.to/lastmile_qr_scan", "ios": "https://dc.lft.to/lastmile_qr_scan"}, "type": "electric_scooter"}, {"is_reserved": 0, "is_disabled": 0, "fusion_lon": 0.0, "lat": 38.92240183333333, "name": "50450ba7e7b60823a33a98b378ba2197", "bike_id": "50450ba7e7b60823a33a98b378ba2197", "lon": -77.02113233333333, "fusion_lat": 0.0, "rental_uris": {"android": "https://dc.lft.to/lastmile_qr_scan", "ios": "https://dc.lft.to/lastmile_qr_scan"}, "type": "electric_scooter"}, {"is_reserved": 0, "is_disabled": 0, "fusion_lon": 0.0, "lat": 38.895493333333334, "name": "f17f90a345e4a929380b4d661772bfdd", "bike_id": "f17f90a345e4a929380b4d661772bfdd", "lon": -77.00912366666667, "fusion_lat": 0.0, "rental_uris": {"android": "https://dc.lft.to/lastmile_qr_scan", "ios": "https://dc.lft.to/lastmile_qr_scan"}, "type": "electric_scooter"}, {"is_reserved": 0, "is_disabled": 0, "fusion_lon": 0.0, "lat": 38.91347116666667, "name": "ed2604091113b525aa5f20f0a974298e", "bike_id": "ed2604091113b525aa5f20f0a974298e", "lon": -77.03186166666667, "fusion_lat": 0.0, "rental_uris": {"android": "https://dc.lft.to/lastmile_qr_scan", "ios": "https://dc.lft.to/lastmile_qr_scan"}, "type": "electric_scooter"}, {"is_reserved": 0, "is_disabled": 0, "fusion_lon": 0.0, "lat": 38.86879283333333, "name": "1962109c3e3a856ab6f5d994bff91183", "bike_id": "1962109c3e3a856ab6f5d994bff91183", "lon": -76.98657266666666, "fusion_lat": 0.0, "rental_uris": {"android": "https://dc.lft.to/lastmile_qr_scan", "ios": "https://dc.lft.to/lastmile_qr_scan"}, "type": "electric_scooter"}, {"is_reserved": 0, "is_disabled": 0, "fusion_lon": 0.0, "lat": 38.9276575, "name": "698fc77f27c35714e5ed1907944924c4", "bike_id": "698fc77f27c35714e5ed1907944924c4", "lon": -77.02780183333333, "fusion_lat": 0.0, "rental_uris": {"android": "https://dc.lft.to/lastmile_qr_scan", "ios": "https://dc.lft.to/lastmile_qr_scan"}, "type": "electric_scooter"}, {"is_reserved": 0, "is_disabled": 0, "fusion_lon": 0.0, "lat": 38.923299666666665, "name": "49c00f367f0a28fef2a85e4e45b46be3", "bike_id": "49c00f367f0a28fef2a85e4e45b46be3", "lon": -77.0568125, "fusion_lat": 0.0, "rental_uris": {"android": "https://dc.lft.to/lastmile_qr_scan", "ios": "https://dc.lft.to/lastmile_qr_scan"}, "type": "electric_scooter"}, {"is_reserved": 0, "is_disabled": 0, "fusion_lon": 0.0, "lat": 38.921414666666664, "name": "aaae0002c02f79922532f527c1553e07", "bike_id": "aaae0002c02f79922532f527c1553e07", "lon": -77.01216283333333, "fusion_lat": 0.0, "rental_uris": {"android": "https://dc.lft.to/lastmile_qr_scan", "ios": "https://dc.lft.to/lastmile_qr_scan"}, "type": "electric_scooter"}, {"is_reserved": 0, "is_disabled": 0, "fusion_lon": 0.0, "lat": 38.8544455, "name": "b02624ce221319a3d99e99b759a3fd95", "bike_id": "b02624ce221319a3d99e99b759a3fd95", "lon": -77.08321183333334, "fusion_lat": 0.0, "rental_uris": {"android": "https://dc.lft.to/lastmile_qr_scan", "ios": "https://dc.lft.to/lastmile_qr_scan"}, "type": "electric_bike"}, {"is_reserved": 0, "is_disabled": 0, "fusion_lon": 0.0, "lat": 38.91573483333333, "name": "809deef72688974f96b581c31f392519", "bike_id": "809deef72688974f96b581c31f392519", "lon": -77.03641066666667, "fusion_lat": 0.0, "rental_uris": {"android": "https://dc.lft.to/lastmile_qr_scan", "ios": "https://dc.lft.to/lastmile_qr_scan"}, "type": "electric_scooter"}, {"is_reserved": 0, "is_disabled": 0, "fusion_lon": 0.0, "lat": 38.9191305, "name": "4ee4d880cfc9680df404a5d4fd70e505", "bike_id": "4ee4d880cfc9680df404a5d4fd70e505", "lon": -77.0337895, "fusion_lat": 0.0, "rental_uris": {"android": "https://dc.lft.to/lastmile_qr_scan", "ios": "https://dc.lft.to/lastmile_qr_scan"}, "type": "electric_scooter"}, {"is_reserved": 0, "is_disabled": 0, "fusion_lon": 0.0, "lat": 38.9345255, "name": "75646bd0da7191a6b55920920a8d662c", "bike_id": "75646bd0da7191a6b55920920a8d662c", "lon": -77.02355, "fusion_lat": 0.0, "rental_uris": {"android": "https://dc.lft.to/lastmile_qr_scan", "ios": "https://dc.lft.to/lastmile_qr_scan"}, "type": "electric_scooter"}, {"is_reserved": 0, "is_disabled": 0, "fusion_lon": 0.0, "lat": 38.89733316666667, "name": "7fec74835050c5e3efb6fe4470141ea0", "bike_id": "7fec74835050c5e3efb6fe4470141ea0", "lon": -77.0552215, "fusion_lat": 0.0, "rental_uris": {"android": "https://dc.lft.to/lastmile_qr_scan", "ios": "https://dc.lft.to/lastmile_qr_scan"}, "type": "electric_scooter"}, {"is_reserved": 0, "is_disabled": 0, "fusion_lon": 0.0, "lat": 38.91537816666667, "name": "71ac96ad046ac44e7436b3ede9622eb7", "bike_id": "71ac96ad046ac44e7436b3ede9622eb7", "lon": -77.04433216666666, "fusion_lat": 0.0, "rental_uris": {"android": "https://dc.lft.to/lastmile_qr_scan", "ios": "https://dc.lft.to/lastmile_qr_scan"}, "type": "electric_scooter"}, {"is_reserved": 0, "is_disabled": 0, "fusion_lon": 0.0, "lat": 38.892901, "name": "b5e6a5e04778b82f8e19ee45a17128e2", "bike_id": "b5e6a5e04778b82f8e19ee45a17128e2", "lon": -76.97613583333333, "fusion_lat": 0.0, "rental_uris": {"android": "https://dc.lft.to/lastmile_qr_scan", "ios": "https://dc.lft.to/lastmile_qr_scan"}, "type": "electric_bike"}, {"is_reserved": 0, "is_disabled": 0, "fusion_lon": 0.0, "lat": 38.95120383333333, "name": "f5117a9704d7a49ab443d0a0dcecc7bf", "bike_id": "f5117a9704d7a49ab443d0a0dcecc7bf", "lon": -77.01570883333333, "fusion_lat": 0.0, "rental_uris": {"android": "https://dc.lft.to/lastmile_qr_scan", "ios": "https://dc.lft.to/lastmile_qr_scan"}, "type": "electric_scooter"}, {"is_reserved": 0, "is_disabled": 0, "fusion_lon": 0.0, "lat": 38.934928, "name": "f075db687cfb7c5a7ce5154fa3f7888d", "bike_id": "f075db687cfb7c5a7ce5154fa3f7888d", "lon": -76.98195, "fusion_lat": 0.0, "rental_uris": {"android": "https://dc.lft.to/lastmile_qr_scan", "ios": "https://dc.lft.to/lastmile_qr_scan"}, "type": "electric_scooter"}, {"is_reserved": 0, "is_disabled": 0, "fusion_lon": 0.0, "lat": 38.893913166666664, "name": "255f38cc84946926a582ba31d8299dc9", "bike_id": "255f38cc84946926a582ba31d8299dc9", "lon": -77.04652416666667, "fusion_lat": 0.0, "rental_uris": {"android": "https://dc.lft.to/lastmile_qr_scan", "ios": "https://dc.lft.to/lastmile_qr_scan"}, "type": "electric_scooter"}, {"is_reserved": 0, "is_disabled": 0, "fusion_lon": 0.0, "lat": 38.932672, "name": "1be2af1934fdc6bc5189be4a4198967f", "bike_id": "1be2af1934fdc6bc5189be4a4198967f", "lon": -76.99617166666667, "fusion_lat": 0.0, "rental_uris": {"android": "https://dc.lft.to/lastmile_qr_scan", "ios": "https://dc.lft.to/lastmile_qr_scan"}, "type": "electric_scooter"}, {"is_reserved": 0, "is_disabled": 0, "fusion_lon": 0.0, "lat": 38.883677, "name": "23a891fdba6a757e7c09e383f3544c3e", "bike_id": "23a891fdba6a757e7c09e383f3544c3e", "lon": -77.01974916666667, "fusion_lat": 0.0, "rental_uris": {"android": "https://dc.lft.to/lastmile_qr_scan", "ios": "https://dc.lft.to/lastmile_qr_scan"}, "type": "electric_scooter"}, {"is_reserved": 0, "is_disabled": 0, "fusion_lon": 0.0, "lat": 38.866271166666664, "name": "f02a9cecf8397cb5568e16f98208dad6", "bike_id": "f02a9cecf8397cb5568e16f98208dad6", "lon": -76.98719433333333, "fusion_lat": 0.0, "rental_uris": {"android": "https://dc.lft.to/lastmile_qr_scan", "ios": "https://dc.lft.to/lastmile_qr_scan"}, "type": "electric_scooter"}, {"is_reserved": 0, "is_disabled": 0, "fusion_lon": 0.0, "lat": 38.91928216666667, "name": "a51eef289f88688215a9ac312b21d56a", "bike_id": "a51eef289f88688215a9ac312b21d56a", "lon": -77.03478866666667, "fusion_lat": 0.0, "rental_uris": {"android": "https://dc.lft.to/lastmile_qr_scan", "ios": "https://dc.lft.to/lastmile_qr_scan"}, "type": "electric_scooter"}, {"is_reserved": 0, "is_disabled": 0, "fusion_lon": 0.0, "lat": 38.9426325, "name": "ba911dcd2ccd70bf037db2b494daab94", "bike_id": "ba911dcd2ccd70bf037db2b494daab94", "lon": -77.02838616666666, "fusion_lat": 0.0, "rental_uris": {"android": "https://dc.lft.to/lastmile_qr_scan", "ios": "https://dc.lft.to/lastmile_qr_scan"}, "type": "electric_scooter"}, {"is_reserved": 0, "is_disabled": 0, "fusion_lon": 0.0, "lat": 38.923188, "name": "ed25c8da3b97da3dd9f3c49b6ead47a0", "bike_id": "ed25c8da3b97da3dd9f3c49b6ead47a0", "lon": -77.0195605, "fusion_lat": 0.0, "rental_uris": {"android": "https://dc.lft.to/lastmile_qr_scan", "ios": "https://dc.lft.to/lastmile_qr_scan"}, "type": "electric_scooter"}, {"is_reserved": 0, "is_disabled": 0, "fusion_lon": 0.0, "lat": 38.918034166666665, "name": "feb24562194558dc414ba9128be4410f", "bike_id": "feb24562194558dc414ba9128be4410f", "lon": -77.024872, "fusion_lat": 0.0, "rental_uris": {"android": "https://dc.lft.to/lastmile_qr_scan", "ios": "https://dc.lft.to/lastmile_qr_scan"}, "type": "electric_scooter"}, {"is_reserved": 0, "is_disabled": 0, "fusion_lon": 0.0, "lat": 38.902671833333336, "name": "8aea576b67eaaf8bcca5d751ad61813e", "bike_id": "8aea576b67eaaf8bcca5d751ad61813e", "lon": -77.01760183333333, "fusion_lat": 0.0, "rental_uris": {"android": "https://dc.lft.to/lastmile_qr_scan", "ios": "https://dc.lft.to/lastmile_qr_scan"}, "type": "electric_scooter"}, {"is_reserved": 0, "is_disabled": 0, "fusion_lon": 0.0, "lat": 38.824315666666664, "name": "77b55e6e3a7a72a1e07c031aa6707a05", "bike_id": "77b55e6e3a7a72a1e07c031aa6707a05", "lon": -77.12041216666667, "fusion_lat": 0.0, "rental_uris": {"android": "https://dc.lft.to/lastmile_qr_scan", "ios": "https://dc.lft.to/lastmile_qr_scan"}, "type": "electric_bike"}, {"is_reserved": 0, "is_disabled": 0, "fusion_lon": 0.0, "lat": 38.88219316666667, "name": "7b93f50de4c4373ac6fc7a8d55c2002f", "bike_id": "7b93f50de4c4373ac6fc7a8d55c2002f", "lon": -76.99732583333333, "fusion_lat": 0.0, "rental_uris": {"android": "https://dc.lft.to/lastmile_qr_scan", "ios": "https://dc.lft.to/lastmile_qr_scan"}, "type": "electric_scooter"}, {"is_reserved": 0, "is_disabled": 0, "fusion_lon": 0.0, "lat": 38.923285166666666, "name": "3edd7e0dc1d18542b7f38c465ca07cac", "bike_id": "3edd7e0dc1d18542b7f38c465ca07cac", "lon": -77.02968716666666, "fusion_lat": 0.0, "rental_uris": {"android": "https://dc.lft.to/lastmile_qr_scan", "ios": "https://dc.lft.to/lastmile_qr_scan"}, "type": "electric_scooter"}, {"is_reserved": 0, "is_disabled": 0, "fusion_lon": 0.0, "lat": 38.92234633333333, "name": "1753ff99b8bad8fd6d31c7f0fb9b3826", "bike_id": "1753ff99b8bad8fd6d31c7f0fb9b3826", "lon": -77.04467316666667, "fusion_lat": 0.0, "rental_uris": {"android": "https://dc.lft.to/lastmile_qr_scan", "ios": "https://dc.lft.to/lastmile_qr_scan"}, "type": "electric_scooter"}, {"is_reserved": 0, "is_disabled": 0, "fusion_lon": 0.0, "lat": 38.93969333333333, "name": "07b71096b09b3c1833a474763386cf21", "bike_id": "07b71096b09b3c1833a474763386cf21", "lon": -76.986153, "fusion_lat": 0.0, "rental_uris": {"android": "https://dc.lft.to/lastmile_qr_scan", "ios": "https://dc.lft.to/lastmile_qr_scan"}, "type": "electric_bike"}, {"is_reserved": 0, "is_disabled": 0, "fusion_lon": 0.0, "lat": 38.91416666666667, "name": "7f565da4c539aa66e2611cc62d74ca58", "bike_id": "7f565da4c539aa66e2611cc62d74ca58", "lon": -77.00935583333333, "fusion_lat": 0.0, "rental_uris": {"android": "https://dc.lft.to/lastmile_qr_scan", "ios": "https://dc.lft.to/lastmile_qr_scan"}, "type": "electric_scooter"}, {"is_reserved": 0, "is_disabled": 0, "fusion_lon": 0.0, "lat": 38.9170295, "name": "98dd8be4c69d3a429a53acc4386f2211", "bike_id": "98dd8be4c69d3a429a53acc4386f2211", "lon": -77.0389695, "fusion_lat": 0.0, "rental_uris": {"android": "https://dc.lft.to/lastmile_qr_scan", "ios": "https://dc.lft.to/lastmile_qr_scan"}, "type": "electric_scooter"}, {"is_reserved": 0, "is_disabled": 0, "fusion_lon": 0.0, "lat": 38.86720483333333, "name": "254fcbda98642a30248e8e6107965990", "bike_id": "254fcbda98642a30248e8e6107965990", "lon": -77.01015033333333, "fusion_lat": 0.0, "rental_uris": {"android": "https://dc.lft.to/lastmile_qr_scan", "ios": "https://dc.lft.to/lastmile_qr_scan"}, "type": "electric_scooter"}, {"is_reserved": 0, "is_disabled": 0, "fusion_lon": 0.0, "lat": 38.8951, "name": "13b2c9b92f5edeefb67cfb7777129eac", "bike_id": "13b2c9b92f5edeefb67cfb7777129eac", "lon": -77.01134666666667, "fusion_lat": 0.0, "rental_uris": {"android": "https://dc.lft.to/lastmile_qr_scan", "ios": "https://dc.lft.to/lastmile_qr_scan"}, "type": "electric_scooter"}, {"is_reserved": 0, "is_disabled": 0, "fusion_lon": 0.0, "lat": 38.8707215, "name": "30771b30fdb9309fee91ae16a88945b4", "bike_id": "30771b30fdb9309fee91ae16a88945b4", "lon": -76.980001, "fusion_lat": 0.0, "rental_uris": {"android": "https://dc.lft.to/lastmile_qr_scan", "ios": "https://dc.lft.to/lastmile_qr_scan"}, "type": "electric_scooter"}, {"is_reserved": 0, "is_disabled": 0, "fusion_lon": 0.0, "lat": 38.8655915, "name": "4c013087013092e7ecc9904d6bb4446e", "bike_id": "4c013087013092e7ecc9904d6bb4446e", "lon": -76.97475883333334, "fusion_lat": 0.0, "rental_uris": {"android": "https://dc.lft.to/lastmile_qr_scan", "ios": "https://dc.lft.to/lastmile_qr_scan"}, "type": "electric_bike"}, {"is_reserved": 0, "is_disabled": 0, "fusion_lon": 0.0, "lat": 38.938498833333334, "name": "1d4dbfd6286908eab99a2ce435656a94", "bike_id": "1d4dbfd6286908eab99a2ce435656a94", "lon": -77.024741, "fusion_lat": 0.0, "rental_uris": {"android": "https://dc.lft.to/lastmile_qr_scan", "ios": "https://dc.lft.to/lastmile_qr_scan"}, "type": "electric_scooter"}, {"is_reserved": 0, "is_disabled": 0, "fusion_lon": 0.0, "lat": 38.9159655, "name": "57d36a442c8ed76802fb24c461765a58", "bike_id": "57d36a442c8ed76802fb24c461765a58", "lon": -77.03676266666666, "fusion_lat": 0.0, "rental_uris": {"android": "https://dc.lft.to/lastmile_qr_scan", "ios": "https://dc.lft.to/lastmile_qr_scan"}, "type": "electric_scooter"}, {"is_reserved": 0, "is_disabled": 0, "fusion_lon": 0.0, "lat": 38.923997166666666, "name": "73f85ee3ecffae218c182c2b7ee8de68", "bike_id": "73f85ee3ecffae218c182c2b7ee8de68", "lon": -77.02123916666666, "fusion_lat": 0.0, "rental_uris": {"android": "https://dc.lft.to/lastmile_qr_scan", "ios": "https://dc.lft.to/lastmile_qr_scan"}, "type": "electric_scooter"}, {"is_reserved": 0, "is_disabled": 0, "fusion_lon": 0.0, "lat": 38.88124366666667, "name": "93be438ddafce41b1df7c17eb7d9daff", "bike_id": "93be438ddafce41b1df7c17eb7d9daff", "lon": -77.00449883333333, "fusion_lat": 0.0, "rental_uris": {"android": "https://dc.lft.to/lastmile_qr_scan", "ios": "https://dc.lft.to/lastmile_qr_scan"}, "type": "electric_scooter"}, {"is_reserved": 0, "is_disabled": 0, "fusion_lon": 0.0, "lat": 38.9359925, "name": "a6de24d5f63fc55e99db407b91e3f01a", "bike_id": "a6de24d5f63fc55e99db407b91e3f01a", "lon": -77.0378455, "fusion_lat": 0.0, "rental_uris": {"android": "https://dc.lft.to/lastmile_qr_scan", "ios": "https://dc.lft.to/lastmile_qr_scan"}, "type": "electric_scooter"}, {"is_reserved": 0, "is_disabled": 0, "fusion_lon": 0.0, "lat": 38.894799, "name": "c3e6a55d9348de8407ec3dd71c9b0c6b", "bike_id": "c3e6a55d9348de8407ec3dd71c9b0c6b", "lon": -77.02122683333333, "fusion_lat": 0.0, "rental_uris": {"android": "https://dc.lft.to/lastmile_qr_scan", "ios": "https://dc.lft.to/lastmile_qr_scan"}, "type": "electric_scooter"}, {"is_reserved": 0, "is_disabled": 0, "fusion_lon": 0.0, "lat": 38.940921, "name": "fd5bf6a91842c8cf95d22f3c1112323f", "bike_id": "fd5bf6a91842c8cf95d22f3c1112323f", "lon": -77.02981316666667, "fusion_lat": 0.0, "rental_uris": {"android": "https://dc.lft.to/lastmile_qr_scan", "ios": "https://dc.lft.to/lastmile_qr_scan"}, "type": "electric_scooter"}, {"is_reserved": 0, "is_disabled": 0, "fusion_lon": 0.0, "lat": 38.90449616666667, "name": "467d61816cb6aa59c8493abc9dfcf11b", "bike_id": "467d61816cb6aa59c8493abc9dfcf11b", "lon": -77.05315833333333, "fusion_lat": 0.0, "rental_uris": {"android": "https://dc.lft.to/lastmile_qr_scan", "ios": "https://dc.lft.to/lastmile_qr_scan"}, "type": "electric_scooter"}, {"is_reserved": 0, "is_disabled": 0, "fusion_lon": 0.0, "lat": 38.924429, "name": "d52c4ac8b6c2cb767e363591d85d67e4", "bike_id": "d52c4ac8b6c2cb767e363591d85d67e4", "lon": -77.02018816666667, "fusion_lat": 0.0, "rental_uris": {"android": "https://dc.lft.to/lastmile_qr_scan", "ios": "https://dc.lft.to/lastmile_qr_scan"}, "type": "electric_scooter"}, {"is_reserved": 0, "is_disabled": 0, "fusion_lon": 0.0, "lat": 38.949658, "name": "fc69018b8181528a90d25b5e45100593", "bike_id": "fc69018b8181528a90d25b5e45100593", "lon": -77.06699216666667, "fusion_lat": 0.0, "rental_uris": {"android": "https://dc.lft.to/lastmile_qr_scan", "ios": "https://dc.lft.to/lastmile_qr_scan"}, "type": "electric_scooter"}, {"is_reserved": 0, "is_disabled": 0, "fusion_lon": 0.0, "lat": 38.8921435, "name": "2b4823aaba9ba8f5d9ba47dad0640552", "bike_id": "2b4823aaba9ba8f5d9ba47dad0640552", "lon": -77.03135683333333, "fusion_lat": 0.0, "rental_uris": {"android": "https://dc.lft.to/lastmile_qr_scan", "ios": "https://dc.lft.to/lastmile_qr_scan"}, "type": "electric_scooter"}, {"is_reserved": 0, "is_disabled": 0, "fusion_lon": 0.0, "lat": 38.900378, "name": "0d50ae79c23624c59c36387297a530d6", "bike_id": "0d50ae79c23624c59c36387297a530d6", "lon": -76.988321, "fusion_lat": 0.0, "rental_uris": {"android": "https://dc.lft.to/lastmile_qr_scan", "ios": "https://dc.lft.to/lastmile_qr_scan"}, "type": "electric_scooter"}, {"is_reserved": 0, "is_disabled": 0, "fusion_lon": 0.0, "lat": 38.923475, "name": "3f6f8e77b2506aed70c6fd1759b224a8", "bike_id": "3f6f8e77b2506aed70c6fd1759b224a8", "lon": -77.04334183333333, "fusion_lat": 0.0, "rental_uris": {"android": "https://dc.lft.to/lastmile_qr_scan", "ios": "https://dc.lft.to/lastmile_qr_scan"}, "type": "electric_scooter"}, {"is_reserved": 0, "is_disabled": 0, "fusion_lon": 0.0, "lat": 38.90562583333333, "name": "64114b6da10ba3993770c533ca534c20", "bike_id": "64114b6da10ba3993770c533ca534c20", "lon": -77.03974383333333, "fusion_lat": 0.0, "rental_uris": {"android": "https://dc.lft.to/lastmile_qr_scan", "ios": "https://dc.lft.to/lastmile_qr_scan"}, "type": "electric_scooter"}, {"is_reserved": 0, "is_disabled": 0, "fusion_lon": 0.0, "lat": 38.900302833333335, "name": "486344ef2b9f2a24817166f2ccde4ee9", "bike_id": "486344ef2b9f2a24817166f2ccde4ee9", "lon": -76.86210383333334, "fusion_lat": 0.0, "rental_uris": {"android": "https://dc.lft.to/lastmile_qr_scan", "ios": "https://dc.lft.to/lastmile_qr_scan"}, "type": "electric_bike"}, {"is_reserved": 0, "is_disabled": 0, "fusion_lon": 0.0, "lat": 38.92104166666667, "name": "cdf49c90d38df98c83bd77f75431ba55", "bike_id": "cdf49c90d38df98c83bd77f75431ba55", "lon": -77.03249766666667, "fusion_lat": 0.0, "rental_uris": {"android": "https://dc.lft.to/lastmile_qr_scan", "ios": "https://dc.lft.to/lastmile_qr_scan"}, "type": "electric_scooter"}, {"is_reserved": 0, "is_disabled": 0, "fusion_lon": 0.0, "lat": 38.87674583333333, "name": "7d25cd003023a82ed1616d5cdb26c3f7", "bike_id": "7d25cd003023a82ed1616d5cdb26c3f7", "lon": -77.019764, "fusion_lat": 0.0, "rental_uris": {"android": "https://dc.lft.to/lastmile_qr_scan", "ios": "https://dc.lft.to/lastmile_qr_scan"}, "type": "electric_scooter"}, {"is_reserved": 0, "is_disabled": 0, "fusion_lon": 0.0, "lat": 38.9201585, "name": "d410b7f0e3a7bc0f9378051d814426ca", "bike_id": "d410b7f0e3a7bc0f9378051d814426ca", "lon": -77.04408783333334, "fusion_lat": 0.0, "rental_uris": {"android": "https://dc.lft.to/lastmile_qr_scan", "ios": "https://dc.lft.to/lastmile_qr_scan"}, "type": "electric_scooter"}, {"is_reserved": 0, "is_disabled": 0, "fusion_lon": 0.0, "lat": 38.917096666666666, "name": "1a3ee0d413b1fb33fa9f469af36ccb5e", "bike_id": "1a3ee0d413b1fb33fa9f469af36ccb5e", "lon": -77.03216066666667, "fusion_lat": 0.0, "rental_uris": {"android": "https://dc.lft.to/lastmile_qr_scan", "ios": "https://dc.lft.to/lastmile_qr_scan"}, "type": "electric_scooter"}, {"is_reserved": 0, "is_disabled": 0, "fusion_lon": 0.0, "lat": 38.936402666666666, "name": "f801eeff7dc430191521c27d925d6aa6", "bike_id": "f801eeff7dc430191521c27d925d6aa6", "lon": -77.03665083333334, "fusion_lat": 0.0, "rental_uris": {"android": "https://dc.lft.to/lastmile_qr_scan", "ios": "https://dc.lft.to/lastmile_qr_scan"}, "type": "electric_scooter"}, {"is_reserved": 0, "is_disabled": 0, "fusion_lon": 0.0, "lat": 38.928023, "name": "e20471f0235635f40c78f4d185e8c98a", "bike_id": "e20471f0235635f40c78f4d185e8c98a", "lon": -77.02977633333333, "fusion_lat": 0.0, "rental_uris": {"android": "https://dc.lft.to/lastmile_qr_scan", "ios": "https://dc.lft.to/lastmile_qr_scan"}, "type": "electric_scooter"}, {"is_reserved": 0, "is_disabled": 0, "fusion_lon": 0.0, "lat": 38.9022975, "name": "eed244d20d9a4f5b576ad54d6aa47007", "bike_id": "eed244d20d9a4f5b576ad54d6aa47007", "lon": -77.04355816666667, "fusion_lat": 0.0, "rental_uris": {"android": "https://dc.lft.to/lastmile_qr_scan", "ios": "https://dc.lft.to/lastmile_qr_scan"}, "type": "electric_scooter"}, {"is_reserved": 0, "is_disabled": 0, "fusion_lon": 0.0, "lat": 38.93502, "name": "a23dca1ed4fcd622be42e156f423bd6e", "bike_id": "a23dca1ed4fcd622be42e156f423bd6e", "lon": -77.03711066666666, "fusion_lat": 0.0, "rental_uris": {"android": "https://dc.lft.to/lastmile_qr_scan", "ios": "https://dc.lft.to/lastmile_qr_scan"}, "type": "electric_scooter"}, {"is_reserved": 0, "is_disabled": 0, "fusion_lon": 0.0, "lat": 38.90874933333333, "name": "6526fc158fd4c9b65b3b33887fb4f5d8", "bike_id": "6526fc158fd4c9b65b3b33887fb4f5d8", "lon": -76.9982125, "fusion_lat": 0.0, "rental_uris": {"android": "https://dc.lft.to/lastmile_qr_scan", "ios": "https://dc.lft.to/lastmile_qr_scan"}, "type": "electric_scooter"}, {"is_reserved": 0, "is_disabled": 0, "fusion_lon": 0.0, "lat": 38.92428733333333, "name": "116d6f1827af16dc7fb370d95d691f92", "bike_id": "116d6f1827af16dc7fb370d95d691f92", "lon": -77.02133533333334, "fusion_lat": 0.0, "rental_uris": {"android": "https://dc.lft.to/lastmile_qr_scan", "ios": "https://dc.lft.to/lastmile_qr_scan"}, "type": "electric_scooter"}, {"is_reserved": 0, "is_disabled": 0, "fusion_lon": 0.0, "lat": 38.90155633333333, "name": "6ea8ed1dbf32ef54357b683cfd2fa08d", "bike_id": "6ea8ed1dbf32ef54357b683cfd2fa08d", "lon": -77.04862833333334, "fusion_lat": 0.0, "rental_uris": {"android": "https://dc.lft.to/lastmile_qr_scan", "ios": "https://dc.lft.to/lastmile_qr_scan"}, "type": "electric_scooter"}, {"is_reserved": 0, "is_disabled": 0, "fusion_lon": 0.0, "lat": 38.95066583333333, "name": "407d945f04ff5bcca25bd4a90f030e86", "bike_id": "407d945f04ff5bcca25bd4a90f030e86", "lon": -76.97083616666667, "fusion_lat": 0.0, "rental_uris": {"android": "https://dc.lft.to/lastmile_qr_scan", "ios": "https://dc.lft.to/lastmile_qr_scan"}, "type": "electric_bike"}, {"is_reserved": 0, "is_disabled": 0, "fusion_lon": 0.0, "lat": 38.904391333333336, "name": "de1d42d0722c7ed45ef59e9cc37e742c", "bike_id": "de1d42d0722c7ed45ef59e9cc37e742c", "lon": -77.0431255, "fusion_lat": 0.0, "rental_uris": {"android": "https://dc.lft.to/lastmile_qr_scan", "ios": "https://dc.lft.to/lastmile_qr_scan"}, "type": "electric_scooter"}, {"is_reserved": 0, "is_disabled": 0, "fusion_lon": 0.0, "lat": 38.85789616666667, "name": "ba88cac3123f2550a96ce521c40bc7ff", "bike_id": "ba88cac3123f2550a96ce521c40bc7ff", "lon": -77.09960733333334, "fusion_lat": 0.0, "rental_uris": {"android": "https://dc.lft.to/lastmile_qr_scan", "ios": "https://dc.lft.to/lastmile_qr_scan"}, "type": "electric_bike"}, {"is_reserved": 0, "is_disabled": 0, "fusion_lon": 0.0, "lat": 38.90237416666667, "name": "80bf2816384c5f36aeffec19915b7c8f", "bike_id": "80bf2816384c5f36aeffec19915b7c8f", "lon": -77.02833216666667, "fusion_lat": 0.0, "rental_uris": {"android": "https://dc.lft.to/lastmile_qr_scan", "ios": "https://dc.lft.to/lastmile_qr_scan"}, "type": "electric_scooter"}, {"is_reserved": 0, "is_disabled": 0, "fusion_lon": 0.0, "lat": 38.8768135, "name": "ac020fbfaad6049fe6e70848963acf77", "bike_id": "ac020fbfaad6049fe6e70848963acf77", "lon": -77.01453366666667, "fusion_lat": 0.0, "rental_uris": {"android": "https://dc.lft.to/lastmile_qr_scan", "ios": "https://dc.lft.to/lastmile_qr_scan"}, "type": "electric_bike"}, {"is_reserved": 0, "is_disabled": 0, "fusion_lon": 0.0, "lat": 38.9247795, "name": "68dc64a1f5ee5b1335ebee946a179421", "bike_id": "68dc64a1f5ee5b1335ebee946a179421", "lon": -77.037946, "fusion_lat": 0.0, "rental_uris": {"android": "https://dc.lft.to/lastmile_qr_scan", "ios": "https://dc.lft.to/lastmile_qr_scan"}, "type": "electric_scooter"}, {"is_reserved": 0, "is_disabled": 0, "fusion_lon": 0.0, "lat": 38.8931405, "name": "fd235f7cdf652ad21f679d726620f486", "bike_id": "fd235f7cdf652ad21f679d726620f486", "lon": -76.93961766666666, "fusion_lat": 0.0, "rental_uris": {"android": "https://dc.lft.to/lastmile_qr_scan", "ios": "https://dc.lft.to/lastmile_qr_scan"}, "type": "electric_scooter"}, {"is_reserved": 0, "is_disabled": 0, "fusion_lon": 0.0, "lat": 38.93537583333333, "name": "8c69b8b40be9e1820621fe1a2a8f02d9", "bike_id": "8c69b8b40be9e1820621fe1a2a8f02d9", "lon": -77.05826833333333, "fusion_lat": 0.0, "rental_uris": {"android": "https://dc.lft.to/lastmile_qr_scan", "ios": "https://dc.lft.to/lastmile_qr_scan"}, "type": "electric_scooter"}, {"is_reserved": 0, "is_disabled": 0, "fusion_lon": 0.0, "lat": 38.847594, "name": "8ece48c8b1385542c5561b5dbe131c40", "bike_id": "8ece48c8b1385542c5561b5dbe131c40", "lon": -77.05372783333334, "fusion_lat": 0.0, "rental_uris": {"android": "https://dc.lft.to/lastmile_qr_scan", "ios": "https://dc.lft.to/lastmile_qr_scan"}, "type": "electric_bike"}, {"is_reserved": 0, "is_disabled": 0, "fusion_lon": 0.0, "lat": 38.92077616666667, "name": "6f867467d8b8ff19f21aac9c255b27ac", "bike_id": "6f867467d8b8ff19f21aac9c255b27ac", "lon": -77.02508183333333, "fusion_lat": 0.0, "rental_uris": {"android": "https://dc.lft.to/lastmile_qr_scan", "ios": "https://dc.lft.to/lastmile_qr_scan"}, "type": "electric_scooter"}, {"is_reserved": 0, "is_disabled": 0, "fusion_lon": 0.0, "lat": 38.9158905, "name": "d21ad2184c1081a8c966fbe099261a66", "bike_id": "d21ad2184c1081a8c966fbe099261a66", "lon": -77.038491, "fusion_lat": 0.0, "rental_uris": {"android": "https://dc.lft.to/lastmile_qr_scan", "ios": "https://dc.lft.to/lastmile_qr_scan"}, "type": "electric_scooter"}, {"is_reserved": 0, "is_disabled": 0, "fusion_lon": 0.0, "lat": 38.93882716666667, "name": "ff7f1575772807d42ab49ca33c60c476", "bike_id": "ff7f1575772807d42ab49ca33c60c476", "lon": -77.02487116666667, "fusion_lat": 0.0, "rental_uris": {"android": "https://dc.lft.to/lastmile_qr_scan", "ios": "https://dc.lft.to/lastmile_qr_scan"}, "type": "electric_scooter"}, {"is_reserved": 0, "is_disabled": 0, "fusion_lon": 0.0, "lat": 38.93744933333333, "name": "28bc3b22b8801136ac09e85070b5b77c", "bike_id": "28bc3b22b8801136ac09e85070b5b77c", "lon": -77.02439616666666, "fusion_lat": 0.0, "rental_uris": {"android": "https://dc.lft.to/lastmile_qr_scan", "ios": "https://dc.lft.to/lastmile_qr_scan"}, "type": "electric_scooter"}, {"is_reserved": 0, "is_disabled": 0, "fusion_lon": 0.0, "lat": 38.894924833333334, "name": "695e554ebfa019fdb6ab378cfef06dcc", "bike_id": "695e554ebfa019fdb6ab378cfef06dcc", "lon": -76.94890933333333, "fusion_lat": 0.0, "rental_uris": {"android": "https://dc.lft.to/lastmile_qr_scan", "ios": "https://dc.lft.to/lastmile_qr_scan"}, "type": "electric_scooter"}, {"is_reserved": 0, "is_disabled": 0, "fusion_lon": 0.0, "lat": 38.8849765, "name": "affff454bec44f46246b2d145f1e3ae5", "bike_id": "affff454bec44f46246b2d145f1e3ae5", "lon": -77.02092716666667, "fusion_lat": 0.0, "rental_uris": {"android": "https://dc.lft.to/lastmile_qr_scan", "ios": "https://dc.lft.to/lastmile_qr_scan"}, "type": "electric_scooter"}, {"is_reserved": 0, "is_disabled": 0, "fusion_lon": 0.0, "lat": 38.906971166666665, "name": "2aada1949ca6fba6b6feb25f3425b55a", "bike_id": "2aada1949ca6fba6b6feb25f3425b55a", "lon": -76.98855866666666, "fusion_lat": 0.0, "rental_uris": {"android": "https://dc.lft.to/lastmile_qr_scan", "ios": "https://dc.lft.to/lastmile_qr_scan"}, "type": "electric_scooter"}, {"is_reserved": 0, "is_disabled": 0, "fusion_lon": 0.0, "lat": 38.9263655, "name": "00778e1850cb6c6a5ca2a2c3e3361f66", "bike_id": "00778e1850cb6c6a5ca2a2c3e3361f66", "lon": -77.03704566666667, "fusion_lat": 0.0, "rental_uris": {"android": "https://dc.lft.to/lastmile_qr_scan", "ios": "https://dc.lft.to/lastmile_qr_scan"}, "type": "electric_scooter"}, {"is_reserved": 0, "is_disabled": 0, "fusion_lon": 0.0, "lat": 38.91533183333333, "name": "9cfc866367957b61b1958fd69f050493", "bike_id": "9cfc866367957b61b1958fd69f050493", "lon": -77.0443565, "fusion_lat": 0.0, "rental_uris": {"android": "https://dc.lft.to/lastmile_qr_scan", "ios": "https://dc.lft.to/lastmile_qr_scan"}, "type": "electric_scooter"}, {"is_reserved": 0, "is_disabled": 0, "fusion_lon": 0.0, "lat": 38.89221783333333, "name": "df739fb2b5f553eb901430e203a79733", "bike_id": "df739fb2b5f553eb901430e203a79733", "lon": -77.0467635, "fusion_lat": 0.0, "rental_uris": {"android": "https://dc.lft.to/lastmile_qr_scan", "ios": "https://dc.lft.to/lastmile_qr_scan"}, "type": "electric_scooter"}, {"is_reserved": 0, "is_disabled": 0, "fusion_lon": 0.0, "lat": 38.914016833333335, "name": "445714f884437066cf413d417eb0cc6f", "bike_id": "445714f884437066cf413d417eb0cc6f", "lon": -77.04877566666667, "fusion_lat": 0.0, "rental_uris": {"android": "https://dc.lft.to/lastmile_qr_scan", "ios": "https://dc.lft.to/lastmile_qr_scan"}, "type": "electric_scooter"}, {"is_reserved": 0, "is_disabled": 0, "fusion_lon": 0.0, "lat": 38.931216, "name": "fc9327a2a775920e1342818cc74e3025", "bike_id": "fc9327a2a775920e1342818cc74e3025", "lon": -77.0207115, "fusion_lat": 0.0, "rental_uris": {"android": "https://dc.lft.to/lastmile_qr_scan", "ios": "https://dc.lft.to/lastmile_qr_scan"}, "type": "electric_scooter"}, {"is_reserved": 0, "is_disabled": 0, "fusion_lon": 0.0, "lat": 38.92000683333333, "name": "5cc29e9028ce6cf153fcce960eb8b0eb", "bike_id": "5cc29e9028ce6cf153fcce960eb8b0eb", "lon": -76.98503883333333, "fusion_lat": 0.0, "rental_uris": {"android": "https://dc.lft.to/lastmile_qr_scan", "ios": "https://dc.lft.to/lastmile_qr_scan"}, "type": "electric_scooter"}, {"is_reserved": 0, "is_disabled": 0, "fusion_lon": 0.0, "lat": 38.942924, "name": "f058a04b102baaacad5c5730898baddc", "bike_id": "f058a04b102baaacad5c5730898baddc", "lon": -77.02635683333334, "fusion_lat": 0.0, "rental_uris": {"android": "https://dc.lft.to/lastmile_qr_scan", "ios": "https://dc.lft.to/lastmile_qr_scan"}, "type": "electric_scooter"}, {"is_reserved": 0, "is_disabled": 0, "fusion_lon": 0.0, "lat": 38.91569966666667, "name": "b1648755e76d6250255e4c5279ab47a7", "bike_id": "b1648755e76d6250255e4c5279ab47a7", "lon": -77.02006816666666, "fusion_lat": 0.0, "rental_uris": {"android": "https://dc.lft.to/lastmile_qr_scan", "ios": "https://dc.lft.to/lastmile_qr_scan"}, "type": "electric_scooter"}, {"is_reserved": 0, "is_disabled": 0, "fusion_lon": 0.0, "lat": 38.92416383333333, "name": "83c883b88f2ac1db2075986f9b2c217a", "bike_id": "83c883b88f2ac1db2075986f9b2c217a", "lon": -77.021325, "fusion_lat": 0.0, "rental_uris": {"android": "https://dc.lft.to/lastmile_qr_scan", "ios": "https://dc.lft.to/lastmile_qr_scan"}, "type": "electric_scooter"}, {"is_reserved": 0, "is_disabled": 0, "fusion_lon": 0.0, "lat": 38.916205166666664, "name": "9f0914e8505ce2c74da0ff92f3fd3cef", "bike_id": "9f0914e8505ce2c74da0ff92f3fd3cef", "lon": -77.050672, "fusion_lat": 0.0, "rental_uris": {"android": "https://dc.lft.to/lastmile_qr_scan", "ios": "https://dc.lft.to/lastmile_qr_scan"}, "type": "electric_scooter"}, {"is_reserved": 0, "is_disabled": 0, "fusion_lon": 0.0, "lat": 38.935312, "name": "24c45a19f88e5e14f31870005ef474f3", "bike_id": "24c45a19f88e5e14f31870005ef474f3", "lon": -77.03487566666666, "fusion_lat": 0.0, "rental_uris": {"android": "https://dc.lft.to/lastmile_qr_scan", "ios": "https://dc.lft.to/lastmile_qr_scan"}, "type": "electric_scooter"}, {"is_reserved": 0, "is_disabled": 0, "fusion_lon": 0.0, "lat": 38.8969235, "name": "609bb971ead0e70f91c208e13317ed75", "bike_id": "609bb971ead0e70f91c208e13317ed75", "lon": -77.0058965, "fusion_lat": 0.0, "rental_uris": {"android": "https://dc.lft.to/lastmile_qr_scan", "ios": "https://dc.lft.to/lastmile_qr_scan"}, "type": "electric_scooter"}, {"is_reserved": 0, "is_disabled": 0, "fusion_lon": 0.0, "lat": 38.87685466666667, "name": "f8e83dbeeeed0d239a3a7c034784cba8", "bike_id": "f8e83dbeeeed0d239a3a7c034784cba8", "lon": -77.00336033333333, "fusion_lat": 0.0, "rental_uris": {"android": "https://dc.lft.to/lastmile_qr_scan", "ios": "https://dc.lft.to/lastmile_qr_scan"}, "type": "electric_scooter"}, {"is_reserved": 0, "is_disabled": 0, "fusion_lon": 0.0, "lat": 38.92778766666667, "name": "e26d5d75a4e4706e1375df83aeda2751", "bike_id": "e26d5d75a4e4706e1375df83aeda2751", "lon": -77.03700666666667, "fusion_lat": 0.0, "rental_uris": {"android": "https://dc.lft.to/lastmile_qr_scan", "ios": "https://dc.lft.to/lastmile_qr_scan"}, "type": "electric_scooter"}, {"is_reserved": 0, "is_disabled": 0, "fusion_lon": 0.0, "lat": 38.890067333333334, "name": "2f31741fead15cab2c748974a5b054c1", "bike_id": "2f31741fead15cab2c748974a5b054c1", "lon": -76.937505, "fusion_lat": 0.0, "rental_uris": {"android": "https://dc.lft.to/lastmile_qr_scan", "ios": "https://dc.lft.to/lastmile_qr_scan"}, "type": "electric_scooter"}, {"is_reserved": 0, "is_disabled": 0, "fusion_lon": 0.0, "lat": 38.933872666666666, "name": "dc0717fc77058f92e9055612c35a5657", "bike_id": "dc0717fc77058f92e9055612c35a5657", "lon": -77.0324895, "fusion_lat": 0.0, "rental_uris": {"android": "https://dc.lft.to/lastmile_qr_scan", "ios": "https://dc.lft.to/lastmile_qr_scan"}, "type": "electric_scooter"}, {"is_reserved": 0, "is_disabled": 0, "fusion_lon": 0.0, "lat": 38.87596333333333, "name": "3e42bd3b4c3fb4072375e9e8e3a7c8e2", "bike_id": "3e42bd3b4c3fb4072375e9e8e3a7c8e2", "lon": -77.00580733333334, "fusion_lat": 0.0, "rental_uris": {"android": "https://dc.lft.to/lastmile_qr_scan", "ios": "https://dc.lft.to/lastmile_qr_scan"}, "type": "electric_scooter"}, {"is_reserved": 0, "is_disabled": 0, "fusion_lon": 0.0, "lat": 38.92234333333333, "name": "684f137e8fc9fb74fc4de57827790f86", "bike_id": "684f137e8fc9fb74fc4de57827790f86", "lon": -77.04370016666667, "fusion_lat": 0.0, "rental_uris": {"android": "https://dc.lft.to/lastmile_qr_scan", "ios": "https://dc.lft.to/lastmile_qr_scan"}, "type": "electric_scooter"}, {"is_reserved": 0, "is_disabled": 0, "fusion_lon": 0.0, "lat": 38.8983375, "name": "e931a9948b1867247b4a25422c8e2f11", "bike_id": "e931a9948b1867247b4a25422c8e2f11", "lon": -76.98761166666667, "fusion_lat": 0.0, "rental_uris": {"android": "https://dc.lft.to/lastmile_qr_scan", "ios": "https://dc.lft.to/lastmile_qr_scan"}, "type": "electric_scooter"}, {"is_reserved": 0, "is_disabled": 0, "fusion_lon": 0.0, "lat": 38.910106166666665, "name": "d1ad6271a6d6427034e475b4360292ab", "bike_id": "d1ad6271a6d6427034e475b4360292ab", "lon": -77.0465215, "fusion_lat": 0.0, "rental_uris": {"android": "https://dc.lft.to/lastmile_qr_scan", "ios": "https://dc.lft.to/lastmile_qr_scan"}, "type": "electric_scooter"}, {"is_reserved": 0, "is_disabled": 0, "fusion_lon": 0.0, "lat": 38.88823216666667, "name": "895d842bd271349fba78f602cae3d3da", "bike_id": "895d842bd271349fba78f602cae3d3da", "lon": -76.9770335, "fusion_lat": 0.0, "rental_uris": {"android": "https://dc.lft.to/lastmile_qr_scan", "ios": "https://dc.lft.to/lastmile_qr_scan"}, "type": "electric_scooter"}, {"is_reserved": 0, "is_disabled": 0, "fusion_lon": 0.0, "lat": 38.91686133333333, "name": "ea912c2612f959a8feadf6e12fed768e", "bike_id": "ea912c2612f959a8feadf6e12fed768e", "lon": -77.02947766666666, "fusion_lat": 0.0, "rental_uris": {"android": "https://dc.lft.to/lastmile_qr_scan", "ios": "https://dc.lft.to/lastmile_qr_scan"}, "type": "electric_scooter"}, {"is_reserved": 0, "is_disabled": 0, "fusion_lon": 0.0, "lat": 38.96619416666667, "name": "2b3f30effe73cd169159c8916e064860", "bike_id": "2b3f30effe73cd169159c8916e064860", "lon": -77.03433116666666, "fusion_lat": 0.0, "rental_uris": {"android": "https://dc.lft.to/lastmile_qr_scan", "ios": "https://dc.lft.to/lastmile_qr_scan"}, "type": "electric_bike"}, {"is_reserved": 0, "is_disabled": 0, "fusion_lon": 0.0, "lat": 38.933847, "name": "a444bcd2f56b475ff995e2f9b854cbd6", "bike_id": "a444bcd2f56b475ff995e2f9b854cbd6", "lon": -77.02955816666666, "fusion_lat": 0.0, "rental_uris": {"android": "https://dc.lft.to/lastmile_qr_scan", "ios": "https://dc.lft.to/lastmile_qr_scan"}, "type": "electric_scooter"}, {"is_reserved": 0, "is_disabled": 0, "fusion_lon": 0.0, "lat": 38.91651483333333, "name": "f29708ad83301da2cb576d46315e733a", "bike_id": "f29708ad83301da2cb576d46315e733a", "lon": -77.02004766666667, "fusion_lat": 0.0, "rental_uris": {"android": "https://dc.lft.to/lastmile_qr_scan", "ios": "https://dc.lft.to/lastmile_qr_scan"}, "type": "electric_scooter"}, {"is_reserved": 0, "is_disabled": 0, "fusion_lon": 0.0, "lat": 38.92405683333333, "name": "bdfcec43eae045b5e7d0fe951764cb03", "bike_id": "bdfcec43eae045b5e7d0fe951764cb03", "lon": -77.05063933333334, "fusion_lat": 0.0, "rental_uris": {"android": "https://dc.lft.to/lastmile_qr_scan", "ios": "https://dc.lft.to/lastmile_qr_scan"}, "type": "electric_scooter"}, {"is_reserved": 0, "is_disabled": 0, "fusion_lon": 0.0, "lat": 38.9003635, "name": "01a028562c8d92e3242571fd6b5cb674", "bike_id": "01a028562c8d92e3242571fd6b5cb674", "lon": -76.9915415, "fusion_lat": 0.0, "rental_uris": {"android": "https://dc.lft.to/lastmile_qr_scan", "ios": "https://dc.lft.to/lastmile_qr_scan"}, "type": "electric_scooter"}, {"is_reserved": 0, "is_disabled": 0, "fusion_lon": 0.0, "lat": 38.9001245, "name": "cf2b10efca56b465f4f86e713e71ff7c", "bike_id": "cf2b10efca56b465f4f86e713e71ff7c", "lon": -76.930233, "fusion_lat": 0.0, "rental_uris": {"android": "https://dc.lft.to/lastmile_qr_scan", "ios": "https://dc.lft.to/lastmile_qr_scan"}, "type": "electric_scooter"}, {"is_reserved": 0, "is_disabled": 0, "fusion_lon": 0.0, "lat": 38.908538666666665, "name": "1e0486a650c74f0e78531d0e45f05d91", "bike_id": "1e0486a650c74f0e78531d0e45f05d91", "lon": -76.996779, "fusion_lat": 0.0, "rental_uris": {"android": "https://dc.lft.to/lastmile_qr_scan", "ios": "https://dc.lft.to/lastmile_qr_scan"}, "type": "electric_scooter"}, {"is_reserved": 0, "is_disabled": 0, "fusion_lon": 0.0, "lat": 38.8315705, "name": "2d42a657fc42cf9445bf3307a2e43d88", "bike_id": "2d42a657fc42cf9445bf3307a2e43d88", "lon": -76.99572466666666, "fusion_lat": 0.0, "rental_uris": {"android": "https://dc.lft.to/lastmile_qr_scan", "ios": "https://dc.lft.to/lastmile_qr_scan"}, "type": "electric_bike"}, {"is_reserved": 0, "is_disabled": 0, "fusion_lon": 0.0, "lat": 38.916927666666666, "name": "c83d42b1d4e232afe8fbc077a7028edc", "bike_id": "c83d42b1d4e232afe8fbc077a7028edc", "lon": -77.03799383333333, "fusion_lat": 0.0, "rental_uris": {"android": "https://dc.lft.to/lastmile_qr_scan", "ios": "https://dc.lft.to/lastmile_qr_scan"}, "type": "electric_scooter"}, {"is_reserved": 0, "is_disabled": 0, "fusion_lon": 0.0, "lat": 38.9236615, "name": "d7284a4eda898d4306b0e14b408efb51", "bike_id": "d7284a4eda898d4306b0e14b408efb51", "lon": -77.01952566666667, "fusion_lat": 0.0, "rental_uris": {"android": "https://dc.lft.to/lastmile_qr_scan", "ios": "https://dc.lft.to/lastmile_qr_scan"}, "type": "electric_scooter"}, {"is_reserved": 0, "is_disabled": 0, "fusion_lon": 0.0, "lat": 38.922507333333336, "name": "c341cd16420f9c8f1c2788fb2090bcb2", "bike_id": "c341cd16420f9c8f1c2788fb2090bcb2", "lon": -77.0306285, "fusion_lat": 0.0, "rental_uris": {"android": "https://dc.lft.to/lastmile_qr_scan", "ios": "https://dc.lft.to/lastmile_qr_scan"}, "type": "electric_scooter"}, {"is_reserved": 0, "is_disabled": 0, "fusion_lon": 0.0, "lat": 38.920705166666664, "name": "d72646d2bc899a0fc3897d53a4a00a0c", "bike_id": "d72646d2bc899a0fc3897d53a4a00a0c", "lon": -77.0241365, "fusion_lat": 0.0, "rental_uris": {"android": "https://dc.lft.to/lastmile_qr_scan", "ios": "https://dc.lft.to/lastmile_qr_scan"}, "type": "electric_scooter"}, {"is_reserved": 0, "is_disabled": 0, "fusion_lon": 0.0, "lat": 38.9011075, "name": "326157cc8924e14332299b8cb007004b", "bike_id": "326157cc8924e14332299b8cb007004b", "lon": -77.022096, "fusion_lat": 0.0, "rental_uris": {"android": "https://dc.lft.to/lastmile_qr_scan", "ios": "https://dc.lft.to/lastmile_qr_scan"}, "type": "electric_scooter"}, {"is_reserved": 0, "is_disabled": 0, "fusion_lon": 0.0, "lat": 38.9126155, "name": "a6bf80f7488f164d3b9eff765e44c584", "bike_id": "a6bf80f7488f164d3b9eff765e44c584", "lon": -77.03205383333334, "fusion_lat": 0.0, "rental_uris": {"android": "https://dc.lft.to/lastmile_qr_scan", "ios": "https://dc.lft.to/lastmile_qr_scan"}, "type": "electric_scooter"}, {"is_reserved": 0, "is_disabled": 0, "fusion_lon": 0.0, "lat": 38.91685233333333, "name": "5e779be32d17b02f748b02b37a93fb26", "bike_id": "5e779be32d17b02f748b02b37a93fb26", "lon": -77.02947866666666, "fusion_lat": 0.0, "rental_uris": {"android": "https://dc.lft.to/lastmile_qr_scan", "ios": "https://dc.lft.to/lastmile_qr_scan"}, "type": "electric_scooter"}, {"is_reserved": 0, "is_disabled": 0, "fusion_lon": 0.0, "lat": 38.9282085, "name": "5dc7a61cb40ba6966c7f2f30cb76bfd6", "bike_id": "5dc7a61cb40ba6966c7f2f30cb76bfd6", "lon": -77.0222705, "fusion_lat": 0.0, "rental_uris": {"android": "https://dc.lft.to/lastmile_qr_scan", "ios": "https://dc.lft.to/lastmile_qr_scan"}, "type": "electric_scooter"}, {"is_reserved": 0, "is_disabled": 0, "fusion_lon": 0.0, "lat": 38.87194383333333, "name": "6f8a593464f4a666336272d40f6f363d", "bike_id": "6f8a593464f4a666336272d40f6f363d", "lon": -77.00573966666667, "fusion_lat": 0.0, "rental_uris": {"android": "https://dc.lft.to/lastmile_qr_scan", "ios": "https://dc.lft.to/lastmile_qr_scan"}, "type": "electric_scooter"}, {"is_reserved": 0, "is_disabled": 0, "fusion_lon": 0.0, "lat": 38.92249783333333, "name": "502e42abdb817b81f6e32cafd52c205d", "bike_id": "502e42abdb817b81f6e32cafd52c205d", "lon": -77.04245116666667, "fusion_lat": 0.0, "rental_uris": {"android": "https://dc.lft.to/lastmile_qr_scan", "ios": "https://dc.lft.to/lastmile_qr_scan"}, "type": "electric_scooter"}, {"is_reserved": 0, "is_disabled": 0, "fusion_lon": 0.0, "lat": 38.90469216666666, "name": "4db6e3452367efc81e2a71daf6174dc8", "bike_id": "4db6e3452367efc81e2a71daf6174dc8", "lon": -77.02714383333333, "fusion_lat": 0.0, "rental_uris": {"android": "https://dc.lft.to/lastmile_qr_scan", "ios": "https://dc.lft.to/lastmile_qr_scan"}, "type": "electric_scooter"}, {"is_reserved": 0, "is_disabled": 0, "fusion_lon": 0.0, "lat": 38.91364216666667, "name": "8dead421bf511af2c3ea096d7511a179", "bike_id": "8dead421bf511af2c3ea096d7511a179", "lon": -77.09188866666666, "fusion_lat": 0.0, "rental_uris": {"android": "https://dc.lft.to/lastmile_qr_scan", "ios": "https://dc.lft.to/lastmile_qr_scan"}, "type": "electric_scooter"}, {"is_reserved": 0, "is_disabled": 0, "fusion_lon": 0.0, "lat": 38.899781833333336, "name": "906125efe04641b2b812eb1c619c6dc7", "bike_id": "906125efe04641b2b812eb1c619c6dc7", "lon": -77.04187916666666, "fusion_lat": 0.0, "rental_uris": {"android": "https://dc.lft.to/lastmile_qr_scan", "ios": "https://dc.lft.to/lastmile_qr_scan"}, "type": "electric_scooter"}, {"is_reserved": 0, "is_disabled": 0, "fusion_lon": 0.0, "lat": 38.930095333333334, "name": "f73ffbd728b8a171ae3e6694bc36b60b", "bike_id": "f73ffbd728b8a171ae3e6694bc36b60b", "lon": -77.0144825, "fusion_lat": 0.0, "rental_uris": {"android": "https://dc.lft.to/lastmile_qr_scan", "ios": "https://dc.lft.to/lastmile_qr_scan"}, "type": "electric_scooter"}, {"is_reserved": 0, "is_disabled": 0, "fusion_lon": 0.0, "lat": 38.93186466666667, "name": "9e38e0add6280b07bdf0d6eec68ef3ec", "bike_id": "9e38e0add6280b07bdf0d6eec68ef3ec", "lon": -77.02021733333333, "fusion_lat": 0.0, "rental_uris": {"android": "https://dc.lft.to/lastmile_qr_scan", "ios": "https://dc.lft.to/lastmile_qr_scan"}, "type": "electric_scooter"}, {"is_reserved": 0, "is_disabled": 0, "fusion_lon": 0.0, "lat": 38.90728033333333, "name": "a8d9c6b1b0fb44b53c9af00326dea14f", "bike_id": "a8d9c6b1b0fb44b53c9af00326dea14f", "lon": -77.02560816666667, "fusion_lat": 0.0, "rental_uris": {"android": "https://dc.lft.to/lastmile_qr_scan", "ios": "https://dc.lft.to/lastmile_qr_scan"}, "type": "electric_scooter"}, {"is_reserved": 0, "is_disabled": 0, "fusion_lon": 0.0, "lat": 38.898326833333336, "name": "78a9ef2d4f4b459dfe53326c2f7cc2da", "bike_id": "78a9ef2d4f4b459dfe53326c2f7cc2da", "lon": -76.94641033333333, "fusion_lat": 0.0, "rental_uris": {"android": "https://dc.lft.to/lastmile_qr_scan", "ios": "https://dc.lft.to/lastmile_qr_scan"}, "type": "electric_scooter"}, {"is_reserved": 0, "is_disabled": 0, "fusion_lon": 0.0, "lat": 38.92045783333333, "name": "ea8937babc5e4fe911a5f2ab91c92df8", "bike_id": "ea8937babc5e4fe911a5f2ab91c92df8", "lon": -77.02428366666666, "fusion_lat": 0.0, "rental_uris": {"android": "https://dc.lft.to/lastmile_qr_scan", "ios": "https://dc.lft.to/lastmile_qr_scan"}, "type": "electric_scooter"}, {"is_reserved": 0, "is_disabled": 0, "fusion_lon": 0.0, "lat": 38.9096165, "name": "7d81119d5041b73b5b723791beb8bb47", "bike_id": "7d81119d5041b73b5b723791beb8bb47", "lon": -77.01437983333334, "fusion_lat": 0.0, "rental_uris": {"android": "https://dc.lft.to/lastmile_qr_scan", "ios": "https://dc.lft.to/lastmile_qr_scan"}, "type": "electric_scooter"}, {"is_reserved": 0, "is_disabled": 0, "fusion_lon": 0.0, "lat": 38.92096566666667, "name": "db9d8107ddb92e41f20686f74808fbfe", "bike_id": "db9d8107ddb92e41f20686f74808fbfe", "lon": -77.03167516666667, "fusion_lat": 0.0, "rental_uris": {"android": "https://dc.lft.to/lastmile_qr_scan", "ios": "https://dc.lft.to/lastmile_qr_scan"}, "type": "electric_scooter"}, {"is_reserved": 0, "is_disabled": 0, "fusion_lon": 0.0, "lat": 38.93658633333333, "name": "f44541fdd2d349d3b2f78c05f1ae76e0", "bike_id": "f44541fdd2d349d3b2f78c05f1ae76e0", "lon": -77.06613583333333, "fusion_lat": 0.0, "rental_uris": {"android": "https://dc.lft.to/lastmile_qr_scan", "ios": "https://dc.lft.to/lastmile_qr_scan"}, "type": "electric_scooter"}, {"is_reserved": 0, "is_disabled": 0, "fusion_lon": 0.0, "lat": 38.91237016666667, "name": "2d573a1f995a2756ce97a12fe70c78a9", "bike_id": "2d573a1f995a2756ce97a12fe70c78a9", "lon": -76.9867195, "fusion_lat": 0.0, "rental_uris": {"android": "https://dc.lft.to/lastmile_qr_scan", "ios": "https://dc.lft.to/lastmile_qr_scan"}, "type": "electric_scooter"}, {"is_reserved": 0, "is_disabled": 0, "fusion_lon": 0.0, "lat": 38.87761166666667, "name": "08434d3b94fda90e930558e00c7d1217", "bike_id": "08434d3b94fda90e930558e00c7d1217", "lon": -77.005976, "fusion_lat": 0.0, "rental_uris": {"android": "https://dc.lft.to/lastmile_qr_scan", "ios": "https://dc.lft.to/lastmile_qr_scan"}, "type": "electric_scooter"}, {"is_reserved": 0, "is_disabled": 0, "fusion_lon": 0.0, "lat": 38.911893666666664, "name": "587bf1a44f771047565cf8fe3ef07929", "bike_id": "587bf1a44f771047565cf8fe3ef07929", "lon": -77.01976966666666, "fusion_lat": 0.0, "rental_uris": {"android": "https://dc.lft.to/lastmile_qr_scan", "ios": "https://dc.lft.to/lastmile_qr_scan"}, "type": "electric_scooter"}, {"is_reserved": 0, "is_disabled": 0, "fusion_lon": 0.0, "lat": 38.916865666666666, "name": "ae659ecdee6de9bf50b5ea5b9942bb29", "bike_id": "ae659ecdee6de9bf50b5ea5b9942bb29", "lon": -77.02943466666666, "fusion_lat": 0.0, "rental_uris": {"android": "https://dc.lft.to/lastmile_qr_scan", "ios": "https://dc.lft.to/lastmile_qr_scan"}, "type": "electric_scooter"}, {"is_reserved": 0, "is_disabled": 0, "fusion_lon": 0.0, "lat": 38.90860333333333, "name": "98065fd4facfd4a5755a6f0a8a0bc7c8", "bike_id": "98065fd4facfd4a5755a6f0a8a0bc7c8", "lon": -77.03768883333333, "fusion_lat": 0.0, "rental_uris": {"android": "https://dc.lft.to/lastmile_qr_scan", "ios": "https://dc.lft.to/lastmile_qr_scan"}, "type": "electric_scooter"}, {"is_reserved": 0, "is_disabled": 0, "fusion_lon": 0.0, "lat": 38.8863995, "name": "a00ef4e30db5d59384b42a3c5afb26f1", "bike_id": "a00ef4e30db5d59384b42a3c5afb26f1", "lon": -77.00214, "fusion_lat": 0.0, "rental_uris": {"android": "https://dc.lft.to/lastmile_qr_scan", "ios": "https://dc.lft.to/lastmile_qr_scan"}, "type": "electric_scooter"}, {"is_reserved": 0, "is_disabled": 0, "fusion_lon": 0.0, "lat": 38.897974833333336, "name": "690ae2093ed1d97664457d4af0fc15e4", "bike_id": "690ae2093ed1d97664457d4af0fc15e4", "lon": -76.99257333333334, "fusion_lat": 0.0, "rental_uris": {"android": "https://dc.lft.to/lastmile_qr_scan", "ios": "https://dc.lft.to/lastmile_qr_scan"}, "type": "electric_scooter"}, {"is_reserved": 0, "is_disabled": 0, "fusion_lon": 0.0, "lat": 38.92701383333333, "name": "28a68cc4910de1f0c91d657f04378a5b", "bike_id": "28a68cc4910de1f0c91d657f04378a5b", "lon": -77.02068483333333, "fusion_lat": 0.0, "rental_uris": {"android": "https://dc.lft.to/lastmile_qr_scan", "ios": "https://dc.lft.to/lastmile_qr_scan"}, "type": "electric_scooter"}, {"is_reserved": 0, "is_disabled": 0, "fusion_lon": 0.0, "lat": 38.9424655, "name": "0b2a280a1cbbfba70f2193b15b355759", "bike_id": "0b2a280a1cbbfba70f2193b15b355759", "lon": -77.00223516666667, "fusion_lat": 0.0, "rental_uris": {"android": "https://dc.lft.to/lastmile_qr_scan", "ios": "https://dc.lft.to/lastmile_qr_scan"}, "type": "electric_scooter"}, {"is_reserved": 0, "is_disabled": 0, "fusion_lon": 0.0, "lat": 38.917161, "name": "98e54435eca3bd094a9bf62047619cec", "bike_id": "98e54435eca3bd094a9bf62047619cec", "lon": -77.0415555, "fusion_lat": 0.0, "rental_uris": {"android": "https://dc.lft.to/lastmile_qr_scan", "ios": "https://dc.lft.to/lastmile_qr_scan"}, "type": "electric_scooter"}, {"is_reserved": 0, "is_disabled": 0, "fusion_lon": 0.0, "lat": 38.89617716666667, "name": "04e38f2d8a6c36149230977042ac30f4", "bike_id": "04e38f2d8a6c36149230977042ac30f4", "lon": -76.90750816666667, "fusion_lat": 0.0, "rental_uris": {"android": "https://dc.lft.to/lastmile_qr_scan", "ios": "https://dc.lft.to/lastmile_qr_scan"}, "type": "electric_bike"}, {"is_reserved": 0, "is_disabled": 0, "fusion_lon": 0.0, "lat": 38.88669316666667, "name": "33dd43a9947d4531477dca461f042805", "bike_id": "33dd43a9947d4531477dca461f042805", "lon": -77.01377566666666, "fusion_lat": 0.0, "rental_uris": {"android": "https://dc.lft.to/lastmile_qr_scan", "ios": "https://dc.lft.to/lastmile_qr_scan"}, "type": "electric_scooter"}, {"is_reserved": 0, "is_disabled": 0, "fusion_lon": 0.0, "lat": 38.900217166666664, "name": "527a743dfde0c5ddb5ac8d9eb24d8d98", "bike_id": "527a743dfde0c5ddb5ac8d9eb24d8d98", "lon": -76.99850883333333, "fusion_lat": 0.0, "rental_uris": {"android": "https://dc.lft.to/lastmile_qr_scan", "ios": "https://dc.lft.to/lastmile_qr_scan"}, "type": "electric_scooter"}, {"is_reserved": 0, "is_disabled": 0, "fusion_lon": 0.0, "lat": 38.90391733333333, "name": "fd252b704e67f7ed7f00185964fa9d96", "bike_id": "fd252b704e67f7ed7f00185964fa9d96", "lon": -76.98944016666667, "fusion_lat": 0.0, "rental_uris": {"android": "https://dc.lft.to/lastmile_qr_scan", "ios": "https://dc.lft.to/lastmile_qr_scan"}, "type": "electric_scooter"}, {"is_reserved": 0, "is_disabled": 0, "fusion_lon": 0.0, "lat": 38.9087135, "name": "53c92a36243e54980e6bc2158e6276a1", "bike_id": "53c92a36243e54980e6bc2158e6276a1", "lon": -77.0858865, "fusion_lat": 0.0, "rental_uris": {"android": "https://dc.lft.to/lastmile_qr_scan", "ios": "https://dc.lft.to/lastmile_qr_scan"}, "type": "electric_scooter"}, {"is_reserved": 0, "is_disabled": 0, "fusion_lon": 0.0, "lat": 38.90786033333333, "name": "48c0e36d694760ac277b73dd49b7ec70", "bike_id": "48c0e36d694760ac277b73dd49b7ec70", "lon": -77.00967666666666, "fusion_lat": 0.0, "rental_uris": {"android": "https://dc.lft.to/lastmile_qr_scan", "ios": "https://dc.lft.to/lastmile_qr_scan"}, "type": "electric_scooter"}, {"is_reserved": 0, "is_disabled": 0, "fusion_lon": 0.0, "lat": 38.908463166666664, "name": "f43ea8363b7803d2341dd4c822f0afff", "bike_id": "f43ea8363b7803d2341dd4c822f0afff", "lon": -77.00230883333333, "fusion_lat": 0.0, "rental_uris": {"android": "https://dc.lft.to/lastmile_qr_scan", "ios": "https://dc.lft.to/lastmile_qr_scan"}, "type": "electric_scooter"}, {"is_reserved": 0, "is_disabled": 0, "fusion_lon": 0.0, "lat": 38.916306, "name": "f8db21f9fb65372cfb380911daff8549", "bike_id": "f8db21f9fb65372cfb380911daff8549", "lon": -76.9827275, "fusion_lat": 0.0, "rental_uris": {"android": "https://dc.lft.to/lastmile_qr_scan", "ios": "https://dc.lft.to/lastmile_qr_scan"}, "type": "electric_scooter"}, {"is_reserved": 0, "is_disabled": 0, "fusion_lon": 0.0, "lat": 38.92488566666667, "name": "7b4b1b4ce6bd365740008fa82470358b", "bike_id": "7b4b1b4ce6bd365740008fa82470358b", "lon": -77.03468966666667, "fusion_lat": 0.0, "rental_uris": {"android": "https://dc.lft.to/lastmile_qr_scan", "ios": "https://dc.lft.to/lastmile_qr_scan"}, "type": "electric_scooter"}, {"is_reserved": 0, "is_disabled": 0, "fusion_lon": 0.0, "lat": 38.917632833333336, "name": "83b6752e5518dba2ff3b616db4c64d18", "bike_id": "83b6752e5518dba2ff3b616db4c64d18", "lon": -77.01506916666666, "fusion_lat": 0.0, "rental_uris": {"android": "https://dc.lft.to/lastmile_qr_scan", "ios": "https://dc.lft.to/lastmile_qr_scan"}, "type": "electric_scooter"},