{"data": {"bikes": [{"bike_id": "2510c6bfacd633735e03e03fad4a74c8", "lat": 38.90479633333333, "is_reserved": 0, "fusion_lat": 0.0, "rental_uris": {"android": "https://dc.lft.to/lastmile_qr_scan", "ios": "https://dc.lft.to/lastmile_qr_scan"}, "fusion_lon": 0.0, "name": "2510c6bfacd633735e03e03fad4a74c8", "lon": -77.04479783333333, "is_disabled": 0, "type": "electric_scooter"}, {"bike_id": "aa78e60776dd901cce81253ba5b70168", "lat": 38.916877, "is_reserved": 0, "fusion_lat": 0.0, "rental_uris": {"android": "https://dc.lft.to/lastmile_qr_scan", "ios": "https://dc.lft.to/lastmile_qr_scan"}, "fusion_lon": 0.0, "name": "aa78e60776dd901cce81253ba5b70168", "lon": -77.02377116666666, "is_disabled": 0, "type": "electric_scooter"}, {"bike_id": "53e8bbe6178ecdf851f479a892da3a30", "lat": 38.903128, "is_reserved": 0, "fusion_lat": 0.0, "rental_uris": {"android": "https://dc.lft.to/lastmile_qr_scan", "ios": "https://dc.lft.to/lastmile_qr_scan"}, "fusion_lon": 0.0, "name": "53e8bbe6178ecdf851f479a892da3a30", "lon": -76.99132966666667, "is_disabled": 0, "type": "electric_scooter"}, {"bike_id": "417b7103fc4ee9cb4bb36ae3999f90de", "lat": 38.92108116666667, "is_reserved": 0, "fusion_lat": 0.0, "rental_uris": {"android": "https://dc.lft.to/lastmile_qr_scan", "ios": "https://dc.lft.to/lastmile_qr_scan"}, "fusion_lon": 0.0, "name": "417b7103fc4ee9cb4bb36ae3999f90de", "lon": -77.04152616666667, "is_disabled": 0, "type": "electric_scooter"}, {"bike_id": "418241f952028726d1445894674c5fd8", "lat": 38.918017, "is_reserved": 0, "fusion_lat": 0.0, "rental_uris": {"android": "https://dc.lft.to/lastmile_qr_scan", "ios": "https://dc.lft.to/lastmile_qr_scan"}, "fusion_lon": 0.0, "name": "418241f952028726d1445894674c5fd8", "lon": -77.00932516666667, "is_disabled": 0, "type": "electric_scooter"}, {"bike_id": "ea693511e59ed045c4671221a6360bed", "lat": 38.86059066666667, "is_reserved": 0, "fusion_lat": 0.0, "rental_uris": {"android": "https://dc.lft.to/lastmile_qr_scan", "ios": "https://dc.lft.to/lastmile_qr_scan"}, "fusion_lon": 0.0, "name": "ea693511e59ed045c4671221a6360bed", "lon": -76.9851345, "is_disabled": 0, "type": "electric_scooter"}, {"bike_id": "71f7a3e10febc13daf2ef7386cbd91b5", "lat": 38.88656983333333, "is_reserved": 0, "fusion_lat": 0.0, "rental_uris": {"android": "https://dc.lft.to/lastmile_qr_scan", "ios": "https://dc.lft.to/lastmile_qr_scan"}, "fusion_lon": 0.0, "name": "71f7a3e10febc13daf2ef7386cbd91b5", "lon": -77.02830033333333, "is_disabled": 0, "type": "electric_scooter"}, {"bike_id": "026f5ee9ba4e549b30c03f5c133cf6ff", "lat": 38.9931335, "is_reserved": 0, "fusion_lat": 0.0, "rental_uris": {"android": "https://dc.lft.to/lastmile_qr_scan", "ios": "https://dc.lft.to/lastmile_qr_scan"}, "fusion_lon": 0.0, "name": "026f5ee9ba4e549b30c03f5c133cf6ff", "lon": -77.02316216666667, "is_disabled": 0, "type": "electric_bike"}, {"bike_id": "7e78cad6a3c43e5baff265b5b06f63db", "lat": 38.8994015, "is_reserved": 0, "fusion_lat": 0.0, "rental_uris": {"android": "https://dc.lft.to/lastmile_qr_scan", "ios": "https://dc.lft.to/lastmile_qr_scan"}, "fusion_lon": 0.0, "name": "7e78cad6a3c43e5baff265b5b06f63db", "lon": -77.01491866666667, "is_disabled": 0, "type": "electric_scooter"}, {"bike_id": "a958add74266cc2a282cbf532ca7344e", "lat": 38.8097685, "is_reserved": 0, "fusion_lat": 0.0, "rental_uris": {"android": "https://dc.lft.to/lastmile_qr_scan", "ios": "https://dc.lft.to/lastmile_qr_scan"}, "fusion_lon": 0.0, "name": "a958add74266cc2a282cbf532ca7344e", "lon": -77.08631916666667, "is_disabled": 0, "type": "electric_bike"}, {"bike_id": "3b50b7abeba0debf3db1c76f64ae5af6", "lat": 38.893934333333334, "is_reserved": 0, "fusion_lat": 0.0, "rental_uris": {"android": "https://dc.lft.to/lastmile_qr_scan", "ios": "https://dc.lft.to/lastmile_qr_scan"}, "fusion_lon": 0.0, "name": "3b50b7abeba0debf3db1c76f64ae5af6", "lon": -77.01105633333333, "is_disabled": 0, "type": "electric_scooter"}, {"bike_id": "ff16f839d5a7b17422393876cc5fbffd", "lat": 38.9352645, "is_reserved": 0, "fusion_lat": 0.0, "rental_uris": {"android": "https://dc.lft.to/lastmile_qr_scan", "ios": "https://dc.lft.to/lastmile_qr_scan"}, "fusion_lon": 0.0, "name": "ff16f839d5a7b17422393876cc5fbffd", "lon": -76.964489, "is_disabled": 0, "type": "electric_bike"}, {"bike_id": "d15a61dd292015caa410e699f4aa41b8", "lat": 38.917628, "is_reserved": 0, "fusion_lat": 0.0, "rental_uris": {"android": "https://dc.lft.to/lastmile_qr_scan", "ios": "https://dc.lft.to/lastmile_qr_scan"}, "fusion_lon": 0.0, "name": "d15a61dd292015caa410e699f4aa41b8", "lon": -77.04770283333333, "is_disabled": 0, "type": "electric_scooter"}, {"bike_id": "a7eefd9ae3f76561ff6800915f7fd690", "lat": 38.921677, "is_reserved": 0, "fusion_lat": 0.0, "rental_uris": {"android": "https://dc.lft.to/lastmile_qr_scan", "ios": "https://dc.lft.to/lastmile_qr_scan"}, "fusion_lon": 0.0, "name": "a7eefd9ae3f76561ff6800915f7fd690", "lon": -77.03236766666667, "is_disabled": 0, "type": "electric_scooter"}, {"bike_id": "34b74d12277c9307080c4e68e4b6fb2e", "lat": 38.922770666666665, "is_reserved": 0, "fusion_lat": 0.0, "rental_uris": {"android": "https://dc.lft.to/lastmile_qr_scan", "ios": "https://dc.lft.to/lastmile_qr_scan"}, "fusion_lon": 0.0, "name": "34b74d12277c9307080c4e68e4b6fb2e", "lon": -77.03659833333333, "is_disabled": 0, "type": "electric_scooter"}, {"bike_id": "1a1fa6fad8dd88abbd1443ee3f478f80", "lat": 38.9248575, "is_reserved": 0, "fusion_lat": 0.0, "rental_uris": {"android": "https://dc.lft.to/lastmile_qr_scan", "ios": "https://dc.lft.to/lastmile_qr_scan"}, "fusion_lon": 0.0, "name": "1a1fa6fad8dd88abbd1443ee3f478f80", "lon": -77.03186783333334, "is_disabled": 0, "type": "electric_scooter"}, {"bike_id": "467f958bf53cdc19e81af7568877b1dd", "lat": 38.91113083333333, "is_reserved": 0, "fusion_lat": 0.0, "rental_uris": {"android": "https://dc.lft.to/lastmile_qr_scan", "ios": "https://dc.lft.to/lastmile_qr_scan"}, "fusion_lon": 0.0, "name": "467f958bf53cdc19e81af7568877b1dd", "lon": -77.03149766666667, "is_disabled": 0, "type": "electric_scooter"}, {"bike_id": "494ecc19b060c46a0d0e480af0a5f44a", "lat": 38.9094865, "is_reserved": 0, "fusion_lat": 0.0, "rental_uris": {"android": "https://dc.lft.to/lastmile_qr_scan", "ios": "https://dc.lft.to/lastmile_qr_scan"}, "fusion_lon": 0.0, "name": "494ecc19b060c46a0d0e480af0a5f44a", "lon": -77.03184416666667, "is_disabled": 0, "type": "electric_scooter"}, {"bike_id": "680e7b7e92d076ae7e4375e5227c05db", "lat": 38.93338883333333, "is_reserved": 0, "fusion_lat": 0.0, "rental_uris": {"android": "https://dc.lft.to/lastmile_qr_scan", "ios": "https://dc.lft.to/lastmile_qr_scan"}, "fusion_lon": 0.0, "name": "680e7b7e92d076ae7e4375e5227c05db", "lon": -77.02062316666667, "is_disabled": 0, "type": "electric_scooter"}, {"bike_id": "a5f97dc6215bc94b9522bba3b2e53a13", "lat": 38.91822483333333, "is_reserved": 0, "fusion_lat": 0.0, "rental_uris": {"android": "https://dc.lft.to/lastmile_qr_scan", "ios": "https://dc.lft.to/lastmile_qr_scan"}, "fusion_lon": 0.0, "name": "a5f97dc6215bc94b9522bba3b2e53a13", "lon": -77.0494335, "is_disabled": 0, "type": "electric_scooter"}, {"bike_id": "95f433e7fbf044c853cc1f390f363379", "lat": 38.873579166666666, "is_reserved": 0, "fusion_lat": 0.0, "rental_uris": {"android": "https://dc.lft.to/lastmile_qr_scan", "ios": "https://dc.lft.to/lastmile_qr_scan"}, "fusion_lon": 0.0, "name": "95f433e7fbf044c853cc1f390f363379", "lon": -76.9703035, "is_disabled": 0, "type": "electric_scooter"}, {"bike_id": "5b544fa4ff8f33bd183ce312b9a1d8ad", "lat": 38.8746695, "is_reserved": 0, "fusion_lat": 0.0, "rental_uris": {"android": "https://dc.lft.to/lastmile_qr_scan", "ios": "https://dc.lft.to/lastmile_qr_scan"}, "fusion_lon": 0.0, "name": "5b544fa4ff8f33bd183ce312b9a1d8ad", "lon": -77.0049055, "is_disabled": 0, "type": "electric_scooter"}, {"bike_id": "85a87b1c5e4d22addc87bb0a40b18160", "lat": 38.8962415, "is_reserved": 0, "fusion_lat": 0.0, "rental_uris": {"android": "https://dc.lft.to/lastmile_qr_scan", "ios": "https://dc.lft.to/lastmile_qr_scan"}, "fusion_lon": 0.0, "name": "85a87b1c5e4d22addc87bb0a40b18160", "lon": -77.00351016666667, "is_disabled": 0, "type": "electric_scooter"}, {"bike_id": "3c54128f867adea4e2494d5978f8f6c7", "lat": 38.921420166666664, "is_reserved": 0, "fusion_lat": 0.0, "rental_uris": {"android": "https://dc.lft.to/lastmile_qr_scan", "ios": "https://dc.lft.to/lastmile_qr_scan"}, "fusion_lon": 0.0, "name": "3c54128f867adea4e2494d5978f8f6c7", "lon": -77.0351365, "is_disabled": 0, "type": "electric_scooter"}, {"bike_id": "5a1535f4d5f359a35818e01063ad09f5", "lat": 38.867068333333336, "is_reserved": 0, "fusion_lat": 0.0, "rental_uris": {"android": "https://dc.lft.to/lastmile_qr_scan", "ios": "https://dc.lft.to/lastmile_qr_scan"}, "fusion_lon": 0.0, "name": "5a1535f4d5f359a35818e01063ad09f5", "lon": -76.987183, "is_disabled": 0, "type": "electric_scooter"}, {"bike_id": "cef1b27485a8db451b3e6c6d589c73ef", "lat": 38.8994875, "is_reserved": 0, "fusion_lat": 0.0, "rental_uris": {"android": "https://dc.lft.to/lastmile_qr_scan", "ios": "https://dc.lft.to/lastmile_qr_scan"}, "fusion_lon": 0.0, "name": "cef1b27485a8db451b3e6c6d589c73ef", "lon": -77.04771166666667, "is_disabled": 0, "type": "electric_scooter"}, {"bike_id": "013881b11f396f173534353945225389", "lat": 38.93575516666667, "is_reserved": 0, "fusion_lat": 0.0, "rental_uris": {"android": "https://dc.lft.to/lastmile_qr_scan", "ios": "https://dc.lft.to/lastmile_qr_scan"}, "fusion_lon": 0.0, "name": "013881b11f396f173534353945225389", "lon": -77.01976216666667, "is_disabled": 0, "type": "electric_scooter"}, {"bike_id": "e880c6ea3de09c50cd376096ee65d9a5", "lat": 38.894980333333336, "is_reserved": 0, "fusion_lat": 0.0, "rental_uris": {"android": "https://dc.lft.to/lastmile_qr_scan", "ios": "https://dc.lft.to/lastmile_qr_scan"}, "fusion_lon": 0.0, "name": "e880c6ea3de09c50cd376096ee65d9a5", "lon": -77.02305933333334, "is_disabled": 0, "type": "electric_scooter"}, {"bike_id": "c89f1edef07c9933ec645521e1c5512b", "lat": 38.913985, "is_reserved": 0, "fusion_lat": 0.0, "rental_uris": {"android": "https://dc.lft.to/lastmile_qr_scan", "ios": "https://dc.lft.to/lastmile_qr_scan"}, "fusion_lon": 0.0, "name": "c89f1edef07c9933ec645521e1c5512b", "lon": -77.02410333333333, "is_disabled": 0, "type": "electric_scooter"}, {"bike_id": "63b46cfb5e5a8a6649a965d8a029fbcf", "lat": 39.052791666666664, "is_reserved": 0, "fusion_lat": 0.0, "rental_uris": {"android": "https://dc.lft.to/lastmile_qr_scan", "ios": "https://dc.lft.to/lastmile_qr_scan"}, "fusion_lon": 0.0, "name": "63b46cfb5e5a8a6649a965d8a029fbcf", "lon": -77.08068283333333, "is_disabled": 0, "type": "electric_bike"}, {"bike_id": "0235c583c3d8683d516c4cd8ca0d7ad9", "lat": 38.905071666666664, "is_reserved": 0, "fusion_lat": 0.0, "rental_uris": {"android": "https://dc.lft.to/lastmile_qr_scan", "ios": "https://dc.lft.to/lastmile_qr_scan"}, "fusion_lon": 0.0, "name": "0235c583c3d8683d516c4cd8ca0d7ad9", "lon": -77.0647225, "is_disabled": 0, "type": "electric_scooter"}, {"bike_id": "960eb0e11b292694f341d13f4f9f81b4", "lat": 38.915078333333334, "is_reserved": 0, "fusion_lat": 0.0, "rental_uris": {"android": "https://dc.lft.to/lastmile_qr_scan", "ios": "https://dc.lft.to/lastmile_qr_scan"}, "fusion_lon": 0.0, "name": "960eb0e11b292694f341d13f4f9f81b4", "lon": -77.044937, "is_disabled": 0, "type": "electric_scooter"}, {"bike_id": "812062d2b413a4895fbb3d1e3c14e2d7", "lat": 38.90784083333333, "is_reserved": 0, "fusion_lat": 0.0, "rental_uris": {"android": "https://dc.lft.to/lastmile_qr_scan", "ios": "https://dc.lft.to/lastmile_qr_scan"}, "fusion_lon": 0.0, "name": "812062d2b413a4895fbb3d1e3c14e2d7", "lon": -77.042712, "is_disabled": 0, "type": "electric_scooter"}, {"bike_id": "cecdf88798c377ac31e9968d4338124c", "lat": 38.953261166666664, "is_reserved": 0, "fusion_lat": 0.0, "rental_uris": {"android": "https://dc.lft.to/lastmile_qr_scan", "ios": "https://dc.lft.to/lastmile_qr_scan"}, "fusion_lon": 0.0, "name": "cecdf88798c377ac31e9968d4338124c", "lon": -76.98249366666667, "is_disabled": 0, "type": "electric_bike"}, {"bike_id": "2b0f2faca08c08833dcc1e322161af5b", "lat": 38.92144116666667, "is_reserved": 0, "fusion_lat": 0.0, "rental_uris": {"android": "https://dc.lft.to/lastmile_qr_scan", "ios": "https://dc.lft.to/lastmile_qr_scan"}, "fusion_lon": 0.0, "name": "2b0f2faca08c08833dcc1e322161af5b", "lon": -77.0434565, "is_disabled": 0, "type": "electric_scooter"}, {"bike_id": "41fe688f52e8cd0b4219185dad704ecb", "lat": 38.921426333333336, "is_reserved": 0, "fusion_lat": 0.0, "rental_uris": {"android": "https://dc.lft.to/lastmile_qr_scan", "ios": "https://dc.lft.to/lastmile_qr_scan"}, "fusion_lon": 0.0, "name": "41fe688f52e8cd0b4219185dad704ecb", "lon": -76.99556216666667, "is_disabled": 0, "type": "electric_scooter"}, {"bike_id": "1d8bbca519d5219f03da822610555132", "lat": 38.93525666666667, "is_reserved": 0, "fusion_lat": 0.0, "rental_uris": {"android": "https://dc.lft.to/lastmile_qr_scan", "ios": "https://dc.lft.to/lastmile_qr_scan"}, "fusion_lon": 0.0, "name": "1d8bbca519d5219f03da822610555132", "lon": -77.03351516666666, "is_disabled": 0, "type": "electric_scooter"}, {"bike_id": "9f443ab5302fe9a0d52d47d21fc0cd51", "lat": 38.899401, "is_reserved": 0, "fusion_lat": 0.0, "rental_uris": {"android": "https://dc.lft.to/lastmile_qr_scan", "ios": "https://dc.lft.to/lastmile_qr_scan"}, "fusion_lon": 0.0, "name": "9f443ab5302fe9a0d52d47d21fc0cd51", "lon": -77.01454916666667, "is_disabled": 0, "type": "electric_scooter"}, {"bike_id": "9e8b2571a8a219cea40460d0e49d3cba", "lat": 38.93455616666667, "is_reserved": 0, "fusion_lat": 0.0, "rental_uris": {"android": "https://dc.lft.to/lastmile_qr_scan", "ios": "https://dc.lft.to/lastmile_qr_scan"}, "fusion_lon": 0.0, "name": "9e8b2571a8a219cea40460d0e49d3cba", "lon": -77.04529216666667, "is_disabled": 0, "type": "electric_scooter"}, {"bike_id": "77b25ecdfe5236ce8a52a85e669b5171", "lat": 38.903412833333334, "is_reserved": 0, "fusion_lat": 0.0, "rental_uris": {"android": "https://dc.lft.to/lastmile_qr_scan", "ios": "https://dc.lft.to/lastmile_qr_scan"}, "fusion_lon": 0.0, "name": "77b25ecdfe5236ce8a52a85e669b5171", "lon": -77.0378665, "is_disabled": 0, "type": "electric_scooter"}, {"bike_id": "57507ea5a0f086bb39cacdcc059c1cde", "lat": 38.89919183333333, "is_reserved": 0, "fusion_lat": 0.0, "rental_uris": {"android": "https://dc.lft.to/lastmile_qr_scan", "ios": "https://dc.lft.to/lastmile_qr_scan"}, "fusion_lon": 0.0, "name": "57507ea5a0f086bb39cacdcc059c1cde", "lon": -76.93369466666667, "is_disabled": 0, "type": "electric_scooter"}, {"bike_id": "f08ba604e4d7beb5d2234b418a7f5845", "lat": 38.8970075, "is_reserved": 0, "fusion_lat": 0.0, "rental_uris": {"android": "https://dc.lft.to/lastmile_qr_scan", "ios": "https://dc.lft.to/lastmile_qr_scan"}, "fusion_lon": 0.0, "name": "f08ba604e4d7beb5d2234b418a7f5845", "lon": -77.03216333333333, "is_disabled": 0, "type": "electric_scooter"}, {"bike_id": "db2f59c0fca96c82a44a489c59ae597c", "lat": 38.915662166666664, "is_reserved": 0, "fusion_lat": 0.0, "rental_uris": {"android": "https://dc.lft.to/lastmile_qr_scan", "ios": "https://dc.lft.to/lastmile_qr_scan"}, "fusion_lon": 0.0, "name": "db2f59c0fca96c82a44a489c59ae597c", "lon": -77.025891, "is_disabled": 0, "type": "electric_scooter"}, {"bike_id": "adca60bcc403d3b53d3c8bb1be479cee", "lat": 38.8935385, "is_reserved": 0, "fusion_lat": 0.0, "rental_uris": {"android": "https://dc.lft.to/lastmile_qr_scan", "ios": "https://dc.lft.to/lastmile_qr_scan"}, "fusion_lon": 0.0, "name": "adca60bcc403d3b53d3c8bb1be479cee", "lon": -77.00332216666666, "is_disabled": 0, "type": "electric_scooter"}, {"bike_id": "e7e1b8162ffc1afc419de3ec44a075f8", "lat": 38.900990166666666, "is_reserved": 0, "fusion_lat": 0.0, "rental_uris": {"android": "https://dc.lft.to/lastmile_qr_scan", "ios": "https://dc.lft.to/lastmile_qr_scan"}, "fusion_lon": 0.0, "name": "e7e1b8162ffc1afc419de3ec44a075f8", "lon": -77.048733, "is_disabled": 0, "type": "electric_bike"}, {"bike_id": "269c8007ef23f465ccd14bd1647d60b8", "lat": 38.911123, "is_reserved": 0, "fusion_lat": 0.0, "rental_uris": {"android": "https://dc.lft.to/lastmile_qr_scan", "ios": "https://dc.lft.to/lastmile_qr_scan"}, "fusion_lon": 0.0, "name": "269c8007ef23f465ccd14bd1647d60b8", "lon": -77.03558416666667, "is_disabled": 0, "type": "electric_scooter"}, {"bike_id": "abb3b9e7c7aae672025806429b924991", "lat": 38.9224775, "is_reserved": 0, "fusion_lat": 0.0, "rental_uris": {"android": "https://dc.lft.to/lastmile_qr_scan", "ios": "https://dc.lft.to/lastmile_qr_scan"}, "fusion_lon": 0.0, "name": "abb3b9e7c7aae672025806429b924991", "lon": -77.0420965, "is_disabled": 0, "type": "electric_scooter"}, {"bike_id": "a47bfc64f19c8e6e7b01421b8d67a913", "lat": 38.89877383333334, "is_reserved": 0, "fusion_lat": 0.0, "rental_uris": {"android": "https://dc.lft.to/lastmile_qr_scan", "ios": "https://dc.lft.to/lastmile_qr_scan"}, "fusion_lon": 0.0, "name": "a47bfc64f19c8e6e7b01421b8d67a913", "lon": -77.04182533333334, "is_disabled": 0, "type": "electric_scooter"}, {"bike_id": "72c111993663de69c03f32a555350cb8", "lat": 38.878699, "is_reserved": 0, "fusion_lat": 0.0, "rental_uris": {"android": "https://dc.lft.to/lastmile_qr_scan", "ios": "https://dc.lft.to/lastmile_qr_scan"}, "fusion_lon": 0.0, "name": "72c111993663de69c03f32a555350cb8", "lon": -77.01748916666666, "is_disabled": 0, "type": "electric_scooter"}, {"bike_id": "a0dc98176a16d0b36ee6719a125e0170", "lat": 38.897356333333335, "is_reserved": 0, "fusion_lat": 0.0, "rental_uris": {"android": "https://dc.lft.to/lastmile_qr_scan", "ios": "https://dc.lft.to/lastmile_qr_scan"}, "fusion_lon": 0.0, "name": "a0dc98176a16d0b36ee6719a125e0170", "lon": -77.02765666666667, "is_disabled": 0, "type": "electric_scooter"}, {"bike_id": "3014c724f42faa4d2ffc35f6218cffc6", "lat": 38.906448, "is_reserved": 0, "fusion_lat": 0.0, "rental_uris": {"android": "https://dc.lft.to/lastmile_qr_scan", "ios": "https://dc.lft.to/lastmile_qr_scan"}, "fusion_lon": 0.0, "name": "3014c724f42faa4d2ffc35f6218cffc6", "lon": -77.04869233333334, "is_disabled": 0, "type": "electric_scooter"}, {"bike_id": "21d42aa8ce58c9fbb15651e2e6caa786", "lat": 38.894764, "is_reserved": 0, "fusion_lat": 0.0, "rental_uris": {"android": "https://dc.lft.to/lastmile_qr_scan", "ios": "https://dc.lft.to/lastmile_qr_scan"}, "fusion_lon": 0.0, "name": "21d42aa8ce58c9fbb15651e2e6caa786", "lon": -76.94858766666667, "is_disabled": 0, "type": "electric_scooter"}, {"bike_id": "812bc99e442add3b6335d0d6d00df455", "lat": 38.8940475, "is_reserved": 0, "fusion_lat": 0.0, "rental_uris": {"android": "https://dc.lft.to/lastmile_qr_scan", "ios": "https://dc.lft.to/lastmile_qr_scan"}, "fusion_lon": 0.0, "name": "812bc99e442add3b6335d0d6d00df455", "lon": -77.0108885, "is_disabled": 0, "type": "electric_scooter"}, {"bike_id": "5928fa548b2e9be53aa21d9b701bbb09", "lat": 38.9204165, "is_reserved": 0, "fusion_lat": 0.0, "rental_uris": {"android": "https://dc.lft.to/lastmile_qr_scan", "ios": "https://dc.lft.to/lastmile_qr_scan"}, "fusion_lon": 0.0, "name": "5928fa548b2e9be53aa21d9b701bbb09", "lon": -77.0257385, "is_disabled": 0, "type": "electric_scooter"}, {"bike_id": "08f714e0bc9ab4a6daa7d77657d231ed", "lat": 38.94016583333333, "is_reserved": 0, "fusion_lat": 0.0, "rental_uris": {"android": "https://dc.lft.to/lastmile_qr_scan", "ios": "https://dc.lft.to/lastmile_qr_scan"}, "fusion_lon": 0.0, "name": "08f714e0bc9ab4a6daa7d77657d231ed", "lon": -76.97609966666667, "is_disabled": 0, "type": "electric_scooter"}, {"bike_id": "cf975afaab0ac5ba901e5de710b0b15b", "lat": 38.934748666666664, "is_reserved": 0, "fusion_lat": 0.0, "rental_uris": {"android": "https://dc.lft.to/lastmile_qr_scan", "ios": "https://dc.lft.to/lastmile_qr_scan"}, "fusion_lon": 0.0, "name": "cf975afaab0ac5ba901e5de710b0b15b", "lon": -77.072635, "is_disabled": 0, "type": "electric_scooter"}, {"bike_id": "1f5a5af9944423caab88b36ee6b94f7e", "lat": 38.8770675, "is_reserved": 0, "fusion_lat": 0.0, "rental_uris": {"android": "https://dc.lft.to/lastmile_qr_scan", "ios": "https://dc.lft.to/lastmile_qr_scan"}, "fusion_lon": 0.0, "name": "1f5a5af9944423caab88b36ee6b94f7e", "lon": -77.0051645, "is_disabled": 0, "type": "electric_scooter"}, {"bike_id": "473a176109c7ffab8170cc6b65494080", "lat": 38.900323666666665, "is_reserved": 0, "fusion_lat": 0.0, "rental_uris": {"android": "https://dc.lft.to/lastmile_qr_scan", "ios": "https://dc.lft.to/lastmile_qr_scan"}, "fusion_lon": 0.0, "name": "473a176109c7ffab8170cc6b65494080", "lon": -76.99836866666666, "is_disabled": 0, "type": "electric_scooter"}, {"bike_id": "60171cf93cd30170b40ee140115a68df", "lat": 38.90559733333333, "is_reserved": 0, "fusion_lat": 0.0, "rental_uris": {"android": "https://dc.lft.to/lastmile_qr_scan", "ios": "https://dc.lft.to/lastmile_qr_scan"}, "fusion_lon": 0.0, "name": "60171cf93cd30170b40ee140115a68df", "lon": -77.00708866666666, "is_disabled": 0, "type": "electric_scooter"}, {"bike_id": "65ce18126cc706e95c70087ac2b3e923", "lat": 38.93208933333333, "is_reserved": 0, "fusion_lat": 0.0, "rental_uris": {"android": "https://dc.lft.to/lastmile_qr_scan", "ios": "https://dc.lft.to/lastmile_qr_scan"}, "fusion_lon": 0.0, "name": "65ce18126cc706e95c70087ac2b3e923", "lon": -77.0352115, "is_disabled": 0, "type": "electric_scooter"}, {"bike_id": "e08cb3c5e7de38047823744727b5ae5f", "lat": 38.90197916666666, "is_reserved": 0, "fusion_lat": 0.0, "rental_uris": {"android": "https://dc.lft.to/lastmile_qr_scan", "ios": "https://dc.lft.to/lastmile_qr_scan"}, "fusion_lon": 0.0, "name": "e08cb3c5e7de38047823744727b5ae5f", "lon": -77.04663283333333, "is_disabled": 0, "type": "electric_scooter"}, {"bike_id": "305282cf331e9d04d970375f996b3a49", "lat": 38.910593, "is_reserved": 0, "fusion_lat": 0.0, "rental_uris": {"android": "https://dc.lft.to/lastmile_qr_scan", "ios": "https://dc.lft.to/lastmile_qr_scan"}, "fusion_lon": 0.0, "name": "305282cf331e9d04d970375f996b3a49", "lon": -77.05520766666666, "is_disabled": 0, "type": "electric_bike"}, {"bike_id": "9732e7907e0ba21f375d3ae8b48d1f7d", "lat": 38.89851916666667, "is_reserved": 0, "fusion_lat": 0.0, "rental_uris": {"android": "https://dc.lft.to/lastmile_qr_scan", "ios": "https://dc.lft.to/lastmile_qr_scan"}, "fusion_lon": 0.0, "name": "9732e7907e0ba21f375d3ae8b48d1f7d", "lon": -76.929058, "is_disabled": 0, "type": "electric_scooter"}, {"bike_id": "aee2ae1848213b064c25e64fa646abeb", "lat": 38.948227, "is_reserved": 0, "fusion_lat": 0.0, "rental_uris": {"android": "https://dc.lft.to/lastmile_qr_scan", "ios": "https://dc.lft.to/lastmile_qr_scan"}, "fusion_lon": 0.0, "name": "aee2ae1848213b064c25e64fa646abeb", "lon": -77.02487366666666, "is_disabled": 0, "type": "electric_scooter"}, {"bike_id": "6e24c67585a1d72616343edc9c116f5b", "lat": 38.90238516666667, "is_reserved": 0, "fusion_lat": 0.0, "rental_uris": {"android": "https://dc.lft.to/lastmile_qr_scan", "ios": "https://dc.lft.to/lastmile_qr_scan"}, "fusion_lon": 0.0, "name": "6e24c67585a1d72616343edc9c116f5b", "lon": -77.03418716666667, "is_disabled": 0, "type": "electric_scooter"}, {"bike_id": "6f99f75354d7ec478b2df34ea1c44de7", "lat": 38.91819983333333, "is_reserved": 0, "fusion_lat": 0.0, "rental_uris": {"android": "https://dc.lft.to/lastmile_qr_scan", "ios": "https://dc.lft.to/lastmile_qr_scan"}, "fusion_lon": 0.0, "name": "6f99f75354d7ec478b2df34ea1c44de7", "lon": -77.012092, "is_disabled": 0, "type": "electric_scooter"}, {"bike_id": "443c8219e5be9cbbe7a00ecbc8cd862e", "lat": 38.893853, "is_reserved": 0, "fusion_lat": 0.0, "rental_uris": {"android": "https://dc.lft.to/lastmile_qr_scan", "ios": "https://dc.lft.to/lastmile_qr_scan"}, "fusion_lon": 0.0, "name": "443c8219e5be9cbbe7a00ecbc8cd862e", "lon": -77.02266433333334, "is_disabled": 0, "type": "electric_scooter"}, {"bike_id": "09d80ef020fc6013293f2d9ec02a414a", "lat": 38.914249166666664, "is_reserved": 0, "fusion_lat": 0.0, "rental_uris": {"android": "https://dc.lft.to/lastmile_qr_scan", "ios": "https://dc.lft.to/lastmile_qr_scan"}, "fusion_lon": 0.0, "name": "09d80ef020fc6013293f2d9ec02a414a", "lon": -77.03191416666667, "is_disabled": 0, "type": "electric_scooter"}, {"bike_id": "213f7dff6af136ce41db350be20e98cd", "lat": 38.9182725, "is_reserved": 0, "fusion_lat": 0.0, "rental_uris": {"android": "https://dc.lft.to/lastmile_qr_scan", "ios": "https://dc.lft.to/lastmile_qr_scan"}, "fusion_lon": 0.0, "name": "213f7dff6af136ce41db350be20e98cd", "lon": -77.049324, "is_disabled": 0, "type": "electric_scooter"}, {"bike_id": "d43a094bad54f7a0e212549564d98e86", "lat": 38.89834116666667, "is_reserved": 0, "fusion_lat": 0.0, "rental_uris": {"android": "https://dc.lft.to/lastmile_qr_scan", "ios": "https://dc.lft.to/lastmile_qr_scan"}, "fusion_lon": 0.0, "name": "d43a094bad54f7a0e212549564d98e86", "lon": -77.03347866666667, "is_disabled": 0, "type": "electric_scooter"}, {"bike_id": "1554313e690edf101f97e63822c3dc3a", "lat": 38.90076883333333, "is_reserved": 0, "fusion_lat": 0.0, "rental_uris": {"android": "https://dc.lft.to/lastmile_qr_scan", "ios": "https://dc.lft.to/lastmile_qr_scan"}, "fusion_lon": 0.0, "name": "1554313e690edf101f97e63822c3dc3a", "lon": -77.0468445, "is_disabled": 0, "type": "electric_scooter"}, {"bike_id": "f358d5ac8f2360f9f3cc16f074cb2ef5", "lat": 38.919442, "is_reserved": 0, "fusion_lat": 0.0, "rental_uris": {"android": "https://dc.lft.to/lastmile_qr_scan", "ios": "https://dc.lft.to/lastmile_qr_scan"}, "fusion_lon": 0.0, "name": "f358d5ac8f2360f9f3cc16f074cb2ef5", "lon": -77.02489466666667, "is_disabled": 0, "type": "electric_scooter"}, {"bike_id": "4937fc9f8b37608d742164f5838b6c97", "lat": 38.8771145, "is_reserved": 0, "fusion_lat": 0.0, "rental_uris": {"android": "https://dc.lft.to/lastmile_qr_scan", "ios": "https://dc.lft.to/lastmile_qr_scan"}, "fusion_lon": 0.0, "name": "4937fc9f8b37608d742164f5838b6c97", "lon": -77.01763, "is_disabled": 0, "type": "electric_scooter"}, {"bike_id": "38f27b341ea8755912caf53d04c8869c", "lat": 38.86213216666667, "is_reserved": 0, "fusion_lat": 0.0, "rental_uris": {"android": "https://dc.lft.to/lastmile_qr_scan", "ios": "https://dc.lft.to/lastmile_qr_scan"}, "fusion_lon": 0.0, "name": "38f27b341ea8755912caf53d04c8869c", "lon": -76.994808, "is_disabled": 0, "type": "electric_scooter"}, {"bike_id": "ce580b48f28119fe2484bf5f91163919", "lat": 38.93053483333333, "is_reserved": 0, "fusion_lat": 0.0, "rental_uris": {"android": "https://dc.lft.to/lastmile_qr_scan", "ios": "https://dc.lft.to/lastmile_qr_scan"}, "fusion_lon": 0.0, "name": "ce580b48f28119fe2484bf5f91163919", "lon": -77.04257033333333, "is_disabled": 0, "type": "electric_scooter"}, {"bike_id": "e4c228a57d7d992837097fc631fdc557", "lat": 38.907532333333336, "is_reserved": 0, "fusion_lat": 0.0, "rental_uris": {"android": "https://dc.lft.to/lastmile_qr_scan", "ios": "https://dc.lft.to/lastmile_qr_scan"}, "fusion_lon": 0.0, "name": "e4c228a57d7d992837097fc631fdc557", "lon": -77.03198366666666, "is_disabled": 0, "type": "electric_scooter"}, {"bike_id": "66ee18d41801e2617517bff51e8d5e87", "lat": 38.9043295, "is_reserved": 0, "fusion_lat": 0.0, "rental_uris": {"android": "https://dc.lft.to/lastmile_qr_scan", "ios": "https://dc.lft.to/lastmile_qr_scan"}, "fusion_lon": 0.0, "name": "66ee18d41801e2617517bff51e8d5e87", "lon": -76.98254583333333, "is_disabled": 0, "type": "electric_scooter"}, {"bike_id": "a90300f5cbe9975ba740f661cf1497e5", "lat": 38.920328, "is_reserved": 0, "fusion_lat": 0.0, "rental_uris": {"android": "https://dc.lft.to/lastmile_qr_scan", "ios": "https://dc.lft.to/lastmile_qr_scan"}, "fusion_lon": 0.0, "name": "a90300f5cbe9975ba740f661cf1497e5", "lon": -77.03358083333333, "is_disabled": 0, "type": "electric_scooter"}, {"bike_id": "133d90a4aba96b7930ef8ba663b3b656", "lat": 38.9215115, "is_reserved": 0, "fusion_lat": 0.0, "rental_uris": {"android": "https://dc.lft.to/lastmile_qr_scan", "ios": "https://dc.lft.to/lastmile_qr_scan"}, "fusion_lon": 0.0, "name": "133d90a4aba96b7930ef8ba663b3b656", "lon": -77.0386535, "is_disabled": 0, "type": "electric_scooter"}, {"bike_id": "24993aaf63f5b460468ee451c2e20661", "lat": 38.925088833333334, "is_reserved": 0, "fusion_lat": 0.0, "rental_uris": {"android": "https://dc.lft.to/lastmile_qr_scan", "ios": "https://dc.lft.to/lastmile_qr_scan"}, "fusion_lon": 0.0, "name": "24993aaf63f5b460468ee451c2e20661", "lon": -77.0022735, "is_disabled": 0, "type": "electric_scooter"}, {"bike_id": "b1aabd5971067b4f6b0707bc8abf5529", "lat": 38.88407433333333, "is_reserved": 0, "fusion_lat": 0.0, "rental_uris": {"android": "https://dc.lft.to/lastmile_qr_scan", "ios": "https://dc.lft.to/lastmile_qr_scan"}, "fusion_lon": 0.0, "name": "b1aabd5971067b4f6b0707bc8abf5529", "lon": -76.948274, "is_disabled": 0, "type": "electric_scooter"}, {"bike_id": "797d2abc4c248645f1339fb58373d323", "lat": 38.896405333333334, "is_reserved": 0, "fusion_lat": 0.0, "rental_uris": {"android": "https://dc.lft.to/lastmile_qr_scan", "ios": "https://dc.lft.to/lastmile_qr_scan"}, "fusion_lon": 0.0, "name": "797d2abc4c248645f1339fb58373d323", "lon": -77.02613866666667, "is_disabled": 0, "type": "electric_scooter"}, {"bike_id": "23305251ce2cbfb3bdd533e72d295a52", "lat": 38.9057445, "is_reserved": 0, "fusion_lat": 0.0, "rental_uris": {"android": "https://dc.lft.to/lastmile_qr_scan", "ios": "https://dc.lft.to/lastmile_qr_scan"}, "fusion_lon": 0.0, "name": "23305251ce2cbfb3bdd533e72d295a52", "lon": -77.04168683333333, "is_disabled": 0, "type": "electric_scooter"}, {"bike_id": "2c4088b06e9a4c42495ed48bbc99240e", "lat": 38.9199285, "is_reserved": 0, "fusion_lat": 0.0, "rental_uris": {"android": "https://dc.lft.to/lastmile_qr_scan", "ios": "https://dc.lft.to/lastmile_qr_scan"}, "fusion_lon": 0.0, "name": "2c4088b06e9a4c42495ed48bbc99240e", "lon": -77.02377783333333, "is_disabled": 0, "type": "electric_scooter"}, {"bike_id": "19b239da6358ef5a3a09f2044e74b400", "lat": 38.933978, "is_reserved": 0, "fusion_lat": 0.0, "rental_uris": {"android": "https://dc.lft.to/lastmile_qr_scan", "ios": "https://dc.lft.to/lastmile_qr_scan"}, "fusion_lon": 0.0, "name": "19b239da6358ef5a3a09f2044e74b400", "lon": -77.057475, "is_disabled": 0, "type": "electric_scooter"}, {"bike_id": "0775a1d0b3a379c3fd82a19375d7c838", "lat": 38.83094716666667, "is_reserved": 0, "fusion_lat": 0.0, "rental_uris": {"android": "https://dc.lft.to/lastmile_qr_scan", "ios": "https://dc.lft.to/lastmile_qr_scan"}, "fusion_lon": 0.0, "name": "0775a1d0b3a379c3fd82a19375d7c838", "lon": -77.04296, "is_disabled": 0, "type": "electric_bike"}, {"bike_id": "6af8576460f7fb86207c9214aa8e3318", "lat": 38.89747283333333, "is_reserved": 0, "fusion_lat": 0.0, "rental_uris": {"android": "https://dc.lft.to/lastmile_qr_scan", "ios": "https://dc.lft.to/lastmile_qr_scan"}, "fusion_lon": 0.0, "name": "6af8576460f7fb86207c9214aa8e3318", "lon": -77.030032, "is_disabled": 0, "type": "electric_scooter"}, {"bike_id": "05e0e51480ddaf51e3b8b34e9f8d0f40", "lat": 38.920747666666664, "is_reserved": 0, "fusion_lat": 0.0, "rental_uris": {"android": "https://dc.lft.to/lastmile_qr_scan", "ios": "https://dc.lft.to/lastmile_qr_scan"}, "fusion_lon": 0.0, "name": "05e0e51480ddaf51e3b8b34e9f8d0f40", "lon": -77.02341266666667, "is_disabled": 0, "type": "electric_scooter"}, {"bike_id": "8958c901e570d9fae1745d7f8c799e25", "lat": 38.92306416666667, "is_reserved": 0, "fusion_lat": 0.0, "rental_uris": {"android": "https://dc.lft.to/lastmile_qr_scan", "ios": "https://dc.lft.to/lastmile_qr_scan"}, "fusion_lon": 0.0, "name": "8958c901e570d9fae1745d7f8c799e25", "lon": -77.01942116666666, "is_disabled": 0, "type": "electric_scooter"}, {"bike_id": "7f71aa822d460d0747a64cb32ee8f6aa", "lat": 38.924021833333335, "is_reserved": 0, "fusion_lat": 0.0, "rental_uris": {"android": "https://dc.lft.to/lastmile_qr_scan", "ios": "https://dc.lft.to/lastmile_qr_scan"}, "fusion_lon": 0.0, "name": "7f71aa822d460d0747a64cb32ee8f6aa", "lon": -77.02965816666666, "is_disabled": 0, "type": "electric_scooter"}, {"bike_id": "280aeb764c2835d551b1a6960c6a606d", "lat": 38.905615833333336, "is_reserved": 0, "fusion_lat": 0.0, "rental_uris": {"android": "https://dc.lft.to/lastmile_qr_scan", "ios": "https://dc.lft.to/lastmile_qr_scan"}, "fusion_lon": 0.0, "name": "280aeb764c2835d551b1a6960c6a606d", "lon": -77.02173016666667, "is_disabled": 0, "type": "electric_scooter"}, {"bike_id": "28f93a266ec315ebb2d20fe04d28a1cb", "lat": 38.92973933333333, "is_reserved": 0, "fusion_lat": 0.0, "rental_uris": {"android": "https://dc.lft.to/lastmile_qr_scan", "ios": "https://dc.lft.to/lastmile_qr_scan"}, "fusion_lon": 0.0, "name": "28f93a266ec315ebb2d20fe04d28a1cb", "lon": -77.01304583333334, "is_disabled": 0, "type": "electric_scooter"}, {"bike_id": "fc39fed4c812377ff8b70b07463b4a10", "lat": 38.89362033333333, "is_reserved": 0, "fusion_lat": 0.0, "rental_uris": {"android": "https://dc.lft.to/lastmile_qr_scan", "ios": "https://dc.lft.to/lastmile_qr_scan"}, "fusion_lon": 0.0, "name": "fc39fed4c812377ff8b70b07463b4a10", "lon": -77.03176783333333, "is_disabled": 0, "type": "electric_scooter"}, {"bike_id": "5249cc596d911697d3993289e8462556", "lat": 38.918697, "is_reserved": 0, "fusion_lat": 0.0, "rental_uris": {"android": "https://dc.lft.to/lastmile_qr_scan", "ios": "https://dc.lft.to/lastmile_qr_scan"}, "fusion_lon": 0.0, "name": "5249cc596d911697d3993289e8462556", "lon": -77.01476016666666, "is_disabled": 0, "type": "electric_scooter"}, {"bike_id": "3c251ef4d3d55564911e38a63394e7d4", "lat": 38.90054416666667, "is_reserved": 0, "fusion_lat": 0.0, "rental_uris": {"android": "https://dc.lft.to/lastmile_qr_scan", "ios": "https://dc.lft.to/lastmile_qr_scan"}, "fusion_lon": 0.0, "name": "3c251ef4d3d55564911e38a63394e7d4", "lon": -77.00069316666666, "is_disabled": 0, "type": "electric_scooter"}, {"bike_id": "9593106b7600447b0938f4cdd1303168", "lat": 38.8973515, "is_reserved": 0, "fusion_lat": 0.0, "rental_uris": {"android": "https://dc.lft.to/lastmile_qr_scan", "ios": "https://dc.lft.to/lastmile_qr_scan"}, "fusion_lon": 0.0, "name": "9593106b7600447b0938f4cdd1303168", "lon": -76.94728733333334, "is_disabled": 0, "type": "electric_scooter"}, {"bike_id": "907f4764fae31999e219205f33d2030f", "lat": 38.906651333333336, "is_reserved": 0, "fusion_lat": 0.0, "rental_uris": {"android": "https://dc.lft.to/lastmile_qr_scan", "ios": "https://dc.lft.to/lastmile_qr_scan"}, "fusion_lon": 0.0, "name": "907f4764fae31999e219205f33d2030f", "lon": -77.03806883333333, "is_disabled": 0, "type": "electric_scooter"}, {"bike_id": "5985a67536d41849afd41f594a3a6cce", "lat": 38.92335, "is_reserved": 0, "fusion_lat": 0.0, "rental_uris": {"android": "https://dc.lft.to/lastmile_qr_scan", "ios": "https://dc.lft.to/lastmile_qr_scan"}, "fusion_lon": 0.0, "name": "5985a67536d41849afd41f594a3a6cce", "lon": -77.05332916666667, "is_disabled": 0, "type": "electric_scooter"}, {"bike_id": "6a6e6a5fcd844e331275d655f6d4d316", "lat": 38.905119, "is_reserved": 0, "fusion_lat": 0.0, "rental_uris": {"android": "https://dc.lft.to/lastmile_qr_scan", "ios": "https://dc.lft.to/lastmile_qr_scan"}, "fusion_lon": 0.0, "name": "6a6e6a5fcd844e331275d655f6d4d316", "lon": -77.04109483333333, "is_disabled": 0, "type": "electric_scooter"}, {"bike_id": "dfaf8471398e28f3882acec1a6e00469", "lat": 38.92769766666667, "is_reserved": 0, "fusion_lat": 0.0, "rental_uris": {"android": "https://dc.lft.to/lastmile_qr_scan", "ios": "https://dc.lft.to/lastmile_qr_scan"}, "fusion_lon": 0.0, "name": "dfaf8471398e28f3882acec1a6e00469", "lon": -76.9876455, "is_disabled": 0, "type": "electric_scooter"}, {"bike_id": "0cbb74e1d58af9f218716a8a47e4bf26", "lat": 38.88390883333334, "is_reserved": 0, "fusion_lat": 0.0, "rental_uris": {"android": "https://dc.lft.to/lastmile_qr_scan", "ios": "https://dc.lft.to/lastmile_qr_scan"}, "fusion_lon": 0.0, "name": "0cbb74e1d58af9f218716a8a47e4bf26", "lon": -77.01760933333334, "is_disabled": 0, "type": "electric_scooter"}, {"bike_id": "a400f4cf37ea1a44dcf6762a1eb11bdb", "lat": 38.90774233333333, "is_reserved": 0, "fusion_lat": 0.0, "rental_uris": {"android": "https://dc.lft.to/lastmile_qr_scan", "ios": "https://dc.lft.to/lastmile_qr_scan"}, "fusion_lon": 0.0, "name": "a400f4cf37ea1a44dcf6762a1eb11bdb", "lon": -77.07390983333333, "is_disabled": 0, "type": "electric_scooter"}, {"bike_id": "8abbf84ca422506a30482ba330ebc347", "lat": 38.8668565, "is_reserved": 0, "fusion_lat": 0.0, "rental_uris": {"android": "https://dc.lft.to/lastmile_qr_scan", "ios": "https://dc.lft.to/lastmile_qr_scan"}, "fusion_lon": 0.0, "name": "8abbf84ca422506a30482ba330ebc347", "lon": -76.9857965, "is_disabled": 0, "type": "electric_scooter"}, {"bike_id": "60db8a56b8c813da1bdc652fcd9d2b35", "lat": 38.9023415, "is_reserved": 0, "fusion_lat": 0.0, "rental_uris": {"android": "https://dc.lft.to/lastmile_qr_scan", "ios": "https://dc.lft.to/lastmile_qr_scan"}, "fusion_lon": 0.0, "name": "60db8a56b8c813da1bdc652fcd9d2b35", "lon": -77.05908416666666, "is_disabled": 0, "type": "electric_scooter"}, {"bike_id": "492727b8177f9210e30ee86b17cee40d", "lat": 38.94346133333333, "is_reserved": 0, "fusion_lat": 0.0, "rental_uris": {"android": "https://dc.lft.to/lastmile_qr_scan", "ios": "https://dc.lft.to/lastmile_qr_scan"}, "fusion_lon": 0.0, "name": "492727b8177f9210e30ee86b17cee40d", "lon": -77.0376635, "is_disabled": 0, "type": "electric_scooter"}, {"bike_id": "0e824fd1671de26c778c200972e61d64", "lat": 38.9297, "is_reserved": 0, "fusion_lat": 0.0, "rental_uris": {"android": "https://dc.lft.to/lastmile_qr_scan", "ios": "https://dc.lft.to/lastmile_qr_scan"}, "fusion_lon": 0.0, "name": "0e824fd1671de26c778c200972e61d64", "lon": -77.027935, "is_disabled": 0, "type": "electric_scooter"}, {"bike_id": "af9f48ed342faa83e3e4371d12682571", "lat": 38.90551416666667, "is_reserved": 0, "fusion_lat": 0.0, "rental_uris": {"android": "https://dc.lft.to/lastmile_qr_scan", "ios": "https://dc.lft.to/lastmile_qr_scan"}, "fusion_lon": 0.0, "name": "af9f48ed342faa83e3e4371d12682571", "lon": -77.04156, "is_disabled": 0, "type": "electric_scooter"}, {"bike_id": "0c68cfc27c1c83d6d399c1ca731daec7", "lat": 38.898297, "is_reserved": 0, "fusion_lat": 0.0, "rental_uris": {"android": "https://dc.lft.to/lastmile_qr_scan", "ios": "https://dc.lft.to/lastmile_qr_scan"}, "fusion_lon": 0.0, "name": "0c68cfc27c1c83d6d399c1ca731daec7", "lon": -76.91956133333333, "is_disabled": 0, "type": "electric_scooter"}, {"bike_id": "1bf9ea4a198b4572713b3942e0ab7281", "lat": 38.900328333333334, "is_reserved": 0, "fusion_lat": 0.0, "rental_uris": {"android": "https://dc.lft.to/lastmile_qr_scan", "ios": "https://dc.lft.to/lastmile_qr_scan"}, "fusion_lon": 0.0, "name": "1bf9ea4a198b4572713b3942e0ab7281", "lon": -76.97228833333334, "is_disabled": 0, "type": "electric_bike"}, {"bike_id": "26ce462d01e872b5060eb9ab10bacb64", "lat": 38.9154935, "is_reserved": 0, "fusion_lat": 0.0, "rental_uris": {"android": "https://dc.lft.to/lastmile_qr_scan", "ios": "https://dc.lft.to/lastmile_qr_scan"}, "fusion_lon": 0.0, "name": "26ce462d01e872b5060eb9ab10bacb64", "lon": -77.04448016666667, "is_disabled": 0, "type": "electric_scooter"}, {"bike_id": "615710cc064b9b5ec6882b21d8ed8df3", "lat": 38.91665416666667, "is_reserved": 0, "fusion_lat": 0.0, "rental_uris": {"android": "https://dc.lft.to/lastmile_qr_scan", "ios": "https://dc.lft.to/lastmile_qr_scan"}, "fusion_lon": 0.0, "name": "615710cc064b9b5ec6882b21d8ed8df3", "lon": -77.02325316666666, "is_disabled": 0, "type": "electric_scooter"}, {"bike_id": "eb8d13f681656f147f63eb8ebcd4e4ca", "lat": 38.8650735, "is_reserved": 0, "fusion_lat": 0.0, "rental_uris": {"android": "https://dc.lft.to/lastmile_qr_scan", "ios": "https://dc.lft.to/lastmile_qr_scan"}, "fusion_lon": 0.0, "name": "eb8d13f681656f147f63eb8ebcd4e4ca", "lon": -76.990106, "is_disabled": 0, "type": "electric_scooter"}, {"bike_id": "294dbc2e25209ff81d5f491ad52905d0", "lat": 38.91984, "is_reserved": 0, "fusion_lat": 0.0, "rental_uris": {"android": "https://dc.lft.to/lastmile_qr_scan", "ios": "https://dc.lft.to/lastmile_qr_scan"}, "fusion_lon": 0.0, "name": "294dbc2e25209ff81d5f491ad52905d0", "lon": -77.01212166666667, "is_disabled": 0, "type": "electric_scooter"}, {"bike_id": "d668592898f09e1c6a293ef94e4f5486", "lat": 38.9170635, "is_reserved": 0, "fusion_lat": 0.0, "rental_uris": {"android": "https://dc.lft.to/lastmile_qr_scan", "ios": "https://dc.lft.to/lastmile_qr_scan"}, "fusion_lon": 0.0, "name": "d668592898f09e1c6a293ef94e4f5486", "lon": -77.09582233333333, "is_disabled": 0, "type": "electric_scooter"}, {"bike_id": "18e2c76a89f75245217a122f2ae8d4b6", "lat": 38.86686183333333, "is_reserved": 0, "fusion_lat": 0.0, "rental_uris": {"android": "https://dc.lft.to/lastmile_qr_scan", "ios": "https://dc.lft.to/lastmile_qr_scan"}, "fusion_lon": 0.0, "name": "18e2c76a89f75245217a122f2ae8d4b6", "lon": -76.9857855, "is_disabled": 0, "type": "electric_scooter"}, {"bike_id": "81c627064033fb89e77301ad7be9c043", "lat": 38.902612166666664, "is_reserved": 0, "fusion_lat": 0.0, "rental_uris": {"android": "https://dc.lft.to/lastmile_qr_scan", "ios": "https://dc.lft.to/lastmile_qr_scan"}, "fusion_lon": 0.0, "name": "81c627064033fb89e77301ad7be9c043", "lon": -77.03457266666666, "is_disabled": 0, "type": "electric_scooter"}, {"bike_id": "b794cda1477011dbcfa24d44837535cb", "lat": 38.919139, "is_reserved": 0, "fusion_lat": 0.0, "rental_uris": {"android": "https://dc.lft.to/lastmile_qr_scan", "ios": "https://dc.lft.to/lastmile_qr_scan"}, "fusion_lon": 0.0, "name": "b794cda1477011dbcfa24d44837535cb", "lon": -77.03624733333334, "is_disabled": 0, "type": "electric_scooter"}, {"bike_id": "8b814bf8cbb46971f521384509d9cbc4", "lat": 38.8664565, "is_reserved": 0, "fusion_lat": 0.0, "rental_uris": {"android": "https://dc.lft.to/lastmile_qr_scan", "ios": "https://dc.lft.to/lastmile_qr_scan"}, "fusion_lon": 0.0, "name": "8b814bf8cbb46971f521384509d9cbc4", "lon": -76.98825383333333, "is_disabled": 0, "type": "electric_scooter"}, {"bike_id": "8a8de8574d73021885e190d7de5547af", "lat": 38.984608333333334, "is_reserved": 0, "fusion_lat": 0.0, "rental_uris": {"android": "https://dc.lft.to/lastmile_qr_scan", "ios": "https://dc.lft.to/lastmile_qr_scan"}, "fusion_lon": 0.0, "name": "8a8de8574d73021885e190d7de5547af", "lon": -76.97058816666667, "is_disabled": 0, "type": "electric_bike"}, {"bike_id": "5c3dd383267cdffa318af03e2d3ec076", "lat": 38.913837, "is_reserved": 0, "fusion_lat": 0.0, "rental_uris": {"android": "https://dc.lft.to/lastmile_qr_scan", "ios": "https://dc.lft.to/lastmile_qr_scan"}, "fusion_lon": 0.0, "name": "5c3dd383267cdffa318af03e2d3ec076", "lon": -77.01703883333333, "is_disabled": 0, "type": "electric_scooter"}, {"bike_id": "0331e9c3b3233c691ed0dd0511fd3c8c", "lat": 38.892892, "is_reserved": 0, "fusion_lat": 0.0, "rental_uris": {"android": "https://dc.lft.to/lastmile_qr_scan", "ios": "https://dc.lft.to/lastmile_qr_scan"}, "fusion_lon": 0.0, "name": "0331e9c3b3233c691ed0dd0511fd3c8c", "lon": -77.01970083333333, "is_disabled": 0, "type": "electric_scooter"}, {"bike_id": "ae87716b6d6e70151770fe1c5c18327c", "lat": 38.95250983333333, "is_reserved": 0, "fusion_lat": 0.0, "rental_uris": {"android": "https://dc.lft.to/lastmile_qr_scan", "ios": "https://dc.lft.to/lastmile_qr_scan"}, "fusion_lon": 0.0, "name": "ae87716b6d6e70151770fe1c5c18327c", "lon": -77.01964766666667, "is_disabled": 0, "type": "electric_scooter"}, {"bike_id": "106b59d6795d153deddc50702147bc63", "lat": 38.92434883333333, "is_reserved": 0, "fusion_lat": 0.0, "rental_uris": {"android": "https://dc.lft.to/lastmile_qr_scan", "ios": "https://dc.lft.to/lastmile_qr_scan"}, "fusion_lon": 0.0, "name": "106b59d6795d153deddc50702147bc63", "lon": -77.02022633333333, "is_disabled": 0, "type": "electric_scooter"}, {"bike_id": "a0549c55d35b4bff68af4849f3b63d07", "lat": 38.923091166666666, "is_reserved": 0, "fusion_lat": 0.0, "rental_uris": {"android": "https://dc.lft.to/lastmile_qr_scan", "ios": "https://dc.lft.to/lastmile_qr_scan"}, "fusion_lon": 0.0, "name": "a0549c55d35b4bff68af4849f3b63d07", "lon": -77.02969416666667, "is_disabled": 0, "type": "electric_scooter"}, {"bike_id": "9c35d5a479f753b374406345918aae5e", "lat": 38.89510833333333, "is_reserved": 0, "fusion_lat": 0.0, "rental_uris": {"android": "https://dc.lft.to/lastmile_qr_scan", "ios": "https://dc.lft.to/lastmile_qr_scan"}, "fusion_lon": 0.0, "name": "9c35d5a479f753b374406345918aae5e", "lon": -77.00337983333333, "is_disabled": 0, "type": "electric_scooter"}, {"bike_id": "b4254d78cac848b125aee30703db6541", "lat": 38.9168015, "is_reserved": 0, "fusion_lat": 0.0, "rental_uris": {"android": "https://dc.lft.to/lastmile_qr_scan", "ios": "https://dc.lft.to/lastmile_qr_scan"}, "fusion_lon": 0.0, "name": "b4254d78cac848b125aee30703db6541", "lon": -77.03242366666667, "is_disabled": 0, "type": "electric_scooter"}, {"bike_id": "075263901915aa1b7c7d4c6f1b3714e0", "lat": 38.92508766666667, "is_reserved": 0, "fusion_lat": 0.0, "rental_uris": {"android": "https://dc.lft.to/lastmile_qr_scan", "ios": "https://dc.lft.to/lastmile_qr_scan"}, "fusion_lon": 0.0, "name": "075263901915aa1b7c7d4c6f1b3714e0", "lon": -77.00888233333333, "is_disabled": 0, "type": "electric_scooter"}, {"bike_id": "72e908b1e6c2c6359de1d103170f7de5", "lat": 38.905297833333336, "is_reserved": 0, "fusion_lat": 0.0, "rental_uris": {"android": "https://dc.lft.to/lastmile_qr_scan", "ios": "https://dc.lft.to/lastmile_qr_scan"}, "fusion_lon": 0.0, "name": "72e908b1e6c2c6359de1d103170f7de5", "lon": -77.04881266666666, "is_disabled": 0, "type": "electric_scooter"}, {"bike_id": "52c4e9319f39bda908e6efc9cf8c6bee", "lat": 38.899912, "is_reserved": 0, "fusion_lat": 0.0, "rental_uris": {"android": "https://dc.lft.to/lastmile_qr_scan", "ios": "https://dc.lft.to/lastmile_qr_scan"}, "fusion_lon": 0.0, "name": "52c4e9319f39bda908e6efc9cf8c6bee", "lon": -77.02460616666667, "is_disabled": 0, "type": "electric_scooter"}, {"bike_id": "4c1faa4798f831982d59dfe87f8e4f6d", "lat": 38.898154166666664, "is_reserved": 0, "fusion_lat": 0.0, "rental_uris": {"android": "https://dc.lft.to/lastmile_qr_scan", "ios": "https://dc.lft.to/lastmile_qr_scan"}, "fusion_lon": 0.0, "name": "4c1faa4798f831982d59dfe87f8e4f6d", "lon": -77.05142083333334, "is_disabled": 0, "type": "electric_scooter"}, {"bike_id": "1548f1c27d853031308a05ee624f0dcb", "lat": 38.91983283333333, "is_reserved": 0, "fusion_lat": 0.0, "rental_uris": {"android": "https://dc.lft.to/lastmile_qr_scan", "ios": "https://dc.lft.to/lastmile_qr_scan"}, "fusion_lon": 0.0, "name": "1548f1c27d853031308a05ee624f0dcb", "lon": -77.01211216666667, "is_disabled": 0, "type": "electric_scooter"}, {"bike_id": "85ee1f9ef40a46e44c6045434977b6d9", "lat": 38.93019833333334, "is_reserved": 0, "fusion_lat": 0.0, "rental_uris": {"android": "https://dc.lft.to/lastmile_qr_scan", "ios": "https://dc.lft.to/lastmile_qr_scan"}, "fusion_lon": 0.0, "name": "85ee1f9ef40a46e44c6045434977b6d9", "lon": -77.0378695, "is_disabled": 0, "type": "electric_scooter"}, {"bike_id": "7c4656506089f1c5688d498c9e6b0e1d", "lat": 38.83935783333333, "is_reserved": 0, "fusion_lat": 0.0, "rental_uris": {"android": "https://dc.lft.to/lastmile_qr_scan", "ios": "https://dc.lft.to/lastmile_qr_scan"}, "fusion_lon": 0.0, "name": "7c4656506089f1c5688d498c9e6b0e1d", "lon": -77.07899183333333, "is_disabled": 0, "type": "electric_bike"}, {"bike_id": "e2de2c281ba3d8b278de077b440bd2c9", "lat": 38.91907333333333, "is_reserved": 0, "fusion_lat": 0.0, "rental_uris": {"android": "https://dc.lft.to/lastmile_qr_scan", "ios": "https://dc.lft.to/lastmile_qr_scan"}, "fusion_lon": 0.0, "name": "e2de2c281ba3d8b278de077b440bd2c9", "lon": -77.024096, "is_disabled": 0, "type": "electric_scooter"}, {"bike_id": "bdb3fd17a0a077ac063a323a4ef06f2b", "lat": 38.91106816666667, "is_reserved": 0, "fusion_lat": 0.0, "rental_uris": {"android": "https://dc.lft.to/lastmile_qr_scan", "ios": "https://dc.lft.to/lastmile_qr_scan"}, "fusion_lon": 0.0, "name": "bdb3fd17a0a077ac063a323a4ef06f2b", "lon": -77.032375, "is_disabled": 0, "type": "electric_scooter"}, {"bike_id": "929b3bca43ad9b99fcd3a8ea92fc9fc2", "lat": 38.911844333333335, "is_reserved": 0, "fusion_lat": 0.0, "rental_uris": {"android": "https://dc.lft.to/lastmile_qr_scan", "ios": "https://dc.lft.to/lastmile_qr_scan"}, "fusion_lon": 0.0, "name": "929b3bca43ad9b99fcd3a8ea92fc9fc2", "lon": -77.03968866666666, "is_disabled": 0, "type": "electric_scooter"}, {"bike_id": "2a9b546d01003bf21f2a79304722b44a", "lat": 38.88429883333333, "is_reserved": 0, "fusion_lat": 0.0, "rental_uris": {"android": "https://dc.lft.to/lastmile_qr_scan", "ios": "https://dc.lft.to/lastmile_qr_scan"}, "fusion_lon": 0.0, "name": "2a9b546d01003bf21f2a79304722b44a", "lon": -76.95757066666667, "is_disabled": 0, "type": "electric_scooter"}, {"bike_id": "62cc5f47bac46bc6839e012ef8a0c0cc", "lat": 38.923051666666666, "is_reserved": 0, "fusion_lat": 0.0, "rental_uris": {"android": "https://dc.lft.to/lastmile_qr_scan", "ios": "https://dc.lft.to/lastmile_qr_scan"}, "fusion_lon": 0.0, "name": "62cc5f47bac46bc6839e012ef8a0c0cc", "lon": -77.04276666666667, "is_disabled": 0, "type": "electric_scooter"}, {"bike_id": "c67c66e7815a5cd24c5ca241188a147b", "lat": 38.80449616666667, "is_reserved": 0, "fusion_lat": 0.0, "rental_uris": {"android": "https://dc.lft.to/lastmile_qr_scan", "ios": "https://dc.lft.to/lastmile_qr_scan"}, "fusion_lon": 0.0, "name": "c67c66e7815a5cd24c5ca241188a147b", "lon": -77.05393666666667, "is_disabled": 0, "type": "electric_bike"}, {"bike_id": "9104f530b4416bdbb7642a036f7086d2", "lat": 38.933911, "is_reserved": 0, "fusion_lat": 0.0, "rental_uris": {"android": "https://dc.lft.to/lastmile_qr_scan", "ios": "https://dc.lft.to/lastmile_qr_scan"}, "fusion_lon": 0.0, "name": "9104f530b4416bdbb7642a036f7086d2", "lon": -77.03225833333333, "is_disabled": 0, "type": "electric_scooter"}, {"bike_id": "c42021f95e3f1b8451ba965b89fd944d", "lat": 38.9508885, "is_reserved": 0, "fusion_lat": 0.0, "rental_uris": {"android": "https://dc.lft.to/lastmile_qr_scan", "ios": "https://dc.lft.to/lastmile_qr_scan"}, "fusion_lon": 0.0, "name": "c42021f95e3f1b8451ba965b89fd944d", "lon": -76.99796216666667, "is_disabled": 0, "type": "electric_bike"}, {"bike_id": "6b464f377ad4099619d3b15cdd703f44", "lat": 38.91741433333333, "is_reserved": 0, "fusion_lat": 0.0, "rental_uris": {"android": "https://dc.lft.to/lastmile_qr_scan", "ios": "https://dc.lft.to/lastmile_qr_scan"}, "fusion_lon": 0.0, "name": "6b464f377ad4099619d3b15cdd703f44", "lon": -77.0318285, "is_disabled": 0, "type": "electric_scooter"}, {"bike_id": "0b6d958785c287b5a31e25a5d4e0e0a2", "lat": 38.893335, "is_reserved": 0, "fusion_lat": 0.0, "rental_uris": {"android": "https://dc.lft.to/lastmile_qr_scan", "ios": "https://dc.lft.to/lastmile_qr_scan"}, "fusion_lon": 0.0, "name": "0b6d958785c287b5a31e25a5d4e0e0a2", "lon": -77.03195983333333, "is_disabled": 0, "type": "electric_scooter"}, {"bike_id": "2e5f7774daafbce412d563e04acdca6f", "lat": 38.900235333333335, "is_reserved": 0, "fusion_lat": 0.0, "rental_uris": {"android": "https://dc.lft.to/lastmile_qr_scan", "ios": "https://dc.lft.to/lastmile_qr_scan"}, "fusion_lon": 0.0, "name": "2e5f7774daafbce412d563e04acdca6f", "lon": -76.99853283333333, "is_disabled": 0, "type": "electric_scooter"}, {"bike_id": "3684990df05e8f5bb52044189c610518", "lat": 38.9168805, "is_reserved": 0, "fusion_lat": 0.0, "rental_uris": {"android": "https://dc.lft.to/lastmile_qr_scan", "ios": "https://dc.lft.to/lastmile_qr_scan"}, "fusion_lon": 0.0, "name": "3684990df05e8f5bb52044189c610518", "lon": -77.03763483333333, "is_disabled": 0, "type": "electric_scooter"}, {"bike_id": "7fcdea8b6f17c9ca0711a70ea6ebd53f", "lat": 38.845249333333335, "is_reserved": 0, "fusion_lat": 0.0, "rental_uris": {"android": "https://dc.lft.to/lastmile_qr_scan", "ios": "https://dc.lft.to/lastmile_qr_scan"}, "fusion_lon": 0.0, "name": "7fcdea8b6f17c9ca0711a70ea6ebd53f", "lon": -76.97402266666667, "is_disabled": 0, "type": "electric_bike"}, {"bike_id": "8b44d7563fe5cf74727c5b8249fa64cb", "lat": 38.903424, "is_reserved": 0, "fusion_lat": 0.0, "rental_uris": {"android": "https://dc.lft.to/lastmile_qr_scan", "ios": "https://dc.lft.to/lastmile_qr_scan"}, "fusion_lon": 0.0, "name": "8b44d7563fe5cf74727c5b8249fa64cb", "lon": -77.03850616666666, "is_disabled": 0, "type": "electric_scooter"}, {"bike_id": "02c89708a44bb89cb3fad90f777cbe4a", "lat": 38.94790183333333, "is_reserved": 0, "fusion_lat": 0.0, "rental_uris": {"android": "https://dc.lft.to/lastmile_qr_scan", "ios": "https://dc.lft.to/lastmile_qr_scan"}, "fusion_lon": 0.0, "name": "02c89708a44bb89cb3fad90f777cbe4a", "lon": -77.0213845, "is_disabled": 0, "type": "electric_scooter"}, {"bike_id": "5038f08acbc2130c06564b78fb56e9b7", "lat": 38.89750683333333, "is_reserved": 0, "fusion_lat": 0.0, "rental_uris": {"android": "https://dc.lft.to/lastmile_qr_scan", "ios": "https://dc.lft.to/lastmile_qr_scan"}, "fusion_lon": 0.0, "name": "5038f08acbc2130c06564b78fb56e9b7", "lon": -77.03050283333333, "is_disabled": 0, "type": "electric_scooter"}, {"bike_id": "5a97e9f61d7631054adeda397b8144b9", "lat": 38.90784816666667, "is_reserved": 0, "fusion_lat": 0.0, "rental_uris": {"android": "https://dc.lft.to/lastmile_qr_scan", "ios": "https://dc.lft.to/lastmile_qr_scan"}, "fusion_lon": 0.0, "name": "5a97e9f61d7631054adeda397b8144b9", "lon": -77.02979366666666, "is_disabled": 0, "type": "electric_scooter"}, {"bike_id": "741b133643579afa3982c1c5a15f4c6e", "lat": 38.92078016666667, "is_reserved": 0, "fusion_lat": 0.0, "rental_uris": {"android": "https://dc.lft.to/lastmile_qr_scan", "ios": "https://dc.lft.to/lastmile_qr_scan"}, "fusion_lon": 0.0, "name": "741b133643579afa3982c1c5a15f4c6e", "lon": -77.023098, "is_disabled": 0, "type": "electric_scooter"}, {"bike_id": "480bf53481c5a79098c8f2ea225d5dde", "lat": 38.919086, "is_reserved": 0, "fusion_lat": 0.0, "rental_uris": {"android": "https://dc.lft.to/lastmile_qr_scan", "ios": "https://dc.lft.to/lastmile_qr_scan"}, "fusion_lon": 0.0, "name": "480bf53481c5a79098c8f2ea225d5dde", "lon": -77.0344465, "is_disabled": 0, "type": "electric_scooter"}, {"bike_id": "a138afed431bc1774d85d9ce32c6a9c7", "lat": 38.912900666666665, "is_reserved": 0, "fusion_lat": 0.0, "rental_uris": {"android": "https://dc.lft.to/lastmile_qr_scan", "ios": "https://dc.lft.to/lastmile_qr_scan"}, "fusion_lon": 0.0, "name": "a138afed431bc1774d85d9ce32c6a9c7", "lon": -77.02388283333333, "is_disabled": 0, "type": "electric_scooter"}, {"bike_id": "7eb56e1ec98e60218ce59b4de12cc3a0", "lat": 38.8922215, "is_reserved": 0, "fusion_lat": 0.0, "rental_uris": {"android": "https://dc.lft.to/lastmile_qr_scan", "ios": "https://dc.lft.to/lastmile_qr_scan"}, "fusion_lon": 0.0, "name": "7eb56e1ec98e60218ce59b4de12cc3a0", "lon": -77.04006933333334, "is_disabled": 0, "type": "electric_scooter"}, {"bike_id": "70918346e678ac6c95e962bc2cd708c4", "lat": 38.923454166666666, "is_reserved": 0, "fusion_lat": 0.0, "rental_uris": {"android": "https://dc.lft.to/lastmile_qr_scan", "ios": "https://dc.lft.to/lastmile_qr_scan"}, "fusion_lon": 0.0, "name": "70918346e678ac6c95e962bc2cd708c4", "lon": -77.05122316666667, "is_disabled": 0, "type": "electric_scooter"}, {"bike_id": "48959bd66e8c8971e54fc87a1fd7bec5", "lat": 38.923219833333334, "is_reserved": 0, "fusion_lat": 0.0, "rental_uris": {"android": "https://dc.lft.to/lastmile_qr_scan", "ios": "https://dc.lft.to/lastmile_qr_scan"}, "fusion_lon": 0.0, "name": "48959bd66e8c8971e54fc87a1fd7bec5", "lon": -77.03570733333333, "is_disabled": 0, "type": "electric_scooter"}, {"bike_id": "cc3c4f6f7bed842f2b617405a10aab34", "lat": 38.930871, "is_reserved": 0, "fusion_lat": 0.0, "rental_uris": {"android": "https://dc.lft.to/lastmile_qr_scan", "ios": "https://dc.lft.to/lastmile_qr_scan"}, "fusion_lon": 0.0, "name": "cc3c4f6f7bed842f2b617405a10aab34", "lon": -77.02486683333333, "is_disabled": 0, "type": "electric_scooter"}, {"bike_id": "01562e22840bc6213e563f105a2f66e0", "lat": 38.9086475, "is_reserved": 0, "fusion_lat": 0.0, "rental_uris": {"android": "https://dc.lft.to/lastmile_qr_scan", "ios": "https://dc.lft.to/lastmile_qr_scan"}, "fusion_lon": 0.0, "name": "01562e22840bc6213e563f105a2f66e0", "lon": -77.02455133333333, "is_disabled": 0, "type": "electric_scooter"}, {"bike_id": "324bf759fffe9e9c7853fc8dc5f63994", "lat": 38.910075, "is_reserved": 0, "fusion_lat": 0.0, "rental_uris": {"android": "https://dc.lft.to/lastmile_qr_scan", "ios": "https://dc.lft.to/lastmile_qr_scan"}, "fusion_lon": 0.0, "name": "324bf759fffe9e9c7853fc8dc5f63994", "lon": -77.0162245, "is_disabled": 0, "type": "electric_scooter"}, {"bike_id": "0f9dec5c6fae1c9107b75503e0998b01", "lat": 38.907172333333335, "is_reserved": 0, "fusion_lat": 0.0, "rental_uris": {"android": "https://dc.lft.to/lastmile_qr_scan", "ios": "https://dc.lft.to/lastmile_qr_scan"}, "fusion_lon": 0.0, "name": "0f9dec5c6fae1c9107b75503e0998b01", "lon": -77.00094416666667, "is_disabled": 0, "type": "electric_scooter"}, {"bike_id": "334ceb81df23a0540179e9800ced2ab0", "lat": 39.056316333333335, "is_reserved": 0, "fusion_lat": 0.0, "rental_uris": {"android": "https://dc.lft.to/lastmile_qr_scan", "ios": "https://dc.lft.to/lastmile_qr_scan"}, "fusion_lon": 0.0, "name": "334ceb81df23a0540179e9800ced2ab0", "lon": -77.12530783333334, "is_disabled": 0, "type": "electric_bike"}, {"bike_id": "4f311f3b9615dcbf2d24d915e9d892df", "lat": 38.932757333333335, "is_reserved": 0, "fusion_lat": 0.0, "rental_uris": {"android": "https://dc.lft.to/lastmile_qr_scan", "ios": "https://dc.lft.to/lastmile_qr_scan"}, "fusion_lon": 0.0, "name": "4f311f3b9615dcbf2d24d915e9d892df", "lon": -77.03495183333334, "is_disabled": 0, "type": "electric_scooter"}, {"bike_id": "302f644daa7ed627c838f9349038aad7", "lat": 38.903954, "is_reserved": 0, "fusion_lat": 0.0, "rental_uris": {"android": "https://dc.lft.to/lastmile_qr_scan", "ios": "https://dc.lft.to/lastmile_qr_scan"}, "fusion_lon": 0.0, "name": "302f644daa7ed627c838f9349038aad7", "lon": -77.065115, "is_disabled": 0, "type": "electric_scooter"}, {"bike_id": "1f649766c9c9260513e2cebc9cf5079b", "lat": 38.938212666666665, "is_reserved": 0, "fusion_lat": 0.0, "rental_uris": {"android": "https://dc.lft.to/lastmile_qr_scan", "ios": "https://dc.lft.to/lastmile_qr_scan"}, "fusion_lon": 0.0, "name": "1f649766c9c9260513e2cebc9cf5079b", "lon": -77.07165716666667, "is_disabled": 0, "type": "electric_scooter"}, {"bike_id": "d6bd142a31179bfa6f6f519055ffd21a", "lat": 38.9085845, "is_reserved": 0, "fusion_lat": 0.0, "rental_uris": {"android": "https://dc.lft.to/lastmile_qr_scan", "ios": "https://dc.lft.to/lastmile_qr_scan"}, "fusion_lon": 0.0, "name": "d6bd142a31179bfa6f6f519055ffd21a", "lon": -77.02703383333333, "is_disabled": 0, "type": "electric_scooter"}, {"bike_id": "493edd5198eb4196d6364ffc927c9f6e", "lat": 38.90560516666667, "is_reserved": 0, "fusion_lat": 0.0, "rental_uris": {"android": "https://dc.lft.to/lastmile_qr_scan", "ios": "https://dc.lft.to/lastmile_qr_scan"}, "fusion_lon": 0.0, "name": "493edd5198eb4196d6364ffc927c9f6e", "lon": -77.04580466666667, "is_disabled": 0, "type": "electric_scooter"}, {"bike_id": "30281bb556e3f6fa077f4607a411874b", "lat": 38.90108933333333, "is_reserved": 0, "fusion_lat": 0.0, "rental_uris": {"android": "https://dc.lft.to/lastmile_qr_scan", "ios": "https://dc.lft.to/lastmile_qr_scan"}, "fusion_lon": 0.0, "name": "30281bb556e3f6fa077f4607a411874b", "lon": -77.00900683333333, "is_disabled": 0, "type": "electric_scooter"}, {"bike_id": "60542b074d999f56346a73c42aa5153a", "lat": 38.89647333333333, "is_reserved": 0, "fusion_lat": 0.0, "rental_uris": {"android": "https://dc.lft.to/lastmile_qr_scan", "ios": "https://dc.lft.to/lastmile_qr_scan"}, "fusion_lon": 0.0, "name": "60542b074d999f56346a73c42aa5153a", "lon": -77.02810966666667, "is_disabled": 0, "type": "electric_scooter"}, {"bike_id": "bd090082125e912390e8bc85feba63a9", "lat": 38.930014666666665, "is_reserved": 0, "fusion_lat": 0.0, "rental_uris": {"android": "https://dc.lft.to/lastmile_qr_scan", "ios": "https://dc.lft.to/lastmile_qr_scan"}, "fusion_lon": 0.0, "name": "bd090082125e912390e8bc85feba63a9", "lon": -77.01303583333333, "is_disabled": 0, "type": "electric_scooter"}, {"bike_id": "0f6daf5497ae5bb81478f0164b865f6c", "lat": 38.90584366666667, "is_reserved": 0, "fusion_lat": 0.0, "rental_uris": {"android": "https://dc.lft.to/lastmile_qr_scan", "ios": "https://dc.lft.to/lastmile_qr_scan"}, "fusion_lon": 0.0, "name": "0f6daf5497ae5bb81478f0164b865f6c", "lon": -77.043245, "is_disabled": 0, "type": "electric_scooter"}, {"bike_id": "23520a373111b4ac85e038510d4d706a", "lat": 38.92225966666667, "is_reserved": 0, "fusion_lat": 0.0, "rental_uris": {"android": "https://dc.lft.to/lastmile_qr_scan", "ios": "https://dc.lft.to/lastmile_qr_scan"}, "fusion_lon": 0.0, "name": "23520a373111b4ac85e038510d4d706a", "lon": -77.02986266666667, "is_disabled": 0, "type": "electric_scooter"}, {"bike_id": "cbfd0459cb371a20c2ad19bce75a89b4", "lat": 38.902614, "is_reserved": 0, "fusion_lat": 0.0, "rental_uris": {"android": "https://dc.lft.to/lastmile_qr_scan", "ios": "https://dc.lft.to/lastmile_qr_scan"}, "fusion_lon": 0.0, "name": "cbfd0459cb371a20c2ad19bce75a89b4", "lon": -77.0459825, "is_disabled": 0, "type": "electric_scooter"}, {"bike_id": "cfef4747ef5fa6f89d48903441e974b2", "lat": 38.900853833333336, "is_reserved": 0, "fusion_lat": 0.0, "rental_uris": {"android": "https://dc.lft.to/lastmile_qr_scan", "ios": "https://dc.lft.to/lastmile_qr_scan"}, "fusion_lon": 0.0, "name": "cfef4747ef5fa6f89d48903441e974b2", "lon": -77.01227, "is_disabled": 0, "type": "electric_scooter"}, {"bike_id": "93c6fab4d7cc61e763345625d7d45858", "lat": 38.87477366666667, "is_reserved": 0, "fusion_lat": 0.0, "rental_uris": {"android": "https://dc.lft.to/lastmile_qr_scan", "ios": "https://dc.lft.to/lastmile_qr_scan"}, "fusion_lon": 0.0, "name": "93c6fab4d7cc61e763345625d7d45858", "lon": -77.00263116666666, "is_disabled": 0, "type": "electric_scooter"}, {"bike_id": "fe50ed99c69397bb55585ee89843f00e", "lat": 38.88029616666667, "is_reserved": 0, "fusion_lat": 0.0, "rental_uris": {"android": "https://dc.lft.to/lastmile_qr_scan", "ios": "https://dc.lft.to/lastmile_qr_scan"}, "fusion_lon": 0.0, "name": "fe50ed99c69397bb55585ee89843f00e", "lon": -77.02504583333334, "is_disabled": 0, "type": "electric_scooter"}, {"bike_id": "6b203b051109ffe2496b576b894e455d", "lat": 38.9247205, "is_reserved": 0, "fusion_lat": 0.0, "rental_uris": {"android": "https://dc.lft.to/lastmile_qr_scan", "ios": "https://dc.lft.to/lastmile_qr_scan"}, "fusion_lon": 0.0, "name": "6b203b051109ffe2496b576b894e455d", "lon": -77.03775, "is_disabled": 0, "type": "electric_scooter"}, {"bike_id": "8e5939029b6f669ce93201637d2fde4c", "lat": 38.90637866666667, "is_reserved": 0, "fusion_lat": 0.0, "rental_uris": {"android": "https://dc.lft.to/lastmile_qr_scan", "ios": "https://dc.lft.to/lastmile_qr_scan"}, "fusion_lon": 0.0, "name": "8e5939029b6f669ce93201637d2fde4c", "lon": -77.01794133333334, "is_disabled": 0, "type": "electric_scooter"}, {"bike_id": "f19c86e79280bafe9edea920fcf5e4e8", "lat": 38.8840595, "is_reserved": 0, "fusion_lat": 0.0, "rental_uris": {"android": "https://dc.lft.to/lastmile_qr_scan", "ios": "https://dc.lft.to/lastmile_qr_scan"}, "fusion_lon": 0.0, "name": "f19c86e79280bafe9edea920fcf5e4e8", "lon": -76.96066383333333, "is_disabled": 0, "type": "electric_bike"}, {"bike_id": "b62500c8a4ff79fa544518bb9b14eea4", "lat": 38.928911166666666, "is_reserved": 0, "fusion_lat": 0.0, "rental_uris": {"android": "https://dc.lft.to/lastmile_qr_scan", "ios": "https://dc.lft.to/lastmile_qr_scan"}, "fusion_lon": 0.0, "name": "b62500c8a4ff79fa544518bb9b14eea4", "lon": -77.0326035, "is_disabled": 0, "type": "electric_scooter"}, {"bike_id": "f65728e929313555da0f5a22aaa0e8ef", "lat": 38.952176, "is_reserved": 0, "fusion_lat": 0.0, "rental_uris": {"android": "https://dc.lft.to/lastmile_qr_scan", "ios": "https://dc.lft.to/lastmile_qr_scan"}, "fusion_lon": 0.0, "name": "f65728e929313555da0f5a22aaa0e8ef", "lon": -77.07448333333333, "is_disabled": 0, "type": "electric_bike"}, {"bike_id": "87fbc341e520b258ecba11b652152d02", "lat": 38.93696033333333, "is_reserved": 0, "fusion_lat": 0.0, "rental_uris": {"android": "https://dc.lft.to/lastmile_qr_scan", "ios": "https://dc.lft.to/lastmile_qr_scan"}, "fusion_lon": 0.0, "name": "87fbc341e520b258ecba11b652152d02", "lon": -77.05621033333334, "is_disabled": 0, "type": "electric_bike"}, {"bike_id": "19d4d1d5390095127ea5f732b2fb9390", "lat": 38.89746016666667, "is_reserved": 0, "fusion_lat": 0.0, "rental_uris": {"android": "https://dc.lft.to/lastmile_qr_scan", "ios": "https://dc.lft.to/lastmile_qr_scan"}, "fusion_lon": 0.0, "name": "19d4d1d5390095127ea5f732b2fb9390", "lon": -77.03049533333333, "is_disabled": 0, "type": "electric_scooter"}, {"bike_id": "f19b266e02dc78af1677fa3a13296b6d", "lat": 38.89830083333333, "is_reserved": 0, "fusion_lat": 0.0, "rental_uris": {"android": "https://dc.lft.to/lastmile_qr_scan", "ios": "https://dc.lft.to/lastmile_qr_scan"}, "fusion_lon": 0.0, "name": "f19b266e02dc78af1677fa3a13296b6d", "lon": -77.027887, "is_disabled": 0, "type": "electric_scooter"}, {"bike_id": "80ab72115349d443b73d10ad936c2653", "lat": 38.90109433333333, "is_reserved": 0, "fusion_lat": 0.0, "rental_uris": {"android": "https://dc.lft.to/lastmile_qr_scan", "ios": "https://dc.lft.to/lastmile_qr_scan"}, "fusion_lon": 0.0, "name": "80ab72115349d443b73d10ad936c2653", "lon": -77.01225833333334, "is_disabled": 0, "type": "electric_scooter"}, {"bike_id": "1ae6a98136bf50d451eefdba732ebeb0", "lat": 38.91538466666667, "is_reserved": 0, "fusion_lat": 0.0, "rental_uris": {"android": "https://dc.lft.to/lastmile_qr_scan", "ios": "https://dc.lft.to/lastmile_qr_scan"}, "fusion_lon": 0.0, "name": "1ae6a98136bf50d451eefdba732ebeb0", "lon": -77.012262, "is_disabled": 0, "type": "electric_scooter"}, {"bike_id": "a6974bb004287d64fdae5d1b92449a56", "lat": 38.831571, "is_reserved": 0, "fusion_lat": 0.0, "rental_uris": {"android": "https://dc.lft.to/lastmile_qr_scan", "ios": "https://dc.lft.to/lastmile_qr_scan"}, "fusion_lon": 0.0, "name": "a6974bb004287d64fdae5d1b92449a56", "lon": -76.99547366666667, "is_disabled": 0, "type": "electric_bike"}, {"bike_id": "015ad49cbfd5b081eaad9405a972ab26", "lat": 38.88711966666666, "is_reserved": 0, "fusion_lat": 0.0, "rental_uris": {"android": "https://dc.lft.to/lastmile_qr_scan", "ios": "https://dc.lft.to/lastmile_qr_scan"}, "fusion_lon": 0.0, "name": "015ad49cbfd5b081eaad9405a972ab26", "lon": -77.017776, "is_disabled": 0, "type": "electric_scooter"}, {"bike_id": "6dfb5bb6041726826af6edbc44ad7842", "lat": 38.920363, "is_reserved": 0, "fusion_lat": 0.0, "rental_uris": {"android": "https://dc.lft.to/lastmile_qr_scan", "ios": "https://dc.lft.to/lastmile_qr_scan"}, "fusion_lon": 0.0, "name": "6dfb5bb6041726826af6edbc44ad7842", "lon": -77.03407616666667, "is_disabled": 0, "type": "electric_scooter"}, {"bike_id": "b50720d989621dd0716db7a17e1da364", "lat": 38.904997, "is_reserved": 0, "fusion_lat": 0.0, "rental_uris": {"android": "https://dc.lft.to/lastmile_qr_scan", "ios": "https://dc.lft.to/lastmile_qr_scan"}, "fusion_lon": 0.0, "name": "b50720d989621dd0716db7a17e1da364", "lon": -77.06887433333333, "is_disabled": 0, "type": "electric_scooter"}, {"bike_id": "5df8684f1029fae82d225786dba08900", "lat": 38.91909166666667, "is_reserved": 0, "fusion_lat": 0.0, "rental_uris": {"android": "https://dc.lft.to/lastmile_qr_scan", "ios": "https://dc.lft.to/lastmile_qr_scan"}, "fusion_lon": 0.0, "name": "5df8684f1029fae82d225786dba08900", "lon": -77.034472, "is_disabled": 0, "type": "electric_scooter"}, {"bike_id": "07a5e854fc055d509afaa7790a95ea89", "lat": 38.900927333333335, "is_reserved": 0, "fusion_lat": 0.0, "rental_uris": {"android": "https://dc.lft.to/lastmile_qr_scan", "ios": "https://dc.lft.to/lastmile_qr_scan"}, "fusion_lon": 0.0, "name": "07a5e854fc055d509afaa7790a95ea89", "lon": -76.98339366666667, "is_disabled": 0, "type": "electric_scooter"}, {"bike_id": "b9aef6dc2186cc561ecbd3d43dff0c86", "lat": 38.93311716666667, "is_reserved": 0, "fusion_lat": 0.0, "rental_uris": {"android": "https://dc.lft.to/lastmile_qr_scan", "ios": "https://dc.lft.to/lastmile_qr_scan"}, "fusion_lon": 0.0, "name": "b9aef6dc2186cc561ecbd3d43dff0c86", "lon": -77.0724915, "is_disabled": 0, "type": "electric_scooter"}, {"bike_id": "5e21950ca5aeaf3592fdaf1a2287313c", "lat": 38.897340666666665, "is_reserved": 0, "fusion_lat": 0.0, "rental_uris": {"android": "https://dc.lft.to/lastmile_qr_scan", "ios": "https://dc.lft.to/lastmile_qr_scan"}, "fusion_lon": 0.0, "name": "5e21950ca5aeaf3592fdaf1a2287313c", "lon": -77.02725133333334, "is_disabled": 0, "type": "electric_scooter"}, {"bike_id": "ec39eb32c00610af0551c00548bfc996", "lat": 38.9046445, "is_reserved": 0, "fusion_lat": 0.0, "rental_uris": {"android": "https://dc.lft.to/lastmile_qr_scan", "ios": "https://dc.lft.to/lastmile_qr_scan"}, "fusion_lon": 0.0, "name": "ec39eb32c00610af0551c00548bfc996", "lon": -76.976137, "is_disabled": 0, "type": "electric_scooter"}, {"bike_id": "8a3c87cf169faeeb80546ad34244f0f2", "lat": 38.8811455, "is_reserved": 0, "fusion_lat": 0.0, "rental_uris": {"android": "https://dc.lft.to/lastmile_qr_scan", "ios": "https://dc.lft.to/lastmile_qr_scan"}, "fusion_lon": 0.0, "name": "8a3c87cf169faeeb80546ad34244f0f2", "lon": -77.016623, "is_disabled": 0, "type": "electric_scooter"}, {"bike_id": "f1ae490487cc48460c0dce90507e8a78", "lat": 38.91603966666667, "is_reserved": 0, "fusion_lat": 0.0, "rental_uris": {"android": "https://dc.lft.to/lastmile_qr_scan", "ios": "https://dc.lft.to/lastmile_qr_scan"}, "fusion_lon": 0.0, "name": "f1ae490487cc48460c0dce90507e8a78", "lon": -77.048794, "is_disabled": 0, "type": "electric_scooter"}, {"bike_id": "d39b56041180f8289c5ec98ae568feb5", "lat": 38.906771166666665, "is_reserved": 0, "fusion_lat": 0.0, "rental_uris": {"android": "https://dc.lft.to/lastmile_qr_scan", "ios": "https://dc.lft.to/lastmile_qr_scan"}, "fusion_lon": 0.0, "name": "d39b56041180f8289c5ec98ae568feb5", "lon": -76.980078, "is_disabled": 0, "type": "electric_scooter"}, {"bike_id": "2b7aa4a5159c11806bfbf77d83d9bf12", "lat": 38.91685316666667, "is_reserved": 0, "fusion_lat": 0.0, "rental_uris": {"android": "https://dc.lft.to/lastmile_qr_scan", "ios": "https://dc.lft.to/lastmile_qr_scan"}, "fusion_lon": 0.0, "name": "2b7aa4a5159c11806bfbf77d83d9bf12", "lon": -77.02378983333334, "is_disabled": 0, "type": "electric_scooter"}, {"bike_id": "372cf32cc925a7c53b389f647305e916", "lat": 38.884902, "is_reserved": 0, "fusion_lat": 0.0, "rental_uris": {"android": "https://dc.lft.to/lastmile_qr_scan", "ios": "https://dc.lft.to/lastmile_qr_scan"}, "fusion_lon": 0.0, "name": "372cf32cc925a7c53b389f647305e916", "lon": -77.00716566666667, "is_disabled": 0, "type": "electric_scooter"}, {"bike_id": "9d9e5bd61aff6c0d5934291390b26a39", "lat": 38.91199433333333, "is_reserved": 0, "fusion_lat": 0.0, "rental_uris": {"android": "https://dc.lft.to/lastmile_qr_scan", "ios": "https://dc.lft.to/lastmile_qr_scan"}, "fusion_lon": 0.0, "name": "9d9e5bd61aff6c0d5934291390b26a39", "lon": -77.04486466666667, "is_disabled": 0, "type": "electric_scooter"}, {"bike_id": "8bcccc4e1166daf4654e3e43809f5691", "lat": 38.90463616666667, "is_reserved": 0, "fusion_lat": 0.0, "rental_uris": {"android": "https://dc.lft.to/lastmile_qr_scan", "ios": "https://dc.lft.to/lastmile_qr_scan"}, "fusion_lon": 0.0, "name": "8bcccc4e1166daf4654e3e43809f5691", "lon": -77.0437125, "is_disabled": 0, "type": "electric_scooter"}, {"bike_id": "d43312f80ab7837fb5efb6171d405942", "lat": 38.873722, "is_reserved": 0, "fusion_lat": 0.0, "rental_uris": {"android": "https://dc.lft.to/lastmile_qr_scan", "ios": "https://dc.lft.to/lastmile_qr_scan"}, "fusion_lon": 0.0, "name": "d43312f80ab7837fb5efb6171d405942", "lon": -77.00114183333334, "is_disabled": 0, "type": "electric_scooter"}, {"bike_id": "d39d763c72d4ba4f6826f6c4c36dec67", "lat": 38.9052655, "is_reserved": 0, "fusion_lat": 0.0, "rental_uris": {"android": "https://dc.lft.to/lastmile_qr_scan", "ios": "https://dc.lft.to/lastmile_qr_scan"}, "fusion_lon": 0.0, "name": "d39d763c72d4ba4f6826f6c4c36dec67", "lon": -77.058236, "is_disabled": 0, "type": "electric_scooter"}, {"bike_id": "f883486916444a63a5c67aed118dde2b", "lat": 38.914024166666664, "is_reserved": 0, "fusion_lat": 0.0, "rental_uris": {"android": "https://dc.lft.to/lastmile_qr_scan", "ios": "https://dc.lft.to/lastmile_qr_scan"}, "fusion_lon": 0.0, "name": "f883486916444a63a5c67aed118dde2b", "lon": -77.03224116666667, "is_disabled": 0, "type": "electric_scooter"}, {"bike_id": "5732d62bc8fe4e7c037160aa9e94f276", "lat": 38.9287135, "is_reserved": 0, "fusion_lat": 0.0, "rental_uris": {"android": "https://dc.lft.to/lastmile_qr_scan", "ios": "https://dc.lft.to/lastmile_qr_scan"}, "fusion_lon": 0.0, "name": "5732d62bc8fe4e7c037160aa9e94f276", "lon": -77.0277525, "is_disabled": 0, "type": "electric_scooter"}, {"bike_id": "300c2877c1354c81605b05ec2d2c6130", "lat": 38.885133833333335, "is_reserved": 0, "fusion_lat": 0.0, "rental_uris": {"android": "https://dc.lft.to/lastmile_qr_scan", "ios": "https://dc.lft.to/lastmile_qr_scan"}, "fusion_lon": 0.0, "name": "300c2877c1354c81605b05ec2d2c6130", "lon": -76.95637216666667, "is_disabled": 0, "type": "electric_bike"}, {"bike_id": "6f7d684d7ed00bb99b69ce9299156371", "lat": 38.9322525, "is_reserved": 0, "fusion_lat": 0.0, "rental_uris": {"android": "https://dc.lft.to/lastmile_qr_scan", "ios": "https://dc.lft.to/lastmile_qr_scan"}, "fusion_lon": 0.0, "name": "6f7d684d7ed00bb99b69ce9299156371", "lon": -77.1812555, "is_disabled": 0, "type": "electric_bike"}, {"bike_id": "67fc5b083acc165a857cfe942b1a69ed", "lat": 38.9315835, "is_reserved": 0, "fusion_lat": 0.0, "rental_uris": {"android": "https://dc.lft.to/lastmile_qr_scan", "ios": "https://dc.lft.to/lastmile_qr_scan"}, "fusion_lon": 0.0, "name": "67fc5b083acc165a857cfe942b1a69ed", "lon": -77.04543933333333, "is_disabled": 0, "type": "electric_scooter"}, {"bike_id": "c4f69acfe892ccf83936ae0c5c624184", "lat": 38.8748105, "is_reserved": 0, "fusion_lat": 0.0, "rental_uris": {"android": "https://dc.lft.to/lastmile_qr_scan", "ios": "https://dc.lft.to/lastmile_qr_scan"}, "fusion_lon": 0.0, "name": "c4f69acfe892ccf83936ae0c5c624184", "lon": -77.00922133333333, "is_disabled": 0, "type": "electric_scooter"}, {"bike_id": "83d8212526dc86259dc2e778fe51450a", "lat": 38.924766, "is_reserved": 0, "fusion_lat": 0.0, "rental_uris": {"android": "https://dc.lft.to/lastmile_qr_scan", "ios": "https://dc.lft.to/lastmile_qr_scan"}, "fusion_lon": 0.0, "name": "83d8212526dc86259dc2e778fe51450a", "lon": -77.02205016666667, "is_disabled": 0, "type": "electric_scooter"}, {"bike_id": "637fa2cfd4912b337b51a57eaff6472e", "lat": 38.90349066666667, "is_reserved": 0, "fusion_lat": 0.0, "rental_uris": {"android": "https://dc.lft.to/lastmile_qr_scan", "ios": "https://dc.lft.to/lastmile_qr_scan"}, "fusion_lon": 0.0, "name": "637fa2cfd4912b337b51a57eaff6472e", "lon": -76.97482083333334, "is_disabled": 0, "type": "electric_scooter"}, {"bike_id": "54ec1ea3ac21151321d910ab060c4605", "lat": 38.921508833333334, "is_reserved": 0, "fusion_lat": 0.0, "rental_uris": {"android": "https://dc.lft.to/lastmile_qr_scan", "ios": "https://dc.lft.to/lastmile_qr_scan"}, "fusion_lon": 0.0, "name": "54ec1ea3ac21151321d910ab060c4605", "lon": -77.03867966666667, "is_disabled": 0, "type": "electric_scooter"}, {"bike_id": "8cfc97a1f95ae57fd86e6c62a56f50b0", "lat": 38.9037055, "is_reserved": 0, "fusion_lat": 0.0, "rental_uris": {"android": "https://dc.lft.to/lastmile_qr_scan", "ios": "https://dc.lft.to/lastmile_qr_scan"}, "fusion_lon": 0.0, "name": "8cfc97a1f95ae57fd86e6c62a56f50b0", "lon": -77.02684966666666, "is_disabled": 0, "type": "electric_scooter"}, {"bike_id": "4bc74a21d36904d30a3f2f2df172cc3f", "lat": 38.89759133333333, "is_reserved": 0, "fusion_lat": 0.0, "rental_uris": {"android": "https://dc.lft.to/lastmile_qr_scan", "ios": "https://dc.lft.to/lastmile_qr_scan"}, "fusion_lon": 0.0, "name": "4bc74a21d36904d30a3f2f2df172cc3f", "lon": -76.947097, "is_disabled": 0, "type": "electric_scooter"}, {"bike_id": "95df3b20f29956c6afe9ad046bd7b0b3", "lat": 38.90984566666667, "is_reserved": 0, "fusion_lat": 0.0, "rental_uris": {"android": "https://dc.lft.to/lastmile_qr_scan", "ios": "https://dc.lft.to/lastmile_qr_scan"}, "fusion_lon": 0.0, "name": "95df3b20f29956c6afe9ad046bd7b0b3", "lon": -77.03460316666667, "is_disabled": 0, "type": "electric_scooter"}, {"bike_id": "d40bb215377710382d41862ea8a1e8fb", "lat": 38.90019516666667, "is_reserved": 0, "fusion_lat": 0.0, "rental_uris": {"android": "https://dc.lft.to/lastmile_qr_scan", "ios": "https://dc.lft.to/lastmile_qr_scan"}, "fusion_lon": 0.0, "name": "d40bb215377710382d41862ea8a1e8fb", "lon": -77.02853716666667, "is_disabled": 0, "type": "electric_scooter"}, {"bike_id": "26ff8e8f9e99f6b6d5ccd268b067019b", "lat": 38.9144685, "is_reserved": 0, "fusion_lat": 0.0, "rental_uris": {"android": "https://dc.lft.to/lastmile_qr_scan", "ios": "https://dc.lft.to/lastmile_qr_scan"}, "fusion_lon": 0.0, "name": "26ff8e8f9e99f6b6d5ccd268b067019b", "lon": -77.0259465, "is_disabled": 0, "type": "electric_scooter"}, {"bike_id": "d0141d226c411b60307a474bdafd3c5a", "lat": 38.905503833333334, "is_reserved": 0, "fusion_lat": 0.0, "rental_uris": {"android": "https://dc.lft.to/lastmile_qr_scan", "ios": "https://dc.lft.to/lastmile_qr_scan"}, "fusion_lon": 0.0, "name": "d0141d226c411b60307a474bdafd3c5a", "lon": -77.00296066666667, "is_disabled": 0, "type": "electric_scooter"}, {"bike_id": "047f192b6373845dbedc55f40171ab26", "lat": 38.9338805, "is_reserved": 0, "fusion_lat": 0.0, "rental_uris": {"android": "https://dc.lft.to/lastmile_qr_scan", "ios": "https://dc.lft.to/lastmile_qr_scan"}, "fusion_lon": 0.0, "name": "047f192b6373845dbedc55f40171ab26", "lon": -77.05741866666666, "is_disabled": 0, "type": "electric_scooter"}, {"bike_id": "e90fe700fb64be87d9ccb22778b8560a", "lat": 38.924133833333336, "is_reserved": 0, "fusion_lat": 0.0, "rental_uris": {"android": "https://dc.lft.to/lastmile_qr_scan", "ios": "https://dc.lft.to/lastmile_qr_scan"}, "fusion_lon": 0.0, "name": "e90fe700fb64be87d9ccb22778b8560a", "lon": -77.03895766666666, "is_disabled": 0, "type": "electric_scooter"}, {"bike_id": "424141da4224a2cbadc8bd9a5150731c", "lat": 38.916154, "is_reserved": 0, "fusion_lat": 0.0, "rental_uris": {"android": "https://dc.lft.to/lastmile_qr_scan", "ios": "https://dc.lft.to/lastmile_qr_scan"}, "fusion_lon": 0.0, "name": "424141da4224a2cbadc8bd9a5150731c", "lon": -77.02303166666667, "is_disabled": 0, "type": "electric_scooter"}, {"bike_id": "5be678dd41f51772ac2e910604a8b8f2", "lat": 38.89736466666667, "is_reserved": 0, "fusion_lat": 0.0, "rental_uris": {"android": "https://dc.lft.to/lastmile_qr_scan", "ios": "https://dc.lft.to/lastmile_qr_scan"}, "fusion_lon": 0.0, "name": "5be678dd41f51772ac2e910604a8b8f2", "lon": -77.02471, "is_disabled": 0, "type": "electric_scooter"}, {"bike_id": "55b59c5074ba23484b1aa048a45979c3", "lat": 38.884283333333336, "is_reserved": 0, "fusion_lat": 0.0, "rental_uris": {"android": "https://dc.lft.to/lastmile_qr_scan", "ios": "https://dc.lft.to/lastmile_qr_scan"}, "fusion_lon": 0.0, "name": "55b59c5074ba23484b1aa048a45979c3", "lon": -76.9575995, "is_disabled": 0, "type": "electric_scooter"}, {"bike_id": "6cbaeeed1df72bc94ef8863593e0fafa", "lat": 38.942429833333335, "is_reserved": 0, "fusion_lat": 0.0, "rental_uris": {"android": "https://dc.lft.to/lastmile_qr_scan", "ios": "https://dc.lft.to/lastmile_qr_scan"}, "fusion_lon": 0.0, "name": "6cbaeeed1df72bc94ef8863593e0fafa", "lon": -77.03586116666666, "is_disabled": 0, "type": "electric_scooter"}, {"bike_id": "985caadce12aeb523fec07c6af145bc2", "lat": 38.91740566666667, "is_reserved": 0, "fusion_lat": 0.0, "rental_uris": {"android": "https://dc.lft.to/lastmile_qr_scan", "ios": "https://dc.lft.to/lastmile_qr_scan"}, "fusion_lon": 0.0, "name": "985caadce12aeb523fec07c6af145bc2", "lon": -77.04414766666666, "is_disabled": 0, "type": "electric_scooter"}, {"bike_id": "26592e6e1b3ff2b2c48bb948c877f174", "lat": 38.906564, "is_reserved": 0, "fusion_lat": 0.0, "rental_uris": {"android": "https://dc.lft.to/lastmile_qr_scan", "ios": "https://dc.lft.to/lastmile_qr_scan"}, "fusion_lon": 0.0, "name": "26592e6e1b3ff2b2c48bb948c877f174", "lon": -77.03440533333334, "is_disabled": 0, "type": "electric_scooter"}, {"bike_id": "f5ccfbcc8598d2e027517329e9e82ff0", "lat": 38.91544916666667, "is_reserved": 0, "fusion_lat": 0.0, "rental_uris": {"android": "https://dc.lft.to/lastmile_qr_scan", "ios": "https://dc.lft.to/lastmile_qr_scan"}, "fusion_lon": 0.0, "name": "f5ccfbcc8598d2e027517329e9e82ff0", "lon": -77.0445365, "is_disabled": 0, "type": "electric_scooter"}, {"bike_id": "a06817a6b4b463acf4be50512fea5025", "lat": 38.919031, "is_reserved": 0, "fusion_lat": 0.0, "rental_uris": {"android": "https://dc.lft.to/lastmile_qr_scan", "ios": "https://dc.lft.to/lastmile_qr_scan"}, "fusion_lon": 0.0, "name": "a06817a6b4b463acf4be50512fea5025", "lon": -77.01687066666666, "is_disabled": 0, "type": "electric_scooter"}, {"bike_id": "23a24ea0464944247d5be0bb1384bb44", "lat": 38.92142333333334, "is_reserved": 0, "fusion_lat": 0.0, "rental_uris": {"android": "https://dc.lft.to/lastmile_qr_scan", "ios": "https://dc.lft.to/lastmile_qr_scan"}, "fusion_lon": 0.0, "name": "23a24ea0464944247d5be0bb1384bb44", "lon": -77.03513583333333, "is_disabled": 0, "type": "electric_scooter"}, {"bike_id": "46942cdf5fb10573b673c566477b21f6", "lat": 38.934244166666666, "is_reserved": 0, "fusion_lat": 0.0, "rental_uris": {"android": "https://dc.lft.to/lastmile_qr_scan", "ios": "https://dc.lft.to/lastmile_qr_scan"}, "fusion_lon": 0.0, "name": "46942cdf5fb10573b673c566477b21f6", "lon": -77.0400555, "is_disabled": 0, "type": "electric_scooter"}, {"bike_id": "0b1a878923e357131949fe914c9487de", "lat": 38.87375433333333, "is_reserved": 0, "fusion_lat": 0.0, "rental_uris": {"android": "https://dc.lft.to/lastmile_qr_scan", "ios": "https://dc.lft.to/lastmile_qr_scan"}, "fusion_lon": 0.0, "name": "0b1a878923e357131949fe914c9487de", "lon": -77.0011455, "is_disabled": 0, "type": "electric_scooter"}, {"bike_id": "397f86c5da92b13ec90a334973f01e02", "lat": 38.90724633333333, "is_reserved": 0, "fusion_lat": 0.0, "rental_uris": {"android": "https://dc.lft.to/lastmile_qr_scan", "ios": "https://dc.lft.to/lastmile_qr_scan"}, "fusion_lon": 0.0, "name": "397f86c5da92b13ec90a334973f01e02", "lon": -77.0318295, "is_disabled": 0, "type": "electric_scooter"}, {"bike_id": "333c36710bac6cbdf3f3cc0bf0ad80b5", "lat": 38.901366333333335, "is_reserved": 0, "fusion_lat": 0.0, "rental_uris": {"android": "https://dc.lft.to/lastmile_qr_scan", "ios": "https://dc.lft.to/lastmile_qr_scan"}, "fusion_lon": 0.0, "name": "333c36710bac6cbdf3f3cc0bf0ad80b5", "lon": -77.04470416666666, "is_disabled": 0, "type": "electric_scooter"}, {"bike_id": "d4ae018f3df9615900e4fc95e0fe2447", "lat": 38.892945166666664, "is_reserved": 0, "fusion_lat": 0.0, "rental_uris": {"android": "https://dc.lft.to/lastmile_qr_scan", "ios": "https://dc.lft.to/lastmile_qr_scan"}, "fusion_lon": 0.0, "name": "d4ae018f3df9615900e4fc95e0fe2447", "lon": -77.0447475, "is_disabled": 0, "type": "electric_scooter"}, {"bike_id": "9228e4e74dfc89688b20ff89cc005638", "lat": 38.8973435, "is_reserved": 0, "fusion_lat": 0.0, "rental_uris": {"android": "https://dc.lft.to/lastmile_qr_scan", "ios": "https://dc.lft.to/lastmile_qr_scan"}, "fusion_lon": 0.0, "name": "9228e4e74dfc89688b20ff89cc005638", "lon": -77.0246105, "is_disabled": 0, "type": "electric_scooter"}, {"bike_id": "07fab203e9ee8cd6b2333ed103c0ae8b", "lat": 38.911145833333336, "is_reserved": 0, "fusion_lat": 0.0, "rental_uris": {"android": "https://dc.lft.to/lastmile_qr_scan", "ios": "https://dc.lft.to/lastmile_qr_scan"}, "fusion_lon": 0.0, "name": "07fab203e9ee8cd6b2333ed103c0ae8b", "lon": -77.043688, "is_disabled": 0, "type": "electric_scooter"}, {"bike_id": "763dd3a4501e85a8757ba70125ad11db", "lat": 38.942961, "is_reserved": 0, "fusion_lat": 0.0, "rental_uris": {"android": "https://dc.lft.to/lastmile_qr_scan", "ios": "https://dc.lft.to/lastmile_qr_scan"}, "fusion_lon": 0.0, "name": "763dd3a4501e85a8757ba70125ad11db", "lon": -77.021746, "is_disabled": 0, "type": "electric_scooter"}, {"bike_id": "87167f5ff69561089225bd227e7abfa1", "lat": 38.873108333333334, "is_reserved": 0, "fusion_lat": 0.0, "rental_uris": {"android": "https://dc.lft.to/lastmile_qr_scan", "ios": "https://dc.lft.to/lastmile_qr_scan"}, "fusion_lon": 0.0, "name": "87167f5ff69561089225bd227e7abfa1", "lon": -77.00146383333333, "is_disabled": 0, "type": "electric_scooter"}, {"bike_id": "c199409c4c903d7afea77be5e2e14fc3", "lat": 38.923889333333335, "is_reserved": 0, "fusion_lat": 0.0, "rental_uris": {"android": "https://dc.lft.to/lastmile_qr_scan", "ios": "https://dc.lft.to/lastmile_qr_scan"}, "fusion_lon": 0.0, "name": "c199409c4c903d7afea77be5e2e14fc3", "lon": -77.04457683333334, "is_disabled": 0, "type": "electric_scooter"}, {"bike_id": "cceacc426d8a0eff2cb7535832b2d015", "lat": 38.89596916666667, "is_reserved": 0, "fusion_lat": 0.0, "rental_uris": {"android": "https://dc.lft.to/lastmile_qr_scan", "ios": "https://dc.lft.to/lastmile_qr_scan"}, "fusion_lon": 0.0, "name": "cceacc426d8a0eff2cb7535832b2d015", "lon": -77.00694, "is_disabled": 0, "type": "electric_scooter"}, {"bike_id": "08947889001bccd0c3c9183c669b8426", "lat": 38.79605383333333, "is_reserved": 0, "fusion_lat": 0.0, "rental_uris": {"android": "https://dc.lft.to/lastmile_qr_scan", "ios": "https://dc.lft.to/lastmile_qr_scan"}, "fusion_lon": 0.0, "name": "08947889001bccd0c3c9183c669b8426", "lon": -76.99748283333334, "is_disabled": 0, "type": "electric_bike"}, {"bike_id": "c1cf911ffe909b024cde862a0183440b", "lat": 38.8986535, "is_reserved": 0, "fusion_lat": 0.0, "rental_uris": {"android": "https://dc.lft.to/lastmile_qr_scan", "ios": "https://dc.lft.to/lastmile_qr_scan"}, "fusion_lon": 0.0, "name": "c1cf911ffe909b024cde862a0183440b", "lon": -76.946403, "is_disabled": 0, "type": "electric_scooter"}, {"bike_id": "e0722a56e57e3a253d40a088e45312f6", "lat": 38.9082745, "is_reserved": 0, "fusion_lat": 0.0, "rental_uris": {"android": "https://dc.lft.to/lastmile_qr_scan", "ios": "https://dc.lft.to/lastmile_qr_scan"}, "fusion_lon": 0.0, "name": "e0722a56e57e3a253d40a088e45312f6", "lon": -77.02210283333334, "is_disabled": 0, "type": "electric_scooter"}, {"bike_id": "a46a3702b015e031a91e2f6c79659c6f", "lat": 38.91453216666667, "is_reserved": 0, "fusion_lat": 0.0, "rental_uris": {"android": "https://dc.lft.to/lastmile_qr_scan", "ios": "https://dc.lft.to/lastmile_qr_scan"}, "fusion_lon": 0.0, "name": "a46a3702b015e031a91e2f6c79659c6f", "lon": -77.02189933333334, "is_disabled": 0, "type": "electric_scooter"}, {"bike_id": "7a730ab828b7032da6f5fa3c5e811d9f", "lat": 38.903980833333335, "is_reserved": 0, "fusion_lat": 0.0, "rental_uris": {"android": "https://dc.lft.to/lastmile_qr_scan", "ios": "https://dc.lft.to/lastmile_qr_scan"}, "fusion_lon": 0.0, "name": "7a730ab828b7032da6f5fa3c5e811d9f", "lon": -77.02481416666667, "is_disabled": 0, "type": "electric_scooter"}, {"bike_id": "bc72a9c89873ffa50fc39d2fd398a9fa", "lat": 38.91865683333333, "is_reserved": 0, "fusion_lat": 0.0, "rental_uris": {"android": "https://dc.lft.to/lastmile_qr_scan", "ios": "https://dc.lft.to/lastmile_qr_scan"}, "fusion_lon": 0.0, "name": "bc72a9c89873ffa50fc39d2fd398a9fa", "lon": -77.0318685, "is_disabled": 0, "type": "electric_scooter"}, {"bike_id": "215a2a23ae71af2620899259c0ad2efe", "lat": 38.914165, "is_reserved": 0, "fusion_lat": 0.0, "rental_uris": {"android": "https://dc.lft.to/lastmile_qr_scan", "ios": "https://dc.lft.to/lastmile_qr_scan"}, "fusion_lon": 0.0, "name": "215a2a23ae71af2620899259c0ad2efe", "lon": -77.01805033333333, "is_disabled": 0, "type": "electric_scooter"}, {"bike_id": "c8cd5f58381a74e5f1fbe6dd56f71ad0", "lat": 38.815111333333334, "is_reserved": 0, "fusion_lat": 0.0, "rental_uris": {"android": "https://dc.lft.to/lastmile_qr_scan", "ios": "https://dc.lft.to/lastmile_qr_scan"}, "fusion_lon": 0.0, "name": "c8cd5f58381a74e5f1fbe6dd56f71ad0", "lon": -77.126558, "is_disabled": 0, "type": "electric_bike"}, {"bike_id": "a218a5b0aea885ceb335e120bcc8610a", "lat": 38.930729, "is_reserved": 0, "fusion_lat": 0.0, "rental_uris": {"android": "https://dc.lft.to/lastmile_qr_scan", "ios": "https://dc.lft.to/lastmile_qr_scan"}, "fusion_lon": 0.0, "name": "a218a5b0aea885ceb335e120bcc8610a", "lon": -77.02837216666667, "is_disabled": 0, "type": "electric_scooter"}, {"bike_id": "d1fb27180c76a791b53d8c96910ecee3", "lat": 38.8876725, "is_reserved": 0, "fusion_lat": 0.0, "rental_uris": {"android": "https://dc.lft.to/lastmile_qr_scan", "ios": "https://dc.lft.to/lastmile_qr_scan"}, "fusion_lon": 0.0, "name": "d1fb27180c76a791b53d8c96910ecee3", "lon": -77.02619816666666, "is_disabled": 0, "type": "electric_scooter"}, {"bike_id": "5e30e5100b01fc33ceef9fdcafce827b", "lat": 38.978570166666664, "is_reserved": 0, "fusion_lat": 0.0, "rental_uris": {"android": "https://dc.lft.to/lastmile_qr_scan", "ios": "https://dc.lft.to/lastmile_qr_scan"}, "fusion_lon": 0.0, "name": "5e30e5100b01fc33ceef9fdcafce827b", "lon": -76.940537, "is_disabled": 0, "type": "electric_bike"}, {"bike_id": "9fbc641f8e859febd689b9bfaaa11cd9", "lat": 38.90098416666667, "is_reserved": 0, "fusion_lat": 0.0, "rental_uris": {"android": "https://dc.lft.to/lastmile_qr_scan", "ios": "https://dc.lft.to/lastmile_qr_scan"}, "fusion_lon": 0.0, "name": "9fbc641f8e859febd689b9bfaaa11cd9", "lon": -77.0322645, "is_disabled": 0, "type": "electric_scooter"}, {"bike_id": "f609016ded451006cfc775987ca33e88", "lat": 38.8670175, "is_reserved": 0, "fusion_lat": 0.0, "rental_uris": {"android": "https://dc.lft.to/lastmile_qr_scan", "ios": "https://dc.lft.to/lastmile_qr_scan"}, "fusion_lon": 0.0, "name": "f609016ded451006cfc775987ca33e88", "lon": -76.987114, "is_disabled": 0, "type": "electric_scooter"}, {"bike_id": "f67bd462858586b85936884a887a6d67", "lat": 38.902902, "is_reserved": 0, "fusion_lat": 0.0, "rental_uris": {"android": "https://dc.lft.to/lastmile_qr_scan", "ios": "https://dc.lft.to/lastmile_qr_scan"}, "fusion_lon": 0.0, "name": "f67bd462858586b85936884a887a6d67", "lon": -77.033479, "is_disabled": 0, "type": "electric_scooter"}, {"bike_id": "74974ca4c39ea6c43a784b2dfd817be2", "lat": 38.90277733333333, "is_reserved": 0, "fusion_lat": 0.0, "rental_uris": {"android": "https://dc.lft.to/lastmile_qr_scan", "ios": "https://dc.lft.to/lastmile_qr_scan"}, "fusion_lon": 0.0, "name": "74974ca4c39ea6c43a784b2dfd817be2", "lon": -77.03933966666666, "is_disabled": 0, "type": "electric_scooter"}, {"bike_id": "26430d7fbd9e98dc4d2e8a13e28d3580", "lat": 38.866995333333335, "is_reserved": 0, "fusion_lat": 0.0, "rental_uris": {"android": "https://dc.lft.to/lastmile_qr_scan", "ios": "https://dc.lft.to/lastmile_qr_scan"}, "fusion_lon": 0.0, "name": "26430d7fbd9e98dc4d2e8a13e28d3580", "lon": -76.9871115, "is_disabled": 0, "type": "electric_scooter"}, {"bike_id": "be0c52751370ee2baed61c736891557e", "lat": 38.87873533333333, "is_reserved": 0, "fusion_lat": 0.0, "rental_uris": {"android": "https://dc.lft.to/lastmile_qr_scan", "ios": "https://dc.lft.to/lastmile_qr_scan"}, "fusion_lon": 0.0, "name": "be0c52751370ee2baed61c736891557e", "lon": -77.01915633333333, "is_disabled": 0, "type": "electric_scooter"}, {"bike_id": "748bdacaf6efaaa9cb436d358e54cf8b", "lat": 38.898673333333335, "is_reserved": 0, "fusion_lat": 0.0, "rental_uris": {"android": "https://dc.lft.to/lastmile_qr_scan", "ios": "https://dc.lft.to/lastmile_qr_scan"}, "fusion_lon": 0.0, "name": "748bdacaf6efaaa9cb436d358e54cf8b", "lon": -76.94642116666667, "is_disabled": 0, "type": "electric_scooter"}, {"bike_id": "c5d7c3b3a8413271d2aaf2760c3885bc", "lat": 38.9282435, "is_reserved": 0, "fusion_lat": 0.0, "rental_uris": {"android": "https://dc.lft.to/lastmile_qr_scan", "ios": "https://dc.lft.to/lastmile_qr_scan"}, "fusion_lon": 0.0, "name": "c5d7c3b3a8413271d2aaf2760c3885bc", "lon": -77.0225645, "is_disabled": 0, "type": "electric_scooter"}, {"bike_id": "8300661a27e939fe5172a58b275e45c1", "lat": 38.922761666666666, "is_reserved": 0, "fusion_lat": 0.0, "rental_uris": {"android": "https://dc.lft.to/lastmile_qr_scan", "ios": "https://dc.lft.to/lastmile_qr_scan"}, "fusion_lon": 0.0, "name": "8300661a27e939fe5172a58b275e45c1", "lon": -77.0423825, "is_disabled": 0, "type": "electric_scooter"}, {"bike_id": "1a98435d1928a702da4545d03e607402", "lat": 38.90372133333334, "is_reserved": 0, "fusion_lat": 0.0, "rental_uris": {"android": "https://dc.lft.to/lastmile_qr_scan", "ios": "https://dc.lft.to/lastmile_qr_scan"}, "fusion_lon": 0.0, "name": "1a98435d1928a702da4545d03e607402", "lon": -77.04503333333334, "is_disabled": 0, "type": "electric_scooter"}, {"bike_id": "a4297f8afa938225bf721128120d60d5", "lat": 38.89848166666667, "is_reserved": 0, "fusion_lat": 0.0, "rental_uris": {"android": "https://dc.lft.to/lastmile_qr_scan", "ios": "https://dc.lft.to/lastmile_qr_scan"}, "fusion_lon": 0.0, "name": "a4297f8afa938225bf721128120d60d5", "lon": -77.027362, "is_disabled": 0, "type": "electric_scooter"}, {"bike_id": "3ef8d77575924d87891efddb31bc5abd", "lat": 38.85355783333333, "is_reserved": 0, "fusion_lat": 0.0, "rental_uris": {"android": "https://dc.lft.to/lastmile_qr_scan", "ios": "https://dc.lft.to/lastmile_qr_scan"}, "fusion_lon": 0.0, "name": "3ef8d77575924d87891efddb31bc5abd", "lon": -77.08688883333333, "is_disabled": 0, "type": "electric_bike"}, {"bike_id": "a8dfef9f7d1145568819ab959c53a6e3", "lat": 38.915532166666665, "is_reserved": 0, "fusion_lat": 0.0, "rental_uris": {"android": "https://dc.lft.to/lastmile_qr_scan", "ios": "https://dc.lft.to/lastmile_qr_scan"}, "fusion_lon": 0.0, "name": "a8dfef9f7d1145568819ab959c53a6e3", "lon": -77.02571916666666, "is_disabled": 0, "type": "electric_scooter"}, {"bike_id": "5de3d892cfc918156142268753fca54d", "lat": 38.9556675, "is_reserved": 0, "fusion_lat": 0.0, "rental_uris": {"android": "https://dc.lft.to/lastmile_qr_scan", "ios": "https://dc.lft.to/lastmile_qr_scan"}, "fusion_lon": 0.0, "name": "5de3d892cfc918156142268753fca54d", "lon": -77.02722083333333, "is_disabled": 0, "type": "electric_scooter"}, {"bike_id": "23556a6ae30050b323d15ce11657396e", "lat": 38.923194, "is_reserved": 0, "fusion_lat": 0.0, "rental_uris": {"android": "https://dc.lft.to/lastmile_qr_scan", "ios": "https://dc.lft.to/lastmile_qr_scan"}, "fusion_lon": 0.0, "name": "23556a6ae30050b323d15ce11657396e", "lon": -77.03682333333333, "is_disabled": 0, "type": "electric_scooter"}, {"bike_id": "d91477f7ca3a53fa65bdfa4ba6cd0521", "lat": 38.865068, "is_reserved": 0, "fusion_lat": 0.0, "rental_uris": {"android": "https://dc.lft.to/lastmile_qr_scan", "ios": "https://dc.lft.to/lastmile_qr_scan"}, "fusion_lon": 0.0, "name": "d91477f7ca3a53fa65bdfa4ba6cd0521", "lon": -76.990062, "is_disabled": 0, "type": "electric_scooter"}, {"bike_id": "989a2a0a43049f0c4b13944b57b17378", "lat": 38.9141265, "is_reserved": 0, "fusion_lat": 0.0, "rental_uris": {"android": "https://dc.lft.to/lastmile_qr_scan", "ios": "https://dc.lft.to/lastmile_qr_scan"}, "fusion_lon": 0.0, "name": "989a2a0a43049f0c4b13944b57b17378", "lon": -77.02614133333333, "is_disabled": 0, "type": "electric_scooter"}, {"bike_id": "5de6b80d2c1db08df2944aff0bf6c0f9", "lat": 38.923235166666664, "is_reserved": 0, "fusion_lat": 0.0, "rental_uris": {"android": "https://dc.lft.to/lastmile_qr_scan", "ios": "https://dc.lft.to/lastmile_qr_scan"}, "fusion_lon": 0.0, "name": "5de6b80d2c1db08df2944aff0bf6c0f9", "lon": -77.03673483333333, "is_disabled": 0, "type": "electric_scooter"}, {"bike_id": "f5f7affcc5d19be6db76441763ecf765", "lat": 38.896847666666666, "is_reserved": 0, "fusion_lat": 0.0, "rental_uris": {"android": "https://dc.lft.to/lastmile_qr_scan", "ios": "https://dc.lft.to/lastmile_qr_scan"}, "fusion_lon": 0.0, "name": "f5f7affcc5d19be6db76441763ecf765", "lon": -77.00497433333334, "is_disabled": 0, "type": "electric_scooter"}, {"bike_id": "81d5be7ca786b95b092ce37852c4d010", "lat": 38.92066333333333, "is_reserved": 0, "fusion_lat": 0.0, "rental_uris": {"android": "https://dc.lft.to/lastmile_qr_scan", "ios": "https://dc.lft.to/lastmile_qr_scan"}, "fusion_lon": 0.0, "name": "81d5be7ca786b95b092ce37852c4d010", "lon": -77.04247183333334, "is_disabled": 0, "type": "electric_scooter"}, {"bike_id": "05a18068e293802d4e98575e000f6ae6", "lat": 38.904344333333334, "is_reserved": 0, "fusion_lat": 0.0, "rental_uris": {"android": "https://dc.lft.to/lastmile_qr_scan", "ios": "https://dc.lft.to/lastmile_qr_scan"}, "fusion_lon": 0.0, "name": "05a18068e293802d4e98575e000f6ae6", "lon": -77.04347133333333, "is_disabled": 0, "type": "electric_scooter"}, {"bike_id": "655f7bac7c94aa3843da3ac97340b699", "lat": 38.896016, "is_reserved": 0, "fusion_lat": 0.0, "rental_uris": {"android": "https://dc.lft.to/lastmile_qr_scan", "ios": "https://dc.lft.to/lastmile_qr_scan"}, "fusion_lon": 0.0, "name": "655f7bac7c94aa3843da3ac97340b699", "lon": -77.02254033333334, "is_disabled": 0, "type": "electric_scooter"}, {"bike_id": "407838b7208025d15dfa8e25093bf301", "lat": 38.877293, "is_reserved": 0, "fusion_lat": 0.0, "rental_uris": {"android": "https://dc.lft.to/lastmile_qr_scan", "ios": "https://dc.lft.to/lastmile_qr_scan"}, "fusion_lon": 0.0, "name": "407838b7208025d15dfa8e25093bf301", "lon": -77.02152916666667, "is_disabled": 0, "type": "electric_scooter"}, {"bike_id": "23cc1ca063eb233f03c191f3241d0593", "lat": 38.888536, "is_reserved": 0, "fusion_lat": 0.0, "rental_uris": {"android": "https://dc.lft.to/lastmile_qr_scan", "ios": "https://dc.lft.to/lastmile_qr_scan"}, "fusion_lon": 0.0, "name": "23cc1ca063eb233f03c191f3241d0593", "lon": -77.00054733333333, "is_disabled": 0, "type": "electric_scooter"}, {"bike_id": "1c216888492b2694e26aa1df5458de76", "lat": 38.950752666666666, "is_reserved": 0, "fusion_lat": 0.0, "rental_uris": {"android": "https://dc.lft.to/lastmile_qr_scan", "ios": "https://dc.lft.to/lastmile_qr_scan"}, "fusion_lon": 0.0, "name": "1c216888492b2694e26aa1df5458de76", "lon": -77.0299065, "is_disabled": 0, "type": "electric_scooter"}, {"bike_id": "f147d6720c449472ee09ebe9b2716583", "lat": 38.911715666666666, "is_reserved": 0, "fusion_lat": 0.0, "rental_uris": {"android": "https://dc.lft.to/lastmile_qr_scan", "ios": "https://dc.lft.to/lastmile_qr_scan"}, "fusion_lon": 0.0, "name": "f147d6720c449472ee09ebe9b2716583", "lon": -77.031828, "is_disabled": 0, "type": "electric_scooter"}, {"bike_id": "b409ed270974572ecea37a4aee5407d1", "lat": 38.91708966666667, "is_reserved": 0, "fusion_lat": 0.0, "rental_uris": {"android": "https://dc.lft.to/lastmile_qr_scan", "ios": "https://dc.lft.to/lastmile_qr_scan"}, "fusion_lon": 0.0, "name": "b409ed270974572ecea37a4aee5407d1", "lon": -77.0233365, "is_disabled": 0, "type": "electric_scooter"}, {"bike_id": "f72d13ac304b875621fcceb99a771047", "lat": 38.90728433333334, "is_reserved": 0, "fusion_lat": 0.0, "rental_uris": {"android": "https://dc.lft.to/lastmile_qr_scan", "ios": "https://dc.lft.to/lastmile_qr_scan"}, "fusion_lon": 0.0, "name": "f72d13ac304b875621fcceb99a771047", "lon": -77.02376233333334, "is_disabled": 0, "type": "electric_scooter"}, {"bike_id": "073579d2d9f9176f1940504f33c55473", "lat": 38.92616666666667, "is_reserved": 0, "fusion_lat": 0.0, "rental_uris": {"android": "https://dc.lft.to/lastmile_qr_scan", "ios": "https://dc.lft.to/lastmile_qr_scan"}, "fusion_lon": 0.0, "name": "073579d2d9f9176f1940504f33c55473", "lon": -77.03704366666666, "is_disabled": 0, "type": "electric_scooter"}, {"bike_id": "66804d3dfdd33be091228b58f75f0605", "lat": 38.93858866666667, "is_reserved": 0, "fusion_lat": 0.0, "rental_uris": {"android": "https://dc.lft.to/lastmile_qr_scan", "ios": "https://dc.lft.to/lastmile_qr_scan"}, "fusion_lon": 0.0, "name": "66804d3dfdd33be091228b58f75f0605", "lon": -77.03420166666666, "is_disabled": 0, "type": "electric_scooter"}, {"bike_id": "b33c058131a5ddd3ec0a2027ad7a1952", "lat": 38.90853583333333, "is_reserved": 0, "fusion_lat": 0.0, "rental_uris": {"android": "https://dc.lft.to/lastmile_qr_scan", "ios": "https://dc.lft.to/lastmile_qr_scan"}, "fusion_lon": 0.0, "name": "b33c058131a5ddd3ec0a2027ad7a1952", "lon": -76.99803716666666, "is_disabled": 0, "type": "electric_scooter"}, {"bike_id": "d000d0274e32bc81657645954260467f", "lat": 38.87653566666667, "is_reserved": 0, "fusion_lat": 0.0, "rental_uris": {"android": "https://dc.lft.to/lastmile_qr_scan", "ios": "https://dc.lft.to/lastmile_qr_scan"},