{"data": {"bikes": [{"is_reserved": 0, "fusion_lon": 0.0, "fusion_lat": 0.0, "name": "cc07864aa0db7fb5c90e66c1859295b8", "type": "electric_scooter", "is_disabled": 0, "lat": 38.910268333333335, "rental_uris": {"android": "https://dc.lft.to/lastmile_qr_scan", "ios": "https://dc.lft.to/lastmile_qr_scan"}, "bike_id": "cc07864aa0db7fb5c90e66c1859295b8", "lon": -77.04494866666667}, {"is_reserved": 0, "fusion_lon": 0.0, "fusion_lat": 0.0, "name": "07c2263801d6990f45c8dc92e1f98be9", "type": "electric_scooter", "is_disabled": 0, "lat": 38.913313333333335, "rental_uris": {"android": "https://dc.lft.to/lastmile_qr_scan", "ios": "https://dc.lft.to/lastmile_qr_scan"}, "bike_id": "07c2263801d6990f45c8dc92e1f98be9", "lon": -77.04579966666667}, {"is_reserved": 0, "fusion_lon": 0.0, "fusion_lat": 0.0, "name": "eed8fe36b706f57fa7deb4f9617e5d5d", "type": "electric_scooter", "is_disabled": 0, "lat": 38.9024855, "rental_uris": {"android": "https://dc.lft.to/lastmile_qr_scan", "ios": "https://dc.lft.to/lastmile_qr_scan"}, "bike_id": "eed8fe36b706f57fa7deb4f9617e5d5d", "lon": -77.0396145}, {"is_reserved": 0, "fusion_lon": 0.0, "fusion_lat": 0.0, "name": "3664bae59a110d3a2b17675e790ec201", "type": "electric_scooter", "is_disabled": 0, "lat": 38.912702833333334, "rental_uris": {"android": "https://dc.lft.to/lastmile_qr_scan", "ios": "https://dc.lft.to/lastmile_qr_scan"}, "bike_id": "3664bae59a110d3a2b17675e790ec201", "lon": -77.02866533333334}, {"is_reserved": 0, "fusion_lon": 0.0, "fusion_lat": 0.0, "name": "d61290cd36fca7bee3a66718c3bf89fa", "type": "electric_bike", "is_disabled": 0, "lat": 39.01479533333333, "rental_uris": {"android": "https://dc.lft.to/lastmile_qr_scan", "ios": "https://dc.lft.to/lastmile_qr_scan"}, "bike_id": "d61290cd36fca7bee3a66718c3bf89fa", "lon": -77.054982}, {"is_reserved": 0, "fusion_lon": 0.0, "fusion_lat": 0.0, "name": "56ffd849b7b5493da0138dbd482dfd1c", "type": "electric_scooter", "is_disabled": 0, "lat": 38.906409833333335, "rental_uris": {"android": "https://dc.lft.to/lastmile_qr_scan", "ios": "https://dc.lft.to/lastmile_qr_scan"}, "bike_id": "56ffd849b7b5493da0138dbd482dfd1c", "lon": -77.0238455}, {"is_reserved": 0, "fusion_lon": 0.0, "fusion_lat": 0.0, "name": "7ac02b2e2afb32569f2447a2b01098a1", "type": "electric_scooter", "is_disabled": 0, "lat": 38.9156815, "rental_uris": {"android": "https://dc.lft.to/lastmile_qr_scan", "ios": "https://dc.lft.to/lastmile_qr_scan"}, "bike_id": "7ac02b2e2afb32569f2447a2b01098a1", "lon": -77.04102966666666}, {"is_reserved": 0, "fusion_lon": 0.0, "fusion_lat": 0.0, "name": "3aa7990b1bf18453527596680ec5360a", "type": "electric_scooter", "is_disabled": 0, "lat": 38.922525, "rental_uris": {"android": "https://dc.lft.to/lastmile_qr_scan", "ios": "https://dc.lft.to/lastmile_qr_scan"}, "bike_id": "3aa7990b1bf18453527596680ec5360a", "lon": -77.01934033333333}, {"is_reserved": 0, "fusion_lon": 0.0, "fusion_lat": 0.0, "name": "0496d8934f39e7d6bfb11d34a430b2d4", "type": "electric_scooter", "is_disabled": 0, "lat": 38.90237066666667, "rental_uris": {"android": "https://dc.lft.to/lastmile_qr_scan", "ios": "https://dc.lft.to/lastmile_qr_scan"}, "bike_id": "0496d8934f39e7d6bfb11d34a430b2d4", "lon": -77.00197066666667}, {"is_reserved": 0, "fusion_lon": 0.0, "fusion_lat": 0.0, "name": "3496407ecdeba6cc305708aa8f976daf", "type": "electric_bike", "is_disabled": 0, "lat": 38.967437, "rental_uris": {"android": "https://dc.lft.to/lastmile_qr_scan", "ios": "https://dc.lft.to/lastmile_qr_scan"}, "bike_id": "3496407ecdeba6cc305708aa8f976daf", "lon": -76.98194166666667}, {"is_reserved": 0, "fusion_lon": 0.0, "fusion_lat": 0.0, "name": "a6dee74c417164c010879d61196e2321", "type": "electric_scooter", "is_disabled": 0, "lat": 38.90708, "rental_uris": {"android": "https://dc.lft.to/lastmile_qr_scan", "ios": "https://dc.lft.to/lastmile_qr_scan"}, "bike_id": "a6dee74c417164c010879d61196e2321", "lon": -77.02391783333333}, {"is_reserved": 0, "fusion_lon": 0.0, "fusion_lat": 0.0, "name": "bc2a8fe6a41de44a6c4f655d3c1d70dd", "type": "electric_scooter", "is_disabled": 0, "lat": 38.903832333333334, "rental_uris": {"android": "https://dc.lft.to/lastmile_qr_scan", "ios": "https://dc.lft.to/lastmile_qr_scan"}, "bike_id": "bc2a8fe6a41de44a6c4f655d3c1d70dd", "lon": -77.042915}, {"is_reserved": 0, "fusion_lon": 0.0, "fusion_lat": 0.0, "name": "26540d41ecba65ea052f7afae3774653", "type": "electric_scooter", "is_disabled": 0, "lat": 38.8986465, "rental_uris": {"android": "https://dc.lft.to/lastmile_qr_scan", "ios": "https://dc.lft.to/lastmile_qr_scan"}, "bike_id": "26540d41ecba65ea052f7afae3774653", "lon": -76.92751666666666}, {"is_reserved": 0, "fusion_lon": 0.0, "fusion_lat": 0.0, "name": "8e51abae0893e8485f8fa0d8e996cece", "type": "electric_bike", "is_disabled": 0, "lat": 38.95650916666666, "rental_uris": {"android": "https://dc.lft.to/lastmile_qr_scan", "ios": "https://dc.lft.to/lastmile_qr_scan"}, "bike_id": "8e51abae0893e8485f8fa0d8e996cece", "lon": -77.01278716666667}, {"is_reserved": 0, "fusion_lon": 0.0, "fusion_lat": 0.0, "name": "5bb7c7479ce94620e6b82482d20174bc", "type": "electric_scooter", "is_disabled": 0, "lat": 38.884847666666666, "rental_uris": {"android": "https://dc.lft.to/lastmile_qr_scan", "ios": "https://dc.lft.to/lastmile_qr_scan"}, "bike_id": "5bb7c7479ce94620e6b82482d20174bc", "lon": -76.92621533333333}, {"is_reserved": 0, "fusion_lon": 0.0, "fusion_lat": 0.0, "name": "efde144a553e02967a4a58a04a9efcef", "type": "electric_scooter", "is_disabled": 0, "lat": 38.89808266666667, "rental_uris": {"android": "https://dc.lft.to/lastmile_qr_scan", "ios": "https://dc.lft.to/lastmile_qr_scan"}, "bike_id": "efde144a553e02967a4a58a04a9efcef", "lon": -77.02955733333333}, {"is_reserved": 0, "fusion_lon": 0.0, "fusion_lat": 0.0, "name": "40a17cf33517d62fb9d458ee37310f9e", "type": "electric_scooter", "is_disabled": 0, "lat": 38.85538283333333, "rental_uris": {"android": "https://dc.lft.to/lastmile_qr_scan", "ios": "https://dc.lft.to/lastmile_qr_scan"}, "bike_id": "40a17cf33517d62fb9d458ee37310f9e", "lon": -76.98418916666667}, {"is_reserved": 0, "fusion_lon": 0.0, "fusion_lat": 0.0, "name": "f6c24a492ae4ce5e163ad6ebb93f7e3a", "type": "electric_scooter", "is_disabled": 0, "lat": 38.90723633333333, "rental_uris": {"android": "https://dc.lft.to/lastmile_qr_scan", "ios": "https://dc.lft.to/lastmile_qr_scan"}, "bike_id": "f6c24a492ae4ce5e163ad6ebb93f7e3a", "lon": -77.0434055}, {"is_reserved": 0, "fusion_lon": 0.0, "fusion_lat": 0.0, "name": "58333d0cf764d9c19c7ef08ac1fade6c", "type": "electric_scooter", "is_disabled": 0, "lat": 38.9297475, "rental_uris": {"android": "https://dc.lft.to/lastmile_qr_scan", "ios": "https://dc.lft.to/lastmile_qr_scan"}, "bike_id": "58333d0cf764d9c19c7ef08ac1fade6c", "lon": -77.01326666666667}, {"is_reserved": 0, "fusion_lon": 0.0, "fusion_lat": 0.0, "name": "6a514f347d05d158304e2c98df2ad9c7", "type": "electric_scooter", "is_disabled": 0, "lat": 38.88408116666667, "rental_uris": {"android": "https://dc.lft.to/lastmile_qr_scan", "ios": "https://dc.lft.to/lastmile_qr_scan"}, "bike_id": "6a514f347d05d158304e2c98df2ad9c7", "lon": -77.017748}, {"is_reserved": 0, "fusion_lon": 0.0, "fusion_lat": 0.0, "name": "dafb71514648d6506f16521545250039", "type": "electric_scooter", "is_disabled": 0, "lat": 38.90087583333333, "rental_uris": {"android": "https://dc.lft.to/lastmile_qr_scan", "ios": "https://dc.lft.to/lastmile_qr_scan"}, "bike_id": "dafb71514648d6506f16521545250039", "lon": -76.93022466666666}, {"is_reserved": 0, "fusion_lon": 0.0, "fusion_lat": 0.0, "name": "a50f0423a82864e783c8d71e4d775b13", "type": "electric_scooter", "is_disabled": 0, "lat": 38.917705, "rental_uris": {"android": "https://dc.lft.to/lastmile_qr_scan", "ios": "https://dc.lft.to/lastmile_qr_scan"}, "bike_id": "a50f0423a82864e783c8d71e4d775b13", "lon": -77.04058316666666}, {"is_reserved": 0, "fusion_lon": 0.0, "fusion_lat": 0.0, "name": "247fcb4c920a79a918a0925ea9981734", "type": "electric_scooter", "is_disabled": 0, "lat": 38.973796, "rental_uris": {"android": "https://dc.lft.to/lastmile_qr_scan", "ios": "https://dc.lft.to/lastmile_qr_scan"}, "bike_id": "247fcb4c920a79a918a0925ea9981734", "lon": -77.018119}, {"is_reserved": 0, "fusion_lon": 0.0, "fusion_lat": 0.0, "name": "56ab9c1dea0d2f15e68c10bf31a823ce", "type": "electric_scooter", "is_disabled": 0, "lat": 38.9030195, "rental_uris": {"android": "https://dc.lft.to/lastmile_qr_scan", "ios": "https://dc.lft.to/lastmile_qr_scan"}, "bike_id": "56ab9c1dea0d2f15e68c10bf31a823ce", "lon": -77.03864316666666}, {"is_reserved": 0, "fusion_lon": 0.0, "fusion_lat": 0.0, "name": "5ff5a89cbf8f9e9ae0219359f70e78ab", "type": "electric_scooter", "is_disabled": 0, "lat": 38.87009183333333, "rental_uris": {"android": "https://dc.lft.to/lastmile_qr_scan", "ios": "https://dc.lft.to/lastmile_qr_scan"}, "bike_id": "5ff5a89cbf8f9e9ae0219359f70e78ab", "lon": -76.98083433333333}, {"is_reserved": 0, "fusion_lon": 0.0, "fusion_lat": 0.0, "name": "c2bb57c53e914963a838c77a515f72f6", "type": "electric_scooter", "is_disabled": 0, "lat": 38.914167, "rental_uris": {"android": "https://dc.lft.to/lastmile_qr_scan", "ios": "https://dc.lft.to/lastmile_qr_scan"}, "bike_id": "c2bb57c53e914963a838c77a515f72f6", "lon": -77.03151033333333}, {"is_reserved": 0, "fusion_lon": 0.0, "fusion_lat": 0.0, "name": "d63dfd5de882accb3d4e1f946561481f", "type": "electric_scooter", "is_disabled": 0, "lat": 38.92610033333333, "rental_uris": {"android": "https://dc.lft.to/lastmile_qr_scan", "ios": "https://dc.lft.to/lastmile_qr_scan"}, "bike_id": "d63dfd5de882accb3d4e1f946561481f", "lon": -77.021571}, {"is_reserved": 0, "fusion_lon": 0.0, "fusion_lat": 0.0, "name": "c33581536ef8283e113709f82a634816", "type": "electric_scooter", "is_disabled": 0, "lat": 38.91391016666667, "rental_uris": {"android": "https://dc.lft.to/lastmile_qr_scan", "ios": "https://dc.lft.to/lastmile_qr_scan"}, "bike_id": "c33581536ef8283e113709f82a634816", "lon": -77.046121}, {"is_reserved": 0, "fusion_lon": 0.0, "fusion_lat": 0.0, "name": "0e2fb6db6bc812347bdbd190b31297e9", "type": "electric_bike", "is_disabled": 0, "lat": 38.819122666666665, "rental_uris": {"android": "https://dc.lft.to/lastmile_qr_scan", "ios": "https://dc.lft.to/lastmile_qr_scan"}, "bike_id": "0e2fb6db6bc812347bdbd190b31297e9", "lon": -76.999077}, {"is_reserved": 0, "fusion_lon": 0.0, "fusion_lat": 0.0, "name": "1cde4280e9b74f6871c9e8341895c688", "type": "electric_scooter", "is_disabled": 0, "lat": 38.877325166666665, "rental_uris": {"android": "https://dc.lft.to/lastmile_qr_scan", "ios": "https://dc.lft.to/lastmile_qr_scan"}, "bike_id": "1cde4280e9b74f6871c9e8341895c688", "lon": -77.00593116666667}, {"is_reserved": 0, "fusion_lon": 0.0, "fusion_lat": 0.0, "name": "7a77b6efccebaca2a8daccc52eac4606", "type": "electric_scooter", "is_disabled": 0, "lat": 38.89239666666667, "rental_uris": {"android": "https://dc.lft.to/lastmile_qr_scan", "ios": "https://dc.lft.to/lastmile_qr_scan"}, "bike_id": "7a77b6efccebaca2a8daccc52eac4606", "lon": -77.032089}, {"is_reserved": 0, "fusion_lon": 0.0, "fusion_lat": 0.0, "name": "1dd5b4d43db9ce7fc653be9dae8b204d", "type": "electric_scooter", "is_disabled": 0, "lat": 38.921354666666666, "rental_uris": {"android": "https://dc.lft.to/lastmile_qr_scan", "ios": "https://dc.lft.to/lastmile_qr_scan"}, "bike_id": "1dd5b4d43db9ce7fc653be9dae8b204d", "lon": -77.00402283333334}, {"is_reserved": 0, "fusion_lon": 0.0, "fusion_lat": 0.0, "name": "204cc9e575b6dfbcd01d1220bf7b9a22", "type": "electric_scooter", "is_disabled": 0, "lat": 38.900513333333336, "rental_uris": {"android": "https://dc.lft.to/lastmile_qr_scan", "ios": "https://dc.lft.to/lastmile_qr_scan"}, "bike_id": "204cc9e575b6dfbcd01d1220bf7b9a22", "lon": -77.04324383333334}, {"is_reserved": 0, "fusion_lon": 0.0, "fusion_lat": 0.0, "name": "3183d13ec0229c6f42d5d69af94157c0", "type": "electric_scooter", "is_disabled": 0, "lat": 38.903371166666666, "rental_uris": {"android": "https://dc.lft.to/lastmile_qr_scan", "ios": "https://dc.lft.to/lastmile_qr_scan"}, "bike_id": "3183d13ec0229c6f42d5d69af94157c0", "lon": -76.9758215}, {"is_reserved": 0, "fusion_lon": 0.0, "fusion_lat": 0.0, "name": "ad0620cf97aea14297500c05a67ff7d9", "type": "electric_scooter", "is_disabled": 0, "lat": 38.8992905, "rental_uris": {"android": "https://dc.lft.to/lastmile_qr_scan", "ios": "https://dc.lft.to/lastmile_qr_scan"}, "bike_id": "ad0620cf97aea14297500c05a67ff7d9", "lon": -76.9457305}, {"is_reserved": 0, "fusion_lon": 0.0, "fusion_lat": 0.0, "name": "f3a665a4197656f64f23fd2e2c838d3c", "type": "electric_scooter", "is_disabled": 0, "lat": 38.899165333333336, "rental_uris": {"android": "https://dc.lft.to/lastmile_qr_scan", "ios": "https://dc.lft.to/lastmile_qr_scan"}, "bike_id": "f3a665a4197656f64f23fd2e2c838d3c", "lon": -76.93381933333333}, {"is_reserved": 0, "fusion_lon": 0.0, "fusion_lat": 0.0, "name": "81a95ee17dd9f69698ac1df16ade5116", "type": "electric_bike", "is_disabled": 0, "lat": 38.85429366666666, "rental_uris": {"android": "https://dc.lft.to/lastmile_qr_scan", "ios": "https://dc.lft.to/lastmile_qr_scan"}, "bike_id": "81a95ee17dd9f69698ac1df16ade5116", "lon": -77.12080116666667}, {"is_reserved": 0, "fusion_lon": 0.0, "fusion_lat": 0.0, "name": "01d6592720e853b8c2348c3b9d2afd0f", "type": "electric_scooter", "is_disabled": 0, "lat": 38.87383066666666, "rental_uris": {"android": "https://dc.lft.to/lastmile_qr_scan", "ios": "https://dc.lft.to/lastmile_qr_scan"}, "bike_id": "01d6592720e853b8c2348c3b9d2afd0f", "lon": -77.000059}, {"is_reserved": 0, "fusion_lon": 0.0, "fusion_lat": 0.0, "name": "b588280ea9d7a6d84a9d931d3a4f9271", "type": "electric_scooter", "is_disabled": 0, "lat": 38.893897833333334, "rental_uris": {"android": "https://dc.lft.to/lastmile_qr_scan", "ios": "https://dc.lft.to/lastmile_qr_scan"}, "bike_id": "b588280ea9d7a6d84a9d931d3a4f9271", "lon": -77.02250866666667}, {"is_reserved": 0, "fusion_lon": 0.0, "fusion_lat": 0.0, "name": "740756c3100e0c1337fbafb9be17a6ee", "type": "electric_scooter", "is_disabled": 0, "lat": 38.912630166666666, "rental_uris": {"android": "https://dc.lft.to/lastmile_qr_scan", "ios": "https://dc.lft.to/lastmile_qr_scan"}, "bike_id": "740756c3100e0c1337fbafb9be17a6ee", "lon": -77.07345283333333}, {"is_reserved": 0, "fusion_lon": 0.0, "fusion_lat": 0.0, "name": "c30a79840e15d0550c38e627eb5fe54d", "type": "electric_scooter", "is_disabled": 0, "lat": 38.917076333333334, "rental_uris": {"android": "https://dc.lft.to/lastmile_qr_scan", "ios": "https://dc.lft.to/lastmile_qr_scan"}, "bike_id": "c30a79840e15d0550c38e627eb5fe54d", "lon": -77.02291866666667}, {"is_reserved": 0, "fusion_lon": 0.0, "fusion_lat": 0.0, "name": "1e643e5ba33cfd3d3af7cd4ab3f7be9c", "type": "electric_scooter", "is_disabled": 0, "lat": 38.908152666666666, "rental_uris": {"android": "https://dc.lft.to/lastmile_qr_scan", "ios": "https://dc.lft.to/lastmile_qr_scan"}, "bike_id": "1e643e5ba33cfd3d3af7cd4ab3f7be9c", "lon": -77.03450133333334}, {"is_reserved": 0, "fusion_lon": 0.0, "fusion_lat": 0.0, "name": "9659346fdbb663a14b0cb0e45d6ebc38", "type": "electric_scooter", "is_disabled": 0, "lat": 38.902612, "rental_uris": {"android": "https://dc.lft.to/lastmile_qr_scan", "ios": "https://dc.lft.to/lastmile_qr_scan"}, "bike_id": "9659346fdbb663a14b0cb0e45d6ebc38", "lon": -77.03338166666667}, {"is_reserved": 0, "fusion_lon": 0.0, "fusion_lat": 0.0, "name": "541ccf88e762f889697abb7bd1eb8887", "type": "electric_scooter", "is_disabled": 0, "lat": 38.89865016666667, "rental_uris": {"android": "https://dc.lft.to/lastmile_qr_scan", "ios": "https://dc.lft.to/lastmile_qr_scan"}, "bike_id": "541ccf88e762f889697abb7bd1eb8887", "lon": -77.03358333333334}, {"is_reserved": 0, "fusion_lon": 0.0, "fusion_lat": 0.0, "name": "1245ab0e544103fdcb509402fb99efbc", "type": "electric_bike", "is_disabled": 0, "lat": 38.893506333333335, "rental_uris": {"android": "https://dc.lft.to/lastmile_qr_scan", "ios": "https://dc.lft.to/lastmile_qr_scan"}, "bike_id": "1245ab0e544103fdcb509402fb99efbc", "lon": -77.18741133333333}, {"is_reserved": 0, "fusion_lon": 0.0, "fusion_lat": 0.0, "name": "8c8e8c0c6c6391a27965032160d71596", "type": "electric_scooter", "is_disabled": 0, "lat": 38.897222166666666, "rental_uris": {"android": "https://dc.lft.to/lastmile_qr_scan", "ios": "https://dc.lft.to/lastmile_qr_scan"}, "bike_id": "8c8e8c0c6c6391a27965032160d71596", "lon": -77.0470755}, {"is_reserved": 0, "fusion_lon": 0.0, "fusion_lat": 0.0, "name": "e6b153ad33a6a3d1a3c14e53179d60ea", "type": "electric_scooter", "is_disabled": 0, "lat": 38.919170666666666, "rental_uris": {"android": "https://dc.lft.to/lastmile_qr_scan", "ios": "https://dc.lft.to/lastmile_qr_scan"}, "bike_id": "e6b153ad33a6a3d1a3c14e53179d60ea", "lon": -77.02167316666667}, {"is_reserved": 0, "fusion_lon": 0.0, "fusion_lat": 0.0, "name": "ceb80f0df54076a59bd29f9056b64565", "type": "electric_scooter", "is_disabled": 0, "lat": 38.93241183333333, "rental_uris": {"android": "https://dc.lft.to/lastmile_qr_scan", "ios": "https://dc.lft.to/lastmile_qr_scan"}, "bike_id": "ceb80f0df54076a59bd29f9056b64565", "lon": -77.03853816666667}, {"is_reserved": 0, "fusion_lon": 0.0, "fusion_lat": 0.0, "name": "d541bcf60ba5e4474e61a34b658eb82e", "type": "electric_scooter", "is_disabled": 0, "lat": 38.8990255, "rental_uris": {"android": "https://dc.lft.to/lastmile_qr_scan", "ios": "https://dc.lft.to/lastmile_qr_scan"}, "bike_id": "d541bcf60ba5e4474e61a34b658eb82e", "lon": -76.9916105}, {"is_reserved": 0, "fusion_lon": 0.0, "fusion_lat": 0.0, "name": "1950209a6888e4a6a9b79c8bf00ba3a3", "type": "electric_scooter", "is_disabled": 0, "lat": 38.90718916666667, "rental_uris": {"android": "https://dc.lft.to/lastmile_qr_scan", "ios": "https://dc.lft.to/lastmile_qr_scan"}, "bike_id": "1950209a6888e4a6a9b79c8bf00ba3a3", "lon": -77.04967783333333}, {"is_reserved": 0, "fusion_lon": 0.0, "fusion_lat": 0.0, "name": "68816f4fe2009119845aefc0ac0da25e", "type": "electric_scooter", "is_disabled": 0, "lat": 38.919838666666664, "rental_uris": {"android": "https://dc.lft.to/lastmile_qr_scan", "ios": "https://dc.lft.to/lastmile_qr_scan"}, "bike_id": "68816f4fe2009119845aefc0ac0da25e", "lon": -77.022038}, {"is_reserved": 0, "fusion_lon": 0.0, "fusion_lat": 0.0, "name": "8a6408315f3e5f8f6151b08fd70534ef", "type": "electric_scooter", "is_disabled": 0, "lat": 38.932348166666664, "rental_uris": {"android": "https://dc.lft.to/lastmile_qr_scan", "ios": "https://dc.lft.to/lastmile_qr_scan"}, "bike_id": "8a6408315f3e5f8f6151b08fd70534ef", "lon": -77.034175}, {"is_reserved": 0, "fusion_lon": 0.0, "fusion_lat": 0.0, "name": "a2b1a9e7e80edb4d82114a12c674ba0f", "type": "electric_scooter", "is_disabled": 0, "lat": 38.89789666666667, "rental_uris": {"android": "https://dc.lft.to/lastmile_qr_scan", "ios": "https://dc.lft.to/lastmile_qr_scan"}, "bike_id": "a2b1a9e7e80edb4d82114a12c674ba0f", "lon": -77.04500083333333}, {"is_reserved": 0, "fusion_lon": 0.0, "fusion_lat": 0.0, "name": "bf5a46da417d7a77f40d13f547f159ed", "type": "electric_scooter", "is_disabled": 0, "lat": 38.9561905, "rental_uris": {"android": "https://dc.lft.to/lastmile_qr_scan", "ios": "https://dc.lft.to/lastmile_qr_scan"}, "bike_id": "bf5a46da417d7a77f40d13f547f159ed", "lon": -77.024584}, {"is_reserved": 0, "fusion_lon": 0.0, "fusion_lat": 0.0, "name": "2aba74aec5b9d748cf96a5e5b665da1f", "type": "electric_scooter", "is_disabled": 0, "lat": 38.913988833333335, "rental_uris": {"android": "https://dc.lft.to/lastmile_qr_scan", "ios": "https://dc.lft.to/lastmile_qr_scan"}, "bike_id": "2aba74aec5b9d748cf96a5e5b665da1f", "lon": -77.021867}, {"is_reserved": 0, "fusion_lon": 0.0, "fusion_lat": 0.0, "name": "1f815abe148f2bacc4018343b8b54c91", "type": "electric_bike", "is_disabled": 0, "lat": 38.94665366666667, "rental_uris": {"android": "https://dc.lft.to/lastmile_qr_scan", "ios": "https://dc.lft.to/lastmile_qr_scan"}, "bike_id": "1f815abe148f2bacc4018343b8b54c91", "lon": -76.983112}, {"is_reserved": 0, "fusion_lon": 0.0, "fusion_lat": 0.0, "name": "51a759dc859838ce8361f23a22fd527f", "type": "electric_scooter", "is_disabled": 0, "lat": 38.91735333333333, "rental_uris": {"android": "https://dc.lft.to/lastmile_qr_scan", "ios": "https://dc.lft.to/lastmile_qr_scan"}, "bike_id": "51a759dc859838ce8361f23a22fd527f", "lon": -77.03644916666667}, {"is_reserved": 0, "fusion_lon": 0.0, "fusion_lat": 0.0, "name": "c952d885efc37dc1a03016dfe513c5eb", "type": "electric_scooter", "is_disabled": 0, "lat": 38.909744, "rental_uris": {"android": "https://dc.lft.to/lastmile_qr_scan", "ios": "https://dc.lft.to/lastmile_qr_scan"}, "bike_id": "c952d885efc37dc1a03016dfe513c5eb", "lon": -77.0341125}, {"is_reserved": 0, "fusion_lon": 0.0, "fusion_lat": 0.0, "name": "973f08f5a5688d9a627dde2578471cc1", "type": "electric_bike", "is_disabled": 0, "lat": 38.85207183333333, "rental_uris": {"android": "https://dc.lft.to/lastmile_qr_scan", "ios": "https://dc.lft.to/lastmile_qr_scan"}, "bike_id": "973f08f5a5688d9a627dde2578471cc1", "lon": -77.10127833333334}, {"is_reserved": 0, "fusion_lon": 0.0, "fusion_lat": 0.0, "name": "bef07373a3d3908d95da2c7d88ea786b", "type": "electric_scooter", "is_disabled": 0, "lat": 38.8991965, "rental_uris": {"android": "https://dc.lft.to/lastmile_qr_scan", "ios": "https://dc.lft.to/lastmile_qr_scan"}, "bike_id": "bef07373a3d3908d95da2c7d88ea786b", "lon": -76.9336265}, {"is_reserved": 0, "fusion_lon": 0.0, "fusion_lat": 0.0, "name": "1d646b3c030839f91c2119d76ff51ec3", "type": "electric_bike", "is_disabled": 0, "lat": 38.9296755, "rental_uris": {"android": "https://dc.lft.to/lastmile_qr_scan", "ios": "https://dc.lft.to/lastmile_qr_scan"}, "bike_id": "1d646b3c030839f91c2119d76ff51ec3", "lon": -77.1856585}, {"is_reserved": 0, "fusion_lon": 0.0, "fusion_lat": 0.0, "name": "4ae1e85b4616e7c98240cc9f15cea942", "type": "electric_scooter", "is_disabled": 0, "lat": 38.907443666666666, "rental_uris": {"android": "https://dc.lft.to/lastmile_qr_scan", "ios": "https://dc.lft.to/lastmile_qr_scan"}, "bike_id": "4ae1e85b4616e7c98240cc9f15cea942", "lon": -77.041496}, {"is_reserved": 0, "fusion_lon": 0.0, "fusion_lat": 0.0, "name": "75da2f7facf5123c9b417045e3c95756", "type": "electric_scooter", "is_disabled": 0, "lat": 38.88609683333333, "rental_uris": {"android": "https://dc.lft.to/lastmile_qr_scan", "ios": "https://dc.lft.to/lastmile_qr_scan"}, "bike_id": "75da2f7facf5123c9b417045e3c95756", "lon": -76.9950875}, {"is_reserved": 0, "fusion_lon": 0.0, "fusion_lat": 0.0, "name": "fbcf864e8f21a2cbf9aa60ebf8d0c7a9", "type": "electric_scooter", "is_disabled": 0, "lat": 38.917918, "rental_uris": {"android": "https://dc.lft.to/lastmile_qr_scan", "ios": "https://dc.lft.to/lastmile_qr_scan"}, "bike_id": "fbcf864e8f21a2cbf9aa60ebf8d0c7a9", "lon": -77.03469866666667}, {"is_reserved": 0, "fusion_lon": 0.0, "fusion_lat": 0.0, "name": "101fa54853a7fbe473237351f8224109", "type": "electric_scooter", "is_disabled": 0, "lat": 38.93405033333333, "rental_uris": {"android": "https://dc.lft.to/lastmile_qr_scan", "ios": "https://dc.lft.to/lastmile_qr_scan"}, "bike_id": "101fa54853a7fbe473237351f8224109", "lon": -77.03992766666667}, {"is_reserved": 0, "fusion_lon": 0.0, "fusion_lat": 0.0, "name": "46ffa8ba34b7e0603860fe8000b5d283", "type": "electric_scooter", "is_disabled": 0, "lat": 38.925044, "rental_uris": {"android": "https://dc.lft.to/lastmile_qr_scan", "ios": "https://dc.lft.to/lastmile_qr_scan"}, "bike_id": "46ffa8ba34b7e0603860fe8000b5d283", "lon": -77.03877616666666}, {"is_reserved": 0, "fusion_lon": 0.0, "fusion_lat": 0.0, "name": "806362f894c32bebae140c1e201dd7c8", "type": "electric_scooter", "is_disabled": 0, "lat": 38.8923225, "rental_uris": {"android": "https://dc.lft.to/lastmile_qr_scan", "ios": "https://dc.lft.to/lastmile_qr_scan"}, "bike_id": "806362f894c32bebae140c1e201dd7c8", "lon": -77.05003116666667}, {"is_reserved": 0, "fusion_lon": 0.0, "fusion_lat": 0.0, "name": "8c8546ef7cc08a36d6a15c500a4b640e", "type": "electric_bike", "is_disabled": 0, "lat": 38.95440716666667, "rental_uris": {"android": "https://dc.lft.to/lastmile_qr_scan", "ios": "https://dc.lft.to/lastmile_qr_scan"}, "bike_id": "8c8546ef7cc08a36d6a15c500a4b640e", "lon": -76.989155}, {"is_reserved": 0, "fusion_lon": 0.0, "fusion_lat": 0.0, "name": "d1520415b877d46c94c0af37a7776432", "type": "electric_bike", "is_disabled": 0, "lat": 38.953307, "rental_uris": {"android": "https://dc.lft.to/lastmile_qr_scan", "ios": "https://dc.lft.to/lastmile_qr_scan"}, "bike_id": "d1520415b877d46c94c0af37a7776432", "lon": -76.98252683333334}, {"is_reserved": 0, "fusion_lon": 0.0, "fusion_lat": 0.0, "name": "a5c9bc4e7f00a19a8271fffbd10b23be", "type": "electric_scooter", "is_disabled": 0, "lat": 38.90229866666667, "rental_uris": {"android": "https://dc.lft.to/lastmile_qr_scan", "ios": "https://dc.lft.to/lastmile_qr_scan"}, "bike_id": "a5c9bc4e7f00a19a8271fffbd10b23be", "lon": -77.04364433333333}, {"is_reserved": 0, "fusion_lon": 0.0, "fusion_lat": 0.0, "name": "b57bac90acf0e28035b2150938e2ba99", "type": "electric_bike", "is_disabled": 0, "lat": 38.931748166666665, "rental_uris": {"android": "https://dc.lft.to/lastmile_qr_scan", "ios": "https://dc.lft.to/lastmile_qr_scan"}, "bike_id": "b57bac90acf0e28035b2150938e2ba99", "lon": -76.88409166666666}, {"is_reserved": 0, "fusion_lon": 0.0, "fusion_lat": 0.0, "name": "5d7c88cc48f292c5e18257706fd093af", "type": "electric_bike", "is_disabled": 0, "lat": 39.055041833333334, "rental_uris": {"android": "https://dc.lft.to/lastmile_qr_scan", "ios": "https://dc.lft.to/lastmile_qr_scan"}, "bike_id": "5d7c88cc48f292c5e18257706fd093af", "lon": -77.04652966666667}, {"is_reserved": 0, "fusion_lon": 0.0, "fusion_lat": 0.0, "name": "95dd0bdfb0929f009651eec15ac02f74", "type": "electric_bike", "is_disabled": 0, "lat": 39.04308, "rental_uris": {"android": "https://dc.lft.to/lastmile_qr_scan", "ios": "https://dc.lft.to/lastmile_qr_scan"}, "bike_id": "95dd0bdfb0929f009651eec15ac02f74", "lon": -77.05158766666666}, {"is_reserved": 0, "fusion_lon": 0.0, "fusion_lat": 0.0, "name": "f2cdabbc8c20b0cfceeddf340d7c25be", "type": "electric_scooter", "is_disabled": 0, "lat": 38.905995833333336, "rental_uris": {"android": "https://dc.lft.to/lastmile_qr_scan", "ios": "https://dc.lft.to/lastmile_qr_scan"}, "bike_id": "f2cdabbc8c20b0cfceeddf340d7c25be", "lon": -77.064234}, {"is_reserved": 0, "fusion_lon": 0.0, "fusion_lat": 0.0, "name": "9fc71e92db033e4af6574701a0d0014b", "type": "electric_scooter", "is_disabled": 0, "lat": 38.89604166666667, "rental_uris": {"android": "https://dc.lft.to/lastmile_qr_scan", "ios": "https://dc.lft.to/lastmile_qr_scan"}, "bike_id": "9fc71e92db033e4af6574701a0d0014b", "lon": -76.9997055}, {"is_reserved": 0, "fusion_lon": 0.0, "fusion_lat": 0.0, "name": "bf52cb57e102940dc74665556c4fdbed", "type": "electric_scooter", "is_disabled": 0, "lat": 38.92041483333333, "rental_uris": {"android": "https://dc.lft.to/lastmile_qr_scan", "ios": "https://dc.lft.to/lastmile_qr_scan"}, "bike_id": "bf52cb57e102940dc74665556c4fdbed", "lon": -76.997418}, {"is_reserved": 0, "fusion_lon": 0.0, "fusion_lat": 0.0, "name": "f5613c0a09ee6bd097b7b8400e281bfd", "type": "electric_scooter", "is_disabled": 0, "lat": 38.92122833333333, "rental_uris": {"android": "https://dc.lft.to/lastmile_qr_scan", "ios": "https://dc.lft.to/lastmile_qr_scan"}, "bike_id": "f5613c0a09ee6bd097b7b8400e281bfd", "lon": -77.03666983333333}, {"is_reserved": 0, "fusion_lon": 0.0, "fusion_lat": 0.0, "name": "1f15114f95e8c59a1430d3dcb94bfc67", "type": "electric_scooter", "is_disabled": 0, "lat": 38.89600316666667, "rental_uris": {"android": "https://dc.lft.to/lastmile_qr_scan", "ios": "https://dc.lft.to/lastmile_qr_scan"}, "bike_id": "1f15114f95e8c59a1430d3dcb94bfc67", "lon": -77.01145416666667}, {"is_reserved": 0, "fusion_lon": 0.0, "fusion_lat": 0.0, "name": "9b349fbdeadf8f241a80f6c587be1c89", "type": "electric_scooter", "is_disabled": 0, "lat": 38.860587, "rental_uris": {"android": "https://dc.lft.to/lastmile_qr_scan", "ios": "https://dc.lft.to/lastmile_qr_scan"}, "bike_id": "9b349fbdeadf8f241a80f6c587be1c89", "lon": -76.985054}, {"is_reserved": 0, "fusion_lon": 0.0, "fusion_lat": 0.0, "name": "0e1abb06f5b2fa2948a5bbf7d078e260", "type": "electric_scooter", "is_disabled": 0, "lat": 38.91535066666667, "rental_uris": {"android": "https://dc.lft.to/lastmile_qr_scan", "ios": "https://dc.lft.to/lastmile_qr_scan"}, "bike_id": "0e1abb06f5b2fa2948a5bbf7d078e260", "lon": -76.97057383333333}, {"is_reserved": 0, "fusion_lon": 0.0, "fusion_lat": 0.0, "name": "1e0721a12720d1d933e1f3f53c95566c", "type": "electric_scooter", "is_disabled": 0, "lat": 38.90283783333334, "rental_uris": {"android": "https://dc.lft.to/lastmile_qr_scan", "ios": "https://dc.lft.to/lastmile_qr_scan"}, "bike_id": "1e0721a12720d1d933e1f3f53c95566c", "lon": -77.0227205}, {"is_reserved": 0, "fusion_lon": 0.0, "fusion_lat": 0.0, "name": "841a0e3d64ae7237c41373d66076720a", "type": "electric_scooter", "is_disabled": 0, "lat": 38.924366, "rental_uris": {"android": "https://dc.lft.to/lastmile_qr_scan", "ios": "https://dc.lft.to/lastmile_qr_scan"}, "bike_id": "841a0e3d64ae7237c41373d66076720a", "lon": -77.0521555}, {"is_reserved": 0, "fusion_lon": 0.0, "fusion_lat": 0.0, "name": "30430459def5ef7764212458d2d77367", "type": "electric_scooter", "is_disabled": 0, "lat": 38.907308, "rental_uris": {"android": "https://dc.lft.to/lastmile_qr_scan", "ios": "https://dc.lft.to/lastmile_qr_scan"}, "bike_id": "30430459def5ef7764212458d2d77367", "lon": -76.98695583333334}, {"is_reserved": 0, "fusion_lon": 0.0, "fusion_lat": 0.0, "name": "f79a8a37238237d1f1e2054ef0a97142", "type": "electric_scooter", "is_disabled": 0, "lat": 38.917093, "rental_uris": {"android": "https://dc.lft.to/lastmile_qr_scan", "ios": "https://dc.lft.to/lastmile_qr_scan"}, "bike_id": "f79a8a37238237d1f1e2054ef0a97142", "lon": -77.02891516666666}, {"is_reserved": 0, "fusion_lon": 0.0, "fusion_lat": 0.0, "name": "ff3d5b6dbd52f4819efde90c35172644", "type": "electric_scooter", "is_disabled": 0, "lat": 38.90368466666666, "rental_uris": {"android": "https://dc.lft.to/lastmile_qr_scan", "ios": "https://dc.lft.to/lastmile_qr_scan"}, "bike_id": "ff3d5b6dbd52f4819efde90c35172644", "lon": -76.99708683333333}, {"is_reserved": 0, "fusion_lon": 0.0, "fusion_lat": 0.0, "name": "7a95fecd53e56dfaa2602072c3a62eda", "type": "electric_scooter", "is_disabled": 0, "lat": 38.898816333333336, "rental_uris": {"android": "https://dc.lft.to/lastmile_qr_scan", "ios": "https://dc.lft.to/lastmile_qr_scan"}, "bike_id": "7a95fecd53e56dfaa2602072c3a62eda", "lon": -77.03277066666666}, {"is_reserved": 0, "fusion_lon": 0.0, "fusion_lat": 0.0, "name": "6a9ffb30a21029466e95a2f0a6136e60", "type": "electric_scooter", "is_disabled": 0, "lat": 38.937085333333336, "rental_uris": {"android": "https://dc.lft.to/lastmile_qr_scan", "ios": "https://dc.lft.to/lastmile_qr_scan"}, "bike_id": "6a9ffb30a21029466e95a2f0a6136e60", "lon": -77.02936016666666}, {"is_reserved": 0, "fusion_lon": 0.0, "fusion_lat": 0.0, "name": "cc2c358bfc9586cba68e86b41869735a", "type": "electric_scooter", "is_disabled": 0, "lat": 38.925855, "rental_uris": {"android": "https://dc.lft.to/lastmile_qr_scan", "ios": "https://dc.lft.to/lastmile_qr_scan"}, "bike_id": "cc2c358bfc9586cba68e86b41869735a", "lon": -77.03983916666667}, {"is_reserved": 0, "fusion_lon": 0.0, "fusion_lat": 0.0, "name": "d42ca49c9b52ce99b861e7f59a189341", "type": "electric_scooter", "is_disabled": 0, "lat": 38.9234725, "rental_uris": {"android": "https://dc.lft.to/lastmile_qr_scan", "ios": "https://dc.lft.to/lastmile_qr_scan"}, "bike_id": "d42ca49c9b52ce99b861e7f59a189341", "lon": -77.05124716666667}, {"is_reserved": 0, "fusion_lon": 0.0, "fusion_lat": 0.0, "name": "cff135a4abb594afc9c23e732bf3d25a", "type": "electric_scooter", "is_disabled": 0, "lat": 38.9211505, "rental_uris": {"android": "https://dc.lft.to/lastmile_qr_scan", "ios": "https://dc.lft.to/lastmile_qr_scan"}, "bike_id": "cff135a4abb594afc9c23e732bf3d25a", "lon": -77.03928416666666}, {"is_reserved": 0, "fusion_lon": 0.0, "fusion_lat": 0.0, "name": "e4f62b29834a61e1267c3f2e729cc449", "type": "electric_scooter", "is_disabled": 0, "lat": 38.900062166666665, "rental_uris": {"android": "https://dc.lft.to/lastmile_qr_scan", "ios": "https://dc.lft.to/lastmile_qr_scan"}, "bike_id": "e4f62b29834a61e1267c3f2e729cc449", "lon": -76.99624616666667}, {"is_reserved": 0, "fusion_lon": 0.0, "fusion_lat": 0.0, "name": "23b37695290e7d65ae2e28dbf5cd1ec5", "type": "electric_scooter", "is_disabled": 0, "lat": 38.887215833333336, "rental_uris": {"android": "https://dc.lft.to/lastmile_qr_scan", "ios": "https://dc.lft.to/lastmile_qr_scan"}, "bike_id": "23b37695290e7d65ae2e28dbf5cd1ec5", "lon": -77.0321095}, {"is_reserved": 0, "fusion_lon": 0.0, "fusion_lat": 0.0, "name": "7aa00fe42a8c6c7b13d038326dfa5e08", "type": "electric_scooter", "is_disabled": 0, "lat": 38.88732133333333, "rental_uris": {"android": "https://dc.lft.to/lastmile_qr_scan", "ios": "https://dc.lft.to/lastmile_qr_scan"}, "bike_id": "7aa00fe42a8c6c7b13d038326dfa5e08", "lon": -77.02825666666666}, {"is_reserved": 0, "fusion_lon": 0.0, "fusion_lat": 0.0, "name": "b1f0aaab178a7420159254f2cd47da3a", "type": "electric_scooter", "is_disabled": 0, "lat": 38.9118035, "rental_uris": {"android": "https://dc.lft.to/lastmile_qr_scan", "ios": "https://dc.lft.to/lastmile_qr_scan"}, "bike_id": "b1f0aaab178a7420159254f2cd47da3a", "lon": -77.00966083333333}, {"is_reserved": 0, "fusion_lon": 0.0, "fusion_lat": 0.0, "name": "fd5cc78e4eed7ea091053e0176a263f9", "type": "electric_scooter", "is_disabled": 0, "lat": 38.9095045, "rental_uris": {"android": "https://dc.lft.to/lastmile_qr_scan", "ios": "https://dc.lft.to/lastmile_qr_scan"}, "bike_id": "fd5cc78e4eed7ea091053e0176a263f9", "lon": -77.03207583333334}, {"is_reserved": 0, "fusion_lon": 0.0, "fusion_lat": 0.0, "name": "a645ef69210e99fa2c1c78a19d88eddf", "type": "electric_scooter", "is_disabled": 0, "lat": 38.93179933333333, "rental_uris": {"android": "https://dc.lft.to/lastmile_qr_scan", "ios": "https://dc.lft.to/lastmile_qr_scan"}, "bike_id": "a645ef69210e99fa2c1c78a19d88eddf", "lon": -77.03843683333334}, {"is_reserved": 0, "fusion_lon": 0.0, "fusion_lat": 0.0, "name": "a4c318f09a55fd43861a5ac1cc80500a", "type": "electric_bike", "is_disabled": 0, "lat": 38.8875425, "rental_uris": {"android": "https://dc.lft.to/lastmile_qr_scan", "ios": "https://dc.lft.to/lastmile_qr_scan"}, "bike_id": "a4c318f09a55fd43861a5ac1cc80500a", "lon": -76.94776166666666}, {"is_reserved": 0, "fusion_lon": 0.0, "fusion_lat": 0.0, "name": "87f924fc311e8d743d09a57bb49bfbea", "type": "electric_scooter", "is_disabled": 0, "lat": 38.926140833333335, "rental_uris": {"android": "https://dc.lft.to/lastmile_qr_scan", "ios": "https://dc.lft.to/lastmile_qr_scan"}, "bike_id": "87f924fc311e8d743d09a57bb49bfbea", "lon": -77.02159283333333}, {"is_reserved": 0, "fusion_lon": 0.0, "fusion_lat": 0.0, "name": "37187fd0f0e4ee53ff9b905ac38689f6", "type": "electric_scooter", "is_disabled": 0, "lat": 38.905890666666664, "rental_uris": {"android": "https://dc.lft.to/lastmile_qr_scan", "ios": "https://dc.lft.to/lastmile_qr_scan"}, "bike_id": "37187fd0f0e4ee53ff9b905ac38689f6", "lon": -77.038485}, {"is_reserved": 0, "fusion_lon": 0.0, "fusion_lat": 0.0, "name": "8a3f5c87d8893f1e23d566e39f5cf409", "type": "electric_scooter", "is_disabled": 0, "lat": 38.909640333333336, "rental_uris": {"android": "https://dc.lft.to/lastmile_qr_scan", "ios": "https://dc.lft.to/lastmile_qr_scan"}, "bike_id": "8a3f5c87d8893f1e23d566e39f5cf409", "lon": -77.03867133333334}, {"is_reserved": 0, "fusion_lon": 0.0, "fusion_lat": 0.0, "name": "dccdf65142d8a10fff511f9aa7e8aea8", "type": "electric_scooter", "is_disabled": 0, "lat": 38.88815866666667, "rental_uris": {"android": "https://dc.lft.to/lastmile_qr_scan", "ios": "https://dc.lft.to/lastmile_qr_scan"}, "bike_id": "dccdf65142d8a10fff511f9aa7e8aea8", "lon": -76.9334585}, {"is_reserved": 0, "fusion_lon": 0.0, "fusion_lat": 0.0, "name": "7d85b4425a5623ea20b33c11ff0fd0fe", "type": "electric_scooter", "is_disabled": 0, "lat": 38.92089983333334, "rental_uris": {"android": "https://dc.lft.to/lastmile_qr_scan", "ios": "https://dc.lft.to/lastmile_qr_scan"}, "bike_id": "7d85b4425a5623ea20b33c11ff0fd0fe", "lon": -77.0042705}, {"is_reserved": 0, "fusion_lon": 0.0, "fusion_lat": 0.0, "name": "9f3e770312bc1d377442cf0aac4215f8", "type": "electric_scooter", "is_disabled": 0, "lat": 38.916569333333335, "rental_uris": {"android": "https://dc.lft.to/lastmile_qr_scan", "ios": "https://dc.lft.to/lastmile_qr_scan"}, "bike_id": "9f3e770312bc1d377442cf0aac4215f8", "lon": -77.029741}, {"is_reserved": 0, "fusion_lon": 0.0, "fusion_lat": 0.0, "name": "27e0e86cdbcd03344dcd033803fadd9e", "type": "electric_scooter", "is_disabled": 0, "lat": 38.93064416666667, "rental_uris": {"android": "https://dc.lft.to/lastmile_qr_scan", "ios": "https://dc.lft.to/lastmile_qr_scan"}, "bike_id": "27e0e86cdbcd03344dcd033803fadd9e", "lon": -77.03818766666667}, {"is_reserved": 0, "fusion_lon": 0.0, "fusion_lat": 0.0, "name": "72ab4ddf2d4d912865388d2ad6fcf7c6", "type": "electric_scooter", "is_disabled": 0, "lat": 38.8986955, "rental_uris": {"android": "https://dc.lft.to/lastmile_qr_scan", "ios": "https://dc.lft.to/lastmile_qr_scan"}, "bike_id": "72ab4ddf2d4d912865388d2ad6fcf7c6", "lon": -76.94661883333333}, {"is_reserved": 0, "fusion_lon": 0.0, "fusion_lat": 0.0, "name": "c0dcfa7ec045ee9230532a31d45bef9f", "type": "electric_scooter", "is_disabled": 0, "lat": 38.9206675, "rental_uris": {"android": "https://dc.lft.to/lastmile_qr_scan", "ios": "https://dc.lft.to/lastmile_qr_scan"}, "bike_id": "c0dcfa7ec045ee9230532a31d45bef9f", "lon": -77.022456}, {"is_reserved": 0, "fusion_lon": 0.0, "fusion_lat": 0.0, "name": "03377d2a2aac9493a9e53bb7df7964aa", "type": "electric_scooter", "is_disabled": 0, "lat": 38.88578166666667, "rental_uris": {"android": "https://dc.lft.to/lastmile_qr_scan", "ios": "https://dc.lft.to/lastmile_qr_scan"}, "bike_id": "03377d2a2aac9493a9e53bb7df7964aa", "lon": -77.02008483333333}, {"is_reserved": 0, "fusion_lon": 0.0, "fusion_lat": 0.0, "name": "7383d6dd203e16691ec386165d0f4e54", "type": "electric_scooter", "is_disabled": 0, "lat": 38.92157666666667, "rental_uris": {"android": "https://dc.lft.to/lastmile_qr_scan", "ios": "https://dc.lft.to/lastmile_qr_scan"}, "bike_id": "7383d6dd203e16691ec386165d0f4e54", "lon": -77.03375083333333}, {"is_reserved": 0, "fusion_lon": 0.0, "fusion_lat": 0.0, "name": "39b70d0ac98f26c68461463a391e0479", "type": "electric_scooter", "is_disabled": 0, "lat": 38.9002465, "rental_uris": {"android": "https://dc.lft.to/lastmile_qr_scan", "ios": "https://dc.lft.to/lastmile_qr_scan"}, "bike_id": "39b70d0ac98f26c68461463a391e0479", "lon": -77.04335616666667}, {"is_reserved": 0, "fusion_lon": 0.0, "fusion_lat": 0.0, "name": "02564d2161e0be7d9c78ad857e7f9a74", "type": "electric_scooter", "is_disabled": 0, "lat": 38.916997, "rental_uris": {"android": "https://dc.lft.to/lastmile_qr_scan", "ios": "https://dc.lft.to/lastmile_qr_scan"}, "bike_id": "02564d2161e0be7d9c78ad857e7f9a74", "lon": -77.01169533333334}, {"is_reserved": 0, "fusion_lon": 0.0, "fusion_lat": 0.0, "name": "3f9e9e32bf8b52bafedc4683c32d8e3b", "type": "electric_scooter", "is_disabled": 0, "lat": 38.9031965, "rental_uris": {"android": "https://dc.lft.to/lastmile_qr_scan", "ios": "https://dc.lft.to/lastmile_qr_scan"}, "bike_id": "3f9e9e32bf8b52bafedc4683c32d8e3b", "lon": -77.03477766666667}, {"is_reserved": 0, "fusion_lon": 0.0, "fusion_lat": 0.0, "name": "b58a07a6fe8dbdbaf68fd3496103a00a", "type": "electric_scooter", "is_disabled": 0, "lat": 38.90380833333333, "rental_uris": {"android": "https://dc.lft.to/lastmile_qr_scan", "ios": "https://dc.lft.to/lastmile_qr_scan"}, "bike_id": "b58a07a6fe8dbdbaf68fd3496103a00a", "lon": -77.03848166666667}, {"is_reserved": 0, "fusion_lon": 0.0, "fusion_lat": 0.0, "name": "82c8aa41abccf308a501f8f42a6ab28e", "type": "electric_scooter", "is_disabled": 0, "lat": 38.93704483333333, "rental_uris": {"android": "https://dc.lft.to/lastmile_qr_scan", "ios": "https://dc.lft.to/lastmile_qr_scan"}, "bike_id": "82c8aa41abccf308a501f8f42a6ab28e", "lon": -77.02407633333333}, {"is_reserved": 0, "fusion_lon": 0.0, "fusion_lat": 0.0, "name": "ddef7fde9f091b1d846ebb67f63b72ee", "type": "electric_scooter", "is_disabled": 0, "lat": 38.90086733333333, "rental_uris": {"android": "https://dc.lft.to/lastmile_qr_scan", "ios": "https://dc.lft.to/lastmile_qr_scan"}, "bike_id": "ddef7fde9f091b1d846ebb67f63b72ee", "lon": -76.9936815}, {"is_reserved": 0, "fusion_lon": 0.0, "fusion_lat": 0.0, "name": "7234bcc22d7eb75f21c584f76971b3d1", "type": "electric_scooter", "is_disabled": 0, "lat": 38.891981666666666, "rental_uris": {"android": "https://dc.lft.to/lastmile_qr_scan", "ios": "https://dc.lft.to/lastmile_qr_scan"}, "bike_id": "7234bcc22d7eb75f21c584f76971b3d1", "lon": -77.00298016666666}, {"is_reserved": 0, "fusion_lon": 0.0, "fusion_lat": 0.0, "name": "f2bdc0909d2c7b2425c0ae175b68d29e", "type": "electric_scooter", "is_disabled": 0, "lat": 38.897479833333335, "rental_uris": {"android": "https://dc.lft.to/lastmile_qr_scan", "ios": "https://dc.lft.to/lastmile_qr_scan"}, "bike_id": "f2bdc0909d2c7b2425c0ae175b68d29e", "lon": -77.03338116666667}, {"is_reserved": 0, "fusion_lon": 0.0, "fusion_lat": 0.0, "name": "162384115eddaac6324d8307377919ae", "type": "electric_scooter", "is_disabled": 0, "lat": 38.905022, "rental_uris": {"android": "https://dc.lft.to/lastmile_qr_scan", "ios": "https://dc.lft.to/lastmile_qr_scan"}, "bike_id": "162384115eddaac6324d8307377919ae", "lon": -76.97429233333334}, {"is_reserved": 0, "fusion_lon": 0.0, "fusion_lat": 0.0, "name": "484b4582d5dac09bb37a2bc6b28b0dd7", "type": "electric_scooter", "is_disabled": 0, "lat": 38.9094795, "rental_uris": {"android": "https://dc.lft.to/lastmile_qr_scan", "ios": "https://dc.lft.to/lastmile_qr_scan"}, "bike_id": "484b4582d5dac09bb37a2bc6b28b0dd7", "lon": -77.032057}, {"is_reserved": 0, "fusion_lon": 0.0, "fusion_lat": 0.0, "name": "bf0d15070c958a0e56992955237afd05", "type": "electric_scooter", "is_disabled": 0, "lat": 38.91824116666667, "rental_uris": {"android": "https://dc.lft.to/lastmile_qr_scan", "ios": "https://dc.lft.to/lastmile_qr_scan"}, "bike_id": "bf0d15070c958a0e56992955237afd05", "lon": -77.03455933333333}, {"is_reserved": 0, "fusion_lon": 0.0, "fusion_lat": 0.0, "name": "ceaf06cc4e3c184e092f76fb851cb761", "type": "electric_scooter", "is_disabled": 0, "lat": 38.89510466666667, "rental_uris": {"android": "https://dc.lft.to/lastmile_qr_scan", "ios": "https://dc.lft.to/lastmile_qr_scan"}, "bike_id": "ceaf06cc4e3c184e092f76fb851cb761", "lon": -77.04681166666667}, {"is_reserved": 0, "fusion_lon": 0.0, "fusion_lat": 0.0, "name": "69a2cc7933a331878f8d5be40d8735fd", "type": "electric_scooter", "is_disabled": 0, "lat": 38.90042916666667, "rental_uris": {"android": "https://dc.lft.to/lastmile_qr_scan", "ios": "https://dc.lft.to/lastmile_qr_scan"}, "bike_id": "69a2cc7933a331878f8d5be40d8735fd", "lon": -77.0291125}, {"is_reserved": 0, "fusion_lon": 0.0, "fusion_lat": 0.0, "name": "af4b7d11d93a00b9c0f6ceb368646f28", "type": "electric_scooter", "is_disabled": 0, "lat": 38.932111666666664, "rental_uris": {"android": "https://dc.lft.to/lastmile_qr_scan", "ios": "https://dc.lft.to/lastmile_qr_scan"}, "bike_id": "af4b7d11d93a00b9c0f6ceb368646f28", "lon": -77.03269033333333}, {"is_reserved": 0, "fusion_lon": 0.0, "fusion_lat": 0.0, "name": "f107c3c6717736c5cb0f6fa5ea698b55", "type": "electric_scooter", "is_disabled": 0, "lat": 38.88534716666667, "rental_uris": {"android": "https://dc.lft.to/lastmile_qr_scan", "ios": "https://dc.lft.to/lastmile_qr_scan"}, "bike_id": "f107c3c6717736c5cb0f6fa5ea698b55", "lon": -76.98279016666666}, {"is_reserved": 0, "fusion_lon": 0.0, "fusion_lat": 0.0, "name": "76543d8c1c75d21f980c5c66d53d24e3", "type": "electric_scooter", "is_disabled": 0, "lat": 38.89733116666667, "rental_uris": {"android": "https://dc.lft.to/lastmile_qr_scan", "ios": "https://dc.lft.to/lastmile_qr_scan"}, "bike_id": "76543d8c1c75d21f980c5c66d53d24e3", "lon": -77.05579883333333}, {"is_reserved": 0, "fusion_lon": 0.0, "fusion_lat": 0.0, "name": "de60c529d4e35ec07c72e2901ed7c879", "type": "electric_scooter", "is_disabled": 0, "lat": 38.903682833333335, "rental_uris": {"android": "https://dc.lft.to/lastmile_qr_scan", "ios": "https://dc.lft.to/lastmile_qr_scan"}, "bike_id": "de60c529d4e35ec07c72e2901ed7c879", "lon": -77.0319455}, {"is_reserved": 0, "fusion_lon": 0.0, "fusion_lat": 0.0, "name": "86e09f80ccc5f4b360339ea80487837d", "type": "electric_bike", "is_disabled": 0, "lat": 38.89633466666667, "rental_uris": {"android": "https://dc.lft.to/lastmile_qr_scan", "ios": "https://dc.lft.to/lastmile_qr_scan"}, "bike_id": "86e09f80ccc5f4b360339ea80487837d", "lon": -76.9072975}, {"is_reserved": 0, "fusion_lon": 0.0, "fusion_lat": 0.0, "name": "c1006e4deff2139002c3efee66dc6074", "type": "electric_scooter", "is_disabled": 0, "lat": 38.920844833333334, "rental_uris": {"android": "https://dc.lft.to/lastmile_qr_scan", "ios": "https://dc.lft.to/lastmile_qr_scan"}, "bike_id": "c1006e4deff2139002c3efee66dc6074", "lon": -77.02407133333334}, {"is_reserved": 0, "fusion_lon": 0.0, "fusion_lat": 0.0, "name": "fced52df7edf7a82fcdbfe13a1f824e5", "type": "electric_scooter", "is_disabled": 0, "lat": 38.905594, "rental_uris": {"android": "https://dc.lft.to/lastmile_qr_scan", "ios": "https://dc.lft.to/lastmile_qr_scan"}, "bike_id": "fced52df7edf7a82fcdbfe13a1f824e5", "lon": -77.04335633333334}, {"is_reserved": 0, "fusion_lon": 0.0, "fusion_lat": 0.0, "name": "ae5bfbe3ed37029653d0edcc8f2a1107", "type": "electric_scooter", "is_disabled": 0, "lat": 38.90578083333333, "rental_uris": {"android": "https://dc.lft.to/lastmile_qr_scan", "ios": "https://dc.lft.to/lastmile_qr_scan"}, "bike_id": "ae5bfbe3ed37029653d0edcc8f2a1107", "lon": -77.03257533333333}, {"is_reserved": 0, "fusion_lon": 0.0, "fusion_lat": 0.0, "name": "37d1439de9ab2f3d528e354748d49b8f", "type": "electric_scooter", "is_disabled": 0, "lat": 38.91030383333333, "rental_uris": {"android": "https://dc.lft.to/lastmile_qr_scan", "ios": "https://dc.lft.to/lastmile_qr_scan"}, "bike_id": "37d1439de9ab2f3d528e354748d49b8f", "lon": -77.03439583333333}, {"is_reserved": 0, "fusion_lon": 0.0, "fusion_lat": 0.0, "name": "f3a491b9ff4405de53fa2aa17af35b13", "type": "electric_scooter", "is_disabled": 0, "lat": 38.913298, "rental_uris": {"android": "https://dc.lft.to/lastmile_qr_scan", "ios": "https://dc.lft.to/lastmile_qr_scan"}, "bike_id": "f3a491b9ff4405de53fa2aa17af35b13", "lon": -77.02577283333333}, {"is_reserved": 0, "fusion_lon": 0.0, "fusion_lat": 0.0, "name": "c9e1185044e8d9ff0a7b7631c002740d", "type": "electric_scooter", "is_disabled": 0, "lat": 38.922624166666665, "rental_uris": {"android": "https://dc.lft.to/lastmile_qr_scan", "ios": "https://dc.lft.to/lastmile_qr_scan"}, "bike_id": "c9e1185044e8d9ff0a7b7631c002740d", "lon": -77.042858}, {"is_reserved": 0, "fusion_lon": 0.0, "fusion_lat": 0.0, "name": "acbd18aaa451b8e6b01bf03600b43fcf", "type": "electric_scooter", "is_disabled": 0, "lat": 38.918884, "rental_uris": {"android": "https://dc.lft.to/lastmile_qr_scan", "ios": "https://dc.lft.to/lastmile_qr_scan"}, "bike_id": "acbd18aaa451b8e6b01bf03600b43fcf", "lon": -77.02967016666666}, {"is_reserved": 0, "fusion_lon": 0.0, "fusion_lat": 0.0, "name": "e9f0e81d16faf0b0f9885b00864e7ac8", "type": "electric_bike", "is_disabled": 0, "lat": 39.05634533333333, "rental_uris": {"android": "https://dc.lft.to/lastmile_qr_scan", "ios": "https://dc.lft.to/lastmile_qr_scan"}, "bike_id": "e9f0e81d16faf0b0f9885b00864e7ac8", "lon": -77.12526833333334}, {"is_reserved": 0, "fusion_lon": 0.0, "fusion_lat": 0.0, "name": "5c19da875528d2a025925892b12e92fb", "type": "electric_scooter", "is_disabled": 0, "lat": 38.92181716666666, "rental_uris": {"android": "https://dc.lft.to/lastmile_qr_scan", "ios": "https://dc.lft.to/lastmile_qr_scan"}, "bike_id": "5c19da875528d2a025925892b12e92fb", "lon": -77.0210135}, {"is_reserved": 0, "fusion_lon": 0.0, "fusion_lat": 0.0, "name": "1a726d4132e21fbc8f0f3807b31c6ed6", "type": "electric_scooter", "is_disabled": 0, "lat": 38.8950155, "rental_uris": {"android": "https://dc.lft.to/lastmile_qr_scan", "ios": "https://dc.lft.to/lastmile_qr_scan"}, "bike_id": "1a726d4132e21fbc8f0f3807b31c6ed6", "lon": -76.93475316666667}, {"is_reserved": 0, "fusion_lon": 0.0, "fusion_lat": 0.0, "name": "16e157e6f0ced3aee5fc495dc30d7ca8", "type": "electric_scooter", "is_disabled": 0, "lat": 38.92287866666667, "rental_uris": {"android": "https://dc.lft.to/lastmile_qr_scan", "ios": "https://dc.lft.to/lastmile_qr_scan"}, "bike_id": "16e157e6f0ced3aee5fc495dc30d7ca8", "lon": -77.0427655}, {"is_reserved": 0, "fusion_lon": 0.0, "fusion_lat": 0.0, "name": "bd054b8e568623a171200daddcb7ffdd", "type": "electric_scooter", "is_disabled": 0, "lat": 38.88766, "rental_uris": {"android": "https://dc.lft.to/lastmile_qr_scan", "ios": "https://dc.lft.to/lastmile_qr_scan"}, "bike_id": "bd054b8e568623a171200daddcb7ffdd", "lon": -76.98682633333334}, {"is_reserved": 0, "fusion_lon": 0.0, "fusion_lat": 0.0, "name": "4ce6c3fe3a23364cdf54faad2b0104dc", "type": "electric_scooter", "is_disabled": 0, "lat": 38.90383966666667, "rental_uris": {"android": "https://dc.lft.to/lastmile_qr_scan", "ios": "https://dc.lft.to/lastmile_qr_scan"}, "bike_id": "4ce6c3fe3a23364cdf54faad2b0104dc", "lon": -77.0383385}, {"is_reserved": 0, "fusion_lon": 0.0, "fusion_lat": 0.0, "name": "48d5ed7846c2e84706575e22d9cbdfb3", "type": "electric_scooter", "is_disabled": 0, "lat": 38.91694316666667, "rental_uris": {"android": "https://dc.lft.to/lastmile_qr_scan", "ios": "https://dc.lft.to/lastmile_qr_scan"}, "bike_id": "48d5ed7846c2e84706575e22d9cbdfb3", "lon": -77.03216566666667}, {"is_reserved": 0, "fusion_lon": 0.0, "fusion_lat": 0.0, "name": "00413303211a21763193b11e54463d62", "type": "electric_scooter", "is_disabled": 0, "lat": 38.89745216666667, "rental_uris": {"android": "https://dc.lft.to/lastmile_qr_scan", "ios": "https://dc.lft.to/lastmile_qr_scan"}, "bike_id": "00413303211a21763193b11e54463d62", "lon": -77.03339633333333}, {"is_reserved": 0, "fusion_lon": 0.0, "fusion_lat": 0.0, "name": "372c6cb2f2745afe09d5c404406f85af", "type": "electric_scooter", "is_disabled": 0, "lat": 38.92104283333333, "rental_uris": {"android": "https://dc.lft.to/lastmile_qr_scan", "ios": "https://dc.lft.to/lastmile_qr_scan"}, "bike_id": "372c6cb2f2745afe09d5c404406f85af", "lon": -76.9940845}, {"is_reserved": 0, "fusion_lon": 0.0, "fusion_lat": 0.0, "name": "2ce7e38d94d5d76625a323451329e64e", "type": "electric_scooter", "is_disabled": 0, "lat": 38.905606, "rental_uris": {"android": "https://dc.lft.to/lastmile_qr_scan", "ios": "https://dc.lft.to/lastmile_qr_scan"}, "bike_id": "2ce7e38d94d5d76625a323451329e64e", "lon": -77.03466983333334}, {"is_reserved": 0, "fusion_lon": 0.0, "fusion_lat": 0.0, "name": "c6c8a52e0b299de1ba91a80b604f07b1", "type": "electric_scooter", "is_disabled": 0, "lat": 38.9039905, "rental_uris": {"android": "https://dc.lft.to/lastmile_qr_scan", "ios": "https://dc.lft.to/lastmile_qr_scan"}, "bike_id": "c6c8a52e0b299de1ba91a80b604f07b1", "lon": -77.0629825}, {"is_reserved": 0, "fusion_lon": 0.0, "fusion_lat": 0.0, "name": "f8645dbc80e2f4a0c7c15736c8009a0b", "type": "electric_scooter", "is_disabled": 0, "lat": 38.942622166666666, "rental_uris": {"android": "https://dc.lft.to/lastmile_qr_scan", "ios": "https://dc.lft.to/lastmile_qr_scan"}, "bike_id": "f8645dbc80e2f4a0c7c15736c8009a0b", "lon": -77.0284305}, {"is_reserved": 0, "fusion_lon": 0.0, "fusion_lat": 0.0, "name": "5463e0685a63ca7675dad5ee21d8c6e2", "type": "electric_scooter", "is_disabled": 0, "lat": 38.95153366666667, "rental_uris": {"android": "https://dc.lft.to/lastmile_qr_scan", "ios": "https://dc.lft.to/lastmile_qr_scan"}, "bike_id": "5463e0685a63ca7675dad5ee21d8c6e2", "lon": -77.01866533333333}, {"is_reserved": 0, "fusion_lon": 0.0, "fusion_lat": 0.0, "name": "6cffb45ee6a388243e222fbdd182a444", "type": "electric_bike", "is_disabled": 0, "lat": 38.905615, "rental_uris": {"android": "https://dc.lft.to/lastmile_qr_scan", "ios": "https://dc.lft.to/lastmile_qr_scan"}, "bike_id": "6cffb45ee6a388243e222fbdd182a444", "lon": -77.06284333333333}, {"is_reserved": 0, "fusion_lon": 0.0, "fusion_lat": 0.0, "name": "35170536e059ae3ee0a505a61369f119", "type": "electric_scooter", "is_disabled": 0, "lat": 38.907259333333336, "rental_uris": {"android": "https://dc.lft.to/lastmile_qr_scan", "ios": "https://dc.lft.to/lastmile_qr_scan"}, "bike_id": "35170536e059ae3ee0a505a61369f119", "lon": -77.00380516666667}, {"is_reserved": 0, "fusion_lon": 0.0, "fusion_lat": 0.0, "name": "9483ebe135f4fbed5f59b743c6d59f3b", "type": "electric_bike", "is_disabled": 0, "lat": 38.904029, "rental_uris": {"android": "https://dc.lft.to/lastmile_qr_scan", "ios": "https://dc.lft.to/lastmile_qr_scan"}, "bike_id": "9483ebe135f4fbed5f59b743c6d59f3b", "lon": -77.04487833333333}, {"is_reserved": 0, "fusion_lon": 0.0, "fusion_lat": 0.0, "name": "99f26a9f264fa0255d097a51ce9734af", "type": "electric_scooter", "is_disabled": 0, "lat": 38.9053935, "rental_uris": {"android": "https://dc.lft.to/lastmile_qr_scan", "ios": "https://dc.lft.to/lastmile_qr_scan"}, "bike_id": "99f26a9f264fa0255d097a51ce9734af", "lon": -77.029636}, {"is_reserved": 0, "fusion_lon": 0.0, "fusion_lat": 0.0, "name": "3f3ea5716d1a92aff8950d0daffb939d", "type": "electric_scooter", "is_disabled": 0, "lat": 38.92247666666667, "rental_uris": {"android": "https://dc.lft.to/lastmile_qr_scan", "ios": "https://dc.lft.to/lastmile_qr_scan"}, "bike_id": "3f3ea5716d1a92aff8950d0daffb939d", "lon": -77.01950416666666}, {"is_reserved": 0, "fusion_lon": 0.0, "fusion_lat": 0.0, "name": "238f1a23bcc466299cb968cd6c49e4b7", "type": "electric_scooter", "is_disabled": 0, "lat": 38.91861516666667, "rental_uris": {"android": "https://dc.lft.to/lastmile_qr_scan", "ios": "https://dc.lft.to/lastmile_qr_scan"}, "bike_id": "238f1a23bcc466299cb968cd6c49e4b7", "lon": -77.02548783333333}, {"is_reserved": 0, "fusion_lon": 0.0, "fusion_lat": 0.0, "name": "524c6381c903f7e72b4a470ddb0a3f7c", "type": "electric_scooter", "is_disabled": 0, "lat": 38.934916666666666, "rental_uris": {"android": "https://dc.lft.to/lastmile_qr_scan", "ios": "https://dc.lft.to/lastmile_qr_scan"}, "bike_id": "524c6381c903f7e72b4a470ddb0a3f7c", "lon": -77.03655183333333}, {"is_reserved": 0, "fusion_lon": 0.0, "fusion_lat": 0.0, "name": "e6a912faf5fa92fb6fe74ef1c170f4d0", "type": "electric_scooter", "is_disabled": 0, "lat": 38.92316616666667, "rental_uris": {"android": "https://dc.lft.to/lastmile_qr_scan", "ios": "https://dc.lft.to/lastmile_qr_scan"}, "bike_id": "e6a912faf5fa92fb6fe74ef1c170f4d0", "lon": -77.04349}, {"is_reserved": 0, "fusion_lon": 0.0, "fusion_lat": 0.0, "name": "a15859e4fa5e7203db8910beb849af8e", "type": "electric_scooter", "is_disabled": 0, "lat": 38.921458, "rental_uris": {"android": "https://dc.lft.to/lastmile_qr_scan", "ios": "https://dc.lft.to/lastmile_qr_scan"}, "bike_id": "a15859e4fa5e7203db8910beb849af8e", "lon": -77.02078816666666}, {"is_reserved": 0, "fusion_lon": 0.0, "fusion_lat": 0.0, "name": "0869d4a26719a9c389a1f0148bf7e6e7", "type": "electric_scooter", "is_disabled": 0, "lat": 38.89355116666667, "rental_uris": {"android": "https://dc.lft.to/lastmile_qr_scan", "ios": "https://dc.lft.to/lastmile_qr_scan"}, "bike_id": "0869d4a26719a9c389a1f0148bf7e6e7", "lon": -77.00334933333333}, {"is_reserved": 0, "fusion_lon": 0.0, "fusion_lat": 0.0, "name": "6230cfce40a9349b4a0b748f15992cf9", "type": "electric_scooter", "is_disabled": 0, "lat": 38.8827825, "rental_uris": {"android": "https://dc.lft.to/lastmile_qr_scan", "ios": "https://dc.lft.to/lastmile_qr_scan"}, "bike_id": "6230cfce40a9349b4a0b748f15992cf9", "lon": -76.98778683333333}, {"is_reserved": 0, "fusion_lon": 0.0, "fusion_lat": 0.0, "name": "c0ce488720a2da1f953203a1fee33b19", "type": "electric_scooter", "is_disabled": 0, "lat": 38.921495166666666, "rental_uris": {"android": "https://dc.lft.to/lastmile_qr_scan", "ios": "https://dc.lft.to/lastmile_qr_scan"}, "bike_id": "c0ce488720a2da1f953203a1fee33b19", "lon": -77.03451233333334}, {"is_reserved": 0, "fusion_lon": 0.0, "fusion_lat": 0.0, "name": "686f0c37f9a5ebf5df872805706965b1", "type": "electric_scooter", "is_disabled": 0, "lat": 38.9055015, "rental_uris": {"android": "https://dc.lft.to/lastmile_qr_scan", "ios": "https://dc.lft.to/lastmile_qr_scan"}, "bike_id": "686f0c37f9a5ebf5df872805706965b1", "lon": -77.04667966666666}, {"is_reserved": 0, "fusion_lon": 0.0, "fusion_lat": 0.0, "name": "7ca26afc345d38fcc42aff29544ce11d", "type": "electric_bike", "is_disabled": 0, "lat": 38.945545, "rental_uris": {"android": "https://dc.lft.to/lastmile_qr_scan", "ios": "https://dc.lft.to/lastmile_qr_scan"}, "bike_id": "7ca26afc345d38fcc42aff29544ce11d", "lon": -76.89540666666667}, {"is_reserved": 0, "fusion_lon": 0.0, "fusion_lat": 0.0, "name": "a1220f1493d904f9d71546e9b1fa19fd", "type": "electric_scooter", "is_disabled": 0, "lat": 38.935334, "rental_uris": {"android": "https://dc.lft.to/lastmile_qr_scan", "ios": "https://dc.lft.to/lastmile_qr_scan"}, "bike_id": "a1220f1493d904f9d71546e9b1fa19fd", "lon": -77.02350116666666}, {"is_reserved": 0, "fusion_lon": 0.0, "fusion_lat": 0.0, "name": "61f74d7cfaf33851917479a424047b51", "type": "electric_scooter", "is_disabled": 0, "lat": 38.9244095, "rental_uris": {"android": "https://dc.lft.to/lastmile_qr_scan", "ios": "https://dc.lft.to/lastmile_qr_scan"}, "bike_id": "61f74d7cfaf33851917479a424047b51", "lon": -77.021561}, {"is_reserved": 0, "fusion_lon": 0.0, "fusion_lat": 0.0, "name": "36b8a34c715d3df635f9fd93425cfe25", "type": "electric_scooter", "is_disabled": 0, "lat": 38.92472516666667, "rental_uris": {"android": "https://dc.lft.to/lastmile_qr_scan", "ios": "https://dc.lft.to/lastmile_qr_scan"}, "bike_id": "36b8a34c715d3df635f9fd93425cfe25", "lon": -77.0220985}, {"is_reserved": 0, "fusion_lon": 0.0, "fusion_lat": 0.0, "name": "f51bc54f6a6a57bd81ddc98e1619fddf", "type": "electric_scooter", "is_disabled": 0, "lat": 38.89711833333333, "rental_uris": {"android": "https://dc.lft.to/lastmile_qr_scan", "ios": "https://dc.lft.to/lastmile_qr_scan"}, "bike_id": "f51bc54f6a6a57bd81ddc98e1619fddf", "lon": -77.021223}, {"is_reserved": 0, "fusion_lon": 0.0, "fusion_lat": 0.0, "name": "3dd4f47dddd281ef687b9e9f4d732bab", "type": "electric_scooter", "is_disabled": 0, "lat": 38.90005466666667, "rental_uris": {"android": "https://dc.lft.to/lastmile_qr_scan", "ios": "https://dc.lft.to/lastmile_qr_scan"}, "bike_id": "3dd4f47dddd281ef687b9e9f4d732bab", "lon": -76.99849516666667}, {"is_reserved": 0, "fusion_lon": 0.0, "fusion_lat": 0.0, "name": "9ce6a1d85c5fd41aae90cb2c292a4584", "type": "electric_scooter", "is_disabled": 0, "lat": 38.905803166666665, "rental_uris": {"android": "https://dc.lft.to/lastmile_qr_scan", "ios": "https://dc.lft.to/lastmile_qr_scan"}, "bike_id": "9ce6a1d85c5fd41aae90cb2c292a4584", "lon": -77.02201383333333}, {"is_reserved": 0, "fusion_lon": 0.0, "fusion_lat": 0.0, "name": "c725bcd7586016a8945f6cdfd0d961b3", "type": "electric_scooter", "is_disabled": 0, "lat": 38.9102275, "rental_uris": {"android": "https://dc.lft.to/lastmile_qr_scan", "ios": "https://dc.lft.to/lastmile_qr_scan"}, "bike_id": "c725bcd7586016a8945f6cdfd0d961b3", "lon": -77.06494683333334}, {"is_reserved": 0, "fusion_lon": 0.0, "fusion_lat": 0.0, "name": "1263e8d32c07d3ff118c854a65b9445e", "type": "electric_scooter", "is_disabled": 0, "lat": 38.922625333333336, "rental_uris": {"android": "https://dc.lft.to/lastmile_qr_scan", "ios": "https://dc.lft.to/lastmile_qr_scan"}, "bike_id": "1263e8d32c07d3ff118c854a65b9445e", "lon": -77.04248933333334}, {"is_reserved": 0, "fusion_lon": 0.0, "fusion_lat": 0.0, "name": "e36b8f25ea0db07dc3f9c71c680efe23", "type": "electric_scooter", "is_disabled": 0, "lat": 38.908266, "rental_uris": {"android": "https://dc.lft.to/lastmile_qr_scan", "ios": "https://dc.lft.to/lastmile_qr_scan"}, "bike_id": "e36b8f25ea0db07dc3f9c71c680efe23", "lon": -77.04333966666667}, {"is_reserved": 0, "fusion_lon": 0.0, "fusion_lat": 0.0, "name": "464895c135db2aacfb07032da725f16d", "type": "electric_bike", "is_disabled": 0, "lat": 38.90036283333333, "rental_uris": {"android": "https://dc.lft.to/lastmile_qr_scan", "ios": "https://dc.lft.to/lastmile_qr_scan"}, "bike_id": "464895c135db2aacfb07032da725f16d", "lon": -76.97223566666666}, {"is_reserved": 0, "fusion_lon": 0.0, "fusion_lat": 0.0, "name": "abb71f7b4c5b634cf5d479738ca399b3", "type": "electric_scooter", "is_disabled": 0, "lat": 38.9257505, "rental_uris": {"android": "https://dc.lft.to/lastmile_qr_scan", "ios": "https://dc.lft.to/lastmile_qr_scan"}, "bike_id": "abb71f7b4c5b634cf5d479738ca399b3", "lon": -77.05268883333333}, {"is_reserved": 0, "fusion_lon": 0.0, "fusion_lat": 0.0, "name": "90fbc841297d9af1b3426c3b4f94a03d", "type": "electric_scooter", "is_disabled": 0, "lat": 38.905534833333334, "rental_uris": {"android": "https://dc.lft.to/lastmile_qr_scan", "ios": "https://dc.lft.to/lastmile_qr_scan"}, "bike_id": "90fbc841297d9af1b3426c3b4f94a03d", "lon": -77.03457716666666}, {"is_reserved": 0, "fusion_lon": 0.0, "fusion_lat": 0.0, "name": "f5296241d29802e5e37771e42f59816c", "type": "electric_scooter", "is_disabled": 0, "lat": 38.900255666666666, "rental_uris": {"android": "https://dc.lft.to/lastmile_qr_scan", "ios": "https://dc.lft.to/lastmile_qr_scan"}, "bike_id": "f5296241d29802e5e37771e42f59816c", "lon": -76.9886135}, {"is_reserved": 0, "fusion_lon": 0.0, "fusion_lat": 0.0, "name": "afb6ecf933e47c3910294c64920bccf3", "type": "electric_scooter", "is_disabled": 0, "lat": 38.904546, "rental_uris": {"android": "https://dc.lft.to/lastmile_qr_scan", "ios": "https://dc.lft.to/lastmile_qr_scan"}, "bike_id": "afb6ecf933e47c3910294c64920bccf3", "lon": -76.99629066666667}, {"is_reserved": 0, "fusion_lon": 0.0, "fusion_lat": 0.0, "name": "9df6fa86f8cc1da1e8504296a3369b3c", "type": "electric_scooter", "is_disabled": 0, "lat": 38.9016045, "rental_uris": {"android": "https://dc.lft.to/lastmile_qr_scan", "ios": "https://dc.lft.to/lastmile_qr_scan"}, "bike_id": "9df6fa86f8cc1da1e8504296a3369b3c", "lon": -77.00929016666667}, {"is_reserved": 0, "fusion_lon": 0.0, "fusion_lat": 0.0, "name": "cfda9a915b19ac7a383bbc23982641c8", "type": "electric_scooter", "is_disabled": 0, "lat": 38.9233265, "rental_uris": {"android": "https://dc.lft.to/lastmile_qr_scan", "ios": "https://dc.lft.to/lastmile_qr_scan"}, "bike_id": "cfda9a915b19ac7a383bbc23982641c8", "lon": -77.04311566666667}, {"is_reserved": 0, "fusion_lon": 0.0, "fusion_lat": 0.0, "name": "b29853b2b5bd0e713ca516e2712c75bf", "type": "electric_scooter", "is_disabled": 0, "lat": 38.923388833333334, "rental_uris": {"android": "https://dc.lft.to/lastmile_qr_scan", "ios": "https://dc.lft.to/lastmile_qr_scan"}, "bike_id": "b29853b2b5bd0e713ca516e2712c75bf", "lon": -77.04789983333333}, {"is_reserved": 0, "fusion_lon": 0.0, "fusion_lat": 0.0, "name": "bae6ef12aff4316a4d0a8dedc45fff7d", "type": "electric_scooter", "is_disabled": 0, "lat": 38.93964716666667, "rental_uris": {"android": "https://dc.lft.to/lastmile_qr_scan", "ios": "https://dc.lft.to/lastmile_qr_scan"}, "bike_id": "bae6ef12aff4316a4d0a8dedc45fff7d", "lon": -77.02753966666667}, {"is_reserved": 0, "fusion_lon": 0.0, "fusion_lat": 0.0, "name": "da7330efb554c203e4892d410d93efec", "type": "electric_scooter", "is_disabled": 0, "lat": 38.9056035, "rental_uris": {"android": "https://dc.lft.to/lastmile_qr_scan", "ios": "https://dc.lft.to/lastmile_qr_scan"}, "bike_id": "da7330efb554c203e4892d410d93efec", "lon": -77.04159266666667}, {"is_reserved": 0, "fusion_lon": 0.0, "fusion_lat": 0.0, "name": "3c1ad40d4451509d9eefac22df44e8a0", "type": "electric_scooter", "is_disabled": 0, "lat": 38.910356666666665, "rental_uris": {"android": "https://dc.lft.to/lastmile_qr_scan", "ios": "https://dc.lft.to/lastmile_qr_scan"}, "bike_id": "3c1ad40d4451509d9eefac22df44e8a0", "lon": -76.99337283333334}, {"is_reserved": 0, "fusion_lon": 0.0, "fusion_lat": 0.0, "name": "7b5bacfbaf89669c245b8fdc87bf9f67", "type": "electric_scooter", "is_disabled": 0, "lat": 38.93539966666667, "rental_uris": {"android": "https://dc.lft.to/lastmile_qr_scan", "ios": "https://dc.lft.to/lastmile_qr_scan"}, "bike_id": "7b5bacfbaf89669c245b8fdc87bf9f67", "lon": -77.05750216666667}, {"is_reserved": 0, "fusion_lon": 0.0, "fusion_lat": 0.0, "name": "50d9233b38872154fc924274c6a91b84", "type": "electric_scooter", "is_disabled": 0, "lat": 38.895335, "rental_uris": {"android": "https://dc.lft.to/lastmile_qr_scan", "ios": "https://dc.lft.to/lastmile_qr_scan"}, "bike_id": "50d9233b38872154fc924274c6a91b84", "lon": -77.0034335}, {"is_reserved": 0, "fusion_lon": 0.0, "fusion_lat": 0.0, "name": "cb81b6acf7be08cc2dbe68f1238e5c92", "type": "electric_scooter", "is_disabled": 0, "lat": 38.92246866666667, "rental_uris": {"android": "https://dc.lft.to/lastmile_qr_scan", "ios": "https://dc.lft.to/lastmile_qr_scan"}, "bike_id": "cb81b6acf7be08cc2dbe68f1238e5c92", "lon": -77.01952716666666}, {"is_reserved": 0, "fusion_lon": 0.0, "fusion_lat": 0.0, "name": "0250dd84e04d9740a1618b06b157e557", "type": "electric_scooter", "is_disabled": 0, "lat": 38.93167833333333, "rental_uris": {"android": "https://dc.lft.to/lastmile_qr_scan", "ios": "https://dc.lft.to/lastmile_qr_scan"}, "bike_id": "0250dd84e04d9740a1618b06b157e557", "lon": -77.0561435}, {"is_reserved": 0, "fusion_lon": 0.0, "fusion_lat": 0.0, "name": "b4de04b7a2aac200809a15c7800f167e", "type": "electric_scooter", "is_disabled": 0, "lat": 38.8922325, "rental_uris": {"android": "https://dc.lft.to/lastmile_qr_scan", "ios": "https://dc.lft.to/lastmile_qr_scan"}, "bike_id": "b4de04b7a2aac200809a15c7800f167e", "lon": -77.04261283333334}, {"is_reserved": 0, "fusion_lon": 0.0, "fusion_lat": 0.0, "name": "f6befbf2d2b7ba58a41dfe6b761e641f", "type": "electric_scooter", "is_disabled": 0, "lat": 38.88590116666666, "rental_uris": {"android": "https://dc.lft.to/lastmile_qr_scan", "ios": "https://dc.lft.to/lastmile_qr_scan"}, "bike_id": "f6befbf2d2b7ba58a41dfe6b761e641f", "lon": -76.99626666666667}, {"is_reserved": 0, "fusion_lon": 0.0, "fusion_lat": 0.0, "name": "268d4abf71dcfc0c77b24c4c5ce29d45", "type": "electric_scooter", "is_disabled": 0, "lat": 38.90840516666667, "rental_uris": {"android": "https://dc.lft.to/lastmile_qr_scan", "ios": "https://dc.lft.to/lastmile_qr_scan"}, "bike_id": "268d4abf71dcfc0c77b24c4c5ce29d45", "lon": -77.03944283333334}, {"is_reserved": 0, "fusion_lon": 0.0, "fusion_lat": 0.0, "name": "53874ef29a2c245bc68217821e00e5f9", "type": "electric_scooter", "is_disabled": 0, "lat": 38.878011, "rental_uris": {"android": "https://dc.lft.to/lastmile_qr_scan", "ios": "https://dc.lft.to/lastmile_qr_scan"}, "bike_id": "53874ef29a2c245bc68217821e00e5f9", "lon": -76.93092816666666}, {"is_reserved": 0, "fusion_lon": 0.0, "fusion_lat": 0.0, "name": "9a73a1a1a691a03c5bf3e820f2670af1", "type": "electric_scooter", "is_disabled": 0, "lat": 38.91493533333333, "rental_uris": {"android": "https://dc.lft.to/lastmile_qr_scan", "ios": "https://dc.lft.to/lastmile_qr_scan"}, "bike_id": "9a73a1a1a691a03c5bf3e820f2670af1", "lon": -77.0185625}, {"is_reserved": 0, "fusion_lon": 0.0, "fusion_lat": 0.0, "name": "b43581c9097d9f559f83542bb17a2fa0", "type": "electric_scooter", "is_disabled": 0, "lat": 38.901361666666666, "rental_uris": {"android": "https://dc.lft.to/lastmile_qr_scan", "ios": "https://dc.lft.to/lastmile_qr_scan"}, "bike_id": "b43581c9097d9f559f83542bb17a2fa0", "lon": -77.04622183333333}, {"is_reserved": 0, "fusion_lon": 0.0, "fusion_lat": 0.0, "name": "56dab8126cfd27d85855af4270b54fe4", "type": "electric_scooter", "is_disabled": 0, "lat": 38.917259333333334, "rental_uris": {"android": "https://dc.lft.to/lastmile_qr_scan", "ios": "https://dc.lft.to/lastmile_qr_scan"}, "bike_id": "56dab8126cfd27d85855af4270b54fe4", "lon": -77.0297465}, {"is_reserved": 0, "fusion_lon": 0.0, "fusion_lat": 0.0, "name": "29b96032a609e8189384893ce7173a93", "type": "electric_scooter", "is_disabled": 0, "lat": 38.865049, "rental_uris": {"android": "https://dc.lft.to/lastmile_qr_scan", "ios": "https://dc.lft.to/lastmile_qr_scan"}, "bike_id": "29b96032a609e8189384893ce7173a93", "lon": -76.9899995}, {"is_reserved": 0, "fusion_lon": 0.0, "fusion_lat": 0.0, "name": "0c8a9d16c3d7e7c04f7e9c7ce50f350e", "type": "electric_scooter", "is_disabled": 0, "lat": 38.8922245, "rental_uris": {"android": "https://dc.lft.to/lastmile_qr_scan", "ios": "https://dc.lft.to/lastmile_qr_scan"}, "bike_id": "0c8a9d16c3d7e7c04f7e9c7ce50f350e", "lon": -77.03162816666666}, {"is_reserved": 0, "fusion_lon": 0.0, "fusion_lat": 0.0, "name": "c63e646d4de04437151af0f7792607d2", "type": "electric_scooter", "is_disabled": 0, "lat": 38.89484816666667, "rental_uris": {"android": "https://dc.lft.to/lastmile_qr_scan", "ios": "https://dc.lft.to/lastmile_qr_scan"}, "bike_id": "c63e646d4de04437151af0f7792607d2", "lon": -77.023102}, {"is_reserved": 0, "fusion_lon": 0.0, "fusion_lat": 0.0, "name": "2096414dc6cc25d3adea96a96817de98", "type": "electric_scooter", "is_disabled": 0, "lat": 38.88961416666667, "rental_uris": {"android": "https://dc.lft.to/lastmile_qr_scan", "ios": "https://dc.lft.to/lastmile_qr_scan"}, "bike_id": "2096414dc6cc25d3adea96a96817de98", "lon": -76.93706616666667}, {"is_reserved": 0, "fusion_lon": 0.0, "fusion_lat": 0.0, "name": "3d23c63201228ae3ad5413006be4a211", "type": "electric_scooter", "is_disabled": 0, "lat": 38.923253, "rental_uris": {"android": "https://dc.lft.to/lastmile_qr_scan", "ios": "https://dc.lft.to/lastmile_qr_scan"}, "bike_id": "3d23c63201228ae3ad5413006be4a211", "lon": -77.035458}, {"is_reserved": 0, "fusion_lon": 0.0, "fusion_lat": 0.0, "name": "8e67e8a9a8a67da4efa092c641f86e15", "type": "electric_bike", "is_disabled": 0, "lat": 38.8824705, "rental_uris": {"android": "https://dc.lft.to/lastmile_qr_scan", "ios": "https://dc.lft.to/lastmile_qr_scan"}, "bike_id": "8e67e8a9a8a67da4efa092c641f86e15", "lon": -76.96260233333334}, {"is_reserved": 0, "fusion_lon": 0.0, "fusion_lat": 0.0, "name": "42c3ec952ff9c014828cbd4389132ab4", "type": "electric_bike", "is_disabled": 0, "lat": 38.9613985, "rental_uris": {"android": "https://dc.lft.to/lastmile_qr_scan", "ios": "https://dc.lft.to/lastmile_qr_scan"}, "bike_id": "42c3ec952ff9c014828cbd4389132ab4", "lon": -77.02374666666667}, {"is_reserved": 0, "fusion_lon": 0.0, "fusion_lat": 0.0, "name": "eba66f3c4f67017303c7b3179ae08232", "type": "electric_scooter", "is_disabled": 0, "lat": 38.91512983333333, "rental_uris": {"android": "https://dc.lft.to/lastmile_qr_scan", "ios": "https://dc.lft.to/lastmile_qr_scan"}, "bike_id": "eba66f3c4f67017303c7b3179ae08232", "lon": -77.04462083333334}, {"is_reserved": 0, "fusion_lon": 0.0, "fusion_lat": 0.0, "name": "b7fc086b0611f561242979395657195f", "type": "electric_bike", "is_disabled": 0, "lat": 38.959594, "rental_uris": {"android": "https://dc.lft.to/lastmile_qr_scan", "ios": "https://dc.lft.to/lastmile_qr_scan"}, "bike_id": "b7fc086b0611f561242979395657195f", "lon": -77.03055833333333}, {"is_reserved": 0, "fusion_lon": 0.0, "fusion_lat": 0.0, "name": "dc4942543389966e45ece055f3b232c2", "type": "electric_scooter", "is_disabled": 0, "lat": 38.88384766666667, "rental_uris": {"android": "https://dc.lft.to/lastmile_qr_scan", "ios": "https://dc.lft.to/lastmile_qr_scan"}, "bike_id": "dc4942543389966e45ece055f3b232c2", "lon": -77.02569766666667}, {"is_reserved": 0, "fusion_lon": 0.0, "fusion_lat": 0.0, "name": "cd7d5deac59605d2b3338c9b97fd91e5", "type": "electric_scooter", "is_disabled": 0, "lat": 38.905641333333335, "rental_uris": {"android": "https://dc.lft.to/lastmile_qr_scan", "ios": "https://dc.lft.to/lastmile_qr_scan"}, "bike_id": "cd7d5deac59605d2b3338c9b97fd91e5", "lon": -77.04087866666667}, {"is_reserved": 0, "fusion_lon": 0.0, "fusion_lat": 0.0, "name": "2c2ca69dd33cd9fa20707ba8406d3d6c", "type": "electric_scooter", "is_disabled": 0, "lat": 38.90411116666667, "rental_uris": {"android": "https://dc.lft.to/lastmile_qr_scan", "ios": "https://dc.lft.to/lastmile_qr_scan"}, "bike_id": "2c2ca69dd33cd9fa20707ba8406d3d6c", "lon": -76.97330716666667}, {"is_reserved": 0, "fusion_lon": 0.0, "fusion_lat": 0.0, "name": "d1533f11bd7dbd87c431347504bce185", "type": "electric_scooter", "is_disabled": 0, "lat": 38.9183785, "rental_uris": {"android": "https://dc.lft.to/lastmile_qr_scan", "ios": "https://dc.lft.to/lastmile_qr_scan"}, "bike_id": "d1533f11bd7dbd87c431347504bce185", "lon": -77.05949266666667}, {"is_reserved": 0, "fusion_lon": 0.0, "fusion_lat": 0.0, "name": "eb5e59e9d481650b555ca36f269af834", "type": "electric_scooter", "is_disabled": 0, "lat": 38.971872, "rental_uris": {"android": "https://dc.lft.to/lastmile_qr_scan", "ios": "https://dc.lft.to/lastmile_qr_scan"}, "bike_id": "eb5e59e9d481650b555ca36f269af834", "lon": -77.0267645}, {"is_reserved": 0, "fusion_lon": 0.0, "fusion_lat": 0.0, "name": "796bec5ac828a091902d39e40290e77d", "type": "electric_scooter", "is_disabled": 0, "lat": 38.91576466666667, "rental_uris": {"android": "https://dc.lft.to/lastmile_qr_scan", "ios": "https://dc.lft.to/lastmile_qr_scan"}, "bike_id": "796bec5ac828a091902d39e40290e77d", "lon": -77.03195816666667}, {"is_reserved": 0, "fusion_lon": 0.0, "fusion_lat": 0.0, "name": "dd927952e2c45f2481d7d13dcf1030e3", "type": "electric_bike", "is_disabled": 0, "lat": 38.95654183333333, "rental_uris": {"android": "https://dc.lft.to/lastmile_qr_scan", "ios": "https://dc.lft.to/lastmile_qr_scan"}, "bike_id": "dd927952e2c45f2481d7d13dcf1030e3", "lon": -77.012808}, {"is_reserved": 0, "fusion_lon": 0.0, "fusion_lat": 0.0, "name": "d9ed226951e1b99db0cecb37e23a1312", "type": "electric_scooter", "is_disabled": 0, "lat": 38.896049166666664, "rental_uris": {"android": "https://dc.lft.to/lastmile_qr_scan", "ios": "https://dc.lft.to/lastmile_qr_scan"}, "bike_id": "d9ed226951e1b99db0cecb37e23a1312", "lon": -77.03172966666666}, {"is_reserved": 0, "fusion_lon": 0.0, "fusion_lat": 0.0, "name": "c48ca59f37d5ba77d7259a4597a04f0b", "type": "electric_scooter", "is_disabled": 0, "lat": 38.9066875, "rental_uris": {"android": "https://dc.lft.to/lastmile_qr_scan", "ios": "https://dc.lft.to/lastmile_qr_scan"}, "bike_id": "c48ca59f37d5ba77d7259a4597a04f0b", "lon": -77.03851666666667}, {"is_reserved": 0, "fusion_lon": 0.0, "fusion_lat": 0.0, "name": "5546a18e3c24953043adbedd28fef219", "type": "electric_scooter", "is_disabled": 0, "lat": 38.9327385, "rental_uris": {"android": "https://dc.lft.to/lastmile_qr_scan", "ios": "https://dc.lft.to/lastmile_qr_scan"}, "bike_id": "5546a18e3c24953043adbedd28fef219", "lon": -77.028393}, {"is_reserved": 0, "fusion_lon": 0.0, "fusion_lat": 0.0, "name": "044c4787b8990e0158f39cb2bf5519c9", "type": "electric_bike", "is_disabled": 0, "lat": 38.988209833333336, "rental_uris": {"android": "https://dc.lft.to/lastmile_qr_scan", "ios": "https://dc.lft.to/lastmile_qr_scan"}, "bike_id": "044c4787b8990e0158f39cb2bf5519c9", "lon": -77.02662216666667}, {"is_reserved": 0, "fusion_lon": 0.0, "fusion_lat": 0.0, "name": "0eeac756174ac22b94d065b08ee4b6bd", "type": "electric_scooter", "is_disabled": 0, "lat": 38.90459966666667, "rental_uris": {"android": "https://dc.lft.to/lastmile_qr_scan", "ios": "https://dc.lft.to/lastmile_qr_scan"}, "bike_id": "0eeac756174ac22b94d065b08ee4b6bd", "lon": -77.03789383333333}, {"is_reserved": 0, "fusion_lon": 0.0, "fusion_lat": 0.0, "name": "03d5a82fdd0fb89789952292326c10c0", "type": "electric_scooter", "is_disabled": 0, "lat": 38.87142033333333, "rental_uris": {"android": "https://dc.lft.to/lastmile_qr_scan", "ios": "https://dc.lft.to/lastmile_qr_scan"}, "bike_id": "03d5a82fdd0fb89789952292326c10c0", "lon": -77.00707633333333}, {"is_reserved": 0, "fusion_lon": 0.0, "fusion_lat": 0.0, "name": "37f5d983971fb8d8aa3fc6f3cc3397dc", "type": "electric_scooter", "is_disabled": 0, "lat": 38.92742033333333, "rental_uris": {"android": "https://dc.lft.to/lastmile_qr_scan", "ios": "https://dc.lft.to/lastmile_qr_scan"}, "bike_id": "37f5d983971fb8d8aa3fc6f3cc3397dc", "lon": -77.0248855}, {"is_reserved": 0, "fusion_lon": 0.0, "fusion_lat": 0.0, "name": "ef3ef8188d6298e7cc998cbd0ec7921b", "type": "electric_scooter", "is_disabled": 0, "lat": 38.90456833333333, "rental_uris": {"android": "https://dc.lft.to/lastmile_qr_scan", "ios": "https://dc.lft.to/lastmile_qr_scan"}, "bike_id": "ef3ef8188d6298e7cc998cbd0ec7921b", "lon": -77.03794516666666}, {"is_reserved": 0, "fusion_lon": 0.0, "fusion_lat": 0.0, "name": "41e6d8d96c019ae00b76c3b05cff117a", "type": "electric_scooter", "is_disabled": 0, "lat": 38.86657666666667, "rental_uris": {"android": "https://dc.lft.to/lastmile_qr_scan", "ios": "https://dc.lft.to/lastmile_qr_scan"}, "bike_id": "41e6d8d96c019ae00b76c3b05cff117a", "lon": -76.98883066666667}, {"is_reserved": 0, "fusion_lon": 0.0, "fusion_lat": 0.0, "name": "0cc65fd94cbe061a3f4c066b9fcf9535", "type": "electric_scooter", "is_disabled": 0, "lat": 38.900617, "rental_uris": {"android": "https://dc.lft.to/lastmile_qr_scan", "ios": "https://dc.lft.to/lastmile_qr_scan"}, "bike_id": "0cc65fd94cbe061a3f4c066b9fcf9535", "lon": -77.015096}, {"is_reserved": 0, "fusion_lon": 0.0, "fusion_lat": 0.0, "name": "58916c4b86e2981ba5029821b883cbc0", "type": "electric_scooter", "is_disabled": 0, "lat": 38.91821483333333, "rental_uris": {"android": "https://dc.lft.to/lastmile_qr_scan", "ios": "https://dc.lft.to/lastmile_qr_scan"}, "bike_id": "58916c4b86e2981ba5029821b883cbc0", "lon": -77.0369135}, {"is_reserved": 0, "fusion_lon": 0.0, "fusion_lat": 0.0, "name": "f28715114d410da01d4b718ed7db275f", "type": "electric_scooter", "is_disabled": 0, "lat": 38.9023505, "rental_uris": {"android": "https://dc.lft.to/lastmile_qr_scan", "ios": "https://dc.lft.to/lastmile_qr_scan"}, "bike_id": "f28715114d410da01d4b718ed7db275f", "lon": -77.02697333333333}, {"is_reserved": 0, "fusion_lon": 0.0, "fusion_lat": 0.0, "name": "12307c42318d9c199fc73d77cd5b59f4", "type": "electric_scooter", "is_disabled": 0, "lat": 38.90239183333333, "rental_uris": {"android": "https://dc.lft.to/lastmile_qr_scan", "ios": "https://dc.lft.to/lastmile_qr_scan"}, "bike_id": "12307c42318d9c199fc73d77cd5b59f4", "lon": -76.98935316666666}, {"is_reserved": 0, "fusion_lon": 0.0, "fusion_lat": 0.0, "name": "10205e62f608827ced0ba4fe7b8570e2", "type": "electric_scooter", "is_disabled": 0, "lat": 38.90755983333333, "rental_uris": {"android": "https://dc.lft.to/lastmile_qr_scan", "ios": "https://dc.lft.to/lastmile_qr_scan"}, "bike_id": "10205e62f608827ced0ba4fe7b8570e2", "lon": -77.04557233333334}, {"is_reserved": 0, "fusion_lon": 0.0, "fusion_lat": 0.0, "name": "05b0da9f32862c938dcaa8eb124fcc83", "type": "electric_scooter", "is_disabled": 0, "lat": 38.9047905, "rental_uris": {"android": "https://dc.lft.to/lastmile_qr_scan", "ios": "https://dc.lft.to/lastmile_qr_scan"}, "bike_id": "05b0da9f32862c938dcaa8eb124fcc83", "lon": -77.0355155}, {"is_reserved": 0, "fusion_lon": 0.0, "fusion_lat": 0.0, "name": "4885b7e2ec213bb168f12f40f01a0a4b", "type": "electric_scooter", "is_disabled": 0, "lat": 38.915805, "rental_uris": {"android": "https://dc.lft.to/lastmile_qr_scan", "ios": "https://dc.lft.to/lastmile_qr_scan"}, "bike_id": "4885b7e2ec213bb168f12f40f01a0a4b", "lon": -77.03646}, {"is_reserved": 0, "fusion_lon": 0.0, "fusion_lat": 0.0, "name": "8514037bfa2c64ffef57fca0f268fe45", "type": "electric_scooter", "is_disabled": 0, "lat": 38.91261333333333, "rental_uris": {"android": "https://dc.lft.to/lastmile_qr_scan", "ios": "https://dc.lft.to/lastmile_qr_scan"}, "bike_id": "8514037bfa2c64ffef57fca0f268fe45", "lon": -77.0307515}, {"is_reserved": 0, "fusion_lon": 0.0, "fusion_lat": 0.0, "name": "e4202fc0a07fb0027772efa3d71848d3", "type": "electric_scooter", "is_disabled": 0, "lat": 38.90386516666667, "rental_uris": {"android": "https://dc.lft.to/lastmile_qr_scan", "ios": "https://dc.lft.to/lastmile_qr_scan"}, "bike_id": "e4202fc0a07fb0027772efa3d71848d3", "lon": -77.03844033333333}, {"is_reserved": 0, "fusion_lon": 0.0, "fusion_lat": 0.0, "name": "d91f35001c3bd6a15bb9db567774027b", "type": "electric_scooter", "is_disabled": 0, "lat": 38.90015483333333, "rental_uris": {"android": "https://dc.lft.to/lastmile_qr_scan", "ios": "https://dc.lft.to/lastmile_qr_scan"}, "bike_id": "d91f35001c3bd6a15bb9db567774027b", "lon": -77.00302583333334}, {"is_reserved": 0, "fusion_lon": 0.0, "fusion_lat": 0.0, "name": "fc455e7c103216c5e145ad7a27e4d105", "type": "electric_scooter", "is_disabled": 0, "lat": 38.902720333333335, "rental_uris": {"android": "https://dc.lft.to/lastmile_qr_scan", "ios": "https://dc.lft.to/lastmile_qr_scan"}, "bike_id": "fc455e7c103216c5e145ad7a27e4d105", "lon": -77.038784}, {"is_reserved": 0, "fusion_lon": 0.0, "fusion_lat": 0.0, "name": "109e1ee25f9d42980461ab810fc275c6", "type": "electric_scooter", "is_disabled": 0, "lat": 38.91707133333333, "rental_uris": {"android": "https://dc.lft.to/lastmile_qr_scan", "ios": "https://dc.lft.to/lastmile_qr_scan"}, "bike_id": "109e1ee25f9d42980461ab810fc275c6", "lon": -77.03495933333333}, {"is_reserved": 0, "fusion_lon": 0.0, "fusion_lat": 0.0, "name": "81777ed1688221793fc6aa94cb09c3e8", "type": "electric_scooter", "is_disabled": 0, "lat": 38.91446166666667, "rental_uris": {"android": "https://dc.lft.to/lastmile_qr_scan", "ios": "https://dc.lft.to/lastmile_qr_scan"}, "bike_id": "81777ed1688221793fc6aa94cb09c3e8", "lon": -77.02194}, {"is_reserved": 0, "fusion_lon": 0.0, "fusion_lat": 0.0, "name": "e4967bae078818651b78e0888219f3f9", "type": "electric_scooter", "is_disabled": 0, "lat": 38.9552665, "rental_uris": {"android": "https://dc.lft.to/lastmile_qr_scan", "ios": "https://dc.lft.to/lastmile_qr_scan"}, "bike_id": "e4967bae078818651b78e0888219f3f9", "lon": -77.02221716666666}, {"is_reserved": 0, "fusion_lon": 0.0, "fusion_lat": 0.0, "name": "e1cdde7e7a6f22551d6721128e813e17", "type": "electric_scooter", "is_disabled": 0, "lat": 38.934303666666665, "rental_uris": {"android": "https://dc.lft.to/lastmile_qr_scan", "ios": "https://dc.lft.to/lastmile_qr_scan"}, "bike_id": "e1cdde7e7a6f22551d6721128e813e17", "lon": -77.03996916666667}, {"is_reserved": 0, "fusion_lon": 0.0, "fusion_lat": 0.0, "name": "e8547dffbefac1497287bce685902006", "type": "electric_scooter", "is_disabled": 0, "lat": 38.89854833333333, "rental_uris": {"android": "https://dc.lft.to/lastmile_qr_scan", "ios": "https://dc.lft.to/lastmile_qr_scan"}, "bike_id": "e8547dffbefac1497287bce685902006", "lon": -76.99017}, {"is_reserved": 0, "fusion_lon": 0.0, "fusion_lat": 0.0, "name": "47c0de267966804e976bf74d0e7a0894", "type": "electric_scooter", "is_disabled": 0, "lat": 38.89226466666667, "rental_uris": {"android": "https://dc.lft.to/lastmile_qr_scan", "ios": "https://dc.lft.to/lastmile_qr_scan"}, "bike_id": "47c0de267966804e976bf74d0e7a0894", "lon": -77.04511266666667}, {"is_reserved": 0, "fusion_lon": 0.0, "fusion_lat": 0.0, "name": "9e281aa76c80ac844b325b92c9bfc29b", "type": "electric_scooter", "is_disabled": 0, "lat": 38.892226, "rental_uris": {"android": "https://dc.lft.to/lastmile_qr_scan", "ios": "https://dc.lft.to/lastmile_qr_scan"}, "bike_id": "9e281aa76c80ac844b325b92c9bfc29b", "lon": -77.04310733333334}, {"is_reserved": 0, "fusion_lon": 0.0, "fusion_lat": 0.0, "name": "d6a0a1eeead44af811f4764af622f291", "type": "electric_scooter", "is_disabled": 0, "lat": 38.8849155, "rental_uris": {"android": "https://dc.lft.to/lastmile_qr_scan", "ios": "https://dc.lft.to/lastmile_qr_scan"}, "bike_id": "d6a0a1eeead44af811f4764af622f291", "lon": -77.007112}, {"is_reserved": 0, "fusion_lon": 0.0, "fusion_lat": 0.0, "name": "cbe44ecc4e0dbd989661df75de13d837", "type": "electric_scooter", "is_disabled": 0, "lat": 38.913824, "rental_uris": {"android": "https://dc.lft.to/lastmile_qr_scan", "ios": "https://dc.lft.to/lastmile_qr_scan"}, "bike_id": "cbe44ecc4e0dbd989661df75de13d837", "lon": -77.0413685}, {"is_reserved": 0, "fusion_lon": 0.0, "fusion_lat": 0.0, "name": "115051b6e23bd7c7640f446469c671de", "type": "electric_scooter", "is_disabled": 0, "lat": 38.9050095, "rental_uris": {"android": "https://dc.lft.to/lastmile_qr_scan", "ios": "https://dc.lft.to/lastmile_qr_scan"}, "bike_id": "115051b6e23bd7c7640f446469c671de", "lon": -77.03464766666667}, {"is_reserved": 0, "fusion_lon": 0.0, "fusion_lat": 0.0, "name": "9621ef8af3f53e5ec253ed261eae1fa5", "type": "electric_scooter", "is_disabled": 0, "lat": 38.91693133333333, "rental_uris": {"android": "https://dc.lft.to/lastmile_qr_scan", "ios": "https://dc.lft.to/lastmile_qr_scan"}, "bike_id": "9621ef8af3f53e5ec253ed261eae1fa5", "lon": -77.025937}, {"is_reserved": 0, "fusion_lon": 0.0, "fusion_lat": 0.0, "name": "da1bebe4afc0570dac41184b102284f5", "type": "electric_scooter", "is_disabled": 0, "lat": 38.927231666666664, "rental_uris": {"android": "https://dc.lft.to/lastmile_qr_scan", "ios": "https://dc.lft.to/lastmile_qr_scan"}, "bike_id": "da1bebe4afc0570dac41184b102284f5", "lon": -77.03992066666666}, {"is_reserved": 0, "fusion_lon": 0.0, "fusion_lat": 0.0, "name": "24ca80411dbaf5ca510f45e9e9c2b684", "type": "electric_scooter", "is_disabled": 0, "lat": 38.9082545, "rental_uris": {"android": "https://dc.lft.to/lastmile_qr_scan", "ios": "https://dc.lft.to/lastmile_qr_scan"}, "bike_id": "24ca80411dbaf5ca510f45e9e9c2b684", "lon": -76.94159683333334}, {"is_reserved": 0, "fusion_lon": 0.0, "fusion_lat": 0.0, "name": "b1b6f59dc8c47969c5a5de99d2fdfbcf", "type": "electric_scooter", "is_disabled": 0, "lat": 38.9010485, "rental_uris": {"android": "https://dc.lft.to/lastmile_qr_scan", "ios": "https://dc.lft.to/lastmile_qr_scan"}, "bike_id": "b1b6f59dc8c47969c5a5de99d2fdfbcf", "lon": -77.04005716666667}, {"is_reserved": 0, "fusion_lon": 0.0, "fusion_lat": 0.0, "name": "f20a4c81f8c8d9f5f4f391c617674e04", "type": "electric_scooter", "is_disabled": 0, "lat": 38.906259666666664, "rental_uris": {"android": "https://dc.lft.to/lastmile_qr_scan", "ios": "https://dc.lft.to/lastmile_qr_scan"}, "bike_id": "f20a4c81f8c8d9f5f4f391c617674e04", "lon": -77.06897066666667}, {"is_reserved": 0, "fusion_lon": 0.0, "fusion_lat": 0.0, "name": "e3806872f114482d900de14e2d3d54af", "type": "electric_scooter", "is_disabled": 0, "lat": 38.90588733333333, "rental_uris": {"android": "https://dc.lft.to/lastmile_qr_scan", "ios": "https://dc.lft.to/lastmile_qr_scan"}, "bike_id": "e3806872f114482d900de14e2d3d54af", "lon": -76.9930545}, {"is_reserved": 0, "fusion_lon": 0.0, "fusion_lat": 0.0, "name": "ccfe072624d0e47a9caecc32675306f5", "type": "electric_bike", "is_disabled": 0, "lat": 38.872789166666664, "rental_uris": {"android": "https://dc.lft.to/lastmile_qr_scan", "ios": "https://dc.lft.to/lastmile_qr_scan"}, "bike_id": "ccfe072624d0e47a9caecc32675306f5", "lon": -77.23327016666667}, {"is_reserved": 0, "fusion_lon": 0.0, "fusion_lat": 0.0, "name": "3ad55c622a604b9ba46e52f90bb59c2e", "type": "electric_scooter", "is_disabled": 0, "lat": 38.90982666666667, "rental_uris": {"android": "https://dc.lft.to/lastmile_qr_scan", "ios": "https://dc.lft.to/lastmile_qr_scan"}, "bike_id": "3ad55c622a604b9ba46e52f90bb59c2e", "lon": -77.0386895}, {"is_reserved": 0, "fusion_lon": 0.0, "fusion_lat": 0.0, "name": "1781eedbbd225923d5d0fd52937e2f45", "type": "electric_scooter", "is_disabled": 0, "lat": 38.917956333333336, "rental_uris": {"android": "https://dc.lft.to/lastmile_qr_scan", "ios": "https://dc.lft.to/lastmile_qr_scan"}, "bike_id": "1781eedbbd225923d5d0fd52937e2f45", "lon": -77.032238}, {"is_reserved": 0, "fusion_lon": 0.0, "fusion_lat": 0.0, "name": "8d8ee05b4501a5024c887abc0e39534a", "type": "electric_scooter", "is_disabled": 0, "lat": 38.897493833333336, "rental_uris": {"android": "https://dc.lft.to/lastmile_qr_scan", "ios": "https://dc.lft.to/lastmile_qr_scan"}, "bike_id": "8d8ee05b4501a5024c887abc0e39534a", "lon": -77.048203}, {"is_reserved": 0, "fusion_lon": 0.0, "fusion_lat": 0.0, "name": "728e975c6205c20a4d147dfee2a62cff", "type": "electric_scooter", "is_disabled": 0, "lat": 38.905545000000004, "rental_uris": {"android": "https://dc.lft.to/lastmile_qr_scan", "ios": "https://dc.lft.to/lastmile_qr_scan"}, "bike_id": "728e975c6205c20a4d147dfee2a62cff", "lon": -77.00295016666666}, {"is_reserved": 0, "fusion_lon": 0.0, "fusion_lat": 0.0, "name": "12a8aa626c7f434796b9622b3551bb30", "type": "electric_scooter", "is_disabled": 0, "lat": 38.90173633333333, "rental_uris": {"android": "https://dc.lft.to/lastmile_qr_scan", "ios": "https://dc.lft.to/lastmile_qr_scan"}, "bike_id": "12a8aa626c7f434796b9622b3551bb30", "lon": -77.06025216666667}, {"is_reserved": 0, "fusion_lon": 0.0, "fusion_lat": 0.0, "name": "6fb349b18371a4ad1bfdbefb25a44bd2", "type": "electric_scooter", "is_disabled": 0, "lat": 38.8955255, "rental_uris": {"android": "https://dc.lft.to/lastmile_qr_scan", "ios": "https://dc.lft.to/lastmile_qr_scan"}, "bike_id": "6fb349b18371a4ad1bfdbefb25a44bd2", "lon": -76.948782}, {"is_reserved": 0, "fusion_lon": 0.0, "fusion_lat": 0.0, "name": "1757dce1fc3cec097d5438cd3c15faa9", "type": "electric_scooter", "is_disabled": 0, "lat": 38.92342716666667, "rental_uris": {"android": "https://dc.lft.to/lastmile_qr_scan", "ios": "https://dc.lft.to/lastmile_qr_scan"}, "bike_id": "1757dce1fc3cec097d5438cd3c15faa9", "lon": -77.04188066666667}, {"is_reserved": 0, "fusion_lon": 0.0, "fusion_lat": 0.0, "name": "75116c1a688de9de031c876b242c2a32", "type": "electric_scooter", "is_disabled": 0, "lat": 38.9110075, "rental_uris": {"android": "https://dc.lft.to/lastmile_qr_scan", "ios": "https://dc.lft.to/lastmile_qr_scan"}, "bike_id": "75116c1a688de9de031c876b242c2a32", "lon": -77.02801916666667}, {"is_reserved": 0, "fusion_lon": 0.0, "fusion_lat": 0.0, "name": "48c1fdf891bb24863e2330331e872729", "type": "electric_scooter", "is_disabled": 0, "lat": 38.876559, "rental_uris": {"android": "https://dc.lft.to/lastmile_qr_scan", "ios": "https://dc.lft.to/lastmile_qr_scan"}, "bike_id": "48c1fdf891bb24863e2330331e872729", "lon": -77.01946133333334}, {"is_reserved": 0, "fusion_lon": 0.0, "fusion_lat": 0.0, "name": "d465f508cbffd6af2f12eb1a825cbcd9", "type": "electric_scooter", "is_disabled": 0, "lat": 38.89462783333333, "rental_uris": {"android": "https://dc.lft.to/lastmile_qr_scan", "ios": "https://dc.lft.to/lastmile_qr_scan"}, "bike_id": "d465f508cbffd6af2f12eb1a825cbcd9", "lon": -77.02252883333334}, {"is_reserved": 0, "fusion_lon": 0.0, "fusion_lat": 0.0, "name": "6208a127db858be71cd29223cdf83cca", "type": "electric_bike", "is_disabled": 0, "lat": 38.9696135, "rental_uris": {"android": "https://dc.lft.to/lastmile_qr_scan", "ios": "https://dc.lft.to/lastmile_qr_scan"}, "bike_id": "6208a127db858be71cd29223cdf83cca", "lon": -76.95748166666667}, {"is_reserved": 0, "fusion_lon": 0.0, "fusion_lat": 0.0, "name": "57c6232fd469b849797516e5bfbae538", "type": "electric_scooter", "is_disabled": 0, "lat": 38.90951333333334, "rental_uris": {"android": "https://dc.lft.to/lastmile_qr_scan", "ios": "https://dc.lft.to/lastmile_qr_scan"}, "bike_id": "57c6232fd469b849797516e5bfbae538", "lon": -77.0466145}, {"is_reserved": 0, "fusion_lon": 0.0, "fusion_lat": 0.0, "name": "ea498ec5738ca52488b4b329579b85ce", "type": "electric_scooter", "is_disabled": 0, "lat": 38.917344666666665, "rental_uris": {"android": "https://dc.lft.to/lastmile_qr_scan", "ios": "https://dc.lft.to/lastmile_qr_scan"}, "bike_id": "ea498ec5738ca52488b4b329579b85ce", "lon": -77.03650133333333}, {"is_reserved": 0, "fusion_lon": 0.0, "fusion_lat": 0.0, "name": "04a9e1c4a81c0025bb87c935a887c583", "type": "electric_scooter", "is_disabled": 0, "lat": 38.904945166666664, "rental_uris": {"android": "https://dc.lft.to/lastmile_qr_scan", "ios": "https://dc.lft.to/lastmile_qr_scan"}, "bike_id": "04a9e1c4a81c0025bb87c935a887c583", "lon": -77.0465865}, {"is_reserved": 0, "fusion_lon": 0.0, "fusion_lat": 0.0, "name": "296a4b7f1da355cd77b44e118ac66fd1", "type": "electric_scooter", "is_disabled": 0, "lat": 38.9251465, "rental_uris": {"android": "https://dc.lft.to/lastmile_qr_scan", "ios": "https://dc.lft.to/lastmile_qr_scan"}, "bike_id": "296a4b7f1da355cd77b44e118ac66fd1", "lon": -77.0387265}, {"is_reserved": 0, "fusion_lon": 0.0, "fusion_lat": 0.0, "name": "879586e9700eb7012cb8fa067ddf568e", "type": "electric_scooter", "is_disabled": 0, "lat": 38.921807333333334, "rental_uris": {"android": "https://dc.lft.to/lastmile_qr_scan", "ios": "https://dc.lft.to/lastmile_qr_scan"}, "bike_id": "879586e9700eb7012cb8fa067ddf568e", "lon": -77.02656166666667}, {"is_reserved": 0, "fusion_lon": 0.0, "fusion_lat": 0.0, "name": "8126c4ea3b1e7e26a48bd98a84afddfa", "type": "electric_bike", "is_disabled": 0, "lat": 38.938097166666665, "rental_uris": {"android": "https://dc.lft.to/lastmile_qr_scan", "ios": "https://dc.lft.to/lastmile_qr_scan"}, "bike_id": "8126c4ea3b1e7e26a48bd98a84afddfa", "lon": -77.06856016666667}, {"is_reserved": 0, "fusion_lon": 0.0, "fusion_lat": 0.0, "name": "8662930babb5729014c00e44b8452b3b", "type": "electric_bike", "is_disabled": 0, "lat": 38.853742, "rental_uris": {"android": "https://dc.lft.to/lastmile_qr_scan", "ios": "https://dc.lft.to/lastmile_qr_scan"}, "bike_id": "8662930babb5729014c00e44b8452b3b", "lon": -77.12467066666666}, {"is_reserved": 0, "fusion_lon": 0.0, "fusion_lat": 0.0, "name": "cc8c9110c124e6e6022be09271a643f5", "type": "electric_scooter", "is_disabled": 0, "lat": 38.91703616666667, "rental_uris": {"android": "https://dc.lft.to/lastmile_qr_scan", "ios": "https://dc.lft.to/lastmile_qr_scan"}, "bike_id": "cc8c9110c124e6e6022be09271a643f5", "lon": -77.0288445}, {"is_reserved": 0, "fusion_lon": 0.0, "fusion_lat": 0.0, "name": "2df8b5bfc29db2188688047817eca065", "type": "electric_scooter", "is_disabled": 0, "lat": 38.93617716666667, "rental_uris": {"android": "https://dc.lft.to/lastmile_qr_scan", "ios": "https://dc.lft.to/lastmile_qr_scan"}, "bike_id": "2df8b5bfc29db2188688047817eca065", "lon": -77.06755533333333}, {"is_reserved": 0, "fusion_lon": 0.0, "fusion_lat": 0.0, "name": "7f35a0885d88fbfa5a7824a2450e4b07", "type": "electric_bike", "is_disabled": 0, "lat": 38.872998, "rental_uris": {"android": "https://dc.lft.to/lastmile_qr_scan", "ios": "https://dc.lft.to/lastmile_qr_scan"}, "bike_id": "7f35a0885d88fbfa5a7824a2450e4b07", "lon": -77.13931016666666}, {"is_reserved": 0, "fusion_lon": 0.0, "fusion_lat": 0.0, "name": "de414d40aecc6f22e8b1ac9c8548db25", "type": "electric_scooter", "is_disabled": 0, "lat": 38.89624083333333, "rental_uris": {"android": "https://dc.lft.to/lastmile_qr_scan", "ios": "https://dc.lft.to/lastmile_qr_scan"}, "bike_id": "de414d40aecc6f22e8b1ac9c8548db25", "lon": -77.03180633333334}, {"is_reserved": 0, "fusion_lon": 0.0, "fusion_lat": 0.0, "name": "0423b1e788ed643a2d7ecee59f189aa3", "type": "electric_scooter", "is_disabled": 0, "lat": 38.910922666666664, "rental_uris": {"android": "https://dc.lft.to/lastmile_qr_scan", "ios": "https://dc.lft.to/lastmile_qr_scan"}, "bike_id": "0423b1e788ed643a2d7ecee59f189aa3", "lon": -77.0448115}, {"is_reserved": 0, "fusion_lon": 0.0, "fusion_lat": 0.0, "name": "90c5160401c53aab9cced527e33e57b0", "type": "electric_scooter", "is_disabled": 0, "lat": 38.89753866666667, "rental_uris": {"android": "https://dc.lft.to/lastmile_qr_scan", "ios": "https://dc.lft.to/lastmile_qr_scan"}, "bike_id": "90c5160401c53aab9cced527e33e57b0", "lon": -77.04399683333334}, {"is_reserved": 0, "fusion_lon": 0.0, "fusion_lat": 0.0, "name": "c9273d70c3fe916e88210c424d3100d3", "type": "electric_scooter", "is_disabled": 0, "lat": 38.904767, "rental_uris": {"android": "https://dc.lft.to/lastmile_qr_scan", "ios": "https://dc.lft.to/lastmile_qr_scan"}, "bike_id": "c9273d70c3fe916e88210c424d3100d3", "lon": -77.03553133333334}, {"is_reserved": 0, "fusion_lon": 0.0, "fusion_lat": 0.0, "name": "f4415fba9450b9e84a30c26833d57640", "type": "electric_scooter", "is_disabled": 0, "lat": 38.90426033333333, "rental_uris": {"android": "https://dc.lft.to/lastmile_qr_scan", "ios": "https://dc.lft.to/lastmile_qr_scan"}, "bike_id": "f4415fba9450b9e84a30c26833d57640", "lon": -77.03458866666666}, {"is_reserved": 0, "fusion_lon": 0.0, "fusion_lat": 0.0, "name": "bfd59ff833d0def5a982191c1c5897c9", "type": "electric_scooter", "is_disabled": 0, "lat": 38.904628833333334, "rental_uris": {"android": "https://dc.lft.to/lastmile_qr_scan", "ios": "https://dc.lft.to/lastmile_qr_scan"}, "bike_id": "bfd59ff833d0def5a982191c1c5897c9", "lon": -77.03091483333333}, {"is_reserved": 0, "fusion_lon": 0.0, "fusion_lat": 0.0, "name": "56d52b84b508cd6f5f7d43283c9680c5", "type": "electric_scooter", "is_disabled": 0, "lat": 38.942993666666666, "rental_uris": {"android": "https://dc.lft.to/lastmile_qr_scan", "ios": "https://dc.lft.to/lastmile_qr_scan"}, "bike_id": "56d52b84b508cd6f5f7d43283c9680c5", "lon": -77.058845}, {"is_reserved": 0, "fusion_lon": 0.0, "fusion_lat": 0.0, "name": "a6981acedcdff53fc729177c86c9ad75", "type": "electric_scooter", "is_disabled": 0, "lat": 38.9159715, "rental_uris": {"android": "https://dc.lft.to/lastmile_qr_scan", "ios": "https://dc.lft.to/lastmile_qr_scan"}, "bike_id": "a6981acedcdff53fc729177c86c9ad75", "lon": -77.02310516666667}, {"is_reserved": 0, "fusion_lon": 0.0, "fusion_lat": 0.0, "name": "d95e7b2a279c1d8c66ccdb7d6d86242f", "type": "electric_scooter", "is_disabled": 0, "lat": 38.89877716666667, "rental_uris": {"android": "https://dc.lft.to/lastmile_qr_scan", "ios": "https://dc.lft.to/lastmile_qr_scan"}, "bike_id": "d95e7b2a279c1d8c66ccdb7d6d86242f", "lon": -77.03267983333333}, {"is_reserved": 0, "fusion_lon": 0.0, "fusion_lat": 0.0, "name": "c307e5123fe09478dd30e19c6535b9ee", "type": "electric_scooter", "is_disabled": 0, "lat": 38.9518485, "rental_uris": {"android": "https://dc.lft.to/lastmile_qr_scan", "ios": "https://dc.lft.to/lastmile_qr_scan"}, "bike_id": "c307e5123fe09478dd30e19c6535b9ee", "lon": -77.02729933333333}, {"is_reserved": 0, "fusion_lon": 0.0, "fusion_lat": 0.0, "name": "e364d655833230355da9abadb6e3b4e2", "type": "electric_scooter", "is_disabled": 0, "lat": 38.888542666666666, "rental_uris": {"android": "https://dc.lft.to/lastmile_qr_scan", "ios": "https://dc.lft.to/lastmile_qr_scan"}, "bike_id": "e364d655833230355da9abadb6e3b4e2", "lon": -77.031117}, {"is_reserved": 0, "fusion_lon": 0.0, "fusion_lat": 0.0, "name": "1094d159cce43d55a029bce44190e3e2", "type": "electric_scooter", "is_disabled": 0, "lat": 38.891852666666665, "rental_uris": {"android": "https://dc.lft.to/lastmile_qr_scan", "ios": "https://dc.lft.to/lastmile_qr_scan"}, "bike_id": "1094d159cce43d55a029bce44190e3e2", "lon": -77.03638166666667}, {"is_reserved": 0, "fusion_lon": 0.0, "fusion_lat": 0.0, "name": "6118b634a65f1be08c827d4162f80f79", "type": "electric_scooter", "is_disabled": 0, "lat": 38.898264, "rental_uris": {"android": "https://dc.lft.to/lastmile_qr_scan", "ios": "https://dc.lft.to/lastmile_qr_scan"}, "bike_id": "6118b634a65f1be08c827d4162f80f79", "lon": -76.9465325}, {"is_reserved": 0, "fusion_lon": 0.0, "fusion_lat": 0.0, "name": "95d64c36857ad97bec11273cab5aa041", "type": "electric_bike", "is_disabled": 0, "lat": 38.99659033333333, "rental_uris": {"android": "https://dc.lft.to/lastmile_qr_scan", "ios": "https://dc.lft.to/lastmile_qr_scan"}, "bike_id": "95d64c36857ad97bec11273cab5aa041", "lon": -77.03991516666666}, {"is_reserved": 0, "fusion_lon": 0.0, "fusion_lat": 0.0, "name": "4976cdeb21029a006ddabd793713a3f7", "type": "electric_scooter", "is_disabled": 0, "lat": 38.892221666666664, "rental_uris": {"android": "https://dc.lft.to/lastmile_qr_scan", "ios": "https://dc.lft.to/lastmile_qr_scan"}, "bike_id": "4976cdeb21029a006ddabd793713a3f7", "lon": -77.0222965}, {"is_reserved": 0, "fusion_lon": 0.0, "fusion_lat": 0.0, "name": "2459333f3f962fcab51e634e7c342c2b", "type": "electric_scooter", "is_disabled": 0, "lat": 38.919132, "rental_uris": {"android": "https://dc.lft.to/lastmile_qr_scan", "ios": "https://dc.lft.to/lastmile_qr_scan"}, "bike_id": "2459333f3f962fcab51e634e7c342c2b", "lon": -77.03191016666666}, {"is_reserved": 0, "fusion_lon": 0.0, "fusion_lat": 0.0, "name": "bbc991b3e10232f4982111e67dfc1478", "type": "electric_scooter", "is_disabled": 0, "lat": 38.907719, "rental_uris": {"android": "https://dc.lft.to/lastmile_qr_scan", "ios": "https://dc.lft.to/lastmile_qr_scan"}, "bike_id": "bbc991b3e10232f4982111e67dfc1478", "lon": -76.97830916666666},