{"data": {"bikes": [{"name": "ec29a8abcb63383c3e96e9fda1a2d093", "fusion_lat": 0.0, "type": "electric_bike", "lat": 39.088568, "is_reserved": 0, "is_disabled": 0, "fusion_lon": 0.0, "bike_id": "ec29a8abcb63383c3e96e9fda1a2d093", "lon": -77.17839183333334, "rental_uris": {"ios": "https://dc.lft.to/lastmile_qr_scan", "android": "https://dc.lft.to/lastmile_qr_scan"}}, {"name": "20e300e38aab9b0b573d345a5773e988", "fusion_lat": 0.0, "type": "electric_scooter", "lat": 38.87783233333333, "is_reserved": 0, "is_disabled": 0, "fusion_lon": 0.0, "bike_id": "20e300e38aab9b0b573d345a5773e988", "lon": -76.99411433333333, "rental_uris": {"ios": "https://dc.lft.to/lastmile_qr_scan", "android": "https://dc.lft.to/lastmile_qr_scan"}}, {"name": "57afc5f79312c4646028a96b1f1d9fe1", "fusion_lat": 0.0, "type": "electric_scooter", "lat": 38.86691666666667, "is_reserved": 0, "is_disabled": 0, "fusion_lon": 0.0, "bike_id": "57afc5f79312c4646028a96b1f1d9fe1", "lon": -76.989042, "rental_uris": {"ios": "https://dc.lft.to/lastmile_qr_scan", "android": "https://dc.lft.to/lastmile_qr_scan"}}, {"name": "9e5743b353903665f1405b8ac3ff48fe", "fusion_lat": 0.0, "type": "electric_scooter", "lat": 38.906776666666666, "is_reserved": 0, "is_disabled": 0, "fusion_lon": 0.0, "bike_id": "9e5743b353903665f1405b8ac3ff48fe", "lon": -77.03840483333333, "rental_uris": {"ios": "https://dc.lft.to/lastmile_qr_scan", "android": "https://dc.lft.to/lastmile_qr_scan"}}, {"name": "553a744f52cf4014e126df4ea7a0edd0", "fusion_lat": 0.0, "type": "electric_scooter", "lat": 38.902635, "is_reserved": 0, "is_disabled": 0, "fusion_lon": 0.0, "bike_id": "553a744f52cf4014e126df4ea7a0edd0", "lon": -76.98714783333334, "rental_uris": {"ios": "https://dc.lft.to/lastmile_qr_scan", "android": "https://dc.lft.to/lastmile_qr_scan"}}, {"name": "233659e09c2d610eaa7da955c7270db6", "fusion_lat": 0.0, "type": "electric_scooter", "lat": 38.9113195, "is_reserved": 0, "is_disabled": 0, "fusion_lon": 0.0, "bike_id": "233659e09c2d610eaa7da955c7270db6", "lon": -77.03837283333333, "rental_uris": {"ios": "https://dc.lft.to/lastmile_qr_scan", "android": "https://dc.lft.to/lastmile_qr_scan"}}, {"name": "a68760e1e8a890569fad823e7b19df62", "fusion_lat": 0.0, "type": "electric_scooter", "lat": 38.865338666666666, "is_reserved": 0, "is_disabled": 0, "fusion_lon": 0.0, "bike_id": "a68760e1e8a890569fad823e7b19df62", "lon": -76.98705316666667, "rental_uris": {"ios": "https://dc.lft.to/lastmile_qr_scan", "android": "https://dc.lft.to/lastmile_qr_scan"}}, {"name": "ad214d595868717e08837ed1fe299221", "fusion_lat": 0.0, "type": "electric_scooter", "lat": 38.903921833333335, "is_reserved": 0, "is_disabled": 0, "fusion_lon": 0.0, "bike_id": "ad214d595868717e08837ed1fe299221", "lon": -77.021878, "rental_uris": {"ios": "https://dc.lft.to/lastmile_qr_scan", "android": "https://dc.lft.to/lastmile_qr_scan"}}, {"name": "e46b4b028a7e08a7fec5a7e77538448f", "fusion_lat": 0.0, "type": "electric_bike", "lat": 38.928512166666664, "is_reserved": 0, "is_disabled": 0, "fusion_lon": 0.0, "bike_id": "e46b4b028a7e08a7fec5a7e77538448f", "lon": -77.2220825, "rental_uris": {"ios": "https://dc.lft.to/lastmile_qr_scan", "android": "https://dc.lft.to/lastmile_qr_scan"}}, {"name": "20f1b958195abf0b54caadad8d243516", "fusion_lat": 0.0, "type": "electric_bike", "lat": 39.05315383333333, "is_reserved": 0, "is_disabled": 0, "fusion_lon": 0.0, "bike_id": "20f1b958195abf0b54caadad8d243516", "lon": -77.0477275, "rental_uris": {"ios": "https://dc.lft.to/lastmile_qr_scan", "android": "https://dc.lft.to/lastmile_qr_scan"}}, {"name": "51e33353115d1becb9501635e44afb79", "fusion_lat": 0.0, "type": "electric_bike", "lat": 38.93520766666666, "is_reserved": 0, "is_disabled": 0, "fusion_lon": 0.0, "bike_id": "51e33353115d1becb9501635e44afb79", "lon": -76.9506265, "rental_uris": {"ios": "https://dc.lft.to/lastmile_qr_scan", "android": "https://dc.lft.to/lastmile_qr_scan"}}, {"name": "5b47f59d81c05fa212dc21a43ccb3cb9", "fusion_lat": 0.0, "type": "electric_scooter", "lat": 38.876629666666666, "is_reserved": 0, "is_disabled": 0, "fusion_lon": 0.0, "bike_id": "5b47f59d81c05fa212dc21a43ccb3cb9", "lon": -77.00065716666667, "rental_uris": {"ios": "https://dc.lft.to/lastmile_qr_scan", "android": "https://dc.lft.to/lastmile_qr_scan"}}, {"name": "046fe47d3e575a350b06fc939b0ccf5d", "fusion_lat": 0.0, "type": "electric_scooter", "lat": 38.921531333333334, "is_reserved": 0, "is_disabled": 0, "fusion_lon": 0.0, "bike_id": "046fe47d3e575a350b06fc939b0ccf5d", "lon": -77.0387095, "rental_uris": {"ios": "https://dc.lft.to/lastmile_qr_scan", "android": "https://dc.lft.to/lastmile_qr_scan"}}, {"name": "02935849245ecacab3a979de4aa51016", "fusion_lat": 0.0, "type": "electric_scooter", "lat": 38.935758166666666, "is_reserved": 0, "is_disabled": 0, "fusion_lon": 0.0, "bike_id": "02935849245ecacab3a979de4aa51016", "lon": -77.02745383333334, "rental_uris": {"ios": "https://dc.lft.to/lastmile_qr_scan", "android": "https://dc.lft.to/lastmile_qr_scan"}}, {"name": "2eacadc8c48fea12c19e557cee38d4c2", "fusion_lat": 0.0, "type": "electric_scooter", "lat": 38.921533333333336, "is_reserved": 0, "is_disabled": 0, "fusion_lon": 0.0, "bike_id": "2eacadc8c48fea12c19e557cee38d4c2", "lon": -77.03384583333333, "rental_uris": {"ios": "https://dc.lft.to/lastmile_qr_scan", "android": "https://dc.lft.to/lastmile_qr_scan"}}, {"name": "e62a520b48e210b9023454573d7a0632", "fusion_lat": 0.0, "type": "electric_scooter", "lat": 38.897086, "is_reserved": 0, "is_disabled": 0, "fusion_lon": 0.0, "bike_id": "e62a520b48e210b9023454573d7a0632", "lon": -77.02065516666667, "rental_uris": {"ios": "https://dc.lft.to/lastmile_qr_scan", "android": "https://dc.lft.to/lastmile_qr_scan"}}, {"name": "518da8ff8dab0d2c1e53af0ba490598a", "fusion_lat": 0.0, "type": "electric_scooter", "lat": 38.87698, "is_reserved": 0, "is_disabled": 0, "fusion_lon": 0.0, "bike_id": "518da8ff8dab0d2c1e53af0ba490598a", "lon": -77.01767133333334, "rental_uris": {"ios": "https://dc.lft.to/lastmile_qr_scan", "android": "https://dc.lft.to/lastmile_qr_scan"}}, {"name": "b008d33b645c57addc680e4debf6bcdb", "fusion_lat": 0.0, "type": "electric_scooter", "lat": 38.89994, "is_reserved": 0, "is_disabled": 0, "fusion_lon": 0.0, "bike_id": "b008d33b645c57addc680e4debf6bcdb", "lon": -77.0404485, "rental_uris": {"ios": "https://dc.lft.to/lastmile_qr_scan", "android": "https://dc.lft.to/lastmile_qr_scan"}}, {"name": "f431617e8ddfb1046c71f1976c580389", "fusion_lat": 0.0, "type": "electric_scooter", "lat": 38.895338833333334, "is_reserved": 0, "is_disabled": 0, "fusion_lon": 0.0, "bike_id": "f431617e8ddfb1046c71f1976c580389", "lon": -77.03349366666667, "rental_uris": {"ios": "https://dc.lft.to/lastmile_qr_scan", "android": "https://dc.lft.to/lastmile_qr_scan"}}, {"name": "231e958a03c2a9a1a1c1057fb69deab7", "fusion_lat": 0.0, "type": "electric_scooter", "lat": 38.9084955, "is_reserved": 0, "is_disabled": 0, "fusion_lon": 0.0, "bike_id": "231e958a03c2a9a1a1c1057fb69deab7", "lon": -77.01099983333333, "rental_uris": {"ios": "https://dc.lft.to/lastmile_qr_scan", "android": "https://dc.lft.to/lastmile_qr_scan"}}, {"name": "68687718ae999eea5f895a0c3fd61d66", "fusion_lat": 0.0, "type": "electric_scooter", "lat": 38.90113983333333, "is_reserved": 0, "is_disabled": 0, "fusion_lon": 0.0, "bike_id": "68687718ae999eea5f895a0c3fd61d66", "lon": -77.04241933333333, "rental_uris": {"ios": "https://dc.lft.to/lastmile_qr_scan", "android": "https://dc.lft.to/lastmile_qr_scan"}}, {"name": "3223b5e2dd4186d6ecb2d0bfc47da074", "fusion_lat": 0.0, "type": "electric_scooter", "lat": 38.92150566666667, "is_reserved": 0, "is_disabled": 0, "fusion_lon": 0.0, "bike_id": "3223b5e2dd4186d6ecb2d0bfc47da074", "lon": -77.0338135, "rental_uris": {"ios": "https://dc.lft.to/lastmile_qr_scan", "android": "https://dc.lft.to/lastmile_qr_scan"}}, {"name": "2d63ebb082a96ba5dc60e138ea734cf3", "fusion_lat": 0.0, "type": "electric_scooter", "lat": 38.935415166666665, "is_reserved": 0, "is_disabled": 0, "fusion_lon": 0.0, "bike_id": "2d63ebb082a96ba5dc60e138ea734cf3", "lon": -77.0341755, "rental_uris": {"ios": "https://dc.lft.to/lastmile_qr_scan", "android": "https://dc.lft.to/lastmile_qr_scan"}}, {"name": "f824b3c95ab1a62edc63d2dadd0d593d", "fusion_lat": 0.0, "type": "electric_scooter", "lat": 38.93701083333333, "is_reserved": 0, "is_disabled": 0, "fusion_lon": 0.0, "bike_id": "f824b3c95ab1a62edc63d2dadd0d593d", "lon": -77.0239935, "rental_uris": {"ios": "https://dc.lft.to/lastmile_qr_scan", "android": "https://dc.lft.to/lastmile_qr_scan"}}, {"name": "6b97d309434c7712d3f2e0b888cc33b1", "fusion_lat": 0.0, "type": "electric_scooter", "lat": 38.903482333333336, "is_reserved": 0, "is_disabled": 0, "fusion_lon": 0.0, "bike_id": "6b97d309434c7712d3f2e0b888cc33b1", "lon": -77.00578333333333, "rental_uris": {"ios": "https://dc.lft.to/lastmile_qr_scan", "android": "https://dc.lft.to/lastmile_qr_scan"}}, {"name": "e649ff54b80d8330457fe854bc89b736", "fusion_lat": 0.0, "type": "electric_scooter", "lat": 38.8852555, "is_reserved": 0, "is_disabled": 0, "fusion_lon": 0.0, "bike_id": "e649ff54b80d8330457fe854bc89b736", "lon": -76.9805475, "rental_uris": {"ios": "https://dc.lft.to/lastmile_qr_scan", "android": "https://dc.lft.to/lastmile_qr_scan"}}, {"name": "be1fe007928ce0c4d2f042f2fdd8fbfb", "fusion_lat": 0.0, "type": "electric_scooter", "lat": 38.9050055, "is_reserved": 0, "is_disabled": 0, "fusion_lon": 0.0, "bike_id": "be1fe007928ce0c4d2f042f2fdd8fbfb", "lon": -77.04858333333334, "rental_uris": {"ios": "https://dc.lft.to/lastmile_qr_scan", "android": "https://dc.lft.to/lastmile_qr_scan"}}, {"name": "f093342dfc1a589570a29d43ef15cf72", "fusion_lat": 0.0, "type": "electric_scooter", "lat": 38.86245483333333, "is_reserved": 0, "is_disabled": 0, "fusion_lon": 0.0, "bike_id": "f093342dfc1a589570a29d43ef15cf72", "lon": -76.99535733333333, "rental_uris": {"ios": "https://dc.lft.to/lastmile_qr_scan", "android": "https://dc.lft.to/lastmile_qr_scan"}}, {"name": "fffc35510da5e14dc7f327c1940247db", "fusion_lat": 0.0, "type": "electric_scooter", "lat": 38.9014415, "is_reserved": 0, "is_disabled": 0, "fusion_lon": 0.0, "bike_id": "fffc35510da5e14dc7f327c1940247db", "lon": -76.97421966666667, "rental_uris": {"ios": "https://dc.lft.to/lastmile_qr_scan", "android": "https://dc.lft.to/lastmile_qr_scan"}}, {"name": "86ff5f22a0e480eaabf8ac9d872a760c", "fusion_lat": 0.0, "type": "electric_scooter", "lat": 38.937364333333335, "is_reserved": 0, "is_disabled": 0, "fusion_lon": 0.0, "bike_id": "86ff5f22a0e480eaabf8ac9d872a760c", "lon": -77.03259533333333, "rental_uris": {"ios": "https://dc.lft.to/lastmile_qr_scan", "android": "https://dc.lft.to/lastmile_qr_scan"}}, {"name": "8ba817157af534871e40b6154c64dbd2", "fusion_lat": 0.0, "type": "electric_scooter", "lat": 38.8650485, "is_reserved": 0, "is_disabled": 0, "fusion_lon": 0.0, "bike_id": "8ba817157af534871e40b6154c64dbd2", "lon": -76.9900065, "rental_uris": {"ios": "https://dc.lft.to/lastmile_qr_scan", "android": "https://dc.lft.to/lastmile_qr_scan"}}, {"name": "cefae71641930649f01c2de34c126583", "fusion_lat": 0.0, "type": "electric_scooter", "lat": 38.9129325, "is_reserved": 0, "is_disabled": 0, "fusion_lon": 0.0, "bike_id": "cefae71641930649f01c2de34c126583", "lon": -77.06114866666667, "rental_uris": {"ios": "https://dc.lft.to/lastmile_qr_scan", "android": "https://dc.lft.to/lastmile_qr_scan"}}, {"name": "03c4f529204ef87a377bfd8a4f09a8d2", "fusion_lat": 0.0, "type": "electric_scooter", "lat": 38.94246866666667, "is_reserved": 0, "is_disabled": 0, "fusion_lon": 0.0, "bike_id": "03c4f529204ef87a377bfd8a4f09a8d2", "lon": -77.04134283333333, "rental_uris": {"ios": "https://dc.lft.to/lastmile_qr_scan", "android": "https://dc.lft.to/lastmile_qr_scan"}}, {"name": "65ad52cdff31167f25cdb0b5c9ce1cc1", "fusion_lat": 0.0, "type": "electric_scooter", "lat": 38.907273333333336, "is_reserved": 0, "is_disabled": 0, "fusion_lon": 0.0, "bike_id": "65ad52cdff31167f25cdb0b5c9ce1cc1", "lon": -77.01069233333334, "rental_uris": {"ios": "https://dc.lft.to/lastmile_qr_scan", "android": "https://dc.lft.to/lastmile_qr_scan"}}, {"name": "f1e1149abb7377c033036f9b55641d2f", "fusion_lat": 0.0, "type": "electric_scooter", "lat": 38.91822066666667, "is_reserved": 0, "is_disabled": 0, "fusion_lon": 0.0, "bike_id": "f1e1149abb7377c033036f9b55641d2f", "lon": -77.02420716666667, "rental_uris": {"ios": "https://dc.lft.to/lastmile_qr_scan", "android": "https://dc.lft.to/lastmile_qr_scan"}}, {"name": "f7bebf286f6c04cf60aefa0d65ebff25", "fusion_lat": 0.0, "type": "electric_scooter", "lat": 38.9428825, "is_reserved": 0, "is_disabled": 0, "fusion_lon": 0.0, "bike_id": "f7bebf286f6c04cf60aefa0d65ebff25", "lon": -77.02171583333333, "rental_uris": {"ios": "https://dc.lft.to/lastmile_qr_scan", "android": "https://dc.lft.to/lastmile_qr_scan"}}, {"name": "e61ca817954650bec07ff282a76f32fd", "fusion_lat": 0.0, "type": "electric_scooter", "lat": 38.907954333333336, "is_reserved": 0, "is_disabled": 0, "fusion_lon": 0.0, "bike_id": "e61ca817954650bec07ff282a76f32fd", "lon": -77.04819233333333, "rental_uris": {"ios": "https://dc.lft.to/lastmile_qr_scan", "android": "https://dc.lft.to/lastmile_qr_scan"}}, {"name": "a35d062e659ce56ba178c514584a8935", "fusion_lat": 0.0, "type": "electric_scooter", "lat": 38.863701666666664, "is_reserved": 0, "is_disabled": 0, "fusion_lon": 0.0, "bike_id": "a35d062e659ce56ba178c514584a8935", "lon": -77.0136545, "rental_uris": {"ios": "https://dc.lft.to/lastmile_qr_scan", "android": "https://dc.lft.to/lastmile_qr_scan"}}, {"name": "50ddb434afd2e02e26485a4aa5869bb4", "fusion_lat": 0.0, "type": "electric_scooter", "lat": 38.91248133333333, "is_reserved": 0, "is_disabled": 0, "fusion_lon": 0.0, "bike_id": "50ddb434afd2e02e26485a4aa5869bb4", "lon": -77.02227633333334, "rental_uris": {"ios": "https://dc.lft.to/lastmile_qr_scan", "android": "https://dc.lft.to/lastmile_qr_scan"}}, {"name": "77cf1c562bd2ef0526746737aaa11b2d", "fusion_lat": 0.0, "type": "electric_scooter", "lat": 38.929991666666666, "is_reserved": 0, "is_disabled": 0, "fusion_lon": 0.0, "bike_id": "77cf1c562bd2ef0526746737aaa11b2d", "lon": -77.02310533333333, "rental_uris": {"ios": "https://dc.lft.to/lastmile_qr_scan", "android": "https://dc.lft.to/lastmile_qr_scan"}}, {"name": "e80b24abe104de8cb3c1034d216a1717", "fusion_lat": 0.0, "type": "electric_scooter", "lat": 38.919877, "is_reserved": 0, "is_disabled": 0, "fusion_lon": 0.0, "bike_id": "e80b24abe104de8cb3c1034d216a1717", "lon": -76.97305383333334, "rental_uris": {"ios": "https://dc.lft.to/lastmile_qr_scan", "android": "https://dc.lft.to/lastmile_qr_scan"}}, {"name": "7d32e22ff92cd55024e68665521d6b59", "fusion_lat": 0.0, "type": "electric_scooter", "lat": 38.897346666666664, "is_reserved": 0, "is_disabled": 0, "fusion_lon": 0.0, "bike_id": "7d32e22ff92cd55024e68665521d6b59", "lon": -76.94254833333333, "rental_uris": {"ios": "https://dc.lft.to/lastmile_qr_scan", "android": "https://dc.lft.to/lastmile_qr_scan"}}, {"name": "db72c8d80abd950760471b54c6413507", "fusion_lat": 0.0, "type": "electric_bike", "lat": 38.921069, "is_reserved": 0, "is_disabled": 0, "fusion_lon": 0.0, "bike_id": "db72c8d80abd950760471b54c6413507", "lon": -77.063358, "rental_uris": {"ios": "https://dc.lft.to/lastmile_qr_scan", "android": "https://dc.lft.to/lastmile_qr_scan"}}, {"name": "8f06c5c99dac4aef4be84b7be766102d", "fusion_lat": 0.0, "type": "electric_bike", "lat": 38.941790833333336, "is_reserved": 0, "is_disabled": 0, "fusion_lon": 0.0, "bike_id": "8f06c5c99dac4aef4be84b7be766102d", "lon": -77.02867833333333, "rental_uris": {"ios": "https://dc.lft.to/lastmile_qr_scan", "android": "https://dc.lft.to/lastmile_qr_scan"}}, {"name": "ba90dd6def9ea13587cae1c6f99ad7b3", "fusion_lat": 0.0, "type": "electric_scooter", "lat": 38.932382, "is_reserved": 0, "is_disabled": 0, "fusion_lon": 0.0, "bike_id": "ba90dd6def9ea13587cae1c6f99ad7b3", "lon": -77.0358605, "rental_uris": {"ios": "https://dc.lft.to/lastmile_qr_scan", "android": "https://dc.lft.to/lastmile_qr_scan"}}, {"name": "b7b31bf2cb08639b9752e7ff4d942c57", "fusion_lat": 0.0, "type": "electric_scooter", "lat": 38.923587, "is_reserved": 0, "is_disabled": 0, "fusion_lon": 0.0, "bike_id": "b7b31bf2cb08639b9752e7ff4d942c57", "lon": -77.03367316666667, "rental_uris": {"ios": "https://dc.lft.to/lastmile_qr_scan", "android": "https://dc.lft.to/lastmile_qr_scan"}}, {"name": "3d530514b715ef5acb955bd32e817e01", "fusion_lat": 0.0, "type": "electric_scooter", "lat": 38.8961, "is_reserved": 0, "is_disabled": 0, "fusion_lon": 0.0, "bike_id": "3d530514b715ef5acb955bd32e817e01", "lon": -77.0454245, "rental_uris": {"ios": "https://dc.lft.to/lastmile_qr_scan", "android": "https://dc.lft.to/lastmile_qr_scan"}}, {"name": "3cb5b3759da3794f193f2c41f695ddf7", "fusion_lat": 0.0, "type": "electric_bike", "lat": 38.9906035, "is_reserved": 0, "is_disabled": 0, "fusion_lon": 0.0, "bike_id": "3cb5b3759da3794f193f2c41f695ddf7", "lon": -77.10029633333333, "rental_uris": {"ios": "https://dc.lft.to/lastmile_qr_scan", "android": "https://dc.lft.to/lastmile_qr_scan"}}, {"name": "decb96e147e9beda8ef8efebbfe38b94", "fusion_lat": 0.0, "type": "electric_scooter", "lat": 38.8831005, "is_reserved": 0, "is_disabled": 0, "fusion_lon": 0.0, "bike_id": "decb96e147e9beda8ef8efebbfe38b94", "lon": -77.01654833333333, "rental_uris": {"ios": "https://dc.lft.to/lastmile_qr_scan", "android": "https://dc.lft.to/lastmile_qr_scan"}}, {"name": "91e253a8d94325a6992d0903b676f0a4", "fusion_lat": 0.0, "type": "electric_scooter", "lat": 38.89852783333333, "is_reserved": 0, "is_disabled": 0, "fusion_lon": 0.0, "bike_id": "91e253a8d94325a6992d0903b676f0a4", "lon": -76.97657583333333, "rental_uris": {"ios": "https://dc.lft.to/lastmile_qr_scan", "android": "https://dc.lft.to/lastmile_qr_scan"}}, {"name": "a6b0827b7ffdb3719487d9795d16de06", "fusion_lat": 0.0, "type": "electric_scooter", "lat": 38.84631, "is_reserved": 0, "is_disabled": 0, "fusion_lon": 0.0, "bike_id": "a6b0827b7ffdb3719487d9795d16de06", "lon": -76.98442666666666, "rental_uris": {"ios": "https://dc.lft.to/lastmile_qr_scan", "android": "https://dc.lft.to/lastmile_qr_scan"}}, {"name": "789162ed299aafc779641ca76f805f43", "fusion_lat": 0.0, "type": "electric_scooter", "lat": 38.8954555, "is_reserved": 0, "is_disabled": 0, "fusion_lon": 0.0, "bike_id": "789162ed299aafc779641ca76f805f43", "lon": -77.01999316666667, "rental_uris": {"ios": "https://dc.lft.to/lastmile_qr_scan", "android": "https://dc.lft.to/lastmile_qr_scan"}}, {"name": "49ab04a2785a0047c072d09bd680dd52", "fusion_lat": 0.0, "type": "electric_scooter", "lat": 38.90252483333333, "is_reserved": 0, "is_disabled": 0, "fusion_lon": 0.0, "bike_id": "49ab04a2785a0047c072d09bd680dd52", "lon": -77.04345183333334, "rental_uris": {"ios": "https://dc.lft.to/lastmile_qr_scan", "android": "https://dc.lft.to/lastmile_qr_scan"}}, {"name": "2c786a0dec9cd46edc78fb87c6db6e1f", "fusion_lat": 0.0, "type": "electric_scooter", "lat": 38.90591916666666, "is_reserved": 0, "is_disabled": 0, "fusion_lon": 0.0, "bike_id": "2c786a0dec9cd46edc78fb87c6db6e1f", "lon": -77.01608033333333, "rental_uris": {"ios": "https://dc.lft.to/lastmile_qr_scan", "android": "https://dc.lft.to/lastmile_qr_scan"}}, {"name": "dd8cd4c6aacac40cb165ee0796c7efcc", "fusion_lat": 0.0, "type": "electric_scooter", "lat": 38.884843833333335, "is_reserved": 0, "is_disabled": 0, "fusion_lon": 0.0, "bike_id": "dd8cd4c6aacac40cb165ee0796c7efcc", "lon": -77.015739, "rental_uris": {"ios": "https://dc.lft.to/lastmile_qr_scan", "android": "https://dc.lft.to/lastmile_qr_scan"}}, {"name": "931799907e903c5d58a9752a45f1de67", "fusion_lat": 0.0, "type": "electric_scooter", "lat": 38.928823333333334, "is_reserved": 0, "is_disabled": 0, "fusion_lon": 0.0, "bike_id": "931799907e903c5d58a9752a45f1de67", "lon": -77.032532, "rental_uris": {"ios": "https://dc.lft.to/lastmile_qr_scan", "android": "https://dc.lft.to/lastmile_qr_scan"}}, {"name": "b0b86861752b5131ba243e91f7c11801", "fusion_lat": 0.0, "type": "electric_scooter", "lat": 38.846806666666666, "is_reserved": 0, "is_disabled": 0, "fusion_lon": 0.0, "bike_id": "b0b86861752b5131ba243e91f7c11801", "lon": -76.99205616666667, "rental_uris": {"ios": "https://dc.lft.to/lastmile_qr_scan", "android": "https://dc.lft.to/lastmile_qr_scan"}}, {"name": "8dee009b56f3d9918788fff97f186f7d", "fusion_lat": 0.0, "type": "electric_scooter", "lat": 38.858039833333336, "is_reserved": 0, "is_disabled": 0, "fusion_lon": 0.0, "bike_id": "8dee009b56f3d9918788fff97f186f7d", "lon": -76.986532, "rental_uris": {"ios": "https://dc.lft.to/lastmile_qr_scan", "android": "https://dc.lft.to/lastmile_qr_scan"}}, {"name": "ec7262028423a773f35ffd7508b074d4", "fusion_lat": 0.0, "type": "electric_scooter", "lat": 38.932656333333334, "is_reserved": 0, "is_disabled": 0, "fusion_lon": 0.0, "bike_id": "ec7262028423a773f35ffd7508b074d4", "lon": -77.0389645, "rental_uris": {"ios": "https://dc.lft.to/lastmile_qr_scan", "android": "https://dc.lft.to/lastmile_qr_scan"}}, {"name": "84c28a9145935a78fd924efd06e01a72", "fusion_lat": 0.0, "type": "electric_scooter", "lat": 38.938212166666666, "is_reserved": 0, "is_disabled": 0, "fusion_lon": 0.0, "bike_id": "84c28a9145935a78fd924efd06e01a72", "lon": -77.024751, "rental_uris": {"ios": "https://dc.lft.to/lastmile_qr_scan", "android": "https://dc.lft.to/lastmile_qr_scan"}}, {"name": "15f48c0aeb9fd80056fc65475d5c15eb", "fusion_lat": 0.0, "type": "electric_scooter", "lat": 38.857195, "is_reserved": 0, "is_disabled": 0, "fusion_lon": 0.0, "bike_id": "15f48c0aeb9fd80056fc65475d5c15eb", "lon": -76.98091233333334, "rental_uris": {"ios": "https://dc.lft.to/lastmile_qr_scan", "android": "https://dc.lft.to/lastmile_qr_scan"}}, {"name": "5e8f9ea9c0b1119aeed467318a9f415f", "fusion_lat": 0.0, "type": "electric_scooter", "lat": 38.9010315, "is_reserved": 0, "is_disabled": 0, "fusion_lon": 0.0, "bike_id": "5e8f9ea9c0b1119aeed467318a9f415f", "lon": -77.04988966666667, "rental_uris": {"ios": "https://dc.lft.to/lastmile_qr_scan", "android": "https://dc.lft.to/lastmile_qr_scan"}}, {"name": "fb2e5b67a2cffa5c1aa0e6f6ba6f2177", "fusion_lat": 0.0, "type": "electric_scooter", "lat": 38.902400166666666, "is_reserved": 0, "is_disabled": 0, "fusion_lon": 0.0, "bike_id": "fb2e5b67a2cffa5c1aa0e6f6ba6f2177", "lon": -77.01519033333334, "rental_uris": {"ios": "https://dc.lft.to/lastmile_qr_scan", "android": "https://dc.lft.to/lastmile_qr_scan"}}, {"name": "c3ca0f083a10387b11fe65894260d18e", "fusion_lat": 0.0, "type": "electric_scooter", "lat": 38.89368833333333, "is_reserved": 0, "is_disabled": 0, "fusion_lon": 0.0, "bike_id": "c3ca0f083a10387b11fe65894260d18e", "lon": -77.011814, "rental_uris": {"ios": "https://dc.lft.to/lastmile_qr_scan", "android": "https://dc.lft.to/lastmile_qr_scan"}}, {"name": "f7da23c80283b627f395660e03a26691", "fusion_lat": 0.0, "type": "electric_scooter", "lat": 38.90909083333333, "is_reserved": 0, "is_disabled": 0, "fusion_lon": 0.0, "bike_id": "f7da23c80283b627f395660e03a26691", "lon": -77.04212516666666, "rental_uris": {"ios": "https://dc.lft.to/lastmile_qr_scan", "android": "https://dc.lft.to/lastmile_qr_scan"}}, {"name": "6382d813a6c5015447176d7cb0ba286b", "fusion_lat": 0.0, "type": "electric_scooter", "lat": 38.86658833333333, "is_reserved": 0, "is_disabled": 0, "fusion_lon": 0.0, "bike_id": "6382d813a6c5015447176d7cb0ba286b", "lon": -76.98885316666667, "rental_uris": {"ios": "https://dc.lft.to/lastmile_qr_scan", "android": "https://dc.lft.to/lastmile_qr_scan"}}, {"name": "e45b48c101d7f2e88f7e1f220a3ef807", "fusion_lat": 0.0, "type": "electric_scooter", "lat": 38.914254666666665, "is_reserved": 0, "is_disabled": 0, "fusion_lon": 0.0, "bike_id": "e45b48c101d7f2e88f7e1f220a3ef807", "lon": -77.04493683333334, "rental_uris": {"ios": "https://dc.lft.to/lastmile_qr_scan", "android": "https://dc.lft.to/lastmile_qr_scan"}}, {"name": "b29763cda5261586ba8cd13eb159684a", "fusion_lat": 0.0, "type": "electric_scooter", "lat": 38.9027635, "is_reserved": 0, "is_disabled": 0, "fusion_lon": 0.0, "bike_id": "b29763cda5261586ba8cd13eb159684a", "lon": -77.03931766666666, "rental_uris": {"ios": "https://dc.lft.to/lastmile_qr_scan", "android": "https://dc.lft.to/lastmile_qr_scan"}}, {"name": "547b7a0ba598a710278d9713757d8767", "fusion_lat": 0.0, "type": "electric_scooter", "lat": 38.9125455, "is_reserved": 0, "is_disabled": 0, "fusion_lon": 0.0, "bike_id": "547b7a0ba598a710278d9713757d8767", "lon": -77.0387085, "rental_uris": {"ios": "https://dc.lft.to/lastmile_qr_scan", "android": "https://dc.lft.to/lastmile_qr_scan"}}, {"name": "ee88d34b2c1d3f4d4622957677acc612", "fusion_lat": 0.0, "type": "electric_scooter", "lat": 38.90719383333333, "is_reserved": 0, "is_disabled": 0, "fusion_lon": 0.0, "bike_id": "ee88d34b2c1d3f4d4622957677acc612", "lon": -77.00798383333333, "rental_uris": {"ios": "https://dc.lft.to/lastmile_qr_scan", "android": "https://dc.lft.to/lastmile_qr_scan"}}, {"name": "701b2c78d331013c10879d93544461ac", "fusion_lat": 0.0, "type": "electric_scooter", "lat": 38.93077783333333, "is_reserved": 0, "is_disabled": 0, "fusion_lon": 0.0, "bike_id": "701b2c78d331013c10879d93544461ac", "lon": -77.0279575, "rental_uris": {"ios": "https://dc.lft.to/lastmile_qr_scan", "android": "https://dc.lft.to/lastmile_qr_scan"}}, {"name": "3d097e516fb4a901c88b0f4ed283c096", "fusion_lat": 0.0, "type": "electric_bike", "lat": 38.898298833333335, "is_reserved": 0, "is_disabled": 0, "fusion_lon": 0.0, "bike_id": "3d097e516fb4a901c88b0f4ed283c096", "lon": -77.03028283333333, "rental_uris": {"ios": "https://dc.lft.to/lastmile_qr_scan", "android": "https://dc.lft.to/lastmile_qr_scan"}}, {"name": "85e8ec0d56c8da23fbd6fc09eb98b31f", "fusion_lat": 0.0, "type": "electric_bike", "lat": 38.8562255, "is_reserved": 0, "is_disabled": 0, "fusion_lon": 0.0, "bike_id": "85e8ec0d56c8da23fbd6fc09eb98b31f", "lon": -77.085414, "rental_uris": {"ios": "https://dc.lft.to/lastmile_qr_scan", "android": "https://dc.lft.to/lastmile_qr_scan"}}, {"name": "83a4944af755f3ce4a02b19e60890461", "fusion_lat": 0.0, "type": "electric_scooter", "lat": 38.903201333333335, "is_reserved": 0, "is_disabled": 0, "fusion_lon": 0.0, "bike_id": "83a4944af755f3ce4a02b19e60890461", "lon": -77.03638066666667, "rental_uris": {"ios": "https://dc.lft.to/lastmile_qr_scan", "android": "https://dc.lft.to/lastmile_qr_scan"}}, {"name": "0c1cd15ffd788d3ad2b96280d6ad8756", "fusion_lat": 0.0, "type": "electric_scooter", "lat": 38.922267166666664, "is_reserved": 0, "is_disabled": 0, "fusion_lon": 0.0, "bike_id": "0c1cd15ffd788d3ad2b96280d6ad8756", "lon": -77.047083, "rental_uris": {"ios": "https://dc.lft.to/lastmile_qr_scan", "android": "https://dc.lft.to/lastmile_qr_scan"}}, {"name": "7d6e09c85a812d7046489e03e866e73d", "fusion_lat": 0.0, "type": "electric_scooter", "lat": 38.91405816666666, "is_reserved": 0, "is_disabled": 0, "fusion_lon": 0.0, "bike_id": "7d6e09c85a812d7046489e03e866e73d", "lon": -77.021083, "rental_uris": {"ios": "https://dc.lft.to/lastmile_qr_scan", "android": "https://dc.lft.to/lastmile_qr_scan"}}, {"name": "c6fe1e657012afc42fbbdcacf674341c", "fusion_lat": 0.0, "type": "electric_scooter", "lat": 38.8831295, "is_reserved": 0, "is_disabled": 0, "fusion_lon": 0.0, "bike_id": "c6fe1e657012afc42fbbdcacf674341c", "lon": -77.00598416666666, "rental_uris": {"ios": "https://dc.lft.to/lastmile_qr_scan", "android": "https://dc.lft.to/lastmile_qr_scan"}}, {"name": "98984dfb57ede24a0ca6cac99d383f85", "fusion_lat": 0.0, "type": "electric_scooter", "lat": 38.8962215, "is_reserved": 0, "is_disabled": 0, "fusion_lon": 0.0, "bike_id": "98984dfb57ede24a0ca6cac99d383f85", "lon": -77.027199, "rental_uris": {"ios": "https://dc.lft.to/lastmile_qr_scan", "android": "https://dc.lft.to/lastmile_qr_scan"}}, {"name": "2cfe0c57cc685d830be1b13e4a5cad63", "fusion_lat": 0.0, "type": "electric_scooter", "lat": 38.91418816666667, "is_reserved": 0, "is_disabled": 0, "fusion_lon": 0.0, "bike_id": "2cfe0c57cc685d830be1b13e4a5cad63", "lon": -77.02205466666666, "rental_uris": {"ios": "https://dc.lft.to/lastmile_qr_scan", "android": "https://dc.lft.to/lastmile_qr_scan"}}, {"name": "17ccdb726a2165d2e0791ec33d3d114c", "fusion_lat": 0.0, "type": "electric_scooter", "lat": 38.8766035, "is_reserved": 0, "is_disabled": 0, "fusion_lon": 0.0, "bike_id": "17ccdb726a2165d2e0791ec33d3d114c", "lon": -77.0041585, "rental_uris": {"ios": "https://dc.lft.to/lastmile_qr_scan", "android": "https://dc.lft.to/lastmile_qr_scan"}}, {"name": "2f7252d0ac910069cdd19e648e1f19da", "fusion_lat": 0.0, "type": "electric_scooter", "lat": 38.9370135, "is_reserved": 0, "is_disabled": 0, "fusion_lon": 0.0, "bike_id": "2f7252d0ac910069cdd19e648e1f19da", "lon": -77.06099733333333, "rental_uris": {"ios": "https://dc.lft.to/lastmile_qr_scan", "android": "https://dc.lft.to/lastmile_qr_scan"}}, {"name": "3f453686b4dcff4561c78cbd2ae95a14", "fusion_lat": 0.0, "type": "electric_bike", "lat": 38.973802, "is_reserved": 0, "is_disabled": 0, "fusion_lon": 0.0, "bike_id": "3f453686b4dcff4561c78cbd2ae95a14", "lon": -77.06474766666666, "rental_uris": {"ios": "https://dc.lft.to/lastmile_qr_scan", "android": "https://dc.lft.to/lastmile_qr_scan"}}, {"name": "3d6a677267fc02e5217d243258095a43", "fusion_lat": 0.0, "type": "electric_bike", "lat": 38.999094, "is_reserved": 0, "is_disabled": 0, "fusion_lon": 0.0, "bike_id": "3d6a677267fc02e5217d243258095a43", "lon": -77.04617166666667, "rental_uris": {"ios": "https://dc.lft.to/lastmile_qr_scan", "android": "https://dc.lft.to/lastmile_qr_scan"}}, {"name": "aee9636cd3be97d83aa44764dbf27b02", "fusion_lat": 0.0, "type": "electric_scooter", "lat": 38.87601333333333, "is_reserved": 0, "is_disabled": 0, "fusion_lon": 0.0, "bike_id": "aee9636cd3be97d83aa44764dbf27b02", "lon": -77.00078083333334, "rental_uris": {"ios": "https://dc.lft.to/lastmile_qr_scan", "android": "https://dc.lft.to/lastmile_qr_scan"}}, {"name": "20f151184037a18dc1ad1ccd6ff62b3d", "fusion_lat": 0.0, "type": "electric_scooter", "lat": 38.909052333333335, "is_reserved": 0, "is_disabled": 0, "fusion_lon": 0.0, "bike_id": "20f151184037a18dc1ad1ccd6ff62b3d", "lon": -77.02714183333333, "rental_uris": {"ios": "https://dc.lft.to/lastmile_qr_scan", "android": "https://dc.lft.to/lastmile_qr_scan"}}, {"name": "488acf5f19570660567e7980aff1c92f", "fusion_lat": 0.0, "type": "electric_scooter", "lat": 38.8848785, "is_reserved": 0, "is_disabled": 0, "fusion_lon": 0.0, "bike_id": "488acf5f19570660567e7980aff1c92f", "lon": -77.007119, "rental_uris": {"ios": "https://dc.lft.to/lastmile_qr_scan", "android": "https://dc.lft.to/lastmile_qr_scan"}}, {"name": "c37ceb656751e82472f5433fddc9f8c9", "fusion_lat": 0.0, "type": "electric_scooter", "lat": 38.891877666666666, "is_reserved": 0, "is_disabled": 0, "fusion_lon": 0.0, "bike_id": "c37ceb656751e82472f5433fddc9f8c9", "lon": -77.0158825, "rental_uris": {"ios": "https://dc.lft.to/lastmile_qr_scan", "android": "https://dc.lft.to/lastmile_qr_scan"}}, {"name": "4def36bad5e69093bf27f83b9b1e80b5", "fusion_lat": 0.0, "type": "electric_bike", "lat": 38.892156666666665, "is_reserved": 0, "is_disabled": 0, "fusion_lon": 0.0, "bike_id": "4def36bad5e69093bf27f83b9b1e80b5", "lon": -77.10784683333333, "rental_uris": {"ios": "https://dc.lft.to/lastmile_qr_scan", "android": "https://dc.lft.to/lastmile_qr_scan"}}, {"name": "d13d22a7b82861b6de3d77657228914c", "fusion_lat": 0.0, "type": "electric_scooter", "lat": 38.915614166666664, "is_reserved": 0, "is_disabled": 0, "fusion_lon": 0.0, "bike_id": "d13d22a7b82861b6de3d77657228914c", "lon": -77.04711233333333, "rental_uris": {"ios": "https://dc.lft.to/lastmile_qr_scan", "android": "https://dc.lft.to/lastmile_qr_scan"}}, {"name": "b952319cf5d5f6c0fb03b92c01a8471d", "fusion_lat": 0.0, "type": "electric_scooter", "lat": 38.900778833333334, "is_reserved": 0, "is_disabled": 0, "fusion_lon": 0.0, "bike_id": "b952319cf5d5f6c0fb03b92c01a8471d", "lon": -77.0319645, "rental_uris": {"ios": "https://dc.lft.to/lastmile_qr_scan", "android": "https://dc.lft.to/lastmile_qr_scan"}}, {"name": "90daea6a7d1062f61a2c56c25f8212bf", "fusion_lat": 0.0, "type": "electric_scooter", "lat": 38.910679333333334, "is_reserved": 0, "is_disabled": 0, "fusion_lon": 0.0, "bike_id": "90daea6a7d1062f61a2c56c25f8212bf", "lon": -77.06714416666667, "rental_uris": {"ios": "https://dc.lft.to/lastmile_qr_scan", "android": "https://dc.lft.to/lastmile_qr_scan"}}, {"name": "ea4cb1f3acd3cbfc7884fd082c7ad17f", "fusion_lat": 0.0, "type": "electric_scooter", "lat": 38.984742833333335, "is_reserved": 0, "is_disabled": 0, "fusion_lon": 0.0, "bike_id": "ea4cb1f3acd3cbfc7884fd082c7ad17f", "lon": -77.026419, "rental_uris": {"ios": "https://dc.lft.to/lastmile_qr_scan", "android": "https://dc.lft.to/lastmile_qr_scan"}}, {"name": "80c591ce0f1ae3a9438df5ce6a7ed01b", "fusion_lat": 0.0, "type": "electric_scooter", "lat": 38.9096225, "is_reserved": 0, "is_disabled": 0, "fusion_lon": 0.0, "bike_id": "80c591ce0f1ae3a9438df5ce6a7ed01b", "lon": -77.038811, "rental_uris": {"ios": "https://dc.lft.to/lastmile_qr_scan", "android": "https://dc.lft.to/lastmile_qr_scan"}}, {"name": "181c01e45dc157fa3ed6c91c61c3e4ad", "fusion_lat": 0.0, "type": "electric_scooter", "lat": 38.91138216666667, "is_reserved": 0, "is_disabled": 0, "fusion_lon": 0.0, "bike_id": "181c01e45dc157fa3ed6c91c61c3e4ad", "lon": -77.04187266666666, "rental_uris": {"ios": "https://dc.lft.to/lastmile_qr_scan", "android": "https://dc.lft.to/lastmile_qr_scan"}}, {"name": "220dbe86ab965f293a607d0f275349ed", "fusion_lat": 0.0, "type": "electric_scooter", "lat": 38.872864166666666, "is_reserved": 0, "is_disabled": 0, "fusion_lon": 0.0, "bike_id": "220dbe86ab965f293a607d0f275349ed", "lon": -77.00987083333334, "rental_uris": {"ios": "https://dc.lft.to/lastmile_qr_scan", "android": "https://dc.lft.to/lastmile_qr_scan"}}, {"name": "a1e500e472c8c362de5dc6ea3933f74c", "fusion_lat": 0.0, "type": "electric_scooter", "lat": 38.86690816666667, "is_reserved": 0, "is_disabled": 0, "fusion_lon": 0.0, "bike_id": "a1e500e472c8c362de5dc6ea3933f74c", "lon": -76.98905733333334, "rental_uris": {"ios": "https://dc.lft.to/lastmile_qr_scan", "android": "https://dc.lft.to/lastmile_qr_scan"}}, {"name": "2ea762c422ffc9592226ea4f80442d4c", "fusion_lat": 0.0, "type": "electric_scooter", "lat": 38.942905, "is_reserved": 0, "is_disabled": 0, "fusion_lon": 0.0, "bike_id": "2ea762c422ffc9592226ea4f80442d4c", "lon": -77.02172033333333, "rental_uris": {"ios": "https://dc.lft.to/lastmile_qr_scan", "android": "https://dc.lft.to/lastmile_qr_scan"}}, {"name": "7eeaa9f5e8ac803224b09313d6d1e978", "fusion_lat": 0.0, "type": "electric_scooter", "lat": 38.90276466666667, "is_reserved": 0, "is_disabled": 0, "fusion_lon": 0.0, "bike_id": "7eeaa9f5e8ac803224b09313d6d1e978", "lon": -77.03479666666667, "rental_uris": {"ios": "https://dc.lft.to/lastmile_qr_scan", "android": "https://dc.lft.to/lastmile_qr_scan"}}, {"name": "9d9f92606fbc6719570af6cba15d6aee", "fusion_lat": 0.0, "type": "electric_scooter", "lat": 38.885324833333335, "is_reserved": 0, "is_disabled": 0, "fusion_lon": 0.0, "bike_id": "9d9f92606fbc6719570af6cba15d6aee", "lon": -76.99826633333333, "rental_uris": {"ios": "https://dc.lft.to/lastmile_qr_scan", "android": "https://dc.lft.to/lastmile_qr_scan"}}, {"name": "308dbb462c7ca129c28c67e9f2498079", "fusion_lat": 0.0, "type": "electric_scooter", "lat": 38.9218395, "is_reserved": 0, "is_disabled": 0, "fusion_lon": 0.0, "bike_id": "308dbb462c7ca129c28c67e9f2498079", "lon": -77.0401, "rental_uris": {"ios": "https://dc.lft.to/lastmile_qr_scan", "android": "https://dc.lft.to/lastmile_qr_scan"}}, {"name": "6f6c1d3b59af15d22b27f37b52307a28", "fusion_lat": 0.0, "type": "electric_scooter", "lat": 38.8837435, "is_reserved": 0, "is_disabled": 0, "fusion_lon": 0.0, "bike_id": "6f6c1d3b59af15d22b27f37b52307a28", "lon": -77.02635, "rental_uris": {"ios": "https://dc.lft.to/lastmile_qr_scan", "android": "https://dc.lft.to/lastmile_qr_scan"}}, {"name": "203e10991289893ef585b7ef053f4390", "fusion_lat": 0.0, "type": "electric_scooter", "lat": 38.905066833333336, "is_reserved": 0, "is_disabled": 0, "fusion_lon": 0.0, "bike_id": "203e10991289893ef585b7ef053f4390", "lon": -77.02711033333334, "rental_uris": {"ios": "https://dc.lft.to/lastmile_qr_scan", "android": "https://dc.lft.to/lastmile_qr_scan"}}, {"name": "60f9e28e0f40e5e9a40d182f54e671cf", "fusion_lat": 0.0, "type": "electric_scooter", "lat": 38.906350833333335, "is_reserved": 0, "is_disabled": 0, "fusion_lon": 0.0, "bike_id": "60f9e28e0f40e5e9a40d182f54e671cf", "lon": -76.98569516666667, "rental_uris": {"ios": "https://dc.lft.to/lastmile_qr_scan", "android": "https://dc.lft.to/lastmile_qr_scan"}}, {"name": "aea474f5a8b430b34d6d8d473b4a4ad5", "fusion_lat": 0.0, "type": "electric_scooter", "lat": 38.92309433333333, "is_reserved": 0, "is_disabled": 0, "fusion_lon": 0.0, "bike_id": "aea474f5a8b430b34d6d8d473b4a4ad5", "lon": -77.0297555, "rental_uris": {"ios": "https://dc.lft.to/lastmile_qr_scan", "android": "https://dc.lft.to/lastmile_qr_scan"}}, {"name": "ad4f3feec04fbcd91e93286d6fd826d2", "fusion_lat": 0.0, "type": "electric_scooter", "lat": 38.93186816666667, "is_reserved": 0, "is_disabled": 0, "fusion_lon": 0.0, "bike_id": "ad4f3feec04fbcd91e93286d6fd826d2", "lon": -77.02579533333333, "rental_uris": {"ios": "https://dc.lft.to/lastmile_qr_scan", "android": "https://dc.lft.to/lastmile_qr_scan"}}, {"name": "f07e01a9d3b080a37c91499059a7a31f", "fusion_lat": 0.0, "type": "electric_scooter", "lat": 38.9029465, "is_reserved": 0, "is_disabled": 0, "fusion_lon": 0.0, "bike_id": "f07e01a9d3b080a37c91499059a7a31f", "lon": -77.05810483333333, "rental_uris": {"ios": "https://dc.lft.to/lastmile_qr_scan", "android": "https://dc.lft.to/lastmile_qr_scan"}}, {"name": "6364d9ba1e3739f5f60283a0c3101396", "fusion_lat": 0.0, "type": "electric_scooter", "lat": 38.897113833333336, "is_reserved": 0, "is_disabled": 0, "fusion_lon": 0.0, "bike_id": "6364d9ba1e3739f5f60283a0c3101396", "lon": -77.03286333333334, "rental_uris": {"ios": "https://dc.lft.to/lastmile_qr_scan", "android": "https://dc.lft.to/lastmile_qr_scan"}}, {"name": "83f45f252947f83e2998b31bbb37d70b", "fusion_lat": 0.0, "type": "electric_scooter", "lat": 38.8790445, "is_reserved": 0, "is_disabled": 0, "fusion_lon": 0.0, "bike_id": "83f45f252947f83e2998b31bbb37d70b", "lon": -77.02213316666666, "rental_uris": {"ios": "https://dc.lft.to/lastmile_qr_scan", "android": "https://dc.lft.to/lastmile_qr_scan"}}, {"name": "03ab359740f3ff1e2908a771e8f050e3", "fusion_lat": 0.0, "type": "electric_bike", "lat": 38.824406833333335, "is_reserved": 0, "is_disabled": 0, "fusion_lon": 0.0, "bike_id": "03ab359740f3ff1e2908a771e8f050e3", "lon": -77.07043616666667, "rental_uris": {"ios": "https://dc.lft.to/lastmile_qr_scan", "android": "https://dc.lft.to/lastmile_qr_scan"}}, {"name": "01b6e7843e4b0360eb1b5d23761e29a3", "fusion_lat": 0.0, "type": "electric_scooter", "lat": 38.910492166666664, "is_reserved": 0, "is_disabled": 0, "fusion_lon": 0.0, "bike_id": "01b6e7843e4b0360eb1b5d23761e29a3", "lon": -77.04354666666667, "rental_uris": {"ios": "https://dc.lft.to/lastmile_qr_scan", "android": "https://dc.lft.to/lastmile_qr_scan"}}, {"name": "e7936c5e1b7f7d00b487bcadf0282152", "fusion_lat": 0.0, "type": "electric_scooter", "lat": 38.899180666666666, "is_reserved": 0, "is_disabled": 0, "fusion_lon": 0.0, "bike_id": "e7936c5e1b7f7d00b487bcadf0282152", "lon": -76.933818, "rental_uris": {"ios": "https://dc.lft.to/lastmile_qr_scan", "android": "https://dc.lft.to/lastmile_qr_scan"}}, {"name": "81572edeb4d778a218956364bb011505", "fusion_lat": 0.0, "type": "electric_scooter", "lat": 38.8842895, "is_reserved": 0, "is_disabled": 0, "fusion_lon": 0.0, "bike_id": "81572edeb4d778a218956364bb011505", "lon": -77.03044816666667, "rental_uris": {"ios": "https://dc.lft.to/lastmile_qr_scan", "android": "https://dc.lft.to/lastmile_qr_scan"}}, {"name": "0f513b5a4fb40277a4cf108a3622741b", "fusion_lat": 0.0, "type": "electric_scooter", "lat": 38.92205966666667, "is_reserved": 0, "is_disabled": 0, "fusion_lon": 0.0, "bike_id": "0f513b5a4fb40277a4cf108a3622741b", "lon": -77.04130983333333, "rental_uris": {"ios": "https://dc.lft.to/lastmile_qr_scan", "android": "https://dc.lft.to/lastmile_qr_scan"}}, {"name": "d68ae53f5a6ec515a1ceb65f2750bd80", "fusion_lat": 0.0, "type": "electric_bike", "lat": 38.88130916666667, "is_reserved": 0, "is_disabled": 0, "fusion_lon": 0.0, "bike_id": "d68ae53f5a6ec515a1ceb65f2750bd80", "lon": -76.98093333333334, "rental_uris": {"ios": "https://dc.lft.to/lastmile_qr_scan", "android": "https://dc.lft.to/lastmile_qr_scan"}}, {"name": "1a8f316fc90f555114496a4a967f994c", "fusion_lat": 0.0, "type": "electric_bike", "lat": 38.90351716666667, "is_reserved": 0, "is_disabled": 0, "fusion_lon": 0.0, "bike_id": "1a8f316fc90f555114496a4a967f994c", "lon": -77.02019483333333, "rental_uris": {"ios": "https://dc.lft.to/lastmile_qr_scan", "android": "https://dc.lft.to/lastmile_qr_scan"}}, {"name": "6a7f381817493372d0f6650ace3ac0b2", "fusion_lat": 0.0, "type": "electric_scooter", "lat": 38.9325225, "is_reserved": 0, "is_disabled": 0, "fusion_lon": 0.0, "bike_id": "6a7f381817493372d0f6650ace3ac0b2", "lon": -77.040119, "rental_uris": {"ios": "https://dc.lft.to/lastmile_qr_scan", "android": "https://dc.lft.to/lastmile_qr_scan"}}, {"name": "86bdbbf08626e05921946246f5b8271f", "fusion_lat": 0.0, "type": "electric_scooter", "lat": 38.929704666666666, "is_reserved": 0, "is_disabled": 0, "fusion_lon": 0.0, "bike_id": "86bdbbf08626e05921946246f5b8271f", "lon": -77.01962033333334, "rental_uris": {"ios": "https://dc.lft.to/lastmile_qr_scan", "android": "https://dc.lft.to/lastmile_qr_scan"}}, {"name": "84acd9c3266fd053485a33e105436b97", "fusion_lat": 0.0, "type": "electric_scooter", "lat": 38.90018883333333, "is_reserved": 0, "is_disabled": 0, "fusion_lon": 0.0, "bike_id": "84acd9c3266fd053485a33e105436b97", "lon": -77.0021225, "rental_uris": {"ios": "https://dc.lft.to/lastmile_qr_scan", "android": "https://dc.lft.to/lastmile_qr_scan"}}, {"name": "c23977be95183560e6a874d13ec3855e", "fusion_lat": 0.0, "type": "electric_scooter", "lat": 38.918049, "is_reserved": 0, "is_disabled": 0, "fusion_lon": 0.0, "bike_id": "c23977be95183560e6a874d13ec3855e", "lon": -77.0317755, "rental_uris": {"ios": "https://dc.lft.to/lastmile_qr_scan", "android": "https://dc.lft.to/lastmile_qr_scan"}}, {"name": "7af7c91e886309c087a587c16d3b3d39", "fusion_lat": 0.0, "type": "electric_scooter", "lat": 38.90136566666666, "is_reserved": 0, "is_disabled": 0, "fusion_lon": 0.0, "bike_id": "7af7c91e886309c087a587c16d3b3d39", "lon": -77.04346366666667, "rental_uris": {"ios": "https://dc.lft.to/lastmile_qr_scan", "android": "https://dc.lft.to/lastmile_qr_scan"}}, {"name": "b4c34ca763bd0054b4bdc698c5b56da5", "fusion_lat": 0.0, "type": "electric_scooter", "lat": 38.902625, "is_reserved": 0, "is_disabled": 0, "fusion_lon": 0.0, "bike_id": "b4c34ca763bd0054b4bdc698c5b56da5", "lon": -77.017914, "rental_uris": {"ios": "https://dc.lft.to/lastmile_qr_scan", "android": "https://dc.lft.to/lastmile_qr_scan"}}, {"name": "8f118a2bd2737764e33c156d0bbd506e", "fusion_lat": 0.0, "type": "electric_scooter", "lat": 38.90014716666667, "is_reserved": 0, "is_disabled": 0, "fusion_lon": 0.0, "bike_id": "8f118a2bd2737764e33c156d0bbd506e", "lon": -77.01123133333333, "rental_uris": {"ios": "https://dc.lft.to/lastmile_qr_scan", "android": "https://dc.lft.to/lastmile_qr_scan"}}, {"name": "0e469ead3e7e9e220f4b204f449ec8d1", "fusion_lat": 0.0, "type": "electric_scooter", "lat": 38.90736966666667, "is_reserved": 0, "is_disabled": 0, "fusion_lon": 0.0, "bike_id": "0e469ead3e7e9e220f4b204f449ec8d1", "lon": -77.046747, "rental_uris": {"ios": "https://dc.lft.to/lastmile_qr_scan", "android": "https://dc.lft.to/lastmile_qr_scan"}}, {"name": "13fc4255ad614c11616947c69da0fc1c", "fusion_lat": 0.0, "type": "electric_scooter", "lat": 38.913425833333335, "is_reserved": 0, "is_disabled": 0, "fusion_lon": 0.0, "bike_id": "13fc4255ad614c11616947c69da0fc1c", "lon": -77.00343916666667, "rental_uris": {"ios": "https://dc.lft.to/lastmile_qr_scan", "android": "https://dc.lft.to/lastmile_qr_scan"}}, {"name": "2e4cbc2243b30be946d0ac83b7cdfb9c", "fusion_lat": 0.0, "type": "electric_bike", "lat": 38.894701833333336, "is_reserved": 0, "is_disabled": 0, "fusion_lon": 0.0, "bike_id": "2e4cbc2243b30be946d0ac83b7cdfb9c", "lon": -77.0465975, "rental_uris": {"ios": "https://dc.lft.to/lastmile_qr_scan", "android": "https://dc.lft.to/lastmile_qr_scan"}}, {"name": "b7add82e9e97b700819f3e699730eb4b", "fusion_lat": 0.0, "type": "electric_bike", "lat": 38.87548566666667, "is_reserved": 0, "is_disabled": 0, "fusion_lon": 0.0, "bike_id": "b7add82e9e97b700819f3e699730eb4b", "lon": -76.96757883333333, "rental_uris": {"ios": "https://dc.lft.to/lastmile_qr_scan", "android": "https://dc.lft.to/lastmile_qr_scan"}}, {"name": "91e89c1e10937f427c018fcd63e21ae6", "fusion_lat": 0.0, "type": "electric_scooter", "lat": 38.900329, "is_reserved": 0, "is_disabled": 0, "fusion_lon": 0.0, "bike_id": "91e89c1e10937f427c018fcd63e21ae6", "lon": -77.00634116666667, "rental_uris": {"ios": "https://dc.lft.to/lastmile_qr_scan", "android": "https://dc.lft.to/lastmile_qr_scan"}}, {"name": "06544b755fea9f8ff891edc49cafcdba", "fusion_lat": 0.0, "type": "electric_bike", "lat": 38.949684166666664, "is_reserved": 0, "is_disabled": 0, "fusion_lon": 0.0, "bike_id": "06544b755fea9f8ff891edc49cafcdba", "lon": -76.97284216666667, "rental_uris": {"ios": "https://dc.lft.to/lastmile_qr_scan", "android": "https://dc.lft.to/lastmile_qr_scan"}}, {"name": "02ac43f39ae216a53f26b1a1295d0e51", "fusion_lat": 0.0, "type": "electric_scooter", "lat": 38.96560383333333, "is_reserved": 0, "is_disabled": 0, "fusion_lon": 0.0, "bike_id": "02ac43f39ae216a53f26b1a1295d0e51", "lon": -77.016235, "rental_uris": {"ios": "https://dc.lft.to/lastmile_qr_scan", "android": "https://dc.lft.to/lastmile_qr_scan"}}, {"name": "7006d00a4d7b3ea79b613cc5308b2903", "fusion_lat": 0.0, "type": "electric_scooter", "lat": 38.938723833333334, "is_reserved": 0, "is_disabled": 0, "fusion_lon": 0.0, "bike_id": "7006d00a4d7b3ea79b613cc5308b2903", "lon": -77.03257216666667, "rental_uris": {"ios": "https://dc.lft.to/lastmile_qr_scan", "android": "https://dc.lft.to/lastmile_qr_scan"}}, {"name": "5495509634045ab7a6dd19222ab9e072", "fusion_lat": 0.0, "type": "electric_scooter", "lat": 38.9042695, "is_reserved": 0, "is_disabled": 0, "fusion_lon": 0.0, "bike_id": "5495509634045ab7a6dd19222ab9e072", "lon": -77.02591, "rental_uris": {"ios": "https://dc.lft.to/lastmile_qr_scan", "android": "https://dc.lft.to/lastmile_qr_scan"}}, {"name": "85a9451ef5bbc68bfec2d477f4964062", "fusion_lat": 0.0, "type": "electric_scooter", "lat": 38.926746333333334, "is_reserved": 0, "is_disabled": 0, "fusion_lon": 0.0, "bike_id": "85a9451ef5bbc68bfec2d477f4964062", "lon": -77.02783766666667, "rental_uris": {"ios": "https://dc.lft.to/lastmile_qr_scan", "android": "https://dc.lft.to/lastmile_qr_scan"}}, {"name": "7d9e8c0adb8ab5e1435ea2fa49ae0288", "fusion_lat": 0.0, "type": "electric_scooter", "lat": 38.93101816666667, "is_reserved": 0, "is_disabled": 0, "fusion_lon": 0.0, "bike_id": "7d9e8c0adb8ab5e1435ea2fa49ae0288", "lon": -77.03730683333333, "rental_uris": {"ios": "https://dc.lft.to/lastmile_qr_scan", "android": "https://dc.lft.to/lastmile_qr_scan"}}, {"name": "0e3ffe79c21b961d6d1783cd64bd4f5c", "fusion_lat": 0.0, "type": "electric_scooter", "lat": 38.905742833333335, "is_reserved": 0, "is_disabled": 0, "fusion_lon": 0.0, "bike_id": "0e3ffe79c21b961d6d1783cd64bd4f5c", "lon": -77.04883766666667, "rental_uris": {"ios": "https://dc.lft.to/lastmile_qr_scan", "android": "https://dc.lft.to/lastmile_qr_scan"}}, {"name": "4edcce87a45962a64d30df06c191fa02", "fusion_lat": 0.0, "type": "electric_scooter", "lat": 38.92318016666667, "is_reserved": 0, "is_disabled": 0, "fusion_lon": 0.0, "bike_id": "4edcce87a45962a64d30df06c191fa02", "lon": -77.05465516666666, "rental_uris": {"ios": "https://dc.lft.to/lastmile_qr_scan", "android": "https://dc.lft.to/lastmile_qr_scan"}}, {"name": "1ae90e2127edb1a165f0807d8a772458", "fusion_lat": 0.0, "type": "electric_bike", "lat": 38.9286745, "is_reserved": 0, "is_disabled": 0, "fusion_lon": 0.0, "bike_id": "1ae90e2127edb1a165f0807d8a772458", "lon": -76.96107966666666, "rental_uris": {"ios": "https://dc.lft.to/lastmile_qr_scan", "android": "https://dc.lft.to/lastmile_qr_scan"}}, {"name": "5ff53455bc3af35f17471d4d1a2cad83", "fusion_lat": 0.0, "type": "electric_scooter", "lat": 38.90967166666667, "is_reserved": 0, "is_disabled": 0, "fusion_lon": 0.0, "bike_id": "5ff53455bc3af35f17471d4d1a2cad83", "lon": -77.017134, "rental_uris": {"ios": "https://dc.lft.to/lastmile_qr_scan", "android": "https://dc.lft.to/lastmile_qr_scan"}}, {"name": "4b0fa3348ad9eb3ce0203d4810e18e8c", "fusion_lat": 0.0, "type": "electric_scooter", "lat": 38.898515333333336, "is_reserved": 0, "is_disabled": 0, "fusion_lon": 0.0, "bike_id": "4b0fa3348ad9eb3ce0203d4810e18e8c", "lon": -77.020182, "rental_uris": {"ios": "https://dc.lft.to/lastmile_qr_scan", "android": "https://dc.lft.to/lastmile_qr_scan"}}, {"name": "8a001f8aba964d65c49e20b03e379930", "fusion_lat": 0.0, "type": "electric_scooter", "lat": 38.930144166666665, "is_reserved": 0, "is_disabled": 0, "fusion_lon": 0.0, "bike_id": "8a001f8aba964d65c49e20b03e379930", "lon": -77.037839, "rental_uris": {"ios": "https://dc.lft.to/lastmile_qr_scan", "android": "https://dc.lft.to/lastmile_qr_scan"}}, {"name": "6dd3751391d6293a150a72caafe1e56a", "fusion_lat": 0.0, "type": "electric_scooter", "lat": 38.90656383333334, "is_reserved": 0, "is_disabled": 0, "fusion_lon": 0.0, "bike_id": "6dd3751391d6293a150a72caafe1e56a", "lon": -77.0391455, "rental_uris": {"ios": "https://dc.lft.to/lastmile_qr_scan", "android": "https://dc.lft.to/lastmile_qr_scan"}}, {"name": "6aa2e2e7da228d4d4890ba97ffedb9fb", "fusion_lat": 0.0, "type": "electric_scooter", "lat": 38.93176866666667, "is_reserved": 0, "is_disabled": 0, "fusion_lon": 0.0, "bike_id": "6aa2e2e7da228d4d4890ba97ffedb9fb", "lon": -77.056131, "rental_uris": {"ios": "https://dc.lft.to/lastmile_qr_scan", "android": "https://dc.lft.to/lastmile_qr_scan"}}, {"name": "d19bda2ec442793add786668e59f7438", "fusion_lat": 0.0, "type": "electric_bike", "lat": 38.92845716666667, "is_reserved": 0, "is_disabled": 0, "fusion_lon": 0.0, "bike_id": "d19bda2ec442793add786668e59f7438", "lon": -77.105107, "rental_uris": {"ios": "https://dc.lft.to/lastmile_qr_scan", "android": "https://dc.lft.to/lastmile_qr_scan"}}, {"name": "87851af73795997ce1027eb36e7f1dc2", "fusion_lat": 0.0, "type": "electric_scooter", "lat": 38.9206265, "is_reserved": 0, "is_disabled": 0, "fusion_lon": 0.0, "bike_id": "87851af73795997ce1027eb36e7f1dc2", "lon": -77.04697916666667, "rental_uris": {"ios": "https://dc.lft.to/lastmile_qr_scan", "android": "https://dc.lft.to/lastmile_qr_scan"}}, {"name": "c8921c91bb1ae0f9efa636f7f3735f3b", "fusion_lat": 0.0, "type": "electric_scooter", "lat": 38.924308, "is_reserved": 0, "is_disabled": 0, "fusion_lon": 0.0, "bike_id": "c8921c91bb1ae0f9efa636f7f3735f3b", "lon": -77.041339, "rental_uris": {"ios": "https://dc.lft.to/lastmile_qr_scan", "android": "https://dc.lft.to/lastmile_qr_scan"}}, {"name": "6c13b9d96d4cd22e0174999dd33b5f0e", "fusion_lat": 0.0, "type": "electric_scooter", "lat": 38.92118466666667, "is_reserved": 0, "is_disabled": 0, "fusion_lon": 0.0, "bike_id": "6c13b9d96d4cd22e0174999dd33b5f0e", "lon": -77.03177366666667, "rental_uris": {"ios": "https://dc.lft.to/lastmile_qr_scan", "android": "https://dc.lft.to/lastmile_qr_scan"}}, {"name": "44024cae84916fbd6767f762dc8121b3", "fusion_lat": 0.0, "type": "electric_scooter", "lat": 38.890871833333335, "is_reserved": 0, "is_disabled": 0, "fusion_lon": 0.0, "bike_id": "44024cae84916fbd6767f762dc8121b3", "lon": -76.99786466666667, "rental_uris": {"ios": "https://dc.lft.to/lastmile_qr_scan", "android": "https://dc.lft.to/lastmile_qr_scan"}}, {"name": "7c3e725c2761cce1bdb510fa266255e1", "fusion_lat": 0.0, "type": "electric_scooter", "lat": 38.91984766666667, "is_reserved": 0, "is_disabled": 0, "fusion_lon": 0.0, "bike_id": "7c3e725c2761cce1bdb510fa266255e1", "lon": -77.03322833333333, "rental_uris": {"ios": "https://dc.lft.to/lastmile_qr_scan", "android": "https://dc.lft.to/lastmile_qr_scan"}}, {"name": "28c8fab8862c26a5b7af16054c88a9fd", "fusion_lat": 0.0, "type": "electric_scooter", "lat": 38.89729483333333, "is_reserved": 0, "is_disabled": 0, "fusion_lon": 0.0, "bike_id": "28c8fab8862c26a5b7af16054c88a9fd", "lon": -77.04723983333334, "rental_uris": {"ios": "https://dc.lft.to/lastmile_qr_scan", "android": "https://dc.lft.to/lastmile_qr_scan"}}, {"name": "60546c67df39512807d6c1450d424859", "fusion_lat": 0.0, "type": "electric_bike", "lat": 38.965433, "is_reserved": 0, "is_disabled": 0, "fusion_lon": 0.0, "bike_id": "60546c67df39512807d6c1450d424859", "lon": -77.03512466666666, "rental_uris": {"ios": "https://dc.lft.to/lastmile_qr_scan", "android": "https://dc.lft.to/lastmile_qr_scan"}}, {"name": "84f8ff7e542d08354047ff3b48bc96f9", "fusion_lat": 0.0, "type": "electric_scooter", "lat": 38.931063, "is_reserved": 0, "is_disabled": 0, "fusion_lon": 0.0, "bike_id": "84f8ff7e542d08354047ff3b48bc96f9", "lon": -77.03508383333333, "rental_uris": {"ios": "https://dc.lft.to/lastmile_qr_scan", "android": "https://dc.lft.to/lastmile_qr_scan"}}, {"name": "5e02aa72c155f8d9796976f728140615", "fusion_lat": 0.0, "type": "electric_scooter", "lat": 38.88502716666667, "is_reserved": 0, "is_disabled": 0, "fusion_lon": 0.0, "bike_id": "5e02aa72c155f8d9796976f728140615", "lon": -77.0056895, "rental_uris": {"ios": "https://dc.lft.to/lastmile_qr_scan", "android": "https://dc.lft.to/lastmile_qr_scan"}}, {"name": "3a1ef0664c43cdf0275338d87d024da4", "fusion_lat": 0.0, "type": "electric_scooter", "lat": 38.9277025, "is_reserved": 0, "is_disabled": 0, "fusion_lon": 0.0, "bike_id": "3a1ef0664c43cdf0275338d87d024da4", "lon": -77.02786566666667, "rental_uris": {"ios": "https://dc.lft.to/lastmile_qr_scan", "android": "https://dc.lft.to/lastmile_qr_scan"}}, {"name": "908f5bd05354957de0e62d58f38cb132", "fusion_lat": 0.0, "type": "electric_scooter", "lat": 38.895497166666665, "is_reserved": 0, "is_disabled": 0, "fusion_lon": 0.0, "bike_id": "908f5bd05354957de0e62d58f38cb132", "lon": -76.94876116666667, "rental_uris": {"ios": "https://dc.lft.to/lastmile_qr_scan", "android": "https://dc.lft.to/lastmile_qr_scan"}}, {"name": "fb540b029044f4141bfa572274265fd1", "fusion_lat": 0.0, "type": "electric_scooter", "lat": 38.925936166666666, "is_reserved": 0, "is_disabled": 0, "fusion_lon": 0.0, "bike_id": "fb540b029044f4141bfa572274265fd1", "lon": -77.02498366666667, "rental_uris": {"ios": "https://dc.lft.to/lastmile_qr_scan", "android": "https://dc.lft.to/lastmile_qr_scan"}}, {"name": "61b799fe06523d208bd21db169b40310", "fusion_lat": 0.0, "type": "electric_scooter", "lat": 38.905082666666665, "is_reserved": 0, "is_disabled": 0, "fusion_lon": 0.0, "bike_id": "61b799fe06523d208bd21db169b40310", "lon": -77.06882766666666, "rental_uris": {"ios": "https://dc.lft.to/lastmile_qr_scan", "android": "https://dc.lft.to/lastmile_qr_scan"}}, {"name": "4bd48ec5631523eb63e67b931bd2c7a5", "fusion_lat": 0.0, "type": "electric_scooter", "lat": 38.9235235, "is_reserved": 0, "is_disabled": 0, "fusion_lon": 0.0, "bike_id": "4bd48ec5631523eb63e67b931bd2c7a5", "lon": -77.03541816666667, "rental_uris": {"ios": "https://dc.lft.to/lastmile_qr_scan", "android": "https://dc.lft.to/lastmile_qr_scan"}}, {"name": "5164a292fea03e49e9c960740291a24c", "fusion_lat": 0.0, "type": "electric_scooter", "lat": 38.9112155, "is_reserved": 0, "is_disabled": 0, "fusion_lon": 0.0, "bike_id": "5164a292fea03e49e9c960740291a24c", "lon": -77.04773433333334, "rental_uris": {"ios": "https://dc.lft.to/lastmile_qr_scan", "android": "https://dc.lft.to/lastmile_qr_scan"}}, {"name": "6488bc7c5d798dfd5e41b5737f72ca11", "fusion_lat": 0.0, "type": "electric_scooter", "lat": 38.927075, "is_reserved": 0, "is_disabled": 0, "fusion_lon": 0.0, "bike_id": "6488bc7c5d798dfd5e41b5737f72ca11", "lon": -77.03728333333333, "rental_uris": {"ios": "https://dc.lft.to/lastmile_qr_scan", "android": "https://dc.lft.to/lastmile_qr_scan"}}, {"name": "bc6b2624bc9f1e0a01b68545d4d80eef", "fusion_lat": 0.0, "type": "electric_bike", "lat": 38.853191333333335, "is_reserved": 0, "is_disabled": 0, "fusion_lon": 0.0, "bike_id": "bc6b2624bc9f1e0a01b68545d4d80eef", "lon": -76.9801275, "rental_uris": {"ios": "https://dc.lft.to/lastmile_qr_scan", "android": "https://dc.lft.to/lastmile_qr_scan"}}, {"name": "88d0f9e8d51cf2685dd4c4180c74bfb3", "fusion_lat": 0.0, "type": "electric_scooter", "lat": 38.91257866666667, "is_reserved": 0, "is_disabled": 0, "fusion_lon": 0.0, "bike_id": "88d0f9e8d51cf2685dd4c4180c74bfb3", "lon": -77.038675, "rental_uris": {"ios": "https://dc.lft.to/lastmile_qr_scan", "android": "https://dc.lft.to/lastmile_qr_scan"}}, {"name": "f3f541c764733d39883be6ac93d1dfed", "fusion_lat": 0.0, "type": "electric_scooter", "lat": 38.90230233333333, "is_reserved": 0, "is_disabled": 0, "fusion_lon": 0.0, "bike_id": "f3f541c764733d39883be6ac93d1dfed", "lon": -77.03267266666667, "rental_uris": {"ios": "https://dc.lft.to/lastmile_qr_scan", "android": "https://dc.lft.to/lastmile_qr_scan"}}, {"name": "98a6a1c626d84e1c555683ee3b7801aa", "fusion_lat": 0.0, "type": "electric_scooter", "lat": 38.90026, "is_reserved": 0, "is_disabled": 0, "fusion_lon": 0.0, "bike_id": "98a6a1c626d84e1c555683ee3b7801aa", "lon": -76.99862966666667, "rental_uris": {"ios": "https://dc.lft.to/lastmile_qr_scan", "android": "https://dc.lft.to/lastmile_qr_scan"}}, {"name": "8f8112bebc3ffc996227a5329c4fe8cc", "fusion_lat": 0.0, "type": "electric_bike", "lat": 39.0534495, "is_reserved": 0, "is_disabled": 0, "fusion_lon": 0.0, "bike_id": "8f8112bebc3ffc996227a5329c4fe8cc", "lon": -77.13594966666666, "rental_uris": {"ios": "https://dc.lft.to/lastmile_qr_scan", "android": "https://dc.lft.to/lastmile_qr_scan"}}, {"name": "cf78d214846e341b667f99712216656f", "fusion_lat": 0.0, "type": "electric_bike", "lat": 38.88616366666667, "is_reserved": 0, "is_disabled": 0, "fusion_lon": 0.0, "bike_id": "cf78d214846e341b667f99712216656f", "lon": -77.10753033333333, "rental_uris": {"ios": "https://dc.lft.to/lastmile_qr_scan", "android": "https://dc.lft.to/lastmile_qr_scan"}}, {"name": "3de2744b0539e54591580bbaf9038e8e", "fusion_lat": 0.0, "type": "electric_scooter", "lat": 38.90435316666667, "is_reserved": 0, "is_disabled": 0, "fusion_lon": 0.0, "bike_id": "3de2744b0539e54591580bbaf9038e8e", "lon": -77.03127183333334, "rental_uris": {"ios": "https://dc.lft.to/lastmile_qr_scan", "android": "https://dc.lft.to/lastmile_qr_scan"}}, {"name": "5fd336d567b64094f374b118bbc871ca", "fusion_lat": 0.0, "type": "electric_scooter", "lat": 38.894907333333336, "is_reserved": 0, "is_disabled": 0, "fusion_lon": 0.0, "bike_id": "5fd336d567b64094f374b118bbc871ca", "lon": -77.01021333333334, "rental_uris": {"ios": "https://dc.lft.to/lastmile_qr_scan", "android": "https://dc.lft.to/lastmile_qr_scan"}}, {"name": "c481e7e8081e598eb72f9897e365598e", "fusion_lat": 0.0, "type": "electric_scooter", "lat": 38.933882, "is_reserved": 0, "is_disabled": 0, "fusion_lon": 0.0, "bike_id": "c481e7e8081e598eb72f9897e365598e", "lon": -77.07391283333334, "rental_uris": {"ios": "https://dc.lft.to/lastmile_qr_scan", "android": "https://dc.lft.to/lastmile_qr_scan"}}, {"name": "38d835f1cbe65f9040f316adcf6a1a82", "fusion_lat": 0.0, "type": "electric_scooter", "lat": 38.9028195, "is_reserved": 0, "is_disabled": 0, "fusion_lon": 0.0, "bike_id": "38d835f1cbe65f9040f316adcf6a1a82", "lon": -77.0384395, "rental_uris": {"ios": "https://dc.lft.to/lastmile_qr_scan", "android": "https://dc.lft.to/lastmile_qr_scan"}}, {"name": "e62cc580d52dfb4861a8ef9afbe6ffc8", "fusion_lat": 0.0, "type": "electric_scooter", "lat": 38.905620166666665, "is_reserved": 0, "is_disabled": 0, "fusion_lon": 0.0, "bike_id": "e62cc580d52dfb4861a8ef9afbe6ffc8", "lon": -77.03448533333334, "rental_uris": {"ios": "https://dc.lft.to/lastmile_qr_scan", "android": "https://dc.lft.to/lastmile_qr_scan"}}, {"name": "a50946d326543bbbdd20471fd96a3609", "fusion_lat": 0.0, "type": "electric_scooter", "lat": 38.924720666666666, "is_reserved": 0, "is_disabled": 0, "fusion_lon": 0.0, "bike_id": "a50946d326543bbbdd20471fd96a3609", "lon": -77.03131433333333, "rental_uris": {"ios": "https://dc.lft.to/lastmile_qr_scan", "android": "https://dc.lft.to/lastmile_qr_scan"}}, {"name": "169ab73c33fd1719663b24c7a86a74b8", "fusion_lat": 0.0, "type": "electric_scooter", "lat": 38.916777, "is_reserved": 0, "is_disabled": 0, "fusion_lon": 0.0, "bike_id": "169ab73c33fd1719663b24c7a86a74b8", "lon": -77.02893566666667, "rental_uris": {"ios": "https://dc.lft.to/lastmile_qr_scan", "android": "https://dc.lft.to/lastmile_qr_scan"}}, {"name": "e168d58cc60e00d7e7c9392e9a2147f9", "fusion_lat": 0.0, "type": "electric_scooter", "lat": 38.89015333333333, "is_reserved": 0, "is_disabled": 0, "fusion_lon": 0.0, "bike_id": "e168d58cc60e00d7e7c9392e9a2147f9", "lon": -76.93747483333334, "rental_uris": {"ios": "https://dc.lft.to/lastmile_qr_scan", "android": "https://dc.lft.to/lastmile_qr_scan"}}, {"name": "b258418daf04245ac0063cfc18a88e68", "fusion_lat": 0.0, "type": "electric_scooter", "lat": 38.8626405, "is_reserved": 0, "is_disabled": 0, "fusion_lon": 0.0, "bike_id": "b258418daf04245ac0063cfc18a88e68", "lon": -76.98717383333333, "rental_uris": {"ios": "https://dc.lft.to/lastmile_qr_scan", "android": "https://dc.lft.to/lastmile_qr_scan"}}, {"name": "4ee83b6569ae1ff99c9b301f781ceee2", "fusion_lat": 0.0, "type": "electric_scooter", "lat": 38.90284966666667, "is_reserved": 0, "is_disabled": 0, "fusion_lon": 0.0, "bike_id": "4ee83b6569ae1ff99c9b301f781ceee2", "lon": -77.03835916666667, "rental_uris": {"ios": "https://dc.lft.to/lastmile_qr_scan", "android": "https://dc.lft.to/lastmile_qr_scan"}}, {"name": "66c6853add153efd90de68868b051a21", "fusion_lat": 0.0, "type": "electric_scooter", "lat": 38.905863333333336, "is_reserved": 0, "is_disabled": 0, "fusion_lon": 0.0, "bike_id": "66c6853add153efd90de68868b051a21", "lon": -77.03425633333333, "rental_uris": {"ios": "https://dc.lft.to/lastmile_qr_scan", "android": "https://dc.lft.to/lastmile_qr_scan"}}, {"name": "2b57bdd7fe2ccea5a015bd7db3f3bc3f", "fusion_lat": 0.0, "type": "electric_scooter", "lat": 38.90533766666667, "is_reserved": 0, "is_disabled": 0, "fusion_lon": 0.0, "bike_id": "2b57bdd7fe2ccea5a015bd7db3f3bc3f", "lon": -77.05000333333334, "rental_uris": {"ios": "https://dc.lft.to/lastmile_qr_scan", "android": "https://dc.lft.to/lastmile_qr_scan"}}, {"name": "35f84332360f6e689e3541136168473b", "fusion_lat": 0.0, "type": "electric_bike", "lat": 38.8723105, "is_reserved": 0, "is_disabled": 0, "fusion_lon": 0.0, "bike_id": "35f84332360f6e689e3541136168473b", "lon": -77.01175133333334, "rental_uris": {"ios": "https://dc.lft.to/lastmile_qr_scan", "android": "https://dc.lft.to/lastmile_qr_scan"}}, {"name": "215b1053afb896be0d31e2dfc6ca2392", "fusion_lat": 0.0, "type": "electric_bike", "lat": 38.9945315, "is_reserved": 0, "is_disabled": 0, "fusion_lon": 0.0, "bike_id": "215b1053afb896be0d31e2dfc6ca2392", "lon": -76.90815766666667, "rental_uris": {"ios": "https://dc.lft.to/lastmile_qr_scan", "android": "https://dc.lft.to/lastmile_qr_scan"}}, {"name": "233a716bf532363c5ce42dad0c67364d", "fusion_lat": 0.0, "type": "electric_scooter", "lat": 38.920142166666665, "is_reserved": 0, "is_disabled": 0, "fusion_lon": 0.0, "bike_id": "233a716bf532363c5ce42dad0c67364d", "lon": -77.03164983333333, "rental_uris": {"ios": "https://dc.lft.to/lastmile_qr_scan", "android": "https://dc.lft.to/lastmile_qr_scan"}}, {"name": "b7855d8038d1f1a4ea6e09692613014d", "fusion_lat": 0.0, "type": "electric_scooter", "lat": 38.9042815, "is_reserved": 0, "is_disabled": 0, "fusion_lon": 0.0, "bike_id": "b7855d8038d1f1a4ea6e09692613014d", "lon": -77.0258965, "rental_uris": {"ios": "https://dc.lft.to/lastmile_qr_scan", "android": "https://dc.lft.to/lastmile_qr_scan"}}, {"name": "320dc50096c749dcb6228381886e03e9", "fusion_lat": 0.0, "type": "electric_scooter", "lat": 38.88389216666667, "is_reserved": 0, "is_disabled": 0, "fusion_lon": 0.0, "bike_id": "320dc50096c749dcb6228381886e03e9", "lon": -77.01768366666667, "rental_uris": {"ios": "https://dc.lft.to/lastmile_qr_scan", "android": "https://dc.lft.to/lastmile_qr_scan"}}, {"name": "48e83368bfc8ca5f445111d881def968", "fusion_lat": 0.0, "type": "electric_scooter", "lat": 38.90726316666667, "is_reserved": 0, "is_disabled": 0, "fusion_lon": 0.0, "bike_id": "48e83368bfc8ca5f445111d881def968", "lon": -77.00353433333333, "rental_uris": {"ios": "https://dc.lft.to/lastmile_qr_scan", "android": "https://dc.lft.to/lastmile_qr_scan"}}, {"name": "058f4dc787f12284c034d6b95cdc0b01", "fusion_lat": 0.0, "type": "electric_scooter", "lat": 38.89881666666667, "is_reserved": 0, "is_disabled": 0, "fusion_lon": 0.0, "bike_id": "058f4dc787f12284c034d6b95cdc0b01", "lon": -77.019686, "rental_uris": {"ios": "https://dc.lft.to/lastmile_qr_scan", "android": "https://dc.lft.to/lastmile_qr_scan"}}, {"name": "1ee2c4798344c5138753d5b5a427c9fd", "fusion_lat": 0.0, "type": "electric_scooter", "lat": 38.883763333333334, "is_reserved": 0, "is_disabled": 0, "fusion_lon": 0.0, "bike_id": "1ee2c4798344c5138753d5b5a427c9fd", "lon": -77.0193965, "rental_uris": {"ios": "https://dc.lft.to/lastmile_qr_scan", "android": "https://dc.lft.to/lastmile_qr_scan"}}, {"name": "2a023835a2afab17bd4709c50bbf863d", "fusion_lat": 0.0, "type": "electric_scooter", "lat": 38.918104666666665, "is_reserved": 0, "is_disabled": 0, "fusion_lon": 0.0, "bike_id": "2a023835a2afab17bd4709c50bbf863d", "lon": -77.03178116666666, "rental_uris": {"ios": "https://dc.lft.to/lastmile_qr_scan", "android": "https://dc.lft.to/lastmile_qr_scan"}}, {"name": "03e55f26c2adff3edd07b6744ce821e0", "fusion_lat": 0.0, "type": "electric_bike", "lat": 38.948958166666664, "is_reserved": 0, "is_disabled": 0, "fusion_lon": 0.0, "bike_id": "03e55f26c2adff3edd07b6744ce821e0", "lon": -76.96375583333334, "rental_uris": {"ios": "https://dc.lft.to/lastmile_qr_scan", "android": "https://dc.lft.to/lastmile_qr_scan"}}, {"name": "d17567e73e795e509aecbee9fb2a3a32", "fusion_lat": 0.0, "type": "electric_scooter", "lat": 38.94174066666667, "is_reserved": 0, "is_disabled": 0, "fusion_lon": 0.0, "bike_id": "d17567e73e795e509aecbee9fb2a3a32", "lon": -77.04134733333333, "rental_uris": {"ios": "https://dc.lft.to/lastmile_qr_scan", "android": "https://dc.lft.to/lastmile_qr_scan"}}, {"name": "3ad3ef6659ff3f58db2f7f84a44310ea", "fusion_lat": 0.0, "type": "electric_scooter", "lat": 38.90064133333333, "is_reserved": 0, "is_disabled": 0, "fusion_lon": 0.0, "bike_id": "3ad3ef6659ff3f58db2f7f84a44310ea", "lon": -77.04534483333333, "rental_uris": {"ios": "https://dc.lft.to/lastmile_qr_scan", "android": "https://dc.lft.to/lastmile_qr_scan"}}, {"name": "1c339249eac283db01c1be415ca4a044", "fusion_lat": 0.0, "type": "electric_scooter", "lat": 38.89672616666667, "is_reserved": 0, "is_disabled": 0, "fusion_lon": 0.0, "bike_id": "1c339249eac283db01c1be415ca4a044", "lon": -77.0502405, "rental_uris": {"ios": "https://dc.lft.to/lastmile_qr_scan", "android": "https://dc.lft.to/lastmile_qr_scan"}}, {"name": "ebeb9dc32afa1fd7fbf54dd062a4287a", "fusion_lat": 0.0, "type": "electric_scooter", "lat": 38.91984583333333, "is_reserved": 0, "is_disabled": 0, "fusion_lon": 0.0, "bike_id": "ebeb9dc32afa1fd7fbf54dd062a4287a", "lon": -77.03328366666666, "rental_uris": {"ios": "https://dc.lft.to/lastmile_qr_scan", "android": "https://dc.lft.to/lastmile_qr_scan"}}, {"name": "f776c58dad862833ee6263e5c5718a15", "fusion_lat": 0.0, "type": "electric_scooter", "lat": 38.914880833333335, "is_reserved": 0, "is_disabled": 0, "fusion_lon": 0.0, "bike_id": "f776c58dad862833ee6263e5c5718a15", "lon": -77.03257366666666, "rental_uris": {"ios": "https://dc.lft.to/lastmile_qr_scan", "android": "https://dc.lft.to/lastmile_qr_scan"}}, {"name": "1621edbed478410d405fcc0fcdca8163", "fusion_lat": 0.0, "type": "electric_scooter", "lat": 38.903511333333334, "is_reserved": 0, "is_disabled": 0, "fusion_lon": 0.0, "bike_id": "1621edbed478410d405fcc0fcdca8163", "lon": -77.011069, "rental_uris": {"ios": "https://dc.lft.to/lastmile_qr_scan", "android": "https://dc.lft.to/lastmile_qr_scan"}}, {"name": "6fec63ceef0be9c5e774a8a4a6e60eb5", "fusion_lat": 0.0, "type": "electric_scooter", "lat": 38.87419033333333, "is_reserved": 0, "is_disabled": 0, "fusion_lon": 0.0, "bike_id": "6fec63ceef0be9c5e774a8a4a6e60eb5", "lon": -76.9718495, "rental_uris": {"ios": "https://dc.lft.to/lastmile_qr_scan", "android": "https://dc.lft.to/lastmile_qr_scan"}}, {"name": "4b5a3be54898e293b4549ce6c6883abf", "fusion_lat": 0.0, "type": "electric_bike", "lat": 38.86386816666667, "is_reserved": 0, "is_disabled": 0, "fusion_lon": 0.0, "bike_id": "4b5a3be54898e293b4549ce6c6883abf", "lon": -76.98991433333333, "rental_uris": {"ios": "https://dc.lft.to/lastmile_qr_scan", "android": "https://dc.lft.to/lastmile_qr_scan"}}, {"name": "80926f8349d0d691ca028f0780c1d950", "fusion_lat": 0.0, "type": "electric_scooter", "lat": 38.8987525, "is_reserved": 0, "is_disabled": 0, "fusion_lon": 0.0, "bike_id": "80926f8349d0d691ca028f0780c1d950", "lon": -76.931597, "rental_uris": {"ios": "https://dc.lft.to/lastmile_qr_scan", "android": "https://dc.lft.to/lastmile_qr_scan"}}, {"name": "adaf73115f856b8c63093eb01e0dfca5", "fusion_lat": 0.0, "type": "electric_scooter", "lat": 38.918434833333336, "is_reserved": 0, "is_disabled": 0, "fusion_lon": 0.0, "bike_id": "adaf73115f856b8c63093eb01e0dfca5", "lon": -77.02604966666667, "rental_uris": {"ios": "https://dc.lft.to/lastmile_qr_scan", "android": "https://dc.lft.to/lastmile_qr_scan"}}, {"name": "73c3231bfe700f46767304043969564f", "fusion_lat": 0.0, "type": "electric_scooter", "lat": 38.8323075, "is_reserved": 0, "is_disabled": 0, "fusion_lon": 0.0, "bike_id": "73c3231bfe700f46767304043969564f", "lon": -76.98888633333334, "rental_uris": {"ios": "https://dc.lft.to/lastmile_qr_scan", "android": "https://dc.lft.to/lastmile_qr_scan"}}, {"name": "f39fa10d263215ea27a95f805763856b", "fusion_lat": 0.0, "type": "electric_scooter", "lat": 38.895889, "is_reserved": 0, "is_disabled": 0, "fusion_lon": 0.0, "bike_id": "f39fa10d263215ea27a95f805763856b", "lon": -77.04269616666667, "rental_uris": {"ios": "https://dc.lft.to/lastmile_qr_scan", "android": "https://dc.lft.to/lastmile_qr_scan"}}, {"name": "83e3af4e10cca7c0dc1e2bbec8270359", "fusion_lat": 0.0, "type": "electric_scooter", "lat": 38.902549666666665, "is_reserved": 0, "is_disabled": 0, "fusion_lon": 0.0, "bike_id": "83e3af4e10cca7c0dc1e2bbec8270359", "lon": -77.04454133333333, "rental_uris": {"ios": "https://dc.lft.to/lastmile_qr_scan", "android": "https://dc.lft.to/lastmile_qr_scan"}}, {"name": "6981e80c450d1f5dc4aea854dd56f79b", "fusion_lat": 0.0, "type": "electric_bike", "lat": 38.975217666666666, "is_reserved": 0, "is_disabled": 0, "fusion_lon": 0.0, "bike_id": "6981e80c450d1f5dc4aea854dd56f79b", "lon": -77.01687083333333, "rental_uris": {"ios": "https://dc.lft.to/lastmile_qr_scan", "android": "https://dc.lft.to/lastmile_qr_scan"}}, {"name": "1b8d5a54d7f81680580eff1947801d87", "fusion_lat": 0.0, "type": "electric_scooter", "lat": 38.92750216666666, "is_reserved": 0, "is_disabled": 0, "fusion_lon": 0.0, "bike_id": "1b8d5a54d7f81680580eff1947801d87", "lon": -77.0242435, "rental_uris": {"ios": "https://dc.lft.to/lastmile_qr_scan", "android": "https://dc.lft.to/lastmile_qr_scan"}}, {"name": "7b53b2d78dd43d0895aacbbef9d279c7", "fusion_lat": 0.0, "type": "electric_scooter", "lat": 38.905512333333334, "is_reserved": 0, "is_disabled": 0, "fusion_lon": 0.0, "bike_id": "7b53b2d78dd43d0895aacbbef9d279c7", "lon": -77.047446, "rental_uris": {"ios": "https://dc.lft.to/lastmile_qr_scan", "android": "https://dc.lft.to/lastmile_qr_scan"}}, {"name": "13cef8be2bdfedec3cb87bb4892f342a", "fusion_lat": 0.0, "type": "electric_scooter", "lat": 38.90264633333334, "is_reserved": 0, "is_disabled": 0, "fusion_lon": 0.0, "bike_id": "13cef8be2bdfedec3cb87bb4892f342a", "lon": -77.05384483333333, "rental_uris": {"ios": "https://dc.lft.to/lastmile_qr_scan", "android": "https://dc.lft.to/lastmile_qr_scan"}}, {"name": "63661c2957f6fb3fc468b45a46586903", "fusion_lat": 0.0, "type": "electric_scooter", "lat": 38.8950095, "is_reserved": 0, "is_disabled": 0, "fusion_lon": 0.0, "bike_id": "63661c2957f6fb3fc468b45a46586903", "lon": -77.04671483333334, "rental_uris": {"ios": "https://dc.lft.to/lastmile_qr_scan", "android": "https://dc.lft.to/lastmile_qr_scan"}}, {"name": "3557e466a7bf8703bf5c4c171ccb4018", "fusion_lat": 0.0, "type": "electric_bike", "lat": 38.870851, "is_reserved": 0, "is_disabled": 0, "fusion_lon": 0.0, "bike_id": "3557e466a7bf8703bf5c4c171ccb4018", "lon": -77.01214616666667, "rental_uris": {"ios": "https://dc.lft.to/lastmile_qr_scan", "android": "https://dc.lft.to/lastmile_qr_scan"}}, {"name": "fb9c3ba5a9d241490f7c6fa9eafc975a", "fusion_lat": 0.0, "type": "electric_scooter", "lat": 38.8763335, "is_reserved": 0, "is_disabled": 0, "fusion_lon": 0.0, "bike_id": "fb9c3ba5a9d241490f7c6fa9eafc975a", "lon": -77.00762183333333, "rental_uris": {"ios": "https://dc.lft.to/lastmile_qr_scan", "android": "https://dc.lft.to/lastmile_qr_scan"}}, {"name": "fe5c71aaeec7353e0af062e07b38c4cd", "fusion_lat": 0.0, "type": "electric_scooter", "lat": 38.8791725, "is_reserved": 0, "is_disabled": 0, "fusion_lon": 0.0, "bike_id": "fe5c71aaeec7353e0af062e07b38c4cd", "lon": -77.0210625, "rental_uris": {"ios": "https://dc.lft.to/lastmile_qr_scan", "android": "https://dc.lft.to/lastmile_qr_scan"}}, {"name": "27996cc53e11bd9bef66ba722f9f1623", "fusion_lat": 0.0, "type": "electric_scooter", "lat": 38.88454933333333, "is_reserved": 0, "is_disabled": 0, "fusion_lon": 0.0, "bike_id": "27996cc53e11bd9bef66ba722f9f1623", "lon": -76.92472316666667, "rental_uris": {"ios": "https://dc.lft.to/lastmile_qr_scan", "android": "https://dc.lft.to/lastmile_qr_scan"}}, {"name": "1b9a89910c4c005cc8874efe1c43f276", "fusion_lat": 0.0, "type": "electric_bike", "lat": 38.87527016666667, "is_reserved": 0, "is_disabled": 0, "fusion_lon": 0.0, "bike_id": "1b9a89910c4c005cc8874efe1c43f276", "lon": -77.19909683333333, "rental_uris": {"ios": "https://dc.lft.to/lastmile_qr_scan", "android": "https://dc.lft.to/lastmile_qr_scan"}}, {"name": "87446d64fec9aeeaf48f331e60f057c1", "fusion_lat": 0.0, "type": "electric_scooter", "lat": 38.9026325, "is_reserved": 0, "is_disabled": 0, "fusion_lon": 0.0, "bike_id": "87446d64fec9aeeaf48f331e60f057c1", "lon": -77.03066133333333, "rental_uris": {"ios": "https://dc.lft.to/lastmile_qr_scan", "android": "https://dc.lft.to/lastmile_qr_scan"}}, {"name": "e215cfa839095c4dc593067d1dbbc467", "fusion_lat": 0.0, "type": "electric_scooter", "lat": 38.8922565, "is_reserved": 0, "is_disabled": 0, "fusion_lon": 0.0, "bike_id": "e215cfa839095c4dc593067d1dbbc467", "lon": -77.031881, "rental_uris": {"ios": "https://dc.lft.to/lastmile_qr_scan", "android": "https://dc.lft.to/lastmile_qr_scan"}}, {"name": "e1f6c6c57e0526009e3d27589f0d1c0e", "fusion_lat": 0.0, "type": "electric_bike", "lat": 39.09457583333333, "is_reserved": 0, "is_disabled": 0, "fusion_lon": 0.0, "bike_id": "e1f6c6c57e0526009e3d27589f0d1c0e", "lon": -77.14994333333334, "rental_uris": {"ios": "https://dc.lft.to/lastmile_qr_scan", "android": "https://dc.lft.to/lastmile_qr_scan"}}, {"name": "663bd45c6120db64a1e5021b6417cc12", "fusion_lat": 0.0, "type": "electric_scooter", "lat": 38.91816683333333, "is_reserved": 0, "is_disabled": 0, "fusion_lon": 0.0, "bike_id": "663bd45c6120db64a1e5021b6417cc12", "lon": -77.027981, "rental_uris": {"ios": "https://dc.lft.to/lastmile_qr_scan", "android": "https://dc.lft.to/lastmile_qr_scan"}}, {"name": "eef76e99243c50bc93bfa6bd2016f634", "fusion_lat": 0.0, "type": "electric_scooter", "lat": 38.92104716666667, "is_reserved": 0, "is_disabled": 0, "fusion_lon": 0.0, "bike_id": "eef76e99243c50bc93bfa6bd2016f634", "lon": -77.031839, "rental_uris": {"ios": "https://dc.lft.to/lastmile_qr_scan", "android": "https://dc.lft.to/lastmile_qr_scan"}}, {"name": "791c827edc855e2df286e770cfd51657", "fusion_lat": 0.0, "type": "electric_scooter", "lat": 38.9272005, "is_reserved": 0, "is_disabled": 0, "fusion_lon": 0.0, "bike_id": "791c827edc855e2df286e770cfd51657", "lon": -77.0057085, "rental_uris": {"ios": "https://dc.lft.to/lastmile_qr_scan", "android": "https://dc.lft.to/lastmile_qr_scan"}}, {"name": "8034f0368ae4cbbacef91c86ebd69ea5", "fusion_lat": 0.0, "type": "electric_scooter", "lat": 38.89910866666666, "is_reserved": 0, "is_disabled": 0, "fusion_lon": 0.0, "bike_id": "8034f0368ae4cbbacef91c86ebd69ea5", "lon": -76.933734, "rental_uris": {"ios": "https://dc.lft.to/lastmile_qr_scan", "android": "https://dc.lft.to/lastmile_qr_scan"}}, {"name": "5875af7dcbee2614213df09fcfb36945", "fusion_lat": 0.0, "type": "electric_scooter", "lat": 38.90231, "is_reserved": 0, "is_disabled": 0, "fusion_lon": 0.0, "bike_id": "5875af7dcbee2614213df09fcfb36945", "lon": -77.05145183333333, "rental_uris": {"ios": "https://dc.lft.to/lastmile_qr_scan", "android": "https://dc.lft.to/lastmile_qr_scan"}}, {"name": "e442f8655cf57b6c50ea74287b4646b5", "fusion_lat": 0.0, "type": "electric_scooter", "lat": 38.896046, "is_reserved": 0, "is_disabled": 0, "fusion_lon": 0.0, "bike_id": "e442f8655cf57b6c50ea74287b4646b5", "lon": -77.04690183333334, "rental_uris": {"ios": "https://dc.lft.to/lastmile_qr_scan", "android": "https://dc.lft.to/lastmile_qr_scan"}}, {"name": "3e57683dd2205941062df179289dbe22", "fusion_lat": 0.0, "type": "electric_scooter", "lat": 38.9225315, "is_reserved": 0, "is_disabled": 0, "fusion_lon": 0.0, "bike_id": "3e57683dd2205941062df179289dbe22", "lon": -77.01948333333333, "rental_uris": {"ios": "https://dc.lft.to/lastmile_qr_scan", "android": "https://dc.lft.to/lastmile_qr_scan"}}, {"name": "8cd586728e8591701add49db5c7fce64", "fusion_lat": 0.0, "type": "electric_bike", "lat": 38.81305066666667, "is_reserved": 0, "is_disabled": 0, "fusion_lon": 0.0, "bike_id": "8cd586728e8591701add49db5c7fce64", "lon": -77.11206166666666, "rental_uris": {"ios": "https://dc.lft.to/lastmile_qr_scan", "android": "https://dc.lft.to/lastmile_qr_scan"}}, {"name": "4e8771c4834aa7b4d237b7a09a594d90", "fusion_lat": 0.0, "type": "electric_scooter", "lat": 38.906707, "is_reserved": 0, "is_disabled": 0, "fusion_lon": 0.0, "bike_id": "4e8771c4834aa7b4d237b7a09a594d90", "lon": -76.97809083333334, "rental_uris": {"ios": "https://dc.lft.to/lastmile_qr_scan", "android": "https://dc.lft.to/lastmile_qr_scan"}}, {"name": "eed0a2b04c21134e3f4791665eb567fe", "fusion_lat": 0.0, "type": "electric_bike", "lat": 38.891883666666665, "is_reserved": 0, "is_disabled": 0, "fusion_lon": 0.0, "bike_id": "eed0a2b04c21134e3f4791665eb567fe", "lon": -77.12262516666667, "rental_uris": {"ios": "https://dc.lft.to/lastmile_qr_scan", "android": "https://dc.lft.to/lastmile_qr_scan"}}, {"name": "82631b2a4611e2c357ef43ed2329a37a", "fusion_lat": 0.0, "type": "electric_scooter", "lat": 38.92066883333333, "is_reserved": 0, "is_disabled": 0, "fusion_lon": 0.0, "bike_id": "82631b2a4611e2c357ef43ed2329a37a", "lon": -77.043782, "rental_uris": {"ios": "https://dc.lft.to/lastmile_qr_scan", "android": "https://dc.lft.to/lastmile_qr_scan"}}, {"name": "a4ff37b5ec1b1bbfcd9a84cb5959e554", "fusion_lat": 0.0, "type": "electric_scooter", "lat": 38.904682333333334, "is_reserved": 0, "is_disabled": 0, "fusion_lon": 0.0, "bike_id": "a4ff37b5ec1b1bbfcd9a84cb5959e554", "lon": -77.0384165, "rental_uris": {"ios": "https://dc.lft.to/lastmile_qr_scan", "android": "https://dc.lft.to/lastmile_qr_scan"}}, {"name": "9f39bec433fc93cbd081ddd1ab1bc692", "fusion_lat": 0.0, "type": "electric_scooter", "lat": 38.910607666666664, "is_reserved": 0, "is_disabled": 0, "fusion_lon": 0.0, "bike_id": "9f39bec433fc93cbd081ddd1ab1bc692", "lon": -77.05329583333334, "rental_uris": {"ios": "https://dc.lft.to/lastmile_qr_scan", "android": "https://dc.lft.to/lastmile_qr_scan"}}, {"name": "fee109fcc09acef7534f356fd0ec745c", "fusion_lat": 0.0, "type": "electric_scooter", "lat": 38.91261733333333, "is_reserved": 0, "is_disabled": 0, "fusion_lon": 0.0, "bike_id": "fee109fcc09acef7534f356fd0ec745c", "lon": -77.03638383333333, "rental_uris": {"ios": "https://dc.lft.to/lastmile_qr_scan", "android": "https://dc.lft.to/lastmile_qr_scan"}}, {"name": "6a52cdf51cd4748e40aaeb48936812f5", "fusion_lat": 0.0, "type": "electric_scooter", "lat": 38.8923245, "is_reserved": 0, "is_disabled": 0, "fusion_lon": 0.0, "bike_id": "6a52cdf51cd4748e40aaeb48936812f5", "lon": -77.0500725, "rental_uris": {"ios": "https://dc.lft.to/lastmile_qr_scan", "android": "https://dc.lft.to/lastmile_qr_scan"}}, {"name": "b9dd958ae39ebdeb0bde85d277e9f06a", "fusion_lat": 0.0, "type": "electric_scooter", "lat": 38.93358816666667, "is_reserved": 0, "is_disabled": 0, "fusion_lon": 0.0, "bike_id": "b9dd958ae39ebdeb0bde85d277e9f06a", "lon": -77.03724783333334, "rental_uris": {"ios": "https://dc.lft.to/lastmile_qr_scan", "android": "https://dc.lft.to/lastmile_qr_scan"}}, {"name": "6354dd8570f6319bb1f4af821c7b4a15", "fusion_lat": 0.0, "type": "electric_scooter", "lat": 38.91700633333333, "is_reserved": 0, "is_disabled": 0, "fusion_lon": 0.0, "bike_id": "6354dd8570f6319bb1f4af821c7b4a15", "lon": -77.02895233333334, "rental_uris": {"ios": "https://dc.lft.to/lastmile_qr_scan", "android": "https://dc.lft.to/lastmile_qr_scan"}}, {"name": "ac76d4243202e4daf70b26c35eeb8e2a", "fusion_lat": 0.0, "type": "electric_scooter", "lat": 38.89226583333333, "is_reserved": 0, "is_disabled": 0, "fusion_lon": 0.0, "bike_id": "ac76d4243202e4daf70b26c35eeb8e2a", "lon": -77.02415033333334, "rental_uris": {"ios": "https://dc.lft.to/lastmile_qr_scan", "android": "https://dc.lft.to/lastmile_qr_scan"}}, {"name": "e170f0ff0bdc8c2a24fb60118cab99c1", "fusion_lat": 0.0, "type": "electric_bike", "lat": 38.92973883333333, "is_reserved": 0, "is_disabled": 0, "fusion_lon": 0.0, "bike_id": "e170f0ff0bdc8c2a24fb60118cab99c1", "lon": -77.2257875, "rental_uris": {"ios": "https://dc.lft.to/lastmile_qr_scan", "android": "https://dc.lft.to/lastmile_qr_scan"}}, {"name": "9a0dafcd4e8f352c95fbd4d5f33d69dd", "fusion_lat": 0.0, "type": "electric_bike", "lat": 38.831931, "is_reserved": 0, "is_disabled": 0, "fusion_lon": 0.0, "bike_id": "9a0dafcd4e8f352c95fbd4d5f33d69dd", "lon": -77.07683116666666, "rental_uris": {"ios": "https://dc.lft.to/lastmile_qr_scan", "android": "https://dc.lft.to/lastmile_qr_scan"}}, {"name": "cfeb68b93f25483ff54750602afc6d36", "fusion_lat": 0.0, "type": "electric_bike", "lat": 38.9554445, "is_reserved": 0, "is_disabled": 0, "fusion_lon": 0.0, "bike_id": "cfeb68b93f25483ff54750602afc6d36", "lon": -76.93551383333333, "rental_uris": {"ios": "https://dc.lft.to/lastmile_qr_scan", "android": "https://dc.lft.to/lastmile_qr_scan"}}, {"name": "a9dcd1525898200f899236ed72b41b95", "fusion_lat": 0.0, "type": "electric_scooter", "lat": 38.89480316666667, "is_reserved": 0, "is_disabled": 0, "fusion_lon": 0.0, "bike_id": "a9dcd1525898200f899236ed72b41b95", "lon": -76.948734, "rental_uris": {"ios": "https://dc.lft.to/lastmile_qr_scan", "android": "https://dc.lft.to/lastmile_qr_scan"}}, {"name": "181972b8b787874cb856c1299ea7940b", "fusion_lat": 0.0, "type": "electric_scooter", "lat": 38.91894516666667, "is_reserved": 0, "is_disabled": 0, "fusion_lon": 0.0, "bike_id": "181972b8b787874cb856c1299ea7940b", "lon": -77.052915, "rental_uris": {"ios": "https://dc.lft.to/lastmile_qr_scan", "android": "https://dc.lft.to/lastmile_qr_scan"}}, {"name": "6bdf120e040f3efc5b5032351e607467", "fusion_lat": 0.0, "type": "electric_bike", "lat": 38.82721183333334, "is_reserved": 0, "is_disabled": 0, "fusion_lon": 0.0, "bike_id": "6bdf120e040f3efc5b5032351e607467", "lon": -77.00865916666666, "rental_uris": {"ios": "https://dc.lft.to/lastmile_qr_scan", "android": "https://dc.lft.to/lastmile_qr_scan"}}, {"name": "72891621afe0619155a11bbb4170380d", "fusion_lat": 0.0, "type": "electric_scooter", "lat": 38.886707, "is_reserved": 0, "is_disabled": 0, "fusion_lon": 0.0, "bike_id": "72891621afe0619155a11bbb4170380d", "lon": -76.9361645, "rental_uris": {"ios": "https://dc.lft.to/lastmile_qr_scan", "android": "https://dc.lft.to/lastmile_qr_scan"}}, {"name": "52dfb0c3c58704650a61e435fbe4c36d", "fusion_lat": 0.0, "type": "electric_scooter", "lat": 38.894914166666666, "is_reserved": 0, "is_disabled": 0, "fusion_lon": 0.0, "bike_id": "52dfb0c3c58704650a61e435fbe4c36d", "lon": -77.02387766666666, "rental_uris": {"ios": "https://dc.lft.to/lastmile_qr_scan", "android": "https://dc.lft.to/lastmile_qr_scan"}}, {"name": "aac06c5959063826cd5d6e4f7b977c93", "fusion_lat": 0.0, "type": "electric_scooter", "lat": 38.925856, "is_reserved": 0, "is_disabled": 0, "fusion_lon": 0.0, "bike_id": "aac06c5959063826cd5d6e4f7b977c93", "lon": -77.05283616666667, "rental_uris": {"ios": "https://dc.lft.to/lastmile_qr_scan", "android": "https://dc.lft.to/lastmile_qr_scan"}}, {"name": "fdd7c7f0d347933a810a83af15e72346", "fusion_lat": 0.0, "type": "electric_scooter", "lat": 38.8989845, "is_reserved": 0, "is_disabled": 0, "fusion_lon": 0.0, "bike_id": "fdd7c7f0d347933a810a83af15e72346", "lon": -77.03271583333333, "rental_uris": {"ios": "https://dc.lft.to/lastmile_qr_scan", "android": "https://dc.lft.to/lastmile_qr_scan"}}, {"name": "750b3d220f48163031f3a87c3e079f04", "fusion_lat": 0.0, "type": "electric_scooter", "lat": 38.89651533333333, "is_reserved": 0, "is_disabled": 0, "fusion_lon": 0.0, "bike_id": "750b3d220f48163031f3a87c3e079f04", "lon": -77.05026833333334, "rental_uris": {"ios": "https://dc.lft.to/lastmile_qr_scan", "android": "https://dc.lft.to/lastmile_qr_scan"}}, {"name": "d4f0d3d1b874b1f7d8a609214fa9f4af", "fusion_lat": 0.0, "type": "electric_scooter", "lat": 38.95218716666667, "is_reserved": 0, "is_disabled": 0, "fusion_lon": 0.0, "bike_id": "d4f0d3d1b874b1f7d8a609214fa9f4af", "lon": -77.070664, "rental_uris": {"ios": "https://dc.lft.to/lastmile_qr_scan", "android": "https://dc.lft.to/lastmile_qr_scan"}}, {"name": "91006a53b81cf4cb7d449c6b8ad57fa3", "fusion_lat": 0.0, "type": "electric_scooter", "lat": 38.9296535, "is_reserved": 0, "is_disabled": 0, "fusion_lon": 0.0, "bike_id": "91006a53b81cf4cb7d449c6b8ad57fa3", "lon": -77.02405016666667, "rental_uris": {"ios": "https://dc.lft.to/lastmile_qr_scan", "android": "https://dc.lft.to/lastmile_qr_scan"}}, {"name": "d406b980ad8210279977a452310266f8", "fusion_lat": 0.0, "type": "electric_scooter", "lat": 38.901075166666665, "is_reserved": 0, "is_disabled": 0, "fusion_lon": 0.0, "bike_id": "d406b980ad8210279977a452310266f8", "lon": -77.03344866666667, "rental_uris": {"ios": "https://dc.lft.to/lastmile_qr_scan", "android": "https://dc.lft.to/lastmile_qr_scan"}}, {"name": "90b066c63f01e6d93fa331174d03c54e", "fusion_lat": 0.0, "type": "electric_scooter", "lat": 38.865027166666664, "is_reserved": 0, "is_disabled": 0, "fusion_lon": 0.0, "bike_id": "90b066c63f01e6d93fa331174d03c54e", "lon": -76.99001216666667, "rental_uris": {"ios": "https://dc.lft.to/lastmile_qr_scan", "android": "https://dc.lft.to/lastmile_qr_scan"}}, {"name": "43be9556e7a9c255b8507a52bf696b31", "fusion_lat": 0.0, "type": "electric_scooter", "lat": 38.91054883333334, "is_reserved": 0, "is_disabled": 0, "fusion_lon": 0.0, "bike_id": "43be9556e7a9c255b8507a52bf696b31", "lon": -77.0458905, "rental_uris": {"ios": "https://dc.lft.to/lastmile_qr_scan", "android": "https://dc.lft.to/lastmile_qr_scan"}}, {"name": "c022414aa6dc161b55251463ea53aa34", "fusion_lat": 0.0, "type": "electric_scooter", "lat": 38.9000185, "is_reserved": 0, "is_disabled": 0, "fusion_lon": 0.0, "bike_id": "c022414aa6dc161b55251463ea53aa34", "lon": -76.99619483333333, "rental_uris": {"ios": "https://dc.lft.to/lastmile_qr_scan", "android": "https://dc.lft.to/lastmile_qr_scan"}}, {"name": "2790ab756d13b062275dff50212a5435", "fusion_lat": 0.0, "type": "electric_scooter", "lat": 38.916314, "is_reserved": 0, "is_disabled": 0, "fusion_lon": 0.0, "bike_id": "2790ab756d13b062275dff50212a5435", "lon": -77.001086, "rental_uris": {"ios": "https://dc.lft.to/lastmile_qr_scan", "android": "https://dc.lft.to/lastmile_qr_scan"}}, {"name": "ee9573cbe4302aa325431aafbeeca0c5", "fusion_lat": 0.0, "type": "electric_scooter", "lat": 38.89684966666667, "is_reserved": 0, "is_disabled": 0, "fusion_lon": 0.0, "bike_id": "ee9573cbe4302aa325431aafbeeca0c5", "lon": -77.00494383333333, "rental_uris": {"ios": "https://dc.lft.to/lastmile_qr_scan", "android": "https://dc.lft.to/lastmile_qr_scan"}}, {"name": "85c4348382a904b3217d4b01163abce1", "fusion_lat": 0.0, "type": "electric_bike", "lat": 38.95955466666667, "is_reserved": 0, "is_disabled": 0, "fusion_lon": 0.0, "bike_id": "85c4348382a904b3217d4b01163abce1", "lon": -77.100904, "rental_uris": {"ios": "https://dc.lft.to/lastmile_qr_scan", "android": "https://dc.lft.to/lastmile_qr_scan"}}, {"name": "7a0a7b9c3e5d2e405113a97ecebbba27", "fusion_lat": 0.0, "type": "electric_scooter", "lat": 38.91325466666667, "is_reserved": 0, "is_disabled": 0, "fusion_lon": 0.0, "bike_id": "7a0a7b9c3e5d2e405113a97ecebbba27", "lon": -77.0453515, "rental_uris": {"ios": "https://dc.lft.to/lastmile_qr_scan", "android": "https://dc.lft.to/lastmile_qr_scan"}}, {"name": "730862902d8dc7a9a5113624d9216798", "fusion_lat": 0.0, "type": "electric_bike", "lat": 38.8578825, "is_reserved": 0, "is_disabled": 0, "fusion_lon": 0.0, "bike_id": "730862902d8dc7a9a5113624d9216798", "lon": -76.98743566666667, "rental_uris": {"ios": "https://dc.lft.to/lastmile_qr_scan", "android": "https://dc.lft.to/lastmile_qr_scan"}}, {"name": "7082dd9cd031f4b507d24b74244bf469", "fusion_lat": 0.0, "type": "electric_scooter", "lat": 38.883669833333336, "is_reserved": 0, "is_disabled": 0, "fusion_lon": 0.0, "bike_id": "7082dd9cd031f4b507d24b74244bf469", "lon": -77.02621283333333, "rental_uris": {"ios": "https://dc.lft.to/lastmile_qr_scan", "android": "https://dc.lft.to/lastmile_qr_scan"}}, {"name": "0826ca4d3c369c1ff932ce2c81c682d2", "fusion_lat": 0.0, "type": "electric_scooter", "lat": 38.90631033333333, "is_reserved": 0, "is_disabled": 0, "fusion_lon": 0.0, "bike_id": "0826ca4d3c369c1ff932ce2c81c682d2", "lon": -77.03860533333334, "rental_uris": {"ios": "https://dc.lft.to/lastmile_qr_scan", "android": "https://dc.lft.to/lastmile_qr_scan"}}, {"name": "56600b3466d993bb58311613c7e5a6da", "fusion_lat": 0.0, "type": "electric_scooter", "lat": 38.93263916666667, "is_reserved": 0, "is_disabled": 0, "fusion_lon": 0.0, "bike_id": "56600b3466d993bb58311613c7e5a6da", "lon": -77.03898116666667, "rental_uris": {"ios": "https://dc.lft.to/lastmile_qr_scan", "android": "https://dc.lft.to/lastmile_qr_scan"}}, {"name": "8fad782291ff540ae77b1fe02d0af940", "fusion_lat": 0.0, "type": "electric_scooter", "lat": 38.906492166666666, "is_reserved": 0, "is_disabled": 0, "fusion_lon": 0.0, "bike_id": "8fad782291ff540ae77b1fe02d0af940", "lon": -77.0113735, "rental_uris": {"ios": "https://dc.lft.to/lastmile_qr_scan", "android": "https://dc.lft.to/lastmile_qr_scan"}}, {"name": "2b69e1d81440b44ab7d311ae2817aaea", "fusion_lat": 0.0, "type": "electric_scooter", "lat": 38.915509666666665, "is_reserved": 0, "is_disabled": 0, "fusion_lon": 0.0, "bike_id": "2b69e1d81440b44ab7d311ae2817aaea", "lon": -77.03180116666667, "rental_uris": {"ios": "https://dc.lft.to/lastmile_qr_scan", "android": "https://dc.lft.to/lastmile_qr_scan"}}, {"name": "61342c07bbdd16094d69c649190f69b8", "fusion_lat": 0.0, "type": "electric_scooter", "lat": 38.905685, "is_reserved": 0, "is_disabled": 0, "fusion_lon": 0.0, "bike_id": "61342c07bbdd16094d69c649190f69b8", "lon": -77.022146, "rental_uris": {"ios": "https://dc.lft.to/lastmile_qr_scan", "android": "https://dc.lft.to/lastmile_qr_scan"}}, {"name": "75625d8399b0c6c8eea97459fde4e30a", "fusion_lat": 0.0, "type": "electric_bike", "lat": 38.911877833333335, "is_reserved": 0, "is_disabled": 0, "fusion_lon": 0.0, "bike_id": "75625d8399b0c6c8eea97459fde4e30a", "lon": -77.001905, "rental_uris": {"ios": "https://dc.lft.to/lastmile_qr_scan", "android": "https://dc.lft.to/lastmile_qr_scan"}}, {"name": "fec15e06a11b621b9a7f012c2bf27b9a", "fusion_lat": 0.0, "type": "electric_scooter", "lat": 38.892271, "is_reserved": 0, "is_disabled": 0, "fusion_lon": 0.0, "bike_id": "fec15e06a11b621b9a7f012c2bf27b9a", "lon": -77.050045, "rental_uris": {"ios": "https://dc.lft.to/lastmile_qr_scan", "android": "https://dc.lft.to/lastmile_qr_scan"}}, {"name": "25973e46f35503b31a0f02c0401433c2", "fusion_lat": 0.0, "type": "electric_scooter", "lat": 38.90714, "is_reserved": 0, "is_disabled": 0, "fusion_lon": 0.0, "bike_id": "25973e46f35503b31a0f02c0401433c2", "lon": -77.04343783333333, "rental_uris": {"ios": "https://dc.lft.to/lastmile_qr_scan", "android": "https://dc.lft.to/lastmile_qr_scan"}}, {"name": "2cf86e131408746233655d48b9d209d7", "fusion_lat": 0.0, "type": "electric_scooter", "lat": 38.918404333333335, "is_reserved": 0, "is_disabled": 0, "fusion_lon": 0.0, "bike_id": "2cf86e131408746233655d48b9d209d7", "lon": -77.0260205, "rental_uris": {"ios": "https://dc.lft.to/lastmile_qr_scan", "android": "https://dc.lft.to/lastmile_qr_scan"}}, {"name": "f8651ebc14b68aa6d0f6dc95e91ae931", "fusion_lat": 0.0, "type": "electric_scooter", "lat": 38.904196, "is_reserved": 0, "is_disabled": 0, "fusion_lon": 0.0, "bike_id": "f8651ebc14b68aa6d0f6dc95e91ae931", "lon": -76.97889166666667, "rental_uris": {"ios": "https://dc.lft.to/lastmile_qr_scan", "android": "https://dc.lft.to/lastmile_qr_scan"}}, {"name": "fd0b895432400c2d4c2487c65b005ed5", "fusion_lat": 0.0, "type": "electric_scooter", "lat": 38.8454015, "is_reserved": 0, "is_disabled": 0, "fusion_lon": 0.0, "bike_id": "fd0b895432400c2d4c2487c65b005ed5", "lon": -76.99596033333333, "rental_uris": {"ios": "https://dc.lft.to/lastmile_qr_scan", "android": "https://dc.lft.to/lastmile_qr_scan"}}, {"name": "bc82ea676d38ff1315bea1600847b0b9", "fusion_lat": 0.0, "type": "electric_scooter", "lat": 38.9193605, "is_reserved": 0, "is_disabled": 0, "fusion_lon": 0.0, "bike_id": "bc82ea676d38ff1315bea1600847b0b9", "lon": -77.03432683333334, "rental_uris": {"ios": "https://dc.lft.to/lastmile_qr_scan", "android": "https://dc.lft.to/lastmile_qr_scan"}}, {"name": "14fe764bdb211370554ef3035e4d49d9", "fusion_lat": 0.0, "type": "electric_scooter", "lat": 38.937035, "is_reserved": 0, "is_disabled": 0, "fusion_lon": 0.0, "bike_id": "14fe764bdb211370554ef3035e4d49d9", "lon": -77.06104316666666, "rental_uris": {"ios": "https://dc.lft.to/lastmile_qr_scan", "android": "https://dc.lft.to/lastmile_qr_scan"}}, {"name": "d65d5c2c8f2db2595d21bae0ff70a6ea", "fusion_lat": 0.0, "type": "electric_scooter", "lat": 38.90358633333334, "is_reserved": 0, "is_disabled": 0, "fusion_lon": 0.0, "bike_id": "d65d5c2c8f2db2595d21bae0ff70a6ea", "lon": -77.0219625, "rental_uris": {"ios": "https://dc.lft.to/lastmile_qr_scan", "android": "https://dc.lft.to/lastmile_qr_scan"}}, {"name": "d6b031b4a0087bcfc55d1e7ee2942dd8", "fusion_lat": 0.0, "type": "electric_scooter", "lat": 38.877704666666666, "is_reserved": 0, "is_disabled": 0, "fusion_lon": 0.0, "bike_id": "d6b031b4a0087bcfc55d1e7ee2942dd8", "lon": -76.99421, "rental_uris": {"ios": "https://dc.lft.to/lastmile_qr_scan", "android": "https://dc.lft.to/lastmile_qr_scan"}}, {"name": "41dc7a983703494ab140dfadc6fcc90c", "fusion_lat": 0.0, "type": "electric_scooter", "lat": 38.9101285, "is_reserved": 0, "is_disabled": 0, "fusion_lon": 0.0, "bike_id": "41dc7a983703494ab140dfadc6fcc90c", "lon": -76.99673833333334, "rental_uris": {"ios": "https://dc.lft.to/lastmile_qr_scan", "android": "https://dc.lft.to/lastmile_qr_scan"}}, {"name": "9e3ded4657b259cb85715492f49c48b1", "fusion_lat": 0.0, "type": "electric_bike", "lat": 38.884032833333336, "is_reserved": 0, "is_disabled": 0, "fusion_lon": 0.0, "bike_id": "9e3ded4657b259cb85715492f49c48b1", "lon": -76.96062383333333, "rental_uris": {"ios": "https://dc.lft.to/lastmile_qr_scan", "android": "https://dc.lft.to/lastmile_qr_scan"}}, {"name": "25ce31b02779ae50e9084ee8fde0a1f0", "fusion_lat": 0.0, "type": "electric_scooter", "lat": 38.900498, "is_reserved": 0, "is_disabled": 0, "fusion_lon": 0.0, "bike_id": "25ce31b02779ae50e9084ee8fde0a1f0", "lon": -77.04863433333334, "rental_uris": {"ios": "https://dc.lft.to/lastmile_qr_scan", "android": "https://dc.lft.to/lastmile_qr_scan"}}, {"name": "8aa59bcd2e49a73d94fef8f231686373", "fusion_lat": 0.0, "type": "electric_scooter", "lat": 38.898307833333334, "is_reserved": 0, "is_disabled": 0, "fusion_lon": 0.0, "bike_id": "8aa59bcd2e49a73d94fef8f231686373", "lon": -77.02710716666667, "rental_uris": {"ios": "https://dc.lft.to/lastmile_qr_scan", "android": "https://dc.lft.to/lastmile_qr_scan"}}, {"name": "04e2656d6ae52e99e4495ba526dd4bc4", "fusion_lat": 0.0, "type": "electric_scooter", "lat": 38.9186605, "is_reserved": 0, "is_disabled": 0, "fusion_lon": 0.0, "bike_id": "04e2656d6ae52e99e4495ba526dd4bc4", "lon": -77.03656, "rental_uris": {"ios": "https://dc.lft.to/lastmile_qr_scan", "android": "https://dc.lft.to/lastmile_qr_scan"}}, {"name": "37a86c965388a3cb583a0e6e7118c48f", "fusion_lat": 0.0, "type": "electric_scooter", "lat": 38.92345383333333, "is_reserved": 0, "is_disabled": 0, "fusion_lon": 0.0, "bike_id": "37a86c965388a3cb583a0e6e7118c48f", "lon": -77.03538816666666, "rental_uris": {"ios": "https://dc.lft.to/lastmile_qr_scan", "android": "https://dc.lft.to/lastmile_qr_scan"}}, {"name": "817b253039aa4929368d98c6249bf08d", "fusion_lat": 0.0, "type": "electric_bike", "lat": 38.9356785, "is_reserved": 0, "is_disabled": 0, "fusion_lon": 0.0, "bike_id": "817b253039aa4929368d98c6249bf08d", "lon": -77.10440283333334, "rental_uris": {"ios": "https://dc.lft.to/lastmile_qr_scan", "android": "https://dc.lft.to/lastmile_qr_scan"}}, {"name": "aef01c3ecc8d72ab4265037da1e26799", "fusion_lat": 0.0, "type": "electric_scooter", "lat": 38.91702866666667, "is_reserved": 0, "is_disabled": 0, "fusion_lon": 0.0, "bike_id": "aef01c3ecc8d72ab4265037da1e26799", "lon": -77.03134, "rental_uris": {"ios": "https://dc.lft.to/lastmile_qr_scan", "android": "https://dc.lft.to/lastmile_qr_scan"}}, {"name": "34e299dad400ee1586ddac66a3fd879a", "fusion_lat": 0.0, "type": "electric_bike", "lat": 38.80225566666667, "is_reserved": 0, "is_disabled": 0, "fusion_lon": 0.0, "bike_id": "34e299dad400ee1586ddac66a3fd879a", "lon": -77.07917066666667, "rental_uris": {"ios": "https://dc.lft.to/lastmile_qr_scan", "android": "https://dc.lft.to/lastmile_qr_scan"}}, {"name": "d50cb43b3f30e81fe2308d5303f1d106", "fusion_lat": 0.0, "type": "electric_scooter", "lat": 38.8983125, "is_reserved": 0, "is_disabled": 0, "fusion_lon": 0.0, "bike_id": "d50cb43b3f30e81fe2308d5303f1d106", "lon": -76.94570483333334, "rental_uris": {"ios": "https://dc.lft.to/lastmile_qr_scan", "android": "https://dc.lft.to/lastmile_qr_scan"}}, {"name": "4ef05808ece616830858eda84e92fd29", "fusion_lat": 0.0, "type": "electric_scooter", "lat": 38.920322666666664, "is_reserved": 0, "is_disabled": 0, "fusion_lon": 0.0, "bike_id": "4ef05808ece616830858eda84e92fd29", "lon": -76.97798516666667, "rental_uris": {"ios": "https://dc.lft.to/lastmile_qr_scan", "android": "https://dc.lft.to/lastmile_qr_scan"}}, {"name": "112fca8954fcd1971f43f530518a0641", "fusion_lat": 0.0, "type": "electric_scooter", "lat": 38.906125833333334, "is_reserved": 0, "is_disabled": 0, "fusion_lon": 0.0, "bike_id": "112fca8954fcd1971f43f530518a0641", "lon": -77.0240765, "rental_uris": {"ios": "https://dc.lft.to/lastmile_qr_scan", "android": "https://dc.lft.to/lastmile_qr_scan"}}, {"name": "66e26d7d41d0b100ab5233379fcf4d14", "fusion_lat": 0.0, "type": "electric_scooter", "lat": 38.9527425, "is_reserved": 0, "is_disabled": 0, "fusion_lon": 0.0, "bike_id": "66e26d7d41d0b100ab5233379fcf4d14", "lon": -77.0714365, "rental_uris": {"ios": "https://dc.lft.to/lastmile_qr_scan", "android": "https://dc.lft.to/lastmile_qr_scan"}}, {"name": "0f5cf716853ccc09abb74c34ae88e551", "fusion_lat": 0.0, "type": "electric_scooter", "lat": 38.90347766666667, "is_reserved": 0, "is_disabled": 0, "fusion_lon": 0.0, "bike_id": "0f5cf716853ccc09abb74c34ae88e551", "lon": -77.01108083333334, "rental_uris": {"ios": "https://dc.lft.to/lastmile_qr_scan", "android": "https://dc.lft.to/lastmile_qr_scan"}},