{"data": {"bikes": [{"fusion_lat": 0.0, "name": "b0c036054c4f70f9f572c419596bb46f", "is_disabled": 0, "rental_uris": {"android": "https://dc.lft.to/lastmile_qr_scan", "ios": "https://dc.lft.to/lastmile_qr_scan"}, "fusion_lon": 0.0, "lat": 38.92243066666666, "bike_id": "b0c036054c4f70f9f572c419596bb46f", "type": "electric_scooter", "is_reserved": 0, "lon": -77.029132}, {"fusion_lat": 0.0, "name": "5dce42e5c1cc9365084666bef24e8dac", "is_disabled": 0, "rental_uris": {"android": "https://dc.lft.to/lastmile_qr_scan", "ios": "https://dc.lft.to/lastmile_qr_scan"}, "fusion_lon": 0.0, "lat": 38.892322166666666, "bike_id": "5dce42e5c1cc9365084666bef24e8dac", "type": "electric_scooter", "is_reserved": 0, "lon": -76.988158}, {"fusion_lat": 0.0, "name": "997f3bf967cd3854358f9bf61448a699", "is_disabled": 0, "rental_uris": {"android": "https://dc.lft.to/lastmile_qr_scan", "ios": "https://dc.lft.to/lastmile_qr_scan"}, "fusion_lon": 0.0, "lat": 38.89631466666667, "bike_id": "997f3bf967cd3854358f9bf61448a699", "type": "electric_scooter", "is_reserved": 0, "lon": -77.0449965}, {"fusion_lat": 0.0, "name": "e0731022a7ff9a9dc0fb36d2515c3bab", "is_disabled": 0, "rental_uris": {"android": "https://dc.lft.to/lastmile_qr_scan", "ios": "https://dc.lft.to/lastmile_qr_scan"}, "fusion_lon": 0.0, "lat": 38.93629116666666, "bike_id": "e0731022a7ff9a9dc0fb36d2515c3bab", "type": "electric_bike", "is_reserved": 0, "lon": -77.0211385}, {"fusion_lat": 0.0, "name": "a06d07ca3968b2fbe387b544f4c184f7", "is_disabled": 0, "rental_uris": {"android": "https://dc.lft.to/lastmile_qr_scan", "ios": "https://dc.lft.to/lastmile_qr_scan"}, "fusion_lon": 0.0, "lat": 38.9219195, "bike_id": "a06d07ca3968b2fbe387b544f4c184f7", "type": "electric_scooter", "is_reserved": 0, "lon": -77.04030566666667}, {"fusion_lat": 0.0, "name": "ebd40e201ec0b554b05619bb4963dacf", "is_disabled": 0, "rental_uris": {"android": "https://dc.lft.to/lastmile_qr_scan", "ios": "https://dc.lft.to/lastmile_qr_scan"}, "fusion_lon": 0.0, "lat": 38.87115216666667, "bike_id": "ebd40e201ec0b554b05619bb4963dacf", "type": "electric_scooter", "is_reserved": 0, "lon": -77.0057175}, {"fusion_lat": 0.0, "name": "d465f4bd1fa0d1d303d392b4c6839db6", "is_disabled": 0, "rental_uris": {"android": "https://dc.lft.to/lastmile_qr_scan", "ios": "https://dc.lft.to/lastmile_qr_scan"}, "fusion_lon": 0.0, "lat": 38.90708683333333, "bike_id": "d465f4bd1fa0d1d303d392b4c6839db6", "type": "electric_scooter", "is_reserved": 0, "lon": -77.05049633333333}, {"fusion_lat": 0.0, "name": "e78c13d45f7476cc0144c2c30a51fe60", "is_disabled": 0, "rental_uris": {"android": "https://dc.lft.to/lastmile_qr_scan", "ios": "https://dc.lft.to/lastmile_qr_scan"}, "fusion_lon": 0.0, "lat": 38.937378333333335, "bike_id": "e78c13d45f7476cc0144c2c30a51fe60", "type": "electric_scooter", "is_reserved": 0, "lon": -77.03581833333334}, {"fusion_lat": 0.0, "name": "4ddf5c6a67ade2f989eed66e74f37a48", "is_disabled": 0, "rental_uris": {"android": "https://dc.lft.to/lastmile_qr_scan", "ios": "https://dc.lft.to/lastmile_qr_scan"}, "fusion_lon": 0.0, "lat": 38.80669783333333, "bike_id": "4ddf5c6a67ade2f989eed66e74f37a48", "type": "electric_bike", "is_reserved": 0, "lon": -77.06918916666666}, {"fusion_lat": 0.0, "name": "b2e986c8eeba23e9171384290d3a7e09", "is_disabled": 0, "rental_uris": {"android": "https://dc.lft.to/lastmile_qr_scan", "ios": "https://dc.lft.to/lastmile_qr_scan"}, "fusion_lon": 0.0, "lat": 38.9050985, "bike_id": "b2e986c8eeba23e9171384290d3a7e09", "type": "electric_scooter", "is_reserved": 0, "lon": -77.00937733333333}, {"fusion_lat": 0.0, "name": "e30622e96ebcaa4e3290f77db113039a", "is_disabled": 0, "rental_uris": {"android": "https://dc.lft.to/lastmile_qr_scan", "ios": "https://dc.lft.to/lastmile_qr_scan"}, "fusion_lon": 0.0, "lat": 38.901735, "bike_id": "e30622e96ebcaa4e3290f77db113039a", "type": "electric_scooter", "is_reserved": 0, "lon": -76.99260383333333}, {"fusion_lat": 0.0, "name": "dd62c627ef1606ec7c7ce42d3144f00f", "is_disabled": 0, "rental_uris": {"android": "https://dc.lft.to/lastmile_qr_scan", "ios": "https://dc.lft.to/lastmile_qr_scan"}, "fusion_lon": 0.0, "lat": 38.92843383333334, "bike_id": "dd62c627ef1606ec7c7ce42d3144f00f", "type": "electric_bike", "is_reserved": 0, "lon": -77.02053716666667}, {"fusion_lat": 0.0, "name": "b5d1d37ff827199c904b33f3121456ec", "is_disabled": 0, "rental_uris": {"android": "https://dc.lft.to/lastmile_qr_scan", "ios": "https://dc.lft.to/lastmile_qr_scan"}, "fusion_lon": 0.0, "lat": 38.90246283333333, "bike_id": "b5d1d37ff827199c904b33f3121456ec", "type": "electric_scooter", "is_reserved": 0, "lon": -77.00208316666667}, {"fusion_lat": 0.0, "name": "3b0cc740daf2053bb938373c16983d81", "is_disabled": 0, "rental_uris": {"android": "https://dc.lft.to/lastmile_qr_scan", "ios": "https://dc.lft.to/lastmile_qr_scan"}, "fusion_lon": 0.0, "lat": 38.9320405, "bike_id": "3b0cc740daf2053bb938373c16983d81", "type": "electric_scooter", "is_reserved": 0, "lon": -77.0366245}, {"fusion_lat": 0.0, "name": "5b7df7c73c486b95288f358f43f6236f", "is_disabled": 0, "rental_uris": {"android": "https://dc.lft.to/lastmile_qr_scan", "ios": "https://dc.lft.to/lastmile_qr_scan"}, "fusion_lon": 0.0, "lat": 38.919291666666666, "bike_id": "5b7df7c73c486b95288f358f43f6236f", "type": "electric_scooter", "is_reserved": 0, "lon": -77.04157}, {"fusion_lat": 0.0, "name": "51cdbbebdb1ab1632059265ccc3f53d6", "is_disabled": 0, "rental_uris": {"android": "https://dc.lft.to/lastmile_qr_scan", "ios": "https://dc.lft.to/lastmile_qr_scan"}, "fusion_lon": 0.0, "lat": 38.8921585, "bike_id": "51cdbbebdb1ab1632059265ccc3f53d6", "type": "electric_scooter", "is_reserved": 0, "lon": -76.9574265}, {"fusion_lat": 0.0, "name": "899463706dff7363557839450651aa9d", "is_disabled": 0, "rental_uris": {"android": "https://dc.lft.to/lastmile_qr_scan", "ios": "https://dc.lft.to/lastmile_qr_scan"}, "fusion_lon": 0.0, "lat": 38.91400983333333, "bike_id": "899463706dff7363557839450651aa9d", "type": "electric_scooter", "is_reserved": 0, "lon": -77.03263533333333}, {"fusion_lat": 0.0, "name": "61a682ca68c9a0142d3de223f7e1d859", "is_disabled": 0, "rental_uris": {"android": "https://dc.lft.to/lastmile_qr_scan", "ios": "https://dc.lft.to/lastmile_qr_scan"}, "fusion_lon": 0.0, "lat": 38.89580433333333, "bike_id": "61a682ca68c9a0142d3de223f7e1d859", "type": "electric_scooter", "is_reserved": 0, "lon": -76.9488525}, {"fusion_lat": 0.0, "name": "5ccda254578af31bf210b5815e6a8843", "is_disabled": 0, "rental_uris": {"android": "https://dc.lft.to/lastmile_qr_scan", "ios": "https://dc.lft.to/lastmile_qr_scan"}, "fusion_lon": 0.0, "lat": 38.895466, "bike_id": "5ccda254578af31bf210b5815e6a8843", "type": "electric_scooter", "is_reserved": 0, "lon": -76.98337166666667}, {"fusion_lat": 0.0, "name": "0982922349fff525a54c56797a2f09bb", "is_disabled": 0, "rental_uris": {"android": "https://dc.lft.to/lastmile_qr_scan", "ios": "https://dc.lft.to/lastmile_qr_scan"}, "fusion_lon": 0.0, "lat": 38.917157, "bike_id": "0982922349fff525a54c56797a2f09bb", "type": "electric_scooter", "is_reserved": 0, "lon": -77.02416683333334}, {"fusion_lat": 0.0, "name": "cc02fdc513d674b48bed14c49a910869", "is_disabled": 0, "rental_uris": {"android": "https://dc.lft.to/lastmile_qr_scan", "ios": "https://dc.lft.to/lastmile_qr_scan"}, "fusion_lon": 0.0, "lat": 38.94497066666667, "bike_id": "cc02fdc513d674b48bed14c49a910869", "type": "electric_scooter", "is_reserved": 0, "lon": -77.038778}, {"fusion_lat": 0.0, "name": "2cd20f1f099b262f8863e42801f0a9f6", "is_disabled": 0, "rental_uris": {"android": "https://dc.lft.to/lastmile_qr_scan", "ios": "https://dc.lft.to/lastmile_qr_scan"}, "fusion_lon": 0.0, "lat": 38.917235, "bike_id": "2cd20f1f099b262f8863e42801f0a9f6", "type": "electric_scooter", "is_reserved": 0, "lon": -77.03653683333333}, {"fusion_lat": 0.0, "name": "9a82fb3ea69cb92b71b83a2afc0f7526", "is_disabled": 0, "rental_uris": {"android": "https://dc.lft.to/lastmile_qr_scan", "ios": "https://dc.lft.to/lastmile_qr_scan"}, "fusion_lon": 0.0, "lat": 38.93352683333333, "bike_id": "9a82fb3ea69cb92b71b83a2afc0f7526", "type": "electric_scooter", "is_reserved": 0, "lon": -77.0730855}, {"fusion_lat": 0.0, "name": "e969017fa3725ac69bb67e8bf01990e9", "is_disabled": 0, "rental_uris": {"android": "https://dc.lft.to/lastmile_qr_scan", "ios": "https://dc.lft.to/lastmile_qr_scan"}, "fusion_lon": 0.0, "lat": 38.91778733333334, "bike_id": "e969017fa3725ac69bb67e8bf01990e9", "type": "electric_scooter", "is_reserved": 0, "lon": -77.04098766666667}, {"fusion_lat": 0.0, "name": "a21930302ed1978fcc274f973e5aef1d", "is_disabled": 0, "rental_uris": {"android": "https://dc.lft.to/lastmile_qr_scan", "ios": "https://dc.lft.to/lastmile_qr_scan"}, "fusion_lon": 0.0, "lat": 38.95089, "bike_id": "a21930302ed1978fcc274f973e5aef1d", "type": "electric_bike", "is_reserved": 0, "lon": -76.9979295}, {"fusion_lat": 0.0, "name": "e078ebc64084e4b0a9c46528efef4c8c", "is_disabled": 0, "rental_uris": {"android": "https://dc.lft.to/lastmile_qr_scan", "ios": "https://dc.lft.to/lastmile_qr_scan"}, "fusion_lon": 0.0, "lat": 38.9047885, "bike_id": "e078ebc64084e4b0a9c46528efef4c8c", "type": "electric_bike", "is_reserved": 0, "lon": -77.018955}, {"fusion_lat": 0.0, "name": "2e30a454ad1096efa0b07a0d4ddafba2", "is_disabled": 0, "rental_uris": {"android": "https://dc.lft.to/lastmile_qr_scan", "ios": "https://dc.lft.to/lastmile_qr_scan"}, "fusion_lon": 0.0, "lat": 38.91987, "bike_id": "2e30a454ad1096efa0b07a0d4ddafba2", "type": "electric_scooter", "is_reserved": 0, "lon": -77.0239475}, {"fusion_lat": 0.0, "name": "2c91d7992ec28070718fcb9e6805e228", "is_disabled": 0, "rental_uris": {"android": "https://dc.lft.to/lastmile_qr_scan", "ios": "https://dc.lft.to/lastmile_qr_scan"}, "fusion_lon": 0.0, "lat": 38.930521166666665, "bike_id": "2c91d7992ec28070718fcb9e6805e228", "type": "electric_scooter", "is_reserved": 0, "lon": -77.03789033333334}, {"fusion_lat": 0.0, "name": "a5717c0f4eeac369a06190bab5cfefa3", "is_disabled": 0, "rental_uris": {"android": "https://dc.lft.to/lastmile_qr_scan", "ios": "https://dc.lft.to/lastmile_qr_scan"}, "fusion_lon": 0.0, "lat": 38.922760833333335, "bike_id": "a5717c0f4eeac369a06190bab5cfefa3", "type": "electric_scooter", "is_reserved": 0, "lon": -76.99772166666666}, {"fusion_lat": 0.0, "name": "199e2aab7c3488f2701ecba789618120", "is_disabled": 0, "rental_uris": {"android": "https://dc.lft.to/lastmile_qr_scan", "ios": "https://dc.lft.to/lastmile_qr_scan"}, "fusion_lon": 0.0, "lat": 38.897263333333335, "bike_id": "199e2aab7c3488f2701ecba789618120", "type": "electric_scooter", "is_reserved": 0, "lon": -77.0093045}, {"fusion_lat": 0.0, "name": "2891e8f4ab33bc6d061330167986c6e4", "is_disabled": 0, "rental_uris": {"android": "https://dc.lft.to/lastmile_qr_scan", "ios": "https://dc.lft.to/lastmile_qr_scan"}, "fusion_lon": 0.0, "lat": 38.91330383333333, "bike_id": "2891e8f4ab33bc6d061330167986c6e4", "type": "electric_scooter", "is_reserved": 0, "lon": -77.03171416666666}, {"fusion_lat": 0.0, "name": "43c6df14be14f373460fdc0fc4ad8b45", "is_disabled": 0, "rental_uris": {"android": "https://dc.lft.to/lastmile_qr_scan", "ios": "https://dc.lft.to/lastmile_qr_scan"}, "fusion_lon": 0.0, "lat": 38.90948433333333, "bike_id": "43c6df14be14f373460fdc0fc4ad8b45", "type": "electric_scooter", "is_reserved": 0, "lon": -76.98767866666667}, {"fusion_lat": 0.0, "name": "6889a41816df03daa468eb85ac6d4dc1", "is_disabled": 0, "rental_uris": {"android": "https://dc.lft.to/lastmile_qr_scan", "ios": "https://dc.lft.to/lastmile_qr_scan"}, "fusion_lon": 0.0, "lat": 38.9002435, "bike_id": "6889a41816df03daa468eb85ac6d4dc1", "type": "electric_scooter", "is_reserved": 0, "lon": -76.97400166666667}, {"fusion_lat": 0.0, "name": "f50d25695f8bfeff1acf9b3022007515", "is_disabled": 0, "rental_uris": {"android": "https://dc.lft.to/lastmile_qr_scan", "ios": "https://dc.lft.to/lastmile_qr_scan"}, "fusion_lon": 0.0, "lat": 38.912605, "bike_id": "f50d25695f8bfeff1acf9b3022007515", "type": "electric_scooter", "is_reserved": 0, "lon": -77.03867283333334}, {"fusion_lat": 0.0, "name": "d110015c16e253a4d822f465b0bfa485", "is_disabled": 0, "rental_uris": {"android": "https://dc.lft.to/lastmile_qr_scan", "ios": "https://dc.lft.to/lastmile_qr_scan"}, "fusion_lon": 0.0, "lat": 38.90660733333333, "bike_id": "d110015c16e253a4d822f465b0bfa485", "type": "electric_scooter", "is_reserved": 0, "lon": -76.9996925}, {"fusion_lat": 0.0, "name": "8c014d38a5a774e92b7f054d0383f46b", "is_disabled": 0, "rental_uris": {"android": "https://dc.lft.to/lastmile_qr_scan", "ios": "https://dc.lft.to/lastmile_qr_scan"}, "fusion_lon": 0.0, "lat": 38.902575, "bike_id": "8c014d38a5a774e92b7f054d0383f46b", "type": "electric_scooter", "is_reserved": 0, "lon": -77.03360816666667}, {"fusion_lat": 0.0, "name": "9a2b9655b3359f1fb37314022b92227c", "is_disabled": 0, "rental_uris": {"android": "https://dc.lft.to/lastmile_qr_scan", "ios": "https://dc.lft.to/lastmile_qr_scan"}, "fusion_lon": 0.0, "lat": 38.924495, "bike_id": "9a2b9655b3359f1fb37314022b92227c", "type": "electric_scooter", "is_reserved": 0, "lon": -77.00877183333333}, {"fusion_lat": 0.0, "name": "9677e5c4ab55728223d9da2f47dc2d24", "is_disabled": 0, "rental_uris": {"android": "https://dc.lft.to/lastmile_qr_scan", "ios": "https://dc.lft.to/lastmile_qr_scan"}, "fusion_lon": 0.0, "lat": 38.92245883333333, "bike_id": "9677e5c4ab55728223d9da2f47dc2d24", "type": "electric_scooter", "is_reserved": 0, "lon": -77.030685}, {"fusion_lat": 0.0, "name": "fc8bcaf3926575c94ff577f528f4000f", "is_disabled": 0, "rental_uris": {"android": "https://dc.lft.to/lastmile_qr_scan", "ios": "https://dc.lft.to/lastmile_qr_scan"}, "fusion_lon": 0.0, "lat": 38.889862666666666, "bike_id": "fc8bcaf3926575c94ff577f528f4000f", "type": "electric_scooter", "is_reserved": 0, "lon": -77.003322}, {"fusion_lat": 0.0, "name": "5b238641ddf3d558015490f961c3c429", "is_disabled": 0, "rental_uris": {"android": "https://dc.lft.to/lastmile_qr_scan", "ios": "https://dc.lft.to/lastmile_qr_scan"}, "fusion_lon": 0.0, "lat": 38.90735933333333, "bike_id": "5b238641ddf3d558015490f961c3c429", "type": "electric_scooter", "is_reserved": 0, "lon": -77.028004}, {"fusion_lat": 0.0, "name": "7d88988e9e93455b20b9198d6b8e0e83", "is_disabled": 0, "rental_uris": {"android": "https://dc.lft.to/lastmile_qr_scan", "ios": "https://dc.lft.to/lastmile_qr_scan"}, "fusion_lon": 0.0, "lat": 38.90612983333333, "bike_id": "7d88988e9e93455b20b9198d6b8e0e83", "type": "electric_scooter", "is_reserved": 0, "lon": -77.0252455}, {"fusion_lat": 0.0, "name": "1b891b7b59ad62fbd729ddb41b35d308", "is_disabled": 0, "rental_uris": {"android": "https://dc.lft.to/lastmile_qr_scan", "ios": "https://dc.lft.to/lastmile_qr_scan"}, "fusion_lon": 0.0, "lat": 38.92243083333334, "bike_id": "1b891b7b59ad62fbd729ddb41b35d308", "type": "electric_scooter", "is_reserved": 0, "lon": -77.03083483333333}, {"fusion_lat": 0.0, "name": "a2d28ff0965426140f9ae81ae2aebe7e", "is_disabled": 0, "rental_uris": {"android": "https://dc.lft.to/lastmile_qr_scan", "ios": "https://dc.lft.to/lastmile_qr_scan"}, "fusion_lon": 0.0, "lat": 38.896727, "bike_id": "a2d28ff0965426140f9ae81ae2aebe7e", "type": "electric_scooter", "is_reserved": 0, "lon": -77.050862}, {"fusion_lat": 0.0, "name": "3de4bf454e62972851cf225fc81b59e5", "is_disabled": 0, "rental_uris": {"android": "https://dc.lft.to/lastmile_qr_scan", "ios": "https://dc.lft.to/lastmile_qr_scan"}, "fusion_lon": 0.0, "lat": 38.93583616666667, "bike_id": "3de4bf454e62972851cf225fc81b59e5", "type": "electric_scooter", "is_reserved": 0, "lon": -77.03344816666667}, {"fusion_lat": 0.0, "name": "0a4e492ba0e67f441e703f09c5692e42", "is_disabled": 0, "rental_uris": {"android": "https://dc.lft.to/lastmile_qr_scan", "ios": "https://dc.lft.to/lastmile_qr_scan"}, "fusion_lon": 0.0, "lat": 38.922911, "bike_id": "0a4e492ba0e67f441e703f09c5692e42", "type": "electric_scooter", "is_reserved": 0, "lon": -77.02334666666667}, {"fusion_lat": 0.0, "name": "1d72b842b91d64792950e30e9fb1c2af", "is_disabled": 0, "rental_uris": {"android": "https://dc.lft.to/lastmile_qr_scan", "ios": "https://dc.lft.to/lastmile_qr_scan"}, "fusion_lon": 0.0, "lat": 38.88308216666667, "bike_id": "1d72b842b91d64792950e30e9fb1c2af", "type": "electric_scooter", "is_reserved": 0, "lon": -77.01386716666667}, {"fusion_lat": 0.0, "name": "5d0ff508f7854c61b2f2347922ee11df", "is_disabled": 0, "rental_uris": {"android": "https://dc.lft.to/lastmile_qr_scan", "ios": "https://dc.lft.to/lastmile_qr_scan"}, "fusion_lon": 0.0, "lat": 38.8819095, "bike_id": "5d0ff508f7854c61b2f2347922ee11df", "type": "electric_scooter", "is_reserved": 0, "lon": -77.003514}, {"fusion_lat": 0.0, "name": "be5bb391ca074f9ea26047d6e650c82e", "is_disabled": 0, "rental_uris": {"android": "https://dc.lft.to/lastmile_qr_scan", "ios": "https://dc.lft.to/lastmile_qr_scan"}, "fusion_lon": 0.0, "lat": 38.927411666666664, "bike_id": "be5bb391ca074f9ea26047d6e650c82e", "type": "electric_scooter", "is_reserved": 0, "lon": -77.05253483333334}, {"fusion_lat": 0.0, "name": "ad4cf97b614d52016b926e411317cf98", "is_disabled": 0, "rental_uris": {"android": "https://dc.lft.to/lastmile_qr_scan", "ios": "https://dc.lft.to/lastmile_qr_scan"}, "fusion_lon": 0.0, "lat": 38.904151166666665, "bike_id": "ad4cf97b614d52016b926e411317cf98", "type": "electric_scooter", "is_reserved": 0, "lon": -77.051252}, {"fusion_lat": 0.0, "name": "e3ca8e7696252c1ffe861dc075eb23f8", "is_disabled": 0, "rental_uris": {"android": "https://dc.lft.to/lastmile_qr_scan", "ios": "https://dc.lft.to/lastmile_qr_scan"}, "fusion_lon": 0.0, "lat": 38.923820166666665, "bike_id": "e3ca8e7696252c1ffe861dc075eb23f8", "type": "electric_scooter", "is_reserved": 0, "lon": -77.04468133333333}, {"fusion_lat": 0.0, "name": "a923d3bea2c88921a0f522fdfefad504", "is_disabled": 0, "rental_uris": {"android": "https://dc.lft.to/lastmile_qr_scan", "ios": "https://dc.lft.to/lastmile_qr_scan"}, "fusion_lon": 0.0, "lat": 38.9201115, "bike_id": "a923d3bea2c88921a0f522fdfefad504", "type": "electric_scooter", "is_reserved": 0, "lon": -77.038892}, {"fusion_lat": 0.0, "name": "74343a237057731ef0c15c05b604265e", "is_disabled": 0, "rental_uris": {"android": "https://dc.lft.to/lastmile_qr_scan", "ios": "https://dc.lft.to/lastmile_qr_scan"}, "fusion_lon": 0.0, "lat": 38.903785666666664, "bike_id": "74343a237057731ef0c15c05b604265e", "type": "electric_scooter", "is_reserved": 0, "lon": -76.97616933333333}, {"fusion_lat": 0.0, "name": "8c92ae4829eee4e088fefe33acac0790", "is_disabled": 0, "rental_uris": {"android": "https://dc.lft.to/lastmile_qr_scan", "ios": "https://dc.lft.to/lastmile_qr_scan"}, "fusion_lon": 0.0, "lat": 38.927546166666666, "bike_id": "8c92ae4829eee4e088fefe33acac0790", "type": "electric_scooter", "is_reserved": 0, "lon": -77.03275533333333}, {"fusion_lat": 0.0, "name": "2c3d559cb1a6dba4d7b5c01cf634c542", "is_disabled": 0, "rental_uris": {"android": "https://dc.lft.to/lastmile_qr_scan", "ios": "https://dc.lft.to/lastmile_qr_scan"}, "fusion_lon": 0.0, "lat": 38.96391466666667, "bike_id": "2c3d559cb1a6dba4d7b5c01cf634c542", "type": "electric_scooter", "is_reserved": 0, "lon": -77.0259315}, {"fusion_lat": 0.0, "name": "4886e8ca2c55a719bc6b47f9a889b5b7", "is_disabled": 0, "rental_uris": {"android": "https://dc.lft.to/lastmile_qr_scan", "ios": "https://dc.lft.to/lastmile_qr_scan"}, "fusion_lon": 0.0, "lat": 38.907214833333335, "bike_id": "4886e8ca2c55a719bc6b47f9a889b5b7", "type": "electric_scooter", "is_reserved": 0, "lon": -77.032106}, {"fusion_lat": 0.0, "name": "3977b75f950667fbf551b9b5dff506c3", "is_disabled": 0, "rental_uris": {"android": "https://dc.lft.to/lastmile_qr_scan", "ios": "https://dc.lft.to/lastmile_qr_scan"}, "fusion_lon": 0.0, "lat": 38.802935833333336, "bike_id": "3977b75f950667fbf551b9b5dff506c3", "type": "electric_bike", "is_reserved": 0, "lon": -77.0593835}, {"fusion_lat": 0.0, "name": "7181ac832fa86aaf7f282912b3788b0a", "is_disabled": 0, "rental_uris": {"android": "https://dc.lft.to/lastmile_qr_scan", "ios": "https://dc.lft.to/lastmile_qr_scan"}, "fusion_lon": 0.0, "lat": 38.93248416666667, "bike_id": "7181ac832fa86aaf7f282912b3788b0a", "type": "electric_scooter", "is_reserved": 0, "lon": -77.03273683333333}, {"fusion_lat": 0.0, "name": "347eced331abffe4b2ce9c0c2b210eb7", "is_disabled": 0, "rental_uris": {"android": "https://dc.lft.to/lastmile_qr_scan", "ios": "https://dc.lft.to/lastmile_qr_scan"}, "fusion_lon": 0.0, "lat": 38.879465333333336, "bike_id": "347eced331abffe4b2ce9c0c2b210eb7", "type": "electric_scooter", "is_reserved": 0, "lon": -77.005835}, {"fusion_lat": 0.0, "name": "655e51ab21c5ca5d37afe67e31ccdcdb", "is_disabled": 0, "rental_uris": {"android": "https://dc.lft.to/lastmile_qr_scan", "ios": "https://dc.lft.to/lastmile_qr_scan"}, "fusion_lon": 0.0, "lat": 38.90006666666667, "bike_id": "655e51ab21c5ca5d37afe67e31ccdcdb", "type": "electric_scooter", "is_reserved": 0, "lon": -77.0118135}, {"fusion_lat": 0.0, "name": "18592499902af19941c5cafb8bc41380", "is_disabled": 0, "rental_uris": {"android": "https://dc.lft.to/lastmile_qr_scan", "ios": "https://dc.lft.to/lastmile_qr_scan"}, "fusion_lon": 0.0, "lat": 38.892386333333334, "bike_id": "18592499902af19941c5cafb8bc41380", "type": "electric_scooter", "is_reserved": 0, "lon": -77.04359883333333}, {"fusion_lat": 0.0, "name": "b188d0cb3576cd1d0bc727a11fc13f0c", "is_disabled": 0, "rental_uris": {"android": "https://dc.lft.to/lastmile_qr_scan", "ios": "https://dc.lft.to/lastmile_qr_scan"}, "fusion_lon": 0.0, "lat": 38.92303716666667, "bike_id": "b188d0cb3576cd1d0bc727a11fc13f0c", "type": "electric_scooter", "is_reserved": 0, "lon": -77.03673966666666}, {"fusion_lat": 0.0, "name": "5a22dc40696128fd0bfd3cacdaa540bf", "is_disabled": 0, "rental_uris": {"android": "https://dc.lft.to/lastmile_qr_scan", "ios": "https://dc.lft.to/lastmile_qr_scan"}, "fusion_lon": 0.0, "lat": 38.921071166666664, "bike_id": "5a22dc40696128fd0bfd3cacdaa540bf", "type": "electric_scooter", "is_reserved": 0, "lon": -77.03166533333334}, {"fusion_lat": 0.0, "name": "c21090e9cd1d87bafb615bfd16a49a39", "is_disabled": 0, "rental_uris": {"android": "https://dc.lft.to/lastmile_qr_scan", "ios": "https://dc.lft.to/lastmile_qr_scan"}, "fusion_lon": 0.0, "lat": 38.91423916666667, "bike_id": "c21090e9cd1d87bafb615bfd16a49a39", "type": "electric_scooter", "is_reserved": 0, "lon": -77.022009}, {"fusion_lat": 0.0, "name": "77432510ec48f78a0c4ed06b5a24c0c1", "is_disabled": 0, "rental_uris": {"android": "https://dc.lft.to/lastmile_qr_scan", "ios": "https://dc.lft.to/lastmile_qr_scan"}, "fusion_lon": 0.0, "lat": 38.87657183333334, "bike_id": "77432510ec48f78a0c4ed06b5a24c0c1", "type": "electric_scooter", "is_reserved": 0, "lon": -77.0006565}, {"fusion_lat": 0.0, "name": "59b9d6225d906a102e6e3929d2f5d4b6", "is_disabled": 0, "rental_uris": {"android": "https://dc.lft.to/lastmile_qr_scan", "ios": "https://dc.lft.to/lastmile_qr_scan"}, "fusion_lon": 0.0, "lat": 38.9047155, "bike_id": "59b9d6225d906a102e6e3929d2f5d4b6", "type": "electric_scooter", "is_reserved": 0, "lon": -77.05324383333334}, {"fusion_lat": 0.0, "name": "042569db88874c15c00c913ed9638104", "is_disabled": 0, "rental_uris": {"android": "https://dc.lft.to/lastmile_qr_scan", "ios": "https://dc.lft.to/lastmile_qr_scan"}, "fusion_lon": 0.0, "lat": 38.952788166666664, "bike_id": "042569db88874c15c00c913ed9638104", "type": "electric_scooter", "is_reserved": 0, "lon": -77.06871666666666}, {"fusion_lat": 0.0, "name": "84b39838c5fe9e45d898d33336145349", "is_disabled": 0, "rental_uris": {"android": "https://dc.lft.to/lastmile_qr_scan", "ios": "https://dc.lft.to/lastmile_qr_scan"}, "fusion_lon": 0.0, "lat": 38.91594683333334, "bike_id": "84b39838c5fe9e45d898d33336145349", "type": "electric_scooter", "is_reserved": 0, "lon": -77.0433}, {"fusion_lat": 0.0, "name": "93282997f847f19590fb900d99528878", "is_disabled": 0, "rental_uris": {"android": "https://dc.lft.to/lastmile_qr_scan", "ios": "https://dc.lft.to/lastmile_qr_scan"}, "fusion_lon": 0.0, "lat": 38.91650383333333, "bike_id": "93282997f847f19590fb900d99528878", "type": "electric_bike", "is_reserved": 0, "lon": -76.98226716666667}, {"fusion_lat": 0.0, "name": "b39b624bd8a58de594e3558ae0bedb53", "is_disabled": 0, "rental_uris": {"android": "https://dc.lft.to/lastmile_qr_scan", "ios": "https://dc.lft.to/lastmile_qr_scan"}, "fusion_lon": 0.0, "lat": 38.94389916666667, "bike_id": "b39b624bd8a58de594e3558ae0bedb53", "type": "electric_scooter", "is_reserved": 0, "lon": -77.03212016666667}, {"fusion_lat": 0.0, "name": "74e88a3e0562094a78c5c82bb9bf59d8", "is_disabled": 0, "rental_uris": {"android": "https://dc.lft.to/lastmile_qr_scan", "ios": "https://dc.lft.to/lastmile_qr_scan"}, "fusion_lon": 0.0, "lat": 38.9508535, "bike_id": "74e88a3e0562094a78c5c82bb9bf59d8", "type": "electric_scooter", "is_reserved": 0, "lon": -77.027169}, {"fusion_lat": 0.0, "name": "6285f149d7fb42955ca6135846f57f98", "is_disabled": 0, "rental_uris": {"android": "https://dc.lft.to/lastmile_qr_scan", "ios": "https://dc.lft.to/lastmile_qr_scan"}, "fusion_lon": 0.0, "lat": 38.916953, "bike_id": "6285f149d7fb42955ca6135846f57f98", "type": "electric_scooter", "is_reserved": 0, "lon": -77.02596616666666}, {"fusion_lat": 0.0, "name": "e974dc73db8b4f74e8cbe51162b7ed19", "is_disabled": 0, "rental_uris": {"android": "https://dc.lft.to/lastmile_qr_scan", "ios": "https://dc.lft.to/lastmile_qr_scan"}, "fusion_lon": 0.0, "lat": 38.92377033333333, "bike_id": "e974dc73db8b4f74e8cbe51162b7ed19", "type": "electric_scooter", "is_reserved": 0, "lon": -77.05153683333333}, {"fusion_lat": 0.0, "name": "e650588e0ee7af8d1dc677da8f6dd041", "is_disabled": 0, "rental_uris": {"android": "https://dc.lft.to/lastmile_qr_scan", "ios": "https://dc.lft.to/lastmile_qr_scan"}, "fusion_lon": 0.0, "lat": 38.9534955, "bike_id": "e650588e0ee7af8d1dc677da8f6dd041", "type": "electric_scooter", "is_reserved": 0, "lon": -77.079491}, {"fusion_lat": 0.0, "name": "5f8cf5cb35737a9c14a219c5f59b9194", "is_disabled": 0, "rental_uris": {"android": "https://dc.lft.to/lastmile_qr_scan", "ios": "https://dc.lft.to/lastmile_qr_scan"}, "fusion_lon": 0.0, "lat": 38.9451815, "bike_id": "5f8cf5cb35737a9c14a219c5f59b9194", "type": "electric_bike", "is_reserved": 0, "lon": -77.0067865}, {"fusion_lat": 0.0, "name": "9fee71d40896f8eab8a54791b33f533b", "is_disabled": 0, "rental_uris": {"android": "https://dc.lft.to/lastmile_qr_scan", "ios": "https://dc.lft.to/lastmile_qr_scan"}, "fusion_lon": 0.0, "lat": 38.88503, "bike_id": "9fee71d40896f8eab8a54791b33f533b", "type": "electric_scooter", "is_reserved": 0, "lon": -77.0147975}, {"fusion_lat": 0.0, "name": "4f52b0b36c7cbd3361a2ce42cd8e3dca", "is_disabled": 0, "rental_uris": {"android": "https://dc.lft.to/lastmile_qr_scan", "ios": "https://dc.lft.to/lastmile_qr_scan"}, "fusion_lon": 0.0, "lat": 38.9100925, "bike_id": "4f52b0b36c7cbd3361a2ce42cd8e3dca", "type": "electric_scooter", "is_reserved": 0, "lon": -77.0161965}, {"fusion_lat": 0.0, "name": "d13c1f154011cba9c4025bb05e88bc4f", "is_disabled": 0, "rental_uris": {"android": "https://dc.lft.to/lastmile_qr_scan", "ios": "https://dc.lft.to/lastmile_qr_scan"}, "fusion_lon": 0.0, "lat": 38.905038833333336, "bike_id": "d13c1f154011cba9c4025bb05e88bc4f", "type": "electric_scooter", "is_reserved": 0, "lon": -77.05129466666666}, {"fusion_lat": 0.0, "name": "c990740181918f7dcba74a3362a9746b", "is_disabled": 0, "rental_uris": {"android": "https://dc.lft.to/lastmile_qr_scan", "ios": "https://dc.lft.to/lastmile_qr_scan"}, "fusion_lon": 0.0, "lat": 38.87371683333333, "bike_id": "c990740181918f7dcba74a3362a9746b", "type": "electric_scooter", "is_reserved": 0, "lon": -77.00060133333334}, {"fusion_lat": 0.0, "name": "3366c19c98c5ce69b754d6133f9e6129", "is_disabled": 0, "rental_uris": {"android": "https://dc.lft.to/lastmile_qr_scan", "ios": "https://dc.lft.to/lastmile_qr_scan"}, "fusion_lon": 0.0, "lat": 38.89215516666667, "bike_id": "3366c19c98c5ce69b754d6133f9e6129", "type": "electric_scooter", "is_reserved": 0, "lon": -77.02218183333333}, {"fusion_lat": 0.0, "name": "7eb9b213dfeec5b5efaecbca9ee59f13", "is_disabled": 0, "rental_uris": {"android": "https://dc.lft.to/lastmile_qr_scan", "ios": "https://dc.lft.to/lastmile_qr_scan"}, "fusion_lon": 0.0, "lat": 38.899567166666664, "bike_id": "7eb9b213dfeec5b5efaecbca9ee59f13", "type": "electric_scooter", "is_reserved": 0, "lon": -77.054766}, {"fusion_lat": 0.0, "name": "8e3cabd3103c6f47130ff8ad3ed5472a", "is_disabled": 0, "rental_uris": {"android": "https://dc.lft.to/lastmile_qr_scan", "ios": "https://dc.lft.to/lastmile_qr_scan"}, "fusion_lon": 0.0, "lat": 38.9268135, "bike_id": "8e3cabd3103c6f47130ff8ad3ed5472a", "type": "electric_scooter", "is_reserved": 0, "lon": -77.03146433333333}, {"fusion_lat": 0.0, "name": "49db945534a8095b9da1c8928b590882", "is_disabled": 0, "rental_uris": {"android": "https://dc.lft.to/lastmile_qr_scan", "ios": "https://dc.lft.to/lastmile_qr_scan"}, "fusion_lon": 0.0, "lat": 38.90960533333333, "bike_id": "49db945534a8095b9da1c8928b590882", "type": "electric_scooter", "is_reserved": 0, "lon": -77.02277933333333}, {"fusion_lat": 0.0, "name": "9269edae7bee87432f825be4a4f3a14c", "is_disabled": 0, "rental_uris": {"android": "https://dc.lft.to/lastmile_qr_scan", "ios": "https://dc.lft.to/lastmile_qr_scan"}, "fusion_lon": 0.0, "lat": 38.901368833333336, "bike_id": "9269edae7bee87432f825be4a4f3a14c", "type": "electric_scooter", "is_reserved": 0, "lon": -76.99119766666666}, {"fusion_lat": 0.0, "name": "9495b0e3aaf351dfc50cd9b14a011ebc", "is_disabled": 0, "rental_uris": {"android": "https://dc.lft.to/lastmile_qr_scan", "ios": "https://dc.lft.to/lastmile_qr_scan"}, "fusion_lon": 0.0, "lat": 38.919751, "bike_id": "9495b0e3aaf351dfc50cd9b14a011ebc", "type": "electric_scooter", "is_reserved": 0, "lon": -77.04089866666666}, {"fusion_lat": 0.0, "name": "6bd955dcb671f3a9d081c8fc8ee1425e", "is_disabled": 0, "rental_uris": {"android": "https://dc.lft.to/lastmile_qr_scan", "ios": "https://dc.lft.to/lastmile_qr_scan"}, "fusion_lon": 0.0, "lat": 38.878178, "bike_id": "6bd955dcb671f3a9d081c8fc8ee1425e", "type": "electric_scooter", "is_reserved": 0, "lon": -77.01536216666666}, {"fusion_lat": 0.0, "name": "cfcb49b5f108ec966e1f3b5363f20c64", "is_disabled": 0, "rental_uris": {"android": "https://dc.lft.to/lastmile_qr_scan", "ios": "https://dc.lft.to/lastmile_qr_scan"}, "fusion_lon": 0.0, "lat": 38.9135085, "bike_id": "cfcb49b5f108ec966e1f3b5363f20c64", "type": "electric_bike", "is_reserved": 0, "lon": -76.9890265}, {"fusion_lat": 0.0, "name": "2ff8edb4f4f6dbe6b552c0b40307a192", "is_disabled": 0, "rental_uris": {"android": "https://dc.lft.to/lastmile_qr_scan", "ios": "https://dc.lft.to/lastmile_qr_scan"}, "fusion_lon": 0.0, "lat": 38.883921666666666, "bike_id": "2ff8edb4f4f6dbe6b552c0b40307a192", "type": "electric_scooter", "is_reserved": 0, "lon": -76.98562783333334}, {"fusion_lat": 0.0, "name": "dd33ac58481cd9005dc4b2109c92d3f7", "is_disabled": 0, "rental_uris": {"android": "https://dc.lft.to/lastmile_qr_scan", "ios": "https://dc.lft.to/lastmile_qr_scan"}, "fusion_lon": 0.0, "lat": 38.901975166666666, "bike_id": "dd33ac58481cd9005dc4b2109c92d3f7", "type": "electric_scooter", "is_reserved": 0, "lon": -77.02373316666667}, {"fusion_lat": 0.0, "name": "83bbc1d67681e392b2bb13bdcc9e7b7b", "is_disabled": 0, "rental_uris": {"android": "https://dc.lft.to/lastmile_qr_scan", "ios": "https://dc.lft.to/lastmile_qr_scan"}, "fusion_lon": 0.0, "lat": 38.932402, "bike_id": "83bbc1d67681e392b2bb13bdcc9e7b7b", "type": "electric_scooter", "is_reserved": 0, "lon": -77.03411566666666}, {"fusion_lat": 0.0, "name": "37de8e394180e309522eb8a2be9444b0", "is_disabled": 0, "rental_uris": {"android": "https://dc.lft.to/lastmile_qr_scan", "ios": "https://dc.lft.to/lastmile_qr_scan"}, "fusion_lon": 0.0, "lat": 38.897316833333335, "bike_id": "37de8e394180e309522eb8a2be9444b0", "type": "electric_scooter", "is_reserved": 0, "lon": -76.947021}, {"fusion_lat": 0.0, "name": "311055ca847ce588e075d272e3a1bb19", "is_disabled": 0, "rental_uris": {"android": "https://dc.lft.to/lastmile_qr_scan", "ios": "https://dc.lft.to/lastmile_qr_scan"}, "fusion_lon": 0.0, "lat": 38.86299666666667, "bike_id": "311055ca847ce588e075d272e3a1bb19", "type": "electric_bike", "is_reserved": 0, "lon": -77.0635705}, {"fusion_lat": 0.0, "name": "41fbfda27e59a63a66a9fa34317187fc", "is_disabled": 0, "rental_uris": {"android": "https://dc.lft.to/lastmile_qr_scan", "ios": "https://dc.lft.to/lastmile_qr_scan"}, "fusion_lon": 0.0, "lat": 38.907946, "bike_id": "41fbfda27e59a63a66a9fa34317187fc", "type": "electric_scooter", "is_reserved": 0, "lon": -77.00204183333334}, {"fusion_lat": 0.0, "name": "8a810ee4392dd62fb6dfcd881aad8abe", "is_disabled": 0, "rental_uris": {"android": "https://dc.lft.to/lastmile_qr_scan", "ios": "https://dc.lft.to/lastmile_qr_scan"}, "fusion_lon": 0.0, "lat": 38.916824, "bike_id": "8a810ee4392dd62fb6dfcd881aad8abe", "type": "electric_scooter", "is_reserved": 0, "lon": -77.02968066666666}, {"fusion_lat": 0.0, "name": "f5b3f13fdde81011ca0b69f57c3930b3", "is_disabled": 0, "rental_uris": {"android": "https://dc.lft.to/lastmile_qr_scan", "ios": "https://dc.lft.to/lastmile_qr_scan"}, "fusion_lon": 0.0, "lat": 38.960711333333336, "bike_id": "f5b3f13fdde81011ca0b69f57c3930b3", "type": "electric_scooter", "is_reserved": 0, "lon": -77.00096766666667}, {"fusion_lat": 0.0, "name": "3a507c5739b9fd459426b3efa06ff400", "is_disabled": 0, "rental_uris": {"android": "https://dc.lft.to/lastmile_qr_scan", "ios": "https://dc.lft.to/lastmile_qr_scan"}, "fusion_lon": 0.0, "lat": 38.9042735, "bike_id": "3a507c5739b9fd459426b3efa06ff400", "type": "electric_scooter", "is_reserved": 0, "lon": -77.04856916666667}, {"fusion_lat": 0.0, "name": "f3dcbde6ac10f3728f0729bde449d478", "is_disabled": 0, "rental_uris": {"android": "https://dc.lft.to/lastmile_qr_scan", "ios": "https://dc.lft.to/lastmile_qr_scan"}, "fusion_lon": 0.0, "lat": 38.88478216666667, "bike_id": "f3dcbde6ac10f3728f0729bde449d478", "type": "electric_scooter", "is_reserved": 0, "lon": -77.02367816666667}, {"fusion_lat": 0.0, "name": "587035839fd2708be932eb16162bb4b4", "is_disabled": 0, "rental_uris": {"android": "https://dc.lft.to/lastmile_qr_scan", "ios": "https://dc.lft.to/lastmile_qr_scan"}, "fusion_lon": 0.0, "lat": 38.91411316666667, "bike_id": "587035839fd2708be932eb16162bb4b4", "type": "electric_scooter", "is_reserved": 0, "lon": -77.04243033333333}, {"fusion_lat": 0.0, "name": "0b6cbb25961733b5a6bcdc1d9132659f", "is_disabled": 0, "rental_uris": {"android": "https://dc.lft.to/lastmile_qr_scan", "ios": "https://dc.lft.to/lastmile_qr_scan"}, "fusion_lon": 0.0, "lat": 38.92243283333333, "bike_id": "0b6cbb25961733b5a6bcdc1d9132659f", "type": "electric_scooter", "is_reserved": 0, "lon": -77.02239266666666}, {"fusion_lat": 0.0, "name": "501c331811bd7ee3c283c1116371923a", "is_disabled": 0, "rental_uris": {"android": "https://dc.lft.to/lastmile_qr_scan", "ios": "https://dc.lft.to/lastmile_qr_scan"}, "fusion_lon": 0.0, "lat": 38.90385833333333, "bike_id": "501c331811bd7ee3c283c1116371923a", "type": "electric_scooter", "is_reserved": 0, "lon": -77.01773583333333}, {"fusion_lat": 0.0, "name": "63caabbf3d0838022b279b6666d4a4b1", "is_disabled": 0, "rental_uris": {"android": "https://dc.lft.to/lastmile_qr_scan", "ios": "https://dc.lft.to/lastmile_qr_scan"}, "fusion_lon": 0.0, "lat": 38.90537333333333, "bike_id": "63caabbf3d0838022b279b6666d4a4b1", "type": "electric_scooter", "is_reserved": 0, "lon": -76.98194983333333}, {"fusion_lat": 0.0, "name": "dc2a998b74ac93e9670c3a1a371b92e9", "is_disabled": 0, "rental_uris": {"android": "https://dc.lft.to/lastmile_qr_scan", "ios": "https://dc.lft.to/lastmile_qr_scan"}, "fusion_lon": 0.0, "lat": 38.916583333333335, "bike_id": "dc2a998b74ac93e9670c3a1a371b92e9", "type": "electric_scooter", "is_reserved": 0, "lon": -77.00957533333333}, {"fusion_lat": 0.0, "name": "f846cb24a75f554ff47dd3faafe88e3d", "is_disabled": 0, "rental_uris": {"android": "https://dc.lft.to/lastmile_qr_scan", "ios": "https://dc.lft.to/lastmile_qr_scan"}, "fusion_lon": 0.0, "lat": 38.9078775, "bike_id": "f846cb24a75f554ff47dd3faafe88e3d", "type": "electric_scooter", "is_reserved": 0, "lon": -77.03861183333333}, {"fusion_lat": 0.0, "name": "2490363952ed687eec18dca236e74ec5", "is_disabled": 0, "rental_uris": {"android": "https://dc.lft.to/lastmile_qr_scan", "ios": "https://dc.lft.to/lastmile_qr_scan"}, "fusion_lon": 0.0, "lat": 38.90129533333333, "bike_id": "2490363952ed687eec18dca236e74ec5", "type": "electric_scooter", "is_reserved": 0, "lon": -77.02309266666667}, {"fusion_lat": 0.0, "name": "c312db17308b5fcc5e93bab7d49ef611", "is_disabled": 0, "rental_uris": {"android": "https://dc.lft.to/lastmile_qr_scan", "ios": "https://dc.lft.to/lastmile_qr_scan"}, "fusion_lon": 0.0, "lat": 38.930953, "bike_id": "c312db17308b5fcc5e93bab7d49ef611", "type": "electric_scooter", "is_reserved": 0, "lon": -77.025568}, {"fusion_lat": 0.0, "name": "c27d086a96f48f9722745badba5242ac", "is_disabled": 0, "rental_uris": {"android": "https://dc.lft.to/lastmile_qr_scan", "ios": "https://dc.lft.to/lastmile_qr_scan"}, "fusion_lon": 0.0, "lat": 38.912678166666666, "bike_id": "c27d086a96f48f9722745badba5242ac", "type": "electric_scooter", "is_reserved": 0, "lon": -77.03869933333333}, {"fusion_lat": 0.0, "name": "efcff4b4bbb207ccf6c29b6c791278ae", "is_disabled": 0, "rental_uris": {"android": "https://dc.lft.to/lastmile_qr_scan", "ios": "https://dc.lft.to/lastmile_qr_scan"}, "fusion_lon": 0.0, "lat": 38.90502633333333, "bike_id": "efcff4b4bbb207ccf6c29b6c791278ae", "type": "electric_scooter", "is_reserved": 0, "lon": -77.02688966666666}, {"fusion_lat": 0.0, "name": "0fa74a84d7d744c6f7d7400b575ef88e", "is_disabled": 0, "rental_uris": {"android": "https://dc.lft.to/lastmile_qr_scan", "ios": "https://dc.lft.to/lastmile_qr_scan"}, "fusion_lon": 0.0, "lat": 38.929608, "bike_id": "0fa74a84d7d744c6f7d7400b575ef88e", "type": "electric_scooter", "is_reserved": 0, "lon": -77.03095166666667}, {"fusion_lat": 0.0, "name": "2a3b13d5714b2d03a6e97d2fbfaaf5b2", "is_disabled": 0, "rental_uris": {"android": "https://dc.lft.to/lastmile_qr_scan", "ios": "https://dc.lft.to/lastmile_qr_scan"}, "fusion_lon": 0.0, "lat": 38.86518483333333, "bike_id": "2a3b13d5714b2d03a6e97d2fbfaaf5b2", "type": "electric_bike", "is_reserved": 0, "lon": -77.12940533333334}, {"fusion_lat": 0.0, "name": "9d6c139fe3ffcf36dfb95b88b1a2a853", "is_disabled": 0, "rental_uris": {"android": "https://dc.lft.to/lastmile_qr_scan", "ios": "https://dc.lft.to/lastmile_qr_scan"}, "fusion_lon": 0.0, "lat": 38.901794333333335, "bike_id": "9d6c139fe3ffcf36dfb95b88b1a2a853", "type": "electric_scooter", "is_reserved": 0, "lon": -77.024754}, {"fusion_lat": 0.0, "name": "d0e3dc153136223f38ff3deb555080c5", "is_disabled": 0, "rental_uris": {"android": "https://dc.lft.to/lastmile_qr_scan", "ios": "https://dc.lft.to/lastmile_qr_scan"}, "fusion_lon": 0.0, "lat": 38.888361833333335, "bike_id": "d0e3dc153136223f38ff3deb555080c5", "type": "electric_scooter", "is_reserved": 0, "lon": -77.0490915}, {"fusion_lat": 0.0, "name": "56853aec4f5a0dd53584544611215145", "is_disabled": 0, "rental_uris": {"android": "https://dc.lft.to/lastmile_qr_scan", "ios": "https://dc.lft.to/lastmile_qr_scan"}, "fusion_lon": 0.0, "lat": 38.9450795, "bike_id": "56853aec4f5a0dd53584544611215145", "type": "electric_scooter", "is_reserved": 0, "lon": -77.03151566666666}, {"fusion_lat": 0.0, "name": "34aa8123ecc6b434bba9deeeeb83861f", "is_disabled": 0, "rental_uris": {"android": "https://dc.lft.to/lastmile_qr_scan", "ios": "https://dc.lft.to/lastmile_qr_scan"}, "fusion_lon": 0.0, "lat": 38.9037085, "bike_id": "34aa8123ecc6b434bba9deeeeb83861f", "type": "electric_scooter", "is_reserved": 0, "lon": -77.0382585}, {"fusion_lat": 0.0, "name": "7858aef962887e35c3f3448e8f06078b", "is_disabled": 0, "rental_uris": {"android": "https://dc.lft.to/lastmile_qr_scan", "ios": "https://dc.lft.to/lastmile_qr_scan"}, "fusion_lon": 0.0, "lat": 38.91054833333333, "bike_id": "7858aef962887e35c3f3448e8f06078b", "type": "electric_scooter", "is_reserved": 0, "lon": -77.02650266666667}, {"fusion_lat": 0.0, "name": "032b17f8c630ab008d4df1c6727e9f11", "is_disabled": 0, "rental_uris": {"android": "https://dc.lft.to/lastmile_qr_scan", "ios": "https://dc.lft.to/lastmile_qr_scan"}, "fusion_lon": 0.0, "lat": 38.928903, "bike_id": "032b17f8c630ab008d4df1c6727e9f11", "type": "electric_scooter", "is_reserved": 0, "lon": -77.0230565}, {"fusion_lat": 0.0, "name": "3bb7763e6ff6b61301d0a6f9ce67bab6", "is_disabled": 0, "rental_uris": {"android": "https://dc.lft.to/lastmile_qr_scan", "ios": "https://dc.lft.to/lastmile_qr_scan"}, "fusion_lon": 0.0, "lat": 38.923459, "bike_id": "3bb7763e6ff6b61301d0a6f9ce67bab6", "type": "electric_scooter", "is_reserved": 0, "lon": -77.05229833333334}, {"fusion_lat": 0.0, "name": "c94a14f69808ef6f233413b4220afd71", "is_disabled": 0, "rental_uris": {"android": "https://dc.lft.to/lastmile_qr_scan", "ios": "https://dc.lft.to/lastmile_qr_scan"}, "fusion_lon": 0.0, "lat": 38.8837035, "bike_id": "c94a14f69808ef6f233413b4220afd71", "type": "electric_scooter", "is_reserved": 0, "lon": -76.94160266666667}, {"fusion_lat": 0.0, "name": "063de984bb2a0c70b872d04650bc63ad", "is_disabled": 0, "rental_uris": {"android": "https://dc.lft.to/lastmile_qr_scan", "ios": "https://dc.lft.to/lastmile_qr_scan"}, "fusion_lon": 0.0, "lat": 38.84357633333333, "bike_id": "063de984bb2a0c70b872d04650bc63ad", "type": "electric_bike", "is_reserved": 0, "lon": -76.97823816666667}, {"fusion_lat": 0.0, "name": "36343edd37b605a29c3ea2524fc01ed1", "is_disabled": 0, "rental_uris": {"android": "https://dc.lft.to/lastmile_qr_scan", "ios": "https://dc.lft.to/lastmile_qr_scan"}, "fusion_lon": 0.0, "lat": 38.93192116666667, "bike_id": "36343edd37b605a29c3ea2524fc01ed1", "type": "electric_scooter", "is_reserved": 0, "lon": -77.03265083333334}, {"fusion_lat": 0.0, "name": "123ffaa0ef4c04d724aabdd713e24bf0", "is_disabled": 0, "rental_uris": {"android": "https://dc.lft.to/lastmile_qr_scan", "ios": "https://dc.lft.to/lastmile_qr_scan"}, "fusion_lon": 0.0, "lat": 38.92427383333333, "bike_id": "123ffaa0ef4c04d724aabdd713e24bf0", "type": "electric_scooter", "is_reserved": 0, "lon": -77.02982783333333}, {"fusion_lat": 0.0, "name": "d8f6f80c9fe03bb634d149c47ed2d571", "is_disabled": 0, "rental_uris": {"android": "https://dc.lft.to/lastmile_qr_scan", "ios": "https://dc.lft.to/lastmile_qr_scan"}, "fusion_lon": 0.0, "lat": 38.91758733333333, "bike_id": "d8f6f80c9fe03bb634d149c47ed2d571", "type": "electric_scooter", "is_reserved": 0, "lon": -77.01219983333333}, {"fusion_lat": 0.0, "name": "a4fd01295c0a809836f7db4e09f07493", "is_disabled": 0, "rental_uris": {"android": "https://dc.lft.to/lastmile_qr_scan", "ios": "https://dc.lft.to/lastmile_qr_scan"}, "fusion_lon": 0.0, "lat": 38.885017, "bike_id": "a4fd01295c0a809836f7db4e09f07493", "type": "electric_scooter", "is_reserved": 0, "lon": -77.01736666666666}, {"fusion_lat": 0.0, "name": "829cf5fc943086faa1134c2e1b96aed7", "is_disabled": 0, "rental_uris": {"android": "https://dc.lft.to/lastmile_qr_scan", "ios": "https://dc.lft.to/lastmile_qr_scan"}, "fusion_lon": 0.0, "lat": 38.893226166666665, "bike_id": "829cf5fc943086faa1134c2e1b96aed7", "type": "electric_bike", "is_reserved": 0, "lon": -76.95122783333333}, {"fusion_lat": 0.0, "name": "e13ad148e55d39641f51a7ba85b8e1de", "is_disabled": 0, "rental_uris": {"android": "https://dc.lft.to/lastmile_qr_scan", "ios": "https://dc.lft.to/lastmile_qr_scan"}, "fusion_lon": 0.0, "lat": 38.87957433333333, "bike_id": "e13ad148e55d39641f51a7ba85b8e1de", "type": "electric_scooter", "is_reserved": 0, "lon": -77.0083565}, {"fusion_lat": 0.0, "name": "ad3cdeb8befabad1501de33b85420b0e", "is_disabled": 0, "rental_uris": {"android": "https://dc.lft.to/lastmile_qr_scan", "ios": "https://dc.lft.to/lastmile_qr_scan"}, "fusion_lon": 0.0, "lat": 38.897406333333336, "bike_id": "ad3cdeb8befabad1501de33b85420b0e", "type": "electric_scooter", "is_reserved": 0, "lon": -77.02685616666666}, {"fusion_lat": 0.0, "name": "ef25f036f441c54cd6ff792980ae904a", "is_disabled": 0, "rental_uris": {"android": "https://dc.lft.to/lastmile_qr_scan", "ios": "https://dc.lft.to/lastmile_qr_scan"}, "fusion_lon": 0.0, "lat": 38.9004285, "bike_id": "ef25f036f441c54cd6ff792980ae904a", "type": "electric_scooter", "is_reserved": 0, "lon": -77.00201983333334}, {"fusion_lat": 0.0, "name": "0d470e723fc894adff0ad6d23cf2642d", "is_disabled": 0, "rental_uris": {"android": "https://dc.lft.to/lastmile_qr_scan", "ios": "https://dc.lft.to/lastmile_qr_scan"}, "fusion_lon": 0.0, "lat": 38.93973066666667, "bike_id": "0d470e723fc894adff0ad6d23cf2642d", "type": "electric_scooter", "is_reserved": 0, "lon": -77.03286183333333}, {"fusion_lat": 0.0, "name": "7ef3559f943b4cfa19986c1ef7cf7fde", "is_disabled": 0, "rental_uris": {"android": "https://dc.lft.to/lastmile_qr_scan", "ios": "https://dc.lft.to/lastmile_qr_scan"}, "fusion_lon": 0.0, "lat": 38.90733983333333, "bike_id": "7ef3559f943b4cfa19986c1ef7cf7fde", "type": "electric_scooter", "is_reserved": 0, "lon": -77.0297575}, {"fusion_lat": 0.0, "name": "602251d20f36dfaf9b8af17f76361a0a", "is_disabled": 0, "rental_uris": {"android": "https://dc.lft.to/lastmile_qr_scan", "ios": "https://dc.lft.to/lastmile_qr_scan"}, "fusion_lon": 0.0, "lat": 38.84427683333333, "bike_id": "602251d20f36dfaf9b8af17f76361a0a", "type": "electric_scooter", "is_reserved": 0, "lon": -76.99779533333333}, {"fusion_lat": 0.0, "name": "f7ee8d952ae8abc580470db234f74372", "is_disabled": 0, "rental_uris": {"android": "https://dc.lft.to/lastmile_qr_scan", "ios": "https://dc.lft.to/lastmile_qr_scan"}, "fusion_lon": 0.0, "lat": 38.8852205, "bike_id": "f7ee8d952ae8abc580470db234f74372", "type": "electric_scooter", "is_reserved": 0, "lon": -76.97713683333333}, {"fusion_lat": 0.0, "name": "e0a6e2bc8a7c6a235758592775d4584d", "is_disabled": 0, "rental_uris": {"android": "https://dc.lft.to/lastmile_qr_scan", "ios": "https://dc.lft.to/lastmile_qr_scan"}, "fusion_lon": 0.0, "lat": 38.931163833333336, "bike_id": "e0a6e2bc8a7c6a235758592775d4584d", "type": "electric_scooter", "is_reserved": 0, "lon": -77.02085166666667}, {"fusion_lat": 0.0, "name": "828fa6a8f3aad29fd73bda71a157a500", "is_disabled": 0, "rental_uris": {"android": "https://dc.lft.to/lastmile_qr_scan", "ios": "https://dc.lft.to/lastmile_qr_scan"}, "fusion_lon": 0.0, "lat": 38.911099666666665, "bike_id": "828fa6a8f3aad29fd73bda71a157a500", "type": "electric_scooter", "is_reserved": 0, "lon": -77.08126416666667}, {"fusion_lat": 0.0, "name": "c6f685e49fb9b8f8d39c182fa62d7002", "is_disabled": 0, "rental_uris": {"android": "https://dc.lft.to/lastmile_qr_scan", "ios": "https://dc.lft.to/lastmile_qr_scan"}, "fusion_lon": 0.0, "lat": 38.90761166666667, "bike_id": "c6f685e49fb9b8f8d39c182fa62d7002", "type": "electric_scooter", "is_reserved": 0, "lon": -77.038349}, {"fusion_lat": 0.0, "name": "52f837e6767f87eb4de54fbe46865f3d", "is_disabled": 0, "rental_uris": {"android": "https://dc.lft.to/lastmile_qr_scan", "ios": "https://dc.lft.to/lastmile_qr_scan"}, "fusion_lon": 0.0, "lat": 38.876581333333334, "bike_id": "52f837e6767f87eb4de54fbe46865f3d", "type": "electric_scooter", "is_reserved": 0, "lon": -77.0065255}, {"fusion_lat": 0.0, "name": "d5d34afd85b686689b34439a0d85f131", "is_disabled": 0, "rental_uris": {"android": "https://dc.lft.to/lastmile_qr_scan", "ios": "https://dc.lft.to/lastmile_qr_scan"}, "fusion_lon": 0.0, "lat": 38.82785966666667, "bike_id": "d5d34afd85b686689b34439a0d85f131", "type": "electric_bike", "is_reserved": 0, "lon": -77.12484766666667}, {"fusion_lat": 0.0, "name": "de3ebd7131c06607b4bc1c996c6ba4a5", "is_disabled": 0, "rental_uris": {"android": "https://dc.lft.to/lastmile_qr_scan", "ios": "https://dc.lft.to/lastmile_qr_scan"}, "fusion_lon": 0.0, "lat": 38.90966866666667, "bike_id": "de3ebd7131c06607b4bc1c996c6ba4a5", "type": "electric_scooter", "is_reserved": 0, "lon": -77.021587}, {"fusion_lat": 0.0, "name": "e2341cb489edc09efbfb93723225c4db", "is_disabled": 0, "rental_uris": {"android": "https://dc.lft.to/lastmile_qr_scan", "ios": "https://dc.lft.to/lastmile_qr_scan"}, "fusion_lon": 0.0, "lat": 38.92106316666667, "bike_id": "e2341cb489edc09efbfb93723225c4db", "type": "electric_scooter", "is_reserved": 0, "lon": -77.031803}, {"fusion_lat": 0.0, "name": "afd7ab8b138b62985443af4a5c9d6aa4", "is_disabled": 0, "rental_uris": {"android": "https://dc.lft.to/lastmile_qr_scan", "ios": "https://dc.lft.to/lastmile_qr_scan"}, "fusion_lon": 0.0, "lat": 38.923636333333334, "bike_id": "afd7ab8b138b62985443af4a5c9d6aa4", "type": "electric_scooter", "is_reserved": 0, "lon": -77.05026883333333}, {"fusion_lat": 0.0, "name": "fd8ab47ef66d84fed68d76d71247c581", "is_disabled": 0, "rental_uris": {"android": "https://dc.lft.to/lastmile_qr_scan", "ios": "https://dc.lft.to/lastmile_qr_scan"}, "fusion_lon": 0.0, "lat": 38.91742266666667, "bike_id": "fd8ab47ef66d84fed68d76d71247c581", "type": "electric_scooter", "is_reserved": 0, "lon": -77.03182983333333}, {"fusion_lat": 0.0, "name": "5b4929054dabca8e04a33e163650b0bd", "is_disabled": 0, "rental_uris": {"android": "https://dc.lft.to/lastmile_qr_scan", "ios": "https://dc.lft.to/lastmile_qr_scan"}, "fusion_lon": 0.0, "lat": 38.90576566666667, "bike_id": "5b4929054dabca8e04a33e163650b0bd", "type": "electric_scooter", "is_reserved": 0, "lon": -77.02208}, {"fusion_lat": 0.0, "name": "2249fce5a1a1f5604578c535c03c1d2e", "is_disabled": 0, "rental_uris": {"android": "https://dc.lft.to/lastmile_qr_scan", "ios": "https://dc.lft.to/lastmile_qr_scan"}, "fusion_lon": 0.0, "lat": 38.917995166666664, "bike_id": "2249fce5a1a1f5604578c535c03c1d2e", "type": "electric_scooter", "is_reserved": 0, "lon": -77.03437316666667}, {"fusion_lat": 0.0, "name": "e1c89bdaf8fd1338d619def000dd0ce4", "is_disabled": 0, "rental_uris": {"android": "https://dc.lft.to/lastmile_qr_scan", "ios": "https://dc.lft.to/lastmile_qr_scan"}, "fusion_lon": 0.0, "lat": 38.91979583333333, "bike_id": "e1c89bdaf8fd1338d619def000dd0ce4", "type": "electric_scooter", "is_reserved": 0, "lon": -77.02409383333334}, {"fusion_lat": 0.0, "name": "74638148eee6e31dbd9cdd3af7b94d88", "is_disabled": 0, "rental_uris": {"android": "https://dc.lft.to/lastmile_qr_scan", "ios": "https://dc.lft.to/lastmile_qr_scan"}, "fusion_lon": 0.0, "lat": 38.884741, "bike_id": "74638148eee6e31dbd9cdd3af7b94d88", "type": "electric_scooter", "is_reserved": 0, "lon": -77.02371183333334}, {"fusion_lat": 0.0, "name": "9c620658555d7c767ef8f55003dc00ad", "is_disabled": 0, "rental_uris": {"android": "https://dc.lft.to/lastmile_qr_scan", "ios": "https://dc.lft.to/lastmile_qr_scan"}, "fusion_lon": 0.0, "lat": 38.994446333333336, "bike_id": "9c620658555d7c767ef8f55003dc00ad", "type": "electric_bike", "is_reserved": 0, "lon": -76.99587466666667}, {"fusion_lat": 0.0, "name": "12d5b4d72885a02913a3ff288bcc2630", "is_disabled": 0, "rental_uris": {"android": "https://dc.lft.to/lastmile_qr_scan", "ios": "https://dc.lft.to/lastmile_qr_scan"}, "fusion_lon": 0.0, "lat": 38.93366566666667, "bike_id": "12d5b4d72885a02913a3ff288bcc2630", "type": "electric_scooter", "is_reserved": 0, "lon": -77.057303}, {"fusion_lat": 0.0, "name": "6a593b03b34165449bb86dcdf0ecbc53", "is_disabled": 0, "rental_uris": {"android": "https://dc.lft.to/lastmile_qr_scan", "ios": "https://dc.lft.to/lastmile_qr_scan"}, "fusion_lon": 0.0, "lat": 38.9031135, "bike_id": "6a593b03b34165449bb86dcdf0ecbc53", "type": "electric_scooter", "is_reserved": 0, "lon": -76.97655483333334}, {"fusion_lat": 0.0, "name": "3603e3d3295cde331e8d4693e02d98fa", "is_disabled": 0, "rental_uris": {"android": "https://dc.lft.to/lastmile_qr_scan", "ios": "https://dc.lft.to/lastmile_qr_scan"}, "fusion_lon": 0.0, "lat": 38.90554866666667, "bike_id": "3603e3d3295cde331e8d4693e02d98fa", "type": "electric_scooter", "is_reserved": 0, "lon": -77.04658833333333}, {"fusion_lat": 0.0, "name": "c293b0e622c68879dce34ca5bf5cae89", "is_disabled": 0, "rental_uris": {"android": "https://dc.lft.to/lastmile_qr_scan", "ios": "https://dc.lft.to/lastmile_qr_scan"}, "fusion_lon": 0.0, "lat": 38.93434283333333, "bike_id": "c293b0e622c68879dce34ca5bf5cae89", "type": "electric_scooter", "is_reserved": 0, "lon": -77.02401233333333}, {"fusion_lat": 0.0, "name": "db578223bff08192714a7841f6a206e1", "is_disabled": 0, "rental_uris": {"android": "https://dc.lft.to/lastmile_qr_scan", "ios": "https://dc.lft.to/lastmile_qr_scan"}, "fusion_lon": 0.0, "lat": 38.909270166666666, "bike_id": "db578223bff08192714a7841f6a206e1", "type": "electric_scooter", "is_reserved": 0, "lon": -77.02300433333333}, {"fusion_lat": 0.0, "name": "2bc28f3e75e3e56fee27be1b5ec37460", "is_disabled": 0, "rental_uris": {"android": "https://dc.lft.to/lastmile_qr_scan", "ios": "https://dc.lft.to/lastmile_qr_scan"}, "fusion_lon": 0.0, "lat": 38.923212166666666, "bike_id": "2bc28f3e75e3e56fee27be1b5ec37460", "type": "electric_scooter", "is_reserved": 0, "lon": -77.041358}, {"fusion_lat": 0.0, "name": "842e50a2f2e36a875834f57921c983ea", "is_disabled": 0, "rental_uris": {"android": "https://dc.lft.to/lastmile_qr_scan", "ios": "https://dc.lft.to/lastmile_qr_scan"}, "fusion_lon": 0.0, "lat": 38.910408, "bike_id": "842e50a2f2e36a875834f57921c983ea", "type": "electric_scooter", "is_reserved": 0, "lon": -77.034279}, {"fusion_lat": 0.0, "name": "251cde622497a058ad1c702a139b873a", "is_disabled": 0, "rental_uris": {"android": "https://dc.lft.to/lastmile_qr_scan", "ios": "https://dc.lft.to/lastmile_qr_scan"}, "fusion_lon": 0.0, "lat": 38.91925883333333, "bike_id": "251cde622497a058ad1c702a139b873a", "type": "electric_scooter", "is_reserved": 0, "lon": -77.02428733333333}, {"fusion_lat": 0.0, "name": "9eee2aef966c75842e774e266cb8a21b", "is_disabled": 0, "rental_uris": {"android": "https://dc.lft.to/lastmile_qr_scan", "ios": "https://dc.lft.to/lastmile_qr_scan"}, "fusion_lon": 0.0, "lat": 38.917479, "bike_id": "9eee2aef966c75842e774e266cb8a21b", "type": "electric_scooter", "is_reserved": 0, "lon": -77.03197333333334}, {"fusion_lat": 0.0, "name": "1d717001e9db456a8fec50f1ac46e6c0", "is_disabled": 0, "rental_uris": {"android": "https://dc.lft.to/lastmile_qr_scan", "ios": "https://dc.lft.to/lastmile_qr_scan"}, "fusion_lon": 0.0, "lat": 38.90501616666667, "bike_id": "1d717001e9db456a8fec50f1ac46e6c0", "type": "electric_scooter", "is_reserved": 0, "lon": -77.0294995}, {"fusion_lat": 0.0, "name": "0d6de355147c0bf18aee4e8413feeebd", "is_disabled": 0, "rental_uris": {"android": "https://dc.lft.to/lastmile_qr_scan", "ios": "https://dc.lft.to/lastmile_qr_scan"}, "fusion_lon": 0.0, "lat": 38.91810433333333, "bike_id": "0d6de355147c0bf18aee4e8413feeebd", "type": "electric_scooter", "is_reserved": 0, "lon": -77.027067}, {"fusion_lat": 0.0, "name": "89b6e752ddc74df3c482520e1891e2e5", "is_disabled": 0, "rental_uris": {"android": "https://dc.lft.to/lastmile_qr_scan", "ios": "https://dc.lft.to/lastmile_qr_scan"}, "fusion_lon": 0.0, "lat": 38.8993185, "bike_id": "89b6e752ddc74df3c482520e1891e2e5", "type": "electric_scooter", "is_reserved": 0, "lon": -77.048598}, {"fusion_lat": 0.0, "name": "a77461a8b3b387b6cff69b20bc404b90", "is_disabled": 0, "rental_uris": {"android": "https://dc.lft.to/lastmile_qr_scan", "ios": "https://dc.lft.to/lastmile_qr_scan"}, "fusion_lon": 0.0, "lat": 38.9276885, "bike_id": "a77461a8b3b387b6cff69b20bc404b90", "type": "electric_scooter", "is_reserved": 0, "lon": -77.02301183333333}, {"fusion_lat": 0.0, "name": "ceb02be80b6ead2fdf04386fe9a823ac", "is_disabled": 0, "rental_uris": {"android": "https://dc.lft.to/lastmile_qr_scan", "ios": "https://dc.lft.to/lastmile_qr_scan"}, "fusion_lon": 0.0, "lat": 38.91118483333333, "bike_id": "ceb02be80b6ead2fdf04386fe9a823ac", "type": "electric_scooter", "is_reserved": 0, "lon": -77.011613}, {"fusion_lat": 0.0, "name": "8e5ef106068e5430b3c84be32a9b3778", "is_disabled": 0, "rental_uris": {"android": "https://dc.lft.to/lastmile_qr_scan", "ios": "https://dc.lft.to/lastmile_qr_scan"}, "fusion_lon": 0.0, "lat": 38.901605833333335, "bike_id": "8e5ef106068e5430b3c84be32a9b3778", "type": "electric_scooter", "is_reserved": 0, "lon": -77.04156133333333}, {"fusion_lat": 0.0, "name": "9ebb3cd5e626cdfc8abde19cb3496570", "is_disabled": 0, "rental_uris": {"android": "https://dc.lft.to/lastmile_qr_scan", "ios": "https://dc.lft.to/lastmile_qr_scan"}, "fusion_lon": 0.0, "lat": 38.904353666666665, "bike_id": "9ebb3cd5e626cdfc8abde19cb3496570", "type": "electric_scooter", "is_reserved": 0, "lon": -77.026026}, {"fusion_lat": 0.0, "name": "b0e850b7ed5769835979f6a6cd592285", "is_disabled": 0, "rental_uris": {"android": "https://dc.lft.to/lastmile_qr_scan", "ios": "https://dc.lft.to/lastmile_qr_scan"}, "fusion_lon": 0.0, "lat": 38.895681333333336, "bike_id": "b0e850b7ed5769835979f6a6cd592285", "type": "electric_bike", "is_reserved": 0, "lon": -77.127346}, {"fusion_lat": 0.0, "name": "2a3be58d7904ea8066f921471a91928b", "is_disabled": 0, "rental_uris": {"android": "https://dc.lft.to/lastmile_qr_scan", "ios": "https://dc.lft.to/lastmile_qr_scan"}, "fusion_lon": 0.0, "lat": 38.91504, "bike_id": "2a3be58d7904ea8066f921471a91928b", "type": "electric_scooter", "is_reserved": 0, "lon": -77.0327125}, {"fusion_lat": 0.0, "name": "897d91821f06b87589eae40308e2530f", "is_disabled": 0, "rental_uris": {"android": "https://dc.lft.to/lastmile_qr_scan", "ios": "https://dc.lft.to/lastmile_qr_scan"}, "fusion_lon": 0.0, "lat": 38.89536666666667, "bike_id": "897d91821f06b87589eae40308e2530f", "type": "electric_scooter", "is_reserved": 0, "lon": -76.94900816666667}, {"fusion_lat": 0.0, "name": "63628f720b17abcd958c8ee1021ecd64", "is_disabled": 0, "rental_uris": {"android": "https://dc.lft.to/lastmile_qr_scan", "ios": "https://dc.lft.to/lastmile_qr_scan"}, "fusion_lon": 0.0, "lat": 38.905316, "bike_id": "63628f720b17abcd958c8ee1021ecd64", "type": "electric_bike", "is_reserved": 0, "lon": -76.99795833333333}, {"fusion_lat": 0.0, "name": "eba3d83c16fa7dbddd63fb413eb630d2", "is_disabled": 0, "rental_uris": {"android": "https://dc.lft.to/lastmile_qr_scan", "ios": "https://dc.lft.to/lastmile_qr_scan"}, "fusion_lon": 0.0, "lat": 38.9089885, "bike_id": "eba3d83c16fa7dbddd63fb413eb630d2", "type": "electric_scooter", "is_reserved": 0, "lon": -77.04289083333333}, {"fusion_lat": 0.0, "name": "b62acd137cdf3e89901f32584e308fba", "is_disabled": 0, "rental_uris": {"android": "https://dc.lft.to/lastmile_qr_scan", "ios": "https://dc.lft.to/lastmile_qr_scan"}, "fusion_lon": 0.0, "lat": 38.928559, "bike_id": "b62acd137cdf3e89901f32584e308fba", "type": "electric_scooter", "is_reserved": 0, "lon": -77.03398833333334}, {"fusion_lat": 0.0, "name": "6bcbb8b8595ca7f7ef04de13b4b51e9c", "is_disabled": 0, "rental_uris": {"android": "https://dc.lft.to/lastmile_qr_scan", "ios": "https://dc.lft.to/lastmile_qr_scan"}, "fusion_lon": 0.0, "lat": 38.934872166666665, "bike_id": "6bcbb8b8595ca7f7ef04de13b4b51e9c", "type": "electric_scooter", "is_reserved": 0, "lon": -77.07338616666667}, {"fusion_lat": 0.0, "name": "efdef4fab4356e5368bd0e764577c621", "is_disabled": 0, "rental_uris": {"android": "https://dc.lft.to/lastmile_qr_scan", "ios": "https://dc.lft.to/lastmile_qr_scan"}, "fusion_lon": 0.0, "lat": 38.90350383333333, "bike_id": "efdef4fab4356e5368bd0e764577c621", "type": "electric_scooter", "is_reserved": 0, "lon": -77.04491883333333}, {"fusion_lat": 0.0, "name": "0a203917436525eef364b9d5fdf064a2", "is_disabled": 0, "rental_uris": {"android": "https://dc.lft.to/lastmile_qr_scan", "ios": "https://dc.lft.to/lastmile_qr_scan"}, "fusion_lon": 0.0, "lat": 38.92247783333333, "bike_id": "0a203917436525eef364b9d5fdf064a2", "type": "electric_scooter", "is_reserved": 0, "lon": -77.030863}, {"fusion_lat": 0.0, "name": "cda03b59f98de34b70e2e78c614c98e6", "is_disabled": 0, "rental_uris": {"android": "https://dc.lft.to/lastmile_qr_scan", "ios": "https://dc.lft.to/lastmile_qr_scan"}, "fusion_lon": 0.0, "lat": 38.89798666666667, "bike_id": "cda03b59f98de34b70e2e78c614c98e6", "type": "electric_scooter", "is_reserved": 0, "lon": -77.05018166666666}, {"fusion_lat": 0.0, "name": "33385712f00004c3f644e88372c88ea6", "is_disabled": 0, "rental_uris": {"android": "https://dc.lft.to/lastmile_qr_scan", "ios": "https://dc.lft.to/lastmile_qr_scan"}, "fusion_lon": 0.0, "lat": 38.9011085, "bike_id": "33385712f00004c3f644e88372c88ea6", "type": "electric_scooter", "is_reserved": 0, "lon": -76.97423066666667}, {"fusion_lat": 0.0, "name": "ab5e31fdade9ea41aa1c9f3c092fb75c", "is_disabled": 0, "rental_uris": {"android": "https://dc.lft.to/lastmile_qr_scan", "ios": "https://dc.lft.to/lastmile_qr_scan"}, "fusion_lon": 0.0, "lat": 38.904387, "bike_id": "ab5e31fdade9ea41aa1c9f3c092fb75c", "type": "electric_scooter", "is_reserved": 0, "lon": -77.05848483333334}, {"fusion_lat": 0.0, "name": "06cfd25e0f02bb1a0ee8267ddcf29c1a", "is_disabled": 0, "rental_uris": {"android": "https://dc.lft.to/lastmile_qr_scan", "ios": "https://dc.lft.to/lastmile_qr_scan"}, "fusion_lon": 0.0, "lat": 38.921599, "bike_id": "06cfd25e0f02bb1a0ee8267ddcf29c1a", "type": "electric_scooter", "is_reserved": 0, "lon": -77.036884}, {"fusion_lat": 0.0, "name": "1a008fef981accd7819e748a9bd25a5a", "is_disabled": 0, "rental_uris": {"android": "https://dc.lft.to/lastmile_qr_scan", "ios": "https://dc.lft.to/lastmile_qr_scan"}, "fusion_lon": 0.0, "lat": 38.900143, "bike_id": "1a008fef981accd7819e748a9bd25a5a", "type": "electric_scooter", "is_reserved": 0, "lon": -77.00331283333334}, {"fusion_lat": 0.0, "name": "9b5343ecdd78907e6cf9ee1cabb2ddb3", "is_disabled": 0, "rental_uris": {"android": "https://dc.lft.to/lastmile_qr_scan", "ios": "https://dc.lft.to/lastmile_qr_scan"}, "fusion_lon": 0.0, "lat": 38.911021833333336, "bike_id": "9b5343ecdd78907e6cf9ee1cabb2ddb3", "type": "electric_scooter", "is_reserved": 0, "lon": -77.038395}, {"fusion_lat": 0.0, "name": "b7d15e25938fdcc6e654ebde9a7a1ccf", "is_disabled": 0, "rental_uris": {"android": "https://dc.lft.to/lastmile_qr_scan", "ios": "https://dc.lft.to/lastmile_qr_scan"}, "fusion_lon": 0.0, "lat": 38.926124333333334, "bike_id": "b7d15e25938fdcc6e654ebde9a7a1ccf", "type": "electric_scooter", "is_reserved": 0, "lon": -77.07568116666667}, {"fusion_lat": 0.0, "name": "b32bc659b024cd387f9a8086a35ad014", "is_disabled": 0, "rental_uris": {"android": "https://dc.lft.to/lastmile_qr_scan", "ios": "https://dc.lft.to/lastmile_qr_scan"}, "fusion_lon": 0.0, "lat": 38.915963166666664, "bike_id": "b32bc659b024cd387f9a8086a35ad014", "type": "electric_scooter", "is_reserved": 0, "lon": -77.04542666666667}, {"fusion_lat": 0.0, "name": "0884885504950a5f090095c6a9b2afef", "is_disabled": 0, "rental_uris": {"android": "https://dc.lft.to/lastmile_qr_scan", "ios": "https://dc.lft.to/lastmile_qr_scan"}, "fusion_lon": 0.0, "lat": 38.89677316666667, "bike_id": "0884885504950a5f090095c6a9b2afef", "type": "electric_scooter", "is_reserved": 0, "lon": -77.01186383333334}, {"fusion_lat": 0.0, "name": "0e144d3e72c43bc67a62922a68526a9f", "is_disabled": 0, "rental_uris": {"android": "https://dc.lft.to/lastmile_qr_scan", "ios": "https://dc.lft.to/lastmile_qr_scan"}, "fusion_lon": 0.0, "lat": 38.93380833333333, "bike_id": "0e144d3e72c43bc67a62922a68526a9f", "type": "electric_scooter", "is_reserved": 0, "lon": -77.01959983333333}, {"fusion_lat": 0.0, "name": "58c5ae18b0dcdd2a80889833df385280", "is_disabled": 0, "rental_uris": {"android": "https://dc.lft.to/lastmile_qr_scan", "ios": "https://dc.lft.to/lastmile_qr_scan"}, "fusion_lon": 0.0, "lat": 38.87134783333333, "bike_id": "58c5ae18b0dcdd2a80889833df385280", "type": "electric_scooter", "is_reserved": 0, "lon": -77.01224366666666}, {"fusion_lat": 0.0, "name": "6a3ad68ce25dc1c9567394c63d55c8d2", "is_disabled": 0, "rental_uris": {"android": "https://dc.lft.to/lastmile_qr_scan", "ios": "https://dc.lft.to/lastmile_qr_scan"}, "fusion_lon": 0.0, "lat": 38.9155575, "bike_id": "6a3ad68ce25dc1c9567394c63d55c8d2", "type": "electric_scooter", "is_reserved": 0, "lon": -77.038672}, {"fusion_lat": 0.0, "name": "887f1a34bd34906c069fbc0a38bca51f", "is_disabled": 0, "rental_uris": {"android": "https://dc.lft.to/lastmile_qr_scan", "ios": "https://dc.lft.to/lastmile_qr_scan"}, "fusion_lon": 0.0, "lat": 38.92813683333333, "bike_id": "887f1a34bd34906c069fbc0a38bca51f", "type": "electric_scooter", "is_reserved": 0, "lon": -77.04366416666667}, {"fusion_lat": 0.0, "name": "9cf4326c86b258ad214cc1a6b1825b21", "is_disabled": 0, "rental_uris": {"android": "https://dc.lft.to/lastmile_qr_scan", "ios": "https://dc.lft.to/lastmile_qr_scan"}, "fusion_lon": 0.0, "lat": 38.931839833333335, "bike_id": "9cf4326c86b258ad214cc1a6b1825b21", "type": "electric_scooter", "is_reserved": 0, "lon": -77.02003333333333}, {"fusion_lat": 0.0, "name": "736b609c628ac0b0e3bde20830835736", "is_disabled": 0, "rental_uris": {"android": "https://dc.lft.to/lastmile_qr_scan", "ios": "https://dc.lft.to/lastmile_qr_scan"}, "fusion_lon": 0.0, "lat": 38.905785333333334, "bike_id": "736b609c628ac0b0e3bde20830835736", "type": "electric_scooter", "is_reserved": 0, "lon": -77.02208}, {"fusion_lat": 0.0, "name": "548f52a8b2065398b56f9c37e51efe8b", "is_disabled": 0, "rental_uris": {"android": "https://dc.lft.to/lastmile_qr_scan", "ios": "https://dc.lft.to/lastmile_qr_scan"}, "fusion_lon": 0.0, "lat": 38.923413833333335, "bike_id": "548f52a8b2065398b56f9c37e51efe8b", "type": "electric_scooter", "is_reserved": 0, "lon": -77.05221033333333}, {"fusion_lat": 0.0, "name": "f72562f35ac1ae59e182ea8d62ec4b52", "is_disabled": 0, "rental_uris": {"android": "https://dc.lft.to/lastmile_qr_scan", "ios": "https://dc.lft.to/lastmile_qr_scan"}, "fusion_lon": 0.0, "lat": 38.90351866666666, "bike_id": "f72562f35ac1ae59e182ea8d62ec4b52", "type": "electric_scooter", "is_reserved": 0, "lon": -76.974747}, {"fusion_lat": 0.0, "name": "496cdf19f84210760561eaa5dfc13af1", "is_disabled": 0, "rental_uris": {"android": "https://dc.lft.to/lastmile_qr_scan", "ios": "https://dc.lft.to/lastmile_qr_scan"}, "fusion_lon": 0.0, "lat": 38.934670833333335, "bike_id": "496cdf19f84210760561eaa5dfc13af1", "type": "electric_scooter", "is_reserved": 0, "lon": -77.04118416666667}, {"fusion_lat": 0.0, "name": "5762037a0b125017739a8919f0e70f82", "is_disabled": 0, "rental_uris": {"android": "https://dc.lft.to/lastmile_qr_scan", "ios": "https://dc.lft.to/lastmile_qr_scan"}, "fusion_lon": 0.0, "lat": 38.9176765, "bike_id": "5762037a0b125017739a8919f0e70f82", "type": "electric_scooter", "is_reserved": 0, "lon": -77.02314566666666}, {"fusion_lat": 0.0, "name": "4f5eea61b49231c71b45b3fcb9009b3d", "is_disabled": 0, "rental_uris": {"android": "https://dc.lft.to/lastmile_qr_scan", "ios": "https://dc.lft.to/lastmile_qr_scan"}, "fusion_lon": 0.0, "lat": 38.887434999999996, "bike_id": "4f5eea61b49231c71b45b3fcb9009b3d", "type": "electric_scooter", "is_reserved": 0, "lon": -77.01511133333334}, {"fusion_lat": 0.0, "name": "7a4f058dc1d9bfa9e82f004a0b4b3d3f", "is_disabled": 0, "rental_uris": {"android": "https://dc.lft.to/lastmile_qr_scan", "ios": "https://dc.lft.to/lastmile_qr_scan"}, "fusion_lon": 0.0, "lat": 38.9077335, "bike_id": "7a4f058dc1d9bfa9e82f004a0b4b3d3f", "type": "electric_scooter", "is_reserved": 0, "lon": -77.04279116666666}, {"fusion_lat": 0.0, "name": "6ba382fb4bac3fa157482ad86bd85219", "is_disabled": 0, "rental_uris": {"android": "https://dc.lft.to/lastmile_qr_scan", "ios": "https://dc.lft.to/lastmile_qr_scan"}, "fusion_lon": 0.0, "lat": 38.90932816666667, "bike_id": "6ba382fb4bac3fa157482ad86bd85219", "type": "electric_scooter", "is_reserved": 0, "lon": -76.9994555}, {"fusion_lat": 0.0, "name": "3ef242426936f75dea689b2dba1c21e0", "is_disabled": 0, "rental_uris": {"android": "https://dc.lft.to/lastmile_qr_scan", "ios": "https://dc.lft.to/lastmile_qr_scan"}, "fusion_lon": 0.0, "lat": 38.92813616666667, "bike_id": "3ef242426936f75dea689b2dba1c21e0", "type": "electric_scooter", "is_reserved": 0, "lon": -77.02329833333333}, {"fusion_lat": 0.0, "name": "1029a2d46beb0b3e6d613787d37c47f3", "is_disabled": 0, "rental_uris": {"android": "https://dc.lft.to/lastmile_qr_scan", "ios": "https://dc.lft.to/lastmile_qr_scan"}, "fusion_lon": 0.0, "lat": 38.924779, "bike_id": "1029a2d46beb0b3e6d613787d37c47f3", "type": "electric_scooter", "is_reserved": 0, "lon": -77.02073316666667}, {"fusion_lat": 0.0, "name": "b93710525d94eddfffc0cade6034e07f", "is_disabled": 0, "rental_uris": {"android": "https://dc.lft.to/lastmile_qr_scan", "ios": "https://dc.lft.to/lastmile_qr_scan"}, "fusion_lon": 0.0, "lat": 38.93073616666667, "bike_id": "b93710525d94eddfffc0cade6034e07f", "type": "electric_scooter", "is_reserved": 0, "lon": -77.01992866666667}, {"fusion_lat": 0.0, "name": "f5a47bc13592533f541e7ace26b48306", "is_disabled": 0, "rental_uris": {"android": "https://dc.lft.to/lastmile_qr_scan", "ios": "https://dc.lft.to/lastmile_qr_scan"}, "fusion_lon": 0.0, "lat": 38.901081, "bike_id": "f5a47bc13592533f541e7ace26b48306", "type": "electric_scooter", "is_reserved": 0, "lon": -76.93037683333333}, {"fusion_lat": 0.0, "name": "e149f22e7ea4bd45ce20946bde590199", "is_disabled": 0, "rental_uris": {"android": "https://dc.lft.to/lastmile_qr_scan", "ios": "https://dc.lft.to/lastmile_qr_scan"}, "fusion_lon": 0.0, "lat": 38.91173716666667, "bike_id": "e149f22e7ea4bd45ce20946bde590199", "type": "electric_scooter", "is_reserved": 0, "lon": -77.02958}, {"fusion_lat": 0.0, "name": "b5e0fd23b0af86566d19d6892fde696f", "is_disabled": 0, "rental_uris": {"android": "https://dc.lft.to/lastmile_qr_scan", "ios": "https://dc.lft.to/lastmile_qr_scan"}, "fusion_lon": 0.0, "lat": 38.897020833333336, "bike_id": "b5e0fd23b0af86566d19d6892fde696f", "type": "electric_scooter", "is_reserved": 0, "lon": -77.024545}, {"fusion_lat": 0.0, "name": "0cc194a04939d3a5cf7da2a18d8e728c", "is_disabled": 0, "rental_uris": {"android": "https://dc.lft.to/lastmile_qr_scan", "ios": "https://dc.lft.to/lastmile_qr_scan"}, "fusion_lon": 0.0, "lat": 38.90405066666667, "bike_id": "0cc194a04939d3a5cf7da2a18d8e728c", "type": "electric_scooter", "is_reserved": 0, "lon": -77.017876}, {"fusion_lat": 0.0, "name": "fe9e53ca9f3b1db9396e52410193149b", "is_disabled": 0, "rental_uris": {"android": "https://dc.lft.to/lastmile_qr_scan", "ios": "https://dc.lft.to/lastmile_qr_scan"}, "fusion_lon": 0.0, "lat": 38.89975316666667, "bike_id": "fe9e53ca9f3b1db9396e52410193149b", "type": "electric_scooter", "is_reserved": 0, "lon": -77.05274166666666}, {"fusion_lat": 0.0, "name": "97d5baa469f8020ae8f1a34194a76a64", "is_disabled": 0, "rental_uris": {"android": "https://dc.lft.to/lastmile_qr_scan", "ios": "https://dc.lft.to/lastmile_qr_scan"}, "fusion_lon": 0.0, "lat": 38.81919516666667, "bike_id": "97d5baa469f8020ae8f1a34194a76a64", "type": "electric_bike", "is_reserved": 0, "lon": -77.04797966666666}, {"fusion_lat": 0.0, "name": "27e32a35873334c0799de7c45a7147a6", "is_disabled": 0, "rental_uris": {"android": "https://dc.lft.to/lastmile_qr_scan", "ios": "https://dc.lft.to/lastmile_qr_scan"}, "fusion_lon": 0.0, "lat": 38.81254666666667, "bike_id": "27e32a35873334c0799de7c45a7147a6", "type": "electric_bike", "is_reserved": 0, "lon": -77.11774483333333}, {"fusion_lat": 0.0, "name": "91e98b427502b0bd98c81a7bb1c4cafa", "is_disabled": 0, "rental_uris": {"android": "https://dc.lft.to/lastmile_qr_scan", "ios": "https://dc.lft.to/lastmile_qr_scan"}, "fusion_lon": 0.0, "lat": 38.89103683333333, "bike_id": "91e98b427502b0bd98c81a7bb1c4cafa", "type": "electric_scooter", "is_reserved": 0, "lon": -76.9962405}, {"fusion_lat": 0.0, "name": "2ebcc51ee7a38bc50ccbe0c76dcbcd47", "is_disabled": 0, "rental_uris": {"android": "https://dc.lft.to/lastmile_qr_scan", "ios": "https://dc.lft.to/lastmile_qr_scan"}, "fusion_lon": 0.0, "lat": 38.8830285, "bike_id": "2ebcc51ee7a38bc50ccbe0c76dcbcd47", "type": "electric_scooter", "is_reserved": 0, "lon": -76.9485875}, {"fusion_lat": 0.0, "name": "2be2fce36248451d7f2c0ba06d91f51c", "is_disabled": 0, "rental_uris": {"android": "https://dc.lft.to/lastmile_qr_scan", "ios": "https://dc.lft.to/lastmile_qr_scan"}, "fusion_lon": 0.0, "lat": 38.907326166666664, "bike_id": "2be2fce36248451d7f2c0ba06d91f51c", "type": "electric_scooter", "is_reserved": 0, "lon": -76.93545533333334}, {"fusion_lat": 0.0, "name": "30c2d9bb8b1f1b36c94dd1ba674dc283", "is_disabled": 0, "rental_uris": {"android": "https://dc.lft.to/lastmile_qr_scan", "ios": "https://dc.lft.to/lastmile_qr_scan"}, "fusion_lon": 0.0, "lat": 38.904002166666665, "bike_id": "30c2d9bb8b1f1b36c94dd1ba674dc283", "type": "electric_scooter", "is_reserved": 0, "lon": -77.06807733333333}, {"fusion_lat": 0.0, "name": "e774318a91716f321a685d6c1be5d548", "is_disabled": 0, "rental_uris": {"android": "https://dc.lft.to/lastmile_qr_scan", "ios": "https://dc.lft.to/lastmile_qr_scan"}, "fusion_lon": 0.0, "lat": 38.927288, "bike_id": "e774318a91716f321a685d6c1be5d548", "type": "electric_scooter", "is_reserved": 0, "lon": -77.03060766666667}, {"fusion_lat": 0.0, "name": "94623caf576227f81da3a8c5937b0496", "is_disabled": 0, "rental_uris": {"android": "https://dc.lft.to/lastmile_qr_scan", "ios": "https://dc.lft.to/lastmile_qr_scan"}, "fusion_lon": 0.0, "lat": 38.91711466666667, "bike_id": "94623caf576227f81da3a8c5937b0496", "type": "electric_scooter", "is_reserved": 0, "lon": -77.03870833333333}, {"fusion_lat": 0.0, "name": "2bd27a0cd4d45b3a78dddc86f3e451e5", "is_disabled": 0, "rental_uris": {"android": "https://dc.lft.to/lastmile_qr_scan", "ios": "https://dc.lft.to/lastmile_qr_scan"}, "fusion_lon": 0.0, "lat": 38.807104, "bike_id": "2bd27a0cd4d45b3a78dddc86f3e451e5", "type": "electric_bike", "is_reserved": 0, "lon": -77.06173516666667}, {"fusion_lat": 0.0, "name": "5d606d656ffaeada8385a9a439b64829", "is_disabled": 0, "rental_uris": {"android": "https://dc.lft.to/lastmile_qr_scan", "ios": "https://dc.lft.to/lastmile_qr_scan"}, "fusion_lon": 0.0, "lat": 38.925336333333334, "bike_id": "5d606d656ffaeada8385a9a439b64829", "type": "electric_scooter", "is_reserved": 0, "lon": -77.0075075}, {"fusion_lat": 0.0, "name": "b573555bace04ee402d29b60f0430d85", "is_disabled": 0, "rental_uris": {"android": "https://dc.lft.to/lastmile_qr_scan", "ios": "https://dc.lft.to/lastmile_qr_scan"}, "fusion_lon": 0.0, "lat": 38.91331783333333, "bike_id": "b573555bace04ee402d29b60f0430d85", "type": "electric_scooter", "is_reserved": 0, "lon": -77.01503416666667}, {"fusion_lat": 0.0, "name": "0af9a8bccc0ec29e875051e50bb940c6", "is_disabled": 0, "rental_uris": {"android": "https://dc.lft.to/lastmile_qr_scan", "ios": "https://dc.lft.to/lastmile_qr_scan"}, "fusion_lon": 0.0, "lat": 38.9172895, "bike_id": "0af9a8bccc0ec29e875051e50bb940c6", "type": "electric_scooter", "is_reserved": 0, "lon": -77.03664833333333}, {"fusion_lat": 0.0, "name": "6a57312bda59bdf8fdc2de70cac49908", "is_disabled": 0, "rental_uris": {"android": "https://dc.lft.to/lastmile_qr_scan", "ios": "https://dc.lft.to/lastmile_qr_scan"}, "fusion_lon": 0.0, "lat": 38.941996833333334, "bike_id": "6a57312bda59bdf8fdc2de70cac49908", "type": "electric_scooter", "is_reserved": 0, "lon": -77.0259525}, {"fusion_lat": 0.0, "name": "a3ffc2f306b6d1db877686071e1494fd", "is_disabled": 0, "rental_uris": {"android": "https://dc.lft.to/lastmile_qr_scan", "ios": "https://dc.lft.to/lastmile_qr_scan"}, "fusion_lon": 0.0, "lat": 38.914108, "bike_id": "a3ffc2f306b6d1db877686071e1494fd", "type": "electric_scooter", "is_reserved": 0, "lon": -77.040733}, {"fusion_lat": 0.0, "name": "9b3ef6793747ee0ad1aae4f455dfb4e6", "is_disabled": 0, "rental_uris": {"android": "https://dc.lft.to/lastmile_qr_scan", "ios": "https://dc.lft.to/lastmile_qr_scan"}, "fusion_lon": 0.0, "lat": 38.84508433333333, "bike_id": "9b3ef6793747ee0ad1aae4f455dfb4e6", "type": "electric_bike", "is_reserved": 0, "lon": -76.99350883333334}, {"fusion_lat": 0.0, "name": "e02c9728d4b7192fae6f458a523ae9f9", "is_disabled": 0, "rental_uris": {"android": "https://dc.lft.to/lastmile_qr_scan", "ios": "https://dc.lft.to/lastmile_qr_scan"}, "fusion_lon": 0.0, "lat": 38.931174, "bike_id": "e02c9728d4b7192fae6f458a523ae9f9", "type": "electric_scooter", "is_reserved": 0, "lon": -77.02975783333333}, {"fusion_lat": 0.0, "name": "9182f4248a92b57a4d6248b957896c65", "is_disabled": 0, "rental_uris": {"android": "https://dc.lft.to/lastmile_qr_scan", "ios": "https://dc.lft.to/lastmile_qr_scan"}, "fusion_lon": 0.0, "lat": 38.900947, "bike_id": "9182f4248a92b57a4d6248b957896c65", "type": "electric_scooter", "is_reserved": 0, "lon": -77.02221416666667}, {"fusion_lat": 0.0, "name": "c8867c00b643d62ff12ddf003d9aeeed", "is_disabled": 0, "rental_uris": {"android": "https://dc.lft.to/lastmile_qr_scan", "ios": "https://dc.lft.to/lastmile_qr_scan"}, "fusion_lon": 0.0, "lat": 38.911219833333334, "bike_id": "c8867c00b643d62ff12ddf003d9aeeed", "type": "electric_scooter", "is_reserved": 0, "lon": -77.02197883333334}, {"fusion_lat": 0.0, "name": "4f5e4f4c12d26a0998480de79e57a6ce", "is_disabled": 0, "rental_uris": {"android": "https://dc.lft.to/lastmile_qr_scan", "ios": "https://dc.lft.to/lastmile_qr_scan"}, "fusion_lon": 0.0, "lat": 38.907416166666664, "bike_id": "4f5e4f4c12d26a0998480de79e57a6ce", "type": "electric_scooter", "is_reserved": 0, "lon": -77.02806366666667}, {"fusion_lat": 0.0, "name": "25103a5612905b790ac0df288523cc0f", "is_disabled": 0, "rental_uris": {"android": "https://dc.lft.to/lastmile_qr_scan", "ios": "https://dc.lft.to/lastmile_qr_scan"}, "fusion_lon": 0.0, "lat": 38.919841166666664, "bike_id": "25103a5612905b790ac0df288523cc0f", "type": "electric_scooter", "is_reserved": 0, "lon": -77.03277683333333}, {"fusion_lat": 0.0, "name": "3e0fe5ce4ef79ff32a2f432e66efb858", "is_disabled": 0, "rental_uris": {"android": "https://dc.lft.to/lastmile_qr_scan", "ios": "https://dc.lft.to/lastmile_qr_scan"}, "fusion_lon": 0.0, "lat": 38.958602, "bike_id": "3e0fe5ce4ef79ff32a2f432e66efb858", "type": "electric_scooter", "is_reserved": 0, "lon": -77.0281325}, {"fusion_lat": 0.0, "name": "381d7a29ed6adbb9fe433deacabfe697", "is_disabled": 0, "rental_uris": {"android": "https://dc.lft.to/lastmile_qr_scan", "ios": "https://dc.lft.to/lastmile_qr_scan"}, "fusion_lon": 0.0, "lat": 38.92328283333333, "bike_id": "381d7a29ed6adbb9fe433deacabfe697", "type": "electric_scooter", "is_reserved": 0, "lon": -77.04624}, {"fusion_lat": 0.0, "name": "06fd9065e300e7c080a32a705c5a5e3c", "is_disabled": 0, "rental_uris": {"android": "https://dc.lft.to/lastmile_qr_scan", "ios": "https://dc.lft.to/lastmile_qr_scan"}, "fusion_lon": 0.0, "lat": 38.87744566666667, "bike_id": "06fd9065e300e7c080a32a705c5a5e3c", "type": "electric_scooter", "is_reserved": 0, "lon": -77.00357466666667}, {"fusion_lat": 0.0, "name": "6f6a51abfdd3c3bb117c3478ef9c7694", "is_disabled": 0, "rental_uris": {"android": "https://dc.lft.to/lastmile_qr_scan", "ios": "https://dc.lft.to/lastmile_qr_scan"}, "fusion_lon": 0.0, "lat": 38.9142075, "bike_id": "6f6a51abfdd3c3bb117c3478ef9c7694", "type": "electric_scooter", "is_reserved": 0, "lon": -77.03934866666667}, {"fusion_lat": 0.0, "name": "2db85cb12c9b9342467c528c947484d7", "is_disabled": 0, "rental_uris": {"android": "https://dc.lft.to/lastmile_qr_scan", "ios": "https://dc.lft.to/lastmile_qr_scan"}, "fusion_lon": 0.0, "lat": 38.900533833333334, "bike_id": "2db85cb12c9b9342467c528c947484d7", "type": "electric_scooter", "is_reserved": 0, "lon": -77.02193216666667}, {"fusion_lat": 0.0, "name": "3a709f998be4706ddeee17635f110658", "is_disabled": 0, "rental_uris": {"android": "https://dc.lft.to/lastmile_qr_scan", "ios": "https://dc.lft.to/lastmile_qr_scan"}, "fusion_lon": 0.0, "lat": 38.89737983333333, "bike_id": "3a709f998be4706ddeee17635f110658", "type": "electric_scooter", "is_reserved": 0, "lon": -76.94720416666667}, {"fusion_lat": 0.0, "name": "ad3e809672422cebf68687b30b53347a", "is_disabled": 0, "rental_uris": {"android": "https://dc.lft.to/lastmile_qr_scan", "ios": "https://dc.lft.to/lastmile_qr_scan"}, "fusion_lon": 0.0, "lat": 38.9026605, "bike_id": "ad3e809672422cebf68687b30b53347a", "type": "electric_scooter", "is_reserved": 0, "lon": -76.99618816666667}, {"fusion_lat": 0.0, "name": "6b39b87ce550a079bd78664a9fbdf67d", "is_disabled": 0, "rental_uris": {"android": "https://dc.lft.to/lastmile_qr_scan", "ios": "https://dc.lft.to/lastmile_qr_scan"}, "fusion_lon": 0.0, "lat": 38.907298, "bike_id": "6b39b87ce550a079bd78664a9fbdf67d", "type": "electric_scooter", "is_reserved": 0, "lon": -77.02505883333333}, {"fusion_lat": 0.0, "name": "648233e9c2cfa1ae765978730a75ee95", "is_disabled": 0, "rental_uris": {"android": "https://dc.lft.to/lastmile_qr_scan", "ios": "https://dc.lft.to/lastmile_qr_scan"}, "fusion_lon": 0.0, "lat": 38.9196425, "bike_id": "648233e9c2cfa1ae765978730a75ee95", "type": "electric_scooter", "is_reserved": 0, "lon": -77.04151883333333}, {"fusion_lat": 0.0, "name": "c4ef390812c92e2e9387ed2f62da9d91", "is_disabled": 0, "rental_uris": {"android": "https://dc.lft.to/lastmile_qr_scan", "ios": "https://dc.lft.to/lastmile_qr_scan"}, "fusion_lon": 0.0, "lat": 38.87449633333333, "bike_id": "c4ef390812c92e2e9387ed2f62da9d91", "type": "electric_scooter", "is_reserved": 0, "lon": -77.01885116666666}, {"fusion_lat": 0.0, "name": "0d0a8421141f29f5fef44416e877d254", "is_disabled": 0, "rental_uris": {"android": "https://dc.lft.to/lastmile_qr_scan", "ios": "https://dc.lft.to/lastmile_qr_scan"}, "fusion_lon": 0.0, "lat": 38.91622233333333, "bike_id": "0d0a8421141f29f5fef44416e877d254", "type": "electric_scooter", "is_reserved": 0, "lon": -77.00344933333334}, {"fusion_lat": 0.0, "name": "b117871924ccb26ff38ae5220357a84d", "is_disabled": 0, "rental_uris": {"android": "https://dc.lft.to/lastmile_qr_scan", "ios": "https://dc.lft.to/lastmile_qr_scan"}, "fusion_lon": 0.0, "lat": 38.92068316666666, "bike_id": "b117871924ccb26ff38ae5220357a84d", "type": "electric_scooter", "is_reserved": 0, "lon": -77.04262616666666}, {"fusion_lat": 0.0, "name": "d3957863db7cf46f0ffe64fe1b52ddb8", "is_disabled": 0, "rental_uris": {"android": "https://dc.lft.to/lastmile_qr_scan", "ios": "https://dc.lft.to/lastmile_qr_scan"}, "fusion_lon": 0.0, "lat": 38.910709, "bike_id": "d3957863db7cf46f0ffe64fe1b52ddb8", "type": "electric_scooter", "is_reserved": 0, "lon": -77.065494}, {"fusion_lat": 0.0, "name": "33cc6a754c9fc4db42ac25eebfd28931", "is_disabled": 0, "rental_uris": {"android": "https://dc.lft.to/lastmile_qr_scan", "ios": "https://dc.lft.to/lastmile_qr_scan"}, "fusion_lon": 0.0, "lat": 38.927316833333336, "bike_id": "33cc6a754c9fc4db42ac25eebfd28931", "type": "electric_scooter", "is_reserved": 0, "lon": -77.0316455}, {"fusion_lat": 0.0, "name": "c0ea0ee2c9334adb6c143c5711f4752b", "is_disabled": 0, "rental_uris": {"android": "https://dc.lft.to/lastmile_qr_scan", "ios": "https://dc.lft.to/lastmile_qr_scan"}, "fusion_lon": 0.0, "lat": 38.916173666666666, "bike_id": "c0ea0ee2c9334adb6c143c5711f4752b", "type": "electric_scooter", "is_reserved": 0, "lon": -77.0462365}, {"fusion_lat": 0.0, "name": "35e89d0606cce13fe7a63fe07a3d0370", "is_disabled": 0, "rental_uris": {"android": "https://dc.lft.to/lastmile_qr_scan", "ios": "https://dc.lft.to/lastmile_qr_scan"}, "fusion_lon": 0.0, "lat": 38.94091866666667, "bike_id": "35e89d0606cce13fe7a63fe07a3d0370", "type": "electric_scooter", "is_reserved": 0, "lon": -77.02320216666666}, {"fusion_lat": 0.0, "name": "02aadddb30888b9a5a446020f0f6b73c", "is_disabled": 0, "rental_uris": {"android": "https://dc.lft.to/lastmile_qr_scan", "ios": "https://dc.lft.to/lastmile_qr_scan"}, "fusion_lon": 0.0, "lat": 38.888783333333336, "bike_id": "02aadddb30888b9a5a446020f0f6b73c", "type": "electric_scooter", "is_reserved": 0, "lon": -77.02841083333334}, {"fusion_lat": 0.0, "name": "567c1a7b8eb245e0c6dfd87ca84fba7b", "is_disabled": 0, "rental_uris": {"android": "https://dc.lft.to/lastmile_qr_scan", "ios": "https://dc.lft.to/lastmile_qr_scan"}, "fusion_lon": 0.0, "lat": 38.912595, "bike_id": "567c1a7b8eb245e0c6dfd87ca84fba7b", "type": "electric_scooter", "is_reserved": 0, "lon": -77.0380515}, {"fusion_lat": 0.0, "name": "3a4d37d56033635c11235c3fd4495dbc", "is_disabled": 0, "rental_uris": {"android": "https://dc.lft.to/lastmile_qr_scan", "ios": "https://dc.lft.to/lastmile_qr_scan"}, "fusion_lon": 0.0, "lat": 38.954690666666664, "bike_id": "3a4d37d56033635c11235c3fd4495dbc", "type": "electric_scooter", "is_reserved": 0, "lon": -77.00781016666667}, {"fusion_lat": 0.0, "name": "4d472a75d335a31f5a2c3a5fd5dc4a9b", "is_disabled": 0, "rental_uris": {"android": "https://dc.lft.to/lastmile_qr_scan", "ios": "https://dc.lft.to/lastmile_qr_scan"}, "fusion_lon": 0.0, "lat": 38.92365183333333, "bike_id": "4d472a75d335a31f5a2c3a5fd5dc4a9b", "type": "electric_scooter", "is_reserved": 0, "lon": -77.0503105}, {"fusion_lat": 0.0, "name": "10d4ddf5dc2f8251388e24a1a2740145", "is_disabled": 0, "rental_uris": {"android": "https://dc.lft.to/lastmile_qr_scan", "ios": "https://dc.lft.to/lastmile_qr_scan"}, "fusion_lon": 0.0, "lat": 38.9443075, "bike_id": "10d4ddf5dc2f8251388e24a1a2740145", "type": "electric_bike", "is_reserved": 0, "lon": -77.02602283333333}, {"fusion_lat": 0.0, "name": "f84149a1524d15bd12d6609c1a31aa2c", "is_disabled": 0, "rental_uris": {"android": "https://dc.lft.to/lastmile_qr_scan", "ios": "https://dc.lft.to/lastmile_qr_scan"}, "fusion_lon": 0.0, "lat": 38.92044166666667, "bike_id": "f84149a1524d15bd12d6609c1a31aa2c", "type": "electric_scooter", "is_reserved": 0, "lon": -77.003413}, {"fusion_lat": 0.0, "name": "a8c5e78e47ebbcf50b90b157e3134f0e", "is_disabled": 0, "rental_uris": {"android": "https://dc.lft.to/lastmile_qr_scan", "ios": "https://dc.lft.to/lastmile_qr_scan"}, "fusion_lon": 0.0, "lat": 38.9050065, "bike_id": "a8c5e78e47ebbcf50b90b157e3134f0e", "type": "electric_scooter", "is_reserved": 0, "lon": -77.02947183333333}, {"fusion_lat": 0.0, "name": "8873a650309b7e7fc52bfebe5677e32b", "is_disabled": 0, "rental_uris": {"android": "https://dc.lft.to/lastmile_qr_scan", "ios": "https://dc.lft.to/lastmile_qr_scan"}, "fusion_lon": 0.0, "lat": 38.892213166666664, "bike_id": "8873a650309b7e7fc52bfebe5677e32b", "type": "electric_scooter", "is_reserved": 0, "lon": -77.027903}, {"fusion_lat": 0.0, "name": "e8c2f326c12ff0b7c81ff8f92ba59920", "is_disabled": 0, "rental_uris": {"android": "https://dc.lft.to/lastmile_qr_scan", "ios": "https://dc.lft.to/lastmile_qr_scan"}, "fusion_lon": 0.0, "lat": 38.936333833333336, "bike_id": "e8c2f326c12ff0b7c81ff8f92ba59920", "type": "electric_scooter", "is_reserved": 0, "lon": -77.03263883333334}, {"fusion_lat": 0.0, "name": "b4d50085d2a28cd60c2be21829bfe517", "is_disabled": 0, "rental_uris": {"android": "https://dc.lft.to/lastmile_qr_scan", "ios": "https://dc.lft.to/lastmile_qr_scan"}, "fusion_lon": 0.0, "lat": 38.9267285, "bike_id": "b4d50085d2a28cd60c2be21829bfe517", "type": "electric_scooter", "is_reserved": 0, "lon": -77.0305275}, {"fusion_lat": 0.0, "name": "de00b50070bdf026bfc5e0e9294d77e0", "is_disabled": 0, "rental_uris": {"android": "https://dc.lft.to/lastmile_qr_scan", "ios": "https://dc.lft.to/lastmile_qr_scan"}, "fusion_lon": 0.0, "lat": 38.890952, "bike_id": "de00b50070bdf026bfc5e0e9294d77e0", "type": "electric_scooter", "is_reserved": 0, "lon": -76.919285}, {"fusion_lat": 0.0, "name": "7ad351b77ba13af7c4b65694d8b32a01", "is_disabled": 0, "rental_uris": {"android": "https://dc.lft.to/lastmile_qr_scan", "ios": "https://dc.lft.to/lastmile_qr_scan"}, "fusion_lon": 0.0, "lat": 38.905105, "bike_id": "7ad351b77ba13af7c4b65694d8b32a01", "type": "electric_scooter", "is_reserved": 0, "lon": -76.984851}, {"fusion_lat": 0.0, "name": "14f4d13c638ad7e8786a26cee7d8b82b", "is_disabled": 0, "rental_uris": {"android": "https://dc.lft.to/lastmile_qr_scan", "ios": "https://dc.lft.to/lastmile_qr_scan"}, "fusion_lon": 0.0, "lat": 38.9224205, "bike_id": "14f4d13c638ad7e8786a26cee7d8b82b", "type": "electric_scooter", "is_reserved": 0, "lon": -77.02913133333334}, {"fusion_lat": 0.0, "name": "d473898310eb9570eeaf69897a98fd71", "is_disabled": 0, "rental_uris": {"android": "https://dc.lft.to/lastmile_qr_scan", "ios": "https://dc.lft.to/lastmile_qr_scan"}, "fusion_lon": 0.0, "lat": 38.89883583333334, "bike_id": "d473898310eb9570eeaf69897a98fd71", "type": "electric_scooter", "is_reserved": 0, "lon": -77.053573}, {"fusion_lat": 0.0, "name": "d976e9e9f872a2744d5f28f543b68d67", "is_disabled": 0, "rental_uris": {"android": "https://dc.lft.to/lastmile_qr_scan", "ios": "https://dc.lft.to/lastmile_qr_scan"}, "fusion_lon": 0.0, "lat": 38.964931166666666, "bike_id": "d976e9e9f872a2744d5f28f543b68d67", "type": "electric_bike", "is_reserved": 0, "lon": -77.022125}, {"fusion_lat": 0.0, "name": "58b2614c8b03b9ed36a69120b19dc7df", "is_disabled": 0, "rental_uris": {"android": "https://dc.lft.to/lastmile_qr_scan", "ios": "https://dc.lft.to/lastmile_qr_scan"}, "fusion_lon": 0.0, "lat": 38.920973833333335, "bike_id": "58b2614c8b03b9ed36a69120b19dc7df", "type": "electric_scooter", "is_reserved": 0, "lon": -77.02358466666666}, {"fusion_lat": 0.0, "name": "48b0aa3db5e5696d305eff14614b25bc", "is_disabled": 0, "rental_uris": {"android": "https://dc.lft.to/lastmile_qr_scan", "ios": "https://dc.lft.to/lastmile_qr_scan"}, "fusion_lon": 0.0, "lat": 38.9015335, "bike_id": "48b0aa3db5e5696d305eff14614b25bc", "type": "electric_scooter", "is_reserved": 0, "lon": -77.02292933333334}, {"fusion_lat": 0.0, "name": "89724085f73e4834fcbc90ba55f03519", "is_disabled": 0, "rental_uris": {"android": "https://dc.lft.to/lastmile_qr_scan", "ios": "https://dc.lft.to/lastmile_qr_scan"}, "fusion_lon": 0.0, "lat": 38.91835483333333, "bike_id": "89724085f73e4834fcbc90ba55f03519", "type": "electric_scooter", "is_reserved": 0, "lon": -77.04555216666667}, {"fusion_lat": 0.0, "name": "27aee35db88d024f5cc46e1a5423a955", "is_disabled": 0, "rental_uris": {"android": "https://dc.lft.to/lastmile_qr_scan", "ios": "https://dc.lft.to/lastmile_qr_scan"}, "fusion_lon": 0.0, "lat": 38.924398333333336, "bike_id": "27aee35db88d024f5cc46e1a5423a955", "type": "electric_scooter", "is_reserved": 0, "lon": -77.02018316666667}, {"fusion_lat": 0.0, "name": "d074b0251c0447b8eebc9beb06d5434d", "is_disabled": 0, "rental_uris": {"android": "https://dc.lft.to/lastmile_qr_scan", "ios": "https://dc.lft.to/lastmile_qr_scan"}, "fusion_lon": 0.0, "lat": 38.91112966666667, "bike_id": "d074b0251c0447b8eebc9beb06d5434d", "type": "electric_scooter", "is_reserved": 0, "lon": -77.002486}, {"fusion_lat": 0.0, "name": "f7caec4e2b4dd573bb7defb42a52e56c", "is_disabled": 0, "rental_uris": {"android": "https://dc.lft.to/lastmile_qr_scan", "ios": "https://dc.lft.to/lastmile_qr_scan"}, "fusion_lon": 0.0, "lat": 38.935283, "bike_id": "f7caec4e2b4dd573bb7defb42a52e56c", "type": "electric_scooter", "is_reserved": 0, "lon": -77.02346433333334}, {"fusion_lat": 0.0, "name": "99524e74de6000d84e29b31ea0f13bc4", "is_disabled": 0, "rental_uris": {"android": "https://dc.lft.to/lastmile_qr_scan", "ios": "https://dc.lft.to/lastmile_qr_scan"}, "fusion_lon": 0.0, "lat": 38.88490866666667, "bike_id": "99524e74de6000d84e29b31ea0f13bc4", "type": "electric_scooter", "is_reserved": 0, "lon": -77.007132}, {"fusion_lat": 0.0, "name": "de5e29eabc78027a4f953f5a1f41f014", "is_disabled": 0, "rental_uris": {"android": "https://dc.lft.to/lastmile_qr_scan", "ios": "https://dc.lft.to/lastmile_qr_scan"}, "fusion_lon": 0.0, "lat": 38.8973395, "bike_id": "de5e29eabc78027a4f953f5a1f41f014", "type": "electric_scooter", "is_reserved": 0, "lon": -77.0462135}, {"fusion_lat": 0.0, "name": "77cfb72e72b70fce3e001fd3eda405da", "is_disabled": 0, "rental_uris": {"android": "https://dc.lft.to/lastmile_qr_scan", "ios": "https://dc.lft.to/lastmile_qr_scan"}, "fusion_lon": 0.0, "lat": 38.918790666666666, "bike_id": "77cfb72e72b70fce3e001fd3eda405da", "type": "electric_scooter", "is_reserved": 0, "lon": -77.02306666666667}, {"fusion_lat": 0.0, "name": "477f142d7b9d21f8167a0ca72cd5577f", "is_disabled": 0, "rental_uris": {"android": "https://dc.lft.to/lastmile_qr_scan", "ios": "https://dc.lft.to/lastmile_qr_scan"}, "fusion_lon": 0.0, "lat": 38.917127, "bike_id": "477f142d7b9d21f8167a0ca72cd5577f", "type": "electric_scooter", "is_reserved": 0, "lon": -76.97665033333334}, {"fusion_lat": 0.0, "name": "9a0d9695ccac781ea81e890778d0512d", "is_disabled": 0, "rental_uris": {"android": "https://dc.lft.to/lastmile_qr_scan", "ios": "https://dc.lft.to/lastmile_qr_scan"}, "fusion_lon": 0.0, "lat": 38.878154, "bike_id": "9a0d9695ccac781ea81e890778d0512d", "type": "electric_scooter", "is_reserved": 0, "lon": -77.01326983333334}, {"fusion_lat": 0.0, "name": "f86401013c74289f71957d4a256c4360", "is_disabled": 0, "rental_uris": {"android": "https://dc.lft.to/lastmile_qr_scan", "ios": "https://dc.lft.to/lastmile_qr_scan"}, "fusion_lon": 0.0, "lat": 38.898777, "bike_id": "f86401013c74289f71957d4a256c4360", "type": "electric_scooter", "is_reserved": 0, "lon": -76.93183383333333}, {"fusion_lat": 0.0, "name": "ef4e8490f9494239cd04d37fe02dd2f6", "is_disabled": 0, "rental_uris": {"android": "https://dc.lft.to/lastmile_qr_scan", "ios": "https://dc.lft.to/lastmile_qr_scan"}, "fusion_lon": 0.0, "lat": 38.9154965, "bike_id": "ef4e8490f9494239cd04d37fe02dd2f6", "type": "electric_scooter", "is_reserved": 0, "lon": -77.03131266666666}, {"fusion_lat": 0.0, "name": "2e51013f3b7c4fa0cb2961756ac71994", "is_disabled": 0, "rental_uris": {"android": "https://dc.lft.to/lastmile_qr_scan", "ios": "https://dc.lft.to/lastmile_qr_scan"}, "fusion_lon": 0.0, "lat": 38.928737166666664, "bike_id": "2e51013f3b7c4fa0cb2961756ac71994", "type": "electric_scooter", "is_reserved": 0, "lon": -77.0324775}, {"fusion_lat": 0.0, "name": "acfe8c17f6a38bb3e615418e314e9155", "is_disabled": 0, "rental_uris": {"android": "https://dc.lft.to/lastmile_qr_scan", "ios": "https://dc.lft.to/lastmile_qr_scan"}, "fusion_lon": 0.0, "lat": 38.9252125, "bike_id": "acfe8c17f6a38bb3e615418e314e9155", "type": "electric_scooter", "is_reserved": 0, "lon": -77.0295755}, {"fusion_lat": 0.0, "name": "941e25c2dbf23116340e5a6d928b01c6", "is_disabled": 0, "rental_uris": {"android": "https://dc.lft.to/lastmile_qr_scan", "ios": "https://dc.lft.to/lastmile_qr_scan"}, "fusion_lon": 0.0, "lat": 38.940659, "bike_id": "941e25c2dbf23116340e5a6d928b01c6", "type": "electric_bike", "is_reserved": 0, "lon": -76.99449316666667}, {"fusion_lat": 0.0, "name": "5a7fef7c7b2c22c27d5e4d70cdeea0da", "is_disabled": 0, "rental_uris": {"android": "https://dc.lft.to/lastmile_qr_scan", "ios": "https://dc.lft.to/lastmile_qr_scan"}, "fusion_lon": 0.0, "lat": 38.934631833333334, "bike_id": "5a7fef7c7b2c22c27d5e4d70cdeea0da", "type": "electric_scooter", "is_reserved": 0, "lon": -77.041158}, {"fusion_lat": 0.0, "name": "cb7ffeb877633867a06a07c914cc19a2", "is_disabled": 0, "rental_uris": {"android": "https://dc.lft.to/lastmile_qr_scan", "ios": "https://dc.lft.to/lastmile_qr_scan"}, "fusion_lon": 0.0, "lat": 38.87469, "bike_id": "cb7ffeb877633867a06a07c914cc19a2", "type": "electric_scooter", "is_reserved": 0, "lon": -77.00565833333333}, {"fusion_lat": 0.0, "name": "278cf5d2b0967484a3d585d5578609ef", "is_disabled": 0, "rental_uris": {"android": "https://dc.lft.to/lastmile_qr_scan", "ios": "https://dc.lft.to/lastmile_qr_scan"}, "fusion_lon": 0.0, "lat": 38.90322283333333, "bike_id": "278cf5d2b0967484a3d585d5578609ef", "type": "electric_scooter", "is_reserved": 0, "lon": -77.01186566666667}, {"fusion_lat": 0.0, "name": "ee864ecc379f0af2140096dc4dd82a72", "is_disabled": 0, "rental_uris": {"android": "https://dc.lft.to/lastmile_qr_scan", "ios": "https://dc.lft.to/lastmile_qr_scan"}, "fusion_lon": 0.0, "lat": 38.8873715, "bike_id": "ee864ecc379f0af2140096dc4dd82a72", "type": "electric_scooter", "is_reserved": 0, "lon": -77.0034525}, {"fusion_lat": 0.0, "name": "8c4ea80049998e388b133f90e3fdaab3", "is_disabled": 0, "rental_uris": {"android": "https://dc.lft.to/lastmile_qr_scan", "ios": "https://dc.lft.to/lastmile_qr_scan"}, "fusion_lon": 0.0, "lat": 38.90714766666667, "bike_id": "8c4ea80049998e388b133f90e3fdaab3", "type": "electric_scooter", "is_reserved": 0, "lon": -77.04812383333334}, {"fusion_lat": 0.0, "name": "0cce52c963a0f44f264a6d64e93d6bfe", "is_disabled": 0, "rental_uris": {"android": "https://dc.lft.to/lastmile_qr_scan", "ios": "https://dc.lft.to/lastmile_qr_scan"}, "fusion_lon": 0.0, "lat": 38.9162835, "bike_id": "0cce52c963a0f44f264a6d64e93d6bfe", "type": "electric_scooter", "is_reserved": 0, "lon": -77.01346716666667}, {"fusion_lat": 0.0, "name": "d8ce42b48d4ffeb407def735e77c470f", "is_disabled": 0, "rental_uris": {"android": "https://dc.lft.to/lastmile_qr_scan", "ios": "https://dc.lft.to/lastmile_qr_scan"}, "fusion_lon": 0.0, "lat": 38.90659683333333, "bike_id": "d8ce42b48d4ffeb407def735e77c470f", "type": "electric_scooter", "is_reserved": 0, "lon": -77.03858116666666}, {"fusion_lat": 0.0, "name": "4f1a648d44bc3acce3e63e405774e8bd", "is_disabled": 0, "rental_uris": {"android": "https://dc.lft.to/lastmile_qr_scan", "ios": "https://dc.lft.to/lastmile_qr_scan"}, "fusion_lon": 0.0, "lat": 38.9316075, "bike_id": "4f1a648d44bc3acce3e63e405774e8bd", "type": "electric_scooter", "is_reserved": 0, "lon": -77.07851533333333}, {"fusion_lat": 0.0, "name": "bf7a892aaf7d083c0381bc75876bd0f7", "is_disabled": 0, "rental_uris": {"android": "https://dc.lft.to/lastmile_qr_scan", "ios": "https://dc.lft.to/lastmile_qr_scan"}, "fusion_lon": 0.0, "lat": 38.92315583333333, "bike_id": "bf7a892aaf7d083c0381bc75876bd0f7", "type": "electric_scooter", "is_reserved": 0, "lon": -77.02066133333334}, {"fusion_lat": 0.0, "name": "52b3cd6045f76501066a8f68b4ace74c", "is_disabled": 0, "rental_uris": {"android": "https://dc.lft.to/lastmile_qr_scan", "ios": "https://dc.lft.to/lastmile_qr_scan"}, "fusion_lon": 0.0, "lat": 38.9224215, "bike_id": "52b3cd6045f76501066a8f68b4ace74c", "type": "electric_bike", "is_reserved": 0, "lon": -77.03073766666667}, {"fusion_lat": 0.0, "name": "3a3b387b8b4facbbe96fc8627bfa2eaa", "is_disabled": 0, "rental_uris": {"android": "https://dc.lft.to/lastmile_qr_scan", "ios": "https://dc.lft.to/lastmile_qr_scan"}, "fusion_lon": 0.0, "lat": 38.906726166666665, "bike_id": "3a3b387b8b4facbbe96fc8627bfa2eaa", "type": "electric_scooter", "is_reserved": 0, "lon": -77.02709316666666}, {"fusion_lat": 0.0, "name": "eadfc2bf3a6bd18a5109fc8af8ff83f4", "is_disabled": 0, "rental_uris": {"android": "https://dc.lft.to/lastmile_qr_scan", "ios": "https://dc.lft.to/lastmile_qr_scan"}, "fusion_lon": 0.0, "lat": 38.89944216666667, "bike_id": "eadfc2bf3a6bd18a5109fc8af8ff83f4", "type": "electric_scooter", "is_reserved": 0, "lon": -77.02188933333333}, {"fusion_lat": 0.0, "name": "d535ed8ed4f4e6176639eb6678f77489", "is_disabled": 0, "rental_uris": {"android": "https://dc.lft.to/lastmile_qr_scan", "ios": "https://dc.lft.to/lastmile_qr_scan"}, "fusion_lon": 0.0, "lat": 38.919283166666666, "bike_id": "d535ed8ed4f4e6176639eb6678f77489", "type": "electric_scooter", "is_reserved": 0, "lon": -77.03397133333333}, {"fusion_lat": 0.0, "name": "d15fe8fd70ba670f9359acbe28da04ba", "is_disabled": 0, "rental_uris": {"android": "https://dc.lft.to/lastmile_qr_scan", "ios": "https://dc.lft.to/lastmile_qr_scan"}, "fusion_lon": 0.0, "lat": 38.958901833333336, "bike_id": "d15fe8fd70ba670f9359acbe28da04ba", "type": "electric_scooter", "is_reserved": 0, "lon": -77.002852}, {"fusion_lat": 0.0, "name": "fb4becc868cbb13a4cd6c3a6c411a5b8", "is_disabled": 0, "rental_uris": {"android": "https://dc.lft.to/lastmile_qr_scan", "ios": "https://dc.lft.to/lastmile_qr_scan"}, "fusion_lon": 0.0, "lat": 38.87659383333333, "bike_id": "fb4becc868cbb13a4cd6c3a6c411a5b8", "type": "electric_scooter", "is_reserved": 0, "lon": -77.004706}, {"fusion_lat": 0.0, "name": "a4ac53f9240f47bfa757786e6eadf85d", "is_disabled": 0, "rental_uris": {"android": "https://dc.lft.to/lastmile_qr_scan", "ios": "https://dc.lft.to/lastmile_qr_scan"}, "fusion_lon": 0.0, "lat": 38.9273625, "bike_id": "a4ac53f9240f47bfa757786e6eadf85d", "type": "electric_scooter", "is_reserved": 0, "lon": -77.022585}, {"fusion_lat": 0.0, "name": "65ca66ab67a359eba5d18e2b48ca15fa", "is_disabled": 0, "rental_uris": {"android": "https://dc.lft.to/lastmile_qr_scan", "ios": "https://dc.lft.to/lastmile_qr_scan"}, "fusion_lon": 0.0, "lat": 38.91693516666667, "bike_id": "65ca66ab67a359eba5d18e2b48ca15fa", "type": "electric_scooter", "is_reserved": 0, "lon": -77.02600833333334}, {"fusion_lat": 0.0, "name": "ae87babc63ba0d6b5be3be03261c9e45", "is_disabled": 0, "rental_uris": {"android": "https://dc.lft.to/lastmile_qr_scan", "ios": "https://dc.lft.to/lastmile_qr_scan"},