{"data": {"bikes": [{"lat": 38.909924333333336, "is_disabled": 0, "type": "electric_scooter", "lon": -76.9973565, "bike_id": "3b8005001f680d08bbac393e0d33fa86", "fusion_lat": 0.0, "name": "3b8005001f680d08bbac393e0d33fa86", "is_reserved": 0, "rental_uris": {"android": "https://dc.lft.to/lastmile_qr_scan", "ios": "https://dc.lft.to/lastmile_qr_scan"}, "fusion_lon": 0.0}, {"lat": 38.93604466666667, "is_disabled": 0, "type": "electric_scooter", "lon": -77.036567, "bike_id": "c100458691bbb6e5c97d375673325bc9", "fusion_lat": 0.0, "name": "c100458691bbb6e5c97d375673325bc9", "is_reserved": 0, "rental_uris": {"android": "https://dc.lft.to/lastmile_qr_scan", "ios": "https://dc.lft.to/lastmile_qr_scan"}, "fusion_lon": 0.0}, {"lat": 38.902441333333336, "is_disabled": 0, "type": "electric_scooter", "lon": -77.01790983333333, "bike_id": "346e216b5a6689139682be863c8fb399", "fusion_lat": 0.0, "name": "346e216b5a6689139682be863c8fb399", "is_reserved": 0, "rental_uris": {"android": "https://dc.lft.to/lastmile_qr_scan", "ios": "https://dc.lft.to/lastmile_qr_scan"}, "fusion_lon": 0.0}, {"lat": 38.923906, "is_disabled": 0, "type": "electric_scooter", "lon": -77.03227, "bike_id": "50479d511cdf8d437dc9aa2e639f886c", "fusion_lat": 0.0, "name": "50479d511cdf8d437dc9aa2e639f886c", "is_reserved": 0, "rental_uris": {"android": "https://dc.lft.to/lastmile_qr_scan", "ios": "https://dc.lft.to/lastmile_qr_scan"}, "fusion_lon": 0.0}, {"lat": 38.89966, "is_disabled": 0, "type": "electric_scooter", "lon": -77.0518445, "bike_id": "e48d8694e3d879d5a930b5a90d4c223f", "fusion_lat": 0.0, "name": "e48d8694e3d879d5a930b5a90d4c223f", "is_reserved": 0, "rental_uris": {"android": "https://dc.lft.to/lastmile_qr_scan", "ios": "https://dc.lft.to/lastmile_qr_scan"}, "fusion_lon": 0.0}, {"lat": 39.00483583333333, "is_disabled": 0, "type": "electric_bike", "lon": -76.90135033333334, "bike_id": "8330a967e84220921caf91e1d0a2a50e", "fusion_lat": 0.0, "name": "8330a967e84220921caf91e1d0a2a50e", "is_reserved": 0, "rental_uris": {"android": "https://dc.lft.to/lastmile_qr_scan", "ios": "https://dc.lft.to/lastmile_qr_scan"}, "fusion_lon": 0.0}, {"lat": 38.90075516666667, "is_disabled": 0, "type": "electric_scooter", "lon": -77.00203066666667, "bike_id": "68745e84a74d18ce71eb04d492412fb2", "fusion_lat": 0.0, "name": "68745e84a74d18ce71eb04d492412fb2", "is_reserved": 0, "rental_uris": {"android": "https://dc.lft.to/lastmile_qr_scan", "ios": "https://dc.lft.to/lastmile_qr_scan"}, "fusion_lon": 0.0}, {"lat": 38.89222916666667, "is_disabled": 0, "type": "electric_scooter", "lon": -77.03161766666666, "bike_id": "f8af8273c3213f18fe522f6d177825b0", "fusion_lat": 0.0, "name": "f8af8273c3213f18fe522f6d177825b0", "is_reserved": 0, "rental_uris": {"android": "https://dc.lft.to/lastmile_qr_scan", "ios": "https://dc.lft.to/lastmile_qr_scan"}, "fusion_lon": 0.0}, {"lat": 38.93155083333333, "is_disabled": 0, "type": "electric_scooter", "lon": -77.03631533333333, "bike_id": "e27718cc15f6b9f44087259bd2d5a48a", "fusion_lat": 0.0, "name": "e27718cc15f6b9f44087259bd2d5a48a", "is_reserved": 0, "rental_uris": {"android": "https://dc.lft.to/lastmile_qr_scan", "ios": "https://dc.lft.to/lastmile_qr_scan"}, "fusion_lon": 0.0}, {"lat": 38.828769666666666, "is_disabled": 0, "type": "electric_bike", "lon": -77.11221033333334, "bike_id": "e06537e40317b96d9b0d21b9372f6553", "fusion_lat": 0.0, "name": "e06537e40317b96d9b0d21b9372f6553", "is_reserved": 0, "rental_uris": {"android": "https://dc.lft.to/lastmile_qr_scan", "ios": "https://dc.lft.to/lastmile_qr_scan"}, "fusion_lon": 0.0}, {"lat": 38.930150166666664, "is_disabled": 0, "type": "electric_scooter", "lon": -77.04447966666666, "bike_id": "b4703b2990f81a482cd40de03b7841af", "fusion_lat": 0.0, "name": "b4703b2990f81a482cd40de03b7841af", "is_reserved": 0, "rental_uris": {"android": "https://dc.lft.to/lastmile_qr_scan", "ios": "https://dc.lft.to/lastmile_qr_scan"}, "fusion_lon": 0.0}, {"lat": 38.91846066666667, "is_disabled": 0, "type": "electric_scooter", "lon": -76.965531, "bike_id": "40cc7e8a41fbb12bd869cf1ceb2df4ca", "fusion_lat": 0.0, "name": "40cc7e8a41fbb12bd869cf1ceb2df4ca", "is_reserved": 0, "rental_uris": {"android": "https://dc.lft.to/lastmile_qr_scan", "ios": "https://dc.lft.to/lastmile_qr_scan"}, "fusion_lon": 0.0}, {"lat": 38.9285675, "is_disabled": 0, "type": "electric_scooter", "lon": -77.03661266666667, "bike_id": "30b59b10e6d66c54235df97e1999ab94", "fusion_lat": 0.0, "name": "30b59b10e6d66c54235df97e1999ab94", "is_reserved": 0, "rental_uris": {"android": "https://dc.lft.to/lastmile_qr_scan", "ios": "https://dc.lft.to/lastmile_qr_scan"}, "fusion_lon": 0.0}, {"lat": 38.901361333333334, "is_disabled": 0, "type": "electric_scooter", "lon": -77.04181333333334, "bike_id": "5387890cfd2aa945aa75fc4c05979d99", "fusion_lat": 0.0, "name": "5387890cfd2aa945aa75fc4c05979d99", "is_reserved": 0, "rental_uris": {"android": "https://dc.lft.to/lastmile_qr_scan", "ios": "https://dc.lft.to/lastmile_qr_scan"}, "fusion_lon": 0.0}, {"lat": 38.91746533333333, "is_disabled": 0, "type": "electric_scooter", "lon": -77.02284316666666, "bike_id": "8dbdeb4aa31569176b3b76d6e88e04a1", "fusion_lat": 0.0, "name": "8dbdeb4aa31569176b3b76d6e88e04a1", "is_reserved": 0, "rental_uris": {"android": "https://dc.lft.to/lastmile_qr_scan", "ios": "https://dc.lft.to/lastmile_qr_scan"}, "fusion_lon": 0.0}, {"lat": 38.897577, "is_disabled": 0, "type": "electric_scooter", "lon": -77.02698683333334, "bike_id": "b254c4cfbd63d31890038101e0a44109", "fusion_lat": 0.0, "name": "b254c4cfbd63d31890038101e0a44109", "is_reserved": 0, "rental_uris": {"android": "https://dc.lft.to/lastmile_qr_scan", "ios": "https://dc.lft.to/lastmile_qr_scan"}, "fusion_lon": 0.0}, {"lat": 38.9206255, "is_disabled": 0, "type": "electric_scooter", "lon": -77.0317545, "bike_id": "6ac884277e8d71fe20d42c87b16fde4d", "fusion_lat": 0.0, "name": "6ac884277e8d71fe20d42c87b16fde4d", "is_reserved": 0, "rental_uris": {"android": "https://dc.lft.to/lastmile_qr_scan", "ios": "https://dc.lft.to/lastmile_qr_scan"}, "fusion_lon": 0.0}, {"lat": 38.9307235, "is_disabled": 0, "type": "electric_scooter", "lon": -77.04033666666666, "bike_id": "550009de8439a53d7906fae8892ada65", "fusion_lat": 0.0, "name": "550009de8439a53d7906fae8892ada65", "is_reserved": 0, "rental_uris": {"android": "https://dc.lft.to/lastmile_qr_scan", "ios": "https://dc.lft.to/lastmile_qr_scan"}, "fusion_lon": 0.0}, {"lat": 38.879163, "is_disabled": 0, "type": "electric_scooter", "lon": -76.99510283333333, "bike_id": "a32f9c51b9893809bf1103a98efe8a24", "fusion_lat": 0.0, "name": "a32f9c51b9893809bf1103a98efe8a24", "is_reserved": 0, "rental_uris": {"android": "https://dc.lft.to/lastmile_qr_scan", "ios": "https://dc.lft.to/lastmile_qr_scan"}, "fusion_lon": 0.0}, {"lat": 38.92782866666667, "is_disabled": 0, "type": "electric_scooter", "lon": -77.02780733333333, "bike_id": "d16d73e48675af003b695eb6b329d816", "fusion_lat": 0.0, "name": "d16d73e48675af003b695eb6b329d816", "is_reserved": 0, "rental_uris": {"android": "https://dc.lft.to/lastmile_qr_scan", "ios": "https://dc.lft.to/lastmile_qr_scan"}, "fusion_lon": 0.0}, {"lat": 38.9309285, "is_disabled": 0, "type": "electric_scooter", "lon": -77.03735183333333, "bike_id": "11e877c1d075baad1ae9ea7dc3d8b2ce", "fusion_lat": 0.0, "name": "11e877c1d075baad1ae9ea7dc3d8b2ce", "is_reserved": 0, "rental_uris": {"android": "https://dc.lft.to/lastmile_qr_scan", "ios": "https://dc.lft.to/lastmile_qr_scan"}, "fusion_lon": 0.0}, {"lat": 38.89355916666667, "is_disabled": 0, "type": "electric_scooter", "lon": -77.04135633333334, "bike_id": "580a1eafb98890ef8634314721c49202", "fusion_lat": 0.0, "name": "580a1eafb98890ef8634314721c49202", "is_reserved": 0, "rental_uris": {"android": "https://dc.lft.to/lastmile_qr_scan", "ios": "https://dc.lft.to/lastmile_qr_scan"}, "fusion_lon": 0.0}, {"lat": 38.925318, "is_disabled": 0, "type": "electric_scooter", "lon": -77.04424416666667, "bike_id": "2f5311cbbf48ac394413aa228b188cd1", "fusion_lat": 0.0, "name": "2f5311cbbf48ac394413aa228b188cd1", "is_reserved": 0, "rental_uris": {"android": "https://dc.lft.to/lastmile_qr_scan", "ios": "https://dc.lft.to/lastmile_qr_scan"}, "fusion_lon": 0.0}, {"lat": 38.900384333333335, "is_disabled": 0, "type": "electric_scooter", "lon": -76.99380183333334, "bike_id": "08613e05b9288107b14f8657ee465569", "fusion_lat": 0.0, "name": "08613e05b9288107b14f8657ee465569", "is_reserved": 0, "rental_uris": {"android": "https://dc.lft.to/lastmile_qr_scan", "ios": "https://dc.lft.to/lastmile_qr_scan"}, "fusion_lon": 0.0}, {"lat": 38.908988, "is_disabled": 0, "type": "electric_scooter", "lon": -77.03143266666666, "bike_id": "b7b315860248b0b4c275bca3d28643f7", "fusion_lat": 0.0, "name": "b7b315860248b0b4c275bca3d28643f7", "is_reserved": 0, "rental_uris": {"android": "https://dc.lft.to/lastmile_qr_scan", "ios": "https://dc.lft.to/lastmile_qr_scan"}, "fusion_lon": 0.0}, {"lat": 38.922516, "is_disabled": 0, "type": "electric_scooter", "lon": -77.04295383333333, "bike_id": "9bd4fbbf918c4519519162e55e41c182", "fusion_lat": 0.0, "name": "9bd4fbbf918c4519519162e55e41c182", "is_reserved": 0, "rental_uris": {"android": "https://dc.lft.to/lastmile_qr_scan", "ios": "https://dc.lft.to/lastmile_qr_scan"}, "fusion_lon": 0.0}, {"lat": 38.900698, "is_disabled": 0, "type": "electric_scooter", "lon": -77.018215, "bike_id": "e22e041227d2072ca6a106b8c98a9d55", "fusion_lat": 0.0, "name": "e22e041227d2072ca6a106b8c98a9d55", "is_reserved": 0, "rental_uris": {"android": "https://dc.lft.to/lastmile_qr_scan", "ios": "https://dc.lft.to/lastmile_qr_scan"}, "fusion_lon": 0.0}, {"lat": 38.93639566666667, "is_disabled": 0, "type": "electric_scooter", "lon": -77.02490166666666, "bike_id": "55ded5fa0747a2c4a786420743598417", "fusion_lat": 0.0, "name": "55ded5fa0747a2c4a786420743598417", "is_reserved": 0, "rental_uris": {"android": "https://dc.lft.to/lastmile_qr_scan", "ios": "https://dc.lft.to/lastmile_qr_scan"}, "fusion_lon": 0.0}, {"lat": 38.91793916666666, "is_disabled": 0, "type": "electric_scooter", "lon": -77.04043433333334, "bike_id": "43cf85c84feb9a5d05145acf732cf160", "fusion_lat": 0.0, "name": "43cf85c84feb9a5d05145acf732cf160", "is_reserved": 0, "rental_uris": {"android": "https://dc.lft.to/lastmile_qr_scan", "ios": "https://dc.lft.to/lastmile_qr_scan"}, "fusion_lon": 0.0}, {"lat": 38.911307666666666, "is_disabled": 0, "type": "electric_scooter", "lon": -77.03841033333333, "bike_id": "ea5e1282960b3534c83e8a7fdd3819fc", "fusion_lat": 0.0, "name": "ea5e1282960b3534c83e8a7fdd3819fc", "is_reserved": 0, "rental_uris": {"android": "https://dc.lft.to/lastmile_qr_scan", "ios": "https://dc.lft.to/lastmile_qr_scan"}, "fusion_lon": 0.0}, {"lat": 38.9163715, "is_disabled": 0, "type": "electric_scooter", "lon": -77.0478195, "bike_id": "5b78fe3188076ad7947861ef84144e4e", "fusion_lat": 0.0, "name": "5b78fe3188076ad7947861ef84144e4e", "is_reserved": 0, "rental_uris": {"android": "https://dc.lft.to/lastmile_qr_scan", "ios": "https://dc.lft.to/lastmile_qr_scan"}, "fusion_lon": 0.0}, {"lat": 38.906894666666666, "is_disabled": 0, "type": "electric_scooter", "lon": -77.037686, "bike_id": "ad74dabe7f44288798f5c2c3e43ec6e3", "fusion_lat": 0.0, "name": "ad74dabe7f44288798f5c2c3e43ec6e3", "is_reserved": 0, "rental_uris": {"android": "https://dc.lft.to/lastmile_qr_scan", "ios": "https://dc.lft.to/lastmile_qr_scan"}, "fusion_lon": 0.0}, {"lat": 38.90638283333333, "is_disabled": 0, "type": "electric_scooter", "lon": -77.01138816666666, "bike_id": "ab7cfbc17f2aa632074eca91cbcc7bbb", "fusion_lat": 0.0, "name": "ab7cfbc17f2aa632074eca91cbcc7bbb", "is_reserved": 0, "rental_uris": {"android": "https://dc.lft.to/lastmile_qr_scan", "ios": "https://dc.lft.to/lastmile_qr_scan"}, "fusion_lon": 0.0}, {"lat": 38.911024833333336, "is_disabled": 0, "type": "electric_scooter", "lon": -77.042054, "bike_id": "9503b4075ae8ee1906523262a90ea097", "fusion_lat": 0.0, "name": "9503b4075ae8ee1906523262a90ea097", "is_reserved": 0, "rental_uris": {"android": "https://dc.lft.to/lastmile_qr_scan", "ios": "https://dc.lft.to/lastmile_qr_scan"}, "fusion_lon": 0.0}, {"lat": 38.922868333333334, "is_disabled": 0, "type": "electric_scooter", "lon": -77.04258416666667, "bike_id": "4f72304852a9d8d2923632b2892bc400", "fusion_lat": 0.0, "name": "4f72304852a9d8d2923632b2892bc400", "is_reserved": 0, "rental_uris": {"android": "https://dc.lft.to/lastmile_qr_scan", "ios": "https://dc.lft.to/lastmile_qr_scan"}, "fusion_lon": 0.0}, {"lat": 38.9613585, "is_disabled": 0, "type": "electric_scooter", "lon": -77.022355, "bike_id": "c0951c9e8051fcfdc7f51010b175659e", "fusion_lat": 0.0, "name": "c0951c9e8051fcfdc7f51010b175659e", "is_reserved": 0, "rental_uris": {"android": "https://dc.lft.to/lastmile_qr_scan", "ios": "https://dc.lft.to/lastmile_qr_scan"}, "fusion_lon": 0.0}, {"lat": 38.91881166666667, "is_disabled": 0, "type": "electric_scooter", "lon": -77.03504233333334, "bike_id": "a76d7b414d748cea2282821c60ef51c0", "fusion_lat": 0.0, "name": "a76d7b414d748cea2282821c60ef51c0", "is_reserved": 0, "rental_uris": {"android": "https://dc.lft.to/lastmile_qr_scan", "ios": "https://dc.lft.to/lastmile_qr_scan"}, "fusion_lon": 0.0}, {"lat": 38.930614, "is_disabled": 0, "type": "electric_bike", "lon": -77.023016, "bike_id": "53c141ed0aa7842ad1fae26f25d5cc66", "fusion_lat": 0.0, "name": "53c141ed0aa7842ad1fae26f25d5cc66", "is_reserved": 0, "rental_uris": {"android": "https://dc.lft.to/lastmile_qr_scan", "ios": "https://dc.lft.to/lastmile_qr_scan"}, "fusion_lon": 0.0}, {"lat": 38.871446666666664, "is_disabled": 0, "type": "electric_bike", "lon": -76.9370285, "bike_id": "58df7c80ebe2ec728b5863c4163dbb44", "fusion_lat": 0.0, "name": "58df7c80ebe2ec728b5863c4163dbb44", "is_reserved": 0, "rental_uris": {"android": "https://dc.lft.to/lastmile_qr_scan", "ios": "https://dc.lft.to/lastmile_qr_scan"}, "fusion_lon": 0.0}, {"lat": 38.91007166666667, "is_disabled": 0, "type": "electric_scooter", "lon": -77.03077616666667, "bike_id": "edfed7e0d88cf7d39252370da572145b", "fusion_lat": 0.0, "name": "edfed7e0d88cf7d39252370da572145b", "is_reserved": 0, "rental_uris": {"android": "https://dc.lft.to/lastmile_qr_scan", "ios": "https://dc.lft.to/lastmile_qr_scan"}, "fusion_lon": 0.0}, {"lat": 38.92080216666667, "is_disabled": 0, "type": "electric_scooter", "lon": -77.02516416666667, "bike_id": "4fd83eb69e8f513d37c9f6ca37f0b599", "fusion_lat": 0.0, "name": "4fd83eb69e8f513d37c9f6ca37f0b599", "is_reserved": 0, "rental_uris": {"android": "https://dc.lft.to/lastmile_qr_scan", "ios": "https://dc.lft.to/lastmile_qr_scan"}, "fusion_lon": 0.0}, {"lat": 38.922491, "is_disabled": 0, "type": "electric_scooter", "lon": -77.0301015, "bike_id": "dbd239e182871890debeed05a6e84975", "fusion_lat": 0.0, "name": "dbd239e182871890debeed05a6e84975", "is_reserved": 0, "rental_uris": {"android": "https://dc.lft.to/lastmile_qr_scan", "ios": "https://dc.lft.to/lastmile_qr_scan"}, "fusion_lon": 0.0}, {"lat": 38.9205335, "is_disabled": 0, "type": "electric_scooter", "lon": -77.0338905, "bike_id": "53052cc51ed729f0cf0296f29c2856ae", "fusion_lat": 0.0, "name": "53052cc51ed729f0cf0296f29c2856ae", "is_reserved": 0, "rental_uris": {"android": "https://dc.lft.to/lastmile_qr_scan", "ios": "https://dc.lft.to/lastmile_qr_scan"}, "fusion_lon": 0.0}, {"lat": 38.85723733333333, "is_disabled": 0, "type": "electric_bike", "lon": -76.97101183333334, "bike_id": "5e864ff5bea2f7a5f97d48457a0644c4", "fusion_lat": 0.0, "name": "5e864ff5bea2f7a5f97d48457a0644c4", "is_reserved": 0, "rental_uris": {"android": "https://dc.lft.to/lastmile_qr_scan", "ios": "https://dc.lft.to/lastmile_qr_scan"}, "fusion_lon": 0.0}, {"lat": 38.92976216666667, "is_disabled": 0, "type": "electric_scooter", "lon": -77.01301933333333, "bike_id": "8af65e01d2de24a5fb9df074613ec91e", "fusion_lat": 0.0, "name": "8af65e01d2de24a5fb9df074613ec91e", "is_reserved": 0, "rental_uris": {"android": "https://dc.lft.to/lastmile_qr_scan", "ios": "https://dc.lft.to/lastmile_qr_scan"}, "fusion_lon": 0.0}, {"lat": 38.917824833333334, "is_disabled": 0, "type": "electric_scooter", "lon": -77.04331383333333, "bike_id": "15df282f1e3fb0ac6e5f7c2059660606", "fusion_lat": 0.0, "name": "15df282f1e3fb0ac6e5f7c2059660606", "is_reserved": 0, "rental_uris": {"android": "https://dc.lft.to/lastmile_qr_scan", "ios": "https://dc.lft.to/lastmile_qr_scan"}, "fusion_lon": 0.0}, {"lat": 38.92347083333333, "is_disabled": 0, "type": "electric_scooter", "lon": -77.03517866666667, "bike_id": "fa15006d67a1c0f7535a562f52ba9b6e", "fusion_lat": 0.0, "name": "fa15006d67a1c0f7535a562f52ba9b6e", "is_reserved": 0, "rental_uris": {"android": "https://dc.lft.to/lastmile_qr_scan", "ios": "https://dc.lft.to/lastmile_qr_scan"}, "fusion_lon": 0.0}, {"lat": 38.909683, "is_disabled": 0, "type": "electric_scooter", "lon": -77.0238205, "bike_id": "5466332070b4a49dcadb3cd415cc6455", "fusion_lat": 0.0, "name": "5466332070b4a49dcadb3cd415cc6455", "is_reserved": 0, "rental_uris": {"android": "https://dc.lft.to/lastmile_qr_scan", "ios": "https://dc.lft.to/lastmile_qr_scan"}, "fusion_lon": 0.0}, {"lat": 38.925735, "is_disabled": 0, "type": "electric_scooter", "lon": -77.05757666666666, "bike_id": "f136a0d830a79eeeda26358ba4d80256", "fusion_lat": 0.0, "name": "f136a0d830a79eeeda26358ba4d80256", "is_reserved": 0, "rental_uris": {"android": "https://dc.lft.to/lastmile_qr_scan", "ios": "https://dc.lft.to/lastmile_qr_scan"}, "fusion_lon": 0.0}, {"lat": 38.806819833333336, "is_disabled": 0, "type": "electric_bike", "lon": -77.08120866666667, "bike_id": "089fd3e22a83b7cb0e191006635fa082", "fusion_lat": 0.0, "name": "089fd3e22a83b7cb0e191006635fa082", "is_reserved": 0, "rental_uris": {"android": "https://dc.lft.to/lastmile_qr_scan", "ios": "https://dc.lft.to/lastmile_qr_scan"}, "fusion_lon": 0.0}, {"lat": 38.903333, "is_disabled": 0, "type": "electric_scooter", "lon": -76.97594033333333, "bike_id": "5357dcf39ef930548995f7df28ea04a5", "fusion_lat": 0.0, "name": "5357dcf39ef930548995f7df28ea04a5", "is_reserved": 0, "rental_uris": {"android": "https://dc.lft.to/lastmile_qr_scan", "ios": "https://dc.lft.to/lastmile_qr_scan"}, "fusion_lon": 0.0}, {"lat": 38.90760133333333, "is_disabled": 0, "type": "electric_scooter", "lon": -77.0702435, "bike_id": "18f09b0593de1c6111a0c645ce839f72", "fusion_lat": 0.0, "name": "18f09b0593de1c6111a0c645ce839f72", "is_reserved": 0, "rental_uris": {"android": "https://dc.lft.to/lastmile_qr_scan", "ios": "https://dc.lft.to/lastmile_qr_scan"}, "fusion_lon": 0.0}, {"lat": 38.907306166666665, "is_disabled": 0, "type": "electric_scooter", "lon": -76.93550166666667, "bike_id": "96de6fccb96afd50654a9e179f1f829c", "fusion_lat": 0.0, "name": "96de6fccb96afd50654a9e179f1f829c", "is_reserved": 0, "rental_uris": {"android": "https://dc.lft.to/lastmile_qr_scan", "ios": "https://dc.lft.to/lastmile_qr_scan"}, "fusion_lon": 0.0}, {"lat": 38.866625, "is_disabled": 0, "type": "electric_scooter", "lon": -76.98879866666667, "bike_id": "6cd89560a2f735f294d6e0ff3d4eb100", "fusion_lat": 0.0, "name": "6cd89560a2f735f294d6e0ff3d4eb100", "is_reserved": 0, "rental_uris": {"android": "https://dc.lft.to/lastmile_qr_scan", "ios": "https://dc.lft.to/lastmile_qr_scan"}, "fusion_lon": 0.0}, {"lat": 38.8921985, "is_disabled": 0, "type": "electric_scooter", "lon": -77.02317966666666, "bike_id": "b1f329449795c0bcccb1ee9e7bd3d632", "fusion_lat": 0.0, "name": "b1f329449795c0bcccb1ee9e7bd3d632", "is_reserved": 0, "rental_uris": {"android": "https://dc.lft.to/lastmile_qr_scan", "ios": "https://dc.lft.to/lastmile_qr_scan"}, "fusion_lon": 0.0}, {"lat": 38.93091883333334, "is_disabled": 0, "type": "electric_scooter", "lon": -77.03745233333333, "bike_id": "c414282025b640b2b5c5314060386458", "fusion_lat": 0.0, "name": "c414282025b640b2b5c5314060386458", "is_reserved": 0, "rental_uris": {"android": "https://dc.lft.to/lastmile_qr_scan", "ios": "https://dc.lft.to/lastmile_qr_scan"}, "fusion_lon": 0.0}, {"lat": 38.9085885, "is_disabled": 0, "type": "electric_scooter", "lon": -77.0437105, "bike_id": "8084d6c41a09b3ac3ef3decce16136a4", "fusion_lat": 0.0, "name": "8084d6c41a09b3ac3ef3decce16136a4", "is_reserved": 0, "rental_uris": {"android": "https://dc.lft.to/lastmile_qr_scan", "ios": "https://dc.lft.to/lastmile_qr_scan"}, "fusion_lon": 0.0}, {"lat": 38.917169666666666, "is_disabled": 0, "type": "electric_scooter", "lon": -77.03837683333333, "bike_id": "caf6359b9620e2b5730de4f60c2635ca", "fusion_lat": 0.0, "name": "caf6359b9620e2b5730de4f60c2635ca", "is_reserved": 0, "rental_uris": {"android": "https://dc.lft.to/lastmile_qr_scan", "ios": "https://dc.lft.to/lastmile_qr_scan"}, "fusion_lon": 0.0}, {"lat": 38.92737133333333, "is_disabled": 0, "type": "electric_scooter", "lon": -77.03407866666667, "bike_id": "b35aea9d0569fb5ae9d3a32f32d32dd3", "fusion_lat": 0.0, "name": "b35aea9d0569fb5ae9d3a32f32d32dd3", "is_reserved": 0, "rental_uris": {"android": "https://dc.lft.to/lastmile_qr_scan", "ios": "https://dc.lft.to/lastmile_qr_scan"}, "fusion_lon": 0.0}, {"lat": 38.91201233333334, "is_disabled": 0, "type": "electric_scooter", "lon": -77.03428133333334, "bike_id": "f07ddf1304beaf3e65573a410739e8ff", "fusion_lat": 0.0, "name": "f07ddf1304beaf3e65573a410739e8ff", "is_reserved": 0, "rental_uris": {"android": "https://dc.lft.to/lastmile_qr_scan", "ios": "https://dc.lft.to/lastmile_qr_scan"}, "fusion_lon": 0.0}, {"lat": 38.922911, "is_disabled": 0, "type": "electric_scooter", "lon": -77.02966533333333, "bike_id": "15526d2f38cc3dd378f54cd613b9601c", "fusion_lat": 0.0, "name": "15526d2f38cc3dd378f54cd613b9601c", "is_reserved": 0, "rental_uris": {"android": "https://dc.lft.to/lastmile_qr_scan", "ios": "https://dc.lft.to/lastmile_qr_scan"}, "fusion_lon": 0.0}, {"lat": 38.8924775, "is_disabled": 0, "type": "electric_scooter", "lon": -77.039567, "bike_id": "50252f0f16487cdc33d5e87a670db9b5", "fusion_lat": 0.0, "name": "50252f0f16487cdc33d5e87a670db9b5", "is_reserved": 0, "rental_uris": {"android": "https://dc.lft.to/lastmile_qr_scan", "ios": "https://dc.lft.to/lastmile_qr_scan"}, "fusion_lon": 0.0}, {"lat": 38.95494633333333, "is_disabled": 0, "type": "electric_scooter", "lon": -77.0656105, "bike_id": "ae71bbcef135717d33fbb04472c89c74", "fusion_lat": 0.0, "name": "ae71bbcef135717d33fbb04472c89c74", "is_reserved": 0, "rental_uris": {"android": "https://dc.lft.to/lastmile_qr_scan", "ios": "https://dc.lft.to/lastmile_qr_scan"}, "fusion_lon": 0.0}, {"lat": 38.900739333333334, "is_disabled": 0, "type": "electric_scooter", "lon": -77.05028433333334, "bike_id": "25a5443d65777c97baea33770da65098", "fusion_lat": 0.0, "name": "25a5443d65777c97baea33770da65098", "is_reserved": 0, "rental_uris": {"android": "https://dc.lft.to/lastmile_qr_scan", "ios": "https://dc.lft.to/lastmile_qr_scan"}, "fusion_lon": 0.0}, {"lat": 38.9367245, "is_disabled": 0, "type": "electric_scooter", "lon": -77.024596, "bike_id": "366c25ebd37151e9c0647653abbbfb35", "fusion_lat": 0.0, "name": "366c25ebd37151e9c0647653abbbfb35", "is_reserved": 0, "rental_uris": {"android": "https://dc.lft.to/lastmile_qr_scan", "ios": "https://dc.lft.to/lastmile_qr_scan"}, "fusion_lon": 0.0}, {"lat": 38.918747833333335, "is_disabled": 0, "type": "electric_scooter", "lon": -77.0319255, "bike_id": "2e2416cd04f4627c93da35528ba47ea5", "fusion_lat": 0.0, "name": "2e2416cd04f4627c93da35528ba47ea5", "is_reserved": 0, "rental_uris": {"android": "https://dc.lft.to/lastmile_qr_scan", "ios": "https://dc.lft.to/lastmile_qr_scan"}, "fusion_lon": 0.0}, {"lat": 38.93535883333333, "is_disabled": 0, "type": "electric_scooter", "lon": -77.032549, "bike_id": "7338e801d47d1dc021561d50f4c25b72", "fusion_lat": 0.0, "name": "7338e801d47d1dc021561d50f4c25b72", "is_reserved": 0, "rental_uris": {"android": "https://dc.lft.to/lastmile_qr_scan", "ios": "https://dc.lft.to/lastmile_qr_scan"}, "fusion_lon": 0.0}, {"lat": 38.907834666666666, "is_disabled": 0, "type": "electric_scooter", "lon": -77.0450555, "bike_id": "5465fa5fcf1b3dac9839c348b82f734a", "fusion_lat": 0.0, "name": "5465fa5fcf1b3dac9839c348b82f734a", "is_reserved": 0, "rental_uris": {"android": "https://dc.lft.to/lastmile_qr_scan", "ios": "https://dc.lft.to/lastmile_qr_scan"}, "fusion_lon": 0.0}, {"lat": 38.917934833333334, "is_disabled": 0, "type": "electric_scooter", "lon": -77.040417, "bike_id": "177d692bf3b3a878fe6b6ce8e387b5fe", "fusion_lat": 0.0, "name": "177d692bf3b3a878fe6b6ce8e387b5fe", "is_reserved": 0, "rental_uris": {"android": "https://dc.lft.to/lastmile_qr_scan", "ios": "https://dc.lft.to/lastmile_qr_scan"}, "fusion_lon": 0.0}, {"lat": 38.93765166666667, "is_disabled": 0, "type": "electric_scooter", "lon": -77.021407, "bike_id": "309fec46697d03b5a80447f8d831035d", "fusion_lat": 0.0, "name": "309fec46697d03b5a80447f8d831035d", "is_reserved": 0, "rental_uris": {"android": "https://dc.lft.to/lastmile_qr_scan", "ios": "https://dc.lft.to/lastmile_qr_scan"}, "fusion_lon": 0.0}, {"lat": 38.9179945, "is_disabled": 0, "type": "electric_bike", "lon": -77.223431, "bike_id": "ca3893ce7d2a0bb6c03ac4ca3fa0b979", "fusion_lat": 0.0, "name": "ca3893ce7d2a0bb6c03ac4ca3fa0b979", "is_reserved": 0, "rental_uris": {"android": "https://dc.lft.to/lastmile_qr_scan", "ios": "https://dc.lft.to/lastmile_qr_scan"}, "fusion_lon": 0.0}, {"lat": 38.896796, "is_disabled": 0, "type": "electric_scooter", "lon": -77.05124916666666, "bike_id": "a809868c81dc7ed77f45889849ac66b0", "fusion_lat": 0.0, "name": "a809868c81dc7ed77f45889849ac66b0", "is_reserved": 0, "rental_uris": {"android": "https://dc.lft.to/lastmile_qr_scan", "ios": "https://dc.lft.to/lastmile_qr_scan"}, "fusion_lon": 0.0}, {"lat": 38.87666466666667, "is_disabled": 0, "type": "electric_scooter", "lon": -77.00418366666666, "bike_id": "9e627b6f81a877ab256a4ee8f081d2e5", "fusion_lat": 0.0, "name": "9e627b6f81a877ab256a4ee8f081d2e5", "is_reserved": 0, "rental_uris": {"android": "https://dc.lft.to/lastmile_qr_scan", "ios": "https://dc.lft.to/lastmile_qr_scan"}, "fusion_lon": 0.0}, {"lat": 38.958812333333334, "is_disabled": 0, "type": "electric_bike", "lon": -77.01032416666666, "bike_id": "c3f3b27c917dcea4912f57ae6f56a824", "fusion_lat": 0.0, "name": "c3f3b27c917dcea4912f57ae6f56a824", "is_reserved": 0, "rental_uris": {"android": "https://dc.lft.to/lastmile_qr_scan", "ios": "https://dc.lft.to/lastmile_qr_scan"}, "fusion_lon": 0.0}, {"lat": 38.938653, "is_disabled": 0, "type": "electric_scooter", "lon": -77.02648083333334, "bike_id": "5cbd1837d7fc4ea06eb16ad7f630b95e", "fusion_lat": 0.0, "name": "5cbd1837d7fc4ea06eb16ad7f630b95e", "is_reserved": 0, "rental_uris": {"android": "https://dc.lft.to/lastmile_qr_scan", "ios": "https://dc.lft.to/lastmile_qr_scan"}, "fusion_lon": 0.0}, {"lat": 38.908545, "is_disabled": 0, "type": "electric_scooter", "lon": -77.0062435, "bike_id": "9bb4ee9ad2f477ac4cf407ebc93eba93", "fusion_lat": 0.0, "name": "9bb4ee9ad2f477ac4cf407ebc93eba93", "is_reserved": 0, "rental_uris": {"android": "https://dc.lft.to/lastmile_qr_scan", "ios": "https://dc.lft.to/lastmile_qr_scan"}, "fusion_lon": 0.0}, {"lat": 38.920253333333335, "is_disabled": 0, "type": "electric_scooter", "lon": -77.014274, "bike_id": "a3e96fbee5d21e6a637a6b1398c45f5d", "fusion_lat": 0.0, "name": "a3e96fbee5d21e6a637a6b1398c45f5d", "is_reserved": 0, "rental_uris": {"android": "https://dc.lft.to/lastmile_qr_scan", "ios": "https://dc.lft.to/lastmile_qr_scan"}, "fusion_lon": 0.0}, {"lat": 38.91270016666667, "is_disabled": 0, "type": "electric_scooter", "lon": -77.022549, "bike_id": "8a2ffe5ffb2715e3fd8e8780377c4265", "fusion_lat": 0.0, "name": "8a2ffe5ffb2715e3fd8e8780377c4265", "is_reserved": 0, "rental_uris": {"android": "https://dc.lft.to/lastmile_qr_scan", "ios": "https://dc.lft.to/lastmile_qr_scan"}, "fusion_lon": 0.0}, {"lat": 38.917343333333335, "is_disabled": 0, "type": "electric_scooter", "lon": -77.036631, "bike_id": "b6cb6e04d8708fe45169361e6fd16461", "fusion_lat": 0.0, "name": "b6cb6e04d8708fe45169361e6fd16461", "is_reserved": 0, "rental_uris": {"android": "https://dc.lft.to/lastmile_qr_scan", "ios": "https://dc.lft.to/lastmile_qr_scan"}, "fusion_lon": 0.0}, {"lat": 38.99635466666667, "is_disabled": 0, "type": "electric_bike", "lon": -77.02967066666666, "bike_id": "843b7c20e6bba422d7c8de8160b93f67", "fusion_lat": 0.0, "name": "843b7c20e6bba422d7c8de8160b93f67", "is_reserved": 0, "rental_uris": {"android": "https://dc.lft.to/lastmile_qr_scan", "ios": "https://dc.lft.to/lastmile_qr_scan"}, "fusion_lon": 0.0}, {"lat": 38.92050583333334, "is_disabled": 0, "type": "electric_scooter", "lon": -77.024544, "bike_id": "103e9bddf1604b59524718590a86a8bc", "fusion_lat": 0.0, "name": "103e9bddf1604b59524718590a86a8bc", "is_reserved": 0, "rental_uris": {"android": "https://dc.lft.to/lastmile_qr_scan", "ios": "https://dc.lft.to/lastmile_qr_scan"}, "fusion_lon": 0.0}, {"lat": 38.91422016666667, "is_disabled": 0, "type": "electric_scooter", "lon": -77.02201833333334, "bike_id": "674bef31d39c26f648cbb50913c94c3b", "fusion_lat": 0.0, "name": "674bef31d39c26f648cbb50913c94c3b", "is_reserved": 0, "rental_uris": {"android": "https://dc.lft.to/lastmile_qr_scan", "ios": "https://dc.lft.to/lastmile_qr_scan"}, "fusion_lon": 0.0}, {"lat": 38.9081035, "is_disabled": 0, "type": "electric_scooter", "lon": -77.04344766666667, "bike_id": "f4fff9ad729057834d348a2e8597b476", "fusion_lat": 0.0, "name": "f4fff9ad729057834d348a2e8597b476", "is_reserved": 0, "rental_uris": {"android": "https://dc.lft.to/lastmile_qr_scan", "ios": "https://dc.lft.to/lastmile_qr_scan"}, "fusion_lon": 0.0}, {"lat": 38.907393, "is_disabled": 0, "type": "electric_scooter", "lon": -77.02714466666667, "bike_id": "fe6924a92a193c7fea9608dc73076c58", "fusion_lat": 0.0, "name": "fe6924a92a193c7fea9608dc73076c58", "is_reserved": 0, "rental_uris": {"android": "https://dc.lft.to/lastmile_qr_scan", "ios": "https://dc.lft.to/lastmile_qr_scan"}, "fusion_lon": 0.0}, {"lat": 38.90380666666667, "is_disabled": 0, "type": "electric_scooter", "lon": -77.03983483333333, "bike_id": "96e5a3ee45be2a91f31a8fa5da59aa67", "fusion_lat": 0.0, "name": "96e5a3ee45be2a91f31a8fa5da59aa67", "is_reserved": 0, "rental_uris": {"android": "https://dc.lft.to/lastmile_qr_scan", "ios": "https://dc.lft.to/lastmile_qr_scan"}, "fusion_lon": 0.0}, {"lat": 38.918123666666666, "is_disabled": 0, "type": "electric_scooter", "lon": -77.039155, "bike_id": "e3da8bf885ed2e62d69ce64ac170fca0", "fusion_lat": 0.0, "name": "e3da8bf885ed2e62d69ce64ac170fca0", "is_reserved": 0, "rental_uris": {"android": "https://dc.lft.to/lastmile_qr_scan", "ios": "https://dc.lft.to/lastmile_qr_scan"}, "fusion_lon": 0.0}, {"lat": 38.9156185, "is_disabled": 0, "type": "electric_scooter", "lon": -77.02980083333334, "bike_id": "8ced46336b8967b86ed00f6d170ee483", "fusion_lat": 0.0, "name": "8ced46336b8967b86ed00f6d170ee483", "is_reserved": 0, "rental_uris": {"android": "https://dc.lft.to/lastmile_qr_scan", "ios": "https://dc.lft.to/lastmile_qr_scan"}, "fusion_lon": 0.0}, {"lat": 38.9073615, "is_disabled": 0, "type": "electric_scooter", "lon": -77.02806766666667, "bike_id": "f706ed7bdc9ba370f734d848c0ecaa41", "fusion_lat": 0.0, "name": "f706ed7bdc9ba370f734d848c0ecaa41", "is_reserved": 0, "rental_uris": {"android": "https://dc.lft.to/lastmile_qr_scan", "ios": "https://dc.lft.to/lastmile_qr_scan"}, "fusion_lon": 0.0}, {"lat": 38.90532, "is_disabled": 0, "type": "electric_bike", "lon": -77.05026216666667, "bike_id": "3cd9930fa958f92a1e8873aa3d7ab0d8", "fusion_lat": 0.0, "name": "3cd9930fa958f92a1e8873aa3d7ab0d8", "is_reserved": 0, "rental_uris": {"android": "https://dc.lft.to/lastmile_qr_scan", "ios": "https://dc.lft.to/lastmile_qr_scan"}, "fusion_lon": 0.0}, {"lat": 38.905735666666665, "is_disabled": 0, "type": "electric_scooter", "lon": -77.021756, "bike_id": "127a6c413f64d964cb665230b8598f41", "fusion_lat": 0.0, "name": "127a6c413f64d964cb665230b8598f41", "is_reserved": 0, "rental_uris": {"android": "https://dc.lft.to/lastmile_qr_scan", "ios": "https://dc.lft.to/lastmile_qr_scan"}, "fusion_lon": 0.0}, {"lat": 38.95907733333333, "is_disabled": 0, "type": "electric_scooter", "lon": -77.0807195, "bike_id": "0cb34e42fec78393a9a82288ea05e099", "fusion_lat": 0.0, "name": "0cb34e42fec78393a9a82288ea05e099", "is_reserved": 0, "rental_uris": {"android": "https://dc.lft.to/lastmile_qr_scan", "ios": "https://dc.lft.to/lastmile_qr_scan"}, "fusion_lon": 0.0}, {"lat": 38.8811825, "is_disabled": 0, "type": "electric_scooter", "lon": -77.0166895, "bike_id": "b1cb31bd579a4b175b389f594a5dc637", "fusion_lat": 0.0, "name": "b1cb31bd579a4b175b389f594a5dc637", "is_reserved": 0, "rental_uris": {"android": "https://dc.lft.to/lastmile_qr_scan", "ios": "https://dc.lft.to/lastmile_qr_scan"}, "fusion_lon": 0.0}, {"lat": 38.90534383333333, "is_disabled": 0, "type": "electric_scooter", "lon": -77.02946366666667, "bike_id": "6f7b60fbbc1f61ceaf2536a832201be9", "fusion_lat": 0.0, "name": "6f7b60fbbc1f61ceaf2536a832201be9", "is_reserved": 0, "rental_uris": {"android": "https://dc.lft.to/lastmile_qr_scan", "ios": "https://dc.lft.to/lastmile_qr_scan"}, "fusion_lon": 0.0}, {"lat": 38.89394166666666, "is_disabled": 0, "type": "electric_scooter", "lon": -77.022073, "bike_id": "4d237334d2f9912d92efc40850843f89", "fusion_lat": 0.0, "name": "4d237334d2f9912d92efc40850843f89", "is_reserved": 0, "rental_uris": {"android": "https://dc.lft.to/lastmile_qr_scan", "ios": "https://dc.lft.to/lastmile_qr_scan"}, "fusion_lon": 0.0}, {"lat": 38.8715035, "is_disabled": 0, "type": "electric_bike", "lon": -76.936724, "bike_id": "817f86d6bbd70563e18fceb6a8ff4baf", "fusion_lat": 0.0, "name": "817f86d6bbd70563e18fceb6a8ff4baf", "is_reserved": 0, "rental_uris": {"android": "https://dc.lft.to/lastmile_qr_scan", "ios": "https://dc.lft.to/lastmile_qr_scan"}, "fusion_lon": 0.0}, {"lat": 38.892227, "is_disabled": 0, "type": "electric_scooter", "lon": -77.03213383333333, "bike_id": "67930f17f0b32b2cfebe6cca8e92c032", "fusion_lat": 0.0, "name": "67930f17f0b32b2cfebe6cca8e92c032", "is_reserved": 0, "rental_uris": {"android": "https://dc.lft.to/lastmile_qr_scan", "ios": "https://dc.lft.to/lastmile_qr_scan"}, "fusion_lon": 0.0}, {"lat": 38.892234333333334, "is_disabled": 0, "type": "electric_scooter", "lon": -77.04201316666666, "bike_id": "c124375526e9f26d6aba9f13a5ced45a", "fusion_lat": 0.0, "name": "c124375526e9f26d6aba9f13a5ced45a", "is_reserved": 0, "rental_uris": {"android": "https://dc.lft.to/lastmile_qr_scan", "ios": "https://dc.lft.to/lastmile_qr_scan"}, "fusion_lon": 0.0}, {"lat": 38.86365766666667, "is_disabled": 0, "type": "electric_scooter", "lon": -76.99038033333333, "bike_id": "d2b32fefa6d0b294c1dedd218e90b90a", "fusion_lat": 0.0, "name": "d2b32fefa6d0b294c1dedd218e90b90a", "is_reserved": 0, "rental_uris": {"android": "https://dc.lft.to/lastmile_qr_scan", "ios": "https://dc.lft.to/lastmile_qr_scan"}, "fusion_lon": 0.0}, {"lat": 38.923136666666664, "is_disabled": 0, "type": "electric_scooter", "lon": -77.04216266666667, "bike_id": "ddc7b520c2d8269bdb556b0379dd7b18", "fusion_lat": 0.0, "name": "ddc7b520c2d8269bdb556b0379dd7b18", "is_reserved": 0, "rental_uris": {"android": "https://dc.lft.to/lastmile_qr_scan", "ios": "https://dc.lft.to/lastmile_qr_scan"}, "fusion_lon": 0.0}, {"lat": 38.922492, "is_disabled": 0, "type": "electric_scooter", "lon": -77.03082166666667, "bike_id": "757b0578a9bbcd44d5fabb287e2e4e4c", "fusion_lat": 0.0, "name": "757b0578a9bbcd44d5fabb287e2e4e4c", "is_reserved": 0, "rental_uris": {"android": "https://dc.lft.to/lastmile_qr_scan", "ios": "https://dc.lft.to/lastmile_qr_scan"}, "fusion_lon": 0.0}, {"lat": 38.9170585, "is_disabled": 0, "type": "electric_scooter", "lon": -77.009645, "bike_id": "6c20bae3f02363fc345009e525abb5b7", "fusion_lat": 0.0, "name": "6c20bae3f02363fc345009e525abb5b7", "is_reserved": 0, "rental_uris": {"android": "https://dc.lft.to/lastmile_qr_scan", "ios": "https://dc.lft.to/lastmile_qr_scan"}, "fusion_lon": 0.0}, {"lat": 38.929777, "is_disabled": 0, "type": "electric_scooter", "lon": -77.02925883333333, "bike_id": "9d378e6c32b9ef690fabbcac66392367", "fusion_lat": 0.0, "name": "9d378e6c32b9ef690fabbcac66392367", "is_reserved": 0, "rental_uris": {"android": "https://dc.lft.to/lastmile_qr_scan", "ios": "https://dc.lft.to/lastmile_qr_scan"}, "fusion_lon": 0.0}, {"lat": 38.9309095, "is_disabled": 0, "type": "electric_scooter", "lon": -77.02367816666667, "bike_id": "12bc50977ea827be991fbf367055d635", "fusion_lat": 0.0, "name": "12bc50977ea827be991fbf367055d635", "is_reserved": 0, "rental_uris": {"android": "https://dc.lft.to/lastmile_qr_scan", "ios": "https://dc.lft.to/lastmile_qr_scan"}, "fusion_lon": 0.0}, {"lat": 38.92128533333333, "is_disabled": 0, "type": "electric_scooter", "lon": -77.03660966666666, "bike_id": "8e65c4f9b44796007ea5d008b07b6936", "fusion_lat": 0.0, "name": "8e65c4f9b44796007ea5d008b07b6936", "is_reserved": 0, "rental_uris": {"android": "https://dc.lft.to/lastmile_qr_scan", "ios": "https://dc.lft.to/lastmile_qr_scan"}, "fusion_lon": 0.0}, {"lat": 38.91124466666667, "is_disabled": 0, "type": "electric_scooter", "lon": -77.03839333333333, "bike_id": "e45a7ffe1f68ceb80b4fa412e0c7826f", "fusion_lat": 0.0, "name": "e45a7ffe1f68ceb80b4fa412e0c7826f", "is_reserved": 0, "rental_uris": {"android": "https://dc.lft.to/lastmile_qr_scan", "ios": "https://dc.lft.to/lastmile_qr_scan"}, "fusion_lon": 0.0}, {"lat": 38.93585083333333, "is_disabled": 0, "type": "electric_bike", "lon": -77.10685583333333, "bike_id": "3cef652dec353372f3ae606789554c46", "fusion_lat": 0.0, "name": "3cef652dec353372f3ae606789554c46", "is_reserved": 0, "rental_uris": {"android": "https://dc.lft.to/lastmile_qr_scan", "ios": "https://dc.lft.to/lastmile_qr_scan"}, "fusion_lon": 0.0}, {"lat": 38.917436333333335, "is_disabled": 0, "type": "electric_scooter", "lon": -77.03181883333333, "bike_id": "62d79b85b47e364e5a567b20544efd74", "fusion_lat": 0.0, "name": "62d79b85b47e364e5a567b20544efd74", "is_reserved": 0, "rental_uris": {"android": "https://dc.lft.to/lastmile_qr_scan", "ios": "https://dc.lft.to/lastmile_qr_scan"}, "fusion_lon": 0.0}, {"lat": 38.894900666666665, "is_disabled": 0, "type": "electric_scooter", "lon": -76.99512566666667, "bike_id": "a6986ab193e44ac188c55c6c307c4778", "fusion_lat": 0.0, "name": "a6986ab193e44ac188c55c6c307c4778", "is_reserved": 0, "rental_uris": {"android": "https://dc.lft.to/lastmile_qr_scan", "ios": "https://dc.lft.to/lastmile_qr_scan"}, "fusion_lon": 0.0}, {"lat": 38.90948983333333, "is_disabled": 0, "type": "electric_scooter", "lon": -77.04655283333334, "bike_id": "aa795388510eeff1a813b4d804c9ee4d", "fusion_lat": 0.0, "name": "aa795388510eeff1a813b4d804c9ee4d", "is_reserved": 0, "rental_uris": {"android": "https://dc.lft.to/lastmile_qr_scan", "ios": "https://dc.lft.to/lastmile_qr_scan"}, "fusion_lon": 0.0}, {"lat": 38.89221416666667, "is_disabled": 0, "type": "electric_scooter", "lon": -77.04515183333334, "bike_id": "7e6c0efcfe828a7c317ab1856b5e9e67", "fusion_lat": 0.0, "name": "7e6c0efcfe828a7c317ab1856b5e9e67", "is_reserved": 0, "rental_uris": {"android": "https://dc.lft.to/lastmile_qr_scan", "ios": "https://dc.lft.to/lastmile_qr_scan"}, "fusion_lon": 0.0}, {"lat": 38.935909333333335, "is_disabled": 0, "type": "electric_scooter", "lon": -77.03750833333334, "bike_id": "8fdf2945162e3c5402fca10a94c86fcd", "fusion_lat": 0.0, "name": "8fdf2945162e3c5402fca10a94c86fcd", "is_reserved": 0, "rental_uris": {"android": "https://dc.lft.to/lastmile_qr_scan", "ios": "https://dc.lft.to/lastmile_qr_scan"}, "fusion_lon": 0.0}, {"lat": 38.93091833333333, "is_disabled": 0, "type": "electric_scooter", "lon": -77.02557933333334, "bike_id": "2699d6a6ab441dbb12a5df9a68da490f", "fusion_lat": 0.0, "name": "2699d6a6ab441dbb12a5df9a68da490f", "is_reserved": 0, "rental_uris": {"android": "https://dc.lft.to/lastmile_qr_scan", "ios": "https://dc.lft.to/lastmile_qr_scan"}, "fusion_lon": 0.0}, {"lat": 38.90283, "is_disabled": 0, "type": "electric_scooter", "lon": -77.03853933333333, "bike_id": "f8d4c8251602fd08d64488eb6d7f336f", "fusion_lat": 0.0, "name": "f8d4c8251602fd08d64488eb6d7f336f", "is_reserved": 0, "rental_uris": {"android": "https://dc.lft.to/lastmile_qr_scan", "ios": "https://dc.lft.to/lastmile_qr_scan"}, "fusion_lon": 0.0}, {"lat": 38.91769816666667, "is_disabled": 0, "type": "electric_scooter", "lon": -77.03184833333333, "bike_id": "ac040f150c05fa8a8ef22092ddf6c0d9", "fusion_lat": 0.0, "name": "ac040f150c05fa8a8ef22092ddf6c0d9", "is_reserved": 0, "rental_uris": {"android": "https://dc.lft.to/lastmile_qr_scan", "ios": "https://dc.lft.to/lastmile_qr_scan"}, "fusion_lon": 0.0}, {"lat": 38.952937166666665, "is_disabled": 0, "type": "electric_bike", "lon": -76.945997, "bike_id": "54bc90deb1bf9e080fb4fd0f48c22c46", "fusion_lat": 0.0, "name": "54bc90deb1bf9e080fb4fd0f48c22c46", "is_reserved": 0, "rental_uris": {"android": "https://dc.lft.to/lastmile_qr_scan", "ios": "https://dc.lft.to/lastmile_qr_scan"}, "fusion_lon": 0.0}, {"lat": 38.892204, "is_disabled": 0, "type": "electric_scooter", "lon": -77.04857866666667, "bike_id": "cc01da92211fc48a13d6d71ba2ee178c", "fusion_lat": 0.0, "name": "cc01da92211fc48a13d6d71ba2ee178c", "is_reserved": 0, "rental_uris": {"android": "https://dc.lft.to/lastmile_qr_scan", "ios": "https://dc.lft.to/lastmile_qr_scan"}, "fusion_lon": 0.0}, {"lat": 38.90346516666666, "is_disabled": 0, "type": "electric_scooter", "lon": -77.04467783333334, "bike_id": "ed6b1507e10d4d59b1d01e9cd72544ce", "fusion_lat": 0.0, "name": "ed6b1507e10d4d59b1d01e9cd72544ce", "is_reserved": 0, "rental_uris": {"android": "https://dc.lft.to/lastmile_qr_scan", "ios": "https://dc.lft.to/lastmile_qr_scan"}, "fusion_lon": 0.0}, {"lat": 38.990034666666666, "is_disabled": 0, "type": "electric_bike", "lon": -77.00440633333334, "bike_id": "800cbf9346a90b8a96756b9201ea9da5", "fusion_lat": 0.0, "name": "800cbf9346a90b8a96756b9201ea9da5", "is_reserved": 0, "rental_uris": {"android": "https://dc.lft.to/lastmile_qr_scan", "ios": "https://dc.lft.to/lastmile_qr_scan"}, "fusion_lon": 0.0}, {"lat": 38.899145833333336, "is_disabled": 0, "type": "electric_scooter", "lon": -76.933475, "bike_id": "18017b0b601df9c2a6ee7eb13ca3b8f7", "fusion_lat": 0.0, "name": "18017b0b601df9c2a6ee7eb13ca3b8f7", "is_reserved": 0, "rental_uris": {"android": "https://dc.lft.to/lastmile_qr_scan", "ios": "https://dc.lft.to/lastmile_qr_scan"}, "fusion_lon": 0.0}, {"lat": 38.939598833333335, "is_disabled": 0, "type": "electric_bike", "lon": -77.3609485, "bike_id": "8e21ab397779bbf1b98eceea5bf104d7", "fusion_lat": 0.0, "name": "8e21ab397779bbf1b98eceea5bf104d7", "is_reserved": 0, "rental_uris": {"android": "https://dc.lft.to/lastmile_qr_scan", "ios": "https://dc.lft.to/lastmile_qr_scan"}, "fusion_lon": 0.0}, {"lat": 38.92379366666667, "is_disabled": 0, "type": "electric_scooter", "lon": -77.03133933333334, "bike_id": "a4c91bf30a35332ea1c0a6812575277f", "fusion_lat": 0.0, "name": "a4c91bf30a35332ea1c0a6812575277f", "is_reserved": 0, "rental_uris": {"android": "https://dc.lft.to/lastmile_qr_scan", "ios": "https://dc.lft.to/lastmile_qr_scan"}, "fusion_lon": 0.0}, {"lat": 38.895718, "is_disabled": 0, "type": "electric_scooter", "lon": -76.9304695, "bike_id": "f298fec1744f47a6d00deac963499a18", "fusion_lat": 0.0, "name": "f298fec1744f47a6d00deac963499a18", "is_reserved": 0, "rental_uris": {"android": "https://dc.lft.to/lastmile_qr_scan", "ios": "https://dc.lft.to/lastmile_qr_scan"}, "fusion_lon": 0.0}, {"lat": 38.8706685, "is_disabled": 0, "type": "electric_scooter", "lon": -77.0084025, "bike_id": "c4a110343c233b0d40d3c79cd4854218", "fusion_lat": 0.0, "name": "c4a110343c233b0d40d3c79cd4854218", "is_reserved": 0, "rental_uris": {"android": "https://dc.lft.to/lastmile_qr_scan", "ios": "https://dc.lft.to/lastmile_qr_scan"}, "fusion_lon": 0.0}, {"lat": 38.9249655, "is_disabled": 0, "type": "electric_scooter", "lon": -77.07332716666667, "bike_id": "7246011eb9ad1a0c073460df3302bc98", "fusion_lat": 0.0, "name": "7246011eb9ad1a0c073460df3302bc98", "is_reserved": 0, "rental_uris": {"android": "https://dc.lft.to/lastmile_qr_scan", "ios": "https://dc.lft.to/lastmile_qr_scan"}, "fusion_lon": 0.0}, {"lat": 38.931016666666665, "is_disabled": 0, "type": "electric_scooter", "lon": -77.03068833333333, "bike_id": "637d6830805d3cc5e6fc06e42f6119c2", "fusion_lat": 0.0, "name": "637d6830805d3cc5e6fc06e42f6119c2", "is_reserved": 0, "rental_uris": {"android": "https://dc.lft.to/lastmile_qr_scan", "ios": "https://dc.lft.to/lastmile_qr_scan"}, "fusion_lon": 0.0}, {"lat": 38.91735366666666, "is_disabled": 0, "type": "electric_scooter", "lon": -77.03664266666667, "bike_id": "adb86fa1fee3d9d06c367c58a0315994", "fusion_lat": 0.0, "name": "adb86fa1fee3d9d06c367c58a0315994", "is_reserved": 0, "rental_uris": {"android": "https://dc.lft.to/lastmile_qr_scan", "ios": "https://dc.lft.to/lastmile_qr_scan"}, "fusion_lon": 0.0}, {"lat": 38.9271555, "is_disabled": 0, "type": "electric_scooter", "lon": -77.0209465, "bike_id": "fd0e51da887e0e5653d0c968f89aaaf3", "fusion_lat": 0.0, "name": "fd0e51da887e0e5653d0c968f89aaaf3", "is_reserved": 0, "rental_uris": {"android": "https://dc.lft.to/lastmile_qr_scan", "ios": "https://dc.lft.to/lastmile_qr_scan"}, "fusion_lon": 0.0}, {"lat": 38.90815383333333, "is_disabled": 0, "type": "electric_scooter", "lon": -77.034488, "bike_id": "09ae91132b6e53b7091db9cca08d8eb5", "fusion_lat": 0.0, "name": "09ae91132b6e53b7091db9cca08d8eb5", "is_reserved": 0, "rental_uris": {"android": "https://dc.lft.to/lastmile_qr_scan", "ios": "https://dc.lft.to/lastmile_qr_scan"}, "fusion_lon": 0.0}, {"lat": 38.89501716666667, "is_disabled": 0, "type": "electric_scooter", "lon": -77.003271, "bike_id": "7b878ddf664604fc5180766f5ef30292", "fusion_lat": 0.0, "name": "7b878ddf664604fc5180766f5ef30292", "is_reserved": 0, "rental_uris": {"android": "https://dc.lft.to/lastmile_qr_scan", "ios": "https://dc.lft.to/lastmile_qr_scan"}, "fusion_lon": 0.0}, {"lat": 38.917874833333336, "is_disabled": 0, "type": "electric_scooter", "lon": -77.02299666666667, "bike_id": "dcf6de16991086498f59d0486d434ce2", "fusion_lat": 0.0, "name": "dcf6de16991086498f59d0486d434ce2", "is_reserved": 0, "rental_uris": {"android": "https://dc.lft.to/lastmile_qr_scan", "ios": "https://dc.lft.to/lastmile_qr_scan"}, "fusion_lon": 0.0}, {"lat": 38.88188533333334, "is_disabled": 0, "type": "electric_scooter", "lon": -76.99620433333334, "bike_id": "1846ba127c04706e436e1da2effd2bf8", "fusion_lat": 0.0, "name": "1846ba127c04706e436e1da2effd2bf8", "is_reserved": 0, "rental_uris": {"android": "https://dc.lft.to/lastmile_qr_scan", "ios": "https://dc.lft.to/lastmile_qr_scan"}, "fusion_lon": 0.0}, {"lat": 38.92243033333333, "is_disabled": 0, "type": "electric_scooter", "lon": -77.02192816666667, "bike_id": "19fbe655d60e36129f349c1f31fd81b2", "fusion_lat": 0.0, "name": "19fbe655d60e36129f349c1f31fd81b2", "is_reserved": 0, "rental_uris": {"android": "https://dc.lft.to/lastmile_qr_scan", "ios": "https://dc.lft.to/lastmile_qr_scan"}, "fusion_lon": 0.0}, {"lat": 38.901936, "is_disabled": 0, "type": "electric_scooter", "lon": -77.021827, "bike_id": "bbb2766d6aaa26f59c4d4a0e731056b3", "fusion_lat": 0.0, "name": "bbb2766d6aaa26f59c4d4a0e731056b3", "is_reserved": 0, "rental_uris": {"android": "https://dc.lft.to/lastmile_qr_scan", "ios": "https://dc.lft.to/lastmile_qr_scan"}, "fusion_lon": 0.0}, {"lat": 39.03414016666667, "is_disabled": 0, "type": "electric_bike", "lon": -77.04243233333334, "bike_id": "4411cfe5c331914f2e5c170c4387d9c6", "fusion_lat": 0.0, "name": "4411cfe5c331914f2e5c170c4387d9c6", "is_reserved": 0, "rental_uris": {"android": "https://dc.lft.to/lastmile_qr_scan", "ios": "https://dc.lft.to/lastmile_qr_scan"}, "fusion_lon": 0.0}, {"lat": 38.902393833333335, "is_disabled": 0, "type": "electric_scooter", "lon": -77.0020245, "bike_id": "b37022fc0cfd0665f51c397c4cd5b21a", "fusion_lat": 0.0, "name": "b37022fc0cfd0665f51c397c4cd5b21a", "is_reserved": 0, "rental_uris": {"android": "https://dc.lft.to/lastmile_qr_scan", "ios": "https://dc.lft.to/lastmile_qr_scan"}, "fusion_lon": 0.0}, {"lat": 38.932043166666666, "is_disabled": 0, "type": "electric_scooter", "lon": -77.0443075, "bike_id": "5b330683ee1db73f8514dca4a10e3761", "fusion_lat": 0.0, "name": "5b330683ee1db73f8514dca4a10e3761", "is_reserved": 0, "rental_uris": {"android": "https://dc.lft.to/lastmile_qr_scan", "ios": "https://dc.lft.to/lastmile_qr_scan"}, "fusion_lon": 0.0}, {"lat": 38.922354, "is_disabled": 0, "type": "electric_scooter", "lon": -77.042495, "bike_id": "5723cf8fca922d7ab93ee6af686fc90f", "fusion_lat": 0.0, "name": "5723cf8fca922d7ab93ee6af686fc90f", "is_reserved": 0, "rental_uris": {"android": "https://dc.lft.to/lastmile_qr_scan", "ios": "https://dc.lft.to/lastmile_qr_scan"}, "fusion_lon": 0.0}, {"lat": 38.91710533333333, "is_disabled": 0, "type": "electric_scooter", "lon": -77.02941216666666, "bike_id": "25ca3285ab5639fee9bff1c94ac79392", "fusion_lat": 0.0, "name": "25ca3285ab5639fee9bff1c94ac79392", "is_reserved": 0, "rental_uris": {"android": "https://dc.lft.to/lastmile_qr_scan", "ios": "https://dc.lft.to/lastmile_qr_scan"}, "fusion_lon": 0.0}, {"lat": 38.933048666666664, "is_disabled": 0, "type": "electric_scooter", "lon": -77.0359165, "bike_id": "bc25dc8f48001a23fd8026b4392e4b2f", "fusion_lat": 0.0, "name": "bc25dc8f48001a23fd8026b4392e4b2f", "is_reserved": 0, "rental_uris": {"android": "https://dc.lft.to/lastmile_qr_scan", "ios": "https://dc.lft.to/lastmile_qr_scan"}, "fusion_lon": 0.0}, {"lat": 38.922108333333334, "is_disabled": 0, "type": "electric_bike", "lon": -76.98797233333333, "bike_id": "c791edd46499a7581644e843e15f3c22", "fusion_lat": 0.0, "name": "c791edd46499a7581644e843e15f3c22", "is_reserved": 0, "rental_uris": {"android": "https://dc.lft.to/lastmile_qr_scan", "ios": "https://dc.lft.to/lastmile_qr_scan"}, "fusion_lon": 0.0}, {"lat": 38.897617333333336, "is_disabled": 0, "type": "electric_scooter", "lon": -77.054921, "bike_id": "2a8cf02f344dd5a5490d0a763c75e744", "fusion_lat": 0.0, "name": "2a8cf02f344dd5a5490d0a763c75e744", "is_reserved": 0, "rental_uris": {"android": "https://dc.lft.to/lastmile_qr_scan", "ios": "https://dc.lft.to/lastmile_qr_scan"}, "fusion_lon": 0.0}, {"lat": 38.87629533333333, "is_disabled": 0, "type": "electric_scooter", "lon": -76.9652705, "bike_id": "91d29e24eae72e5c29b447151586b9dd", "fusion_lat": 0.0, "name": "91d29e24eae72e5c29b447151586b9dd", "is_reserved": 0, "rental_uris": {"android": "https://dc.lft.to/lastmile_qr_scan", "ios": "https://dc.lft.to/lastmile_qr_scan"}, "fusion_lon": 0.0}, {"lat": 38.932838833333335, "is_disabled": 0, "type": "electric_scooter", "lon": -77.02831333333333, "bike_id": "5841c60bd14bb91486ce9d633a5d4c40", "fusion_lat": 0.0, "name": "5841c60bd14bb91486ce9d633a5d4c40", "is_reserved": 0, "rental_uris": {"android": "https://dc.lft.to/lastmile_qr_scan", "ios": "https://dc.lft.to/lastmile_qr_scan"}, "fusion_lon": 0.0}, {"lat": 38.889733, "is_disabled": 0, "type": "electric_scooter", "lon": -77.0355605, "bike_id": "c9778a2ec5735bfd1f6e0ca4000cbd4d", "fusion_lat": 0.0, "name": "c9778a2ec5735bfd1f6e0ca4000cbd4d", "is_reserved": 0, "rental_uris": {"android": "https://dc.lft.to/lastmile_qr_scan", "ios": "https://dc.lft.to/lastmile_qr_scan"}, "fusion_lon": 0.0}, {"lat": 38.97232133333333, "is_disabled": 0, "type": "electric_bike", "lon": -76.9934345, "bike_id": "0e9af97c7da888c1eb9f480234014398", "fusion_lat": 0.0, "name": "0e9af97c7da888c1eb9f480234014398", "is_reserved": 0, "rental_uris": {"android": "https://dc.lft.to/lastmile_qr_scan", "ios": "https://dc.lft.to/lastmile_qr_scan"}, "fusion_lon": 0.0}, {"lat": 38.90732833333333, "is_disabled": 0, "type": "electric_scooter", "lon": -77.02965916666666, "bike_id": "55c589519b1a29551ded453afc4f4b9f", "fusion_lat": 0.0, "name": "55c589519b1a29551ded453afc4f4b9f", "is_reserved": 0, "rental_uris": {"android": "https://dc.lft.to/lastmile_qr_scan", "ios": "https://dc.lft.to/lastmile_qr_scan"}, "fusion_lon": 0.0}, {"lat": 38.93320033333333, "is_disabled": 0, "type": "electric_scooter", "lon": -77.04519866666666, "bike_id": "795d12bd5a3d31fc7f2578a885f18cdc", "fusion_lat": 0.0, "name": "795d12bd5a3d31fc7f2578a885f18cdc", "is_reserved": 0, "rental_uris": {"android": "https://dc.lft.to/lastmile_qr_scan", "ios": "https://dc.lft.to/lastmile_qr_scan"}, "fusion_lon": 0.0}, {"lat": 38.92341833333333, "is_disabled": 0, "type": "electric_scooter", "lon": -77.0503285, "bike_id": "fb629766aaaeb1ab21d1125d9a9aa627", "fusion_lat": 0.0, "name": "fb629766aaaeb1ab21d1125d9a9aa627", "is_reserved": 0, "rental_uris": {"android": "https://dc.lft.to/lastmile_qr_scan", "ios": "https://dc.lft.to/lastmile_qr_scan"}, "fusion_lon": 0.0}, {"lat": 38.9287865, "is_disabled": 0, "type": "electric_scooter", "lon": -77.03310416666666, "bike_id": "c1752ee77626d8fc855dae2f8178d0a0", "fusion_lat": 0.0, "name": "c1752ee77626d8fc855dae2f8178d0a0", "is_reserved": 0, "rental_uris": {"android": "https://dc.lft.to/lastmile_qr_scan", "ios": "https://dc.lft.to/lastmile_qr_scan"}, "fusion_lon": 0.0}, {"lat": 38.89006366666667, "is_disabled": 0, "type": "electric_scooter", "lon": -76.93746666666667, "bike_id": "15598d34649a1fbd0875b98194c8b8b9", "fusion_lat": 0.0, "name": "15598d34649a1fbd0875b98194c8b8b9", "is_reserved": 0, "rental_uris": {"android": "https://dc.lft.to/lastmile_qr_scan", "ios": "https://dc.lft.to/lastmile_qr_scan"}, "fusion_lon": 0.0}, {"lat": 38.908363, "is_disabled": 0, "type": "electric_scooter", "lon": -76.99692016666667, "bike_id": "039d33477fd6a65f239491dcd913a41a", "fusion_lat": 0.0, "name": "039d33477fd6a65f239491dcd913a41a", "is_reserved": 0, "rental_uris": {"android": "https://dc.lft.to/lastmile_qr_scan", "ios": "https://dc.lft.to/lastmile_qr_scan"}, "fusion_lon": 0.0}, {"lat": 38.9223695, "is_disabled": 0, "type": "electric_scooter", "lon": -77.04571783333333, "bike_id": "1579cf392ae6faf02b203b892c9a06da", "fusion_lat": 0.0, "name": "1579cf392ae6faf02b203b892c9a06da", "is_reserved": 0, "rental_uris": {"android": "https://dc.lft.to/lastmile_qr_scan", "ios": "https://dc.lft.to/lastmile_qr_scan"}, "fusion_lon": 0.0}, {"lat": 38.9340315, "is_disabled": 0, "type": "electric_scooter", "lon": -77.04121833333333, "bike_id": "b7016d3f38014761b1316f8229d87b1b", "fusion_lat": 0.0, "name": "b7016d3f38014761b1316f8229d87b1b", "is_reserved": 0, "rental_uris": {"android": "https://dc.lft.to/lastmile_qr_scan", "ios": "https://dc.lft.to/lastmile_qr_scan"}, "fusion_lon": 0.0}, {"lat": 38.960944166666664, "is_disabled": 0, "type": "electric_scooter", "lon": -77.082893, "bike_id": "8a3c281d63d91d21ab417136c1e5b05c", "fusion_lat": 0.0, "name": "8a3c281d63d91d21ab417136c1e5b05c", "is_reserved": 0, "rental_uris": {"android": "https://dc.lft.to/lastmile_qr_scan", "ios": "https://dc.lft.to/lastmile_qr_scan"}, "fusion_lon": 0.0}, {"lat": 38.92110133333333, "is_disabled": 0, "type": "electric_bike", "lon": -77.03928066666667, "bike_id": "f2edbfe9e45afc84d75966f6b55616fd", "fusion_lat": 0.0, "name": "f2edbfe9e45afc84d75966f6b55616fd", "is_reserved": 0, "rental_uris": {"android": "https://dc.lft.to/lastmile_qr_scan", "ios": "https://dc.lft.to/lastmile_qr_scan"}, "fusion_lon": 0.0}, {"lat": 38.922158, "is_disabled": 0, "type": "electric_scooter", "lon": -77.03294183333334, "bike_id": "452d08a8e0907596ce25ccbba46e1d22", "fusion_lat": 0.0, "name": "452d08a8e0907596ce25ccbba46e1d22", "is_reserved": 0, "rental_uris": {"android": "https://dc.lft.to/lastmile_qr_scan", "ios": "https://dc.lft.to/lastmile_qr_scan"}, "fusion_lon": 0.0}, {"lat": 38.918355166666665, "is_disabled": 0, "type": "electric_scooter", "lon": -77.02296733333333, "bike_id": "b8a0f49e9f1feef14d5cd7d9c17b2922", "fusion_lat": 0.0, "name": "b8a0f49e9f1feef14d5cd7d9c17b2922", "is_reserved": 0, "rental_uris": {"android": "https://dc.lft.to/lastmile_qr_scan", "ios": "https://dc.lft.to/lastmile_qr_scan"}, "fusion_lon": 0.0}, {"lat": 38.90496683333333, "is_disabled": 0, "type": "electric_scooter", "lon": -77.02954066666666, "bike_id": "0282bbd7b71006a9787608802e195596", "fusion_lat": 0.0, "name": "0282bbd7b71006a9787608802e195596", "is_reserved": 0, "rental_uris": {"android": "https://dc.lft.to/lastmile_qr_scan", "ios": "https://dc.lft.to/lastmile_qr_scan"}, "fusion_lon": 0.0}, {"lat": 38.9022585, "is_disabled": 0, "type": "electric_scooter", "lon": -77.0486305, "bike_id": "84cef1f0045cce963e9f637e2fb2768f", "fusion_lat": 0.0, "name": "84cef1f0045cce963e9f637e2fb2768f", "is_reserved": 0, "rental_uris": {"android": "https://dc.lft.to/lastmile_qr_scan", "ios": "https://dc.lft.to/lastmile_qr_scan"}, "fusion_lon": 0.0}, {"lat": 38.907343166666664, "is_disabled": 0, "type": "electric_scooter", "lon": -77.02972583333333, "bike_id": "b3bdd722b5c6529138c7d0330c7a2d1f", "fusion_lat": 0.0, "name": "b3bdd722b5c6529138c7d0330c7a2d1f", "is_reserved": 0, "rental_uris": {"android": "https://dc.lft.to/lastmile_qr_scan", "ios": "https://dc.lft.to/lastmile_qr_scan"}, "fusion_lon": 0.0}, {"lat": 38.9072995, "is_disabled": 0, "type": "electric_scooter", "lon": -77.03436483333333, "bike_id": "464d85479affc62f4f2aae8531d6b584", "fusion_lat": 0.0, "name": "464d85479affc62f4f2aae8531d6b584", "is_reserved": 0, "rental_uris": {"android": "https://dc.lft.to/lastmile_qr_scan", "ios": "https://dc.lft.to/lastmile_qr_scan"}, "fusion_lon": 0.0}, {"lat": 38.902666333333336, "is_disabled": 0, "type": "electric_scooter", "lon": -77.043787, "bike_id": "a2ae3cffb53c27816324ad165931cb4e", "fusion_lat": 0.0, "name": "a2ae3cffb53c27816324ad165931cb4e", "is_reserved": 0, "rental_uris": {"android": "https://dc.lft.to/lastmile_qr_scan", "ios": "https://dc.lft.to/lastmile_qr_scan"}, "fusion_lon": 0.0}, {"lat": 38.91718083333333, "is_disabled": 0, "type": "electric_scooter", "lon": -77.038407, "bike_id": "ec512710c1053cdf98b0882b88eb4743", "fusion_lat": 0.0, "name": "ec512710c1053cdf98b0882b88eb4743", "is_reserved": 0, "rental_uris": {"android": "https://dc.lft.to/lastmile_qr_scan", "ios": "https://dc.lft.to/lastmile_qr_scan"}, "fusion_lon": 0.0}, {"lat": 38.93119016666667, "is_disabled": 0, "type": "electric_scooter", "lon": -77.0208625, "bike_id": "29a1e756ba18e12ba347f70fef1e1132", "fusion_lat": 0.0, "name": "29a1e756ba18e12ba347f70fef1e1132", "is_reserved": 0, "rental_uris": {"android": "https://dc.lft.to/lastmile_qr_scan", "ios": "https://dc.lft.to/lastmile_qr_scan"}, "fusion_lon": 0.0}, {"lat": 38.93385383333333, "is_disabled": 0, "type": "electric_scooter", "lon": -77.03255166666666, "bike_id": "737b9cd007f24102c9dba2ed9fd3a401", "fusion_lat": 0.0, "name": "737b9cd007f24102c9dba2ed9fd3a401", "is_reserved": 0, "rental_uris": {"android": "https://dc.lft.to/lastmile_qr_scan", "ios": "https://dc.lft.to/lastmile_qr_scan"}, "fusion_lon": 0.0}, {"lat": 38.8860475, "is_disabled": 0, "type": "electric_scooter", "lon": -77.02197766666667, "bike_id": "84cd89e21daab2641f04117e249c0e42", "fusion_lat": 0.0, "name": "84cd89e21daab2641f04117e249c0e42", "is_reserved": 0, "rental_uris": {"android": "https://dc.lft.to/lastmile_qr_scan", "ios": "https://dc.lft.to/lastmile_qr_scan"}, "fusion_lon": 0.0}, {"lat": 38.907394, "is_disabled": 0, "type": "electric_scooter", "lon": -77.0271895, "bike_id": "4621a185fa24b2605dc36e01f2db5333", "fusion_lat": 0.0, "name": "4621a185fa24b2605dc36e01f2db5333", "is_reserved": 0, "rental_uris": {"android": "https://dc.lft.to/lastmile_qr_scan", "ios": "https://dc.lft.to/lastmile_qr_scan"}, "fusion_lon": 0.0}, {"lat": 38.927725, "is_disabled": 0, "type": "electric_scooter", "lon": -77.027101, "bike_id": "f4e12ae1386125d0e9e84c687d097da0", "fusion_lat": 0.0, "name": "f4e12ae1386125d0e9e84c687d097da0", "is_reserved": 0, "rental_uris": {"android": "https://dc.lft.to/lastmile_qr_scan", "ios": "https://dc.lft.to/lastmile_qr_scan"}, "fusion_lon": 0.0}, {"lat": 38.927362333333335, "is_disabled": 0, "type": "electric_scooter", "lon": -77.02247783333334, "bike_id": "2407f6e43898c096e3f05df7d924a438", "fusion_lat": 0.0, "name": "2407f6e43898c096e3f05df7d924a438", "is_reserved": 0, "rental_uris": {"android": "https://dc.lft.to/lastmile_qr_scan", "ios": "https://dc.lft.to/lastmile_qr_scan"}, "fusion_lon": 0.0}, {"lat": 38.90019733333333, "is_disabled": 0, "type": "electric_scooter", "lon": -77.03329, "bike_id": "b7f499814b8d6dce5f382b3a19235e86", "fusion_lat": 0.0, "name": "b7f499814b8d6dce5f382b3a19235e86", "is_reserved": 0, "rental_uris": {"android": "https://dc.lft.to/lastmile_qr_scan", "ios": "https://dc.lft.to/lastmile_qr_scan"}, "fusion_lon": 0.0}, {"lat": 38.892187666666665, "is_disabled": 0, "type": "electric_scooter", "lon": -77.0451285, "bike_id": "9e71790aca473bf4f611a5f1223b6f47", "fusion_lat": 0.0, "name": "9e71790aca473bf4f611a5f1223b6f47", "is_reserved": 0, "rental_uris": {"android": "https://dc.lft.to/lastmile_qr_scan", "ios": "https://dc.lft.to/lastmile_qr_scan"}, "fusion_lon": 0.0}, {"lat": 38.907345166666666, "is_disabled": 0, "type": "electric_scooter", "lon": -77.0449715, "bike_id": "37f9d163cdce7816f6f89cf7593897d6", "fusion_lat": 0.0, "name": "37f9d163cdce7816f6f89cf7593897d6", "is_reserved": 0, "rental_uris": {"android": "https://dc.lft.to/lastmile_qr_scan", "ios": "https://dc.lft.to/lastmile_qr_scan"}, "fusion_lon": 0.0}, {"lat": 38.91764783333333, "is_disabled": 0, "type": "electric_scooter", "lon": -77.0318775, "bike_id": "58e45abb944b9059bb7d3f34a8108f1e", "fusion_lat": 0.0, "name": "58e45abb944b9059bb7d3f34a8108f1e", "is_reserved": 0, "rental_uris": {"android": "https://dc.lft.to/lastmile_qr_scan", "ios": "https://dc.lft.to/lastmile_qr_scan"}, "fusion_lon": 0.0}, {"lat": 38.908553166666664, "is_disabled": 0, "type": "electric_scooter", "lon": -77.04765716666667, "bike_id": "ae8593f613c292f9a0140a26f3940284", "fusion_lat": 0.0, "name": "ae8593f613c292f9a0140a26f3940284", "is_reserved": 0, "rental_uris": {"android": "https://dc.lft.to/lastmile_qr_scan", "ios": "https://dc.lft.to/lastmile_qr_scan"}, "fusion_lon": 0.0}, {"lat": 38.88929516666666, "is_disabled": 0, "type": "electric_scooter", "lon": -76.97373733333333, "bike_id": "00be2ac37793965eabfdc34b7ccc9d0e", "fusion_lat": 0.0, "name": "00be2ac37793965eabfdc34b7ccc9d0e", "is_reserved": 0, "rental_uris": {"android": "https://dc.lft.to/lastmile_qr_scan", "ios": "https://dc.lft.to/lastmile_qr_scan"}, "fusion_lon": 0.0}, {"lat": 38.9170475, "is_disabled": 0, "type": "electric_scooter", "lon": -77.03359, "bike_id": "492bf4be06eabd1c1710d6159017b396", "fusion_lat": 0.0, "name": "492bf4be06eabd1c1710d6159017b396", "is_reserved": 0, "rental_uris": {"android": "https://dc.lft.to/lastmile_qr_scan", "ios": "https://dc.lft.to/lastmile_qr_scan"}, "fusion_lon": 0.0}, {"lat": 38.944077, "is_disabled": 0, "type": "electric_scooter", "lon": -77.0264315, "bike_id": "22850b53e55b024b04ae06e522c9a80e", "fusion_lat": 0.0, "name": "22850b53e55b024b04ae06e522c9a80e", "is_reserved": 0, "rental_uris": {"android": "https://dc.lft.to/lastmile_qr_scan", "ios": "https://dc.lft.to/lastmile_qr_scan"}, "fusion_lon": 0.0}, {"lat": 38.909005, "is_disabled": 0, "type": "electric_scooter", "lon": -77.03208133333334, "bike_id": "1f4cd70df0e4543015d377ad2cbe0be2", "fusion_lat": 0.0, "name": "1f4cd70df0e4543015d377ad2cbe0be2", "is_reserved": 0, "rental_uris": {"android": "https://dc.lft.to/lastmile_qr_scan", "ios": "https://dc.lft.to/lastmile_qr_scan"}, "fusion_lon": 0.0}, {"lat": 38.912917166666666, "is_disabled": 0, "type": "electric_bike", "lon": -77.04479683333334, "bike_id": "e3c15c3371bad0653ae78a0f49c1f139", "fusion_lat": 0.0, "name": "e3c15c3371bad0653ae78a0f49c1f139", "is_reserved": 0, "rental_uris": {"android": "https://dc.lft.to/lastmile_qr_scan", "ios": "https://dc.lft.to/lastmile_qr_scan"}, "fusion_lon": 0.0}, {"lat": 38.870883166666665, "is_disabled": 0, "type": "electric_scooter", "lon": -76.9686965, "bike_id": "b4e6ccf994f88bca59e53fc1eb26ae9e", "fusion_lat": 0.0, "name": "b4e6ccf994f88bca59e53fc1eb26ae9e", "is_reserved": 0, "rental_uris": {"android": "https://dc.lft.to/lastmile_qr_scan", "ios": "https://dc.lft.to/lastmile_qr_scan"}, "fusion_lon": 0.0}, {"lat": 38.902199833333334, "is_disabled": 0, "type": "electric_scooter", "lon": -77.02377283333334, "bike_id": "86fb7f100272be7268a766a5322481c2", "fusion_lat": 0.0, "name": "86fb7f100272be7268a766a5322481c2", "is_reserved": 0, "rental_uris": {"android": "https://dc.lft.to/lastmile_qr_scan", "ios": "https://dc.lft.to/lastmile_qr_scan"}, "fusion_lon": 0.0}, {"lat": 38.90072933333333, "is_disabled": 0, "type": "electric_scooter", "lon": -77.00203083333334, "bike_id": "e3b8b25bce6ecd6b69bfa525fa645ed3", "fusion_lat": 0.0, "name": "e3b8b25bce6ecd6b69bfa525fa645ed3", "is_reserved": 0, "rental_uris": {"android": "https://dc.lft.to/lastmile_qr_scan", "ios": "https://dc.lft.to/lastmile_qr_scan"}, "fusion_lon": 0.0}, {"lat": 38.872463833333335, "is_disabled": 0, "type": "electric_scooter", "lon": -76.97728416666666, "bike_id": "b98026f49830a6b308ec23a8bba70acc", "fusion_lat": 0.0, "name": "b98026f49830a6b308ec23a8bba70acc", "is_reserved": 0, "rental_uris": {"android": "https://dc.lft.to/lastmile_qr_scan", "ios": "https://dc.lft.to/lastmile_qr_scan"}, "fusion_lon": 0.0}, {"lat": 38.939250666666666, "is_disabled": 0, "type": "electric_scooter", "lon": -77.02799433333334, "bike_id": "cfacd0695e5e5831309824f8e41d1b0d", "fusion_lat": 0.0, "name": "cfacd0695e5e5831309824f8e41d1b0d", "is_reserved": 0, "rental_uris": {"android": "https://dc.lft.to/lastmile_qr_scan", "ios": "https://dc.lft.to/lastmile_qr_scan"}, "fusion_lon": 0.0}, {"lat": 38.91360666666667, "is_disabled": 0, "type": "electric_scooter", "lon": -77.03955966666666, "bike_id": "8b65cbed2f9bd0617595d81b06966bb0", "fusion_lat": 0.0, "name": "8b65cbed2f9bd0617595d81b06966bb0", "is_reserved": 0, "rental_uris": {"android": "https://dc.lft.to/lastmile_qr_scan", "ios": "https://dc.lft.to/lastmile_qr_scan"}, "fusion_lon": 0.0}, {"lat": 38.842724, "is_disabled": 0, "type": "electric_bike", "lon": -76.98838833333333, "bike_id": "22a56a5152cec95b9d3efd8e4ecaa755", "fusion_lat": 0.0, "name": "22a56a5152cec95b9d3efd8e4ecaa755", "is_reserved": 0, "rental_uris": {"android": "https://dc.lft.to/lastmile_qr_scan", "ios": "https://dc.lft.to/lastmile_qr_scan"}, "fusion_lon": 0.0}, {"lat": 38.866287666666665, "is_disabled": 0, "type": "electric_scooter", "lon": -76.98700016666666, "bike_id": "aedc08ada7de92abda226e19ca1f25ab", "fusion_lat": 0.0, "name": "aedc08ada7de92abda226e19ca1f25ab", "is_reserved": 0, "rental_uris": {"android": "https://dc.lft.to/lastmile_qr_scan", "ios": "https://dc.lft.to/lastmile_qr_scan"}, "fusion_lon": 0.0}, {"lat": 38.884905, "is_disabled": 0, "type": "electric_scooter", "lon": -77.00706866666667, "bike_id": "6da7e6ee7237cfb03ab562b774a667b4", "fusion_lat": 0.0, "name": "6da7e6ee7237cfb03ab562b774a667b4", "is_reserved": 0, "rental_uris": {"android": "https://dc.lft.to/lastmile_qr_scan", "ios": "https://dc.lft.to/lastmile_qr_scan"}, "fusion_lon": 0.0}, {"lat": 38.91202283333333, "is_disabled": 0, "type": "electric_scooter", "lon": -77.00427733333333, "bike_id": "40ed3562af84c25f9405689badba2f60", "fusion_lat": 0.0, "name": "40ed3562af84c25f9405689badba2f60", "is_reserved": 0, "rental_uris": {"android": "https://dc.lft.to/lastmile_qr_scan", "ios": "https://dc.lft.to/lastmile_qr_scan"}, "fusion_lon": 0.0}, {"lat": 38.905275333333336, "is_disabled": 0, "type": "electric_scooter", "lon": -77.04366233333333, "bike_id": "367fdb566030de43c0aa5824a07e9e31", "fusion_lat": 0.0, "name": "367fdb566030de43c0aa5824a07e9e31", "is_reserved": 0, "rental_uris": {"android": "https://dc.lft.to/lastmile_qr_scan", "ios": "https://dc.lft.to/lastmile_qr_scan"}, "fusion_lon": 0.0}, {"lat": 38.905266, "is_disabled": 0, "type": "electric_scooter", "lon": -77.041791, "bike_id": "57acff65df2843a8a6cc1f3d96c9fdd0", "fusion_lat": 0.0, "name": "57acff65df2843a8a6cc1f3d96c9fdd0", "is_reserved": 0, "rental_uris": {"android": "https://dc.lft.to/lastmile_qr_scan", "ios": "https://dc.lft.to/lastmile_qr_scan"}, "fusion_lon": 0.0}, {"lat": 38.90528416666667, "is_disabled": 0, "type": "electric_scooter", "lon": -77.041892, "bike_id": "4597ce9b01f54b7f1a3aa6c20a9a3415", "fusion_lat": 0.0, "name": "4597ce9b01f54b7f1a3aa6c20a9a3415", "is_reserved": 0, "rental_uris": {"android": "https://dc.lft.to/lastmile_qr_scan", "ios": "https://dc.lft.to/lastmile_qr_scan"}, "fusion_lon": 0.0}, {"lat": 38.905350166666665, "is_disabled": 0, "type": "electric_scooter", "lon": -77.02950183333333, "bike_id": "ece3dc92fe7fb020a176573655fa204e", "fusion_lat": 0.0, "name": "ece3dc92fe7fb020a176573655fa204e", "is_reserved": 0, "rental_uris": {"android": "https://dc.lft.to/lastmile_qr_scan", "ios": "https://dc.lft.to/lastmile_qr_scan"}, "fusion_lon": 0.0}, {"lat": 38.9492875, "is_disabled": 0, "type": "electric_scooter", "lon": -77.01933683333333, "bike_id": "8b31c1013a485d8a7b24bfb1570bb77e", "fusion_lat": 0.0, "name": "8b31c1013a485d8a7b24bfb1570bb77e", "is_reserved": 0, "rental_uris": {"android": "https://dc.lft.to/lastmile_qr_scan", "ios": "https://dc.lft.to/lastmile_qr_scan"}, "fusion_lon": 0.0}, {"lat": 38.926136666666665, "is_disabled": 0, "type": "electric_scooter", "lon": -76.996042, "bike_id": "95139ec4ab24cb1a49dec48829d2ecc3", "fusion_lat": 0.0, "name": "95139ec4ab24cb1a49dec48829d2ecc3", "is_reserved": 0, "rental_uris": {"android": "https://dc.lft.to/lastmile_qr_scan", "ios": "https://dc.lft.to/lastmile_qr_scan"}, "fusion_lon": 0.0}, {"lat": 38.91554816666667, "is_disabled": 0, "type": "electric_scooter", "lon": -77.03867233333334, "bike_id": "b9505be44fdeb96d84ef1bfd1dec91b4", "fusion_lat": 0.0, "name": "b9505be44fdeb96d84ef1bfd1dec91b4", "is_reserved": 0, "rental_uris": {"android": "https://dc.lft.to/lastmile_qr_scan", "ios": "https://dc.lft.to/lastmile_qr_scan"}, "fusion_lon": 0.0}, {"lat": 38.89222983333333, "is_disabled": 0, "type": "electric_scooter", "lon": -77.02780516666667, "bike_id": "2131b0a93c59212c89b167d50f0b2ca0", "fusion_lat": 0.0, "name": "2131b0a93c59212c89b167d50f0b2ca0", "is_reserved": 0, "rental_uris": {"android": "https://dc.lft.to/lastmile_qr_scan", "ios": "https://dc.lft.to/lastmile_qr_scan"}, "fusion_lon": 0.0}, {"lat": 38.889950666666664, "is_disabled": 0, "type": "electric_scooter", "lon": -76.954176, "bike_id": "87ae70c30709fa824c77dded1442242c", "fusion_lat": 0.0, "name": "87ae70c30709fa824c77dded1442242c", "is_reserved": 0, "rental_uris": {"android": "https://dc.lft.to/lastmile_qr_scan", "ios": "https://dc.lft.to/lastmile_qr_scan"}, "fusion_lon": 0.0}, {"lat": 38.9126805, "is_disabled": 0, "type": "electric_scooter", "lon": -77.02251233333334, "bike_id": "764beeb3a398665574399f1f87d4845f", "fusion_lat": 0.0, "name": "764beeb3a398665574399f1f87d4845f", "is_reserved": 0, "rental_uris": {"android": "https://dc.lft.to/lastmile_qr_scan", "ios": "https://dc.lft.to/lastmile_qr_scan"}, "fusion_lon": 0.0}, {"lat": 38.89526983333333, "is_disabled": 0, "type": "electric_scooter", "lon": -77.00208533333333, "bike_id": "a249455edafc5e963eb10fa018b115b6", "fusion_lat": 0.0, "name": "a249455edafc5e963eb10fa018b115b6", "is_reserved": 0, "rental_uris": {"android": "https://dc.lft.to/lastmile_qr_scan", "ios": "https://dc.lft.to/lastmile_qr_scan"}, "fusion_lon": 0.0}, {"lat": 38.875762333333334, "is_disabled": 0, "type": "electric_bike", "lon": -77.1056685, "bike_id": "137457986305e2e21640396a051d6019", "fusion_lat": 0.0, "name": "137457986305e2e21640396a051d6019", "is_reserved": 0, "rental_uris": {"android": "https://dc.lft.to/lastmile_qr_scan", "ios": "https://dc.lft.to/lastmile_qr_scan"}, "fusion_lon": 0.0}, {"lat": 38.8922255, "is_disabled": 0, "type": "electric_scooter", "lon": -77.03219583333333, "bike_id": "3274a9c31ca80fc7e9c5c215208db680", "fusion_lat": 0.0, "name": "3274a9c31ca80fc7e9c5c215208db680", "is_reserved": 0, "rental_uris": {"android": "https://dc.lft.to/lastmile_qr_scan", "ios": "https://dc.lft.to/lastmile_qr_scan"}, "fusion_lon": 0.0}, {"lat": 38.911188333333335, "is_disabled": 0, "type": "electric_scooter", "lon": -77.03720166666666, "bike_id": "448192bb15053711ead13d1331c3e24c", "fusion_lat": 0.0, "name": "448192bb15053711ead13d1331c3e24c", "is_reserved": 0, "rental_uris": {"android": "https://dc.lft.to/lastmile_qr_scan", "ios": "https://dc.lft.to/lastmile_qr_scan"}, "fusion_lon": 0.0}, {"lat": 38.906318666666664, "is_disabled": 0, "type": "electric_scooter", "lon": -77.03154866666667, "bike_id": "b7f11a695862c538d694f911da109014", "fusion_lat": 0.0, "name": "b7f11a695862c538d694f911da109014", "is_reserved": 0, "rental_uris": {"android": "https://dc.lft.to/lastmile_qr_scan", "ios": "https://dc.lft.to/lastmile_qr_scan"}, "fusion_lon": 0.0}, {"lat": 38.91644433333333, "is_disabled": 0, "type": "electric_scooter", "lon": -77.022432, "bike_id": "eff464714f89cb74e3d9109dfaeb2e2d", "fusion_lat": 0.0, "name": "eff464714f89cb74e3d9109dfaeb2e2d", "is_reserved": 0, "rental_uris": {"android": "https://dc.lft.to/lastmile_qr_scan", "ios": "https://dc.lft.to/lastmile_qr_scan"}, "fusion_lon": 0.0}, {"lat": 38.92142066666667, "is_disabled": 0, "type": "electric_scooter", "lon": -77.04490516666667, "bike_id": "c876fae77dad1803eef02df5449cadaf", "fusion_lat": 0.0, "name": "c876fae77dad1803eef02df5449cadaf", "is_reserved": 0, "rental_uris": {"android": "https://dc.lft.to/lastmile_qr_scan", "ios": "https://dc.lft.to/lastmile_qr_scan"}, "fusion_lon": 0.0}, {"lat": 38.95217016666667, "is_disabled": 0, "type": "electric_scooter", "lon": -77.08598166666667, "bike_id": "60ac0859da4d6e26ffb83d5a97ed8eb5", "fusion_lat": 0.0, "name": "60ac0859da4d6e26ffb83d5a97ed8eb5", "is_reserved": 0, "rental_uris": {"android": "https://dc.lft.to/lastmile_qr_scan", "ios": "https://dc.lft.to/lastmile_qr_scan"}, "fusion_lon": 0.0}, {"lat": 38.918189166666664, "is_disabled": 0, "type": "electric_scooter", "lon": -77.0417695, "bike_id": "9e934650e993171f676f83464cd14f1c", "fusion_lat": 0.0, "name": "9e934650e993171f676f83464cd14f1c", "is_reserved": 0, "rental_uris": {"android": "https://dc.lft.to/lastmile_qr_scan", "ios": "https://dc.lft.to/lastmile_qr_scan"}, "fusion_lon": 0.0}, {"lat": 38.99997116666667, "is_disabled": 0, "type": "electric_bike", "lon": -76.92494883333333, "bike_id": "86fe7c78b9b12b4851e2a214605cf77f", "fusion_lat": 0.0, "name": "86fe7c78b9b12b4851e2a214605cf77f", "is_reserved": 0, "rental_uris": {"android": "https://dc.lft.to/lastmile_qr_scan", "ios": "https://dc.lft.to/lastmile_qr_scan"}, "fusion_lon": 0.0}, {"lat": 38.890876166666665, "is_disabled": 0, "type": "electric_scooter", "lon": -76.95265683333334, "bike_id": "d7726780643b30283e202f74f17a7962", "fusion_lat": 0.0, "name": "d7726780643b30283e202f74f17a7962", "is_reserved": 0, "rental_uris": {"android": "https://dc.lft.to/lastmile_qr_scan", "ios": "https://dc.lft.to/lastmile_qr_scan"}, "fusion_lon": 0.0}, {"lat": 38.8450655, "is_disabled": 0, "type": "electric_bike", "lon": -76.99356766666666, "bike_id": "fe1d3c083ba522414c0cd9b98abdf181", "fusion_lat": 0.0, "name": "fe1d3c083ba522414c0cd9b98abdf181", "is_reserved": 0, "rental_uris": {"android": "https://dc.lft.to/lastmile_qr_scan", "ios": "https://dc.lft.to/lastmile_qr_scan"}, "fusion_lon": 0.0}, {"lat": 38.89655666666667, "is_disabled": 0, "type": "electric_scooter", "lon": -77.00522616666667, "bike_id": "8178f0fb6fe5f0663215396d7f267208", "fusion_lat": 0.0, "name": "8178f0fb6fe5f0663215396d7f267208", "is_reserved": 0, "rental_uris": {"android": "https://dc.lft.to/lastmile_qr_scan", "ios": "https://dc.lft.to/lastmile_qr_scan"}, "fusion_lon": 0.0}, {"lat": 38.91266, "is_disabled": 0, "type": "electric_scooter", "lon": -77.02255616666666, "bike_id": "212b9cae9f90cf9630998057e6fc96ca", "fusion_lat": 0.0, "name": "212b9cae9f90cf9630998057e6fc96ca", "is_reserved": 0, "rental_uris": {"android": "https://dc.lft.to/lastmile_qr_scan", "ios": "https://dc.lft.to/lastmile_qr_scan"}, "fusion_lon": 0.0}, {"lat": 38.90587766666667, "is_disabled": 0, "type": "electric_scooter", "lon": -76.98622, "bike_id": "f6600de562750a82021b1f355540d375", "fusion_lat": 0.0, "name": "f6600de562750a82021b1f355540d375", "is_reserved": 0, "rental_uris": {"android": "https://dc.lft.to/lastmile_qr_scan", "ios": "https://dc.lft.to/lastmile_qr_scan"}, "fusion_lon": 0.0}, {"lat": 38.9072785, "is_disabled": 0, "type": "electric_scooter", "lon": -77.04826016666667, "bike_id": "bfe736cee45acf656d8b967804b8c57e", "fusion_lat": 0.0, "name": "bfe736cee45acf656d8b967804b8c57e", "is_reserved": 0, "rental_uris": {"android": "https://dc.lft.to/lastmile_qr_scan", "ios": "https://dc.lft.to/lastmile_qr_scan"}, "fusion_lon": 0.0}, {"lat": 38.8671145, "is_disabled": 0, "type": "electric_scooter", "lon": -76.9872665, "bike_id": "2593a32f3217a76181be38435c419f50", "fusion_lat": 0.0, "name": "2593a32f3217a76181be38435c419f50", "is_reserved": 0, "rental_uris": {"android": "https://dc.lft.to/lastmile_qr_scan", "ios": "https://dc.lft.to/lastmile_qr_scan"}, "fusion_lon": 0.0}, {"lat": 38.90127966666667, "is_disabled": 0, "type": "electric_scooter", "lon": -77.04175333333333, "bike_id": "8284bb39af38125617503a8b0b36429d", "fusion_lat": 0.0, "name": "8284bb39af38125617503a8b0b36429d", "is_reserved": 0, "rental_uris": {"android": "https://dc.lft.to/lastmile_qr_scan", "ios": "https://dc.lft.to/lastmile_qr_scan"}, "fusion_lon": 0.0}, {"lat": 38.90863066666667, "is_disabled": 0, "type": "electric_bike", "lon": -76.94010133333333, "bike_id": "98df732b03a57b3a8a7f00d30131cb27", "fusion_lat": 0.0, "name": "98df732b03a57b3a8a7f00d30131cb27", "is_reserved": 0, "rental_uris": {"android": "https://dc.lft.to/lastmile_qr_scan", "ios": "https://dc.lft.to/lastmile_qr_scan"}, "fusion_lon": 0.0}, {"lat": 38.907757833333335, "is_disabled": 0, "type": "electric_scooter", "lon": -77.038601, "bike_id": "7e68dd31c265e1011c22ed2e5a0249d0", "fusion_lat": 0.0, "name": "7e68dd31c265e1011c22ed2e5a0249d0", "is_reserved": 0, "rental_uris": {"android": "https://dc.lft.to/lastmile_qr_scan", "ios": "https://dc.lft.to/lastmile_qr_scan"}, "fusion_lon": 0.0}, {"lat": 38.9068425, "is_disabled": 0, "type": "electric_scooter", "lon": -77.03634933333333, "bike_id": "67a0eade7eed0d95c5e4a9c47f4bc63e", "fusion_lat": 0.0, "name": "67a0eade7eed0d95c5e4a9c47f4bc63e", "is_reserved": 0, "rental_uris": {"android": "https://dc.lft.to/lastmile_qr_scan", "ios": "https://dc.lft.to/lastmile_qr_scan"}, "fusion_lon": 0.0}, {"lat": 38.92249783333333, "is_disabled": 0, "type": "electric_scooter", "lon": -77.031381, "bike_id": "0d224601c38355e93d7b0789365b9c3b", "fusion_lat": 0.0, "name": "0d224601c38355e93d7b0789365b9c3b", "is_reserved": 0, "rental_uris": {"android": "https://dc.lft.to/lastmile_qr_scan", "ios": "https://dc.lft.to/lastmile_qr_scan"}, "fusion_lon": 0.0}, {"lat": 38.91199133333333, "is_disabled": 0, "type": "electric_scooter", "lon": -77.0107635, "bike_id": "75b6043abff49fda5e2bb031e24386a3", "fusion_lat": 0.0, "name": "75b6043abff49fda5e2bb031e24386a3", "is_reserved": 0, "rental_uris": {"android": "https://dc.lft.to/lastmile_qr_scan", "ios": "https://dc.lft.to/lastmile_qr_scan"}, "fusion_lon": 0.0}, {"lat": 38.902404, "is_disabled": 0, "type": "electric_scooter", "lon": -77.00202516666667, "bike_id": "283d718a5311c37ae8135aa6eb50a3b5", "fusion_lat": 0.0, "name": "283d718a5311c37ae8135aa6eb50a3b5", "is_reserved": 0, "rental_uris": {"android": "https://dc.lft.to/lastmile_qr_scan", "ios": "https://dc.lft.to/lastmile_qr_scan"}, "fusion_lon": 0.0}, {"lat": 38.89561883333333, "is_disabled": 0, "type": "electric_scooter", "lon": -77.0091275, "bike_id": "a0ef28c5b756eb4f16668ff69e8ff040", "fusion_lat": 0.0, "name": "a0ef28c5b756eb4f16668ff69e8ff040", "is_reserved": 0, "rental_uris": {"android": "https://dc.lft.to/lastmile_qr_scan", "ios": "https://dc.lft.to/lastmile_qr_scan"}, "fusion_lon": 0.0}, {"lat": 38.925806333333334, "is_disabled": 0, "type": "electric_scooter", "lon": -77.0283195, "bike_id": "0961d1e4a1547aa5a34fdc793b5feb32", "fusion_lat": 0.0, "name": "0961d1e4a1547aa5a34fdc793b5feb32", "is_reserved": 0, "rental_uris": {"android": "https://dc.lft.to/lastmile_qr_scan", "ios": "https://dc.lft.to/lastmile_qr_scan"}, "fusion_lon": 0.0}, {"lat": 38.9325445, "is_disabled": 0, "type": "electric_scooter", "lon": -77.03465033333333, "bike_id": "6e00ee4667d7ffeb907d69d2438ea4f5", "fusion_lat": 0.0, "name": "6e00ee4667d7ffeb907d69d2438ea4f5", "is_reserved": 0, "rental_uris": {"android": "https://dc.lft.to/lastmile_qr_scan", "ios": "https://dc.lft.to/lastmile_qr_scan"}, "fusion_lon": 0.0}, {"lat": 38.921577166666665, "is_disabled": 0, "type": "electric_scooter", "lon": -77.03513316666667, "bike_id": "e010892a7ca4125a54e3ae58713ead80", "fusion_lat": 0.0, "name": "e010892a7ca4125a54e3ae58713ead80", "is_reserved": 0, "rental_uris": {"android": "https://dc.lft.to/lastmile_qr_scan", "ios": "https://dc.lft.to/lastmile_qr_scan"}, "fusion_lon": 0.0}, {"lat": 38.93019266666667, "is_disabled": 0, "type": "electric_scooter", "lon": -77.0444425, "bike_id": "2e27313672daace087a735f5e155018d", "fusion_lat": 0.0, "name": "2e27313672daace087a735f5e155018d", "is_reserved": 0, "rental_uris": {"android": "https://dc.lft.to/lastmile_qr_scan", "ios": "https://dc.lft.to/lastmile_qr_scan"}, "fusion_lon": 0.0}, {"lat": 38.914036833333334, "is_disabled": 0, "type": "electric_scooter", "lon": -77.03160983333333, "bike_id": "3d6d58d2cffdf861e7947b56be1b81f1", "fusion_lat": 0.0, "name": "3d6d58d2cffdf861e7947b56be1b81f1", "is_reserved": 0, "rental_uris": {"android": "https://dc.lft.to/lastmile_qr_scan", "ios": "https://dc.lft.to/lastmile_qr_scan"}, "fusion_lon": 0.0}, {"lat": 38.94351316666667, "is_disabled": 0, "type": "electric_scooter", "lon": -77.0021875, "bike_id": "5e91125473c8e948385f0b0c8539b3b8", "fusion_lat": 0.0, "name": "5e91125473c8e948385f0b0c8539b3b8", "is_reserved": 0, "rental_uris": {"android": "https://dc.lft.to/lastmile_qr_scan", "ios": "https://dc.lft.to/lastmile_qr_scan"}, "fusion_lon": 0.0}, {"lat": 38.89706016666667, "is_disabled": 0, "type": "electric_scooter", "lon": -77.04878116666667, "bike_id": "689d62c25591dd9e6df36552033f71ee", "fusion_lat": 0.0, "name": "689d62c25591dd9e6df36552033f71ee", "is_reserved": 0, "rental_uris": {"android": "https://dc.lft.to/lastmile_qr_scan", "ios": "https://dc.lft.to/lastmile_qr_scan"}, "fusion_lon": 0.0}, {"lat": 38.897104166666665, "is_disabled": 0, "type": "electric_scooter", "lon": -77.00845133333333, "bike_id": "38a96e4adf35d50723c53aacb95d42cb", "fusion_lat": 0.0, "name": "38a96e4adf35d50723c53aacb95d42cb", "is_reserved": 0, "rental_uris": {"android": "https://dc.lft.to/lastmile_qr_scan", "ios": "https://dc.lft.to/lastmile_qr_scan"}, "fusion_lon": 0.0}, {"lat": 38.91922, "is_disabled": 0, "type": "electric_scooter", "lon": -77.03182433333333, "bike_id": "21cbf06de7efafd4cd4e2f277c374d42", "fusion_lat": 0.0, "name": "21cbf06de7efafd4cd4e2f277c374d42", "is_reserved": 0, "rental_uris": {"android": "https://dc.lft.to/lastmile_qr_scan", "ios": "https://dc.lft.to/lastmile_qr_scan"}, "fusion_lon": 0.0}, {"lat": 38.899140833333334, "is_disabled": 0, "type": "electric_scooter", "lon": -76.93348983333334, "bike_id": "ef0b715d6265562bc92c326fdeb26abc", "fusion_lat": 0.0, "name": "ef0b715d6265562bc92c326fdeb26abc", "is_reserved": 0, "rental_uris": {"android": "https://dc.lft.to/lastmile_qr_scan", "ios": "https://dc.lft.to/lastmile_qr_scan"}, "fusion_lon": 0.0}, {"lat": 38.916321833333335, "is_disabled": 0, "type": "electric_scooter", "lon": -77.0327895, "bike_id": "3e86408f0676c0a882b9eb1604bc4dc1", "fusion_lat": 0.0, "name": "3e86408f0676c0a882b9eb1604bc4dc1", "is_reserved": 0, "rental_uris": {"android": "https://dc.lft.to/lastmile_qr_scan", "ios": "https://dc.lft.to/lastmile_qr_scan"}, "fusion_lon": 0.0}, {"lat": 38.892248333333335, "is_disabled": 0, "type": "electric_scooter", "lon": -77.03160666666666, "bike_id": "ac4be30778f2c851dd00525dfe3885d7", "fusion_lat": 0.0, "name": "ac4be30778f2c851dd00525dfe3885d7", "is_reserved": 0, "rental_uris": {"android": "https://dc.lft.to/lastmile_qr_scan", "ios": "https://dc.lft.to/lastmile_qr_scan"}, "fusion_lon": 0.0}, {"lat": 38.8874015, "is_disabled": 0, "type": "electric_scooter", "lon": -77.02207666666666, "bike_id": "e70642e28d847ee88054228861056033", "fusion_lat": 0.0, "name": "e70642e28d847ee88054228861056033", "is_reserved": 0, "rental_uris": {"android": "https://dc.lft.to/lastmile_qr_scan", "ios": "https://dc.lft.to/lastmile_qr_scan"}, "fusion_lon": 0.0}, {"lat": 38.868308, "is_disabled": 0, "type": "electric_scooter", "lon": -76.97741866666667, "bike_id": "56f933d6583a9d0810888dfb787876a7", "fusion_lat": 0.0, "name": "56f933d6583a9d0810888dfb787876a7", "is_reserved": 0, "rental_uris": {"android": "https://dc.lft.to/lastmile_qr_scan", "ios": "https://dc.lft.to/lastmile_qr_scan"}, "fusion_lon": 0.0}, {"lat": 38.892239833333335, "is_disabled": 0, "type": "electric_scooter", "lon": -77.0436825, "bike_id": "287bb24763b6fb465d11bd2b3439e9e8", "fusion_lat": 0.0, "name": "287bb24763b6fb465d11bd2b3439e9e8", "is_reserved": 0, "rental_uris": {"android": "https://dc.lft.to/lastmile_qr_scan", "ios": "https://dc.lft.to/lastmile_qr_scan"}, "fusion_lon": 0.0}, {"lat": 38.91625333333333, "is_disabled": 0, "type": "electric_scooter", "lon": -77.04865033333333, "bike_id": "c1c7f546bc2437e5c771a7f6e3aeb2cd", "fusion_lat": 0.0, "name": "c1c7f546bc2437e5c771a7f6e3aeb2cd", "is_reserved": 0, "rental_uris": {"android": "https://dc.lft.to/lastmile_qr_scan", "ios": "https://dc.lft.to/lastmile_qr_scan"}, "fusion_lon": 0.0}, {"lat": 38.91617433333333, "is_disabled": 0, "type": "electric_bike", "lon": -77.002992, "bike_id": "9935bd9b27f7887bcacb36484c2ac4bc", "fusion_lat": 0.0, "name": "9935bd9b27f7887bcacb36484c2ac4bc", "is_reserved": 0, "rental_uris": {"android": "https://dc.lft.to/lastmile_qr_scan", "ios": "https://dc.lft.to/lastmile_qr_scan"}, "fusion_lon": 0.0}, {"lat": 38.90085216666667, "is_disabled": 0, "type": "electric_scooter", "lon": -77.05048016666667, "bike_id": "2c8e61057e73c03841ff0f534f6f19ad", "fusion_lat": 0.0, "name": "2c8e61057e73c03841ff0f534f6f19ad", "is_reserved": 0, "rental_uris": {"android": "https://dc.lft.to/lastmile_qr_scan", "ios": "https://dc.lft.to/lastmile_qr_scan"}, "fusion_lon": 0.0}, {"lat": 38.924701166666665, "is_disabled": 0, "type": "electric_scooter", "lon": -77.0271375, "bike_id": "c957d71cfd94d8158b527f488e0d76ef", "fusion_lat": 0.0, "name": "c957d71cfd94d8158b527f488e0d76ef", "is_reserved": 0, "rental_uris": {"android": "https://dc.lft.to/lastmile_qr_scan", "ios": "https://dc.lft.to/lastmile_qr_scan"}, "fusion_lon": 0.0}, {"lat": 38.914230833333335, "is_disabled": 0, "type": "electric_scooter", "lon": -77.04648216666666, "bike_id": "5a23df83eeb44dad0a037262436e2312", "fusion_lat": 0.0, "name": "5a23df83eeb44dad0a037262436e2312", "is_reserved": 0, "rental_uris": {"android": "https://dc.lft.to/lastmile_qr_scan", "ios": "https://dc.lft.to/lastmile_qr_scan"}, "fusion_lon": 0.0}, {"lat": 38.90630733333333, "is_disabled": 0, "type": "electric_scooter", "lon": -77.02499383333334, "bike_id": "4e27ecf63df50091c685366703fa1763", "fusion_lat": 0.0, "name": "4e27ecf63df50091c685366703fa1763", "is_reserved": 0, "rental_uris": {"android": "https://dc.lft.to/lastmile_qr_scan", "ios": "https://dc.lft.to/lastmile_qr_scan"}, "fusion_lon": 0.0}, {"lat": 38.928668333333334, "is_disabled": 0, "type": "electric_scooter", "lon": -77.03322916666667, "bike_id": "0a9733d429384cb668f1e43f9ea85a4c", "fusion_lat": 0.0, "name": "0a9733d429384cb668f1e43f9ea85a4c", "is_reserved": 0, "rental_uris": {"android": "https://dc.lft.to/lastmile_qr_scan", "ios": "https://dc.lft.to/lastmile_qr_scan"}, "fusion_lon": 0.0}, {"lat": 38.91258416666667, "is_disabled": 0, "type": "electric_scooter", "lon": -77.03870983333333, "bike_id": "d44141dee6d0b277ebc300323270453e", "fusion_lat": 0.0, "name": "d44141dee6d0b277ebc300323270453e", "is_reserved": 0, "rental_uris": {"android": "https://dc.lft.to/lastmile_qr_scan", "ios": "https://dc.lft.to/lastmile_qr_scan"}, "fusion_lon": 0.0}, {"lat": 38.87140216666667, "is_disabled": 0, "type": "electric_bike", "lon": -76.93709333333334, "bike_id": "ad0c9d106133a54ce85bbf90c843936f", "fusion_lat": 0.0, "name": "ad0c9d106133a54ce85bbf90c843936f", "is_reserved": 0, "rental_uris": {"android": "https://dc.lft.to/lastmile_qr_scan", "ios": "https://dc.lft.to/lastmile_qr_scan"}, "fusion_lon": 0.0}, {"lat": 38.89221516666667, "is_disabled": 0, "type": "electric_scooter", "lon": -77.02222016666667, "bike_id": "cf628bead0385b4fb8e2d4d21caebad7", "fusion_lat": 0.0, "name": "cf628bead0385b4fb8e2d4d21caebad7", "is_reserved": 0, "rental_uris": {"android": "https://dc.lft.to/lastmile_qr_scan", "ios": "https://dc.lft.to/lastmile_qr_scan"}, "fusion_lon": 0.0}, {"lat": 38.90722133333333, "is_disabled": 0, "type": "electric_scooter", "lon": -77.01808866666667, "bike_id": "f7cecf732170f208763830a1dd79dcdc", "fusion_lat": 0.0, "name": "f7cecf732170f208763830a1dd79dcdc", "is_reserved": 0, "rental_uris": {"android": "https://dc.lft.to/lastmile_qr_scan", "ios": "https://dc.lft.to/lastmile_qr_scan"}, "fusion_lon": 0.0}, {"lat": 38.923803, "is_disabled": 0, "type": "electric_scooter", "lon": -77.0255865, "bike_id": "eaad7ae69cae2695b4f4b2056df5b927", "fusion_lat": 0.0, "name": "eaad7ae69cae2695b4f4b2056df5b927", "is_reserved": 0, "rental_uris": {"android": "https://dc.lft.to/lastmile_qr_scan", "ios": "https://dc.lft.to/lastmile_qr_scan"}, "fusion_lon": 0.0}, {"lat": 38.852097666666666, "is_disabled": 0, "type": "electric_bike", "lon": -77.10128766666666, "bike_id": "36d05face3a0962529bf8edaa2cbd5c5", "fusion_lat": 0.0, "name": "36d05face3a0962529bf8edaa2cbd5c5", "is_reserved": 0, "rental_uris": {"android": "https://dc.lft.to/lastmile_qr_scan", "ios": "https://dc.lft.to/lastmile_qr_scan"}, "fusion_lon": 0.0}, {"lat": 38.88399783333333, "is_disabled": 0, "type": "electric_bike", "lon": -76.96059733333334, "bike_id": "09b02f9cb54cc757dfa6d6e7d672274f", "fusion_lat": 0.0, "name": "09b02f9cb54cc757dfa6d6e7d672274f", "is_reserved": 0, "rental_uris": {"android": "https://dc.lft.to/lastmile_qr_scan", "ios": "https://dc.lft.to/lastmile_qr_scan"}, "fusion_lon": 0.0}, {"lat": 38.8996295, "is_disabled": 0, "type": "electric_scooter", "lon": -77.02564683333334, "bike_id": "6a80df9c996691cffe5a9ecf13e0ecf7", "fusion_lat": 0.0, "name": "6a80df9c996691cffe5a9ecf13e0ecf7", "is_reserved": 0, "rental_uris": {"android": "https://dc.lft.to/lastmile_qr_scan", "ios": "https://dc.lft.to/lastmile_qr_scan"}, "fusion_lon": 0.0}, {"lat": 38.970934666666665, "is_disabled": 0, "type": "electric_bike", "lon": -77.06963633333334, "bike_id": "cdb4299f8bb5338617d645b966f04313", "fusion_lat": 0.0, "name": "cdb4299f8bb5338617d645b966f04313", "is_reserved": 0, "rental_uris": {"android": "https://dc.lft.to/lastmile_qr_scan", "ios": "https://dc.lft.to/lastmile_qr_scan"}, "fusion_lon": 0.0}, {"lat": 38.9019815, "is_disabled": 0, "type": "electric_scooter", "lon": -77.0218015, "bike_id": "3c04ab7eb82e9af8bac2f9941506e6c4", "fusion_lat": 0.0, "name": "3c04ab7eb82e9af8bac2f9941506e6c4", "is_reserved": 0, "rental_uris": {"android": "https://dc.lft.to/lastmile_qr_scan", "ios": "https://dc.lft.to/lastmile_qr_scan"}, "fusion_lon": 0.0}, {"lat": 38.911904, "is_disabled": 0, "type": "electric_scooter", "lon": -77.040255, "bike_id": "c50c3496515b3c0efc761e61649f8cab", "fusion_lat": 0.0, "name": "c50c3496515b3c0efc761e61649f8cab", "is_reserved": 0, "rental_uris": {"android": "https://dc.lft.to/lastmile_qr_scan", "ios": "https://dc.lft.to/lastmile_qr_scan"}, "fusion_lon": 0.0}, {"lat": 38.898775, "is_disabled": 0, "type": "electric_scooter", "lon": -76.93185516666667, "bike_id": "ee8df6f8c63e50985813eb5c94d6fd62", "fusion_lat": 0.0, "name": "ee8df6f8c63e50985813eb5c94d6fd62", "is_reserved": 0, "rental_uris": {"android": "https://dc.lft.to/lastmile_qr_scan", "ios": "https://dc.lft.to/lastmile_qr_scan"}, "fusion_lon": 0.0}, {"lat": 38.87925166666667, "is_disabled": 0, "type": "electric_scooter", "lon": -77.03091533333334, "bike_id": "6078fe2afc066d5a863b18dc6cb817fa", "fusion_lat": 0.0, "name": "6078fe2afc066d5a863b18dc6cb817fa", "is_reserved": 0, "rental_uris": {"android": "https://dc.lft.to/lastmile_qr_scan", "ios": "https://dc.lft.to/lastmile_qr_scan"}, "fusion_lon": 0.0}, {"lat": 38.9027635, "is_disabled": 0, "type": "electric_scooter", "lon": -77.0387435, "bike_id": "3c8f23845de3729706561720b0cc8d24", "fusion_lat": 0.0, "name": "3c8f23845de3729706561720b0cc8d24", "is_reserved": 0, "rental_uris": {"android": "https://dc.lft.to/lastmile_qr_scan", "ios": "https://dc.lft.to/lastmile_qr_scan"}, "fusion_lon": 0.0}, {"lat": 38.9056385, "is_disabled": 0, "type": "electric_scooter", "lon": -77.00599966666667, "bike_id": "bfad7b97077f828cb9240f6853f297b0", "fusion_lat": 0.0, "name": "bfad7b97077f828cb9240f6853f297b0", "is_reserved": 0, "rental_uris": {"android": "https://dc.lft.to/lastmile_qr_scan", "ios": "https://dc.lft.to/lastmile_qr_scan"}, "fusion_lon": 0.0}, {"lat": 38.908134, "is_disabled": 0, "type": "electric_scooter", "lon": -77.04347916666667, "bike_id": "40a644ecff8f5973a89c2aaf35aa3ba0", "fusion_lat": 0.0, "name": "40a644ecff8f5973a89c2aaf35aa3ba0", "is_reserved": 0, "rental_uris": {"android": "https://dc.lft.to/lastmile_qr_scan", "ios": "https://dc.lft.to/lastmile_qr_scan"}, "fusion_lon": 0.0}, {"lat": 38.927642, "is_disabled": 0, "type": "electric_scooter", "lon": -77.026158, "bike_id": "2d2dc8df6d25358578014d276a224470", "fusion_lat": 0.0, "name": "2d2dc8df6d25358578014d276a224470", "is_reserved": 0, "rental_uris": {"android": "https://dc.lft.to/lastmile_qr_scan", "ios": "https://dc.lft.to/lastmile_qr_scan"}, "fusion_lon": 0.0}, {"lat": 38.922907, "is_disabled": 0, "type": "electric_scooter", "lon": -77.0319695, "bike_id": "ea65a52b10c16613c2b4adb6b74a617e", "fusion_lat": 0.0, "name": "ea65a52b10c16613c2b4adb6b74a617e", "is_reserved": 0, "rental_uris": {"android": "https://dc.lft.to/lastmile_qr_scan", "ios": "https://dc.lft.to/lastmile_qr_scan"}, "fusion_lon": 0.0}, {"lat": 38.92252416666667, "is_disabled": 0, "type": "electric_scooter", "lon": -77.03467833333333, "bike_id": "da8fa336f68cef69b63fbfe7458656e5", "fusion_lat": 0.0, "name": "da8fa336f68cef69b63fbfe7458656e5", "is_reserved": 0, "rental_uris": {"android": "https://dc.lft.to/lastmile_qr_scan", "ios": "https://dc.lft.to/lastmile_qr_scan"}, "fusion_lon": 0.0}, {"lat": 38.981351833333335, "is_disabled": 0, "type": "electric_bike", "lon": -77.00767383333333, "bike_id": "6415dddaacfc1e530755acbcd7c4d8ba", "fusion_lat": 0.0, "name": "6415dddaacfc1e530755acbcd7c4d8ba", "is_reserved": 0, "rental_uris": {"android": "https://dc.lft.to/lastmile_qr_scan", "ios": "https://dc.lft.to/lastmile_qr_scan"}, "fusion_lon": 0.0}, {"lat": 38.912450166666666, "is_disabled": 0, "type": "electric_scooter", "lon": -77.04759316666667, "bike_id": "f0c8450c81dc1317afe453e2cf3cd5e0", "fusion_lat": 0.0, "name": "f0c8450c81dc1317afe453e2cf3cd5e0", "is_reserved": 0, "rental_uris": {"android": "https://dc.lft.to/lastmile_qr_scan", "ios": "https://dc.lft.to/lastmile_qr_scan"}, "fusion_lon": 0.0}, {"lat": 38.935158, "is_disabled": 0, "type": "electric_scooter", "lon": -77.03349566666667, "bike_id": "dcc554a97c08c1aef4d6548d2c8235b6", "fusion_lat": 0.0, "name": "dcc554a97c08c1aef4d6548d2c8235b6", "is_reserved": 0, "rental_uris": {"android": "https://dc.lft.to/lastmile_qr_scan", "ios": "https://dc.lft.to/lastmile_qr_scan"}, "fusion_lon": 0.0}, {"lat": 38.90459516666667, "is_disabled": 0, "type": "electric_scooter", "lon": -77.062904, "bike_id": "ebeb69a33be415a04fc33398dabaa0bc", "fusion_lat": 0.0, "name": "ebeb69a33be415a04fc33398dabaa0bc", "is_reserved": 0, "rental_uris": {"android": "https://dc.lft.to/lastmile_qr_scan", "ios": "https://dc.lft.to/lastmile_qr_scan"}, "fusion_lon": 0.0}, {"lat": 38.91259933333333, "is_disabled": 0, "type": "electric_scooter", "lon": -77.03871316666667, "bike_id": "0887eff597703a19a3568a0e7166f944", "fusion_lat": 0.0, "name": "0887eff597703a19a3568a0e7166f944", "is_reserved": 0, "rental_uris": {"android": "https://dc.lft.to/lastmile_qr_scan", "ios": "https://dc.lft.to/lastmile_qr_scan"}, "fusion_lon": 0.0}, {"lat": 38.90043266666667, "is_disabled": 0, "type": "electric_scooter", "lon": -76.99503383333334, "bike_id": "0ab03b607a2bde5527cd8e2148682a7f", "fusion_lat": 0.0, "name": "0ab03b607a2bde5527cd8e2148682a7f", "is_reserved": 0, "rental_uris": {"android": "https://dc.lft.to/lastmile_qr_scan", "ios": "https://dc.lft.to/lastmile_qr_scan"}, "fusion_lon": 0.0}, {"lat": 38.87692083333334, "is_disabled": 0, "type": "electric_bike", "lon": -77.01757416666666, "bike_id": "b903466a1f862699b312c0299faf2000", "fusion_lat": 0.0, "name": "b903466a1f862699b312c0299faf2000", "is_reserved": 0, "rental_uris": {"android": "https://dc.lft.to/lastmile_qr_scan", "ios": "https://dc.lft.to/lastmile_qr_scan"}, "fusion_lon": 0.0}, {"lat": 38.909830166666666, "is_disabled": 0, "type": "electric_scooter", "lon": -76.984713, "bike_id": "73203c167278e203281e28e16f1ed435", "fusion_lat": 0.0, "name": "73203c167278e203281e28e16f1ed435", "is_reserved": 0, "rental_uris": {"android": "https://dc.lft.to/lastmile_qr_scan", "ios": "https://dc.lft.to/lastmile_qr_scan"}, "fusion_lon": 0.0}, {"lat": 38.908517, "is_disabled": 0, "type": "electric_scooter", "lon": -76.99964466666667, "bike_id": "eb7c0a9777810387de56311fd1951eda", "fusion_lat": 0.0, "name": "eb7c0a9777810387de56311fd1951eda", "is_reserved": 0, "rental_uris": {"android": "https://dc.lft.to/lastmile_qr_scan", "ios": "https://dc.lft.to/lastmile_qr_scan"}, "fusion_lon": 0.0}, {"lat": 38.933446, "is_disabled": 0, "type": "electric_scooter", "lon": -77.02622283333334, "bike_id": "1e2fd5354d081970a02259b21d5e97ab", "fusion_lat": 0.0, "name": "1e2fd5354d081970a02259b21d5e97ab", "is_reserved": 0, "rental_uris": {"android": "https://dc.lft.to/lastmile_qr_scan", "ios": "https://dc.lft.to/lastmile_qr_scan"}, "fusion_lon": 0.0}, {"lat": 38.839858, "is_disabled": 0, "type": "electric_bike", "lon": -77.0056915, "bike_id": "eb423c59bf7c19dd04d7067d4e565379", "fusion_lat": 0.0, "name": "eb423c59bf7c19dd04d7067d4e565379", "is_reserved": 0, "rental_uris": {"android": "https://dc.lft.to/lastmile_qr_scan", "ios": "https://dc.lft.to/lastmile_qr_scan"}, "fusion_lon": 0.0}, {"lat": 38.92048166666667, "is_disabled": 0, "type": "electric_scooter", "lon": -77.03410283333334, "bike_id": "a00949201bd348559e183cf0ea2fe782", "fusion_lat": 0.0, "name": "a00949201bd348559e183cf0ea2fe782", "is_reserved": 0, "rental_uris": {"android": "https://dc.lft.to/lastmile_qr_scan", "ios": "https://dc.lft.to/lastmile_qr_scan"}, "fusion_lon": 0.0}, {"lat": 38.92405183333333, "is_disabled": 0, "type": "electric_scooter", "lon": -77.05257283333333, "bike_id": "28b325bdadb9636ff8e1b79a66954bc0", "fusion_lat": 0.0, "name": "28b325bdadb9636ff8e1b79a66954bc0", "is_reserved": 0, "rental_uris": {"android": "https://dc.lft.to/lastmile_qr_scan", "ios": "https://dc.lft.to/lastmile_qr_scan"}, "fusion_lon": 0.0}, {"lat": 38.890076, "is_disabled": 0, "type": "electric_scooter", "lon": -76.937447, "bike_id": "f8dfded31f8526684c6bbc38936b71e4", "fusion_lat": 0.0, "name": "f8dfded31f8526684c6bbc38936b71e4", "is_reserved": 0, "rental_uris": {"android": "https://dc.lft.to/lastmile_qr_scan", "ios": "https://dc.lft.to/lastmile_qr_scan"}, "fusion_lon": 0.0}, {"lat": 38.9247055, "is_disabled": 0, "type": "electric_scooter", "lon": -77.03535283333333, "bike_id": "4170b477e8ecb8e62e1b7d463daaf0c5", "fusion_lat": 0.0, "name": "4170b477e8ecb8e62e1b7d463daaf0c5", "is_reserved": 0, "rental_uris": {"android": "https://dc.lft.to/lastmile_qr_scan", "ios": "https://dc.lft.to/lastmile_qr_scan"}, "fusion_lon": 0.0}, {"lat": 38.86526583333333, "is_disabled": 0, "type": "electric_scooter", "lon": -76.99026966666666, "bike_id": "a235c840af704718da2d2d1d6b82cab0", "fusion_lat": 0.0, "name": "a235c840af704718da2d2d1d6b82cab0", "is_reserved": 0, "rental_uris": {"android": "https://dc.lft.to/lastmile_qr_scan", "ios": "https://dc.lft.to/lastmile_qr_scan"}, "fusion_lon": 0.0}, {"lat": 38.909976, "is_disabled": 0, "type": "electric_scooter", "lon": -77.0400615, "bike_id": "2251a9ddc12154f55a24af7746db853a", "fusion_lat": 0.0, "name": "2251a9ddc12154f55a24af7746db853a", "is_reserved": 0, "rental_uris": {"android": "https://dc.lft.to/lastmile_qr_scan", "ios": "https://dc.lft.to/lastmile_qr_scan"}, "fusion_lon": 0.0},