{"data": {"bikes": [{"fusion_lat": 0.0, "lon": -77.03677066666667, "is_reserved": 0, "bike_id": "9381df59091436bbf6c9bca48e4503e9", "fusion_lon": 0.0, "rental_uris": {"android": "https://dc.lft.to/lastmile_qr_scan", "ios": "https://dc.lft.to/lastmile_qr_scan"}, "name": "9381df59091436bbf6c9bca48e4503e9", "type": "electric_scooter", "lat": 38.92036516666667, "is_disabled": 0}, {"fusion_lat": 0.0, "lon": -77.00039683333334, "is_reserved": 0, "bike_id": "7de5c12e06c74a2f62e9024ade925267", "fusion_lon": 0.0, "rental_uris": {"android": "https://dc.lft.to/lastmile_qr_scan", "ios": "https://dc.lft.to/lastmile_qr_scan"}, "name": "7de5c12e06c74a2f62e9024ade925267", "type": "electric_scooter", "lat": 38.897416666666665, "is_disabled": 0}, {"fusion_lat": 0.0, "lon": -77.02369416666667, "is_reserved": 0, "bike_id": "ff74c8484c8eb0470a92a82a196df776", "fusion_lon": 0.0, "rental_uris": {"android": "https://dc.lft.to/lastmile_qr_scan", "ios": "https://dc.lft.to/lastmile_qr_scan"}, "name": "ff74c8484c8eb0470a92a82a196df776", "type": "electric_scooter", "lat": 38.897779166666666, "is_disabled": 0}, {"fusion_lat": 0.0, "lon": -76.945385, "is_reserved": 0, "bike_id": "203d4e867dd40bb6d176e0b50f78d9f2", "fusion_lon": 0.0, "rental_uris": {"android": "https://dc.lft.to/lastmile_qr_scan", "ios": "https://dc.lft.to/lastmile_qr_scan"}, "name": "203d4e867dd40bb6d176e0b50f78d9f2", "type": "electric_bike", "lat": 38.867559, "is_disabled": 0}, {"fusion_lat": 0.0, "lon": -76.98660116666667, "is_reserved": 0, "bike_id": "ba177b5c4d4ca1830d92ba6a9b1390b7", "fusion_lon": 0.0, "rental_uris": {"android": "https://dc.lft.to/lastmile_qr_scan", "ios": "https://dc.lft.to/lastmile_qr_scan"}, "name": "ba177b5c4d4ca1830d92ba6a9b1390b7", "type": "electric_scooter", "lat": 38.867292666666664, "is_disabled": 0}, {"fusion_lat": 0.0, "lon": -76.95468066666666, "is_reserved": 0, "bike_id": "e893c37956ffb068cd9876dfe28d5ffe", "fusion_lon": 0.0, "rental_uris": {"android": "https://dc.lft.to/lastmile_qr_scan", "ios": "https://dc.lft.to/lastmile_qr_scan"}, "name": "e893c37956ffb068cd9876dfe28d5ffe", "type": "electric_scooter", "lat": 38.8863985, "is_disabled": 0}, {"fusion_lat": 0.0, "lon": -77.03329333333333, "is_reserved": 0, "bike_id": "c0637acf6db712e44b7f96b6706f62c8", "fusion_lon": 0.0, "rental_uris": {"android": "https://dc.lft.to/lastmile_qr_scan", "ios": "https://dc.lft.to/lastmile_qr_scan"}, "name": "c0637acf6db712e44b7f96b6706f62c8", "type": "electric_scooter", "lat": 38.91312683333334, "is_disabled": 0}, {"fusion_lat": 0.0, "lon": -77.00970766666667, "is_reserved": 0, "bike_id": "0538231ed6c3e28dbed2f0602c64a395", "fusion_lon": 0.0, "rental_uris": {"android": "https://dc.lft.to/lastmile_qr_scan", "ios": "https://dc.lft.to/lastmile_qr_scan"}, "name": "0538231ed6c3e28dbed2f0602c64a395", "type": "electric_scooter", "lat": 38.90782933333333, "is_disabled": 0}, {"fusion_lat": 0.0, "lon": -77.18310633333333, "is_reserved": 0, "bike_id": "16b444989c0ed02eef644c16ecc0a08e", "fusion_lon": 0.0, "rental_uris": {"android": "https://dc.lft.to/lastmile_qr_scan", "ios": "https://dc.lft.to/lastmile_qr_scan"}, "name": "16b444989c0ed02eef644c16ecc0a08e", "type": "electric_bike", "lat": 38.8909395, "is_disabled": 0}, {"fusion_lat": 0.0, "lon": -77.02232116666667, "is_reserved": 0, "bike_id": "2f023e4de5f1239c29a1545a855dbf6c", "fusion_lon": 0.0, "rental_uris": {"android": "https://dc.lft.to/lastmile_qr_scan", "ios": "https://dc.lft.to/lastmile_qr_scan"}, "name": "2f023e4de5f1239c29a1545a855dbf6c", "type": "electric_scooter", "lat": 38.89220383333333, "is_disabled": 0}, {"fusion_lat": 0.0, "lon": -77.000533, "is_reserved": 0, "bike_id": "e4fbde78d670ac20b992a4781c9bfd46", "fusion_lon": 0.0, "rental_uris": {"android": "https://dc.lft.to/lastmile_qr_scan", "ios": "https://dc.lft.to/lastmile_qr_scan"}, "name": "e4fbde78d670ac20b992a4781c9bfd46", "type": "electric_scooter", "lat": 38.89630183333333, "is_disabled": 0}, {"fusion_lat": 0.0, "lon": -76.939859, "is_reserved": 0, "bike_id": "c25bead890731612b5387b6942a64582", "fusion_lon": 0.0, "rental_uris": {"android": "https://dc.lft.to/lastmile_qr_scan", "ios": "https://dc.lft.to/lastmile_qr_scan"}, "name": "c25bead890731612b5387b6942a64582", "type": "electric_scooter", "lat": 38.89979133333333, "is_disabled": 0}, {"fusion_lat": 0.0, "lon": -77.03841566666667, "is_reserved": 0, "bike_id": "924c04a88c830746a6f0dbd18e92f6bd", "fusion_lon": 0.0, "rental_uris": {"android": "https://dc.lft.to/lastmile_qr_scan", "ios": "https://dc.lft.to/lastmile_qr_scan"}, "name": "924c04a88c830746a6f0dbd18e92f6bd", "type": "electric_scooter", "lat": 38.916373, "is_disabled": 0}, {"fusion_lat": 0.0, "lon": -77.03668966666666, "is_reserved": 0, "bike_id": "adcedf6e2242c21208c3934be1d9ed82", "fusion_lon": 0.0, "rental_uris": {"android": "https://dc.lft.to/lastmile_qr_scan", "ios": "https://dc.lft.to/lastmile_qr_scan"}, "name": "adcedf6e2242c21208c3934be1d9ed82", "type": "electric_scooter", "lat": 38.92321283333333, "is_disabled": 0}, {"fusion_lat": 0.0, "lon": -77.02185683333333, "is_reserved": 0, "bike_id": "cf3021a2b0e05f3ec141c94fa5f19774", "fusion_lon": 0.0, "rental_uris": {"android": "https://dc.lft.to/lastmile_qr_scan", "ios": "https://dc.lft.to/lastmile_qr_scan"}, "name": "cf3021a2b0e05f3ec141c94fa5f19774", "type": "electric_scooter", "lat": 38.899923, "is_disabled": 0}, {"fusion_lat": 0.0, "lon": -77.02902666666667, "is_reserved": 0, "bike_id": "aa03a69ce9388eee8d2e75bf0ce52cf5", "fusion_lon": 0.0, "rental_uris": {"android": "https://dc.lft.to/lastmile_qr_scan", "ios": "https://dc.lft.to/lastmile_qr_scan"}, "name": "aa03a69ce9388eee8d2e75bf0ce52cf5", "type": "electric_scooter", "lat": 38.940386, "is_disabled": 0}, {"fusion_lat": 0.0, "lon": -76.93370883333333, "is_reserved": 0, "bike_id": "1ed4af09481213a7c473b34c40a53a0b", "fusion_lon": 0.0, "rental_uris": {"android": "https://dc.lft.to/lastmile_qr_scan", "ios": "https://dc.lft.to/lastmile_qr_scan"}, "name": "1ed4af09481213a7c473b34c40a53a0b", "type": "electric_scooter", "lat": 38.899119166666665, "is_disabled": 0}, {"fusion_lat": 0.0, "lon": -77.024826, "is_reserved": 0, "bike_id": "f862f21238df5279e22db3886bce4ea6", "fusion_lon": 0.0, "rental_uris": {"android": "https://dc.lft.to/lastmile_qr_scan", "ios": "https://dc.lft.to/lastmile_qr_scan"}, "name": "f862f21238df5279e22db3886bce4ea6", "type": "electric_scooter", "lat": 38.93879166666667, "is_disabled": 0}, {"fusion_lat": 0.0, "lon": -77.016517, "is_reserved": 0, "bike_id": "9b339e6abdb86ab7afe2c5293d6e6683", "fusion_lon": 0.0, "rental_uris": {"android": "https://dc.lft.to/lastmile_qr_scan", "ios": "https://dc.lft.to/lastmile_qr_scan"}, "name": "9b339e6abdb86ab7afe2c5293d6e6683", "type": "electric_scooter", "lat": 38.88123433333333, "is_disabled": 0}, {"fusion_lat": 0.0, "lon": -76.98075116666666, "is_reserved": 0, "bike_id": "dc143fb556244331d53db5230e1a14f0", "fusion_lon": 0.0, "rental_uris": {"android": "https://dc.lft.to/lastmile_qr_scan", "ios": "https://dc.lft.to/lastmile_qr_scan"}, "name": "dc143fb556244331d53db5230e1a14f0", "type": "electric_scooter", "lat": 38.9017195, "is_disabled": 0}, {"fusion_lat": 0.0, "lon": -77.03801, "is_reserved": 0, "bike_id": "b9033510cdee9e3a5e0e66f826515c20", "fusion_lon": 0.0, "rental_uris": {"android": "https://dc.lft.to/lastmile_qr_scan", "ios": "https://dc.lft.to/lastmile_qr_scan"}, "name": "b9033510cdee9e3a5e0e66f826515c20", "type": "electric_scooter", "lat": 38.910369833333334, "is_disabled": 0}, {"fusion_lat": 0.0, "lon": -77.0251475, "is_reserved": 0, "bike_id": "55d19db66096612c1be90d7bc2e5e574", "fusion_lon": 0.0, "rental_uris": {"android": "https://dc.lft.to/lastmile_qr_scan", "ios": "https://dc.lft.to/lastmile_qr_scan"}, "name": "55d19db66096612c1be90d7bc2e5e574", "type": "electric_scooter", "lat": 38.919143166666665, "is_disabled": 0}, {"fusion_lat": 0.0, "lon": -77.05758616666667, "is_reserved": 0, "bike_id": "c583473a48e18fd21f16332cd29c6db6", "fusion_lon": 0.0, "rental_uris": {"android": "https://dc.lft.to/lastmile_qr_scan", "ios": "https://dc.lft.to/lastmile_qr_scan"}, "name": "c583473a48e18fd21f16332cd29c6db6", "type": "electric_scooter", "lat": 38.924672, "is_disabled": 0}, {"fusion_lat": 0.0, "lon": -77.10095283333334, "is_reserved": 0, "bike_id": "395d21543d69ac033a620a0b9c38bfb2", "fusion_lon": 0.0, "rental_uris": {"android": "https://dc.lft.to/lastmile_qr_scan", "ios": "https://dc.lft.to/lastmile_qr_scan"}, "name": "395d21543d69ac033a620a0b9c38bfb2", "type": "electric_bike", "lat": 38.959602833333335, "is_disabled": 0}, {"fusion_lat": 0.0, "lon": -77.01161283333333, "is_reserved": 0, "bike_id": "5bf44228b322b5d2c3f0486409ce3971", "fusion_lon": 0.0, "rental_uris": {"android": "https://dc.lft.to/lastmile_qr_scan", "ios": "https://dc.lft.to/lastmile_qr_scan"}, "name": "5bf44228b322b5d2c3f0486409ce3971", "type": "electric_scooter", "lat": 38.90033, "is_disabled": 0}, {"fusion_lat": 0.0, "lon": -77.01095866666667, "is_reserved": 0, "bike_id": "f1a124e2774e91b294e7ee4e8437d42f", "fusion_lon": 0.0, "rental_uris": {"android": "https://dc.lft.to/lastmile_qr_scan", "ios": "https://dc.lft.to/lastmile_qr_scan"}, "name": "f1a124e2774e91b294e7ee4e8437d42f", "type": "electric_bike", "lat": 38.87304533333333, "is_disabled": 0}, {"fusion_lat": 0.0, "lon": -76.99409133333333, "is_reserved": 0, "bike_id": "62526a6fe917953ab572d1bd902df6a4", "fusion_lon": 0.0, "rental_uris": {"android": "https://dc.lft.to/lastmile_qr_scan", "ios": "https://dc.lft.to/lastmile_qr_scan"}, "name": "62526a6fe917953ab572d1bd902df6a4", "type": "electric_bike", "lat": 38.83137283333333, "is_disabled": 0}, {"fusion_lat": 0.0, "lon": -77.03301166666667, "is_reserved": 0, "bike_id": "034c2a86579eaad47a2ec61741bf3f2a", "fusion_lon": 0.0, "rental_uris": {"android": "https://dc.lft.to/lastmile_qr_scan", "ios": "https://dc.lft.to/lastmile_qr_scan"}, "name": "034c2a86579eaad47a2ec61741bf3f2a", "type": "electric_bike", "lat": 38.9235095, "is_disabled": 0}, {"fusion_lat": 0.0, "lon": -76.95720733333333, "is_reserved": 0, "bike_id": "88b2c0f94db6b7d9910122729f1e9a08", "fusion_lon": 0.0, "rental_uris": {"android": "https://dc.lft.to/lastmile_qr_scan", "ios": "https://dc.lft.to/lastmile_qr_scan"}, "name": "88b2c0f94db6b7d9910122729f1e9a08", "type": "electric_scooter", "lat": 38.888727833333334, "is_disabled": 0}, {"fusion_lat": 0.0, "lon": -77.089412, "is_reserved": 0, "bike_id": "192f897de30abf943adf4b7fdd1621b9", "fusion_lon": 0.0, "rental_uris": {"android": "https://dc.lft.to/lastmile_qr_scan", "ios": "https://dc.lft.to/lastmile_qr_scan"}, "name": "192f897de30abf943adf4b7fdd1621b9", "type": "electric_bike", "lat": 38.84108116666667, "is_disabled": 0}, {"fusion_lat": 0.0, "lon": -77.02551866666667, "is_reserved": 0, "bike_id": "f68c45ff7ac963d84ff3dfa33330b956", "fusion_lon": 0.0, "rental_uris": {"android": "https://dc.lft.to/lastmile_qr_scan", "ios": "https://dc.lft.to/lastmile_qr_scan"}, "name": "f68c45ff7ac963d84ff3dfa33330b956", "type": "electric_scooter", "lat": 38.9247185, "is_disabled": 0}, {"fusion_lat": 0.0, "lon": -77.01314516666666, "is_reserved": 0, "bike_id": "279915423319d7604fc66b1cf49f0715", "fusion_lon": 0.0, "rental_uris": {"android": "https://dc.lft.to/lastmile_qr_scan", "ios": "https://dc.lft.to/lastmile_qr_scan"}, "name": "279915423319d7604fc66b1cf49f0715", "type": "electric_scooter", "lat": 38.90079983333333, "is_disabled": 0}, {"fusion_lat": 0.0, "lon": -77.01368433333333, "is_reserved": 0, "bike_id": "22adaa65fbec33700b93b7b7a5153fac", "fusion_lon": 0.0, "rental_uris": {"android": "https://dc.lft.to/lastmile_qr_scan", "ios": "https://dc.lft.to/lastmile_qr_scan"}, "name": "22adaa65fbec33700b93b7b7a5153fac", "type": "electric_scooter", "lat": 38.88705233333334, "is_disabled": 0}, {"fusion_lat": 0.0, "lon": -77.01268833333333, "is_reserved": 0, "bike_id": "87a98b51e29d34ded46360b274a1fb4d", "fusion_lon": 0.0, "rental_uris": {"android": "https://dc.lft.to/lastmile_qr_scan", "ios": "https://dc.lft.to/lastmile_qr_scan"}, "name": "87a98b51e29d34ded46360b274a1fb4d", "type": "electric_scooter", "lat": 38.914201, "is_disabled": 0}, {"fusion_lat": 0.0, "lon": -76.93368616666666, "is_reserved": 0, "bike_id": "aeb5113edf2608f9abf753eccb924363", "fusion_lon": 0.0, "rental_uris": {"android": "https://dc.lft.to/lastmile_qr_scan", "ios": "https://dc.lft.to/lastmile_qr_scan"}, "name": "aeb5113edf2608f9abf753eccb924363", "type": "electric_scooter", "lat": 38.899158, "is_disabled": 0}, {"fusion_lat": 0.0, "lon": -76.95096, "is_reserved": 0, "bike_id": "d96af2907a16a2c00dd4feb4397c2fd3", "fusion_lon": 0.0, "rental_uris": {"android": "https://dc.lft.to/lastmile_qr_scan", "ios": "https://dc.lft.to/lastmile_qr_scan"}, "name": "d96af2907a16a2c00dd4feb4397c2fd3", "type": "electric_scooter", "lat": 38.8844805, "is_disabled": 0}, {"fusion_lat": 0.0, "lon": -77.03497966666667, "is_reserved": 0, "bike_id": "d7f221d73caa5c99c1457a6bdbdb7b46", "fusion_lon": 0.0, "rental_uris": {"android": "https://dc.lft.to/lastmile_qr_scan", "ios": "https://dc.lft.to/lastmile_qr_scan"}, "name": "d7f221d73caa5c99c1457a6bdbdb7b46", "type": "electric_scooter", "lat": 38.92342466666667, "is_disabled": 0}, {"fusion_lat": 0.0, "lon": -77.02396466666667, "is_reserved": 0, "bike_id": "68df36e0915ea179776e4fcf8b1637d9", "fusion_lon": 0.0, "rental_uris": {"android": "https://dc.lft.to/lastmile_qr_scan", "ios": "https://dc.lft.to/lastmile_qr_scan"}, "name": "68df36e0915ea179776e4fcf8b1637d9", "type": "electric_scooter", "lat": 38.92004633333333, "is_disabled": 0}, {"fusion_lat": 0.0, "lon": -77.01204666666666, "is_reserved": 0, "bike_id": "b24d35729d84530527b94227e0743338", "fusion_lon": 0.0, "rental_uris": {"android": "https://dc.lft.to/lastmile_qr_scan", "ios": "https://dc.lft.to/lastmile_qr_scan"}, "name": "b24d35729d84530527b94227e0743338", "type": "electric_bike", "lat": 38.87096433333333, "is_disabled": 0}, {"fusion_lat": 0.0, "lon": -76.99602466666667, "is_reserved": 0, "bike_id": "ef6963f2ced0e27c6b6598b2f35768e0", "fusion_lon": 0.0, "rental_uris": {"android": "https://dc.lft.to/lastmile_qr_scan", "ios": "https://dc.lft.to/lastmile_qr_scan"}, "name": "ef6963f2ced0e27c6b6598b2f35768e0", "type": "electric_scooter", "lat": 38.892249166666666, "is_disabled": 0}, {"fusion_lat": 0.0, "lon": -77.02286216666667, "is_reserved": 0, "bike_id": "871c0545a40a83ae6aeb394302cff4c8", "fusion_lon": 0.0, "rental_uris": {"android": "https://dc.lft.to/lastmile_qr_scan", "ios": "https://dc.lft.to/lastmile_qr_scan"}, "name": "871c0545a40a83ae6aeb394302cff4c8", "type": "electric_scooter", "lat": 38.927174, "is_disabled": 0}, {"fusion_lat": 0.0, "lon": -77.0422915, "is_reserved": 0, "bike_id": "5c7e103ea7fc6a9d43ee5feb3f6055f5", "fusion_lon": 0.0, "rental_uris": {"android": "https://dc.lft.to/lastmile_qr_scan", "ios": "https://dc.lft.to/lastmile_qr_scan"}, "name": "5c7e103ea7fc6a9d43ee5feb3f6055f5", "type": "electric_scooter", "lat": 38.9217565, "is_disabled": 0}, {"fusion_lat": 0.0, "lon": -77.02859683333334, "is_reserved": 0, "bike_id": "edcab2457ae175413060d733e794388a", "fusion_lon": 0.0, "rental_uris": {"android": "https://dc.lft.to/lastmile_qr_scan", "ios": "https://dc.lft.to/lastmile_qr_scan"}, "name": "edcab2457ae175413060d733e794388a", "type": "electric_scooter", "lat": 38.91169266666667, "is_disabled": 0}, {"fusion_lat": 0.0, "lon": -77.0543055, "is_reserved": 0, "bike_id": "3c1328ebe18dd03260adb77997cf9cdc", "fusion_lon": 0.0, "rental_uris": {"android": "https://dc.lft.to/lastmile_qr_scan", "ios": "https://dc.lft.to/lastmile_qr_scan"}, "name": "3c1328ebe18dd03260adb77997cf9cdc", "type": "electric_scooter", "lat": 38.92346333333333, "is_disabled": 0}, {"fusion_lat": 0.0, "lon": -77.0424755, "is_reserved": 0, "bike_id": "81eb80df9668599a3430927a3bc13f12", "fusion_lon": 0.0, "rental_uris": {"android": "https://dc.lft.to/lastmile_qr_scan", "ios": "https://dc.lft.to/lastmile_qr_scan"}, "name": "81eb80df9668599a3430927a3bc13f12", "type": "electric_scooter", "lat": 38.906434, "is_disabled": 0}, {"fusion_lat": 0.0, "lon": -77.02894933333333, "is_reserved": 0, "bike_id": "902502bf58acd856d97154aa44eb873c", "fusion_lon": 0.0, "rental_uris": {"android": "https://dc.lft.to/lastmile_qr_scan", "ios": "https://dc.lft.to/lastmile_qr_scan"}, "name": "902502bf58acd856d97154aa44eb873c", "type": "electric_scooter", "lat": 38.90314683333333, "is_disabled": 0}, {"fusion_lat": 0.0, "lon": -77.04669766666666, "is_reserved": 0, "bike_id": "0bb278b226cf5e4d6c9a1abe3bdd1861", "fusion_lon": 0.0, "rental_uris": {"android": "https://dc.lft.to/lastmile_qr_scan", "ios": "https://dc.lft.to/lastmile_qr_scan"}, "name": "0bb278b226cf5e4d6c9a1abe3bdd1861", "type": "electric_scooter", "lat": 38.913397333333336, "is_disabled": 0}, {"fusion_lat": 0.0, "lon": -77.019881, "is_reserved": 0, "bike_id": "5788081ce001e0c330a2004b1f9a57f4", "fusion_lon": 0.0, "rental_uris": {"android": "https://dc.lft.to/lastmile_qr_scan", "ios": "https://dc.lft.to/lastmile_qr_scan"}, "name": "5788081ce001e0c330a2004b1f9a57f4", "type": "electric_scooter", "lat": 38.91428166666667, "is_disabled": 0}, {"fusion_lat": 0.0, "lon": -77.01009483333333, "is_reserved": 0, "bike_id": "78d34e1377f71a0fabc969fc69bdb89a", "fusion_lon": 0.0, "rental_uris": {"android": "https://dc.lft.to/lastmile_qr_scan", "ios": "https://dc.lft.to/lastmile_qr_scan"}, "name": "78d34e1377f71a0fabc969fc69bdb89a", "type": "electric_bike", "lat": 38.87962, "is_disabled": 0}, {"fusion_lat": 0.0, "lon": -77.02746616666667, "is_reserved": 0, "bike_id": "8d8eb4d38afc169162270eeaa6c5bba5", "fusion_lon": 0.0, "rental_uris": {"android": "https://dc.lft.to/lastmile_qr_scan", "ios": "https://dc.lft.to/lastmile_qr_scan"}, "name": "8d8eb4d38afc169162270eeaa6c5bba5", "type": "electric_scooter", "lat": 38.9240825, "is_disabled": 0}, {"fusion_lat": 0.0, "lon": -77.03500866666667, "is_reserved": 0, "bike_id": "5c3ad6afd8abfd17c707ed06ad92d114", "fusion_lon": 0.0, "rental_uris": {"android": "https://dc.lft.to/lastmile_qr_scan", "ios": "https://dc.lft.to/lastmile_qr_scan"}, "name": "5c3ad6afd8abfd17c707ed06ad92d114", "type": "electric_scooter", "lat": 38.93264333333333, "is_disabled": 0}, {"fusion_lat": 0.0, "lon": -77.03057466666667, "is_reserved": 0, "bike_id": "b6a78adae96f503f97de5d133cf92ac5", "fusion_lon": 0.0, "rental_uris": {"android": "https://dc.lft.to/lastmile_qr_scan", "ios": "https://dc.lft.to/lastmile_qr_scan"}, "name": "b6a78adae96f503f97de5d133cf92ac5", "type": "electric_scooter", "lat": 38.9237405, "is_disabled": 0}, {"fusion_lat": 0.0, "lon": -77.01903533333333, "is_reserved": 0, "bike_id": "e1873844bc0eca93c8b7d48c796668a5", "fusion_lon": 0.0, "rental_uris": {"android": "https://dc.lft.to/lastmile_qr_scan", "ios": "https://dc.lft.to/lastmile_qr_scan"}, "name": "e1873844bc0eca93c8b7d48c796668a5", "type": "electric_scooter", "lat": 38.941251333333334, "is_disabled": 0}, {"fusion_lat": 0.0, "lon": -77.00748766666666, "is_reserved": 0, "bike_id": "9fea572d7efdd8f5c9f881c92ae88f0f", "fusion_lon": 0.0, "rental_uris": {"android": "https://dc.lft.to/lastmile_qr_scan", "ios": "https://dc.lft.to/lastmile_qr_scan"}, "name": "9fea572d7efdd8f5c9f881c92ae88f0f", "type": "electric_scooter", "lat": 38.90364366666667, "is_disabled": 0}, {"fusion_lat": 0.0, "lon": -77.02099083333333, "is_reserved": 0, "bike_id": "8f184c16ba5e9dac60b071ed641678fa", "fusion_lon": 0.0, "rental_uris": {"android": "https://dc.lft.to/lastmile_qr_scan", "ios": "https://dc.lft.to/lastmile_qr_scan"}, "name": "8f184c16ba5e9dac60b071ed641678fa", "type": "electric_scooter", "lat": 38.914255833333335, "is_disabled": 0}, {"fusion_lat": 0.0, "lon": -77.04074383333334, "is_reserved": 0, "bike_id": "7de96fe078bd36d3a70d5306213b569c", "fusion_lon": 0.0, "rental_uris": {"android": "https://dc.lft.to/lastmile_qr_scan", "ios": "https://dc.lft.to/lastmile_qr_scan"}, "name": "7de96fe078bd36d3a70d5306213b569c", "type": "electric_scooter", "lat": 38.9170795, "is_disabled": 0}, {"fusion_lat": 0.0, "lon": -77.0239295, "is_reserved": 0, "bike_id": "91dbd3dacb8ea50cfd9e4b9a66d979df", "fusion_lon": 0.0, "rental_uris": {"android": "https://dc.lft.to/lastmile_qr_scan", "ios": "https://dc.lft.to/lastmile_qr_scan"}, "name": "91dbd3dacb8ea50cfd9e4b9a66d979df", "type": "electric_scooter", "lat": 38.919930666666666, "is_disabled": 0}, {"fusion_lat": 0.0, "lon": -76.9955005, "is_reserved": 0, "bike_id": "2a293be722dfd8f0f5b71d90e9079e6c", "fusion_lon": 0.0, "rental_uris": {"android": "https://dc.lft.to/lastmile_qr_scan", "ios": "https://dc.lft.to/lastmile_qr_scan"}, "name": "2a293be722dfd8f0f5b71d90e9079e6c", "type": "electric_scooter", "lat": 38.86258933333333, "is_disabled": 0}, {"fusion_lat": 0.0, "lon": -77.01355733333334, "is_reserved": 0, "bike_id": "3d91eb5f643f54bb6071fba230a0c15c", "fusion_lon": 0.0, "rental_uris": {"android": "https://dc.lft.to/lastmile_qr_scan", "ios": "https://dc.lft.to/lastmile_qr_scan"}, "name": "3d91eb5f643f54bb6071fba230a0c15c", "type": "electric_scooter", "lat": 38.869748, "is_disabled": 0}, {"fusion_lat": 0.0, "lon": -77.03139566666667, "is_reserved": 0, "bike_id": "6835b6dea22ea0d8c8b79e7b8ca3f5f3", "fusion_lon": 0.0, "rental_uris": {"android": "https://dc.lft.to/lastmile_qr_scan", "ios": "https://dc.lft.to/lastmile_qr_scan"}, "name": "6835b6dea22ea0d8c8b79e7b8ca3f5f3", "type": "electric_scooter", "lat": 38.925705666666666, "is_disabled": 0}, {"fusion_lat": 0.0, "lon": -77.02615266666666, "is_reserved": 0, "bike_id": "5c726532fe69a7ae6e7b7fad027416c5", "fusion_lon": 0.0, "rental_uris": {"android": "https://dc.lft.to/lastmile_qr_scan", "ios": "https://dc.lft.to/lastmile_qr_scan"}, "name": "5c726532fe69a7ae6e7b7fad027416c5", "type": "electric_scooter", "lat": 38.908618833333335, "is_disabled": 0}, {"fusion_lat": 0.0, "lon": -77.03517216666667, "is_reserved": 0, "bike_id": "c1d485d110cc761f065bb9fb9f913b97", "fusion_lon": 0.0, "rental_uris": {"android": "https://dc.lft.to/lastmile_qr_scan", "ios": "https://dc.lft.to/lastmile_qr_scan"}, "name": "c1d485d110cc761f065bb9fb9f913b97", "type": "electric_scooter", "lat": 38.92155966666667, "is_disabled": 0}, {"fusion_lat": 0.0, "lon": -76.93131083333333, "is_reserved": 0, "bike_id": "ea8273bc2a281481d536c65acd84107d", "fusion_lon": 0.0, "rental_uris": {"android": "https://dc.lft.to/lastmile_qr_scan", "ios": "https://dc.lft.to/lastmile_qr_scan"}, "name": "ea8273bc2a281481d536c65acd84107d", "type": "electric_scooter", "lat": 38.876116833333334, "is_disabled": 0}, {"fusion_lat": 0.0, "lon": -77.02362933333333, "is_reserved": 0, "bike_id": "2bfd6bb06bce6bbd1bd47d1e9ac85e88", "fusion_lon": 0.0, "rental_uris": {"android": "https://dc.lft.to/lastmile_qr_scan", "ios": "https://dc.lft.to/lastmile_qr_scan"}, "name": "2bfd6bb06bce6bbd1bd47d1e9ac85e88", "type": "electric_scooter", "lat": 38.8921945, "is_disabled": 0}, {"fusion_lat": 0.0, "lon": -77.03909316666666, "is_reserved": 0, "bike_id": "416cb279ad7316b01fa1c19da3b7d34d", "fusion_lon": 0.0, "rental_uris": {"android": "https://dc.lft.to/lastmile_qr_scan", "ios": "https://dc.lft.to/lastmile_qr_scan"}, "name": "416cb279ad7316b01fa1c19da3b7d34d", "type": "electric_scooter", "lat": 38.923043166666666, "is_disabled": 0}, {"fusion_lat": 0.0, "lon": -77.03362533333333, "is_reserved": 0, "bike_id": "1a152d37e08d5dc007d8a3540bc55523", "fusion_lon": 0.0, "rental_uris": {"android": "https://dc.lft.to/lastmile_qr_scan", "ios": "https://dc.lft.to/lastmile_qr_scan"}, "name": "1a152d37e08d5dc007d8a3540bc55523", "type": "electric_scooter", "lat": 38.907301833333335, "is_disabled": 0}, {"fusion_lat": 0.0, "lon": -76.99541283333333, "is_reserved": 0, "bike_id": "3f946e62510fedf311368e0559dbc830", "fusion_lon": 0.0, "rental_uris": {"android": "https://dc.lft.to/lastmile_qr_scan", "ios": "https://dc.lft.to/lastmile_qr_scan"}, "name": "3f946e62510fedf311368e0559dbc830", "type": "electric_scooter", "lat": 38.92672316666667, "is_disabled": 0}, {"fusion_lat": 0.0, "lon": -77.0233315, "is_reserved": 0, "bike_id": "41d559a79aa41bcd6d10838e7097bbfb", "fusion_lon": 0.0, "rental_uris": {"android": "https://dc.lft.to/lastmile_qr_scan", "ios": "https://dc.lft.to/lastmile_qr_scan"}, "name": "41d559a79aa41bcd6d10838e7097bbfb", "type": "electric_scooter", "lat": 38.920829, "is_disabled": 0}, {"fusion_lat": 0.0, "lon": -77.01977316666667, "is_reserved": 0, "bike_id": "ea3ab32c6c02ed9d9e69b9b437a2fbda", "fusion_lon": 0.0, "rental_uris": {"android": "https://dc.lft.to/lastmile_qr_scan", "ios": "https://dc.lft.to/lastmile_qr_scan"}, "name": "ea3ab32c6c02ed9d9e69b9b437a2fbda", "type": "electric_scooter", "lat": 38.912784333333335, "is_disabled": 0}, {"fusion_lat": 0.0, "lon": -77.01980716666667, "is_reserved": 0, "bike_id": "5aa8c79a04c9783e16d02d8306140349", "fusion_lon": 0.0, "rental_uris": {"android": "https://dc.lft.to/lastmile_qr_scan", "ios": "https://dc.lft.to/lastmile_qr_scan"}, "name": "5aa8c79a04c9783e16d02d8306140349", "type": "electric_scooter", "lat": 38.910934, "is_disabled": 0}, {"fusion_lat": 0.0, "lon": -77.01036733333333, "is_reserved": 0, "bike_id": "b632bf4d2616f58d6f8155a86bb6dcf7", "fusion_lon": 0.0, "rental_uris": {"android": "https://dc.lft.to/lastmile_qr_scan", "ios": "https://dc.lft.to/lastmile_qr_scan"}, "name": "b632bf4d2616f58d6f8155a86bb6dcf7", "type": "electric_scooter", "lat": 38.91914766666667, "is_disabled": 0}, {"fusion_lat": 0.0, "lon": -76.98097250000001, "is_reserved": 0, "bike_id": "394f89b5de0085a9f12ca810f0c38f24", "fusion_lon": 0.0, "rental_uris": {"android": "https://dc.lft.to/lastmile_qr_scan", "ios": "https://dc.lft.to/lastmile_qr_scan"}, "name": "394f89b5de0085a9f12ca810f0c38f24", "type": "electric_bike", "lat": 38.953584666666664, "is_disabled": 0}, {"fusion_lat": 0.0, "lon": -77.050227, "is_reserved": 0, "bike_id": "12c8dfd122bfafc11f6d7fe664195a76", "fusion_lon": 0.0, "rental_uris": {"android": "https://dc.lft.to/lastmile_qr_scan", "ios": "https://dc.lft.to/lastmile_qr_scan"}, "name": "12c8dfd122bfafc11f6d7fe664195a76", "type": "electric_scooter", "lat": 38.923538, "is_disabled": 0}, {"fusion_lat": 0.0, "lon": -76.98018166666667, "is_reserved": 0, "bike_id": "04a42332a9c669a2dd22196605bf6797", "fusion_lon": 0.0, "rental_uris": {"android": "https://dc.lft.to/lastmile_qr_scan", "ios": "https://dc.lft.to/lastmile_qr_scan"}, "name": "04a42332a9c669a2dd22196605bf6797", "type": "electric_scooter", "lat": 38.8531275, "is_disabled": 0}, {"fusion_lat": 0.0, "lon": -77.023195, "is_reserved": 0, "bike_id": "28edca2f4cf844ea1bdab8b378c76675", "fusion_lon": 0.0, "rental_uris": {"android": "https://dc.lft.to/lastmile_qr_scan", "ios": "https://dc.lft.to/lastmile_qr_scan"}, "name": "28edca2f4cf844ea1bdab8b378c76675", "type": "electric_scooter", "lat": 38.95524283333334, "is_disabled": 0}, {"fusion_lat": 0.0, "lon": -77.0802665, "is_reserved": 0, "bike_id": "51baea63c2403ee8f043ffccfc520bc4", "fusion_lon": 0.0, "rental_uris": {"android": "https://dc.lft.to/lastmile_qr_scan", "ios": "https://dc.lft.to/lastmile_qr_scan"}, "name": "51baea63c2403ee8f043ffccfc520bc4", "type": "electric_scooter", "lat": 38.949507833333335, "is_disabled": 0}, {"fusion_lat": 0.0, "lon": -77.0395835, "is_reserved": 0, "bike_id": "fa4aaa3c5d2beb341738560b3f117d2d", "fusion_lon": 0.0, "rental_uris": {"android": "https://dc.lft.to/lastmile_qr_scan", "ios": "https://dc.lft.to/lastmile_qr_scan"}, "name": "fa4aaa3c5d2beb341738560b3f117d2d", "type": "electric_scooter", "lat": 38.89242316666667, "is_disabled": 0}, {"fusion_lat": 0.0, "lon": -76.945813, "is_reserved": 0, "bike_id": "2f5694bb2bc1b6232826a0a65dc81831", "fusion_lon": 0.0, "rental_uris": {"android": "https://dc.lft.to/lastmile_qr_scan", "ios": "https://dc.lft.to/lastmile_qr_scan"}, "name": "2f5694bb2bc1b6232826a0a65dc81831", "type": "electric_bike", "lat": 38.937454, "is_disabled": 0}, {"fusion_lat": 0.0, "lon": -77.03185633333334, "is_reserved": 0, "bike_id": "553f32dc8494bde42bcd243568968e34", "fusion_lon": 0.0, "rental_uris": {"android": "https://dc.lft.to/lastmile_qr_scan", "ios": "https://dc.lft.to/lastmile_qr_scan"}, "name": "553f32dc8494bde42bcd243568968e34", "type": "electric_scooter", "lat": 38.897664166666665, "is_disabled": 0}, {"fusion_lat": 0.0, "lon": -77.01263166666666, "is_reserved": 0, "bike_id": "beb34ef3e0b62a5484ea4c37c4363414", "fusion_lon": 0.0, "rental_uris": {"android": "https://dc.lft.to/lastmile_qr_scan", "ios": "https://dc.lft.to/lastmile_qr_scan"}, "name": "beb34ef3e0b62a5484ea4c37c4363414", "type": "electric_scooter", "lat": 38.89245416666667, "is_disabled": 0}, {"fusion_lat": 0.0, "lon": -77.0242415, "is_reserved": 0, "bike_id": "44f71e663ca28862e7d29d648a11e70e", "fusion_lon": 0.0, "rental_uris": {"android": "https://dc.lft.to/lastmile_qr_scan", "ios": "https://dc.lft.to/lastmile_qr_scan"}, "name": "44f71e663ca28862e7d29d648a11e70e", "type": "electric_scooter", "lat": 38.897603833333335, "is_disabled": 0}, {"fusion_lat": 0.0, "lon": -76.9187175, "is_reserved": 0, "bike_id": "bc08c152d2c81aec3beb6dd8fcf54313", "fusion_lon": 0.0, "rental_uris": {"android": "https://dc.lft.to/lastmile_qr_scan", "ios": "https://dc.lft.to/lastmile_qr_scan"}, "name": "bc08c152d2c81aec3beb6dd8fcf54313", "type": "electric_scooter", "lat": 38.890970833333334, "is_disabled": 0}, {"fusion_lat": 0.0, "lon": -77.00205933333334, "is_reserved": 0, "bike_id": "b62f1c63caa4abd2b447f141cf2a3992", "fusion_lon": 0.0, "rental_uris": {"android": "https://dc.lft.to/lastmile_qr_scan", "ios": "https://dc.lft.to/lastmile_qr_scan"}, "name": "b62f1c63caa4abd2b447f141cf2a3992", "type": "electric_scooter", "lat": 38.924589, "is_disabled": 0}, {"fusion_lat": 0.0, "lon": -77.00991983333333, "is_reserved": 0, "bike_id": "02e4ea69cb48b16e33ab855ef5217af7", "fusion_lon": 0.0, "rental_uris": {"android": "https://dc.lft.to/lastmile_qr_scan", "ios": "https://dc.lft.to/lastmile_qr_scan"}, "name": "02e4ea69cb48b16e33ab855ef5217af7", "type": "electric_scooter", "lat": 38.896011333333334, "is_disabled": 0}, {"fusion_lat": 0.0, "lon": -77.04660533333333, "is_reserved": 0, "bike_id": "9c33f5ba1bfd0cc10e927529b8ab75d2", "fusion_lon": 0.0, "rental_uris": {"android": "https://dc.lft.to/lastmile_qr_scan", "ios": "https://dc.lft.to/lastmile_qr_scan"}, "name": "9c33f5ba1bfd0cc10e927529b8ab75d2", "type": "electric_scooter", "lat": 38.89656216666667, "is_disabled": 0}, {"fusion_lat": 0.0, "lon": -77.02988116666667, "is_reserved": 0, "bike_id": "0cec4a867196638735a25c9613122e19", "fusion_lon": 0.0, "rental_uris": {"android": "https://dc.lft.to/lastmile_qr_scan", "ios": "https://dc.lft.to/lastmile_qr_scan"}, "name": "0cec4a867196638735a25c9613122e19", "type": "electric_bike", "lat": 38.9346265, "is_disabled": 0}, {"fusion_lat": 0.0, "lon": -76.98625666666666, "is_reserved": 0, "bike_id": "acd0c7db86501fbeba1180462a4b37fc", "fusion_lon": 0.0, "rental_uris": {"android": "https://dc.lft.to/lastmile_qr_scan", "ios": "https://dc.lft.to/lastmile_qr_scan"}, "name": "acd0c7db86501fbeba1180462a4b37fc", "type": "electric_scooter", "lat": 38.901181, "is_disabled": 0}, {"fusion_lat": 0.0, "lon": -76.98710033333333, "is_reserved": 0, "bike_id": "2d022155cbe5d978649b4d445180fd72", "fusion_lon": 0.0, "rental_uris": {"android": "https://dc.lft.to/lastmile_qr_scan", "ios": "https://dc.lft.to/lastmile_qr_scan"}, "name": "2d022155cbe5d978649b4d445180fd72", "type": "electric_scooter", "lat": 38.8997255, "is_disabled": 0}, {"fusion_lat": 0.0, "lon": -76.97825883333333, "is_reserved": 0, "bike_id": "6f9e7ce9636d837ca3aac4093fe0fa5a", "fusion_lon": 0.0, "rental_uris": {"android": "https://dc.lft.to/lastmile_qr_scan", "ios": "https://dc.lft.to/lastmile_qr_scan"}, "name": "6f9e7ce9636d837ca3aac4093fe0fa5a", "type": "electric_bike", "lat": 38.843665666666666, "is_disabled": 0}, {"fusion_lat": 0.0, "lon": -77.0322995, "is_reserved": 0, "bike_id": "1dbffd78192070b64e2374d880c6c931", "fusion_lon": 0.0, "rental_uris": {"android": "https://dc.lft.to/lastmile_qr_scan", "ios": "https://dc.lft.to/lastmile_qr_scan"}, "name": "1dbffd78192070b64e2374d880c6c931", "type": "electric_scooter", "lat": 38.915587, "is_disabled": 0}, {"fusion_lat": 0.0, "lon": -77.00836216666667, "is_reserved": 0, "bike_id": "68e990efa060387c39ca2f3291d5f8d8", "fusion_lon": 0.0, "rental_uris": {"android": "https://dc.lft.to/lastmile_qr_scan", "ios": "https://dc.lft.to/lastmile_qr_scan"}, "name": "68e990efa060387c39ca2f3291d5f8d8", "type": "electric_scooter", "lat": 38.922443, "is_disabled": 0}, {"fusion_lat": 0.0, "lon": -76.9496315, "is_reserved": 0, "bike_id": "4feeeea3fc0f7634101eaaabe963b1c3", "fusion_lon": 0.0, "rental_uris": {"android": "https://dc.lft.to/lastmile_qr_scan", "ios": "https://dc.lft.to/lastmile_qr_scan"}, "name": "4feeeea3fc0f7634101eaaabe963b1c3", "type": "electric_scooter", "lat": 38.89439616666667, "is_disabled": 0}, {"fusion_lat": 0.0, "lon": -76.99777683333333, "is_reserved": 0, "bike_id": "3230ec668ee8da83ba5d882b1c97bc19", "fusion_lon": 0.0, "rental_uris": {"android": "https://dc.lft.to/lastmile_qr_scan", "ios": "https://dc.lft.to/lastmile_qr_scan"}, "name": "3230ec668ee8da83ba5d882b1c97bc19", "type": "electric_scooter", "lat": 38.84431216666667, "is_disabled": 0}, {"fusion_lat": 0.0, "lon": -77.01773316666667, "is_reserved": 0, "bike_id": "8fa708d97ade176b4a32306ae12c60b1", "fusion_lon": 0.0, "rental_uris": {"android": "https://dc.lft.to/lastmile_qr_scan", "ios": "https://dc.lft.to/lastmile_qr_scan"}, "name": "8fa708d97ade176b4a32306ae12c60b1", "type": "electric_scooter", "lat": 38.92109633333333, "is_disabled": 0}, {"fusion_lat": 0.0, "lon": -77.02591066666666, "is_reserved": 0, "bike_id": "97829936b02b0e0b8d4cccc854831405", "fusion_lon": 0.0, "rental_uris": {"android": "https://dc.lft.to/lastmile_qr_scan", "ios": "https://dc.lft.to/lastmile_qr_scan"}, "name": "97829936b02b0e0b8d4cccc854831405", "type": "electric_scooter", "lat": 38.963928833333334, "is_disabled": 0}, {"fusion_lat": 0.0, "lon": -77.03220783333333, "is_reserved": 0, "bike_id": "69f94bee6408ab0dbf372e71b1506359", "fusion_lon": 0.0, "rental_uris": {"android": "https://dc.lft.to/lastmile_qr_scan", "ios": "https://dc.lft.to/lastmile_qr_scan"}, "name": "69f94bee6408ab0dbf372e71b1506359", "type": "electric_scooter", "lat": 38.8966005, "is_disabled": 0}, {"fusion_lat": 0.0, "lon": -76.97424566666666, "is_reserved": 0, "bike_id": "45be23f44118a1f8e5c852ebd367f12a", "fusion_lon": 0.0, "rental_uris": {"android": "https://dc.lft.to/lastmile_qr_scan", "ios": "https://dc.lft.to/lastmile_qr_scan"}, "name": "45be23f44118a1f8e5c852ebd367f12a", "type": "electric_scooter", "lat": 38.9040495, "is_disabled": 0}, {"fusion_lat": 0.0, "lon": -77.01906966666667, "is_reserved": 0, "bike_id": "825616aae124d105cd06f2cbc72a9878", "fusion_lon": 0.0, "rental_uris": {"android": "https://dc.lft.to/lastmile_qr_scan", "ios": "https://dc.lft.to/lastmile_qr_scan"}, "name": "825616aae124d105cd06f2cbc72a9878", "type": "electric_scooter", "lat": 38.91934533333333, "is_disabled": 0}, {"fusion_lat": 0.0, "lon": -76.937537, "is_reserved": 0, "bike_id": "a1cd5e9252b0c2a6ffcbecfcf45141aa", "fusion_lon": 0.0, "rental_uris": {"android": "https://dc.lft.to/lastmile_qr_scan", "ios": "https://dc.lft.to/lastmile_qr_scan"}, "name": "a1cd5e9252b0c2a6ffcbecfcf45141aa", "type": "electric_scooter", "lat": 38.8904675, "is_disabled": 0}, {"fusion_lat": 0.0, "lon": -77.09067233333333, "is_reserved": 0, "bike_id": "515da24e05c98318910ee9e562afa335", "fusion_lon": 0.0, "rental_uris": {"android": "https://dc.lft.to/lastmile_qr_scan", "ios": "https://dc.lft.to/lastmile_qr_scan"}, "name": "515da24e05c98318910ee9e562afa335", "type": "electric_bike", "lat": 38.86262983333334, "is_disabled": 0}, {"fusion_lat": 0.0, "lon": -76.94382266666666, "is_reserved": 0, "bike_id": "aef37e19551a60a62534bf2b44f41832", "fusion_lon": 0.0, "rental_uris": {"android": "https://dc.lft.to/lastmile_qr_scan", "ios": "https://dc.lft.to/lastmile_qr_scan"}, "name": "aef37e19551a60a62534bf2b44f41832", "type": "electric_scooter", "lat": 38.8932285, "is_disabled": 0}, {"fusion_lat": 0.0, "lon": -77.03370183333334, "is_reserved": 0, "bike_id": "068837143efc4e17ad3c7c5167a75721", "fusion_lon": 0.0, "rental_uris": {"android": "https://dc.lft.to/lastmile_qr_scan", "ios": "https://dc.lft.to/lastmile_qr_scan"}, "name": "068837143efc4e17ad3c7c5167a75721", "type": "electric_scooter", "lat": 38.89910783333333, "is_disabled": 0}, {"fusion_lat": 0.0, "lon": -77.03070666666666, "is_reserved": 0, "bike_id": "188f2f31dee6bd163e9f84af8f9828c3", "fusion_lon": 0.0, "rental_uris": {"android": "https://dc.lft.to/lastmile_qr_scan", "ios": "https://dc.lft.to/lastmile_qr_scan"}, "name": "188f2f31dee6bd163e9f84af8f9828c3", "type": "electric_scooter", "lat": 38.907545999999996, "is_disabled": 0}, {"fusion_lat": 0.0, "lon": -77.046307, "is_reserved": 0, "bike_id": "e0c0e5b8957b631f4ce4f972ea059710", "fusion_lon": 0.0, "rental_uris": {"android": "https://dc.lft.to/lastmile_qr_scan", "ios": "https://dc.lft.to/lastmile_qr_scan"}, "name": "e0c0e5b8957b631f4ce4f972ea059710", "type": "electric_scooter", "lat": 38.923142166666665, "is_disabled": 0}, {"fusion_lat": 0.0, "lon": -77.03320716666667, "is_reserved": 0, "bike_id": "d889f5de22f22d038710cf973e4bfedf", "fusion_lon": 0.0, "rental_uris": {"android": "https://dc.lft.to/lastmile_qr_scan", "ios": "https://dc.lft.to/lastmile_qr_scan"}, "name": "d889f5de22f22d038710cf973e4bfedf", "type": "electric_scooter", "lat": 38.9000035, "is_disabled": 0}, {"fusion_lat": 0.0, "lon": -77.02448866666667, "is_reserved": 0, "bike_id": "9f59c6e03310c8916f82f3558a6a4f34", "fusion_lon": 0.0, "rental_uris": {"android": "https://dc.lft.to/lastmile_qr_scan", "ios": "https://dc.lft.to/lastmile_qr_scan"}, "name": "9f59c6e03310c8916f82f3558a6a4f34", "type": "electric_scooter", "lat": 38.8971005, "is_disabled": 0}, {"fusion_lat": 0.0, "lon": -77.05934183333333, "is_reserved": 0, "bike_id": "fca72e43b479a5fe180554885638054a", "fusion_lon": 0.0, "rental_uris": {"android": "https://dc.lft.to/lastmile_qr_scan", "ios": "https://dc.lft.to/lastmile_qr_scan"}, "name": "fca72e43b479a5fe180554885638054a", "type": "electric_scooter", "lat": 38.94307116666667, "is_disabled": 0}, {"fusion_lat": 0.0, "lon": -77.03638016666666, "is_reserved": 0, "bike_id": "5757df10d8b67707c94c7784022e2819", "fusion_lon": 0.0, "rental_uris": {"android": "https://dc.lft.to/lastmile_qr_scan", "ios": "https://dc.lft.to/lastmile_qr_scan"}, "name": "5757df10d8b67707c94c7784022e2819", "type": "electric_scooter", "lat": 38.93711583333334, "is_disabled": 0}, {"fusion_lat": 0.0, "lon": -77.01517283333334, "is_reserved": 0, "bike_id": "38ac7c597c82f782020598a104f4de64", "fusion_lon": 0.0, "rental_uris": {"android": "https://dc.lft.to/lastmile_qr_scan", "ios": "https://dc.lft.to/lastmile_qr_scan"}, "name": "38ac7c597c82f782020598a104f4de64", "type": "electric_scooter", "lat": 38.8866055, "is_disabled": 0}, {"fusion_lat": 0.0, "lon": -77.03924716666667, "is_reserved": 0, "bike_id": "4c59ff9e7f6a490bb59efe91edc42c64", "fusion_lon": 0.0, "rental_uris": {"android": "https://dc.lft.to/lastmile_qr_scan", "ios": "https://dc.lft.to/lastmile_qr_scan"}, "name": "4c59ff9e7f6a490bb59efe91edc42c64", "type": "electric_scooter", "lat": 38.90284333333334, "is_disabled": 0}, {"fusion_lat": 0.0, "lon": -76.99147033333334, "is_reserved": 0, "bike_id": "c2c4d87ecf753ee35c9d851142d0c70c", "fusion_lon": 0.0, "rental_uris": {"android": "https://dc.lft.to/lastmile_qr_scan", "ios": "https://dc.lft.to/lastmile_qr_scan"}, "name": "c2c4d87ecf753ee35c9d851142d0c70c", "type": "electric_scooter", "lat": 38.863201833333335, "is_disabled": 0}, {"fusion_lat": 0.0, "lon": -77.01982466666666, "is_reserved": 0, "bike_id": "8991a0cd8848e1e4dc61c7ec10014cf8", "fusion_lon": 0.0, "rental_uris": {"android": "https://dc.lft.to/lastmile_qr_scan", "ios": "https://dc.lft.to/lastmile_qr_scan"}, "name": "8991a0cd8848e1e4dc61c7ec10014cf8", "type": "electric_scooter", "lat": 38.887199833333334, "is_disabled": 0}, {"fusion_lat": 0.0, "lon": -77.03297233333333, "is_reserved": 0, "bike_id": "0314406b7d1c1d1f33624a05044ab788", "fusion_lon": 0.0, "rental_uris": {"android": "https://dc.lft.to/lastmile_qr_scan", "ios": "https://dc.lft.to/lastmile_qr_scan"}, "name": "0314406b7d1c1d1f33624a05044ab788", "type": "electric_scooter", "lat": 38.92053683333334, "is_disabled": 0}, {"fusion_lat": 0.0, "lon": -77.02723533333334, "is_reserved": 0, "bike_id": "81d9f0ce6dc5a2437d5fb1c8db612d86", "fusion_lon": 0.0, "rental_uris": {"android": "https://dc.lft.to/lastmile_qr_scan", "ios": "https://dc.lft.to/lastmile_qr_scan"}, "name": "81d9f0ce6dc5a2437d5fb1c8db612d86", "type": "electric_scooter", "lat": 38.911047333333336, "is_disabled": 0}, {"fusion_lat": 0.0, "lon": -77.04294466666667, "is_reserved": 0, "bike_id": "d89bebaf0bf5f64ba203d47b78bb3669", "fusion_lon": 0.0, "rental_uris": {"android": "https://dc.lft.to/lastmile_qr_scan", "ios": "https://dc.lft.to/lastmile_qr_scan"}, "name": "d89bebaf0bf5f64ba203d47b78bb3669", "type": "electric_scooter", "lat": 38.91658916666667, "is_disabled": 0}, {"fusion_lat": 0.0, "lon": -77.04391166666667, "is_reserved": 0, "bike_id": "d8e1c733c1d53733d54f46d4c179262c", "fusion_lon": 0.0, "rental_uris": {"android": "https://dc.lft.to/lastmile_qr_scan", "ios": "https://dc.lft.to/lastmile_qr_scan"}, "name": "d8e1c733c1d53733d54f46d4c179262c", "type": "electric_scooter", "lat": 38.910472, "is_disabled": 0}, {"fusion_lat": 0.0, "lon": -77.04461866666666, "is_reserved": 0, "bike_id": "2559ae270a6b5389501d4e5682c2b922", "fusion_lon": 0.0, "rental_uris": {"android": "https://dc.lft.to/lastmile_qr_scan", "ios": "https://dc.lft.to/lastmile_qr_scan"}, "name": "2559ae270a6b5389501d4e5682c2b922", "type": "electric_scooter", "lat": 38.923974, "is_disabled": 0}, {"fusion_lat": 0.0, "lon": -77.031982, "is_reserved": 0, "bike_id": "59dfad7e8b5d10e88a9a898da659f039", "fusion_lon": 0.0, "rental_uris": {"android": "https://dc.lft.to/lastmile_qr_scan", "ios": "https://dc.lft.to/lastmile_qr_scan"}, "name": "59dfad7e8b5d10e88a9a898da659f039", "type": "electric_scooter", "lat": 38.9156615, "is_disabled": 0}, {"fusion_lat": 0.0, "lon": -77.0265635, "is_reserved": 0, "bike_id": "506a827eb357bff9ddcd1923a38edca6", "fusion_lon": 0.0, "rental_uris": {"android": "https://dc.lft.to/lastmile_qr_scan", "ios": "https://dc.lft.to/lastmile_qr_scan"}, "name": "506a827eb357bff9ddcd1923a38edca6", "type": "electric_scooter", "lat": 38.892223, "is_disabled": 0}, {"fusion_lat": 0.0, "lon": -77.02128616666667, "is_reserved": 0, "bike_id": "e45a45793bd2055c183c3c90cdb023cb", "fusion_lon": 0.0, "rental_uris": {"android": "https://dc.lft.to/lastmile_qr_scan", "ios": "https://dc.lft.to/lastmile_qr_scan"}, "name": "e45a45793bd2055c183c3c90cdb023cb", "type": "electric_scooter", "lat": 38.92415416666667, "is_disabled": 0}, {"fusion_lat": 0.0, "lon": -77.044832, "is_reserved": 0, "bike_id": "97217fe5210eaf9a0d300ceed708925e", "fusion_lon": 0.0, "rental_uris": {"android": "https://dc.lft.to/lastmile_qr_scan", "ios": "https://dc.lft.to/lastmile_qr_scan"}, "name": "97217fe5210eaf9a0d300ceed708925e", "type": "electric_scooter", "lat": 38.924239, "is_disabled": 0}, {"fusion_lat": 0.0, "lon": -77.0287405, "is_reserved": 0, "bike_id": "1ede367f3e7f06936123e4addb34cbfb", "fusion_lon": 0.0, "rental_uris": {"android": "https://dc.lft.to/lastmile_qr_scan", "ios": "https://dc.lft.to/lastmile_qr_scan"}, "name": "1ede367f3e7f06936123e4addb34cbfb", "type": "electric_scooter", "lat": 38.90421633333333, "is_disabled": 0}, {"fusion_lat": 0.0, "lon": -77.030508, "is_reserved": 0, "bike_id": "fdd381f76b7cca979391e55a93554ebb", "fusion_lon": 0.0, "rental_uris": {"android": "https://dc.lft.to/lastmile_qr_scan", "ios": "https://dc.lft.to/lastmile_qr_scan"}, "name": "fdd381f76b7cca979391e55a93554ebb", "type": "electric_scooter", "lat": 38.905111, "is_disabled": 0}, {"fusion_lat": 0.0, "lon": -77.0218865, "is_reserved": 0, "bike_id": "4aa96da72a0710c4709e5c1096882814", "fusion_lon": 0.0, "rental_uris": {"android": "https://dc.lft.to/lastmile_qr_scan", "ios": "https://dc.lft.to/lastmile_qr_scan"}, "name": "4aa96da72a0710c4709e5c1096882814", "type": "electric_scooter", "lat": 38.899997, "is_disabled": 0}, {"fusion_lat": 0.0, "lon": -77.04312233333333, "is_reserved": 0, "bike_id": "22f5943c2719d5c0bdd9d404cbf9f166", "fusion_lon": 0.0, "rental_uris": {"android": "https://dc.lft.to/lastmile_qr_scan", "ios": "https://dc.lft.to/lastmile_qr_scan"}, "name": "22f5943c2719d5c0bdd9d404cbf9f166", "type": "electric_scooter", "lat": 38.91882316666667, "is_disabled": 0}, {"fusion_lat": 0.0, "lon": -77.032733, "is_reserved": 0, "bike_id": "76be29c7317b5dda8ab680d1a6f4fe94", "fusion_lon": 0.0, "rental_uris": {"android": "https://dc.lft.to/lastmile_qr_scan", "ios": "https://dc.lft.to/lastmile_qr_scan"}, "name": "76be29c7317b5dda8ab680d1a6f4fe94", "type": "electric_scooter", "lat": 38.910341833333334, "is_disabled": 0}, {"fusion_lat": 0.0, "lon": -76.9853015, "is_reserved": 0, "bike_id": "73664995bab9d765073e370eaa04768a", "fusion_lon": 0.0, "rental_uris": {"android": "https://dc.lft.to/lastmile_qr_scan", "ios": "https://dc.lft.to/lastmile_qr_scan"}, "name": "73664995bab9d765073e370eaa04768a", "type": "electric_scooter", "lat": 38.85363516666666, "is_disabled": 0}, {"fusion_lat": 0.0, "lon": -77.04324966666667, "is_reserved": 0, "bike_id": "1a486b47d65b6d409e2ec335eca0aed5", "fusion_lon": 0.0, "rental_uris": {"android": "https://dc.lft.to/lastmile_qr_scan", "ios": "https://dc.lft.to/lastmile_qr_scan"}, "name": "1a486b47d65b6d409e2ec335eca0aed5", "type": "electric_scooter", "lat": 38.892216166666664, "is_disabled": 0}, {"fusion_lat": 0.0, "lon": -77.0462095, "is_reserved": 0, "bike_id": "22a755ab6ba911bfb6298f63564a55f4", "fusion_lon": 0.0, "rental_uris": {"android": "https://dc.lft.to/lastmile_qr_scan", "ios": "https://dc.lft.to/lastmile_qr_scan"}, "name": "22a755ab6ba911bfb6298f63564a55f4", "type": "electric_scooter", "lat": 38.9231845, "is_disabled": 0}, {"fusion_lat": 0.0, "lon": -77.00891183333333, "is_reserved": 0, "bike_id": "4ec8bf99e0a690937e64423c75448e86", "fusion_lon": 0.0, "rental_uris": {"android": "https://dc.lft.to/lastmile_qr_scan", "ios": "https://dc.lft.to/lastmile_qr_scan"}, "name": "4ec8bf99e0a690937e64423c75448e86", "type": "electric_scooter", "lat": 38.92275883333333, "is_disabled": 0}, {"fusion_lat": 0.0, "lon": -76.973034, "is_reserved": 0, "bike_id": "bee33038fdfb1ec186cd48e8dd8a7f40", "fusion_lon": 0.0, "rental_uris": {"android": "https://dc.lft.to/lastmile_qr_scan", "ios": "https://dc.lft.to/lastmile_qr_scan"}, "name": "bee33038fdfb1ec186cd48e8dd8a7f40", "type": "electric_bike", "lat": 38.91645033333333, "is_disabled": 0}, {"fusion_lat": 0.0, "lon": -77.23320966666667, "is_reserved": 0, "bike_id": "9b604a83c0cfb0fc86b336d5b7dd9c01", "fusion_lon": 0.0, "rental_uris": {"android": "https://dc.lft.to/lastmile_qr_scan", "ios": "https://dc.lft.to/lastmile_qr_scan"}, "name": "9b604a83c0cfb0fc86b336d5b7dd9c01", "type": "electric_bike", "lat": 38.87286233333333, "is_disabled": 0}, {"fusion_lat": 0.0, "lon": -77.03338116666667, "is_reserved": 0, "bike_id": "76b6a308cb3c7c6f6daa80b6c2f67b2d", "fusion_lon": 0.0, "rental_uris": {"android": "https://dc.lft.to/lastmile_qr_scan", "ios": "https://dc.lft.to/lastmile_qr_scan"}, "name": "76b6a308cb3c7c6f6daa80b6c2f67b2d", "type": "electric_scooter", "lat": 38.916891166666666, "is_disabled": 0}, {"fusion_lat": 0.0, "lon": -77.03199583333334, "is_reserved": 0, "bike_id": "85048ab16a505125191e5e6f6efbd717", "fusion_lon": 0.0, "rental_uris": {"android": "https://dc.lft.to/lastmile_qr_scan", "ios": "https://dc.lft.to/lastmile_qr_scan"}, "name": "85048ab16a505125191e5e6f6efbd717", "type": "electric_scooter", "lat": 38.9119985, "is_disabled": 0}, {"fusion_lat": 0.0, "lon": -76.93752233333333, "is_reserved": 0, "bike_id": "d392267db2dbf027cbff5c579d18d0d0", "fusion_lon": 0.0, "rental_uris": {"android": "https://dc.lft.to/lastmile_qr_scan", "ios": "https://dc.lft.to/lastmile_qr_scan"}, "name": "d392267db2dbf027cbff5c579d18d0d0", "type": "electric_scooter", "lat": 38.890429166666664, "is_disabled": 0}, {"fusion_lat": 0.0, "lon": -77.051425, "is_reserved": 0, "bike_id": "dc9829669e6b6b0f539e6e54fe2b4167", "fusion_lon": 0.0, "rental_uris": {"android": "https://dc.lft.to/lastmile_qr_scan", "ios": "https://dc.lft.to/lastmile_qr_scan"}, "name": "dc9829669e6b6b0f539e6e54fe2b4167", "type": "electric_scooter", "lat": 38.90530366666667, "is_disabled": 0}, {"fusion_lat": 0.0, "lon": -76.985594, "is_reserved": 0, "bike_id": "44c0ddbd8ac57994f57288962ef02bf2", "fusion_lon": 0.0, "rental_uris": {"android": "https://dc.lft.to/lastmile_qr_scan", "ios": "https://dc.lft.to/lastmile_qr_scan"}, "name": "44c0ddbd8ac57994f57288962ef02bf2", "type": "electric_scooter", "lat": 38.910335, "is_disabled": 0}, {"fusion_lat": 0.0, "lon": -77.03969483333333, "is_reserved": 0, "bike_id": "7ca68b354ed25d88e69aa55e702badf8", "fusion_lon": 0.0, "rental_uris": {"android": "https://dc.lft.to/lastmile_qr_scan", "ios": "https://dc.lft.to/lastmile_qr_scan"}, "name": "7ca68b354ed25d88e69aa55e702badf8", "type": "electric_scooter", "lat": 38.897167, "is_disabled": 0}, {"fusion_lat": 0.0, "lon": -77.0366525, "is_reserved": 0, "bike_id": "f4d8535bde1e59723b2f092cda4b8216", "fusion_lon": 0.0, "rental_uris": {"android": "https://dc.lft.to/lastmile_qr_scan", "ios": "https://dc.lft.to/lastmile_qr_scan"}, "name": "f4d8535bde1e59723b2f092cda4b8216", "type": "electric_bike", "lat": 38.923188333333336, "is_disabled": 0}, {"fusion_lat": 0.0, "lon": -77.04480183333334, "is_reserved": 0, "bike_id": "9cf8471b3bad20427664fc7ae2dc4f6b", "fusion_lon": 0.0, "rental_uris": {"android": "https://dc.lft.to/lastmile_qr_scan", "ios": "https://dc.lft.to/lastmile_qr_scan"}, "name": "9cf8471b3bad20427664fc7ae2dc4f6b", "type": "electric_scooter", "lat": 38.91868433333333, "is_disabled": 0}, {"fusion_lat": 0.0, "lon": -76.9319875, "is_reserved": 0, "bike_id": "70bf424428a504aed6ef8f6e77409753", "fusion_lon": 0.0, "rental_uris": {"android": "https://dc.lft.to/lastmile_qr_scan", "ios": "https://dc.lft.to/lastmile_qr_scan"}, "name": "70bf424428a504aed6ef8f6e77409753", "type": "electric_scooter", "lat": 38.89880316666667, "is_disabled": 0}, {"fusion_lat": 0.0, "lon": -76.9355075, "is_reserved": 0, "bike_id": "b2c21680e8ff81d12ffdc7cb5bee19b9", "fusion_lon": 0.0, "rental_uris": {"android": "https://dc.lft.to/lastmile_qr_scan", "ios": "https://dc.lft.to/lastmile_qr_scan"}, "name": "b2c21680e8ff81d12ffdc7cb5bee19b9", "type": "electric_bike", "lat": 38.95556033333333, "is_disabled": 0}, {"fusion_lat": 0.0, "lon": -76.98517133333333, "is_reserved": 0, "bike_id": "cd753af0be70dedd4bf6f182a92c761a", "fusion_lon": 0.0, "rental_uris": {"android": "https://dc.lft.to/lastmile_qr_scan", "ios": "https://dc.lft.to/lastmile_qr_scan"}, "name": "cd753af0be70dedd4bf6f182a92c761a", "type": "electric_scooter", "lat": 38.86661633333333, "is_disabled": 0}, {"fusion_lat": 0.0, "lon": -77.031984, "is_reserved": 0, "bike_id": "8c4b9806d9895a640dc5ec00c62a4117", "fusion_lon": 0.0, "rental_uris": {"android": "https://dc.lft.to/lastmile_qr_scan", "ios": "https://dc.lft.to/lastmile_qr_scan"}, "name": "8c4b9806d9895a640dc5ec00c62a4117", "type": "electric_scooter", "lat": 38.91327, "is_disabled": 0}, {"fusion_lat": 0.0, "lon": -77.07819716666667, "is_reserved": 0, "bike_id": "5d6d4f15e123d7a897bc1c571d9b837e", "fusion_lon": 0.0, "rental_uris": {"android": "https://dc.lft.to/lastmile_qr_scan", "ios": "https://dc.lft.to/lastmile_qr_scan"}, "name": "5d6d4f15e123d7a897bc1c571d9b837e", "type": "electric_bike", "lat": 38.936404833333334, "is_disabled": 0}, {"fusion_lat": 0.0, "lon": -77.0348405, "is_reserved": 0, "bike_id": "7b832d87f5c7760361836dc88763552e", "fusion_lon": 0.0, "rental_uris": {"android": "https://dc.lft.to/lastmile_qr_scan", "ios": "https://dc.lft.to/lastmile_qr_scan"}, "name": "7b832d87f5c7760361836dc88763552e", "type": "electric_scooter", "lat": 38.92156383333333, "is_disabled": 0}, {"fusion_lat": 0.0, "lon": -77.04335616666667, "is_reserved": 0, "bike_id": "97ef5f3cef3298f78552d62f9702dd43", "fusion_lon": 0.0, "rental_uris": {"android": "https://dc.lft.to/lastmile_qr_scan", "ios": "https://dc.lft.to/lastmile_qr_scan"}, "name": "97ef5f3cef3298f78552d62f9702dd43", "type": "electric_scooter", "lat": 38.89227416666667, "is_disabled": 0}, {"fusion_lat": 0.0, "lon": -77.02145866666666, "is_reserved": 0, "bike_id": "9ff54a87e310dc36ba0b696cf7d92bf2", "fusion_lon": 0.0, "rental_uris": {"android": "https://dc.lft.to/lastmile_qr_scan", "ios": "https://dc.lft.to/lastmile_qr_scan"}, "name": "9ff54a87e310dc36ba0b696cf7d92bf2", "type": "electric_scooter", "lat": 38.9063035, "is_disabled": 0}, {"fusion_lat": 0.0, "lon": -76.98839716666667, "is_reserved": 0, "bike_id": "6c2dbe7a54306fd113b3aa056ec8fb72", "fusion_lon": 0.0, "rental_uris": {"android": "https://dc.lft.to/lastmile_qr_scan", "ios": "https://dc.lft.to/lastmile_qr_scan"}, "name": "6c2dbe7a54306fd113b3aa056ec8fb72", "type": "electric_bike", "lat": 38.842772, "is_disabled": 0}, {"fusion_lat": 0.0, "lon": -76.9761295, "is_reserved": 0, "bike_id": "59adfb5043b60758cf2593d35ab808c8", "fusion_lon": 0.0, "rental_uris": {"android": "https://dc.lft.to/lastmile_qr_scan", "ios": "https://dc.lft.to/lastmile_qr_scan"}, "name": "59adfb5043b60758cf2593d35ab808c8", "type": "electric_scooter", "lat": 38.91294533333333, "is_disabled": 0}, {"fusion_lat": 0.0, "lon": -76.9838575, "is_reserved": 0, "bike_id": "b38b04a5baa713de3c9b92985e9b2dbf", "fusion_lon": 0.0, "rental_uris": {"android": "https://dc.lft.to/lastmile_qr_scan", "ios": "https://dc.lft.to/lastmile_qr_scan"}, "name": "b38b04a5baa713de3c9b92985e9b2dbf", "type": "electric_scooter", "lat": 38.92693416666667, "is_disabled": 0}, {"fusion_lat": 0.0, "lon": -77.02064533333333, "is_reserved": 0, "bike_id": "bcbda484fe401b5676f2df916e4474cc", "fusion_lon": 0.0, "rental_uris": {"android": "https://dc.lft.to/lastmile_qr_scan", "ios": "https://dc.lft.to/lastmile_qr_scan"}, "name": "bcbda484fe401b5676f2df916e4474cc", "type": "electric_scooter", "lat": 38.92185283333333, "is_disabled": 0}, {"fusion_lat": 0.0, "lon": -77.0327055, "is_reserved": 0, "bike_id": "d059962fec9f5206b2324df98882294f", "fusion_lon": 0.0, "rental_uris": {"android": "https://dc.lft.to/lastmile_qr_scan", "ios": "https://dc.lft.to/lastmile_qr_scan"}, "name": "d059962fec9f5206b2324df98882294f", "type": "electric_scooter", "lat": 38.934043, "is_disabled": 0}, {"fusion_lat": 0.0, "lon": -77.02693066666667, "is_reserved": 0, "bike_id": "3012a66eeb28e90175e0c35c38dfcd1a", "fusion_lon": 0.0, "rental_uris": {"android": "https://dc.lft.to/lastmile_qr_scan", "ios": "https://dc.lft.to/lastmile_qr_scan"}, "name": "3012a66eeb28e90175e0c35c38dfcd1a", "type": "electric_scooter", "lat": 38.915771166666666, "is_disabled": 0}, {"fusion_lat": 0.0, "lon": -77.03260483333334, "is_reserved": 0, "bike_id": "947be048f5d286992907548847dac380", "fusion_lon": 0.0, "rental_uris": {"android": "https://dc.lft.to/lastmile_qr_scan", "ios": "https://dc.lft.to/lastmile_qr_scan"}, "name": "947be048f5d286992907548847dac380", "type": "electric_scooter", "lat": 38.91818983333334, "is_disabled": 0}, {"fusion_lat": 0.0, "lon": -77.02620016666667, "is_reserved": 0, "bike_id": "8815c74132bcc702e1487d3e1d6bca27", "fusion_lon": 0.0, "rental_uris": {"android": "https://dc.lft.to/lastmile_qr_scan", "ios": "https://dc.lft.to/lastmile_qr_scan"}, "name": "8815c74132bcc702e1487d3e1d6bca27", "type": "electric_scooter", "lat": 38.8943135, "is_disabled": 0}, {"fusion_lat": 0.0, "lon": -77.04573166666667, "is_reserved": 0, "bike_id": "8485a079ba0fa0641d0dfbfc1601560c", "fusion_lon": 0.0, "rental_uris": {"android": "https://dc.lft.to/lastmile_qr_scan", "ios": "https://dc.lft.to/lastmile_qr_scan"}, "name": "8485a079ba0fa0641d0dfbfc1601560c", "type": "electric_scooter", "lat": 38.921275333333334, "is_disabled": 0}, {"fusion_lat": 0.0, "lon": -77.0361845, "is_reserved": 0, "bike_id": "099af70cb4a1114ffef9572dc6aefb32", "fusion_lon": 0.0, "rental_uris": {"android": "https://dc.lft.to/lastmile_qr_scan", "ios": "https://dc.lft.to/lastmile_qr_scan"}, "name": "099af70cb4a1114ffef9572dc6aefb32", "type": "electric_scooter", "lat": 38.93041566666667, "is_disabled": 0}, {"fusion_lat": 0.0, "lon": -77.04226766666666, "is_reserved": 0, "bike_id": "ca7705bd2486dfff54c4eb22ed3c1387", "fusion_lon": 0.0, "rental_uris": {"android": "https://dc.lft.to/lastmile_qr_scan", "ios": "https://dc.lft.to/lastmile_qr_scan"}, "name": "ca7705bd2486dfff54c4eb22ed3c1387", "type": "electric_scooter", "lat": 38.931584, "is_disabled": 0}, {"fusion_lat": 0.0, "lon": -76.980785, "is_reserved": 0, "bike_id": "e960bcb64c5e1874d7c8bf04f42a2227", "fusion_lon": 0.0, "rental_uris": {"android": "https://dc.lft.to/lastmile_qr_scan", "ios": "https://dc.lft.to/lastmile_qr_scan"}, "name": "e960bcb64c5e1874d7c8bf04f42a2227", "type": "electric_scooter", "lat": 38.9018215, "is_disabled": 0}, {"fusion_lat": 0.0, "lon": -77.022339, "is_reserved": 0, "bike_id": "8db3006931ff2beade6eb8ca0f3d799f", "fusion_lon": 0.0, "rental_uris": {"android": "https://dc.lft.to/lastmile_qr_scan", "ios": "https://dc.lft.to/lastmile_qr_scan"}, "name": "8db3006931ff2beade6eb8ca0f3d799f", "type": "electric_scooter", "lat": 38.892236, "is_disabled": 0}, {"fusion_lat": 0.0, "lon": -77.00241566666666, "is_reserved": 0, "bike_id": "62c54c0a9a1d4446c0e783f8ffa7fae0", "fusion_lon": 0.0, "rental_uris": {"android": "https://dc.lft.to/lastmile_qr_scan", "ios": "https://dc.lft.to/lastmile_qr_scan"}, "name": "62c54c0a9a1d4446c0e783f8ffa7fae0", "type": "electric_bike", "lat": 38.87491166666667, "is_disabled": 0}, {"fusion_lat": 0.0, "lon": -77.03430983333334, "is_reserved": 0, "bike_id": "c4045270be0fa9f1d09c7e804a5f96cd", "fusion_lon": 0.0, "rental_uris": {"android": "https://dc.lft.to/lastmile_qr_scan", "ios": "https://dc.lft.to/lastmile_qr_scan"}, "name": "c4045270be0fa9f1d09c7e804a5f96cd", "type": "electric_scooter", "lat": 38.919362, "is_disabled": 0}, {"fusion_lat": 0.0, "lon": -77.02803966666667, "is_reserved": 0, "bike_id": "6c08036931cf937538e6a3eb872021b4", "fusion_lon": 0.0, "rental_uris": {"android": "https://dc.lft.to/lastmile_qr_scan", "ios": "https://dc.lft.to/lastmile_qr_scan"}, "name": "6c08036931cf937538e6a3eb872021b4", "type": "electric_scooter", "lat": 38.90978833333333, "is_disabled": 0}, {"fusion_lat": 0.0, "lon": -76.9852415, "is_reserved": 0, "bike_id": "ba72cdacfc199ee5a591cd8a0a50a858", "fusion_lon": 0.0, "rental_uris": {"android": "https://dc.lft.to/lastmile_qr_scan", "ios": "https://dc.lft.to/lastmile_qr_scan"}, "name": "ba72cdacfc199ee5a591cd8a0a50a858", "type": "electric_scooter", "lat": 38.8665605, "is_disabled": 0}, {"fusion_lat": 0.0, "lon": -77.03276333333334, "is_reserved": 0, "bike_id": "69da43fe2b7a24e41c4ef5b1e2fdd618", "fusion_lon": 0.0, "rental_uris": {"android": "https://dc.lft.to/lastmile_qr_scan", "ios": "https://dc.lft.to/lastmile_qr_scan"}, "name": "69da43fe2b7a24e41c4ef5b1e2fdd618", "type": "electric_scooter", "lat": 38.928340666666664, "is_disabled": 0}, {"fusion_lat": 0.0, "lon": -77.02770833333334, "is_reserved": 0, "bike_id": "e0267d2df5e041083c744d7635df36d5", "fusion_lon": 0.0, "rental_uris": {"android": "https://dc.lft.to/lastmile_qr_scan", "ios": "https://dc.lft.to/lastmile_qr_scan"}, "name": "e0267d2df5e041083c744d7635df36d5", "type": "electric_scooter", "lat": 38.92977116666667, "is_disabled": 0}, {"fusion_lat": 0.0, "lon": -77.04667333333333, "is_reserved": 0, "bike_id": "01f7a407884b1a7f1354e937b9f653e5", "fusion_lon": 0.0, "rental_uris": {"android": "https://dc.lft.to/lastmile_qr_scan", "ios": "https://dc.lft.to/lastmile_qr_scan"}, "name": "01f7a407884b1a7f1354e937b9f653e5", "type": "electric_scooter", "lat": 38.903256166666665, "is_disabled": 0}, {"fusion_lat": 0.0, "lon": -76.99020083333333, "is_reserved": 0, "bike_id": "96654430425c16315349e8ed9257e1d6", "fusion_lon": 0.0, "rental_uris": {"android": "https://dc.lft.to/lastmile_qr_scan", "ios": "https://dc.lft.to/lastmile_qr_scan"}, "name": "96654430425c16315349e8ed9257e1d6", "type": "electric_scooter", "lat": 38.881833666666665, "is_disabled": 0}, {"fusion_lat": 0.0, "lon": -77.00076316666667, "is_reserved": 0, "bike_id": "776d87fcc224cb19ad9d23efb7fdf44f", "fusion_lon": 0.0, "rental_uris": {"android": "https://dc.lft.to/lastmile_qr_scan", "ios": "https://dc.lft.to/lastmile_qr_scan"}, "name": "776d87fcc224cb19ad9d23efb7fdf44f", "type": "electric_scooter", "lat": 38.89994383333333, "is_disabled": 0}, {"fusion_lat": 0.0, "lon": -77.00717083333333, "is_reserved": 0, "bike_id": "6c46d2ad423687c2b82be5c2420d5b21", "fusion_lon": 0.0, "rental_uris": {"android": "https://dc.lft.to/lastmile_qr_scan", "ios": "https://dc.lft.to/lastmile_qr_scan"}, "name": "6c46d2ad423687c2b82be5c2420d5b21", "type": "electric_scooter", "lat": 38.905758, "is_disabled": 0}, {"fusion_lat": 0.0, "lon": -77.04324883333334, "is_reserved": 0, "bike_id": "f6fcad35b2320f31e5d5afcca4bf6eab", "fusion_lon": 0.0, "rental_uris": {"android": "https://dc.lft.to/lastmile_qr_scan", "ios": "https://dc.lft.to/lastmile_qr_scan"}, "name": "f6fcad35b2320f31e5d5afcca4bf6eab", "type": "electric_scooter", "lat": 38.892225333333336, "is_disabled": 0}, {"fusion_lat": 0.0, "lon": -77.03452566666667, "is_reserved": 0, "bike_id": "0d4a722cc7a11b1218f09bc2a6f9a94a", "fusion_lon": 0.0, "rental_uris": {"android": "https://dc.lft.to/lastmile_qr_scan", "ios": "https://dc.lft.to/lastmile_qr_scan"}, "name": "0d4a722cc7a11b1218f09bc2a6f9a94a", "type": "electric_scooter", "lat": 38.90558333333333, "is_disabled": 0}, {"fusion_lat": 0.0, "lon": -77.03204716666667, "is_reserved": 0, "bike_id": "f676638b8bb27311ebc7557856c5f27b", "fusion_lon": 0.0, "rental_uris": {"android": "https://dc.lft.to/lastmile_qr_scan", "ios": "https://dc.lft.to/lastmile_qr_scan"}, "name": "f676638b8bb27311ebc7557856c5f27b", "type": "electric_scooter", "lat": 38.917882666666664, "is_disabled": 0}, {"fusion_lat": 0.0, "lon": -77.03643933333333, "is_reserved": 0, "bike_id": "faf1edc3784b6dc1f11b605a22bc4c3a", "fusion_lon": 0.0, "rental_uris": {"android": "https://dc.lft.to/lastmile_qr_scan", "ios": "https://dc.lft.to/lastmile_qr_scan"}, "name": "faf1edc3784b6dc1f11b605a22bc4c3a", "type": "electric_scooter", "lat": 38.921064666666666, "is_disabled": 0}, {"fusion_lat": 0.0, "lon": -76.98112466666667, "is_reserved": 0, "bike_id": "b4d7a712f4fda584786f3bc2b2465d5b", "fusion_lon": 0.0, "rental_uris": {"android": "https://dc.lft.to/lastmile_qr_scan", "ios": "https://dc.lft.to/lastmile_qr_scan"}, "name": "b4d7a712f4fda584786f3bc2b2465d5b", "type": "electric_scooter", "lat": 38.9039415, "is_disabled": 0}, {"fusion_lat": 0.0, "lon": -77.03388066666666, "is_reserved": 0, "bike_id": "42acc5b0b0705241c1e4ede3fdced199", "fusion_lon": 0.0, "rental_uris": {"android": "https://dc.lft.to/lastmile_qr_scan", "ios": "https://dc.lft.to/lastmile_qr_scan"}, "name": "42acc5b0b0705241c1e4ede3fdced199", "type": "electric_scooter", "lat": 38.938758666666665, "is_disabled": 0}, {"fusion_lat": 0.0, "lon": -76.94801483333333, "is_reserved": 0, "bike_id": "748e844617cd5d265b6b9c39da0ddfbf", "fusion_lon": 0.0, "rental_uris": {"android": "https://dc.lft.to/lastmile_qr_scan", "ios": "https://dc.lft.to/lastmile_qr_scan"}, "name": "748e844617cd5d265b6b9c39da0ddfbf", "type": "electric_bike", "lat": 38.8619055, "is_disabled": 0}, {"fusion_lat": 0.0, "lon": -77.02506283333334, "is_reserved": 0, "bike_id": "d305e2ef87cd5dd444894729dce9300c", "fusion_lon": 0.0, "rental_uris": {"android": "https://dc.lft.to/lastmile_qr_scan", "ios": "https://dc.lft.to/lastmile_qr_scan"}, "name": "d305e2ef87cd5dd444894729dce9300c", "type": "electric_scooter", "lat": 38.920816333333335, "is_disabled": 0}, {"fusion_lat": 0.0, "lon": -77.01748883333333, "is_reserved": 0, "bike_id": "ae4a455b85cd31635ed325b5674dc5b4", "fusion_lon": 0.0, "rental_uris": {"android": "https://dc.lft.to/lastmile_qr_scan", "ios": "https://dc.lft.to/lastmile_qr_scan"}, "name": "ae4a455b85cd31635ed325b5674dc5b4", "type": "electric_scooter", "lat": 38.8857075, "is_disabled": 0}, {"fusion_lat": 0.0, "lon": -77.04519716666667, "is_reserved": 0, "bike_id": "534de6991b117d738756ce44a2474114", "fusion_lon": 0.0, "rental_uris": {"android": "https://dc.lft.to/lastmile_qr_scan", "ios": "https://dc.lft.to/lastmile_qr_scan"}, "name": "534de6991b117d738756ce44a2474114", "type": "electric_bike", "lat": 38.9419805, "is_disabled": 0}, {"fusion_lat": 0.0, "lon": -77.04213016666667, "is_reserved": 0, "bike_id": "34e6d9d66ef77433d93f4ed0fbb40d5d", "fusion_lon": 0.0, "rental_uris": {"android": "https://dc.lft.to/lastmile_qr_scan", "ios": "https://dc.lft.to/lastmile_qr_scan"}, "name": "34e6d9d66ef77433d93f4ed0fbb40d5d", "type": "electric_scooter", "lat": 38.9156725, "is_disabled": 0}, {"fusion_lat": 0.0, "lon": -76.9374975, "is_reserved": 0, "bike_id": "2bd4b3eb5f4cf09a207c5361d09cf167", "fusion_lon": 0.0, "rental_uris": {"android": "https://dc.lft.to/lastmile_qr_scan", "ios": "https://dc.lft.to/lastmile_qr_scan"}, "name": "2bd4b3eb5f4cf09a207c5361d09cf167", "type": "electric_scooter", "lat": 38.89046866666666, "is_disabled": 0}, {"fusion_lat": 0.0, "lon": -77.00422766666667, "is_reserved": 0, "bike_id": "bbeca65aa6b1f09ae2f2337924d53e00", "fusion_lon": 0.0, "rental_uris": {"android": "https://dc.lft.to/lastmile_qr_scan", "ios": "https://dc.lft.to/lastmile_qr_scan"}, "name": "bbeca65aa6b1f09ae2f2337924d53e00", "type": "electric_scooter", "lat": 38.9055995, "is_disabled": 0}, {"fusion_lat": 0.0, "lon": -77.0434935, "is_reserved": 0, "bike_id": "591c7a2364e77fa394be67706c9293c4", "fusion_lon": 0.0, "rental_uris": {"android": "https://dc.lft.to/lastmile_qr_scan", "ios": "https://dc.lft.to/lastmile_qr_scan"}, "name": "591c7a2364e77fa394be67706c9293c4", "type": "electric_scooter", "lat": 38.904265, "is_disabled": 0}, {"fusion_lat": 0.0, "lon": -77.046926, "is_reserved": 0, "bike_id": "82f46533b2e605ad80397a52d57026bb", "fusion_lon": 0.0, "rental_uris": {"android": "https://dc.lft.to/lastmile_qr_scan", "ios": "https://dc.lft.to/lastmile_qr_scan"}, "name": "82f46533b2e605ad80397a52d57026bb", "type": "electric_scooter", "lat": 38.91579933333333, "is_disabled": 0}, {"fusion_lat": 0.0, "lon": -77.02944683333334, "is_reserved": 0, "bike_id": "7d792b47aecb2025d1462aaf27c1be8c", "fusion_lon": 0.0, "rental_uris": {"android": "https://dc.lft.to/lastmile_qr_scan", "ios": "https://dc.lft.to/lastmile_qr_scan"}, "name": "7d792b47aecb2025d1462aaf27c1be8c", "type": "electric_scooter", "lat": 38.92074983333333, "is_disabled": 0}, {"fusion_lat": 0.0, "lon": -77.01153533333333, "is_reserved": 0, "bike_id": "3781287ef836cd61737aed4db732efa7", "fusion_lon": 0.0, "rental_uris": {"android": "https://dc.lft.to/lastmile_qr_scan", "ios": "https://dc.lft.to/lastmile_qr_scan"}, "name": "3781287ef836cd61737aed4db732efa7", "type": "electric_scooter", "lat": 38.911034666666666, "is_disabled": 0}, {"fusion_lat": 0.0, "lon": -77.003369, "is_reserved": 0, "bike_id": "f118cf7407ad6866174f40d61ae4c881", "fusion_lon": 0.0, "rental_uris": {"android": "https://dc.lft.to/lastmile_qr_scan", "ios": "https://dc.lft.to/lastmile_qr_scan"}, "name": "f118cf7407ad6866174f40d61ae4c881", "type": "electric_scooter", "lat": 38.889880166666664, "is_disabled": 0}, {"fusion_lat": 0.0, "lon": -77.04716333333333, "is_reserved": 0, "bike_id": "86084af1f61d9970dc7588ad0572dd0a", "fusion_lon": 0.0, "rental_uris": {"android": "https://dc.lft.to/lastmile_qr_scan", "ios": "https://dc.lft.to/lastmile_qr_scan"}, "name": "86084af1f61d9970dc7588ad0572dd0a", "type": "electric_scooter", "lat": 38.9220075, "is_disabled": 0}, {"fusion_lat": 0.0, "lon": -76.995211, "is_reserved": 0, "bike_id": "16a6333ea8002360cf0879f9fb7413f4", "fusion_lon": 0.0, "rental_uris": {"android": "https://dc.lft.to/lastmile_qr_scan", "ios": "https://dc.lft.to/lastmile_qr_scan"}, "name": "16a6333ea8002360cf0879f9fb7413f4", "type": "electric_scooter", "lat": 38.89610833333333, "is_disabled": 0}, {"fusion_lat": 0.0, "lon": -77.05024483333334, "is_reserved": 0, "bike_id": "4f10c3f09c3b22b3743ff1c0aa429730", "fusion_lon": 0.0, "rental_uris": {"android": "https://dc.lft.to/lastmile_qr_scan", "ios": "https://dc.lft.to/lastmile_qr_scan"}, "name": "4f10c3f09c3b22b3743ff1c0aa429730", "type": "electric_scooter", "lat": 38.923543333333335, "is_disabled": 0}, {"fusion_lat": 0.0, "lon": -77.035429, "is_reserved": 0, "bike_id": "148df78cfd0228de143ccfbca56c1f90", "fusion_lon": 0.0, "rental_uris": {"android": "https://dc.lft.to/lastmile_qr_scan", "ios": "https://dc.lft.to/lastmile_qr_scan"}, "name": "148df78cfd0228de143ccfbca56c1f90", "type": "electric_scooter", "lat": 38.92412433333333, "is_disabled": 0}, {"fusion_lat": 0.0, "lon": -77.038468, "is_reserved": 0, "bike_id": "7756c882fcac5be30f03129f5f336cf4", "fusion_lon": 0.0, "rental_uris": {"android": "https://dc.lft.to/lastmile_qr_scan", "ios": "https://dc.lft.to/lastmile_qr_scan"}, "name": "7756c882fcac5be30f03129f5f336cf4", "type": "electric_scooter", "lat": 38.917346333333334, "is_disabled": 0}, {"fusion_lat": 0.0, "lon": -77.000605, "is_reserved": 0, "bike_id": "604b90367fb438b0e235bbf5eae56f22", "fusion_lon": 0.0, "rental_uris": {"android": "https://dc.lft.to/lastmile_qr_scan", "ios": "https://dc.lft.to/lastmile_qr_scan"}, "name": "604b90367fb438b0e235bbf5eae56f22", "type": "electric_scooter", "lat": 38.9073865, "is_disabled": 0}, {"fusion_lat": 0.0, "lon": -76.94600566666666, "is_reserved": 0, "bike_id": "a8fdc2174bd316735be7ba014e17c59f", "fusion_lon": 0.0, "rental_uris": {"android": "https://dc.lft.to/lastmile_qr_scan", "ios": "https://dc.lft.to/lastmile_qr_scan"}, "name": "a8fdc2174bd316735be7ba014e17c59f", "type": "electric_scooter", "lat": 38.901456333333336, "is_disabled": 0}, {"fusion_lat": 0.0, "lon": -77.0591595, "is_reserved": 0, "bike_id": "f004519588157b6ca52a23e2c9ea6da7", "fusion_lon": 0.0, "rental_uris": {"android": "https://dc.lft.to/lastmile_qr_scan", "ios": "https://dc.lft.to/lastmile_qr_scan"}, "name": "f004519588157b6ca52a23e2c9ea6da7", "type": "electric_scooter", "lat": 38.901011, "is_disabled": 0}, {"fusion_lat": 0.0, "lon": -76.934867, "is_reserved": 0, "bike_id": "b39689e3006ea6b9e995c20cdf243b40", "fusion_lon": 0.0, "rental_uris": {"android": "https://dc.lft.to/lastmile_qr_scan", "ios": "https://dc.lft.to/lastmile_qr_scan"}, "name": "b39689e3006ea6b9e995c20cdf243b40", "type": "electric_scooter", "lat": 38.90555466666667, "is_disabled": 0}, {"fusion_lat": 0.0, "lon": -76.98994783333333, "is_reserved": 0, "bike_id": "f73f1e9e867b39b0518415ebb7cc0771", "fusion_lon": 0.0, "rental_uris": {"android": "https://dc.lft.to/lastmile_qr_scan", "ios": "https://dc.lft.to/lastmile_qr_scan"}, "name": "f73f1e9e867b39b0518415ebb7cc0771", "type": "electric_scooter", "lat": 38.864341333333336, "is_disabled": 0}, {"fusion_lat": 0.0, "lon": -77.01817316666667, "is_reserved": 0, "bike_id": "2511e847f05474e92e6ebf879b3a9a2f", "fusion_lon": 0.0, "rental_uris": {"android": "https://dc.lft.to/lastmile_qr_scan", "ios": "https://dc.lft.to/lastmile_qr_scan"}, "name": "2511e847f05474e92e6ebf879b3a9a2f", "type": "electric_scooter", "lat": 38.930443, "is_disabled": 0}, {"fusion_lat": 0.0, "lon": -77.01248283333334, "is_reserved": 0, "bike_id": "6091a59865d41189a9a48fdb147fcb42", "fusion_lon": 0.0, "rental_uris": {"android": "https://dc.lft.to/lastmile_qr_scan", "ios": "https://dc.lft.to/lastmile_qr_scan"}, "name": "6091a59865d41189a9a48fdb147fcb42", "type": "electric_scooter", "lat": 38.91575366666667, "is_disabled": 0}, {"fusion_lat": 0.0, "lon": -77.06601233333333, "is_reserved": 0, "bike_id": "13b0c7d881b23a021d7688f3058d32c2", "fusion_lon": 0.0, "rental_uris": {"android": "https://dc.lft.to/lastmile_qr_scan", "ios": "https://dc.lft.to/lastmile_qr_scan"}, "name": "13b0c7d881b23a021d7688f3058d32c2", "type": "electric_scooter", "lat": 38.90408433333333, "is_disabled": 0}, {"fusion_lat": 0.0, "lon": -76.99957933333333, "is_reserved": 0, "bike_id": "4f922fd4fbd0b2cde2a7816f978dfb50", "fusion_lon": 0.0, "rental_uris": {"android": "https://dc.lft.to/lastmile_qr_scan", "ios": "https://dc.lft.to/lastmile_qr_scan"}, "name": "4f922fd4fbd0b2cde2a7816f978dfb50", "type": "electric_scooter", "lat": 38.9066835, "is_disabled": 0}, {"fusion_lat": 0.0, "lon": -77.03906566666667, "is_reserved": 0, "bike_id": "739d720af1b08c2cf9c0656ce56ca482", "fusion_lon": 0.0, "rental_uris": {"android": "https://dc.lft.to/lastmile_qr_scan", "ios": "https://dc.lft.to/lastmile_qr_scan"}, "name": "739d720af1b08c2cf9c0656ce56ca482", "type": "electric_scooter", "lat": 38.918669666666666, "is_disabled": 0}, {"fusion_lat": 0.0, "lon": -76.98601566666666, "is_reserved": 0, "bike_id": "0c844174d52b815f08c7bedabb07c384", "fusion_lon": 0.0, "rental_uris": {"android": "https://dc.lft.to/lastmile_qr_scan", "ios": "https://dc.lft.to/lastmile_qr_scan"}, "name": "0c844174d52b815f08c7bedabb07c384", "type": "electric_scooter", "lat": 38.90011, "is_disabled": 0}, {"fusion_lat": 0.0, "lon": -77.000442, "is_reserved": 0, "bike_id": "4c7e19f693df170c231331650253986e", "fusion_lon": 0.0, "rental_uris": {"android": "https://dc.lft.to/lastmile_qr_scan", "ios": "https://dc.lft.to/lastmile_qr_scan"}, "name": "4c7e19f693df170c231331650253986e", "type": "electric_scooter", "lat": 38.900129166666666, "is_disabled": 0}, {"fusion_lat": 0.0, "lon": -77.06342633333334, "is_reserved": 0, "bike_id": "45bdd15757f89830685c6bb305c9276a", "fusion_lon": 0.0, "rental_uris": {"android": "https://dc.lft.to/lastmile_qr_scan", "ios": "https://dc.lft.to/lastmile_qr_scan"}, "name": "45bdd15757f89830685c6bb305c9276a", "type": "electric_scooter", "lat": 38.90739883333333, "is_disabled": 0}, {"fusion_lat": 0.0, "lon": -77.07416983333333, "is_reserved": 0, "bike_id": "25699c3336056b1136c8288d1ce58522", "fusion_lon": 0.0, "rental_uris": {"android": "https://dc.lft.to/lastmile_qr_scan", "ios": "https://dc.lft.to/lastmile_qr_scan"}, "name": "25699c3336056b1136c8288d1ce58522", "type": "electric_scooter", "lat": 38.928871, "is_disabled": 0}, {"fusion_lat": 0.0, "lon": -76.96875616666667, "is_reserved": 0, "bike_id": "9e6934b6698319a817a6fbd4be61c522", "fusion_lon": 0.0, "rental_uris": {"android": "https://dc.lft.to/lastmile_qr_scan", "ios": "https://dc.lft.to/lastmile_qr_scan"}, "name": "9e6934b6698319a817a6fbd4be61c522", "type": "electric_scooter", "lat": 38.87091266666667, "is_disabled": 0}, {"fusion_lat": 0.0, "lon": -77.02712433333333, "is_reserved": 0, "bike_id": "f00bd338278d377cafea494796a3e1a4", "fusion_lon": 0.0, "rental_uris": {"android": "https://dc.lft.to/lastmile_qr_scan", "ios": "https://dc.lft.to/lastmile_qr_scan"}, "name": "f00bd338278d377cafea494796a3e1a4", "type": "electric_scooter", "lat": 38.924686666666666, "is_disabled": 0}, {"fusion_lat": 0.0, "lon": -77.04700983333333, "is_reserved": 0, "bike_id": "aeddf713a6edb16cd10a309d1f0234e0", "fusion_lon": 0.0, "rental_uris": {"android": "https://dc.lft.to/lastmile_qr_scan", "ios": "https://dc.lft.to/lastmile_qr_scan"}, "name": "aeddf713a6edb16cd10a309d1f0234e0", "type": "electric_scooter", "lat": 38.92167716666667, "is_disabled": 0}, {"fusion_lat": 0.0, "lon": -77.021872, "is_reserved": 0, "bike_id": "c26ac55a44a9a2da3601ee385d6bf3ce", "fusion_lon": 0.0, "rental_uris": {"android": "https://dc.lft.to/lastmile_qr_scan", "ios": "https://dc.lft.to/lastmile_qr_scan"}, "name": "c26ac55a44a9a2da3601ee385d6bf3ce", "type": "electric_bike", "lat": 38.927974, "is_disabled": 0}, {"fusion_lat": 0.0, "lon": -76.98968516666666, "is_reserved": 0, "bike_id": "24dbe8b76dbbea6bb319ddff728027da", "fusion_lon": 0.0, "rental_uris": {"android": "https://dc.lft.to/lastmile_qr_scan", "ios": "https://dc.lft.to/lastmile_qr_scan"}, "name": "24dbe8b76dbbea6bb319ddff728027da", "type": "electric_scooter", "lat": 38.865358666666665, "is_disabled": 0}, {"fusion_lat": 0.0, "lon": -76.97397916666667, "is_reserved": 0, "bike_id": "a608921a77ca5d1b074da1c67731ae47", "fusion_lon": 0.0, "rental_uris": {"android": "https://dc.lft.to/lastmile_qr_scan", "ios": "https://dc.lft.to/lastmile_qr_scan"}, "name": "a608921a77ca5d1b074da1c67731ae47", "type": "electric_scooter", "lat": 38.9029715, "is_disabled": 0}, {"fusion_lat": 0.0, "lon": -77.06299383333334, "is_reserved": 0, "bike_id": "63f9b6aa55b74da1361c69d90eebdbd6", "fusion_lon": 0.0, "rental_uris": {"android": "https://dc.lft.to/lastmile_qr_scan", "ios": "https://dc.lft.to/lastmile_qr_scan"}, "name": "63f9b6aa55b74da1361c69d90eebdbd6", "type": "electric_scooter", "lat": 38.90400016666667, "is_disabled": 0}, {"fusion_lat": 0.0, "lon": -77.01850183333333, "is_reserved": 0, "bike_id": "81b70180d47bdb6dd27537445164ad5c", "fusion_lon": 0.0, "rental_uris": {"android": "https://dc.lft.to/lastmile_qr_scan", "ios": "https://dc.lft.to/lastmile_qr_scan"}, "name": "81b70180d47bdb6dd27537445164ad5c", "type": "electric_scooter", "lat": 38.9226375, "is_disabled": 0}, {"fusion_lat": 0.0, "lon": -77.02868983333333, "is_reserved": 0, "bike_id": "9ec1dabfb5c6445e83ec9e214a99d04b", "fusion_lon": 0.0, "rental_uris": {"android": "https://dc.lft.to/lastmile_qr_scan", "ios": "https://dc.lft.to/lastmile_qr_scan"}, "name": "9ec1dabfb5c6445e83ec9e214a99d04b", "type": "electric_scooter", "lat": 38.95084833333333, "is_disabled": 0}, {"fusion_lat": 0.0, "lon": -77.02583233333333, "is_reserved": 0, "bike_id": "4a4cc4a2d028cb6c7a6f19a7262b8e32", "fusion_lon": 0.0, "rental_uris": {"android": "https://dc.lft.to/lastmile_qr_scan", "ios": "https://dc.lft.to/lastmile_qr_scan"}, "name": "4a4cc4a2d028cb6c7a6f19a7262b8e32", "type": "electric_scooter", "lat": 38.90956666666666, "is_disabled": 0}, {"fusion_lat": 0.0, "lon": -77.03254566666666, "is_reserved": 0, "bike_id": "944e9f3aa468badb54a6232bd312b71b", "fusion_lon": 0.0, "rental_uris": {"android": "https://dc.lft.to/lastmile_qr_scan", "ios": "https://dc.lft.to/lastmile_qr_scan"}, "name": "944e9f3aa468badb54a6232bd312b71b", "type": "electric_scooter", "lat": 38.90447866666667, "is_disabled": 0}, {"fusion_lat": 0.0, "lon": -77.021451, "is_reserved": 0, "bike_id": "afa438a739eccf0887329b16e2e64ffb", "fusion_lon": 0.0, "rental_uris": {"android": "https://dc.lft.to/lastmile_qr_scan", "ios": "https://dc.lft.to/lastmile_qr_scan"}, "name": "afa438a739eccf0887329b16e2e64ffb", "type": "electric_scooter", "lat": 38.923224166666664, "is_disabled": 0}, {"fusion_lat": 0.0, "lon": -77.02763366666667, "is_reserved": 0, "bike_id": "27e53b720dcc3ab1f9bc5bf8d389812b", "fusion_lon": 0.0, "rental_uris": {"android": "https://dc.lft.to/lastmile_qr_scan", "ios": "https://dc.lft.to/lastmile_qr_scan"}, "name": "27e53b720dcc3ab1f9bc5bf8d389812b", "type": "electric_scooter", "lat": 38.95427316666667, "is_disabled": 0}, {"fusion_lat": 0.0, "lon": -76.9819455, "is_reserved": 0, "bike_id": "31353c2cc58f6e205e7d9faa055c7e5b", "fusion_lon": 0.0, "rental_uris": {"android": "https://dc.lft.to/lastmile_qr_scan", "ios": "https://dc.lft.to/lastmile_qr_scan"}, "name": "31353c2cc58f6e205e7d9faa055c7e5b", "type": "electric_scooter", "lat": 38.90281783333333, "is_disabled": 0}, {"fusion_lat": 0.0, "lon": -77.0000535, "is_reserved": 0, "bike_id": "2135f50d2613c6cbe4a13816f5d83d83", "fusion_lon": 0.0, "rental_uris": {"android": "https://dc.lft.to/lastmile_qr_scan", "ios": "https://dc.lft.to/lastmile_qr_scan"}, "name": "2135f50d2613c6cbe4a13816f5d83d83", "type": "electric_scooter", "lat": 38.90772666666667, "is_disabled": 0}, {"fusion_lat": 0.0, "lon": -77.03160866666667, "is_reserved": 0, "bike_id": "d81b44b586b8bf462c68f283244094e6", "fusion_lon": 0.0, "rental_uris": {"android": "https://dc.lft.to/lastmile_qr_scan", "ios": "https://dc.lft.to/lastmile_qr_scan"}, "name": "d81b44b586b8bf462c68f283244094e6", "type": "electric_scooter", "lat": 38.9060145, "is_disabled": 0}, {"fusion_lat": 0.0, "lon": -77.05351916666666, "is_reserved": 0, "bike_id": "78280b8a4185aca4a123d0d333be426a", "fusion_lon": 0.0, "rental_uris": {"android": "https://dc.lft.to/lastmile_qr_scan", "ios": "https://dc.lft.to/lastmile_qr_scan"}, "name": "78280b8a4185aca4a123d0d333be426a", "type": "electric_scooter", "lat": 38.923447333333336, "is_disabled": 0}, {"fusion_lat": 0.0, "lon": -77.02282466666666, "is_reserved": 0, "bike_id": "1cbe71e7e48087746a94583965bc095e", "fusion_lon": 0.0, "rental_uris": {"android": "https://dc.lft.to/lastmile_qr_scan", "ios": "https://dc.lft.to/lastmile_qr_scan"}, "name": "1cbe71e7e48087746a94583965bc095e", "type": "electric_scooter", "lat": 38.93535116666666, "is_disabled": 0}, {"fusion_lat": 0.0, "lon": -77.011652, "is_reserved": 0, "bike_id": "bbe269bc6d9edca7c47e6456a091390e", "fusion_lon": 0.0, "rental_uris": {"android": "https://dc.lft.to/lastmile_qr_scan", "ios": "https://dc.lft.to/lastmile_qr_scan"}, "name": "bbe269bc6d9edca7c47e6456a091390e", "type": "electric_scooter", "lat": 38.9002425, "is_disabled": 0}, {"fusion_lat": 0.0, "lon": -76.98701233333334, "is_reserved": 0, "bike_id": "a887fca3c12a134eabd876382be927b1", "fusion_lon": 0.0, "rental_uris": {"android": "https://dc.lft.to/lastmile_qr_scan", "ios": "https://dc.lft.to/lastmile_qr_scan"}, "name": "a887fca3c12a134eabd876382be927b1", "type": "electric_scooter", "lat": 38.862561, "is_disabled": 0}, {"fusion_lat": 0.0, "lon": -77.06328416666666, "is_reserved": 0, "bike_id": "65353cbbe47260e6128ba7a717ab133d", "fusion_lon": 0.0, "rental_uris": {"android": "https://dc.lft.to/lastmile_qr_scan", "ios": "https://dc.lft.to/lastmile_qr_scan"}, "name": "65353cbbe47260e6128ba7a717ab133d", "type": "electric_scooter", "lat": 38.90763583333333, "is_disabled": 0}, {"fusion_lat": 0.0, "lon": -77.02733316666666, "is_reserved": 0, "bike_id": "1835e997e7d5d8328f222e31c46152dc", "fusion_lon": 0.0, "rental_uris": {"android": "https://dc.lft.to/lastmile_qr_scan", "ios": "https://dc.lft.to/lastmile_qr_scan"}, "name": "1835e997e7d5d8328f222e31c46152dc", "type": "electric_scooter", "lat": 38.9409105, "is_disabled": 0}, {"fusion_lat": 0.0, "lon": -77.03438183333333, "is_reserved": 0, "bike_id": "50850706a6a0af6dd47066cb4203d80c", "fusion_lon": 0.0, "rental_uris": {"android": "https://dc.lft.to/lastmile_qr_scan", "ios": "https://dc.lft.to/lastmile_qr_scan"}, "name": "50850706a6a0af6dd47066cb4203d80c", "type": "electric_scooter", "lat": 38.91808316666667, "is_disabled": 0}, {"fusion_lat": 0.0, "lon": -77.03216016666667, "is_reserved": 0, "bike_id": "6f158787c5e3128c3661af1af687b8d7", "fusion_lon": 0.0, "rental_uris": {"android": "https://dc.lft.to/lastmile_qr_scan", "ios": "https://dc.lft.to/lastmile_qr_scan"}, "name": "6f158787c5e3128c3661af1af687b8d7", "type": "electric_scooter", "lat": 38.907288333333334, "is_disabled": 0}, {"fusion_lat": 0.0, "lon": -76.93730233333334, "is_reserved": 0, "bike_id": "a08ba9c5885c74cf3f8a71073d28b906", "fusion_lon": 0.0, "rental_uris": {"android": "https://dc.lft.to/lastmile_qr_scan", "ios": "https://dc.lft.to/lastmile_qr_scan"}, "name": "a08ba9c5885c74cf3f8a71073d28b906", "type": "electric_scooter", "lat": 38.89013883333333, "is_disabled": 0}, {"fusion_lat": 0.0, "lon": -77.00746316666667, "is_reserved": 0, "bike_id": "f4f626ff6af670603db1d1bd34409635", "fusion_lon": 0.0, "rental_uris": {"android": "https://dc.lft.to/lastmile_qr_scan", "ios": "https://dc.lft.to/lastmile_qr_scan"}, "name": "f4f626ff6af670603db1d1bd34409635", "type": "electric_scooter", "lat": 38.89786766666667, "is_disabled": 0}, {"fusion_lat": 0.0, "lon": -77.0233165, "is_reserved": 0, "bike_id": "fa70e489d013f6fcaa117e066e3a9c52", "fusion_lon": 0.0, "rental_uris": {"android": "https://dc.lft.to/lastmile_qr_scan", "ios": "https://dc.lft.to/lastmile_qr_scan"}, "name": "fa70e489d013f6fcaa117e066e3a9c52", "type": "electric_scooter", "lat": 38.9270195, "is_disabled": 0}, {"fusion_lat": 0.0, "lon": -77.0633075, "is_reserved": 0, "bike_id": "bc9d86eb9df30afb94a4ebdd05871255", "fusion_lon": 0.0, "rental_uris": {"android": "https://dc.lft.to/lastmile_qr_scan", "ios": "https://dc.lft.to/lastmile_qr_scan"}, "name": "bc9d86eb9df30afb94a4ebdd05871255", "type": "electric_scooter", "lat": 38.94419116666667, "is_disabled": 0}, {"fusion_lat": 0.0, "lon": -76.97434183333333, "is_reserved": 0, "bike_id": "6025637feff195757d6ad006667511ed", "fusion_lon": 0.0, "rental_uris": {"android": "https://dc.lft.to/lastmile_qr_scan", "ios": "https://dc.lft.to/lastmile_qr_scan"}, "name": "6025637feff195757d6ad006667511ed", "type": "electric_bike", "lat": 38.8641655, "is_disabled": 0}, {"fusion_lat": 0.0, "lon": -77.015123, "is_reserved": 0, "bike_id": "07bf3b35ac9150e3f0e63f640208da18", "fusion_lon": 0.0, "rental_uris": {"android": "https://dc.lft.to/lastmile_qr_scan", "ios": "https://dc.lft.to/lastmile_qr_scan"}, "name": "07bf3b35ac9150e3f0e63f640208da18", "type": "electric_scooter", "lat": 38.89243066666667, "is_disabled": 0}, {"fusion_lat": 0.0, "lon": -77.06862966666667, "is_reserved": 0, "bike_id": "265e011a02941de6c1eea48d1837d75a", "fusion_lon": 0.0, "rental_uris": {"android": "https://dc.lft.to/lastmile_qr_scan", "ios": "https://dc.lft.to/lastmile_qr_scan"}, "name": "265e011a02941de6c1eea48d1837d75a", "type": "electric_bike", "lat": 38.805764833333335, "is_disabled": 0}, {"fusion_lat": 0.0, "lon": -76.89537633333333, "is_reserved": 0, "bike_id": "62018e4d972ba7143b2dffe706aebd09", "fusion_lon": 0.0, "rental_uris": {"android": "https://dc.lft.to/lastmile_qr_scan", "ios": "https://dc.lft.to/lastmile_qr_scan"}, "name": "62018e4d972ba7143b2dffe706aebd09", "type": "electric_bike", "lat": 38.945551, "is_disabled": 0}, {"fusion_lat": 0.0, "lon": -76.99146566666667, "is_reserved": 0, "bike_id": "8c274e7f02d245c8a4d1529baba10bf0", "fusion_lon": 0.0, "rental_uris": {"android": "https://dc.lft.to/lastmile_qr_scan", "ios": "https://dc.lft.to/lastmile_qr_scan"}, "name": "8c274e7f02d245c8a4d1529baba10bf0", "type": "electric_scooter", "lat": 38.893452833333335, "is_disabled": 0}, {"fusion_lat": 0.0, "lon": -77.00195666666667, "is_reserved": 0, "bike_id": "aa37b7347402ac76c777cdc71380aaeb", "fusion_lon": 0.0, "rental_uris": {"android": "https://dc.lft.to/lastmile_qr_scan", "ios": "https://dc.lft.to/lastmile_qr_scan"}, "name": "aa37b7347402ac76c777cdc71380aaeb", "type": "electric_scooter", "lat": 38.916808, "is_disabled": 0}, {"fusion_lat": 0.0, "lon": -77.02290033333334, "is_reserved": 0, "bike_id": "49a8a38a697953484d8c8f49d3bbeb03", "fusion_lon": 0.0, "rental_uris": {"android": "https://dc.lft.to/lastmile_qr_scan", "ios": "https://dc.lft.to/lastmile_qr_scan"}, "name": "49a8a38a697953484d8c8f49d3bbeb03", "type": "electric_scooter", "lat": 38.91568483333333, "is_disabled": 0}, {"fusion_lat": 0.0, "lon": -76.94253233333333, "is_reserved": 0, "bike_id": "3702a4fa87de022f4c0f0d24a4c81134", "fusion_lon": 0.0, "rental_uris": {"android": "https://dc.lft.to/lastmile_qr_scan", "ios": "https://dc.lft.to/lastmile_qr_scan"}, "name": "3702a4fa87de022f4c0f0d24a4c81134", "type": "electric_scooter", "lat": 38.89671766666667, "is_disabled": 0}, {"fusion_lat": 0.0, "lon": -77.0175795, "is_reserved": 0, "bike_id": "bd04f89863b273f557e7a07c64ad1d5e", "fusion_lon": 0.0, "rental_uris": {"android": "https://dc.lft.to/lastmile_qr_scan", "ios": "https://dc.lft.to/lastmile_qr_scan"}, "name": "bd04f89863b273f557e7a07c64ad1d5e", "type": "electric_scooter", "lat": 38.90382233333333, "is_disabled": 0}, {"fusion_lat": 0.0, "lon": -77.001219, "is_reserved": 0, "bike_id": "897945aaab7d1c50f6faa92d0861791b", "fusion_lon": 0.0, "rental_uris": {"android": "https://dc.lft.to/lastmile_qr_scan", "ios": "https://dc.lft.to/lastmile_qr_scan"}, "name": "897945aaab7d1c50f6faa92d0861791b", "type": "electric_scooter", "lat": 38.905022333333335, "is_disabled": 0}, {"fusion_lat": 0.0, "lon": -77.032606, "is_reserved": 0, "bike_id": "59bc86b7a09daf5b8f4b482f0565dd78", "fusion_lon": 0.0, "rental_uris": {"android": "https://dc.lft.to/lastmile_qr_scan", "ios": "https://dc.lft.to/lastmile_qr_scan"}, "name": "59bc86b7a09daf5b8f4b482f0565dd78", "type": "electric_scooter", "lat": 38.92742066666667, "is_disabled": 0}, {"fusion_lat": 0.0, "lon": -77.04323083333334, "is_reserved": 0, "bike_id": "70f7aa139694ab49bdb147ad1751d587", "fusion_lon": 0.0, "rental_uris": {"android": "https://dc.lft.to/lastmile_qr_scan", "ios": "https://dc.lft.to/lastmile_qr_scan"}, "name": "70f7aa139694ab49bdb147ad1751d587", "type": "electric_scooter", "lat": 38.923172, "is_disabled": 0}, {"fusion_lat": 0.0, "lon": -77.04977816666667, "is_reserved": 0, "bike_id": "57a11d8c2324d80cd4fce1dd60c88f63", "fusion_lon": 0.0, "rental_uris": {"android": "https://dc.lft.to/lastmile_qr_scan", "ios": "https://dc.lft.to/lastmile_qr_scan"}, "name": "57a11d8c2324d80cd4fce1dd60c88f63", "type": "electric_bike", "lat": 39.062941333333335, "is_disabled": 0}, {"fusion_lat": 0.0, "lon": -77.02113033333333, "is_reserved": 0, "bike_id": "fe2de4a24d3f909f825102485309d661", "fusion_lon": 0.0, "rental_uris": {"android": "https://dc.lft.to/lastmile_qr_scan", "ios": "https://dc.lft.to/lastmile_qr_scan"}, "name": "fe2de4a24d3f909f825102485309d661", "type": "electric_scooter", "lat": 38.894678, "is_disabled": 0}, {"fusion_lat": 0.0, "lon": -76.985359, "is_reserved": 0, "bike_id": "9b7d33045dc8d0ec01b42899c5d82211", "fusion_lon": 0.0, "rental_uris": {"android": "https://dc.lft.to/lastmile_qr_scan", "ios": "https://dc.lft.to/lastmile_qr_scan"}, "name": "9b7d33045dc8d0ec01b42899c5d82211", "type": "electric_scooter", "lat": 38.880820666666665, "is_disabled": 0}, {"fusion_lat": 0.0, "lon": -77.02458866666667, "is_reserved": 0, "bike_id": "8e65b7294ab3509332a870c9476907b0", "fusion_lon": 0.0, "rental_uris": {"android": "https://dc.lft.to/lastmile_qr_scan", "ios": "https://dc.lft.to/lastmile_qr_scan"}, "name": "8e65b7294ab3509332a870c9476907b0", "type": "electric_scooter", "lat": 38.89733833333333, "is_disabled": 0}, {"fusion_lat": 0.0, "lon": -77.03031683333333, "is_reserved": 0, "bike_id": "d388795d06bc2b5275268a792b463961", "fusion_lon": 0.0, "rental_uris": {"android": "https://dc.lft.to/lastmile_qr_scan", "ios": "https://dc.lft.to/lastmile_qr_scan"}, "name": "d388795d06bc2b5275268a792b463961", "type": "electric_scooter", "lat": 38.8982445, "is_disabled": 0}, {"fusion_lat": 0.0, "lon": -77.0328975, "is_reserved": 0, "bike_id": "4fb64a83c2b9191cf02639fb79d7e709", "fusion_lon": 0.0, "rental_uris": {"android": "https://dc.lft.to/lastmile_qr_scan", "ios": "https://dc.lft.to/lastmile_qr_scan"}, "name": "4fb64a83c2b9191cf02639fb79d7e709", "type": "electric_scooter", "lat": 38.95632166666667, "is_disabled": 0}, {"fusion_lat": 0.0, "lon": -76.946254, "is_reserved": 0, "bike_id": "c5d09739b7053261198f830db2332f4f", "fusion_lon": 0.0, "rental_uris": {"android": "https://dc.lft.to/lastmile_qr_scan", "ios": "https://dc.lft.to/lastmile_qr_scan"}, "name": "c5d09739b7053261198f830db2332f4f", "type": "electric_bike", "lat": 38.83237, "is_disabled": 0}, {"fusion_lat": 0.0, "lon": -77.043267, "is_reserved": 0, "bike_id": "46157de8a801b7c2bf7d1c9f68e5f871", "fusion_lon": 0.0, "rental_uris": {"android": "https://dc.lft.to/lastmile_qr_scan", "ios": "https://dc.lft.to/lastmile_qr_scan"}, "name": "46157de8a801b7c2bf7d1c9f68e5f871", "type": "electric_scooter", "lat": 38.8922345, "is_disabled": 0}, {"fusion_lat": 0.0, "lon": -77.013128, "is_reserved": 0, "bike_id": "ac4e390cf643506a19c24106b636c697", "fusion_lon": 0.0, "rental_uris": {"android": "https://dc.lft.to/lastmile_qr_scan", "ios": "https://dc.lft.to/lastmile_qr_scan"}, "name": "ac4e390cf643506a19c24106b636c697", "type": "electric_scooter", "lat": 38.910355, "is_disabled": 0}, {"fusion_lat": 0.0, "lon": -77.02322966666667, "is_reserved": 0, "bike_id": "81fdb931f16424ff18925ea3d3f43847", "fusion_lon": 0.0, "rental_uris": {"android": "https://dc.lft.to/lastmile_qr_scan", "ios": "https://dc.lft.to/lastmile_qr_scan"}, "name": "81fdb931f16424ff18925ea3d3f43847", "type": "electric_scooter", "lat": 38.93596466666666, "is_disabled": 0}, {"fusion_lat": 0.0, "lon": -77.039301, "is_reserved": 0, "bike_id": "f4e33f0fdadf35f9f0c155000d6a5c61", "fusion_lon": 0.0, "rental_uris": {"android": "https://dc.lft.to/lastmile_qr_scan", "ios": "https://dc.lft.to/lastmile_qr_scan"}, "name": "f4e33f0fdadf35f9f0c155000d6a5c61", "type": "electric_scooter", "lat": 38.902800666666664, "is_disabled": 0}, {"fusion_lat": 0.0, "lon": -77.03233116666667, "is_reserved": 0, "bike_id": "062a6b5ebcbd2b65bd986496242fa381", "fusion_lon": 0.0, "rental_uris": {"android": "https://dc.lft.to/lastmile_qr_scan", "ios": "https://dc.lft.to/lastmile_qr_scan"}, "name": "062a6b5ebcbd2b65bd986496242fa381", "type": "electric_scooter", "lat": 38.926339166666665, "is_disabled": 0}, {"fusion_lat": 0.0, "lon": -77.02416183333334, "is_reserved": 0, "bike_id": "1fbca905aa5a84d3d75273292c5660dc", "fusion_lon": 0.0, "rental_uris": {"android": "https://dc.lft.to/lastmile_qr_scan", "ios": "https://dc.lft.to/lastmile_qr_scan"}, "name": "1fbca905aa5a84d3d75273292c5660dc", "type": "electric_scooter", "lat": 38.89254966666667, "is_disabled": 0}, {"fusion_lat": 0.0, "lon": -77.02348616666667, "is_reserved": 0, "bike_id": "8b3fca0ccee8f5bf93fbe9a050e8775c", "fusion_lon": 0.0, "rental_uris": {"android": "https://dc.lft.to/lastmile_qr_scan", "ios": "https://dc.lft.to/lastmile_qr_scan"}, "name": "8b3fca0ccee8f5bf93fbe9a050e8775c", "type": "electric_scooter", "lat": 38.91693766666667, "is_disabled": 0}, {"fusion_lat": 0.0, "lon": -77.02128783333333, "is_reserved": 0, "bike_id": "6e614ef5dfeea7aca37bde1a16dc71e8", "fusion_lon": 0.0, "rental_uris": {"android": "https://dc.lft.to/lastmile_qr_scan", "ios": "https://dc.lft.to/lastmile_qr_scan"}, "name": "6e614ef5dfeea7aca37bde1a16dc71e8", "type": "electric_scooter", "lat": 38.9241435, "is_disabled": 0}, {"fusion_lat": 0.0, "lon": -77.00905783333333, "is_reserved": 0, "bike_id": "3071da84ba5aeb5eef3d18de64326008", "fusion_lon": 0.0, "rental_uris": {"android": "https://dc.lft.to/lastmile_qr_scan", "ios": "https://dc.lft.to/lastmile_qr_scan"}, "name": "3071da84ba5aeb5eef3d18de64326008", "type": "electric_scooter", "lat": 38.89555566666667, "is_disabled": 0}, {"fusion_lat": 0.0, "lon": -77.01972366666666, "is_reserved": 0, "bike_id": "8c9c955926fcb384f3e49d0224ed52a7", "fusion_lon": 0.0, "rental_uris": {"android": "https://dc.lft.to/lastmile_qr_scan", "ios": "https://dc.lft.to/lastmile_qr_scan"}, "name": "8c9c955926fcb384f3e49d0224ed52a7", "type": "electric_scooter", "lat": 38.88335383333333, "is_disabled": 0}, {"fusion_lat": 0.0, "lon": -76.99580016666667, "is_reserved": 0, "bike_id": "565bca9f6200148b45071cc32908df6e", "fusion_lon": 0.0, "rental_uris": {"android": "https://dc.lft.to/lastmile_qr_scan", "ios": "https://dc.lft.to/lastmile_qr_scan"}, "name": "565bca9f6200148b45071cc32908df6e", "type": "electric_bike", "lat": 38.852938333333334, "is_disabled": 0}, {"fusion_lat": 0.0, "lon": -77.02470566666666, "is_reserved": 0, "bike_id": "915e2cb452a3504784ad93fe5afd797a", "fusion_lon": 0.0, "rental_uris": {"android": "https://dc.lft.to/lastmile_qr_scan", "ios": "https://dc.lft.to/lastmile_qr_scan"}, "name": "915e2cb452a3504784ad93fe5afd797a", "type": "electric_scooter", "lat": 38.93302216666667, "is_disabled": 0}, {"fusion_lat": 0.0, "lon": -77.02398833333334, "is_reserved": 0, "bike_id": "7c80977df4fa1a2fb52a9da50c98484c", "fusion_lon": 0.0, "rental_uris": {"android": "https://dc.lft.to/lastmile_qr_scan", "ios": "https://dc.lft.to/lastmile_qr_scan"}, "name": "7c80977df4fa1a2fb52a9da50c98484c", "type": "electric_scooter", "lat": 38.908155, "is_disabled": 0}, {"fusion_lat": 0.0, "lon": -77.0410725, "is_reserved": 0, "bike_id": "5c9f286c17a8119f19365f940546fdaf", "fusion_lon": 0.0, "rental_uris": {"android": "https://dc.lft.to/lastmile_qr_scan", "ios": "https://dc.lft.to/lastmile_qr_scan"}, "name": "5c9f286c17a8119f19365f940546fdaf", "type": "electric_scooter", "lat": 38.9280425, "is_disabled": 0}, {"fusion_lat": 0.0, "lon": -77.0327945, "is_reserved": 0, "bike_id": "c4ffa6a789b2af0f7c798b1262931801", "fusion_lon": 0.0, "rental_uris": {"android": "https://dc.lft.to/lastmile_qr_scan", "ios": "https://dc.lft.to/lastmile_qr_scan"}, "name": "c4ffa6a789b2af0f7c798b1262931801", "type": "electric_scooter", "lat": 38.898463, "is_disabled": 0}, {"fusion_lat": 0.0, "lon": -77.03333766666667, "is_reserved": 0, "bike_id": "d316da1f67cdc71f7427f61aa2ffca1d", "fusion_lon": 0.0, "rental_uris": {"android": "https://dc.lft.to/lastmile_qr_scan", "ios": "https://dc.lft.to/lastmile_qr_scan"}, "name": "d316da1f67cdc71f7427f61aa2ffca1d", "type": "electric_scooter", "lat": 38.91710466666667, "is_disabled": 0}, {"fusion_lat": 0.0, "lon": -77.00781533333334, "is_reserved": 0, "bike_id": "44bd41414e1b2a24587873b571b996fa", "fusion_lon": 0.0, "rental_uris": {"android": "https://dc.lft.to/lastmile_qr_scan", "ios": "https://dc.lft.to/lastmile_qr_scan"}, "name": "44bd41414e1b2a24587873b571b996fa", "type": "electric_bike", "lat": 38.983858833333336, "is_disabled": 0}, {"fusion_lat": 0.0, "lon": -77.02876866666666, "is_reserved": 0, "bike_id": "b8fd6d67c5e29a25d66c52b815356824", "fusion_lon": 0.0, "rental_uris": {"android": "https://dc.lft.to/lastmile_qr_scan", "ios": "https://dc.lft.to/lastmile_qr_scan"}, "name": "b8fd6d67c5e29a25d66c52b815356824", "type": "electric_scooter", "lat": 38.928188166666665, "is_disabled": 0}, {"fusion_lat": 0.0, "lon": -77.026512, "is_reserved": 0, "bike_id": "35b7414a9d3be8c92a2438d060807c7a", "fusion_lon": 0.0, "rental_uris": {"android": "https://dc.lft.to/lastmile_qr_scan", "ios": "https://dc.lft.to/lastmile_qr_scan"}, "name": "35b7414a9d3be8c92a2438d060807c7a", "type": "electric_bike", "lat": 38.9071635, "is_disabled": 0}, {"fusion_lat": 0.0, "lon": -77.03808, "is_reserved": 0, "bike_id": "204ade54ee2e3fcc3e1226343ce77c53", "fusion_lon": 0.0, "rental_uris": {"android": "https://dc.lft.to/lastmile_qr_scan", "ios": "https://dc.lft.to/lastmile_qr_scan"}, "name": "204ade54ee2e3fcc3e1226343ce77c53", "type": "electric_scooter", "lat": 38.9156535, "is_disabled": 0}, {"fusion_lat": 0.0, "lon": -77.02696183333333, "is_reserved": 0, "bike_id": "006d4390658a378b8730b1a15e1786ea", "fusion_lon": 0.0, "rental_uris": {"android": "https://dc.lft.to/lastmile_qr_scan", "ios": "https://dc.lft.to/lastmile_qr_scan"}, "name": "006d4390658a378b8730b1a15e1786ea", "type": "electric_scooter", "lat": 38.9266545, "is_disabled": 0}, {"fusion_lat": 0.0, "lon": -77.00119583333333, "is_reserved": 0, "bike_id": "544a3618b7796119ee383207c94f27af", "fusion_lon": 0.0, "rental_uris": {"android": "https://dc.lft.to/lastmile_qr_scan", "ios": "https://dc.lft.to/lastmile_qr_scan"}, "name": "544a3618b7796119ee383207c94f27af", "type": "electric_scooter", "lat": 38.912466333333334, "is_disabled": 0}, {"fusion_lat": 0.0, "lon": -77.00930433333333, "is_reserved": 0, "bike_id": "8b53ad4c55caa6ed9190ef0f7caaecdc", "fusion_lon": 0.0, "rental_uris": {"android": "https://dc.lft.to/lastmile_qr_scan", "ios": "https://dc.lft.to/lastmile_qr_scan"}, "name": "8b53ad4c55caa6ed9190ef0f7caaecdc", "type": "electric_scooter", "lat": 38.8960695, "is_disabled": 0}, {"fusion_lat": 0.0, "lon": -77.03668783333333, "is_reserved": 0, "bike_id": "c75b5cd3a26ba7f44d2fbe0d5ba71935", "fusion_lon": 0.0, "rental_uris": {"android": "https://dc.lft.to/lastmile_qr_scan", "ios": "https://dc.lft.to/lastmile_qr_scan"}, "name": "c75b5cd3a26ba7f44d2fbe0d5ba71935", "type": "electric_scooter", "lat": 38.906927333333336, "is_disabled": 0}, {"fusion_lat": 0.0, "lon": -77.03958516666667, "is_reserved": 0, "bike_id": "6b4a4d958c30c16af34316be7662ce3e", "fusion_lon": 0.0, "rental_uris": {"android": "https://dc.lft.to/lastmile_qr_scan", "ios": "https://dc.lft.to/lastmile_qr_scan"}, "name": "6b4a4d958c30c16af34316be7662ce3e", "type": "electric_scooter", "lat": 38.892431333333334, "is_disabled": 0}, {"fusion_lat": 0.0, "lon": -77.01947733333333, "is_reserved": 0, "bike_id": "daff5ed974af0c3a731e888f64c24ea3", "fusion_lon": 0.0, "rental_uris": {"android": "https://dc.lft.to/lastmile_qr_scan", "ios": "https://dc.lft.to/lastmile_qr_scan"}, "name": "daff5ed974af0c3a731e888f64c24ea3", "type": "electric_bike", "lat": 38.924202333333334, "is_disabled": 0}, {"fusion_lat": 0.0, "lon": -77.07973516666667, "is_reserved": 0, "bike_id": "d5fde8df6fd61f9aa54bd1727402fb15", "fusion_lon": 0.0, "rental_uris": {"android": "https://dc.lft.to/lastmile_qr_scan", "ios": "https://dc.lft.to/lastmile_qr_scan"}, "name": "d5fde8df6fd61f9aa54bd1727402fb15", "type": "electric_scooter", "lat": 38.9258625, "is_disabled": 0},