{"data": {"bikes": [{"bike_id": "086ee74eff5c6106130408c6b9d499fc", "name": "086ee74eff5c6106130408c6b9d499fc", "lat": 38.93560883333333, "fusion_lat": 0.0, "type": "electric_scooter", "lon": -77.032594, "is_disabled": 0, "fusion_lon": 0.0, "rental_uris": {"android": "https://dc.lft.to/lastmile_qr_scan", "ios": "https://dc.lft.to/lastmile_qr_scan"}, "is_reserved": 0}, {"bike_id": "4baa888e5616ecddacc1958d008fa0d8", "name": "4baa888e5616ecddacc1958d008fa0d8", "lat": 38.85222566666667, "fusion_lat": 0.0, "type": "electric_scooter", "lon": -76.9942645, "is_disabled": 0, "fusion_lon": 0.0, "rental_uris": {"android": "https://dc.lft.to/lastmile_qr_scan", "ios": "https://dc.lft.to/lastmile_qr_scan"}, "is_reserved": 0}, {"bike_id": "ba4d4619e2146629a615d27a4019e120", "name": "ba4d4619e2146629a615d27a4019e120", "lat": 38.8990755, "fusion_lat": 0.0, "type": "electric_scooter", "lon": -76.98571916666667, "is_disabled": 0, "fusion_lon": 0.0, "rental_uris": {"android": "https://dc.lft.to/lastmile_qr_scan", "ios": "https://dc.lft.to/lastmile_qr_scan"}, "is_reserved": 0}, {"bike_id": "ab758266c9d5d21cdee46bed23b02a49", "name": "ab758266c9d5d21cdee46bed23b02a49", "lat": 38.93612866666667, "fusion_lat": 0.0, "type": "electric_scooter", "lon": -77.03211216666666, "is_disabled": 0, "fusion_lon": 0.0, "rental_uris": {"android": "https://dc.lft.to/lastmile_qr_scan", "ios": "https://dc.lft.to/lastmile_qr_scan"}, "is_reserved": 0}, {"bike_id": "8cbff58a109de8c17c6a6a7ddaca6d68", "name": "8cbff58a109de8c17c6a6a7ddaca6d68", "lat": 38.9240335, "fusion_lat": 0.0, "type": "electric_scooter", "lon": -77.01951266666667, "is_disabled": 0, "fusion_lon": 0.0, "rental_uris": {"android": "https://dc.lft.to/lastmile_qr_scan", "ios": "https://dc.lft.to/lastmile_qr_scan"}, "is_reserved": 0}, {"bike_id": "e84ae3888dada7c8998e46aad67b3d4a", "name": "e84ae3888dada7c8998e46aad67b3d4a", "lat": 38.91599683333333, "fusion_lat": 0.0, "type": "electric_scooter", "lon": -77.02573583333333, "is_disabled": 0, "fusion_lon": 0.0, "rental_uris": {"android": "https://dc.lft.to/lastmile_qr_scan", "ios": "https://dc.lft.to/lastmile_qr_scan"}, "is_reserved": 0}, {"bike_id": "0e8d1d119f8bab5457090af7c73e1b77", "name": "0e8d1d119f8bab5457090af7c73e1b77", "lat": 38.900257333333336, "fusion_lat": 0.0, "type": "electric_scooter", "lon": -77.03095583333334, "is_disabled": 0, "fusion_lon": 0.0, "rental_uris": {"android": "https://dc.lft.to/lastmile_qr_scan", "ios": "https://dc.lft.to/lastmile_qr_scan"}, "is_reserved": 0}, {"bike_id": "ea480a0a35a69952b63d8581b2dc0c42", "name": "ea480a0a35a69952b63d8581b2dc0c42", "lat": 38.919328666666665, "fusion_lat": 0.0, "type": "electric_scooter", "lon": -77.049081, "is_disabled": 0, "fusion_lon": 0.0, "rental_uris": {"android": "https://dc.lft.to/lastmile_qr_scan", "ios": "https://dc.lft.to/lastmile_qr_scan"}, "is_reserved": 0}, {"bike_id": "50928fb4ce551b499bbd54a0d9360f19", "name": "50928fb4ce551b499bbd54a0d9360f19", "lat": 38.920207833333336, "fusion_lat": 0.0, "type": "electric_scooter", "lon": -77.0307475, "is_disabled": 0, "fusion_lon": 0.0, "rental_uris": {"android": "https://dc.lft.to/lastmile_qr_scan", "ios": "https://dc.lft.to/lastmile_qr_scan"}, "is_reserved": 0}, {"bike_id": "c377b24655b59de3dce1399df9371077", "name": "c377b24655b59de3dce1399df9371077", "lat": 38.896096666666665, "fusion_lat": 0.0, "type": "electric_scooter", "lon": -77.04593983333334, "is_disabled": 0, "fusion_lon": 0.0, "rental_uris": {"android": "https://dc.lft.to/lastmile_qr_scan", "ios": "https://dc.lft.to/lastmile_qr_scan"}, "is_reserved": 0}, {"bike_id": "fa75ae6b831437d537e3634d983dca8c", "name": "fa75ae6b831437d537e3634d983dca8c", "lat": 38.902587, "fusion_lat": 0.0, "type": "electric_scooter", "lon": -77.0175465, "is_disabled": 0, "fusion_lon": 0.0, "rental_uris": {"android": "https://dc.lft.to/lastmile_qr_scan", "ios": "https://dc.lft.to/lastmile_qr_scan"}, "is_reserved": 0}, {"bike_id": "d0232255e5a3b32b18b5df1408b9bab0", "name": "d0232255e5a3b32b18b5df1408b9bab0", "lat": 38.90464683333333, "fusion_lat": 0.0, "type": "electric_scooter", "lon": -77.006042, "is_disabled": 0, "fusion_lon": 0.0, "rental_uris": {"android": "https://dc.lft.to/lastmile_qr_scan", "ios": "https://dc.lft.to/lastmile_qr_scan"}, "is_reserved": 0}, {"bike_id": "55fe1ec9d3a6d4921814a9c4c03463f9", "name": "55fe1ec9d3a6d4921814a9c4c03463f9", "lat": 38.927565333333334, "fusion_lat": 0.0, "type": "electric_scooter", "lon": -77.02299316666667, "is_disabled": 0, "fusion_lon": 0.0, "rental_uris": {"android": "https://dc.lft.to/lastmile_qr_scan", "ios": "https://dc.lft.to/lastmile_qr_scan"}, "is_reserved": 0}, {"bike_id": "c21f45a3b4979e542bb9b25e969e7079", "name": "c21f45a3b4979e542bb9b25e969e7079", "lat": 38.92332533333333, "fusion_lat": 0.0, "type": "electric_scooter", "lon": -77.03507916666666, "is_disabled": 0, "fusion_lon": 0.0, "rental_uris": {"android": "https://dc.lft.to/lastmile_qr_scan", "ios": "https://dc.lft.to/lastmile_qr_scan"}, "is_reserved": 0}, {"bike_id": "65804760fa96e65c6c9d9074ab5f1e99", "name": "65804760fa96e65c6c9d9074ab5f1e99", "lat": 38.90538333333333, "fusion_lat": 0.0, "type": "electric_scooter", "lon": -77.04099716666667, "is_disabled": 0, "fusion_lon": 0.0, "rental_uris": {"android": "https://dc.lft.to/lastmile_qr_scan", "ios": "https://dc.lft.to/lastmile_qr_scan"}, "is_reserved": 0}, {"bike_id": "bd534ad41fb1e5f481c6d4c1ea16240e", "name": "bd534ad41fb1e5f481c6d4c1ea16240e", "lat": 38.918094333333336, "fusion_lat": 0.0, "type": "electric_scooter", "lon": -77.0319225, "is_disabled": 0, "fusion_lon": 0.0, "rental_uris": {"android": "https://dc.lft.to/lastmile_qr_scan", "ios": "https://dc.lft.to/lastmile_qr_scan"}, "is_reserved": 0}, {"bike_id": "534577b194c5fe109ee6778b399d4425", "name": "534577b194c5fe109ee6778b399d4425", "lat": 38.944123166666664, "fusion_lat": 0.0, "type": "electric_scooter", "lon": -77.055176, "is_disabled": 0, "fusion_lon": 0.0, "rental_uris": {"android": "https://dc.lft.to/lastmile_qr_scan", "ios": "https://dc.lft.to/lastmile_qr_scan"}, "is_reserved": 0}, {"bike_id": "1a3891c2bd980a3673f0c5629d74565b", "name": "1a3891c2bd980a3673f0c5629d74565b", "lat": 38.905663833333335, "fusion_lat": 0.0, "type": "electric_scooter", "lon": -77.0058035, "is_disabled": 0, "fusion_lon": 0.0, "rental_uris": {"android": "https://dc.lft.to/lastmile_qr_scan", "ios": "https://dc.lft.to/lastmile_qr_scan"}, "is_reserved": 0}, {"bike_id": "0e7277a249eac590104084e0a13c7bbf", "name": "0e7277a249eac590104084e0a13c7bbf", "lat": 38.8949535, "fusion_lat": 0.0, "type": "electric_scooter", "lon": -77.00195033333334, "is_disabled": 0, "fusion_lon": 0.0, "rental_uris": {"android": "https://dc.lft.to/lastmile_qr_scan", "ios": "https://dc.lft.to/lastmile_qr_scan"}, "is_reserved": 0}, {"bike_id": "fd40646061b0add8bc5ed37f8e23808b", "name": "fd40646061b0add8bc5ed37f8e23808b", "lat": 38.905609, "fusion_lat": 0.0, "type": "electric_scooter", "lon": -77.02915716666666, "is_disabled": 0, "fusion_lon": 0.0, "rental_uris": {"android": "https://dc.lft.to/lastmile_qr_scan", "ios": "https://dc.lft.to/lastmile_qr_scan"}, "is_reserved": 0}, {"bike_id": "680139ff9669047534a721a597f79f5b", "name": "680139ff9669047534a721a597f79f5b", "lat": 38.89818133333333, "fusion_lat": 0.0, "type": "electric_scooter", "lon": -77.00746466666666, "is_disabled": 0, "fusion_lon": 0.0, "rental_uris": {"android": "https://dc.lft.to/lastmile_qr_scan", "ios": "https://dc.lft.to/lastmile_qr_scan"}, "is_reserved": 0}, {"bike_id": "95dc6e3a66066d43617ca6cf8bc951cc", "name": "95dc6e3a66066d43617ca6cf8bc951cc", "lat": 38.9147715, "fusion_lat": 0.0, "type": "electric_scooter", "lon": -77.01853616666666, "is_disabled": 0, "fusion_lon": 0.0, "rental_uris": {"android": "https://dc.lft.to/lastmile_qr_scan", "ios": "https://dc.lft.to/lastmile_qr_scan"}, "is_reserved": 0}, {"bike_id": "f089621778e5f56ed7e6d4ac3ea76a05", "name": "f089621778e5f56ed7e6d4ac3ea76a05", "lat": 38.932407833333336, "fusion_lat": 0.0, "type": "electric_scooter", "lon": -77.031922, "is_disabled": 0, "fusion_lon": 0.0, "rental_uris": {"android": "https://dc.lft.to/lastmile_qr_scan", "ios": "https://dc.lft.to/lastmile_qr_scan"}, "is_reserved": 0}, {"bike_id": "85cf0365e5918888de7885f8f21e6d4a", "name": "85cf0365e5918888de7885f8f21e6d4a", "lat": 38.90845683333333, "fusion_lat": 0.0, "type": "electric_scooter", "lon": -77.06342733333334, "is_disabled": 0, "fusion_lon": 0.0, "rental_uris": {"android": "https://dc.lft.to/lastmile_qr_scan", "ios": "https://dc.lft.to/lastmile_qr_scan"}, "is_reserved": 0}, {"bike_id": "6f0213bab2631023a3e0be6757eba0d5", "name": "6f0213bab2631023a3e0be6757eba0d5", "lat": 38.8877005, "fusion_lat": 0.0, "type": "electric_scooter", "lon": -76.932599, "is_disabled": 0, "fusion_lon": 0.0, "rental_uris": {"android": "https://dc.lft.to/lastmile_qr_scan", "ios": "https://dc.lft.to/lastmile_qr_scan"}, "is_reserved": 0}, {"bike_id": "5b800eb6c0036b640d9caa4ca833566e", "name": "5b800eb6c0036b640d9caa4ca833566e", "lat": 38.907250833333336, "fusion_lat": 0.0, "type": "electric_scooter", "lon": -77.0113045, "is_disabled": 0, "fusion_lon": 0.0, "rental_uris": {"android": "https://dc.lft.to/lastmile_qr_scan", "ios": "https://dc.lft.to/lastmile_qr_scan"}, "is_reserved": 0}, {"bike_id": "63f624475779a54c27c719975ba0f6ad", "name": "63f624475779a54c27c719975ba0f6ad", "lat": 38.916305, "fusion_lat": 0.0, "type": "electric_scooter", "lon": -77.04621466666667, "is_disabled": 0, "fusion_lon": 0.0, "rental_uris": {"android": "https://dc.lft.to/lastmile_qr_scan", "ios": "https://dc.lft.to/lastmile_qr_scan"}, "is_reserved": 0}, {"bike_id": "1855a597ef9b4285a90a69d251f1f090", "name": "1855a597ef9b4285a90a69d251f1f090", "lat": 38.900688333333335, "fusion_lat": 0.0, "type": "electric_scooter", "lon": -77.02186366666666, "is_disabled": 0, "fusion_lon": 0.0, "rental_uris": {"android": "https://dc.lft.to/lastmile_qr_scan", "ios": "https://dc.lft.to/lastmile_qr_scan"}, "is_reserved": 0}, {"bike_id": "33b7bbd5ff8a8e750ce29811326f178a", "name": "33b7bbd5ff8a8e750ce29811326f178a", "lat": 38.835438333333336, "fusion_lat": 0.0, "type": "electric_bike", "lon": -77.00747516666667, "is_disabled": 0, "fusion_lon": 0.0, "rental_uris": {"android": "https://dc.lft.to/lastmile_qr_scan", "ios": "https://dc.lft.to/lastmile_qr_scan"}, "is_reserved": 0}, {"bike_id": "c0e333f4c83ac8fea05b32abbdda9123", "name": "c0e333f4c83ac8fea05b32abbdda9123", "lat": 38.90391733333333, "fusion_lat": 0.0, "type": "electric_scooter", "lon": -77.024828, "is_disabled": 0, "fusion_lon": 0.0, "rental_uris": {"android": "https://dc.lft.to/lastmile_qr_scan", "ios": "https://dc.lft.to/lastmile_qr_scan"}, "is_reserved": 0}, {"bike_id": "779ceb3e2a6f00c626e6471e12162ea7", "name": "779ceb3e2a6f00c626e6471e12162ea7", "lat": 38.91986983333334, "fusion_lat": 0.0, "type": "electric_scooter", "lon": -77.033135, "is_disabled": 0, "fusion_lon": 0.0, "rental_uris": {"android": "https://dc.lft.to/lastmile_qr_scan", "ios": "https://dc.lft.to/lastmile_qr_scan"}, "is_reserved": 0}, {"bike_id": "adbb17112fbac1c616e0a2bcde3ff739", "name": "adbb17112fbac1c616e0a2bcde3ff739", "lat": 38.920303833333335, "fusion_lat": 0.0, "type": "electric_scooter", "lon": -77.03173383333333, "is_disabled": 0, "fusion_lon": 0.0, "rental_uris": {"android": "https://dc.lft.to/lastmile_qr_scan", "ios": "https://dc.lft.to/lastmile_qr_scan"}, "is_reserved": 0}, {"bike_id": "3499c33055e5648d493712d1584bd743", "name": "3499c33055e5648d493712d1584bd743", "lat": 38.9052175, "fusion_lat": 0.0, "type": "electric_scooter", "lon": -77.04157366666666, "is_disabled": 0, "fusion_lon": 0.0, "rental_uris": {"android": "https://dc.lft.to/lastmile_qr_scan", "ios": "https://dc.lft.to/lastmile_qr_scan"}, "is_reserved": 0}, {"bike_id": "3dcfa5d8814dce3ca56ad928fedec1b5", "name": "3dcfa5d8814dce3ca56ad928fedec1b5", "lat": 38.90019016666667, "fusion_lat": 0.0, "type": "electric_scooter", "lon": -77.002116, "is_disabled": 0, "fusion_lon": 0.0, "rental_uris": {"android": "https://dc.lft.to/lastmile_qr_scan", "ios": "https://dc.lft.to/lastmile_qr_scan"}, "is_reserved": 0}, {"bike_id": "016c93e3a5dc2ead89225492cb398b2f", "name": "016c93e3a5dc2ead89225492cb398b2f", "lat": 38.90641683333333, "fusion_lat": 0.0, "type": "electric_scooter", "lon": -77.0533435, "is_disabled": 0, "fusion_lon": 0.0, "rental_uris": {"android": "https://dc.lft.to/lastmile_qr_scan", "ios": "https://dc.lft.to/lastmile_qr_scan"}, "is_reserved": 0}, {"bike_id": "a41b9c1959b2645abef20feeb7d66325", "name": "a41b9c1959b2645abef20feeb7d66325", "lat": 38.899379333333336, "fusion_lat": 0.0, "type": "electric_scooter", "lon": -76.97695983333334, "is_disabled": 0, "fusion_lon": 0.0, "rental_uris": {"android": "https://dc.lft.to/lastmile_qr_scan", "ios": "https://dc.lft.to/lastmile_qr_scan"}, "is_reserved": 0}, {"bike_id": "c1f292e5092f80306fe57db8fec56e39", "name": "c1f292e5092f80306fe57db8fec56e39", "lat": 38.9201395, "fusion_lat": 0.0, "type": "electric_scooter", "lon": -77.07120933333333, "is_disabled": 0, "fusion_lon": 0.0, "rental_uris": {"android": "https://dc.lft.to/lastmile_qr_scan", "ios": "https://dc.lft.to/lastmile_qr_scan"}, "is_reserved": 0}, {"bike_id": "eca6bc5447d5d1a1d5a9bdd7f8fd779b", "name": "eca6bc5447d5d1a1d5a9bdd7f8fd779b", "lat": 38.89858916666667, "fusion_lat": 0.0, "type": "electric_scooter", "lon": -77.04874116666667, "is_disabled": 0, "fusion_lon": 0.0, "rental_uris": {"android": "https://dc.lft.to/lastmile_qr_scan", "ios": "https://dc.lft.to/lastmile_qr_scan"}, "is_reserved": 0}, {"bike_id": "54b0fd8bde7ca1fe910d593180992cf8", "name": "54b0fd8bde7ca1fe910d593180992cf8", "lat": 38.920197333333334, "fusion_lat": 0.0, "type": "electric_scooter", "lon": -77.01798466666666, "is_disabled": 0, "fusion_lon": 0.0, "rental_uris": {"android": "https://dc.lft.to/lastmile_qr_scan", "ios": "https://dc.lft.to/lastmile_qr_scan"}, "is_reserved": 0}, {"bike_id": "d74880215096e1cf459dae5f02a21892", "name": "d74880215096e1cf459dae5f02a21892", "lat": 38.90003816666667, "fusion_lat": 0.0, "type": "electric_scooter", "lon": -77.00310916666666, "is_disabled": 0, "fusion_lon": 0.0, "rental_uris": {"android": "https://dc.lft.to/lastmile_qr_scan", "ios": "https://dc.lft.to/lastmile_qr_scan"}, "is_reserved": 0}, {"bike_id": "b7fed7022da458fb0ee1077360ba1999", "name": "b7fed7022da458fb0ee1077360ba1999", "lat": 38.92024683333333, "fusion_lat": 0.0, "type": "electric_scooter", "lon": -77.03115933333333, "is_disabled": 0, "fusion_lon": 0.0, "rental_uris": {"android": "https://dc.lft.to/lastmile_qr_scan", "ios": "https://dc.lft.to/lastmile_qr_scan"}, "is_reserved": 0}, {"bike_id": "41fe3453aa80bd6866d5ca6ad6420a89", "name": "41fe3453aa80bd6866d5ca6ad6420a89", "lat": 38.9952465, "fusion_lat": 0.0, "type": "electric_bike", "lon": -77.03777533333333, "is_disabled": 0, "fusion_lon": 0.0, "rental_uris": {"android": "https://dc.lft.to/lastmile_qr_scan", "ios": "https://dc.lft.to/lastmile_qr_scan"}, "is_reserved": 0}, {"bike_id": "b9c1e4b96919fb095f1d1f5ffea36833", "name": "b9c1e4b96919fb095f1d1f5ffea36833", "lat": 38.91913233333333, "fusion_lat": 0.0, "type": "electric_scooter", "lon": -77.033324, "is_disabled": 0, "fusion_lon": 0.0, "rental_uris": {"android": "https://dc.lft.to/lastmile_qr_scan", "ios": "https://dc.lft.to/lastmile_qr_scan"}, "is_reserved": 0}, {"bike_id": "b7ee1d0f084f32633969996fdddd0a76", "name": "b7ee1d0f084f32633969996fdddd0a76", "lat": 38.86370933333333, "fusion_lat": 0.0, "type": "electric_scooter", "lon": -76.9905785, "is_disabled": 0, "fusion_lon": 0.0, "rental_uris": {"android": "https://dc.lft.to/lastmile_qr_scan", "ios": "https://dc.lft.to/lastmile_qr_scan"}, "is_reserved": 0}, {"bike_id": "face7997fec2aaa344fa4a76f22088d1", "name": "face7997fec2aaa344fa4a76f22088d1", "lat": 38.91483866666667, "fusion_lat": 0.0, "type": "electric_scooter", "lon": -77.03229883333333, "is_disabled": 0, "fusion_lon": 0.0, "rental_uris": {"android": "https://dc.lft.to/lastmile_qr_scan", "ios": "https://dc.lft.to/lastmile_qr_scan"}, "is_reserved": 0}, {"bike_id": "2e2a7eec0e91471fbded66f18f46f30d", "name": "2e2a7eec0e91471fbded66f18f46f30d", "lat": 38.894496833333335, "fusion_lat": 0.0, "type": "electric_scooter", "lon": -77.026866, "is_disabled": 0, "fusion_lon": 0.0, "rental_uris": {"android": "https://dc.lft.to/lastmile_qr_scan", "ios": "https://dc.lft.to/lastmile_qr_scan"}, "is_reserved": 0}, {"bike_id": "27422d5c4bcb3e0d4632d20c1a2a69e8", "name": "27422d5c4bcb3e0d4632d20c1a2a69e8", "lat": 38.905823833333336, "fusion_lat": 0.0, "type": "electric_scooter", "lon": -77.04166516666666, "is_disabled": 0, "fusion_lon": 0.0, "rental_uris": {"android": "https://dc.lft.to/lastmile_qr_scan", "ios": "https://dc.lft.to/lastmile_qr_scan"}, "is_reserved": 0}, {"bike_id": "eebb40aea48373aeefd4e46af1eff868", "name": "eebb40aea48373aeefd4e46af1eff868", "lat": 38.90523816666666, "fusion_lat": 0.0, "type": "electric_scooter", "lon": -77.04955016666666, "is_disabled": 0, "fusion_lon": 0.0, "rental_uris": {"android": "https://dc.lft.to/lastmile_qr_scan", "ios": "https://dc.lft.to/lastmile_qr_scan"}, "is_reserved": 0}, {"bike_id": "d42e7e1ecf935b5873bc61ae4b73d5ba", "name": "d42e7e1ecf935b5873bc61ae4b73d5ba", "lat": 38.88367083333333, "fusion_lat": 0.0, "type": "electric_scooter", "lon": -77.02010233333333, "is_disabled": 0, "fusion_lon": 0.0, "rental_uris": {"android": "https://dc.lft.to/lastmile_qr_scan", "ios": "https://dc.lft.to/lastmile_qr_scan"}, "is_reserved": 0}, {"bike_id": "68969be8082b18de2dbf22c20d97f5f7", "name": "68969be8082b18de2dbf22c20d97f5f7", "lat": 39.084894166666665, "fusion_lat": 0.0, "type": "electric_bike", "lon": -76.9505775, "is_disabled": 0, "fusion_lon": 0.0, "rental_uris": {"android": "https://dc.lft.to/lastmile_qr_scan", "ios": "https://dc.lft.to/lastmile_qr_scan"}, "is_reserved": 0}, {"bike_id": "5d73b76533d319b9a39999280e0ef626", "name": "5d73b76533d319b9a39999280e0ef626", "lat": 38.90641083333333, "fusion_lat": 0.0, "type": "electric_scooter", "lon": -76.99379816666666, "is_disabled": 0, "fusion_lon": 0.0, "rental_uris": {"android": "https://dc.lft.to/lastmile_qr_scan", "ios": "https://dc.lft.to/lastmile_qr_scan"}, "is_reserved": 0}, {"bike_id": "00e6a6d89c129e516c8101c312fa51a6", "name": "00e6a6d89c129e516c8101c312fa51a6", "lat": 38.89528883333333, "fusion_lat": 0.0, "type": "electric_scooter", "lon": -77.04472083333333, "is_disabled": 0, "fusion_lon": 0.0, "rental_uris": {"android": "https://dc.lft.to/lastmile_qr_scan", "ios": "https://dc.lft.to/lastmile_qr_scan"}, "is_reserved": 0}, {"bike_id": "3a2f14c1a0f4cd99c0584635de658913", "name": "3a2f14c1a0f4cd99c0584635de658913", "lat": 38.957347166666665, "fusion_lat": 0.0, "type": "electric_scooter", "lon": -77.0301035, "is_disabled": 0, "fusion_lon": 0.0, "rental_uris": {"android": "https://dc.lft.to/lastmile_qr_scan", "ios": "https://dc.lft.to/lastmile_qr_scan"}, "is_reserved": 0}, {"bike_id": "78d609cda60b85b0122d84c0bbf69172", "name": "78d609cda60b85b0122d84c0bbf69172", "lat": 38.975, "fusion_lat": 0.0, "type": "electric_scooter", "lon": -77.01694883333333, "is_disabled": 0, "fusion_lon": 0.0, "rental_uris": {"android": "https://dc.lft.to/lastmile_qr_scan", "ios": "https://dc.lft.to/lastmile_qr_scan"}, "is_reserved": 0}, {"bike_id": "ff5261c4463dc44079a9115c9bc9abde", "name": "ff5261c4463dc44079a9115c9bc9abde", "lat": 38.9213065, "fusion_lat": 0.0, "type": "electric_scooter", "lon": -77.04592933333333, "is_disabled": 0, "fusion_lon": 0.0, "rental_uris": {"android": "https://dc.lft.to/lastmile_qr_scan", "ios": "https://dc.lft.to/lastmile_qr_scan"}, "is_reserved": 0}, {"bike_id": "3f9b663e34f53c720e6e80a2e886e0ea", "name": "3f9b663e34f53c720e6e80a2e886e0ea", "lat": 38.920484, "fusion_lat": 0.0, "type": "electric_scooter", "lon": -77.041942, "is_disabled": 0, "fusion_lon": 0.0, "rental_uris": {"android": "https://dc.lft.to/lastmile_qr_scan", "ios": "https://dc.lft.to/lastmile_qr_scan"}, "is_reserved": 0}, {"bike_id": "93f2d2ed1932b9c9b9342c130275284a", "name": "93f2d2ed1932b9c9b9342c130275284a", "lat": 38.92039116666667, "fusion_lat": 0.0, "type": "electric_scooter", "lon": -77.01677983333333, "is_disabled": 0, "fusion_lon": 0.0, "rental_uris": {"android": "https://dc.lft.to/lastmile_qr_scan", "ios": "https://dc.lft.to/lastmile_qr_scan"}, "is_reserved": 0}, {"bike_id": "127090adb240b0607922e3daf064de5b", "name": "127090adb240b0607922e3daf064de5b", "lat": 38.943087, "fusion_lat": 0.0, "type": "electric_scooter", "lon": -77.0592935, "is_disabled": 0, "fusion_lon": 0.0, "rental_uris": {"android": "https://dc.lft.to/lastmile_qr_scan", "ios": "https://dc.lft.to/lastmile_qr_scan"}, "is_reserved": 0}, {"bike_id": "e16b9badbc60a3eee1beabf263cedddc", "name": "e16b9badbc60a3eee1beabf263cedddc", "lat": 38.8748165, "fusion_lat": 0.0, "type": "electric_bike", "lon": -77.00078666666667, "is_disabled": 0, "fusion_lon": 0.0, "rental_uris": {"android": "https://dc.lft.to/lastmile_qr_scan", "ios": "https://dc.lft.to/lastmile_qr_scan"}, "is_reserved": 0}, {"bike_id": "2c6164e56af84665a475c7f25d3a95ee", "name": "2c6164e56af84665a475c7f25d3a95ee", "lat": 38.848972833333335, "fusion_lat": 0.0, "type": "electric_bike", "lon": -77.07803816666667, "is_disabled": 0, "fusion_lon": 0.0, "rental_uris": {"android": "https://dc.lft.to/lastmile_qr_scan", "ios": "https://dc.lft.to/lastmile_qr_scan"}, "is_reserved": 0}, {"bike_id": "a93cae2bfc718853a5668dba21acc8fa", "name": "a93cae2bfc718853a5668dba21acc8fa", "lat": 38.92283466666667, "fusion_lat": 0.0, "type": "electric_scooter", "lon": -77.03661216666667, "is_disabled": 0, "fusion_lon": 0.0, "rental_uris": {"android": "https://dc.lft.to/lastmile_qr_scan", "ios": "https://dc.lft.to/lastmile_qr_scan"}, "is_reserved": 0}, {"bike_id": "1dbe087c659bc732d38af6d5a33ba3ff", "name": "1dbe087c659bc732d38af6d5a33ba3ff", "lat": 38.90782566666667, "fusion_lat": 0.0, "type": "electric_scooter", "lon": -76.99430883333333, "is_disabled": 0, "fusion_lon": 0.0, "rental_uris": {"android": "https://dc.lft.to/lastmile_qr_scan", "ios": "https://dc.lft.to/lastmile_qr_scan"}, "is_reserved": 0}, {"bike_id": "cffa76d4974b17e68e28cf93d12307cd", "name": "cffa76d4974b17e68e28cf93d12307cd", "lat": 38.9192355, "fusion_lat": 0.0, "type": "electric_scooter", "lon": -77.0463105, "is_disabled": 0, "fusion_lon": 0.0, "rental_uris": {"android": "https://dc.lft.to/lastmile_qr_scan", "ios": "https://dc.lft.to/lastmile_qr_scan"}, "is_reserved": 0}, {"bike_id": "cea7163743a0f18e60611307a0f89e34", "name": "cea7163743a0f18e60611307a0f89e34", "lat": 38.8970125, "fusion_lat": 0.0, "type": "electric_scooter", "lon": -77.004957, "is_disabled": 0, "fusion_lon": 0.0, "rental_uris": {"android": "https://dc.lft.to/lastmile_qr_scan", "ios": "https://dc.lft.to/lastmile_qr_scan"}, "is_reserved": 0}, {"bike_id": "5317312db3928a56af2abd9c264fd73a", "name": "5317312db3928a56af2abd9c264fd73a", "lat": 38.9268955, "fusion_lat": 0.0, "type": "electric_scooter", "lon": -77.02579866666666, "is_disabled": 0, "fusion_lon": 0.0, "rental_uris": {"android": "https://dc.lft.to/lastmile_qr_scan", "ios": "https://dc.lft.to/lastmile_qr_scan"}, "is_reserved": 0}, {"bike_id": "3e83fc42d76b4880afb3ef38044bfb04", "name": "3e83fc42d76b4880afb3ef38044bfb04", "lat": 38.93034, "fusion_lat": 0.0, "type": "electric_bike", "lon": -77.0830395, "is_disabled": 0, "fusion_lon": 0.0, "rental_uris": {"android": "https://dc.lft.to/lastmile_qr_scan", "ios": "https://dc.lft.to/lastmile_qr_scan"}, "is_reserved": 0}, {"bike_id": "1721e2c954938affc885a2665589443f", "name": "1721e2c954938affc885a2665589443f", "lat": 38.90126566666667, "fusion_lat": 0.0, "type": "electric_scooter", "lon": -77.04677116666667, "is_disabled": 0, "fusion_lon": 0.0, "rental_uris": {"android": "https://dc.lft.to/lastmile_qr_scan", "ios": "https://dc.lft.to/lastmile_qr_scan"}, "is_reserved": 0}, {"bike_id": "e989fe872873d11495405734c26403c5", "name": "e989fe872873d11495405734c26403c5", "lat": 38.920559833333336, "fusion_lat": 0.0, "type": "electric_scooter", "lon": -76.98429933333334, "is_disabled": 0, "fusion_lon": 0.0, "rental_uris": {"android": "https://dc.lft.to/lastmile_qr_scan", "ios": "https://dc.lft.to/lastmile_qr_scan"}, "is_reserved": 0}, {"bike_id": "33b00ed4414cebc043c5755ed07f3554", "name": "33b00ed4414cebc043c5755ed07f3554", "lat": 38.923976833333334, "fusion_lat": 0.0, "type": "electric_scooter", "lon": -76.99380783333334, "is_disabled": 0, "fusion_lon": 0.0, "rental_uris": {"android": "https://dc.lft.to/lastmile_qr_scan", "ios": "https://dc.lft.to/lastmile_qr_scan"}, "is_reserved": 0}, {"bike_id": "efbc3d7667a7132b304e4dbbe91eb607", "name": "efbc3d7667a7132b304e4dbbe91eb607", "lat": 38.914055, "fusion_lat": 0.0, "type": "electric_scooter", "lon": -77.03909633333333, "is_disabled": 0, "fusion_lon": 0.0, "rental_uris": {"android": "https://dc.lft.to/lastmile_qr_scan", "ios": "https://dc.lft.to/lastmile_qr_scan"}, "is_reserved": 0}, {"bike_id": "967874262a3ac86b722d37390e015209", "name": "967874262a3ac86b722d37390e015209", "lat": 38.898293833333334, "fusion_lat": 0.0, "type": "electric_scooter", "lon": -77.02480633333333, "is_disabled": 0, "fusion_lon": 0.0, "rental_uris": {"android": "https://dc.lft.to/lastmile_qr_scan", "ios": "https://dc.lft.to/lastmile_qr_scan"}, "is_reserved": 0}, {"bike_id": "0a46740f65e78a473ea5319fa0b33c83", "name": "0a46740f65e78a473ea5319fa0b33c83", "lat": 39.042297166666664, "fusion_lat": 0.0, "type": "electric_bike", "lon": -76.9973635, "is_disabled": 0, "fusion_lon": 0.0, "rental_uris": {"android": "https://dc.lft.to/lastmile_qr_scan", "ios": "https://dc.lft.to/lastmile_qr_scan"}, "is_reserved": 0}, {"bike_id": "64b98c4e778b9623e212306d52fd78a9", "name": "64b98c4e778b9623e212306d52fd78a9", "lat": 38.973693833333336, "fusion_lat": 0.0, "type": "electric_scooter", "lon": -77.01862816666667, "is_disabled": 0, "fusion_lon": 0.0, "rental_uris": {"android": "https://dc.lft.to/lastmile_qr_scan", "ios": "https://dc.lft.to/lastmile_qr_scan"}, "is_reserved": 0}, {"bike_id": "c474415800d98c36df404d9f10f0c852", "name": "c474415800d98c36df404d9f10f0c852", "lat": 38.95210866666667, "fusion_lat": 0.0, "type": "electric_scooter", "lon": -77.01596916666666, "is_disabled": 0, "fusion_lon": 0.0, "rental_uris": {"android": "https://dc.lft.to/lastmile_qr_scan", "ios": "https://dc.lft.to/lastmile_qr_scan"}, "is_reserved": 0}, {"bike_id": "558a3ec3952709864d9440f15abeb360", "name": "558a3ec3952709864d9440f15abeb360", "lat": 38.929485666666665, "fusion_lat": 0.0, "type": "electric_scooter", "lon": -77.03770183333333, "is_disabled": 0, "fusion_lon": 0.0, "rental_uris": {"android": "https://dc.lft.to/lastmile_qr_scan", "ios": "https://dc.lft.to/lastmile_qr_scan"}, "is_reserved": 0}, {"bike_id": "773749363d5540f1fda028626e322a41", "name": "773749363d5540f1fda028626e322a41", "lat": 38.97337383333333, "fusion_lat": 0.0, "type": "electric_bike", "lon": -76.99587433333333, "is_disabled": 0, "fusion_lon": 0.0, "rental_uris": {"android": "https://dc.lft.to/lastmile_qr_scan", "ios": "https://dc.lft.to/lastmile_qr_scan"}, "is_reserved": 0}, {"bike_id": "db97d903ead84e5f8422cccec0117e39", "name": "db97d903ead84e5f8422cccec0117e39", "lat": 38.89621116666667, "fusion_lat": 0.0, "type": "electric_scooter", "lon": -77.016271, "is_disabled": 0, "fusion_lon": 0.0, "rental_uris": {"android": "https://dc.lft.to/lastmile_qr_scan", "ios": "https://dc.lft.to/lastmile_qr_scan"}, "is_reserved": 0}, {"bike_id": "106efe22120634e97624073c8b4c26bd", "name": "106efe22120634e97624073c8b4c26bd", "lat": 38.92443016666667, "fusion_lat": 0.0, "type": "electric_scooter", "lon": -77.052145, "is_disabled": 0, "fusion_lon": 0.0, "rental_uris": {"android": "https://dc.lft.to/lastmile_qr_scan", "ios": "https://dc.lft.to/lastmile_qr_scan"}, "is_reserved": 0}, {"bike_id": "95f94dbc78c8df88f3957e5f3570fef3", "name": "95f94dbc78c8df88f3957e5f3570fef3", "lat": 38.919152, "fusion_lat": 0.0, "type": "electric_scooter", "lon": -77.02946633333333, "is_disabled": 0, "fusion_lon": 0.0, "rental_uris": {"android": "https://dc.lft.to/lastmile_qr_scan", "ios": "https://dc.lft.to/lastmile_qr_scan"}, "is_reserved": 0}, {"bike_id": "f9a40f7e86fa6635e23b789b34c0479b", "name": "f9a40f7e86fa6635e23b789b34c0479b", "lat": 38.923732333333334, "fusion_lat": 0.0, "type": "electric_scooter", "lon": -77.0192095, "is_disabled": 0, "fusion_lon": 0.0, "rental_uris": {"android": "https://dc.lft.to/lastmile_qr_scan", "ios": "https://dc.lft.to/lastmile_qr_scan"}, "is_reserved": 0}, {"bike_id": "62a2f5fcaee900821bee9270289d39a6", "name": "62a2f5fcaee900821bee9270289d39a6", "lat": 38.908138666666666, "fusion_lat": 0.0, "type": "electric_scooter", "lon": -77.04465633333334, "is_disabled": 0, "fusion_lon": 0.0, "rental_uris": {"android": "https://dc.lft.to/lastmile_qr_scan", "ios": "https://dc.lft.to/lastmile_qr_scan"}, "is_reserved": 0}, {"bike_id": "f5a79627e1e4ae1122f7225742cc5d65", "name": "f5a79627e1e4ae1122f7225742cc5d65", "lat": 38.959342, "fusion_lat": 0.0, "type": "electric_scooter", "lon": -77.03120366666667, "is_disabled": 0, "fusion_lon": 0.0, "rental_uris": {"android": "https://dc.lft.to/lastmile_qr_scan", "ios": "https://dc.lft.to/lastmile_qr_scan"}, "is_reserved": 0}, {"bike_id": "f7b4f1c07e61c4edc38e5d1138dd9c7f", "name": "f7b4f1c07e61c4edc38e5d1138dd9c7f", "lat": 38.922783833333334, "fusion_lat": 0.0, "type": "electric_scooter", "lon": -77.02973516666667, "is_disabled": 0, "fusion_lon": 0.0, "rental_uris": {"android": "https://dc.lft.to/lastmile_qr_scan", "ios": "https://dc.lft.to/lastmile_qr_scan"}, "is_reserved": 0}, {"bike_id": "0b21d1d7548389ba51cbc98c2872131b", "name": "0b21d1d7548389ba51cbc98c2872131b", "lat": 38.90737933333333, "fusion_lat": 0.0, "type": "electric_scooter", "lon": -77.0500575, "is_disabled": 0, "fusion_lon": 0.0, "rental_uris": {"android": "https://dc.lft.to/lastmile_qr_scan", "ios": "https://dc.lft.to/lastmile_qr_scan"}, "is_reserved": 0}, {"bike_id": "c145e444eaf5a6e1ac67c878bda58d86", "name": "c145e444eaf5a6e1ac67c878bda58d86", "lat": 38.92603283333333, "fusion_lat": 0.0, "type": "electric_scooter", "lon": -77.02156433333333, "is_disabled": 0, "fusion_lon": 0.0, "rental_uris": {"android": "https://dc.lft.to/lastmile_qr_scan", "ios": "https://dc.lft.to/lastmile_qr_scan"}, "is_reserved": 0}, {"bike_id": "a7e1a440c47bd62e9550f2649a26df88", "name": "a7e1a440c47bd62e9550f2649a26df88", "lat": 38.90049716666667, "fusion_lat": 0.0, "type": "electric_scooter", "lon": -77.0484935, "is_disabled": 0, "fusion_lon": 0.0, "rental_uris": {"android": "https://dc.lft.to/lastmile_qr_scan", "ios": "https://dc.lft.to/lastmile_qr_scan"}, "is_reserved": 0}, {"bike_id": "46e726176638b6340d2d391f5c0f22d4", "name": "46e726176638b6340d2d391f5c0f22d4", "lat": 38.895473333333335, "fusion_lat": 0.0, "type": "electric_scooter", "lon": -77.0216795, "is_disabled": 0, "fusion_lon": 0.0, "rental_uris": {"android": "https://dc.lft.to/lastmile_qr_scan", "ios": "https://dc.lft.to/lastmile_qr_scan"}, "is_reserved": 0}, {"bike_id": "a06276fde2d80226654e668c3896147a", "name": "a06276fde2d80226654e668c3896147a", "lat": 38.8921885, "fusion_lat": 0.0, "type": "electric_scooter", "lon": -77.03343733333334, "is_disabled": 0, "fusion_lon": 0.0, "rental_uris": {"android": "https://dc.lft.to/lastmile_qr_scan", "ios": "https://dc.lft.to/lastmile_qr_scan"}, "is_reserved": 0}, {"bike_id": "7000cf5705b119a4250d2101c4355f22", "name": "7000cf5705b119a4250d2101c4355f22", "lat": 38.9042665, "fusion_lat": 0.0, "type": "electric_scooter", "lon": -77.04352466666667, "is_disabled": 0, "fusion_lon": 0.0, "rental_uris": {"android": "https://dc.lft.to/lastmile_qr_scan", "ios": "https://dc.lft.to/lastmile_qr_scan"}, "is_reserved": 0}, {"bike_id": "ab991e4f2a8d1c7ee2bf063eae946076", "name": "ab991e4f2a8d1c7ee2bf063eae946076", "lat": 38.865180333333335, "fusion_lat": 0.0, "type": "electric_scooter", "lon": -76.968988, "is_disabled": 0, "fusion_lon": 0.0, "rental_uris": {"android": "https://dc.lft.to/lastmile_qr_scan", "ios": "https://dc.lft.to/lastmile_qr_scan"}, "is_reserved": 0}, {"bike_id": "64b8468cadddd4cc93f26717d6909e3d", "name": "64b8468cadddd4cc93f26717d6909e3d", "lat": 38.89970566666667, "fusion_lat": 0.0, "type": "electric_scooter", "lon": -77.01602916666667, "is_disabled": 0, "fusion_lon": 0.0, "rental_uris": {"android": "https://dc.lft.to/lastmile_qr_scan", "ios": "https://dc.lft.to/lastmile_qr_scan"}, "is_reserved": 0}, {"bike_id": "0f882d16c344abe7a3174ed43c1fb94d", "name": "0f882d16c344abe7a3174ed43c1fb94d", "lat": 38.92212583333333, "fusion_lat": 0.0, "type": "electric_scooter", "lon": -77.03761766666666, "is_disabled": 0, "fusion_lon": 0.0, "rental_uris": {"android": "https://dc.lft.to/lastmile_qr_scan", "ios": "https://dc.lft.to/lastmile_qr_scan"}, "is_reserved": 0}, {"bike_id": "95706f0253609eaebe6c25eb434ef327", "name": "95706f0253609eaebe6c25eb434ef327", "lat": 38.9031075, "fusion_lat": 0.0, "type": "electric_scooter", "lon": -77.0189175, "is_disabled": 0, "fusion_lon": 0.0, "rental_uris": {"android": "https://dc.lft.to/lastmile_qr_scan", "ios": "https://dc.lft.to/lastmile_qr_scan"}, "is_reserved": 0}, {"bike_id": "bdcb8d23446ed2ab8ac78978ad704031", "name": "bdcb8d23446ed2ab8ac78978ad704031", "lat": 38.9034855, "fusion_lat": 0.0, "type": "electric_scooter", "lon": -76.98613833333333, "is_disabled": 0, "fusion_lon": 0.0, "rental_uris": {"android": "https://dc.lft.to/lastmile_qr_scan", "ios": "https://dc.lft.to/lastmile_qr_scan"}, "is_reserved": 0}, {"bike_id": "f3c9d431f78bf8132c94a613c2d22add", "name": "f3c9d431f78bf8132c94a613c2d22add", "lat": 38.87532066666667, "fusion_lat": 0.0, "type": "electric_scooter", "lon": -77.017597, "is_disabled": 0, "fusion_lon": 0.0, "rental_uris": {"android": "https://dc.lft.to/lastmile_qr_scan", "ios": "https://dc.lft.to/lastmile_qr_scan"}, "is_reserved": 0}, {"bike_id": "4660205060abcb08bc40b4c5e3378c6c", "name": "4660205060abcb08bc40b4c5e3378c6c", "lat": 38.900925, "fusion_lat": 0.0, "type": "electric_scooter", "lon": -77.0250275, "is_disabled": 0, "fusion_lon": 0.0, "rental_uris": {"android": "https://dc.lft.to/lastmile_qr_scan", "ios": "https://dc.lft.to/lastmile_qr_scan"}, "is_reserved": 0}, {"bike_id": "a859d8eff2ebda315f49d268649ec67a", "name": "a859d8eff2ebda315f49d268649ec67a", "lat": 38.9126475, "fusion_lat": 0.0, "type": "electric_scooter", "lon": -77.02251166666667, "is_disabled": 0, "fusion_lon": 0.0, "rental_uris": {"android": "https://dc.lft.to/lastmile_qr_scan", "ios": "https://dc.lft.to/lastmile_qr_scan"}, "is_reserved": 0}, {"bike_id": "c75806e7582aa211101ace18ac4ae158", "name": "c75806e7582aa211101ace18ac4ae158", "lat": 38.916657666666666, "fusion_lat": 0.0, "type": "electric_scooter", "lon": -77.0271065, "is_disabled": 0, "fusion_lon": 0.0, "rental_uris": {"android": "https://dc.lft.to/lastmile_qr_scan", "ios": "https://dc.lft.to/lastmile_qr_scan"}, "is_reserved": 0}, {"bike_id": "05d8e90c35dfb77e9513a885ba590b81", "name": "05d8e90c35dfb77e9513a885ba590b81", "lat": 38.902301, "fusion_lat": 0.0, "type": "electric_scooter", "lon": -77.037785, "is_disabled": 0, "fusion_lon": 0.0, "rental_uris": {"android": "https://dc.lft.to/lastmile_qr_scan", "ios": "https://dc.lft.to/lastmile_qr_scan"}, "is_reserved": 0}, {"bike_id": "df17bbad056975be03b50a24bdefb2df", "name": "df17bbad056975be03b50a24bdefb2df", "lat": 38.914190833333336, "fusion_lat": 0.0, "type": "electric_scooter", "lon": -77.018029, "is_disabled": 0, "fusion_lon": 0.0, "rental_uris": {"android": "https://dc.lft.to/lastmile_qr_scan", "ios": "https://dc.lft.to/lastmile_qr_scan"}, "is_reserved": 0}, {"bike_id": "b0bf8eba58d9137de7e8dd1b23946f7f", "name": "b0bf8eba58d9137de7e8dd1b23946f7f", "lat": 38.97368916666667, "fusion_lat": 0.0, "type": "electric_scooter", "lon": -77.02672116666666, "is_disabled": 0, "fusion_lon": 0.0, "rental_uris": {"android": "https://dc.lft.to/lastmile_qr_scan", "ios": "https://dc.lft.to/lastmile_qr_scan"}, "is_reserved": 0}, {"bike_id": "e4848ad767bbfbf46011fca7cd1ca949", "name": "e4848ad767bbfbf46011fca7cd1ca949", "lat": 38.89358766666667, "fusion_lat": 0.0, "type": "electric_scooter", "lon": -77.03180666666667, "is_disabled": 0, "fusion_lon": 0.0, "rental_uris": {"android": "https://dc.lft.to/lastmile_qr_scan", "ios": "https://dc.lft.to/lastmile_qr_scan"}, "is_reserved": 0}, {"bike_id": "06ffd6c03aa82660e33f48ee77e5af0f", "name": "06ffd6c03aa82660e33f48ee77e5af0f", "lat": 38.95096066666667, "fusion_lat": 0.0, "type": "electric_scooter", "lon": -77.018796, "is_disabled": 0, "fusion_lon": 0.0, "rental_uris": {"android": "https://dc.lft.to/lastmile_qr_scan", "ios": "https://dc.lft.to/lastmile_qr_scan"}, "is_reserved": 0}, {"bike_id": "f9db814b933d774e525fc97c8786b34a", "name": "f9db814b933d774e525fc97c8786b34a", "lat": 38.899692, "fusion_lat": 0.0, "type": "electric_scooter", "lon": -77.02595683333334, "is_disabled": 0, "fusion_lon": 0.0, "rental_uris": {"android": "https://dc.lft.to/lastmile_qr_scan", "ios": "https://dc.lft.to/lastmile_qr_scan"}, "is_reserved": 0}, {"bike_id": "1a7b986c97483022290fc58a7cac9b0c", "name": "1a7b986c97483022290fc58a7cac9b0c", "lat": 38.879506, "fusion_lat": 0.0, "type": "electric_scooter", "lon": -77.006107, "is_disabled": 0, "fusion_lon": 0.0, "rental_uris": {"android": "https://dc.lft.to/lastmile_qr_scan", "ios": "https://dc.lft.to/lastmile_qr_scan"}, "is_reserved": 0}, {"bike_id": "eac9605f971c0d1df86901001f04929b", "name": "eac9605f971c0d1df86901001f04929b", "lat": 38.90205816666667, "fusion_lat": 0.0, "type": "electric_scooter", "lon": -77.02368283333334, "is_disabled": 0, "fusion_lon": 0.0, "rental_uris": {"android": "https://dc.lft.to/lastmile_qr_scan", "ios": "https://dc.lft.to/lastmile_qr_scan"}, "is_reserved": 0}, {"bike_id": "c4815079eb74710c022067b1ded8872d", "name": "c4815079eb74710c022067b1ded8872d", "lat": 38.9085795, "fusion_lat": 0.0, "type": "electric_scooter", "lon": -77.02355833333333, "is_disabled": 0, "fusion_lon": 0.0, "rental_uris": {"android": "https://dc.lft.to/lastmile_qr_scan", "ios": "https://dc.lft.to/lastmile_qr_scan"}, "is_reserved": 0}, {"bike_id": "bc337e2b49b9fe9f2cc26daa2c8c07a1", "name": "bc337e2b49b9fe9f2cc26daa2c8c07a1", "lat": 38.8979125, "fusion_lat": 0.0, "type": "electric_scooter", "lon": -77.026903, "is_disabled": 0, "fusion_lon": 0.0, "rental_uris": {"android": "https://dc.lft.to/lastmile_qr_scan", "ios": "https://dc.lft.to/lastmile_qr_scan"}, "is_reserved": 0}, {"bike_id": "faf0cb09cd4605301e543408b6aef401", "name": "faf0cb09cd4605301e543408b6aef401", "lat": 38.90268316666667, "fusion_lat": 0.0, "type": "electric_scooter", "lon": -77.04185233333334, "is_disabled": 0, "fusion_lon": 0.0, "rental_uris": {"android": "https://dc.lft.to/lastmile_qr_scan", "ios": "https://dc.lft.to/lastmile_qr_scan"}, "is_reserved": 0}, {"bike_id": "4ea3eb0b0668b6c1cfea07af42c790ca", "name": "4ea3eb0b0668b6c1cfea07af42c790ca", "lat": 38.92483516666667, "fusion_lat": 0.0, "type": "electric_scooter", "lon": -77.03189766666667, "is_disabled": 0, "fusion_lon": 0.0, "rental_uris": {"android": "https://dc.lft.to/lastmile_qr_scan", "ios": "https://dc.lft.to/lastmile_qr_scan"}, "is_reserved": 0}, {"bike_id": "b353169cb9a47e3b2e569de2c035fd6b", "name": "b353169cb9a47e3b2e569de2c035fd6b", "lat": 38.91786716666667, "fusion_lat": 0.0, "type": "electric_scooter", "lon": -77.02199683333333, "is_disabled": 0, "fusion_lon": 0.0, "rental_uris": {"android": "https://dc.lft.to/lastmile_qr_scan", "ios": "https://dc.lft.to/lastmile_qr_scan"}, "is_reserved": 0}, {"bike_id": "fa18b34396ca206ca5aa9427cf2b9e78", "name": "fa18b34396ca206ca5aa9427cf2b9e78", "lat": 38.924914333333334, "fusion_lat": 0.0, "type": "electric_scooter", "lon": -77.0244375, "is_disabled": 0, "fusion_lon": 0.0, "rental_uris": {"android": "https://dc.lft.to/lastmile_qr_scan", "ios": "https://dc.lft.to/lastmile_qr_scan"}, "is_reserved": 0}, {"bike_id": "c29e9bd219e3b1eadb8cb622513d6f91", "name": "c29e9bd219e3b1eadb8cb622513d6f91", "lat": 38.90062283333334, "fusion_lat": 0.0, "type": "electric_scooter", "lon": -77.04826466666667, "is_disabled": 0, "fusion_lon": 0.0, "rental_uris": {"android": "https://dc.lft.to/lastmile_qr_scan", "ios": "https://dc.lft.to/lastmile_qr_scan"}, "is_reserved": 0}, {"bike_id": "5157ee17d67ae592a32938080eac8a08", "name": "5157ee17d67ae592a32938080eac8a08", "lat": 38.909736, "fusion_lat": 0.0, "type": "electric_scooter", "lon": -77.03815, "is_disabled": 0, "fusion_lon": 0.0, "rental_uris": {"android": "https://dc.lft.to/lastmile_qr_scan", "ios": "https://dc.lft.to/lastmile_qr_scan"}, "is_reserved": 0}, {"bike_id": "0c6e22bf7ce0ed4f886b790a21173fd4", "name": "0c6e22bf7ce0ed4f886b790a21173fd4", "lat": 38.910948833333336, "fusion_lat": 0.0, "type": "electric_scooter", "lon": -76.98472666666666, "is_disabled": 0, "fusion_lon": 0.0, "rental_uris": {"android": "https://dc.lft.to/lastmile_qr_scan", "ios": "https://dc.lft.to/lastmile_qr_scan"}, "is_reserved": 0}, {"bike_id": "69da57da5125197c6aee83bc3f97754a", "name": "69da57da5125197c6aee83bc3f97754a", "lat": 38.89346416666667, "fusion_lat": 0.0, "type": "electric_scooter", "lon": -76.99375183333333, "is_disabled": 0, "fusion_lon": 0.0, "rental_uris": {"android": "https://dc.lft.to/lastmile_qr_scan", "ios": "https://dc.lft.to/lastmile_qr_scan"}, "is_reserved": 0}, {"bike_id": "028e857f791c2b9e522b18fc85407016", "name": "028e857f791c2b9e522b18fc85407016", "lat": 38.9195635, "fusion_lat": 0.0, "type": "electric_scooter", "lon": -77.02389583333333, "is_disabled": 0, "fusion_lon": 0.0, "rental_uris": {"android": "https://dc.lft.to/lastmile_qr_scan", "ios": "https://dc.lft.to/lastmile_qr_scan"}, "is_reserved": 0}, {"bike_id": "bc39cbd68ef008bde5520389b5d807fb", "name": "bc39cbd68ef008bde5520389b5d807fb", "lat": 38.91609, "fusion_lat": 0.0, "type": "electric_scooter", "lon": -77.023855, "is_disabled": 0, "fusion_lon": 0.0, "rental_uris": {"android": "https://dc.lft.to/lastmile_qr_scan", "ios": "https://dc.lft.to/lastmile_qr_scan"}, "is_reserved": 0}, {"bike_id": "c1906498305e857c13020b387fb80a4e", "name": "c1906498305e857c13020b387fb80a4e", "lat": 38.918162333333335, "fusion_lat": 0.0, "type": "electric_scooter", "lon": -77.04506983333333, "is_disabled": 0, "fusion_lon": 0.0, "rental_uris": {"android": "https://dc.lft.to/lastmile_qr_scan", "ios": "https://dc.lft.to/lastmile_qr_scan"}, "is_reserved": 0}, {"bike_id": "463b0c9f811153d76fe3bfd9993856e5", "name": "463b0c9f811153d76fe3bfd9993856e5", "lat": 38.924806, "fusion_lat": 0.0, "type": "electric_scooter", "lon": -77.02714916666666, "is_disabled": 0, "fusion_lon": 0.0, "rental_uris": {"android": "https://dc.lft.to/lastmile_qr_scan", "ios": "https://dc.lft.to/lastmile_qr_scan"}, "is_reserved": 0}, {"bike_id": "728439b4fcd31d7e2382d49d26369d20", "name": "728439b4fcd31d7e2382d49d26369d20", "lat": 38.92326633333333, "fusion_lat": 0.0, "type": "electric_scooter", "lon": -77.02078766666666, "is_disabled": 0, "fusion_lon": 0.0, "rental_uris": {"android": "https://dc.lft.to/lastmile_qr_scan", "ios": "https://dc.lft.to/lastmile_qr_scan"}, "is_reserved": 0}, {"bike_id": "2e9c4497f577500f44239a6d6a43f4b4", "name": "2e9c4497f577500f44239a6d6a43f4b4", "lat": 38.93253433333334, "fusion_lat": 0.0, "type": "electric_scooter", "lon": -77.03096416666666, "is_disabled": 0, "fusion_lon": 0.0, "rental_uris": {"android": "https://dc.lft.to/lastmile_qr_scan", "ios": "https://dc.lft.to/lastmile_qr_scan"}, "is_reserved": 0}, {"bike_id": "dfba6b4a57d3ce962e22b06360087718", "name": "dfba6b4a57d3ce962e22b06360087718", "lat": 38.90144183333334, "fusion_lat": 0.0, "type": "electric_scooter", "lon": -77.023056, "is_disabled": 0, "fusion_lon": 0.0, "rental_uris": {"android": "https://dc.lft.to/lastmile_qr_scan", "ios": "https://dc.lft.to/lastmile_qr_scan"}, "is_reserved": 0}, {"bike_id": "b9f330483d085c30f579e7143482e07d", "name": "b9f330483d085c30f579e7143482e07d", "lat": 38.887304666666665, "fusion_lat": 0.0, "type": "electric_scooter", "lon": -77.02615866666666, "is_disabled": 0, "fusion_lon": 0.0, "rental_uris": {"android": "https://dc.lft.to/lastmile_qr_scan", "ios": "https://dc.lft.to/lastmile_qr_scan"}, "is_reserved": 0}, {"bike_id": "56e34a6a1f255052f68a08de61f3222e", "name": "56e34a6a1f255052f68a08de61f3222e", "lat": 38.915733833333334, "fusion_lat": 0.0, "type": "electric_scooter", "lon": -76.9838675, "is_disabled": 0, "fusion_lon": 0.0, "rental_uris": {"android": "https://dc.lft.to/lastmile_qr_scan", "ios": "https://dc.lft.to/lastmile_qr_scan"}, "is_reserved": 0}, {"bike_id": "393053c9a31411bdb923fe9984589717", "name": "393053c9a31411bdb923fe9984589717", "lat": 38.90009933333333, "fusion_lat": 0.0, "type": "electric_scooter", "lon": -77.02914066666666, "is_disabled": 0, "fusion_lon": 0.0, "rental_uris": {"android": "https://dc.lft.to/lastmile_qr_scan", "ios": "https://dc.lft.to/lastmile_qr_scan"}, "is_reserved": 0}, {"bike_id": "aaa9c12c55444d57f55611f49a02587b", "name": "aaa9c12c55444d57f55611f49a02587b", "lat": 38.93746866666667, "fusion_lat": 0.0, "type": "electric_scooter", "lon": -77.02439866666667, "is_disabled": 0, "fusion_lon": 0.0, "rental_uris": {"android": "https://dc.lft.to/lastmile_qr_scan", "ios": "https://dc.lft.to/lastmile_qr_scan"}, "is_reserved": 0}, {"bike_id": "f1783cfee5f3ea9428c016eb00774ecb", "name": "f1783cfee5f3ea9428c016eb00774ecb", "lat": 38.896756, "fusion_lat": 0.0, "type": "electric_scooter", "lon": -77.0338525, "is_disabled": 0, "fusion_lon": 0.0, "rental_uris": {"android": "https://dc.lft.to/lastmile_qr_scan", "ios": "https://dc.lft.to/lastmile_qr_scan"}, "is_reserved": 0}, {"bike_id": "a30f9ebd1c7f0e854b1ba7d4eac24e53", "name": "a30f9ebd1c7f0e854b1ba7d4eac24e53", "lat": 38.90660783333333, "fusion_lat": 0.0, "type": "electric_scooter", "lon": -77.0281045, "is_disabled": 0, "fusion_lon": 0.0, "rental_uris": {"android": "https://dc.lft.to/lastmile_qr_scan", "ios": "https://dc.lft.to/lastmile_qr_scan"}, "is_reserved": 0}, {"bike_id": "907c648513b4b9cf9b8cfa0f0528855e", "name": "907c648513b4b9cf9b8cfa0f0528855e", "lat": 38.926391833333334, "fusion_lat": 0.0, "type": "electric_scooter", "lon": -77.0251295, "is_disabled": 0, "fusion_lon": 0.0, "rental_uris": {"android": "https://dc.lft.to/lastmile_qr_scan", "ios": "https://dc.lft.to/lastmile_qr_scan"}, "is_reserved": 0}, {"bike_id": "7f81922be584e5a22977e249b74c5ef2", "name": "7f81922be584e5a22977e249b74c5ef2", "lat": 38.92739366666667, "fusion_lat": 0.0, "type": "electric_scooter", "lon": -77.0356335, "is_disabled": 0, "fusion_lon": 0.0, "rental_uris": {"android": "https://dc.lft.to/lastmile_qr_scan", "ios": "https://dc.lft.to/lastmile_qr_scan"}, "is_reserved": 0}, {"bike_id": "79b2a794480a58a7313ad2e5874f9fed", "name": "79b2a794480a58a7313ad2e5874f9fed", "lat": 39.0746755, "fusion_lat": 0.0, "type": "electric_bike", "lon": -77.11509016666666, "is_disabled": 0, "fusion_lon": 0.0, "rental_uris": {"android": "https://dc.lft.to/lastmile_qr_scan", "ios": "https://dc.lft.to/lastmile_qr_scan"}, "is_reserved": 0}, {"bike_id": "732c218477be5324eee4bba36a98c41a", "name": "732c218477be5324eee4bba36a98c41a", "lat": 38.9210895, "fusion_lat": 0.0, "type": "electric_scooter", "lon": -77.0179385, "is_disabled": 0, "fusion_lon": 0.0, "rental_uris": {"android": "https://dc.lft.to/lastmile_qr_scan", "ios": "https://dc.lft.to/lastmile_qr_scan"}, "is_reserved": 0}, {"bike_id": "3c5a5c8dc4e97182417d64c5c4fdc821", "name": "3c5a5c8dc4e97182417d64c5c4fdc821", "lat": 38.91552733333333, "fusion_lat": 0.0, "type": "electric_scooter", "lon": -77.0140905, "is_disabled": 0, "fusion_lon": 0.0, "rental_uris": {"android": "https://dc.lft.to/lastmile_qr_scan", "ios": "https://dc.lft.to/lastmile_qr_scan"}, "is_reserved": 0}, {"bike_id": "2acbabca005980540a4c172783869343", "name": "2acbabca005980540a4c172783869343", "lat": 38.86507, "fusion_lat": 0.0, "type": "electric_scooter", "lon": -76.96898, "is_disabled": 0, "fusion_lon": 0.0, "rental_uris": {"android": "https://dc.lft.to/lastmile_qr_scan", "ios": "https://dc.lft.to/lastmile_qr_scan"}, "is_reserved": 0}, {"bike_id": "6fc96cc8572450bc9803e9bdd190e3d0", "name": "6fc96cc8572450bc9803e9bdd190e3d0", "lat": 38.9166055, "fusion_lat": 0.0, "type": "electric_scooter", "lon": -77.02386633333333, "is_disabled": 0, "fusion_lon": 0.0, "rental_uris": {"android": "https://dc.lft.to/lastmile_qr_scan", "ios": "https://dc.lft.to/lastmile_qr_scan"}, "is_reserved": 0}, {"bike_id": "21b4e52dbad02cdf978a56fefa51339a", "name": "21b4e52dbad02cdf978a56fefa51339a", "lat": 38.880747, "fusion_lat": 0.0, "type": "electric_scooter", "lon": -76.99163716666666, "is_disabled": 0, "fusion_lon": 0.0, "rental_uris": {"android": "https://dc.lft.to/lastmile_qr_scan", "ios": "https://dc.lft.to/lastmile_qr_scan"}, "is_reserved": 0}, {"bike_id": "2b08ae36d5eaf0666da61a39d48230c8", "name": "2b08ae36d5eaf0666da61a39d48230c8", "lat": 38.879717, "fusion_lat": 0.0, "type": "electric_bike", "lon": -76.99505166666667, "is_disabled": 0, "fusion_lon": 0.0, "rental_uris": {"android": "https://dc.lft.to/lastmile_qr_scan", "ios": "https://dc.lft.to/lastmile_qr_scan"}, "is_reserved": 0}, {"bike_id": "a1974261202e0b2d3f9492767a14da27", "name": "a1974261202e0b2d3f9492767a14da27", "lat": 38.91681416666667, "fusion_lat": 0.0, "type": "electric_scooter", "lon": -77.03181516666666, "is_disabled": 0, "fusion_lon": 0.0, "rental_uris": {"android": "https://dc.lft.to/lastmile_qr_scan", "ios": "https://dc.lft.to/lastmile_qr_scan"}, "is_reserved": 0}, {"bike_id": "8ccd86fa7a4685e8f3fc03f75562b010", "name": "8ccd86fa7a4685e8f3fc03f75562b010", "lat": 38.9518375, "fusion_lat": 0.0, "type": "electric_scooter", "lon": -77.02928283333334, "is_disabled": 0, "fusion_lon": 0.0, "rental_uris": {"android": "https://dc.lft.to/lastmile_qr_scan", "ios": "https://dc.lft.to/lastmile_qr_scan"}, "is_reserved": 0}, {"bike_id": "43b247d15e92815dad163cbdca2e9bae", "name": "43b247d15e92815dad163cbdca2e9bae", "lat": 38.898140166666664, "fusion_lat": 0.0, "type": "electric_scooter", "lon": -77.0294845, "is_disabled": 0, "fusion_lon": 0.0, "rental_uris": {"android": "https://dc.lft.to/lastmile_qr_scan", "ios": "https://dc.lft.to/lastmile_qr_scan"}, "is_reserved": 0}, {"bike_id": "bd1f6259547d8643a720cbde7d057556", "name": "bd1f6259547d8643a720cbde7d057556", "lat": 38.943286666666665, "fusion_lat": 0.0, "type": "electric_scooter", "lon": -77.02687666666667, "is_disabled": 0, "fusion_lon": 0.0, "rental_uris": {"android": "https://dc.lft.to/lastmile_qr_scan", "ios": "https://dc.lft.to/lastmile_qr_scan"}, "is_reserved": 0}, {"bike_id": "e5fac2de98c2280036f5aa6649d9fcf0", "name": "e5fac2de98c2280036f5aa6649d9fcf0", "lat": 38.901983666666666, "fusion_lat": 0.0, "type": "electric_scooter", "lon": -77.02373733333333, "is_disabled": 0, "fusion_lon": 0.0, "rental_uris": {"android": "https://dc.lft.to/lastmile_qr_scan", "ios": "https://dc.lft.to/lastmile_qr_scan"}, "is_reserved": 0}, {"bike_id": "5dd801aa8bf6b2399e729dc96a988574", "name": "5dd801aa8bf6b2399e729dc96a988574", "lat": 38.91928433333333, "fusion_lat": 0.0, "type": "electric_scooter", "lon": -77.01795366666667, "is_disabled": 0, "fusion_lon": 0.0, "rental_uris": {"android": "https://dc.lft.to/lastmile_qr_scan", "ios": "https://dc.lft.to/lastmile_qr_scan"}, "is_reserved": 0}, {"bike_id": "a2aa0ddfb5403a5a9004552c1bb2e6b3", "name": "a2aa0ddfb5403a5a9004552c1bb2e6b3", "lat": 38.91603933333333, "fusion_lat": 0.0, "type": "electric_scooter", "lon": -77.02308566666666, "is_disabled": 0, "fusion_lon": 0.0, "rental_uris": {"android": "https://dc.lft.to/lastmile_qr_scan", "ios": "https://dc.lft.to/lastmile_qr_scan"}, "is_reserved": 0}, {"bike_id": "c9c205ef54be37d3741cb6190ee509b4", "name": "c9c205ef54be37d3741cb6190ee509b4", "lat": 38.92597833333333, "fusion_lat": 0.0, "type": "electric_scooter", "lon": -77.024315, "is_disabled": 0, "fusion_lon": 0.0, "rental_uris": {"android": "https://dc.lft.to/lastmile_qr_scan", "ios": "https://dc.lft.to/lastmile_qr_scan"}, "is_reserved": 0}, {"bike_id": "932b6ac1cd5b1d435e3f195ffe1fb6ea", "name": "932b6ac1cd5b1d435e3f195ffe1fb6ea", "lat": 38.917651166666666, "fusion_lat": 0.0, "type": "electric_scooter", "lon": -77.009224, "is_disabled": 0, "fusion_lon": 0.0, "rental_uris": {"android": "https://dc.lft.to/lastmile_qr_scan", "ios": "https://dc.lft.to/lastmile_qr_scan"}, "is_reserved": 0}, {"bike_id": "954cb36ddee0bcf5312f550daca694b6", "name": "954cb36ddee0bcf5312f550daca694b6", "lat": 38.9147005, "fusion_lat": 0.0, "type": "electric_scooter", "lon": -77.03206883333333, "is_disabled": 0, "fusion_lon": 0.0, "rental_uris": {"android": "https://dc.lft.to/lastmile_qr_scan", "ios": "https://dc.lft.to/lastmile_qr_scan"}, "is_reserved": 0}, {"bike_id": "0d26560e6dba28daf16478d6ad244b3b", "name": "0d26560e6dba28daf16478d6ad244b3b", "lat": 38.91030716666667, "fusion_lat": 0.0, "type": "electric_scooter", "lon": -77.03195733333334, "is_disabled": 0, "fusion_lon": 0.0, "rental_uris": {"android": "https://dc.lft.to/lastmile_qr_scan", "ios": "https://dc.lft.to/lastmile_qr_scan"}, "is_reserved": 0}, {"bike_id": "dafe741d1d95c0eb308cac18e81c732b", "name": "dafe741d1d95c0eb308cac18e81c732b", "lat": 38.884042, "fusion_lat": 0.0, "type": "electric_scooter", "lon": -77.02566816666666, "is_disabled": 0, "fusion_lon": 0.0, "rental_uris": {"android": "https://dc.lft.to/lastmile_qr_scan", "ios": "https://dc.lft.to/lastmile_qr_scan"}, "is_reserved": 0}, {"bike_id": "5384a20c18b1f1433e57bfb036af73a5", "name": "5384a20c18b1f1433e57bfb036af73a5", "lat": 38.879377833333336, "fusion_lat": 0.0, "type": "electric_scooter", "lon": -77.00375283333334, "is_disabled": 0, "fusion_lon": 0.0, "rental_uris": {"android": "https://dc.lft.to/lastmile_qr_scan", "ios": "https://dc.lft.to/lastmile_qr_scan"}, "is_reserved": 0}, {"bike_id": "075d330e26420a025e1504f94b609029", "name": "075d330e26420a025e1504f94b609029", "lat": 38.87076, "fusion_lat": 0.0, "type": "electric_bike", "lon": -77.11045366666667, "is_disabled": 0, "fusion_lon": 0.0, "rental_uris": {"android": "https://dc.lft.to/lastmile_qr_scan", "ios": "https://dc.lft.to/lastmile_qr_scan"}, "is_reserved": 0}, {"bike_id": "7d0f74b565cc879a01bf7430faf1a31c", "name": "7d0f74b565cc879a01bf7430faf1a31c", "lat": 38.881607, "fusion_lat": 0.0, "type": "electric_scooter", "lon": -77.02770416666667, "is_disabled": 0, "fusion_lon": 0.0, "rental_uris": {"android": "https://dc.lft.to/lastmile_qr_scan", "ios": "https://dc.lft.to/lastmile_qr_scan"}, "is_reserved": 0}, {"bike_id": "e37ba4ffa483f30027decca8d050856a", "name": "e37ba4ffa483f30027decca8d050856a", "lat": 38.87998416666667, "fusion_lat": 0.0, "type": "electric_bike", "lon": -76.98666233333333, "is_disabled": 0, "fusion_lon": 0.0, "rental_uris": {"android": "https://dc.lft.to/lastmile_qr_scan", "ios": "https://dc.lft.to/lastmile_qr_scan"}, "is_reserved": 0}, {"bike_id": "cf360831c553a33cd01519bcb2dd66b7", "name": "cf360831c553a33cd01519bcb2dd66b7", "lat": 38.89554966666667, "fusion_lat": 0.0, "type": "electric_scooter", "lon": -77.011234, "is_disabled": 0, "fusion_lon": 0.0, "rental_uris": {"android": "https://dc.lft.to/lastmile_qr_scan", "ios": "https://dc.lft.to/lastmile_qr_scan"}, "is_reserved": 0}, {"bike_id": "3024008186440852924421378820974f", "name": "3024008186440852924421378820974f", "lat": 38.8834155, "fusion_lat": 0.0, "type": "electric_scooter", "lon": -76.94286183333334, "is_disabled": 0, "fusion_lon": 0.0, "rental_uris": {"android": "https://dc.lft.to/lastmile_qr_scan", "ios": "https://dc.lft.to/lastmile_qr_scan"}, "is_reserved": 0}, {"bike_id": "9dca286be8418aa54975072e8f256c7c", "name": "9dca286be8418aa54975072e8f256c7c", "lat": 38.92154216666667, "fusion_lat": 0.0, "type": "electric_scooter", "lon": -77.07302616666666, "is_disabled": 0, "fusion_lon": 0.0, "rental_uris": {"android": "https://dc.lft.to/lastmile_qr_scan", "ios": "https://dc.lft.to/lastmile_qr_scan"}, "is_reserved": 0}, {"bike_id": "b5fb52122c534b017a9719f22ab3233e", "name": "b5fb52122c534b017a9719f22ab3233e", "lat": 38.91781683333333, "fusion_lat": 0.0, "type": "electric_scooter", "lon": -77.0091845, "is_disabled": 0, "fusion_lon": 0.0, "rental_uris": {"android": "https://dc.lft.to/lastmile_qr_scan", "ios": "https://dc.lft.to/lastmile_qr_scan"}, "is_reserved": 0}, {"bike_id": "36d56d951384b90e13b9c3e3f85591f3", "name": "36d56d951384b90e13b9c3e3f85591f3", "lat": 38.923115833333334, "fusion_lat": 0.0, "type": "electric_scooter", "lon": -77.02812483333334, "is_disabled": 0, "fusion_lon": 0.0, "rental_uris": {"android": "https://dc.lft.to/lastmile_qr_scan", "ios": "https://dc.lft.to/lastmile_qr_scan"}, "is_reserved": 0}, {"bike_id": "70ea7507175eec44614e547c95861040", "name": "70ea7507175eec44614e547c95861040", "lat": 38.9287645, "fusion_lat": 0.0, "type": "electric_scooter", "lon": -77.03240183333334, "is_disabled": 0, "fusion_lon": 0.0, "rental_uris": {"android": "https://dc.lft.to/lastmile_qr_scan", "ios": "https://dc.lft.to/lastmile_qr_scan"}, "is_reserved": 0}, {"bike_id": "36d6a51f63146f4ac9d81cfb0adcd24c", "name": "36d6a51f63146f4ac9d81cfb0adcd24c", "lat": 38.9019915, "fusion_lat": 0.0, "type": "electric_scooter", "lon": -77.02064233333333, "is_disabled": 0, "fusion_lon": 0.0, "rental_uris": {"android": "https://dc.lft.to/lastmile_qr_scan", "ios": "https://dc.lft.to/lastmile_qr_scan"}, "is_reserved": 0}, {"bike_id": "d3ffa1136dda4460469c2a093eaeeebc", "name": "d3ffa1136dda4460469c2a093eaeeebc", "lat": 38.9010575, "fusion_lat": 0.0, "type": "electric_scooter", "lon": -77.04998983333333, "is_disabled": 0, "fusion_lon": 0.0, "rental_uris": {"android": "https://dc.lft.to/lastmile_qr_scan", "ios": "https://dc.lft.to/lastmile_qr_scan"}, "is_reserved": 0}, {"bike_id": "b5c0f97449f72ca0b8f14cca07db23c2", "name": "b5c0f97449f72ca0b8f14cca07db23c2", "lat": 38.90358033333333, "fusion_lat": 0.0, "type": "electric_scooter", "lon": -77.0418275, "is_disabled": 0, "fusion_lon": 0.0, "rental_uris": {"android": "https://dc.lft.to/lastmile_qr_scan", "ios": "https://dc.lft.to/lastmile_qr_scan"}, "is_reserved": 0}, {"bike_id": "e232d76b5f5c06e5378ddaa3c73f0f49", "name": "e232d76b5f5c06e5378ddaa3c73f0f49", "lat": 38.90698533333333, "fusion_lat": 0.0, "type": "electric_scooter", "lon": -76.99767966666667, "is_disabled": 0, "fusion_lon": 0.0, "rental_uris": {"android": "https://dc.lft.to/lastmile_qr_scan", "ios": "https://dc.lft.to/lastmile_qr_scan"}, "is_reserved": 0}, {"bike_id": "829804fdb46a9cdbd68741be29b591bd", "name": "829804fdb46a9cdbd68741be29b591bd", "lat": 38.849174833333336, "fusion_lat": 0.0, "type": "electric_bike", "lon": -77.08371716666667, "is_disabled": 0, "fusion_lon": 0.0, "rental_uris": {"android": "https://dc.lft.to/lastmile_qr_scan", "ios": "https://dc.lft.to/lastmile_qr_scan"}, "is_reserved": 0}, {"bike_id": "a3f10912baff92b4531ed592f53a9ec0", "name": "a3f10912baff92b4531ed592f53a9ec0", "lat": 38.912524833333336, "fusion_lat": 0.0, "type": "electric_scooter", "lon": -77.02209666666667, "is_disabled": 0, "fusion_lon": 0.0, "rental_uris": {"android": "https://dc.lft.to/lastmile_qr_scan", "ios": "https://dc.lft.to/lastmile_qr_scan"}, "is_reserved": 0}, {"bike_id": "0851078d841a207cc06c66c68309f6e8", "name": "0851078d841a207cc06c66c68309f6e8", "lat": 38.90417866666667, "fusion_lat": 0.0, "type": "electric_scooter", "lon": -77.025801, "is_disabled": 0, "fusion_lon": 0.0, "rental_uris": {"android": "https://dc.lft.to/lastmile_qr_scan", "ios": "https://dc.lft.to/lastmile_qr_scan"}, "is_reserved": 0}, {"bike_id": "0040a580239714fdbb668a2bb21b096a", "name": "0040a580239714fdbb668a2bb21b096a", "lat": 38.922557833333336, "fusion_lat": 0.0, "type": "electric_scooter", "lon": -77.01909316666666, "is_disabled": 0, "fusion_lon": 0.0, "rental_uris": {"android": "https://dc.lft.to/lastmile_qr_scan", "ios": "https://dc.lft.to/lastmile_qr_scan"}, "is_reserved": 0}, {"bike_id": "d782b5d556e2eec065f2c908093123c7", "name": "d782b5d556e2eec065f2c908093123c7", "lat": 38.893486, "fusion_lat": 0.0, "type": "electric_scooter", "lon": -77.0397895, "is_disabled": 0, "fusion_lon": 0.0, "rental_uris": {"android": "https://dc.lft.to/lastmile_qr_scan", "ios": "https://dc.lft.to/lastmile_qr_scan"}, "is_reserved": 0}, {"bike_id": "c09a8f7aeb845e8e1dd4d5925f6d88ba", "name": "c09a8f7aeb845e8e1dd4d5925f6d88ba", "lat": 38.89554016666666, "fusion_lat": 0.0, "type": "electric_scooter", "lon": -76.98226433333333, "is_disabled": 0, "fusion_lon": 0.0, "rental_uris": {"android": "https://dc.lft.to/lastmile_qr_scan", "ios": "https://dc.lft.to/lastmile_qr_scan"}, "is_reserved": 0}, {"bike_id": "3112645f3de5475bda05c64a66f79e50", "name": "3112645f3de5475bda05c64a66f79e50", "lat": 38.894504, "fusion_lat": 0.0, "type": "electric_scooter", "lon": -77.04542233333333, "is_disabled": 0, "fusion_lon": 0.0, "rental_uris": {"android": "https://dc.lft.to/lastmile_qr_scan", "ios": "https://dc.lft.to/lastmile_qr_scan"}, "is_reserved": 0}, {"bike_id": "4f63938f1d158cda0c62d6d523ed6da2", "name": "4f63938f1d158cda0c62d6d523ed6da2", "lat": 38.910688666666665, "fusion_lat": 0.0, "type": "electric_scooter", "lon": -76.9913385, "is_disabled": 0, "fusion_lon": 0.0, "rental_uris": {"android": "https://dc.lft.to/lastmile_qr_scan", "ios": "https://dc.lft.to/lastmile_qr_scan"}, "is_reserved": 0}, {"bike_id": "aa1ff3cd73351abf6caffd06615651c6", "name": "aa1ff3cd73351abf6caffd06615651c6", "lat": 38.9031475, "fusion_lat": 0.0, "type": "electric_scooter", "lon": -77.0496085, "is_disabled": 0, "fusion_lon": 0.0, "rental_uris": {"android": "https://dc.lft.to/lastmile_qr_scan", "ios": "https://dc.lft.to/lastmile_qr_scan"}, "is_reserved": 0}, {"bike_id": "baf54b72d32ba614ae47808ad2934005", "name": "baf54b72d32ba614ae47808ad2934005", "lat": 38.9603095, "fusion_lat": 0.0, "type": "electric_scooter", "lon": -77.02429483333333, "is_disabled": 0, "fusion_lon": 0.0, "rental_uris": {"android": "https://dc.lft.to/lastmile_qr_scan", "ios": "https://dc.lft.to/lastmile_qr_scan"}, "is_reserved": 0}, {"bike_id": "21ec9a715c80ac42e0c289917a564ba0", "name": "21ec9a715c80ac42e0c289917a564ba0", "lat": 38.859503, "fusion_lat": 0.0, "type": "electric_scooter", "lon": -76.99147133333334, "is_disabled": 0, "fusion_lon": 0.0, "rental_uris": {"android": "https://dc.lft.to/lastmile_qr_scan", "ios": "https://dc.lft.to/lastmile_qr_scan"}, "is_reserved": 0}, {"bike_id": "3f9e123939b16bac90da9d4fe2e0974c", "name": "3f9e123939b16bac90da9d4fe2e0974c", "lat": 38.93497833333333, "fusion_lat": 0.0, "type": "electric_scooter", "lon": -77.027309, "is_disabled": 0, "fusion_lon": 0.0, "rental_uris": {"android": "https://dc.lft.to/lastmile_qr_scan", "ios": "https://dc.lft.to/lastmile_qr_scan"}, "is_reserved": 0}, {"bike_id": "b92606424ad96c42dfce2c44d8b56d31", "name": "b92606424ad96c42dfce2c44d8b56d31", "lat": 38.879889, "fusion_lat": 0.0, "type": "electric_scooter", "lon": -76.98543166666667, "is_disabled": 0, "fusion_lon": 0.0, "rental_uris": {"android": "https://dc.lft.to/lastmile_qr_scan", "ios": "https://dc.lft.to/lastmile_qr_scan"}, "is_reserved": 0}, {"bike_id": "e2301bcdc5bb54eeae6bddb0d1bf6546", "name": "e2301bcdc5bb54eeae6bddb0d1bf6546", "lat": 38.923329, "fusion_lat": 0.0, "type": "electric_scooter", "lon": -77.00895266666667, "is_disabled": 0, "fusion_lon": 0.0, "rental_uris": {"android": "https://dc.lft.to/lastmile_qr_scan", "ios": "https://dc.lft.to/lastmile_qr_scan"}, "is_reserved": 0}, {"bike_id": "97d1b7f507d3fc3ca0589ed5baa2b386", "name": "97d1b7f507d3fc3ca0589ed5baa2b386", "lat": 38.900218833333334, "fusion_lat": 0.0, "type": "electric_scooter", "lon": -77.02732366666666, "is_disabled": 0, "fusion_lon": 0.0, "rental_uris": {"android": "https://dc.lft.to/lastmile_qr_scan", "ios": "https://dc.lft.to/lastmile_qr_scan"}, "is_reserved": 0}, {"bike_id": "d4ef6f16046ddb1a3e92a856beda5364", "name": "d4ef6f16046ddb1a3e92a856beda5364", "lat": 38.9412585, "fusion_lat": 0.0, "type": "electric_scooter", "lon": -77.06181583333333, "is_disabled": 0, "fusion_lon": 0.0, "rental_uris": {"android": "https://dc.lft.to/lastmile_qr_scan", "ios": "https://dc.lft.to/lastmile_qr_scan"}, "is_reserved": 0}, {"bike_id": "302af4826f39e4f042b336f002427578", "name": "302af4826f39e4f042b336f002427578", "lat": 38.9022995, "fusion_lat": 0.0, "type": "electric_scooter", "lon": -77.04600883333333, "is_disabled": 0, "fusion_lon": 0.0, "rental_uris": {"android": "https://dc.lft.to/lastmile_qr_scan", "ios": "https://dc.lft.to/lastmile_qr_scan"}, "is_reserved": 0}, {"bike_id": "b00ce68c610139e97b33e970ab9a7424", "name": "b00ce68c610139e97b33e970ab9a7424", "lat": 38.90124733333333, "fusion_lat": 0.0, "type": "electric_scooter", "lon": -77.03808066666667, "is_disabled": 0, "fusion_lon": 0.0, "rental_uris": {"android": "https://dc.lft.to/lastmile_qr_scan", "ios": "https://dc.lft.to/lastmile_qr_scan"}, "is_reserved": 0}, {"bike_id": "bc1d9fb4243938a2ac961a98624f0e39", "name": "bc1d9fb4243938a2ac961a98624f0e39", "lat": 38.885224666666666, "fusion_lat": 0.0, "type": "electric_scooter", "lon": -76.97711, "is_disabled": 0, "fusion_lon": 0.0, "rental_uris": {"android": "https://dc.lft.to/lastmile_qr_scan", "ios": "https://dc.lft.to/lastmile_qr_scan"}, "is_reserved": 0}, {"bike_id": "74825bf89d3b268e2d4498fac75225fd", "name": "74825bf89d3b268e2d4498fac75225fd", "lat": 38.899924, "fusion_lat": 0.0, "type": "electric_bike", "lon": -76.98030266666666, "is_disabled": 0, "fusion_lon": 0.0, "rental_uris": {"android": "https://dc.lft.to/lastmile_qr_scan", "ios": "https://dc.lft.to/lastmile_qr_scan"}, "is_reserved": 0}, {"bike_id": "9b351d78ab5e7b2c64c3ac97006a7350", "name": "9b351d78ab5e7b2c64c3ac97006a7350", "lat": 38.946638666666665, "fusion_lat": 0.0, "type": "electric_bike", "lon": -76.9933065, "is_disabled": 0, "fusion_lon": 0.0, "rental_uris": {"android": "https://dc.lft.to/lastmile_qr_scan", "ios": "https://dc.lft.to/lastmile_qr_scan"}, "is_reserved": 0}, {"bike_id": "228413fd838f756bd992033a0dd3265b", "name": "228413fd838f756bd992033a0dd3265b", "lat": 38.91449216666667, "fusion_lat": 0.0, "type": "electric_scooter", "lon": -77.0317865, "is_disabled": 0, "fusion_lon": 0.0, "rental_uris": {"android": "https://dc.lft.to/lastmile_qr_scan", "ios": "https://dc.lft.to/lastmile_qr_scan"}, "is_reserved": 0}, {"bike_id": "d2139a9ca49384f2096d4d7302eb451e", "name": "d2139a9ca49384f2096d4d7302eb451e", "lat": 38.91800933333333, "fusion_lat": 0.0, "type": "electric_scooter", "lon": -77.03442533333333, "is_disabled": 0, "fusion_lon": 0.0, "rental_uris": {"android": "https://dc.lft.to/lastmile_qr_scan", "ios": "https://dc.lft.to/lastmile_qr_scan"}, "is_reserved": 0}, {"bike_id": "5b3599c4c4d80fde9b44fe64b9e68262", "name": "5b3599c4c4d80fde9b44fe64b9e68262", "lat": 38.90515466666667, "fusion_lat": 0.0, "type": "electric_scooter", "lon": -77.01901266666667, "is_disabled": 0, "fusion_lon": 0.0, "rental_uris": {"android": "https://dc.lft.to/lastmile_qr_scan", "ios": "https://dc.lft.to/lastmile_qr_scan"}, "is_reserved": 0}, {"bike_id": "02d0aa0ee76f9469c2701174517222ab", "name": "02d0aa0ee76f9469c2701174517222ab", "lat": 38.92007233333333, "fusion_lat": 0.0, "type": "electric_scooter", "lon": -77.031549, "is_disabled": 0, "fusion_lon": 0.0, "rental_uris": {"android": "https://dc.lft.to/lastmile_qr_scan", "ios": "https://dc.lft.to/lastmile_qr_scan"}, "is_reserved": 0}, {"bike_id": "9ee171d62355db2deb916a9f93713282", "name": "9ee171d62355db2deb916a9f93713282", "lat": 38.886059833333334, "fusion_lat": 0.0, "type": "electric_bike", "lon": -77.14235066666667, "is_disabled": 0, "fusion_lon": 0.0, "rental_uris": {"android": "https://dc.lft.to/lastmile_qr_scan", "ios": "https://dc.lft.to/lastmile_qr_scan"}, "is_reserved": 0}, {"bike_id": "e43944d24e41a6333df2660c4580c61e", "name": "e43944d24e41a6333df2660c4580c61e", "lat": 38.8936125, "fusion_lat": 0.0, "type": "electric_scooter", "lon": -77.0033545, "is_disabled": 0, "fusion_lon": 0.0, "rental_uris": {"android": "https://dc.lft.to/lastmile_qr_scan", "ios": "https://dc.lft.to/lastmile_qr_scan"}, "is_reserved": 0}, {"bike_id": "258f7d3e65637b814155099649dbc73e", "name": "258f7d3e65637b814155099649dbc73e", "lat": 38.9127275, "fusion_lat": 0.0, "type": "electric_scooter", "lon": -77.02387516666667, "is_disabled": 0, "fusion_lon": 0.0, "rental_uris": {"android": "https://dc.lft.to/lastmile_qr_scan", "ios": "https://dc.lft.to/lastmile_qr_scan"}, "is_reserved": 0}, {"bike_id": "14a602b1dda0078945e3b1188fee70a9", "name": "14a602b1dda0078945e3b1188fee70a9", "lat": 38.930422666666665, "fusion_lat": 0.0, "type": "electric_scooter", "lon": -77.01225783333334, "is_disabled": 0, "fusion_lon": 0.0, "rental_uris": {"android": "https://dc.lft.to/lastmile_qr_scan", "ios": "https://dc.lft.to/lastmile_qr_scan"}, "is_reserved": 0}, {"bike_id": "9cb56aae9ab9be9993a77d787f91cdd4", "name": "9cb56aae9ab9be9993a77d787f91cdd4", "lat": 38.91197116666667, "fusion_lat": 0.0, "type": "electric_scooter", "lon": -77.0385715, "is_disabled": 0, "fusion_lon": 0.0, "rental_uris": {"android": "https://dc.lft.to/lastmile_qr_scan", "ios": "https://dc.lft.to/lastmile_qr_scan"}, "is_reserved": 0}, {"bike_id": "389e544b7dbdf5faaef78f67008d069d", "name": "389e544b7dbdf5faaef78f67008d069d", "lat": 38.8997995, "fusion_lat": 0.0, "type": "electric_scooter", "lon": -77.02388316666666, "is_disabled": 0, "fusion_lon": 0.0, "rental_uris": {"android": "https://dc.lft.to/lastmile_qr_scan", "ios": "https://dc.lft.to/lastmile_qr_scan"}, "is_reserved": 0}, {"bike_id": "9b85f7cc6c05a659cc6f41be52474a69", "name": "9b85f7cc6c05a659cc6f41be52474a69", "lat": 38.894512666666664, "fusion_lat": 0.0, "type": "electric_scooter", "lon": -77.01990283333333, "is_disabled": 0, "fusion_lon": 0.0, "rental_uris": {"android": "https://dc.lft.to/lastmile_qr_scan", "ios": "https://dc.lft.to/lastmile_qr_scan"}, "is_reserved": 0}, {"bike_id": "84072f88651d15a025c900cc807f4d32", "name": "84072f88651d15a025c900cc807f4d32", "lat": 38.906485833333335, "fusion_lat": 0.0, "type": "electric_scooter", "lon": -77.02947716666667, "is_disabled": 0, "fusion_lon": 0.0, "rental_uris": {"android": "https://dc.lft.to/lastmile_qr_scan", "ios": "https://dc.lft.to/lastmile_qr_scan"}, "is_reserved": 0}, {"bike_id": "d49b0f58f97d9654b7f20f3de43f83ea", "name": "d49b0f58f97d9654b7f20f3de43f83ea", "lat": 38.885088833333334, "fusion_lat": 0.0, "type": "electric_scooter", "lon": -77.01115466666667, "is_disabled": 0, "fusion_lon": 0.0, "rental_uris": {"android": "https://dc.lft.to/lastmile_qr_scan", "ios": "https://dc.lft.to/lastmile_qr_scan"}, "is_reserved": 0}, {"bike_id": "36f16c704cae5eaa2128696fafe091db", "name": "36f16c704cae5eaa2128696fafe091db", "lat": 38.89840516666667, "fusion_lat": 0.0, "type": "electric_scooter", "lon": -77.029537, "is_disabled": 0, "fusion_lon": 0.0, "rental_uris": {"android": "https://dc.lft.to/lastmile_qr_scan", "ios": "https://dc.lft.to/lastmile_qr_scan"}, "is_reserved": 0}, {"bike_id": "ff533866840e7398ec5bcafdd71a8d79", "name": "ff533866840e7398ec5bcafdd71a8d79", "lat": 38.895359, "fusion_lat": 0.0, "type": "electric_scooter", "lon": -76.94891933333334, "is_disabled": 0, "fusion_lon": 0.0, "rental_uris": {"android": "https://dc.lft.to/lastmile_qr_scan", "ios": "https://dc.lft.to/lastmile_qr_scan"}, "is_reserved": 0}, {"bike_id": "7ede7e43572ff47cb6d6e9a2f3fd6269", "name": "7ede7e43572ff47cb6d6e9a2f3fd6269", "lat": 38.86664916666667, "fusion_lat": 0.0, "type": "electric_scooter", "lon": -76.97906166666667, "is_disabled": 0, "fusion_lon": 0.0, "rental_uris": {"android": "https://dc.lft.to/lastmile_qr_scan", "ios": "https://dc.lft.to/lastmile_qr_scan"}, "is_reserved": 0}, {"bike_id": "3efae3d30204fce36898edaad25e1f35", "name": "3efae3d30204fce36898edaad25e1f35", "lat": 38.89506316666667, "fusion_lat": 0.0, "type": "electric_scooter", "lon": -76.9347805, "is_disabled": 0, "fusion_lon": 0.0, "rental_uris": {"android": "https://dc.lft.to/lastmile_qr_scan", "ios": "https://dc.lft.to/lastmile_qr_scan"}, "is_reserved": 0}, {"bike_id": "45f3f1b43aec41517db9c07b0b20005b", "name": "45f3f1b43aec41517db9c07b0b20005b", "lat": 38.913227, "fusion_lat": 0.0, "type": "electric_scooter", "lon": -77.01650683333334, "is_disabled": 0, "fusion_lon": 0.0, "rental_uris": {"android": "https://dc.lft.to/lastmile_qr_scan", "ios": "https://dc.lft.to/lastmile_qr_scan"}, "is_reserved": 0}, {"bike_id": "bddc33f093621d67c0040d4930bb7f9d", "name": "bddc33f093621d67c0040d4930bb7f9d", "lat": 38.930927, "fusion_lat": 0.0, "type": "electric_scooter", "lon": -77.03281016666666, "is_disabled": 0, "fusion_lon": 0.0, "rental_uris": {"android": "https://dc.lft.to/lastmile_qr_scan", "ios": "https://dc.lft.to/lastmile_qr_scan"}, "is_reserved": 0}, {"bike_id": "23c9d4c177b48893e8a1f7ffa5bc116b", "name": "23c9d4c177b48893e8a1f7ffa5bc116b", "lat": 38.893652, "fusion_lat": 0.0, "type": "electric_scooter", "lon": -76.93594066666667, "is_disabled": 0, "fusion_lon": 0.0, "rental_uris": {"android": "https://dc.lft.to/lastmile_qr_scan", "ios": "https://dc.lft.to/lastmile_qr_scan"}, "is_reserved": 0}, {"bike_id": "1840f4ffe246e1c6a55da85cb54ae831", "name": "1840f4ffe246e1c6a55da85cb54ae831", "lat": 38.9076815, "fusion_lat": 0.0, "type": "electric_scooter", "lon": -77.07167483333333, "is_disabled": 0, "fusion_lon": 0.0, "rental_uris": {"android": "https://dc.lft.to/lastmile_qr_scan", "ios": "https://dc.lft.to/lastmile_qr_scan"}, "is_reserved": 0}, {"bike_id": "8705643be42e9c97a8be4b37aa7705a2", "name": "8705643be42e9c97a8be4b37aa7705a2", "lat": 38.892238666666664, "fusion_lat": 0.0, "type": "electric_scooter", "lon": -77.040877, "is_disabled": 0, "fusion_lon": 0.0, "rental_uris": {"android": "https://dc.lft.to/lastmile_qr_scan", "ios": "https://dc.lft.to/lastmile_qr_scan"}, "is_reserved": 0}, {"bike_id": "11f3d5ad34261109e6072fa7b32187cc", "name": "11f3d5ad34261109e6072fa7b32187cc", "lat": 38.90506416666667, "fusion_lat": 0.0, "type": "electric_scooter", "lon": -77.03648766666667, "is_disabled": 0, "fusion_lon": 0.0, "rental_uris": {"android": "https://dc.lft.to/lastmile_qr_scan", "ios": "https://dc.lft.to/lastmile_qr_scan"}, "is_reserved": 0}, {"bike_id": "b175f3d36b2de6c9709ef7ac7fd2d601", "name": "b175f3d36b2de6c9709ef7ac7fd2d601", "lat": 38.92237766666667, "fusion_lat": 0.0, "type": "electric_scooter", "lon": -77.03661966666667, "is_disabled": 0, "fusion_lon": 0.0, "rental_uris": {"android": "https://dc.lft.to/lastmile_qr_scan", "ios": "https://dc.lft.to/lastmile_qr_scan"}, "is_reserved": 0}, {"bike_id": "2043e1dc84a0a6759ada18d1252febea", "name": "2043e1dc84a0a6759ada18d1252febea", "lat": 38.80382183333333, "fusion_lat": 0.0, "type": "electric_bike", "lon": -76.98814783333333, "is_disabled": 0, "fusion_lon": 0.0, "rental_uris": {"android": "https://dc.lft.to/lastmile_qr_scan", "ios": "https://dc.lft.to/lastmile_qr_scan"}, "is_reserved": 0}, {"bike_id": "83aec06b03351660d81d56dd63b60de4", "name": "83aec06b03351660d81d56dd63b60de4", "lat": 38.898276333333335, "fusion_lat": 0.0, "type": "electric_scooter", "lon": -77.0322935, "is_disabled": 0, "fusion_lon": 0.0, "rental_uris": {"android": "https://dc.lft.to/lastmile_qr_scan", "ios": "https://dc.lft.to/lastmile_qr_scan"}, "is_reserved": 0}, {"bike_id": "9222a9bf4a9b0345fdfdb23b7198109b", "name": "9222a9bf4a9b0345fdfdb23b7198109b", "lat": 38.8955355, "fusion_lat": 0.0, "type": "electric_scooter", "lon": -77.01108233333333, "is_disabled": 0, "fusion_lon": 0.0, "rental_uris": {"android": "https://dc.lft.to/lastmile_qr_scan", "ios": "https://dc.lft.to/lastmile_qr_scan"}, "is_reserved": 0}, {"bike_id": "0d39c7d402c466a67c6b464ae06dd9bb", "name": "0d39c7d402c466a67c6b464ae06dd9bb", "lat": 38.90389416666667, "fusion_lat": 0.0, "type": "electric_scooter", "lon": -77.06859033333333, "is_disabled": 0, "fusion_lon": 0.0, "rental_uris": {"android": "https://dc.lft.to/lastmile_qr_scan", "ios": "https://dc.lft.to/lastmile_qr_scan"}, "is_reserved": 0}, {"bike_id": "46490ca50404b8a47a2c428459eefaef", "name": "46490ca50404b8a47a2c428459eefaef", "lat": 38.877068, "fusion_lat": 0.0, "type": "electric_scooter", "lon": -77.01915933333333, "is_disabled": 0, "fusion_lon": 0.0, "rental_uris": {"android": "https://dc.lft.to/lastmile_qr_scan", "ios": "https://dc.lft.to/lastmile_qr_scan"}, "is_reserved": 0}, {"bike_id": "07c2cd736efa35a221c94041c2fb09d9", "name": "07c2cd736efa35a221c94041c2fb09d9", "lat": 38.90839533333333, "fusion_lat": 0.0, "type": "electric_scooter", "lon": -77.0638845, "is_disabled": 0, "fusion_lon": 0.0, "rental_uris": {"android": "https://dc.lft.to/lastmile_qr_scan", "ios": "https://dc.lft.to/lastmile_qr_scan"}, "is_reserved": 0}, {"bike_id": "fac787d09573e127bbb3a94646dca2bf", "name": "fac787d09573e127bbb3a94646dca2bf", "lat": 38.89501683333334, "fusion_lat": 0.0, "type": "electric_scooter", "lon": -77.04634633333333, "is_disabled": 0, "fusion_lon": 0.0, "rental_uris": {"android": "https://dc.lft.to/lastmile_qr_scan", "ios": "https://dc.lft.to/lastmile_qr_scan"}, "is_reserved": 0}, {"bike_id": "b46ae396818cca68e765d3c1e509c56e", "name": "b46ae396818cca68e765d3c1e509c56e", "lat": 38.90061883333333, "fusion_lat": 0.0, "type": "electric_scooter", "lon": -77.04535366666667, "is_disabled": 0, "fusion_lon": 0.0, "rental_uris": {"android": "https://dc.lft.to/lastmile_qr_scan", "ios": "https://dc.lft.to/lastmile_qr_scan"}, "is_reserved": 0}, {"bike_id": "0e678d8956fa92307f2d4316f0898ff5", "name": "0e678d8956fa92307f2d4316f0898ff5", "lat": 38.88633466666667, "fusion_lat": 0.0, "type": "electric_scooter", "lon": -77.01285933333334, "is_disabled": 0, "fusion_lon": 0.0, "rental_uris": {"android": "https://dc.lft.to/lastmile_qr_scan", "ios": "https://dc.lft.to/lastmile_qr_scan"}, "is_reserved": 0}, {"bike_id": "62b4b85d98aae6708e598101ccc4eefa", "name": "62b4b85d98aae6708e598101ccc4eefa", "lat": 38.8989155, "fusion_lat": 0.0, "type": "electric_scooter", "lon": -77.008107, "is_disabled": 0, "fusion_lon": 0.0, "rental_uris": {"android": "https://dc.lft.to/lastmile_qr_scan", "ios": "https://dc.lft.to/lastmile_qr_scan"}, "is_reserved": 0}, {"bike_id": "6c508431fdd9a1a088045852e772c4ab", "name": "6c508431fdd9a1a088045852e772c4ab", "lat": 38.920418, "fusion_lat": 0.0, "type": "electric_scooter", "lon": -77.01674983333334, "is_disabled": 0, "fusion_lon": 0.0, "rental_uris": {"android": "https://dc.lft.to/lastmile_qr_scan", "ios": "https://dc.lft.to/lastmile_qr_scan"}, "is_reserved": 0}, {"bike_id": "7fe3460f3ab571bab35aebb003dedeb0", "name": "7fe3460f3ab571bab35aebb003dedeb0", "lat": 38.908090666666666, "fusion_lat": 0.0, "type": "electric_scooter", "lon": -77.04466333333333, "is_disabled": 0, "fusion_lon": 0.0, "rental_uris": {"android": "https://dc.lft.to/lastmile_qr_scan", "ios": "https://dc.lft.to/lastmile_qr_scan"}, "is_reserved": 0}, {"bike_id": "cb1572f0c9477d019455027a4ac10888", "name": "cb1572f0c9477d019455027a4ac10888", "lat": 38.92360583333333, "fusion_lat": 0.0, "type": "electric_scooter", "lon": -77.05032866666667, "is_disabled": 0, "fusion_lon": 0.0, "rental_uris": {"android": "https://dc.lft.to/lastmile_qr_scan", "ios": "https://dc.lft.to/lastmile_qr_scan"}, "is_reserved": 0}, {"bike_id": "bae57c81c96e706329e7713655b42067", "name": "bae57c81c96e706329e7713655b42067", "lat": 38.92374133333333, "fusion_lat": 0.0, "type": "electric_scooter", "lon": -77.01912516666667, "is_disabled": 0, "fusion_lon": 0.0, "rental_uris": {"android": "https://dc.lft.to/lastmile_qr_scan", "ios": "https://dc.lft.to/lastmile_qr_scan"}, "is_reserved": 0}, {"bike_id": "4a9251d0cda1375efb134f9db2debc5d", "name": "4a9251d0cda1375efb134f9db2debc5d", "lat": 38.927197666666665, "fusion_lat": 0.0, "type": "electric_scooter", "lon": -77.01630783333333, "is_disabled": 0, "fusion_lon": 0.0, "rental_uris": {"android": "https://dc.lft.to/lastmile_qr_scan", "ios": "https://dc.lft.to/lastmile_qr_scan"}, "is_reserved": 0}, {"bike_id": "d6717c6448ff33eb7ae6a1aaca76a288", "name": "d6717c6448ff33eb7ae6a1aaca76a288", "lat": 38.91417033333333, "fusion_lat": 0.0, "type": "electric_scooter", "lon": -77.019083, "is_disabled": 0, "fusion_lon": 0.0, "rental_uris": {"android": "https://dc.lft.to/lastmile_qr_scan", "ios": "https://dc.lft.to/lastmile_qr_scan"}, "is_reserved": 0}, {"bike_id": "397adace1c84f2117a37735e145e69fc", "name": "397adace1c84f2117a37735e145e69fc", "lat": 38.91105866666667, "fusion_lat": 0.0, "type": "electric_scooter", "lon": -77.07347866666667, "is_disabled": 0, "fusion_lon": 0.0, "rental_uris": {"android": "https://dc.lft.to/lastmile_qr_scan", "ios": "https://dc.lft.to/lastmile_qr_scan"}, "is_reserved": 0}, {"bike_id": "348b083a0fe4b57bfa1877646e026cc1", "name": "348b083a0fe4b57bfa1877646e026cc1", "lat": 38.898021166666666, "fusion_lat": 0.0, "type": "electric_scooter", "lon": -77.04616716666666, "is_disabled": 0, "fusion_lon": 0.0, "rental_uris": {"android": "https://dc.lft.to/lastmile_qr_scan", "ios": "https://dc.lft.to/lastmile_qr_scan"}, "is_reserved": 0}, {"bike_id": "8643678e1d31ad30a69bffd894ada1c4", "name": "8643678e1d31ad30a69bffd894ada1c4", "lat": 38.883001666666665, "fusion_lat": 0.0, "type": "electric_scooter", "lon": -76.9485395, "is_disabled": 0, "fusion_lon": 0.0, "rental_uris": {"android": "https://dc.lft.to/lastmile_qr_scan", "ios": "https://dc.lft.to/lastmile_qr_scan"}, "is_reserved": 0}, {"bike_id": "cc1d4b6fcd3c7365134cd80be15007be", "name": "cc1d4b6fcd3c7365134cd80be15007be", "lat": 38.9346545, "fusion_lat": 0.0, "type": "electric_scooter", "lon": -77.041321, "is_disabled": 0, "fusion_lon": 0.0, "rental_uris": {"android": "https://dc.lft.to/lastmile_qr_scan", "ios": "https://dc.lft.to/lastmile_qr_scan"}, "is_reserved": 0}, {"bike_id": "10b2b9da43f54622415ab411c2226e2a", "name": "10b2b9da43f54622415ab411c2226e2a", "lat": 38.912448166666664, "fusion_lat": 0.0, "type": "electric_scooter", "lon": -77.0417025, "is_disabled": 0, "fusion_lon": 0.0, "rental_uris": {"android": "https://dc.lft.to/lastmile_qr_scan", "ios": "https://dc.lft.to/lastmile_qr_scan"}, "is_reserved": 0}, {"bike_id": "9eaff29ef11b5caee28191af714cb1e5", "name": "9eaff29ef11b5caee28191af714cb1e5", "lat": 38.871822, "fusion_lat": 0.0, "type": "electric_scooter", "lon": -77.00607666666667, "is_disabled": 0, "fusion_lon": 0.0, "rental_uris": {"android": "https://dc.lft.to/lastmile_qr_scan", "ios": "https://dc.lft.to/lastmile_qr_scan"}, "is_reserved": 0}, {"bike_id": "79b0627aba39b1524aff5b05ad0e0472", "name": "79b0627aba39b1524aff5b05ad0e0472", "lat": 38.90100316666667, "fusion_lat": 0.0, "type": "electric_scooter", "lon": -76.9800605, "is_disabled": 0, "fusion_lon": 0.0, "rental_uris": {"android": "https://dc.lft.to/lastmile_qr_scan", "ios": "https://dc.lft.to/lastmile_qr_scan"}, "is_reserved": 0}, {"bike_id": "6d307e40711840d490c7c851c8ab31ec", "name": "6d307e40711840d490c7c851c8ab31ec", "lat": 38.90312483333334, "fusion_lat": 0.0, "type": "electric_scooter", "lon": -77.04338083333333, "is_disabled": 0, "fusion_lon": 0.0, "rental_uris": {"android": "https://dc.lft.to/lastmile_qr_scan", "ios": "https://dc.lft.to/lastmile_qr_scan"}, "is_reserved": 0}, {"bike_id": "30a53086a9cc7dc8b8ee6af9152418cc", "name": "30a53086a9cc7dc8b8ee6af9152418cc", "lat": 38.96614066666667, "fusion_lat": 0.0, "type": "electric_bike", "lon": -77.0344185, "is_disabled": 0, "fusion_lon": 0.0, "rental_uris": {"android": "https://dc.lft.to/lastmile_qr_scan", "ios": "https://dc.lft.to/lastmile_qr_scan"}, "is_reserved": 0}, {"bike_id": "3283cc481567bacbb75be9244b037f1f", "name": "3283cc481567bacbb75be9244b037f1f", "lat": 38.922299833333334, "fusion_lat": 0.0, "type": "electric_scooter", "lon": -77.023322, "is_disabled": 0, "fusion_lon": 0.0, "rental_uris": {"android": "https://dc.lft.to/lastmile_qr_scan", "ios": "https://dc.lft.to/lastmile_qr_scan"}, "is_reserved": 0}, {"bike_id": "a4d1fd38f5d2f62b0bd0864b2ca1f27b", "name": "a4d1fd38f5d2f62b0bd0864b2ca1f27b", "lat": 38.91302366666667, "fusion_lat": 0.0, "type": "electric_scooter", "lon": -77.031987, "is_disabled": 0, "fusion_lon": 0.0, "rental_uris": {"android": "https://dc.lft.to/lastmile_qr_scan", "ios": "https://dc.lft.to/lastmile_qr_scan"}, "is_reserved": 0}, {"bike_id": "4d336e0271687b3641e4b83d6bd3a8a8", "name": "4d336e0271687b3641e4b83d6bd3a8a8", "lat": 38.90775883333333, "fusion_lat": 0.0, "type": "electric_scooter", "lon": -77.03766116666667, "is_disabled": 0, "fusion_lon": 0.0, "rental_uris": {"android": "https://dc.lft.to/lastmile_qr_scan", "ios": "https://dc.lft.to/lastmile_qr_scan"}, "is_reserved": 0}, {"bike_id": "76cbe38e1486424c7640bd43f7ddefa1", "name": "76cbe38e1486424c7640bd43f7ddefa1", "lat": 38.89477383333333, "fusion_lat": 0.0, "type": "electric_scooter", "lon": -76.995757, "is_disabled": 0, "fusion_lon": 0.0, "rental_uris": {"android": "https://dc.lft.to/lastmile_qr_scan", "ios": "https://dc.lft.to/lastmile_qr_scan"}, "is_reserved": 0}, {"bike_id": "a0ae0e173b9934ea03108a01a6f5dd6f", "name": "a0ae0e173b9934ea03108a01a6f5dd6f", "lat": 38.90691283333334, "fusion_lat": 0.0, "type": "electric_scooter", "lon": -77.03623383333333, "is_disabled": 0, "fusion_lon": 0.0, "rental_uris": {"android": "https://dc.lft.to/lastmile_qr_scan", "ios": "https://dc.lft.to/lastmile_qr_scan"}, "is_reserved": 0}, {"bike_id": "44d5d8c036ef116bebfff1dbd8bce8f8", "name": "44d5d8c036ef116bebfff1dbd8bce8f8", "lat": 38.900281, "fusion_lat": 0.0, "type": "electric_scooter", "lon": -77.03673183333333, "is_disabled": 0, "fusion_lon": 0.0, "rental_uris": {"android": "https://dc.lft.to/lastmile_qr_scan", "ios": "https://dc.lft.to/lastmile_qr_scan"}, "is_reserved": 0}, {"bike_id": "3a55d626c978cb94c519db8375b50e57", "name": "3a55d626c978cb94c519db8375b50e57", "lat": 38.899598, "fusion_lat": 0.0, "type": "electric_bike", "lon": -76.98675516666667, "is_disabled": 0, "fusion_lon": 0.0, "rental_uris": {"android": "https://dc.lft.to/lastmile_qr_scan", "ios": "https://dc.lft.to/lastmile_qr_scan"}, "is_reserved": 0}, {"bike_id": "9e602b27bc58ee8a56e96cd7d04d812e", "name": "9e602b27bc58ee8a56e96cd7d04d812e", "lat": 38.898755333333334, "fusion_lat": 0.0, "type": "electric_scooter", "lon": -77.021859, "is_disabled": 0, "fusion_lon": 0.0, "rental_uris": {"android": "https://dc.lft.to/lastmile_qr_scan", "ios": "https://dc.lft.to/lastmile_qr_scan"}, "is_reserved": 0}, {"bike_id": "64c9ff1896ae4b9ffb654b50e06d947f", "name": "64c9ff1896ae4b9ffb654b50e06d947f", "lat": 38.881216, "fusion_lat": 0.0, "type": "electric_scooter", "lon": -77.00096966666666, "is_disabled": 0, "fusion_lon": 0.0, "rental_uris": {"android": "https://dc.lft.to/lastmile_qr_scan", "ios": "https://dc.lft.to/lastmile_qr_scan"}, "is_reserved": 0}, {"bike_id": "6df3ead4f176decf3e8d6815a96cdb24", "name": "6df3ead4f176decf3e8d6815a96cdb24", "lat": 38.89352016666667, "fusion_lat": 0.0, "type": "electric_scooter", "lon": -77.01746833333333, "is_disabled": 0, "fusion_lon": 0.0, "rental_uris": {"android": "https://dc.lft.to/lastmile_qr_scan", "ios": "https://dc.lft.to/lastmile_qr_scan"}, "is_reserved": 0}, {"bike_id": "0106974b8ae5177fa7c5e32ddc2057b7", "name": "0106974b8ae5177fa7c5e32ddc2057b7", "lat": 38.92171, "fusion_lat": 0.0, "type": "electric_scooter", "lon": -77.0382965, "is_disabled": 0, "fusion_lon": 0.0, "rental_uris": {"android": "https://dc.lft.to/lastmile_qr_scan", "ios": "https://dc.lft.to/lastmile_qr_scan"}, "is_reserved": 0}, {"bike_id": "0fd885e1aaa6dc1c6ce4c44f918a92f7", "name": "0fd885e1aaa6dc1c6ce4c44f918a92f7", "lat": 38.92169416666667, "fusion_lat": 0.0, "type": "electric_scooter", "lon": -77.02667, "is_disabled": 0, "fusion_lon": 0.0, "rental_uris": {"android": "https://dc.lft.to/lastmile_qr_scan", "ios": "https://dc.lft.to/lastmile_qr_scan"}, "is_reserved": 0}, {"bike_id": "f7a59f9defae9556b67ae117e7318888", "name": "f7a59f9defae9556b67ae117e7318888", "lat": 38.86490216666667, "fusion_lat": 0.0, "type": "electric_scooter", "lon": -76.97742266666667, "is_disabled": 0, "fusion_lon": 0.0, "rental_uris": {"android": "https://dc.lft.to/lastmile_qr_scan", "ios": "https://dc.lft.to/lastmile_qr_scan"}, "is_reserved": 0}, {"bike_id": "268f65b30be03f5843d0578b4830f6e6", "name": "268f65b30be03f5843d0578b4830f6e6", "lat": 38.935562833333336, "fusion_lat": 0.0, "type": "electric_bike", "lon": -77.03693516666667, "is_disabled": 0, "fusion_lon": 0.0, "rental_uris": {"android": "https://dc.lft.to/lastmile_qr_scan", "ios": "https://dc.lft.to/lastmile_qr_scan"}, "is_reserved": 0}, {"bike_id": "5163c4fbd00696a54176311532212643", "name": "5163c4fbd00696a54176311532212643", "lat": 38.901921333333334, "fusion_lat": 0.0, "type": "electric_scooter", "lon": -77.05084266666667, "is_disabled": 0, "fusion_lon": 0.0, "rental_uris": {"android": "https://dc.lft.to/lastmile_qr_scan", "ios": "https://dc.lft.to/lastmile_qr_scan"}, "is_reserved": 0}, {"bike_id": "8b1535de1b12f92b98b4aa44e9bde45b", "name": "8b1535de1b12f92b98b4aa44e9bde45b", "lat": 38.92790133333333, "fusion_lat": 0.0, "type": "electric_scooter", "lon": -77.0308135, "is_disabled": 0, "fusion_lon": 0.0, "rental_uris": {"android": "https://dc.lft.to/lastmile_qr_scan", "ios": "https://dc.lft.to/lastmile_qr_scan"}, "is_reserved": 0}, {"bike_id": "d55c24e6c2a30ab65439b862f9649be4", "name": "d55c24e6c2a30ab65439b862f9649be4", "lat": 38.872843, "fusion_lat": 0.0, "type": "electric_scooter", "lon": -77.00985933333334, "is_disabled": 0, "fusion_lon": 0.0, "rental_uris": {"android": "https://dc.lft.to/lastmile_qr_scan", "ios": "https://dc.lft.to/lastmile_qr_scan"}, "is_reserved": 0}, {"bike_id": "3978ea22fae038aa4f479b69b23b9b8e", "name": "3978ea22fae038aa4f479b69b23b9b8e", "lat": 38.9187975, "fusion_lat": 0.0, "type": "electric_scooter", "lon": -77.02195116666667, "is_disabled": 0, "fusion_lon": 0.0, "rental_uris": {"android": "https://dc.lft.to/lastmile_qr_scan", "ios": "https://dc.lft.to/lastmile_qr_scan"}, "is_reserved": 0}, {"bike_id": "108963722dd5526e64f1028e2fc4afe1", "name": "108963722dd5526e64f1028e2fc4afe1", "lat": 38.902702166666664, "fusion_lat": 0.0, "type": "electric_scooter", "lon": -77.04592083333333, "is_disabled": 0, "fusion_lon": 0.0, "rental_uris": {"android": "https://dc.lft.to/lastmile_qr_scan", "ios": "https://dc.lft.to/lastmile_qr_scan"}, "is_reserved": 0}, {"bike_id": "563ef9de9f514ca3716554340394461a", "name": "563ef9de9f514ca3716554340394461a", "lat": 38.91699533333333, "fusion_lat": 0.0, "type": "electric_scooter", "lon": -77.05292716666666, "is_disabled": 0, "fusion_lon": 0.0, "rental_uris": {"android": "https://dc.lft.to/lastmile_qr_scan", "ios": "https://dc.lft.to/lastmile_qr_scan"}, "is_reserved": 0}, {"bike_id": "bf37a686f760d55a6225234c5bd28f52", "name": "bf37a686f760d55a6225234c5bd28f52", "lat": 38.897375333333336, "fusion_lat": 0.0, "type": "electric_scooter", "lon": -77.033768, "is_disabled": 0, "fusion_lon": 0.0, "rental_uris": {"android": "https://dc.lft.to/lastmile_qr_scan", "ios": "https://dc.lft.to/lastmile_qr_scan"}, "is_reserved": 0}, {"bike_id": "617178a2d9f33349faa6ceb67facc0ae", "name": "617178a2d9f33349faa6ceb67facc0ae", "lat": 38.878438333333335, "fusion_lat": 0.0, "type": "electric_scooter", "lon": -77.0227735, "is_disabled": 0, "fusion_lon": 0.0, "rental_uris": {"android": "https://dc.lft.to/lastmile_qr_scan", "ios": "https://dc.lft.to/lastmile_qr_scan"}, "is_reserved": 0}, {"bike_id": "d2dbaccc2249ce291f890ab14c11bc60", "name": "d2dbaccc2249ce291f890ab14c11bc60", "lat": 38.90626433333333, "fusion_lat": 0.0, "type": "electric_scooter", "lon": -77.03443083333333, "is_disabled": 0, "fusion_lon": 0.0, "rental_uris": {"android": "https://dc.lft.to/lastmile_qr_scan", "ios": "https://dc.lft.to/lastmile_qr_scan"}, "is_reserved": 0}, {"bike_id": "3d051281a403c68ffa0fb13906ea6302", "name": "3d051281a403c68ffa0fb13906ea6302", "lat": 38.836074833333335, "fusion_lat": 0.0, "type": "electric_bike", "lon": -77.0038175, "is_disabled": 0, "fusion_lon": 0.0, "rental_uris": {"android": "https://dc.lft.to/lastmile_qr_scan", "ios": "https://dc.lft.to/lastmile_qr_scan"}, "is_reserved": 0}, {"bike_id": "752cd391082b7988aa73969c60c2c7a3", "name": "752cd391082b7988aa73969c60c2c7a3", "lat": 38.917914333333336, "fusion_lat": 0.0, "type": "electric_scooter", "lon": -77.032185, "is_disabled": 0, "fusion_lon": 0.0, "rental_uris": {"android": "https://dc.lft.to/lastmile_qr_scan", "ios": "https://dc.lft.to/lastmile_qr_scan"}, "is_reserved": 0}, {"bike_id": "9eb9a6026bd73669d095c31ca8c98e4e", "name": "9eb9a6026bd73669d095c31ca8c98e4e", "lat": 38.892346333333336, "fusion_lat": 0.0, "type": "electric_scooter", "lon": -77.01356, "is_disabled": 0, "fusion_lon": 0.0, "rental_uris": {"android": "https://dc.lft.to/lastmile_qr_scan", "ios": "https://dc.lft.to/lastmile_qr_scan"}, "is_reserved": 0}, {"bike_id": "df2c2329f56a568ef73632b73d0e4849", "name": "df2c2329f56a568ef73632b73d0e4849", "lat": 38.9166555, "fusion_lat": 0.0, "type": "electric_bike", "lon": -77.056599, "is_disabled": 0, "fusion_lon": 0.0, "rental_uris": {"android": "https://dc.lft.to/lastmile_qr_scan", "ios": "https://dc.lft.to/lastmile_qr_scan"}, "is_reserved": 0}, {"bike_id": "995de43da75cfabb111f044f4da66f00", "name": "995de43da75cfabb111f044f4da66f00", "lat": 38.894772833333334, "fusion_lat": 0.0, "type": "electric_scooter", "lon": -77.019367, "is_disabled": 0, "fusion_lon": 0.0, "rental_uris": {"android": "https://dc.lft.to/lastmile_qr_scan", "ios": "https://dc.lft.to/lastmile_qr_scan"}, "is_reserved": 0}, {"bike_id": "ddf29a0c34534137c4d88d09813819ec", "name": "ddf29a0c34534137c4d88d09813819ec", "lat": 38.887245166666666, "fusion_lat": 0.0, "type": "electric_scooter", "lon": -76.98377633333334, "is_disabled": 0, "fusion_lon": 0.0, "rental_uris": {"android": "https://dc.lft.to/lastmile_qr_scan", "ios": "https://dc.lft.to/lastmile_qr_scan"}, "is_reserved": 0}, {"bike_id": "497f0f196873426954c6e4958b3bcf9c", "name": "497f0f196873426954c6e4958b3bcf9c", "lat": 38.898462333333335, "fusion_lat": 0.0, "type": "electric_scooter", "lon": -77.023668, "is_disabled": 0, "fusion_lon": 0.0, "rental_uris": {"android": "https://dc.lft.to/lastmile_qr_scan", "ios": "https://dc.lft.to/lastmile_qr_scan"}, "is_reserved": 0}, {"bike_id": "bd649c64c563724acdb872fc4c7c30a6", "name": "bd649c64c563724acdb872fc4c7c30a6", "lat": 38.93597616666667, "fusion_lat": 0.0, "type": "electric_scooter", "lon": -77.055975, "is_disabled": 0, "fusion_lon": 0.0, "rental_uris": {"android": "https://dc.lft.to/lastmile_qr_scan", "ios": "https://dc.lft.to/lastmile_qr_scan"}, "is_reserved": 0}, {"bike_id": "7910f25784c0c28c411cc512eac3b2cb", "name": "7910f25784c0c28c411cc512eac3b2cb", "lat": 38.9039595, "fusion_lat": 0.0, "type": "electric_scooter", "lon": -77.06297133333334, "is_disabled": 0, "fusion_lon": 0.0, "rental_uris": {"android": "https://dc.lft.to/lastmile_qr_scan", "ios": "https://dc.lft.to/lastmile_qr_scan"}, "is_reserved": 0}, {"bike_id": "052a74a777ce25b52232bee4327807cd", "name": "052a74a777ce25b52232bee4327807cd", "lat": 38.9240505, "fusion_lat": 0.0, "type": "electric_scooter", "lon": -77.02576783333333, "is_disabled": 0, "fusion_lon": 0.0, "rental_uris": {"android": "https://dc.lft.to/lastmile_qr_scan", "ios": "https://dc.lft.to/lastmile_qr_scan"}, "is_reserved": 0}, {"bike_id": "675d6c1d9cc928e4b0526de5071280c8", "name": "675d6c1d9cc928e4b0526de5071280c8", "lat": 38.922522, "fusion_lat": 0.0, "type": "electric_bike", "lon": -77.07030466666667, "is_disabled": 0, "fusion_lon": 0.0, "rental_uris": {"android": "https://dc.lft.to/lastmile_qr_scan", "ios": "https://dc.lft.to/lastmile_qr_scan"}, "is_reserved": 0}, {"bike_id": "0be14ed4a500081f64a83fb3bfe128b2", "name": "0be14ed4a500081f64a83fb3bfe128b2", "lat": 38.85430783333334, "fusion_lat": 0.0, "type": "electric_bike", "lon": -77.05340816666667, "is_disabled": 0, "fusion_lon": 0.0, "rental_uris": {"android": "https://dc.lft.to/lastmile_qr_scan", "ios": "https://dc.lft.to/lastmile_qr_scan"}, "is_reserved": 0}, {"bike_id": "29803190fd88876696dc72ac93701d88", "name": "29803190fd88876696dc72ac93701d88", "lat": 38.9276155, "fusion_lat": 0.0, "type": "electric_scooter", "lon": -77.05263183333334, "is_disabled": 0, "fusion_lon": 0.0, "rental_uris": {"android": "https://dc.lft.to/lastmile_qr_scan", "ios": "https://dc.lft.to/lastmile_qr_scan"}, "is_reserved": 0}, {"bike_id": "aa7b60acc47953a7329f76357ef99172", "name": "aa7b60acc47953a7329f76357ef99172", "lat": 38.89221233333333, "fusion_lat": 0.0, "type": "electric_scooter", "lon": -77.02627716666667, "is_disabled": 0, "fusion_lon": 0.0, "rental_uris": {"android": "https://dc.lft.to/lastmile_qr_scan", "ios": "https://dc.lft.to/lastmile_qr_scan"}, "is_reserved": 0}, {"bike_id": "f8b17b931eee29d7e860359b645acde6", "name": "f8b17b931eee29d7e860359b645acde6", "lat": 38.88671133333333, "fusion_lat": 0.0, "type": "electric_scooter", "lon": -77.0019745, "is_disabled": 0, "fusion_lon": 0.0, "rental_uris": {"android": "https://dc.lft.to/lastmile_qr_scan", "ios": "https://dc.lft.to/lastmile_qr_scan"}, "is_reserved": 0}, {"bike_id": "52d58411fd78b7431ebeca762b5db71f", "name": "52d58411fd78b7431ebeca762b5db71f", "lat": 38.919662333333335, "fusion_lat": 0.0, "type": "electric_scooter", "lon": -77.0435885, "is_disabled": 0, "fusion_lon": 0.0, "rental_uris": {"android": "https://dc.lft.to/lastmile_qr_scan", "ios": "https://dc.lft.to/lastmile_qr_scan"}, "is_reserved": 0}, {"bike_id": "5173bdb5a9c44e7823061ce292dbffae", "name": "5173bdb5a9c44e7823061ce292dbffae", "lat": 38.885315, "fusion_lat": 0.0, "type": "electric_scooter", "lon": -76.98050066666667, "is_disabled": 0, "fusion_lon": 0.0, "rental_uris": {"android": "https://dc.lft.to/lastmile_qr_scan", "ios": "https://dc.lft.to/lastmile_qr_scan"}, "is_reserved": 0}, {"bike_id": "b61162a0277506260c0bb0886cbea868", "name": "b61162a0277506260c0bb0886cbea868", "lat": 38.8671605, "fusion_lat": 0.0, "type": "electric_scooter", "lon": -76.9806805, "is_disabled": 0, "fusion_lon": 0.0, "rental_uris": {"android": "https://dc.lft.to/lastmile_qr_scan", "ios": "https://dc.lft.to/lastmile_qr_scan"}, "is_reserved": 0}, {"bike_id": "0fed6461243b481def80e6d202f44589", "name": "0fed6461243b481def80e6d202f44589", "lat": 38.918093, "fusion_lat": 0.0, "type": "electric_scooter", "lon": -77.03637383333333, "is_disabled": 0, "fusion_lon": 0.0, "rental_uris": {"android": "https://dc.lft.to/lastmile_qr_scan", "ios": "https://dc.lft.to/lastmile_qr_scan"}, "is_reserved": 0}, {"bike_id": "c40f5480da3a611cdcbbe3578edcdaf3", "name": "c40f5480da3a611cdcbbe3578edcdaf3", "lat": 38.93655433333333, "fusion_lat": 0.0, "type": "electric_scooter", "lon": -77.0213385, "is_disabled": 0, "fusion_lon": 0.0, "rental_uris": {"android": "https://dc.lft.to/lastmile_qr_scan", "ios": "https://dc.lft.to/lastmile_qr_scan"}, "is_reserved": 0}, {"bike_id": "5024959a1b076ed5f2bda7edc1842050", "name": "5024959a1b076ed5f2bda7edc1842050", "lat": 38.896328, "fusion_lat": 0.0, "type": "electric_scooter", "lon": -77.04010133333334, "is_disabled": 0, "fusion_lon": 0.0, "rental_uris": {"android": "https://dc.lft.to/lastmile_qr_scan", "ios": "https://dc.lft.to/lastmile_qr_scan"}, "is_reserved": 0}, {"bike_id": "1bd292c8d9165a69a6fd2f6508786a2b", "name": "1bd292c8d9165a69a6fd2f6508786a2b", "lat": 38.900986833333334, "fusion_lat": 0.0, "type": "electric_scooter", "lon": -77.034182, "is_disabled": 0, "fusion_lon": 0.0, "rental_uris": {"android": "https://dc.lft.to/lastmile_qr_scan", "ios": "https://dc.lft.to/lastmile_qr_scan"}, "is_reserved": 0}, {"bike_id": "14e1d8645c357695eba4e92442381796", "name": "14e1d8645c357695eba4e92442381796", "lat": 38.900434833333335, "fusion_lat": 0.0, "type": "electric_scooter", "lon": -76.98828916666666, "is_disabled": 0, "fusion_lon": 0.0, "rental_uris": {"android": "https://dc.lft.to/lastmile_qr_scan", "ios": "https://dc.lft.to/lastmile_qr_scan"}, "is_reserved": 0}, {"bike_id": "72e2e65cf1340f27f054df5a41998f64", "name": "72e2e65cf1340f27f054df5a41998f64", "lat": 38.90200683333333, "fusion_lat": 0.0, "type": "electric_scooter", "lon": -77.02088883333333, "is_disabled": 0, "fusion_lon": 0.0, "rental_uris": {"android": "https://dc.lft.to/lastmile_qr_scan", "ios": "https://dc.lft.to/lastmile_qr_scan"}, "is_reserved": 0}, {"bike_id": "215172274d523f8f05df425cf74545f2", "name": "215172274d523f8f05df425cf74545f2", "lat": 38.865678333333335, "fusion_lat": 0.0, "type": "electric_scooter", "lon": -76.99033433333334, "is_disabled": 0, "fusion_lon": 0.0, "rental_uris": {"android": "https://dc.lft.to/lastmile_qr_scan", "ios": "https://dc.lft.to/lastmile_qr_scan"}, "is_reserved": 0},