{"data": {"bikes": [{"lat": 38.9066715, "fusion_lat": 0.0, "type": "electric_scooter", "bike_id": "7efabf4416eee38edd048d8b10c2eada", "rental_uris": {"ios": "https://dc.lft.to/lastmile_qr_scan", "android": "https://dc.lft.to/lastmile_qr_scan"}, "fusion_lon": 0.0, "lon": -77.027091, "name": "7efabf4416eee38edd048d8b10c2eada", "is_reserved": 0, "is_disabled": 0}, {"lat": 38.923067833333334, "fusion_lat": 0.0, "type": "electric_scooter", "bike_id": "2bd89d912ef742d98475d292edf681a8", "rental_uris": {"ios": "https://dc.lft.to/lastmile_qr_scan", "android": "https://dc.lft.to/lastmile_qr_scan"}, "fusion_lon": 0.0, "lon": -77.04274366666667, "name": "2bd89d912ef742d98475d292edf681a8", "is_reserved": 0, "is_disabled": 0}, {"lat": 38.913478, "fusion_lat": 0.0, "type": "electric_scooter", "bike_id": "339665bfb99e9bb97d2688008d3eb87b", "rental_uris": {"ios": "https://dc.lft.to/lastmile_qr_scan", "android": "https://dc.lft.to/lastmile_qr_scan"}, "fusion_lon": 0.0, "lon": -77.0295195, "name": "339665bfb99e9bb97d2688008d3eb87b", "is_reserved": 0, "is_disabled": 0}, {"lat": 38.89346966666667, "fusion_lat": 0.0, "type": "electric_scooter", "bike_id": "9e2b849254a2d8adc7c5b7819146095e", "rental_uris": {"ios": "https://dc.lft.to/lastmile_qr_scan", "android": "https://dc.lft.to/lastmile_qr_scan"}, "fusion_lon": 0.0, "lon": -77.012236, "name": "9e2b849254a2d8adc7c5b7819146095e", "is_reserved": 0, "is_disabled": 0}, {"lat": 38.917707166666666, "fusion_lat": 0.0, "type": "electric_scooter", "bike_id": "fdabf172af521145880bc9d7a25ba24c", "rental_uris": {"ios": "https://dc.lft.to/lastmile_qr_scan", "android": "https://dc.lft.to/lastmile_qr_scan"}, "fusion_lon": 0.0, "lon": -77.02376233333334, "name": "fdabf172af521145880bc9d7a25ba24c", "is_reserved": 0, "is_disabled": 0}, {"lat": 38.891917, "fusion_lat": 0.0, "type": "electric_scooter", "bike_id": "e2e63daff361b19c3c792d86a3de5890", "rental_uris": {"ios": "https://dc.lft.to/lastmile_qr_scan", "android": "https://dc.lft.to/lastmile_qr_scan"}, "fusion_lon": 0.0, "lon": -77.03186783333334, "name": "e2e63daff361b19c3c792d86a3de5890", "is_reserved": 0, "is_disabled": 0}, {"lat": 38.8981985, "fusion_lat": 0.0, "type": "electric_bike", "bike_id": "6fb1686479f8909f6e652b4c8298185b", "rental_uris": {"ios": "https://dc.lft.to/lastmile_qr_scan", "android": "https://dc.lft.to/lastmile_qr_scan"}, "fusion_lon": 0.0, "lon": -77.00601416666667, "name": "6fb1686479f8909f6e652b4c8298185b", "is_reserved": 0, "is_disabled": 0}, {"lat": 38.903747, "fusion_lat": 0.0, "type": "electric_scooter", "bike_id": "1635d567a2de9938730e28cc0d566a6c", "rental_uris": {"ios": "https://dc.lft.to/lastmile_qr_scan", "android": "https://dc.lft.to/lastmile_qr_scan"}, "fusion_lon": 0.0, "lon": -77.044901, "name": "1635d567a2de9938730e28cc0d566a6c", "is_reserved": 0, "is_disabled": 0}, {"lat": 38.910736, "fusion_lat": 0.0, "type": "electric_scooter", "bike_id": "69ab81d095df671599dee60c63179aa0", "rental_uris": {"ios": "https://dc.lft.to/lastmile_qr_scan", "android": "https://dc.lft.to/lastmile_qr_scan"}, "fusion_lon": 0.0, "lon": -77.02723333333333, "name": "69ab81d095df671599dee60c63179aa0", "is_reserved": 0, "is_disabled": 0}, {"lat": 38.9289525, "fusion_lat": 0.0, "type": "electric_scooter", "bike_id": "034abb54bf86d262929c42733b9258a1", "rental_uris": {"ios": "https://dc.lft.to/lastmile_qr_scan", "android": "https://dc.lft.to/lastmile_qr_scan"}, "fusion_lon": 0.0, "lon": -77.058078, "name": "034abb54bf86d262929c42733b9258a1", "is_reserved": 0, "is_disabled": 0}, {"lat": 38.8982, "fusion_lat": 0.0, "type": "electric_bike", "bike_id": "06e2ae7117749c5631fddc488494d9c4", "rental_uris": {"ios": "https://dc.lft.to/lastmile_qr_scan", "android": "https://dc.lft.to/lastmile_qr_scan"}, "fusion_lon": 0.0, "lon": -77.0507685, "name": "06e2ae7117749c5631fddc488494d9c4", "is_reserved": 0, "is_disabled": 0}, {"lat": 38.91623833333333, "fusion_lat": 0.0, "type": "electric_scooter", "bike_id": "2d983503b6484d56b6852b7b4e4a6dab", "rental_uris": {"ios": "https://dc.lft.to/lastmile_qr_scan", "android": "https://dc.lft.to/lastmile_qr_scan"}, "fusion_lon": 0.0, "lon": -77.03858816666667, "name": "2d983503b6484d56b6852b7b4e4a6dab", "is_reserved": 0, "is_disabled": 0}, {"lat": 38.903931, "fusion_lat": 0.0, "type": "electric_scooter", "bike_id": "bf71239f5882f81ee9e3161e20f9740e", "rental_uris": {"ios": "https://dc.lft.to/lastmile_qr_scan", "android": "https://dc.lft.to/lastmile_qr_scan"}, "fusion_lon": 0.0, "lon": -77.02070133333334, "name": "bf71239f5882f81ee9e3161e20f9740e", "is_reserved": 0, "is_disabled": 0}, {"lat": 38.8743355, "fusion_lat": 0.0, "type": "electric_scooter", "bike_id": "588569287dfa1bf341b79ff6dd5bab7f", "rental_uris": {"ios": "https://dc.lft.to/lastmile_qr_scan", "android": "https://dc.lft.to/lastmile_qr_scan"}, "fusion_lon": 0.0, "lon": -77.00098683333333, "name": "588569287dfa1bf341b79ff6dd5bab7f", "is_reserved": 0, "is_disabled": 0}, {"lat": 38.92873983333333, "fusion_lat": 0.0, "type": "electric_scooter", "bike_id": "16be2ab190c72330c4c5d5b010c9d8af", "rental_uris": {"ios": "https://dc.lft.to/lastmile_qr_scan", "android": "https://dc.lft.to/lastmile_qr_scan"}, "fusion_lon": 0.0, "lon": -77.0322785, "name": "16be2ab190c72330c4c5d5b010c9d8af", "is_reserved": 0, "is_disabled": 0}, {"lat": 38.87543866666667, "fusion_lat": 0.0, "type": "electric_scooter", "bike_id": "7e23f702a841f9fd40c6ce49b026b4a1", "rental_uris": {"ios": "https://dc.lft.to/lastmile_qr_scan", "android": "https://dc.lft.to/lastmile_qr_scan"}, "fusion_lon": 0.0, "lon": -77.00536766666667, "name": "7e23f702a841f9fd40c6ce49b026b4a1", "is_reserved": 0, "is_disabled": 0}, {"lat": 38.903963, "fusion_lat": 0.0, "type": "electric_scooter", "bike_id": "eed7b3398ead99460e46cf16db39fd1f", "rental_uris": {"ios": "https://dc.lft.to/lastmile_qr_scan", "android": "https://dc.lft.to/lastmile_qr_scan"}, "fusion_lon": 0.0, "lon": -77.00776966666666, "name": "eed7b3398ead99460e46cf16db39fd1f", "is_reserved": 0, "is_disabled": 0}, {"lat": 38.90971183333333, "fusion_lat": 0.0, "type": "electric_scooter", "bike_id": "6ce3f9de579a07536b4ddde31a7c2889", "rental_uris": {"ios": "https://dc.lft.to/lastmile_qr_scan", "android": "https://dc.lft.to/lastmile_qr_scan"}, "fusion_lon": 0.0, "lon": -77.0387105, "name": "6ce3f9de579a07536b4ddde31a7c2889", "is_reserved": 0, "is_disabled": 0}, {"lat": 38.902021166666664, "fusion_lat": 0.0, "type": "electric_scooter", "bike_id": "eabfcc74d0ff6092b15e72b32861ded1", "rental_uris": {"ios": "https://dc.lft.to/lastmile_qr_scan", "android": "https://dc.lft.to/lastmile_qr_scan"}, "fusion_lon": 0.0, "lon": -77.023789, "name": "eabfcc74d0ff6092b15e72b32861ded1", "is_reserved": 0, "is_disabled": 0}, {"lat": 38.935618, "fusion_lat": 0.0, "type": "electric_scooter", "bike_id": "1e031801e7f79ded6ec0142d236b9d51", "rental_uris": {"ios": "https://dc.lft.to/lastmile_qr_scan", "android": "https://dc.lft.to/lastmile_qr_scan"}, "fusion_lon": 0.0, "lon": -77.05831516666667, "name": "1e031801e7f79ded6ec0142d236b9d51", "is_reserved": 0, "is_disabled": 0}, {"lat": 38.899762333333335, "fusion_lat": 0.0, "type": "electric_scooter", "bike_id": "b494a7a04e9a8f84548d38999c7332b5", "rental_uris": {"ios": "https://dc.lft.to/lastmile_qr_scan", "android": "https://dc.lft.to/lastmile_qr_scan"}, "fusion_lon": 0.0, "lon": -77.04723666666666, "name": "b494a7a04e9a8f84548d38999c7332b5", "is_reserved": 0, "is_disabled": 0}, {"lat": 38.9096625, "fusion_lat": 0.0, "type": "electric_scooter", "bike_id": "b661d6dd8eb4e87164dfb4e715beb8e8", "rental_uris": {"ios": "https://dc.lft.to/lastmile_qr_scan", "android": "https://dc.lft.to/lastmile_qr_scan"}, "fusion_lon": 0.0, "lon": -76.98468466666667, "name": "b661d6dd8eb4e87164dfb4e715beb8e8", "is_reserved": 0, "is_disabled": 0}, {"lat": 38.924621, "fusion_lat": 0.0, "type": "electric_scooter", "bike_id": "255c2ed82fcfa3fab9259b900f8969ba", "rental_uris": {"ios": "https://dc.lft.to/lastmile_qr_scan", "android": "https://dc.lft.to/lastmile_qr_scan"}, "fusion_lon": 0.0, "lon": -77.02156533333333, "name": "255c2ed82fcfa3fab9259b900f8969ba", "is_reserved": 0, "is_disabled": 0}, {"lat": 38.932055, "fusion_lat": 0.0, "type": "electric_scooter", "bike_id": "9cf8c4188a4c10fc403a037cc5951fa4", "rental_uris": {"ios": "https://dc.lft.to/lastmile_qr_scan", "android": "https://dc.lft.to/lastmile_qr_scan"}, "fusion_lon": 0.0, "lon": -77.03665416666666, "name": "9cf8c4188a4c10fc403a037cc5951fa4", "is_reserved": 0, "is_disabled": 0}, {"lat": 38.90578283333333, "fusion_lat": 0.0, "type": "electric_scooter", "bike_id": "ba8469748d6d547a001c0610dbe7ce5f", "rental_uris": {"ios": "https://dc.lft.to/lastmile_qr_scan", "android": "https://dc.lft.to/lastmile_qr_scan"}, "fusion_lon": 0.0, "lon": -77.0069255, "name": "ba8469748d6d547a001c0610dbe7ce5f", "is_reserved": 0, "is_disabled": 0}, {"lat": 38.90632516666667, "fusion_lat": 0.0, "type": "electric_scooter", "bike_id": "ab8887454f3bec112e0ba1f162be26ac", "rental_uris": {"ios": "https://dc.lft.to/lastmile_qr_scan", "android": "https://dc.lft.to/lastmile_qr_scan"}, "fusion_lon": 0.0, "lon": -77.05014966666667, "name": "ab8887454f3bec112e0ba1f162be26ac", "is_reserved": 0, "is_disabled": 0}, {"lat": 38.93253033333333, "fusion_lat": 0.0, "type": "electric_scooter", "bike_id": "2bb7daaf13946436107fcfe13ebc1d39", "rental_uris": {"ios": "https://dc.lft.to/lastmile_qr_scan", "android": "https://dc.lft.to/lastmile_qr_scan"}, "fusion_lon": 0.0, "lon": -77.03282083333333, "name": "2bb7daaf13946436107fcfe13ebc1d39", "is_reserved": 0, "is_disabled": 0}, {"lat": 38.945014666666665, "fusion_lat": 0.0, "type": "electric_scooter", "bike_id": "8203f037e1d41068213d9da6dd4d2ac4", "rental_uris": {"ios": "https://dc.lft.to/lastmile_qr_scan", "android": "https://dc.lft.to/lastmile_qr_scan"}, "fusion_lon": 0.0, "lon": -77.03835233333334, "name": "8203f037e1d41068213d9da6dd4d2ac4", "is_reserved": 0, "is_disabled": 0}, {"lat": 38.973519333333336, "fusion_lat": 0.0, "type": "electric_scooter", "bike_id": "da6acab127fe4cefa1ace6ceda8f6f23", "rental_uris": {"ios": "https://dc.lft.to/lastmile_qr_scan", "android": "https://dc.lft.to/lastmile_qr_scan"}, "fusion_lon": 0.0, "lon": -77.02790483333334, "name": "da6acab127fe4cefa1ace6ceda8f6f23", "is_reserved": 0, "is_disabled": 0}, {"lat": 38.92680033333333, "fusion_lat": 0.0, "type": "electric_scooter", "bike_id": "70a588142f45fb998be9832384fa21ff", "rental_uris": {"ios": "https://dc.lft.to/lastmile_qr_scan", "android": "https://dc.lft.to/lastmile_qr_scan"}, "fusion_lon": 0.0, "lon": -77.02579183333333, "name": "70a588142f45fb998be9832384fa21ff", "is_reserved": 0, "is_disabled": 0}, {"lat": 38.91798583333333, "fusion_lat": 0.0, "type": "electric_scooter", "bike_id": "90998f28140ec5b8e91bdf5692fbef98", "rental_uris": {"ios": "https://dc.lft.to/lastmile_qr_scan", "android": "https://dc.lft.to/lastmile_qr_scan"}, "fusion_lon": 0.0, "lon": -77.03214383333334, "name": "90998f28140ec5b8e91bdf5692fbef98", "is_reserved": 0, "is_disabled": 0}, {"lat": 38.90781616666666, "fusion_lat": 0.0, "type": "electric_scooter", "bike_id": "2860a46ddba75fa080c319282e122e70", "rental_uris": {"ios": "https://dc.lft.to/lastmile_qr_scan", "android": "https://dc.lft.to/lastmile_qr_scan"}, "fusion_lon": 0.0, "lon": -77.04319383333333, "name": "2860a46ddba75fa080c319282e122e70", "is_reserved": 0, "is_disabled": 0}, {"lat": 38.930018, "fusion_lat": 0.0, "type": "electric_bike", "bike_id": "a5b199fab1f8949cf89201e1a171921d", "rental_uris": {"ios": "https://dc.lft.to/lastmile_qr_scan", "android": "https://dc.lft.to/lastmile_qr_scan"}, "fusion_lon": 0.0, "lon": -77.0230875, "name": "a5b199fab1f8949cf89201e1a171921d", "is_reserved": 0, "is_disabled": 0}, {"lat": 38.89217816666667, "fusion_lat": 0.0, "type": "electric_scooter", "bike_id": "3f950daf7aa7aba76f9357849c6d18b2", "rental_uris": {"ios": "https://dc.lft.to/lastmile_qr_scan", "android": "https://dc.lft.to/lastmile_qr_scan"}, "fusion_lon": 0.0, "lon": -77.02373533333333, "name": "3f950daf7aa7aba76f9357849c6d18b2", "is_reserved": 0, "is_disabled": 0}, {"lat": 38.902275, "fusion_lat": 0.0, "type": "electric_scooter", "bike_id": "2c79bca099b956fc010ffdd931a3c42a", "rental_uris": {"ios": "https://dc.lft.to/lastmile_qr_scan", "android": "https://dc.lft.to/lastmile_qr_scan"}, "fusion_lon": 0.0, "lon": -77.00594083333333, "name": "2c79bca099b956fc010ffdd931a3c42a", "is_reserved": 0, "is_disabled": 0}, {"lat": 38.899585333333334, "fusion_lat": 0.0, "type": "electric_scooter", "bike_id": "108d9dd3d5a9e7cd37a5ca9f8d2aa770", "rental_uris": {"ios": "https://dc.lft.to/lastmile_qr_scan", "android": "https://dc.lft.to/lastmile_qr_scan"}, "fusion_lon": 0.0, "lon": -77.016145, "name": "108d9dd3d5a9e7cd37a5ca9f8d2aa770", "is_reserved": 0, "is_disabled": 0}, {"lat": 38.906204, "fusion_lat": 0.0, "type": "electric_scooter", "bike_id": "0ee106fd8198d843e33daa646d414d9a", "rental_uris": {"ios": "https://dc.lft.to/lastmile_qr_scan", "android": "https://dc.lft.to/lastmile_qr_scan"}, "fusion_lon": 0.0, "lon": -77.05136216666666, "name": "0ee106fd8198d843e33daa646d414d9a", "is_reserved": 0, "is_disabled": 0}, {"lat": 38.9057125, "fusion_lat": 0.0, "type": "electric_scooter", "bike_id": "d61ba814ebb17dcd7e426f74febaca81", "rental_uris": {"ios": "https://dc.lft.to/lastmile_qr_scan", "android": "https://dc.lft.to/lastmile_qr_scan"}, "fusion_lon": 0.0, "lon": -77.027544, "name": "d61ba814ebb17dcd7e426f74febaca81", "is_reserved": 0, "is_disabled": 0}, {"lat": 38.9643615, "fusion_lat": 0.0, "type": "electric_scooter", "bike_id": "bf49101a360f8b5030c3560cf4533992", "rental_uris": {"ios": "https://dc.lft.to/lastmile_qr_scan", "android": "https://dc.lft.to/lastmile_qr_scan"}, "fusion_lon": 0.0, "lon": -77.01999483333333, "name": "bf49101a360f8b5030c3560cf4533992", "is_reserved": 0, "is_disabled": 0}, {"lat": 38.92156766666667, "fusion_lat": 0.0, "type": "electric_scooter", "bike_id": "542032b8ef7cf0145e5665d6aec26f4b", "rental_uris": {"ios": "https://dc.lft.to/lastmile_qr_scan", "android": "https://dc.lft.to/lastmile_qr_scan"}, "fusion_lon": 0.0, "lon": -77.03465933333334, "name": "542032b8ef7cf0145e5665d6aec26f4b", "is_reserved": 0, "is_disabled": 0}, {"lat": 38.92318383333333, "fusion_lat": 0.0, "type": "electric_scooter", "bike_id": "666669ee16972656d76794ed9bdac22a", "rental_uris": {"ios": "https://dc.lft.to/lastmile_qr_scan", "android": "https://dc.lft.to/lastmile_qr_scan"}, "fusion_lon": 0.0, "lon": -77.02897183333333, "name": "666669ee16972656d76794ed9bdac22a", "is_reserved": 0, "is_disabled": 0}, {"lat": 38.842788, "fusion_lat": 0.0, "type": "electric_bike", "bike_id": "4330babd50bbaafe2ac579d5abf04487", "rental_uris": {"ios": "https://dc.lft.to/lastmile_qr_scan", "android": "https://dc.lft.to/lastmile_qr_scan"}, "fusion_lon": 0.0, "lon": -76.988461, "name": "4330babd50bbaafe2ac579d5abf04487", "is_reserved": 0, "is_disabled": 0}, {"lat": 38.914637666666664, "fusion_lat": 0.0, "type": "electric_scooter", "bike_id": "19b2706e37c8f0cb8c6ae5cd7ada9e31", "rental_uris": {"ios": "https://dc.lft.to/lastmile_qr_scan", "android": "https://dc.lft.to/lastmile_qr_scan"}, "fusion_lon": 0.0, "lon": -77.01556316666667, "name": "19b2706e37c8f0cb8c6ae5cd7ada9e31", "is_reserved": 0, "is_disabled": 0}, {"lat": 38.90851966666666, "fusion_lat": 0.0, "type": "electric_scooter", "bike_id": "ba5f44623a4fc446118f42cc3a690179", "rental_uris": {"ios": "https://dc.lft.to/lastmile_qr_scan", "android": "https://dc.lft.to/lastmile_qr_scan"}, "fusion_lon": 0.0, "lon": -77.02694033333333, "name": "ba5f44623a4fc446118f42cc3a690179", "is_reserved": 0, "is_disabled": 0}, {"lat": 38.9574755, "fusion_lat": 0.0, "type": "electric_scooter", "bike_id": "da49832c67fe22a131a5c14b24f87ee1", "rental_uris": {"ios": "https://dc.lft.to/lastmile_qr_scan", "android": "https://dc.lft.to/lastmile_qr_scan"}, "fusion_lon": 0.0, "lon": -77.00240033333333, "name": "da49832c67fe22a131a5c14b24f87ee1", "is_reserved": 0, "is_disabled": 0}, {"lat": 38.93523583333333, "fusion_lat": 0.0, "type": "electric_scooter", "bike_id": "74186d60be0ec3c108daa778844fa5b2", "rental_uris": {"ios": "https://dc.lft.to/lastmile_qr_scan", "android": "https://dc.lft.to/lastmile_qr_scan"}, "fusion_lon": 0.0, "lon": -77.03259066666666, "name": "74186d60be0ec3c108daa778844fa5b2", "is_reserved": 0, "is_disabled": 0}, {"lat": 38.850962, "fusion_lat": 0.0, "type": "electric_bike", "bike_id": "14e800562426d5284857ef97c14ebd99", "rental_uris": {"ios": "https://dc.lft.to/lastmile_qr_scan", "android": "https://dc.lft.to/lastmile_qr_scan"}, "fusion_lon": 0.0, "lon": -76.95692366666667, "name": "14e800562426d5284857ef97c14ebd99", "is_reserved": 0, "is_disabled": 0}, {"lat": 38.8739765, "fusion_lat": 0.0, "type": "electric_scooter", "bike_id": "7b00ec0e977d068eba439dd30219bcd5", "rental_uris": {"ios": "https://dc.lft.to/lastmile_qr_scan", "android": "https://dc.lft.to/lastmile_qr_scan"}, "fusion_lon": 0.0, "lon": -77.001947, "name": "7b00ec0e977d068eba439dd30219bcd5", "is_reserved": 0, "is_disabled": 0}, {"lat": 38.92360033333333, "fusion_lat": 0.0, "type": "electric_scooter", "bike_id": "e98de0300e00da03177081931e181480", "rental_uris": {"ios": "https://dc.lft.to/lastmile_qr_scan", "android": "https://dc.lft.to/lastmile_qr_scan"}, "fusion_lon": 0.0, "lon": -77.04386366666667, "name": "e98de0300e00da03177081931e181480", "is_reserved": 0, "is_disabled": 0}, {"lat": 38.94312883333333, "fusion_lat": 0.0, "type": "electric_scooter", "bike_id": "f3901fae58dbaa5e6961ff0e441575d9", "rental_uris": {"ios": "https://dc.lft.to/lastmile_qr_scan", "android": "https://dc.lft.to/lastmile_qr_scan"}, "fusion_lon": 0.0, "lon": -77.01728333333334, "name": "f3901fae58dbaa5e6961ff0e441575d9", "is_reserved": 0, "is_disabled": 0}, {"lat": 38.920814666666665, "fusion_lat": 0.0, "type": "electric_scooter", "bike_id": "9717ae6408c06867bcc6961e2f6fb8a8", "rental_uris": {"ios": "https://dc.lft.to/lastmile_qr_scan", "android": "https://dc.lft.to/lastmile_qr_scan"}, "fusion_lon": 0.0, "lon": -77.02400383333334, "name": "9717ae6408c06867bcc6961e2f6fb8a8", "is_reserved": 0, "is_disabled": 0}, {"lat": 38.924527, "fusion_lat": 0.0, "type": "electric_bike", "bike_id": "510fb9ad46234540bae6373a5a0202eb", "rental_uris": {"ios": "https://dc.lft.to/lastmile_qr_scan", "android": "https://dc.lft.to/lastmile_qr_scan"}, "fusion_lon": 0.0, "lon": -77.00215033333333, "name": "510fb9ad46234540bae6373a5a0202eb", "is_reserved": 0, "is_disabled": 0}, {"lat": 38.893454166666665, "fusion_lat": 0.0, "type": "electric_scooter", "bike_id": "cd2d4d21a2c445b0577e96b2d38bc3d7", "rental_uris": {"ios": "https://dc.lft.to/lastmile_qr_scan", "android": "https://dc.lft.to/lastmile_qr_scan"}, "fusion_lon": 0.0, "lon": -77.01228016666667, "name": "cd2d4d21a2c445b0577e96b2d38bc3d7", "is_reserved": 0, "is_disabled": 0}, {"lat": 38.8766295, "fusion_lat": 0.0, "type": "electric_scooter", "bike_id": "44ca6e9f5cced67a96803dfd60d16bf9", "rental_uris": {"ios": "https://dc.lft.to/lastmile_qr_scan", "android": "https://dc.lft.to/lastmile_qr_scan"}, "fusion_lon": 0.0, "lon": -77.0030015, "name": "44ca6e9f5cced67a96803dfd60d16bf9", "is_reserved": 0, "is_disabled": 0}, {"lat": 38.92466666666667, "fusion_lat": 0.0, "type": "electric_scooter", "bike_id": "2e2cb9305425c7e102daf1610d5ee682", "rental_uris": {"ios": "https://dc.lft.to/lastmile_qr_scan", "android": "https://dc.lft.to/lastmile_qr_scan"}, "fusion_lon": 0.0, "lon": -77.07906183333333, "name": "2e2cb9305425c7e102daf1610d5ee682", "is_reserved": 0, "is_disabled": 0}, {"lat": 38.91605333333333, "fusion_lat": 0.0, "type": "electric_scooter", "bike_id": "c97519d548a827a03483ebdca9cb9adb", "rental_uris": {"ios": "https://dc.lft.to/lastmile_qr_scan", "android": "https://dc.lft.to/lastmile_qr_scan"}, "fusion_lon": 0.0, "lon": -77.039533, "name": "c97519d548a827a03483ebdca9cb9adb", "is_reserved": 0, "is_disabled": 0}, {"lat": 38.9172035, "fusion_lat": 0.0, "type": "electric_scooter", "bike_id": "6d53237ca209b12073674bc12ab272d3", "rental_uris": {"ios": "https://dc.lft.to/lastmile_qr_scan", "android": "https://dc.lft.to/lastmile_qr_scan"}, "fusion_lon": 0.0, "lon": -77.03254683333333, "name": "6d53237ca209b12073674bc12ab272d3", "is_reserved": 0, "is_disabled": 0}, {"lat": 38.903297333333335, "fusion_lat": 0.0, "type": "electric_scooter", "bike_id": "573b25d61210ad8400679f4a275855fd", "rental_uris": {"ios": "https://dc.lft.to/lastmile_qr_scan", "android": "https://dc.lft.to/lastmile_qr_scan"}, "fusion_lon": 0.0, "lon": -77.01608083333333, "name": "573b25d61210ad8400679f4a275855fd", "is_reserved": 0, "is_disabled": 0}, {"lat": 38.92030583333333, "fusion_lat": 0.0, "type": "electric_scooter", "bike_id": "c08824409b5650fdb9da290d1367e246", "rental_uris": {"ios": "https://dc.lft.to/lastmile_qr_scan", "android": "https://dc.lft.to/lastmile_qr_scan"}, "fusion_lon": 0.0, "lon": -77.03675616666666, "name": "c08824409b5650fdb9da290d1367e246", "is_reserved": 0, "is_disabled": 0}, {"lat": 38.900329166666666, "fusion_lat": 0.0, "type": "electric_scooter", "bike_id": "7f2f3f4989d7b71caf47d7d529fb2cca", "rental_uris": {"ios": "https://dc.lft.to/lastmile_qr_scan", "android": "https://dc.lft.to/lastmile_qr_scan"}, "fusion_lon": 0.0, "lon": -77.02401133333333, "name": "7f2f3f4989d7b71caf47d7d529fb2cca", "is_reserved": 0, "is_disabled": 0}, {"lat": 38.920566, "fusion_lat": 0.0, "type": "electric_bike", "bike_id": "6085a293b53e66ffebec2eccd3b41992", "rental_uris": {"ios": "https://dc.lft.to/lastmile_qr_scan", "android": "https://dc.lft.to/lastmile_qr_scan"}, "fusion_lon": 0.0, "lon": -77.2413035, "name": "6085a293b53e66ffebec2eccd3b41992", "is_reserved": 0, "is_disabled": 0}, {"lat": 38.907759166666665, "fusion_lat": 0.0, "type": "electric_scooter", "bike_id": "d97e3132e905fbc824d8bd32c29a4bb3", "rental_uris": {"ios": "https://dc.lft.to/lastmile_qr_scan", "android": "https://dc.lft.to/lastmile_qr_scan"}, "fusion_lon": 0.0, "lon": -77.01108716666667, "name": "d97e3132e905fbc824d8bd32c29a4bb3", "is_reserved": 0, "is_disabled": 0}, {"lat": 38.941995666666664, "fusion_lat": 0.0, "type": "electric_scooter", "bike_id": "aa128b4e29d25777469e34ad0508cb11", "rental_uris": {"ios": "https://dc.lft.to/lastmile_qr_scan", "android": "https://dc.lft.to/lastmile_qr_scan"}, "fusion_lon": 0.0, "lon": -77.02585983333333, "name": "aa128b4e29d25777469e34ad0508cb11", "is_reserved": 0, "is_disabled": 0}, {"lat": 38.91742033333333, "fusion_lat": 0.0, "type": "electric_scooter", "bike_id": "2d87fec7744c30102f8c1aca5d434d13", "rental_uris": {"ios": "https://dc.lft.to/lastmile_qr_scan", "android": "https://dc.lft.to/lastmile_qr_scan"}, "fusion_lon": 0.0, "lon": -77.02117966666667, "name": "2d87fec7744c30102f8c1aca5d434d13", "is_reserved": 0, "is_disabled": 0}, {"lat": 38.9053065, "fusion_lat": 0.0, "type": "electric_bike", "bike_id": "45fc0a1d1d98e373063650d25197a98b", "rental_uris": {"ios": "https://dc.lft.to/lastmile_qr_scan", "android": "https://dc.lft.to/lastmile_qr_scan"}, "fusion_lon": 0.0, "lon": -77.062836, "name": "45fc0a1d1d98e373063650d25197a98b", "is_reserved": 0, "is_disabled": 0}, {"lat": 38.924256166666666, "fusion_lat": 0.0, "type": "electric_scooter", "bike_id": "c411333b69591c42a7f08b79b1b205ba", "rental_uris": {"ios": "https://dc.lft.to/lastmile_qr_scan", "android": "https://dc.lft.to/lastmile_qr_scan"}, "fusion_lon": 0.0, "lon": -77.051823, "name": "c411333b69591c42a7f08b79b1b205ba", "is_reserved": 0, "is_disabled": 0}, {"lat": 38.9212865, "fusion_lat": 0.0, "type": "electric_scooter", "bike_id": "a146bcb11d805a2073be106bfa55bec9", "rental_uris": {"ios": "https://dc.lft.to/lastmile_qr_scan", "android": "https://dc.lft.to/lastmile_qr_scan"}, "fusion_lon": 0.0, "lon": -77.017969, "name": "a146bcb11d805a2073be106bfa55bec9", "is_reserved": 0, "is_disabled": 0}, {"lat": 38.9206995, "fusion_lat": 0.0, "type": "electric_bike", "bike_id": "f10b09cb33943162ef4a738e8df23823", "rental_uris": {"ios": "https://dc.lft.to/lastmile_qr_scan", "android": "https://dc.lft.to/lastmile_qr_scan"}, "fusion_lon": 0.0, "lon": -77.02423483333334, "name": "f10b09cb33943162ef4a738e8df23823", "is_reserved": 0, "is_disabled": 0}, {"lat": 38.95649783333333, "fusion_lat": 0.0, "type": "electric_bike", "bike_id": "d0f1f3c37e115ea670f95f1e35cb5843", "rental_uris": {"ios": "https://dc.lft.to/lastmile_qr_scan", "android": "https://dc.lft.to/lastmile_qr_scan"}, "fusion_lon": 0.0, "lon": -77.03293316666667, "name": "d0f1f3c37e115ea670f95f1e35cb5843", "is_reserved": 0, "is_disabled": 0}, {"lat": 38.9186585, "fusion_lat": 0.0, "type": "electric_scooter", "bike_id": "37bb173e0bb20f796af237227a9bf7e8", "rental_uris": {"ios": "https://dc.lft.to/lastmile_qr_scan", "android": "https://dc.lft.to/lastmile_qr_scan"}, "fusion_lon": 0.0, "lon": -77.03499716666667, "name": "37bb173e0bb20f796af237227a9bf7e8", "is_reserved": 0, "is_disabled": 0}, {"lat": 38.8790605, "fusion_lat": 0.0, "type": "electric_scooter", "bike_id": "7747335038480bae3e05d795d4a4a6af", "rental_uris": {"ios": "https://dc.lft.to/lastmile_qr_scan", "android": "https://dc.lft.to/lastmile_qr_scan"}, "fusion_lon": 0.0, "lon": -77.00770516666667, "name": "7747335038480bae3e05d795d4a4a6af", "is_reserved": 0, "is_disabled": 0}, {"lat": 38.944487333333335, "fusion_lat": 0.0, "type": "electric_scooter", "bike_id": "66b7c032a32d02cd79cf3985e426a09f", "rental_uris": {"ios": "https://dc.lft.to/lastmile_qr_scan", "android": "https://dc.lft.to/lastmile_qr_scan"}, "fusion_lon": 0.0, "lon": -77.06358933333334, "name": "66b7c032a32d02cd79cf3985e426a09f", "is_reserved": 0, "is_disabled": 0}, {"lat": 38.903082166666664, "fusion_lat": 0.0, "type": "electric_scooter", "bike_id": "de704528c5c112907783063acade9699", "rental_uris": {"ios": "https://dc.lft.to/lastmile_qr_scan", "android": "https://dc.lft.to/lastmile_qr_scan"}, "fusion_lon": 0.0, "lon": -76.978019, "name": "de704528c5c112907783063acade9699", "is_reserved": 0, "is_disabled": 0}, {"lat": 38.91672616666666, "fusion_lat": 0.0, "type": "electric_scooter", "bike_id": "b71b41a22766a46c2fca5a53965ce037", "rental_uris": {"ios": "https://dc.lft.to/lastmile_qr_scan", "android": "https://dc.lft.to/lastmile_qr_scan"}, "fusion_lon": 0.0, "lon": -77.022319, "name": "b71b41a22766a46c2fca5a53965ce037", "is_reserved": 0, "is_disabled": 0}, {"lat": 38.904333333333334, "fusion_lat": 0.0, "type": "electric_scooter", "bike_id": "a73f131888eed7394c160d7e842d3ed7", "rental_uris": {"ios": "https://dc.lft.to/lastmile_qr_scan", "android": "https://dc.lft.to/lastmile_qr_scan"}, "fusion_lon": 0.0, "lon": -77.02516533333333, "name": "a73f131888eed7394c160d7e842d3ed7", "is_reserved": 0, "is_disabled": 0}, {"lat": 38.914154333333336, "fusion_lat": 0.0, "type": "electric_scooter", "bike_id": "d79f7c5ebf1b53465c07f1b7eacf0b4a", "rental_uris": {"ios": "https://dc.lft.to/lastmile_qr_scan", "android": "https://dc.lft.to/lastmile_qr_scan"}, "fusion_lon": 0.0, "lon": -77.02242683333333, "name": "d79f7c5ebf1b53465c07f1b7eacf0b4a", "is_reserved": 0, "is_disabled": 0}, {"lat": 38.895243, "fusion_lat": 0.0, "type": "electric_scooter", "bike_id": "19737bfdb3953a3c33fe29310bc23119", "rental_uris": {"ios": "https://dc.lft.to/lastmile_qr_scan", "android": "https://dc.lft.to/lastmile_qr_scan"}, "fusion_lon": 0.0, "lon": -77.0111235, "name": "19737bfdb3953a3c33fe29310bc23119", "is_reserved": 0, "is_disabled": 0}, {"lat": 38.91657983333333, "fusion_lat": 0.0, "type": "electric_scooter", "bike_id": "29c3cfe4211907817a89b3e0cfc370cb", "rental_uris": {"ios": "https://dc.lft.to/lastmile_qr_scan", "android": "https://dc.lft.to/lastmile_qr_scan"}, "fusion_lon": 0.0, "lon": -77.03859566666667, "name": "29c3cfe4211907817a89b3e0cfc370cb", "is_reserved": 0, "is_disabled": 0}, {"lat": 38.906084, "fusion_lat": 0.0, "type": "electric_scooter", "bike_id": "abaf33981680b8b564bbed57ab313ec1", "rental_uris": {"ios": "https://dc.lft.to/lastmile_qr_scan", "android": "https://dc.lft.to/lastmile_qr_scan"}, "fusion_lon": 0.0, "lon": -77.0396205, "name": "abaf33981680b8b564bbed57ab313ec1", "is_reserved": 0, "is_disabled": 0}, {"lat": 38.897246333333335, "fusion_lat": 0.0, "type": "electric_bike", "bike_id": "24dba712245a841f5e47abf181254500", "rental_uris": {"ios": "https://dc.lft.to/lastmile_qr_scan", "android": "https://dc.lft.to/lastmile_qr_scan"}, "fusion_lon": 0.0, "lon": -76.97341883333333, "name": "24dba712245a841f5e47abf181254500", "is_reserved": 0, "is_disabled": 0}, {"lat": 38.909617833333336, "fusion_lat": 0.0, "type": "electric_scooter", "bike_id": "25af853626b284d5a48e42fb8fc96fb8", "rental_uris": {"ios": "https://dc.lft.to/lastmile_qr_scan", "android": "https://dc.lft.to/lastmile_qr_scan"}, "fusion_lon": 0.0, "lon": -77.03435116666667, "name": "25af853626b284d5a48e42fb8fc96fb8", "is_reserved": 0, "is_disabled": 0}, {"lat": 38.920593, "fusion_lat": 0.0, "type": "electric_scooter", "bike_id": "fea52d71a7eb12099769b63dbf233c82", "rental_uris": {"ios": "https://dc.lft.to/lastmile_qr_scan", "android": "https://dc.lft.to/lastmile_qr_scan"}, "fusion_lon": 0.0, "lon": -77.024337, "name": "fea52d71a7eb12099769b63dbf233c82", "is_reserved": 0, "is_disabled": 0}, {"lat": 38.8982395, "fusion_lat": 0.0, "type": "electric_scooter", "bike_id": "443f8d41b43133aff0312bc42644bba8", "rental_uris": {"ios": "https://dc.lft.to/lastmile_qr_scan", "android": "https://dc.lft.to/lastmile_qr_scan"}, "fusion_lon": 0.0, "lon": -77.04913233333333, "name": "443f8d41b43133aff0312bc42644bba8", "is_reserved": 0, "is_disabled": 0}, {"lat": 38.92048716666667, "fusion_lat": 0.0, "type": "electric_scooter", "bike_id": "46423d74c70a48ba5baaf711f56a0c7e", "rental_uris": {"ios": "https://dc.lft.to/lastmile_qr_scan", "android": "https://dc.lft.to/lastmile_qr_scan"}, "fusion_lon": 0.0, "lon": -77.01605616666667, "name": "46423d74c70a48ba5baaf711f56a0c7e", "is_reserved": 0, "is_disabled": 0}, {"lat": 38.887592, "fusion_lat": 0.0, "type": "electric_scooter", "bike_id": "d0097d47795345283b0805fc0ac7aadf", "rental_uris": {"ios": "https://dc.lft.to/lastmile_qr_scan", "android": "https://dc.lft.to/lastmile_qr_scan"}, "fusion_lon": 0.0, "lon": -77.0003785, "name": "d0097d47795345283b0805fc0ac7aadf", "is_reserved": 0, "is_disabled": 0}, {"lat": 38.924367333333336, "fusion_lat": 0.0, "type": "electric_scooter", "bike_id": "08e98efa1ba5a5c45805d93113d2db20", "rental_uris": {"ios": "https://dc.lft.to/lastmile_qr_scan", "android": "https://dc.lft.to/lastmile_qr_scan"}, "fusion_lon": 0.0, "lon": -77.02027116666666, "name": "08e98efa1ba5a5c45805d93113d2db20", "is_reserved": 0, "is_disabled": 0}, {"lat": 38.897143666666665, "fusion_lat": 0.0, "type": "electric_scooter", "bike_id": "72b45f889abb495c1f951574bb26655e", "rental_uris": {"ios": "https://dc.lft.to/lastmile_qr_scan", "android": "https://dc.lft.to/lastmile_qr_scan"}, "fusion_lon": 0.0, "lon": -77.00798666666667, "name": "72b45f889abb495c1f951574bb26655e", "is_reserved": 0, "is_disabled": 0}, {"lat": 38.904349, "fusion_lat": 0.0, "type": "electric_scooter", "bike_id": "fd0ebb98e9af5924bf8db465881acb49", "rental_uris": {"ios": "https://dc.lft.to/lastmile_qr_scan", "android": "https://dc.lft.to/lastmile_qr_scan"}, "fusion_lon": 0.0, "lon": -77.02596816666667, "name": "fd0ebb98e9af5924bf8db465881acb49", "is_reserved": 0, "is_disabled": 0}, {"lat": 38.920022833333334, "fusion_lat": 0.0, "type": "electric_scooter", "bike_id": "bb4f0d6f28d54a656869855fa6247128", "rental_uris": {"ios": "https://dc.lft.to/lastmile_qr_scan", "android": "https://dc.lft.to/lastmile_qr_scan"}, "fusion_lon": 0.0, "lon": -77.03223066666666, "name": "bb4f0d6f28d54a656869855fa6247128", "is_reserved": 0, "is_disabled": 0}, {"lat": 38.89217933333333, "fusion_lat": 0.0, "type": "electric_scooter", "bike_id": "4f548b43c700755f5385dea803862d2d", "rental_uris": {"ios": "https://dc.lft.to/lastmile_qr_scan", "android": "https://dc.lft.to/lastmile_qr_scan"}, "fusion_lon": 0.0, "lon": -77.02659583333333, "name": "4f548b43c700755f5385dea803862d2d", "is_reserved": 0, "is_disabled": 0}, {"lat": 38.884916833333335, "fusion_lat": 0.0, "type": "electric_scooter", "bike_id": "d1e009e05b5cc92203fe229940a08f22", "rental_uris": {"ios": "https://dc.lft.to/lastmile_qr_scan", "android": "https://dc.lft.to/lastmile_qr_scan"}, "fusion_lon": 0.0, "lon": -76.98060966666667, "name": "d1e009e05b5cc92203fe229940a08f22", "is_reserved": 0, "is_disabled": 0}, {"lat": 38.91472783333333, "fusion_lat": 0.0, "type": "electric_scooter", "bike_id": "344a7767596d18d490689a98a15299d0", "rental_uris": {"ios": "https://dc.lft.to/lastmile_qr_scan", "android": "https://dc.lft.to/lastmile_qr_scan"}, "fusion_lon": 0.0, "lon": -77.0246025, "name": "344a7767596d18d490689a98a15299d0", "is_reserved": 0, "is_disabled": 0}, {"lat": 38.92090533333333, "fusion_lat": 0.0, "type": "electric_scooter", "bike_id": "0b6a4b415fdf4c30fcac8c31f7ba805a", "rental_uris": {"ios": "https://dc.lft.to/lastmile_qr_scan", "android": "https://dc.lft.to/lastmile_qr_scan"}, "fusion_lon": 0.0, "lon": -77.07556833333334, "name": "0b6a4b415fdf4c30fcac8c31f7ba805a", "is_reserved": 0, "is_disabled": 0}, {"lat": 38.905511833333335, "fusion_lat": 0.0, "type": "electric_scooter", "bike_id": "6bb098d6fe49c28c455042d6ee734cc5", "rental_uris": {"ios": "https://dc.lft.to/lastmile_qr_scan", "android": "https://dc.lft.to/lastmile_qr_scan"}, "fusion_lon": 0.0, "lon": -76.9947395, "name": "6bb098d6fe49c28c455042d6ee734cc5", "is_reserved": 0, "is_disabled": 0}, {"lat": 38.886137166666664, "fusion_lat": 0.0, "type": "electric_scooter", "bike_id": "30127cfbfa0075c71db61328cd39c924", "rental_uris": {"ios": "https://dc.lft.to/lastmile_qr_scan", "android": "https://dc.lft.to/lastmile_qr_scan"}, "fusion_lon": 0.0, "lon": -77.021946, "name": "30127cfbfa0075c71db61328cd39c924", "is_reserved": 0, "is_disabled": 0}, {"lat": 38.9022315, "fusion_lat": 0.0, "type": "electric_scooter", "bike_id": "08ca80abf763440902ec21d8f37819a3", "rental_uris": {"ios": "https://dc.lft.to/lastmile_qr_scan", "android": "https://dc.lft.to/lastmile_qr_scan"}, "fusion_lon": 0.0, "lon": -76.9419945, "name": "08ca80abf763440902ec21d8f37819a3", "is_reserved": 0, "is_disabled": 0}, {"lat": 38.907039833333336, "fusion_lat": 0.0, "type": "electric_scooter", "bike_id": "77225f9ce9046bce6cd922c1f0974965", "rental_uris": {"ios": "https://dc.lft.to/lastmile_qr_scan", "android": "https://dc.lft.to/lastmile_qr_scan"}, "fusion_lon": 0.0, "lon": -76.98706033333333, "name": "77225f9ce9046bce6cd922c1f0974965", "is_reserved": 0, "is_disabled": 0}, {"lat": 38.92003183333333, "fusion_lat": 0.0, "type": "electric_scooter", "bike_id": "562509a1cf50e66eb7977039e2e4c2d1", "rental_uris": {"ios": "https://dc.lft.to/lastmile_qr_scan", "android": "https://dc.lft.to/lastmile_qr_scan"}, "fusion_lon": 0.0, "lon": -77.0241295, "name": "562509a1cf50e66eb7977039e2e4c2d1", "is_reserved": 0, "is_disabled": 0}, {"lat": 38.90195333333333, "fusion_lat": 0.0, "type": "electric_scooter", "bike_id": "15f3eb7b267e7af6ff6c186e95ebde57", "rental_uris": {"ios": "https://dc.lft.to/lastmile_qr_scan", "android": "https://dc.lft.to/lastmile_qr_scan"}, "fusion_lon": 0.0, "lon": -77.02204083333334, "name": "15f3eb7b267e7af6ff6c186e95ebde57", "is_reserved": 0, "is_disabled": 0}, {"lat": 38.92519466666667, "fusion_lat": 0.0, "type": "electric_scooter", "bike_id": "5bde88c2d354310973626b39ec90dfdf", "rental_uris": {"ios": "https://dc.lft.to/lastmile_qr_scan", "android": "https://dc.lft.to/lastmile_qr_scan"}, "fusion_lon": 0.0, "lon": -76.99639116666667, "name": "5bde88c2d354310973626b39ec90dfdf", "is_reserved": 0, "is_disabled": 0}, {"lat": 38.87886733333333, "fusion_lat": 0.0, "type": "electric_scooter", "bike_id": "46c8581d3459d1289dcb0426ad9a0483", "rental_uris": {"ios": "https://dc.lft.to/lastmile_qr_scan", "android": "https://dc.lft.to/lastmile_qr_scan"}, "fusion_lon": 0.0, "lon": -76.99506816666667, "name": "46c8581d3459d1289dcb0426ad9a0483", "is_reserved": 0, "is_disabled": 0}, {"lat": 38.8850355, "fusion_lat": 0.0, "type": "electric_scooter", "bike_id": "574cb7c8357bc6883c93e47d35a94955", "rental_uris": {"ios": "https://dc.lft.to/lastmile_qr_scan", "android": "https://dc.lft.to/lastmile_qr_scan"}, "fusion_lon": 0.0, "lon": -76.952696, "name": "574cb7c8357bc6883c93e47d35a94955", "is_reserved": 0, "is_disabled": 0}, {"lat": 38.917678333333335, "fusion_lat": 0.0, "type": "electric_scooter", "bike_id": "63acee5099dd5a54c72330b09aefd88c", "rental_uris": {"ios": "https://dc.lft.to/lastmile_qr_scan", "android": "https://dc.lft.to/lastmile_qr_scan"}, "fusion_lon": 0.0, "lon": -77.0406135, "name": "63acee5099dd5a54c72330b09aefd88c", "is_reserved": 0, "is_disabled": 0}, {"lat": 38.933016333333335, "fusion_lat": 0.0, "type": "electric_scooter", "bike_id": "99c9eadac7eb97c6491d6da8db6a103e", "rental_uris": {"ios": "https://dc.lft.to/lastmile_qr_scan", "android": "https://dc.lft.to/lastmile_qr_scan"}, "fusion_lon": 0.0, "lon": -77.03263216666667, "name": "99c9eadac7eb97c6491d6da8db6a103e", "is_reserved": 0, "is_disabled": 0}, {"lat": 38.93466016666667, "fusion_lat": 0.0, "type": "electric_scooter", "bike_id": "92c681373bfb13b40c0ac1f6d5be2161", "rental_uris": {"ios": "https://dc.lft.to/lastmile_qr_scan", "android": "https://dc.lft.to/lastmile_qr_scan"}, "fusion_lon": 0.0, "lon": -77.04141166666666, "name": "92c681373bfb13b40c0ac1f6d5be2161", "is_reserved": 0, "is_disabled": 0}, {"lat": 38.899346666666666, "fusion_lat": 0.0, "type": "electric_scooter", "bike_id": "4926e45197dee9a25e3890229f8886b1", "rental_uris": {"ios": "https://dc.lft.to/lastmile_qr_scan", "android": "https://dc.lft.to/lastmile_qr_scan"}, "fusion_lon": 0.0, "lon": -77.04022283333333, "name": "4926e45197dee9a25e3890229f8886b1", "is_reserved": 0, "is_disabled": 0}, {"lat": 38.920819, "fusion_lat": 0.0, "type": "electric_scooter", "bike_id": "1fb6180d543bb2a01a9587bbb7ac76ed", "rental_uris": {"ios": "https://dc.lft.to/lastmile_qr_scan", "android": "https://dc.lft.to/lastmile_qr_scan"}, "fusion_lon": 0.0, "lon": -77.025059, "name": "1fb6180d543bb2a01a9587bbb7ac76ed", "is_reserved": 0, "is_disabled": 0}, {"lat": 38.9294315, "fusion_lat": 0.0, "type": "electric_scooter", "bike_id": "8706e71e620a850826c4ac70ad324312", "rental_uris": {"ios": "https://dc.lft.to/lastmile_qr_scan", "android": "https://dc.lft.to/lastmile_qr_scan"}, "fusion_lon": 0.0, "lon": -77.03266066666667, "name": "8706e71e620a850826c4ac70ad324312", "is_reserved": 0, "is_disabled": 0}, {"lat": 38.924577, "fusion_lat": 0.0, "type": "electric_scooter", "bike_id": "c70b9564dc9ebffc1af5be8a1b2faed6", "rental_uris": {"ios": "https://dc.lft.to/lastmile_qr_scan", "android": "https://dc.lft.to/lastmile_qr_scan"}, "fusion_lon": 0.0, "lon": -77.04032583333333, "name": "c70b9564dc9ebffc1af5be8a1b2faed6", "is_reserved": 0, "is_disabled": 0}, {"lat": 38.881187833333335, "fusion_lat": 0.0, "type": "electric_scooter", "bike_id": "a7179901f5b91778cd3464d57cb6acf8", "rental_uris": {"ios": "https://dc.lft.to/lastmile_qr_scan", "android": "https://dc.lft.to/lastmile_qr_scan"}, "fusion_lon": 0.0, "lon": -77.00131883333333, "name": "a7179901f5b91778cd3464d57cb6acf8", "is_reserved": 0, "is_disabled": 0}, {"lat": 38.8961085, "fusion_lat": 0.0, "type": "electric_scooter", "bike_id": "916157b81d33eeb97883400178697799", "rental_uris": {"ios": "https://dc.lft.to/lastmile_qr_scan", "android": "https://dc.lft.to/lastmile_qr_scan"}, "fusion_lon": 0.0, "lon": -77.04467016666666, "name": "916157b81d33eeb97883400178697799", "is_reserved": 0, "is_disabled": 0}, {"lat": 38.91696566666667, "fusion_lat": 0.0, "type": "electric_scooter", "bike_id": "a708480d309ab0326199c546c5a25c1b", "rental_uris": {"ios": "https://dc.lft.to/lastmile_qr_scan", "android": "https://dc.lft.to/lastmile_qr_scan"}, "fusion_lon": 0.0, "lon": -77.0316245, "name": "a708480d309ab0326199c546c5a25c1b", "is_reserved": 0, "is_disabled": 0}, {"lat": 38.9177425, "fusion_lat": 0.0, "type": "electric_scooter", "bike_id": "b6e60c900e6c991230ca40c4d9e8be3b", "rental_uris": {"ios": "https://dc.lft.to/lastmile_qr_scan", "android": "https://dc.lft.to/lastmile_qr_scan"}, "fusion_lon": 0.0, "lon": -77.04776266666667, "name": "b6e60c900e6c991230ca40c4d9e8be3b", "is_reserved": 0, "is_disabled": 0}, {"lat": 38.847555666666665, "fusion_lat": 0.0, "type": "electric_scooter", "bike_id": "d1a7e41c9670a032105a0bcfa30b52fd", "rental_uris": {"ios": "https://dc.lft.to/lastmile_qr_scan", "android": "https://dc.lft.to/lastmile_qr_scan"}, "fusion_lon": 0.0, "lon": -76.99502833333334, "name": "d1a7e41c9670a032105a0bcfa30b52fd", "is_reserved": 0, "is_disabled": 0}, {"lat": 38.897248166666664, "fusion_lat": 0.0, "type": "electric_scooter", "bike_id": "3d3c602c41064fa642f8eef7500a91e1", "rental_uris": {"ios": "https://dc.lft.to/lastmile_qr_scan", "android": "https://dc.lft.to/lastmile_qr_scan"}, "fusion_lon": 0.0, "lon": -77.055256, "name": "3d3c602c41064fa642f8eef7500a91e1", "is_reserved": 0, "is_disabled": 0}, {"lat": 38.87662616666667, "fusion_lat": 0.0, "type": "electric_scooter", "bike_id": "5353181f4c93ea68bf33bb5390d382db", "rental_uris": {"ios": "https://dc.lft.to/lastmile_qr_scan", "android": "https://dc.lft.to/lastmile_qr_scan"}, "fusion_lon": 0.0, "lon": -77.0033755, "name": "5353181f4c93ea68bf33bb5390d382db", "is_reserved": 0, "is_disabled": 0}, {"lat": 38.92316266666667, "fusion_lat": 0.0, "type": "electric_scooter", "bike_id": "c45c5cc4162214f23c76cd010d6326f1", "rental_uris": {"ios": "https://dc.lft.to/lastmile_qr_scan", "android": "https://dc.lft.to/lastmile_qr_scan"}, "fusion_lon": 0.0, "lon": -77.03807533333334, "name": "c45c5cc4162214f23c76cd010d6326f1", "is_reserved": 0, "is_disabled": 0}, {"lat": 38.958375333333336, "fusion_lat": 0.0, "type": "electric_scooter", "bike_id": "fd065c2e92af99b8b1acd24c945d252d", "rental_uris": {"ios": "https://dc.lft.to/lastmile_qr_scan", "android": "https://dc.lft.to/lastmile_qr_scan"}, "fusion_lon": 0.0, "lon": -77.0017535, "name": "fd065c2e92af99b8b1acd24c945d252d", "is_reserved": 0, "is_disabled": 0}, {"lat": 38.918811166666664, "fusion_lat": 0.0, "type": "electric_scooter", "bike_id": "54acb6c9deb21b00330976edd70718b3", "rental_uris": {"ios": "https://dc.lft.to/lastmile_qr_scan", "android": "https://dc.lft.to/lastmile_qr_scan"}, "fusion_lon": 0.0, "lon": -77.021836, "name": "54acb6c9deb21b00330976edd70718b3", "is_reserved": 0, "is_disabled": 0}, {"lat": 38.879229333333335, "fusion_lat": 0.0, "type": "electric_scooter", "bike_id": "f5c3b1dc82eab58e6e195ace394f4a62", "rental_uris": {"ios": "https://dc.lft.to/lastmile_qr_scan", "android": "https://dc.lft.to/lastmile_qr_scan"}, "fusion_lon": 0.0, "lon": -77.00543133333333, "name": "f5c3b1dc82eab58e6e195ace394f4a62", "is_reserved": 0, "is_disabled": 0}, {"lat": 38.916668, "fusion_lat": 0.0, "type": "electric_scooter", "bike_id": "bda41deb82ac896a51b2c3109591c312", "rental_uris": {"ios": "https://dc.lft.to/lastmile_qr_scan", "android": "https://dc.lft.to/lastmile_qr_scan"}, "fusion_lon": 0.0, "lon": -77.03002933333333, "name": "bda41deb82ac896a51b2c3109591c312", "is_reserved": 0, "is_disabled": 0}, {"lat": 38.9165725, "fusion_lat": 0.0, "type": "electric_scooter", "bike_id": "7ec0c760c68015fc41066e9083536e73", "rental_uris": {"ios": "https://dc.lft.to/lastmile_qr_scan", "android": "https://dc.lft.to/lastmile_qr_scan"}, "fusion_lon": 0.0, "lon": -77.03855616666667, "name": "7ec0c760c68015fc41066e9083536e73", "is_reserved": 0, "is_disabled": 0}, {"lat": 38.91935483333334, "fusion_lat": 0.0, "type": "electric_scooter", "bike_id": "4e06656e6715cc3b3cdcfb2754ac063f", "rental_uris": {"ios": "https://dc.lft.to/lastmile_qr_scan", "android": "https://dc.lft.to/lastmile_qr_scan"}, "fusion_lon": 0.0, "lon": -77.0321035, "name": "4e06656e6715cc3b3cdcfb2754ac063f", "is_reserved": 0, "is_disabled": 0}, {"lat": 38.85982966666667, "fusion_lat": 0.0, "type": "electric_scooter", "bike_id": "7763e007919584b87b5cfb818cf6de08", "rental_uris": {"ios": "https://dc.lft.to/lastmile_qr_scan", "android": "https://dc.lft.to/lastmile_qr_scan"}, "fusion_lon": 0.0, "lon": -76.9965185, "name": "7763e007919584b87b5cfb818cf6de08", "is_reserved": 0, "is_disabled": 0}, {"lat": 38.93377433333333, "fusion_lat": 0.0, "type": "electric_scooter", "bike_id": "5bbb733fc70a8bfeae5b87a4e4c4c593", "rental_uris": {"ios": "https://dc.lft.to/lastmile_qr_scan", "android": "https://dc.lft.to/lastmile_qr_scan"}, "fusion_lon": 0.0, "lon": -77.05760066666667, "name": "5bbb733fc70a8bfeae5b87a4e4c4c593", "is_reserved": 0, "is_disabled": 0}, {"lat": 38.89801533333333, "fusion_lat": 0.0, "type": "electric_scooter", "bike_id": "d4315d63ef4e9259e74b8c8553e78459", "rental_uris": {"ios": "https://dc.lft.to/lastmile_qr_scan", "android": "https://dc.lft.to/lastmile_qr_scan"}, "fusion_lon": 0.0, "lon": -77.0335575, "name": "d4315d63ef4e9259e74b8c8553e78459", "is_reserved": 0, "is_disabled": 0}, {"lat": 38.88733, "fusion_lat": 0.0, "type": "electric_scooter", "bike_id": "0c9ac773cf114a64d9e9d21e299b0788", "rental_uris": {"ios": "https://dc.lft.to/lastmile_qr_scan", "android": "https://dc.lft.to/lastmile_qr_scan"}, "fusion_lon": 0.0, "lon": -77.02827983333333, "name": "0c9ac773cf114a64d9e9d21e299b0788", "is_reserved": 0, "is_disabled": 0}, {"lat": 38.89900183333334, "fusion_lat": 0.0, "type": "electric_scooter", "bike_id": "a9d29fbf2a4f67873768b04bc222d70d", "rental_uris": {"ios": "https://dc.lft.to/lastmile_qr_scan", "android": "https://dc.lft.to/lastmile_qr_scan"}, "fusion_lon": 0.0, "lon": -76.99959883333334, "name": "a9d29fbf2a4f67873768b04bc222d70d", "is_reserved": 0, "is_disabled": 0}, {"lat": 38.87579066666667, "fusion_lat": 0.0, "type": "electric_bike", "bike_id": "f6e869c19041a12b854f727844fb093e", "rental_uris": {"ios": "https://dc.lft.to/lastmile_qr_scan", "android": "https://dc.lft.to/lastmile_qr_scan"}, "fusion_lon": 0.0, "lon": -77.23413533333333, "name": "f6e869c19041a12b854f727844fb093e", "is_reserved": 0, "is_disabled": 0}, {"lat": 38.9344375, "fusion_lat": 0.0, "type": "electric_scooter", "bike_id": "696dcc39532c62e987800a783cfddb9e", "rental_uris": {"ios": "https://dc.lft.to/lastmile_qr_scan", "android": "https://dc.lft.to/lastmile_qr_scan"}, "fusion_lon": 0.0, "lon": -77.09062383333334, "name": "696dcc39532c62e987800a783cfddb9e", "is_reserved": 0, "is_disabled": 0}, {"lat": 38.96173733333333, "fusion_lat": 0.0, "type": "electric_scooter", "bike_id": "46d576df925d9e9f1ac09d4be3a12b2c", "rental_uris": {"ios": "https://dc.lft.to/lastmile_qr_scan", "android": "https://dc.lft.to/lastmile_qr_scan"}, "fusion_lon": 0.0, "lon": -77.07326766666667, "name": "46d576df925d9e9f1ac09d4be3a12b2c", "is_reserved": 0, "is_disabled": 0}, {"lat": 38.88138033333333, "fusion_lat": 0.0, "type": "electric_bike", "bike_id": "dc085846141752df857c194ba56b34e4", "rental_uris": {"ios": "https://dc.lft.to/lastmile_qr_scan", "android": "https://dc.lft.to/lastmile_qr_scan"}, "fusion_lon": 0.0, "lon": -77.01678766666667, "name": "dc085846141752df857c194ba56b34e4", "is_reserved": 0, "is_disabled": 0}, {"lat": 38.89686583333334, "fusion_lat": 0.0, "type": "electric_scooter", "bike_id": "8c7e22fe0c82b841b574511a9f16a41b", "rental_uris": {"ios": "https://dc.lft.to/lastmile_qr_scan", "android": "https://dc.lft.to/lastmile_qr_scan"}, "fusion_lon": 0.0, "lon": -76.937147, "name": "8c7e22fe0c82b841b574511a9f16a41b", "is_reserved": 0, "is_disabled": 0}, {"lat": 38.917975166666665, "fusion_lat": 0.0, "type": "electric_scooter", "bike_id": "3669aae17e4123b2166c3b5c02e5ac29", "rental_uris": {"ios": "https://dc.lft.to/lastmile_qr_scan", "android": "https://dc.lft.to/lastmile_qr_scan"}, "fusion_lon": 0.0, "lon": -77.02485433333334, "name": "3669aae17e4123b2166c3b5c02e5ac29", "is_reserved": 0, "is_disabled": 0}, {"lat": 38.89930066666667, "fusion_lat": 0.0, "type": "electric_scooter", "bike_id": "5c8035bcb75c23d3337aca28759da876", "rental_uris": {"ios": "https://dc.lft.to/lastmile_qr_scan", "android": "https://dc.lft.to/lastmile_qr_scan"}, "fusion_lon": 0.0, "lon": -77.04133116666667, "name": "5c8035bcb75c23d3337aca28759da876", "is_reserved": 0, "is_disabled": 0}, {"lat": 38.925838, "fusion_lat": 0.0, "type": "electric_scooter", "bike_id": "7fb17e3ade631934f380ae9732d3fbbc", "rental_uris": {"ios": "https://dc.lft.to/lastmile_qr_scan", "android": "https://dc.lft.to/lastmile_qr_scan"}, "fusion_lon": 0.0, "lon": -77.09685333333333, "name": "7fb17e3ade631934f380ae9732d3fbbc", "is_reserved": 0, "is_disabled": 0}, {"lat": 38.89227616666667, "fusion_lat": 0.0, "type": "electric_scooter", "bike_id": "34ee2bd06f2c3ac26e27feb88c2323f1", "rental_uris": {"ios": "https://dc.lft.to/lastmile_qr_scan", "android": "https://dc.lft.to/lastmile_qr_scan"}, "fusion_lon": 0.0, "lon": -77.02804683333333, "name": "34ee2bd06f2c3ac26e27feb88c2323f1", "is_reserved": 0, "is_disabled": 0}, {"lat": 38.917131833333336, "fusion_lat": 0.0, "type": "electric_scooter", "bike_id": "528827af91ef006134ae287e77b2b5ac", "rental_uris": {"ios": "https://dc.lft.to/lastmile_qr_scan", "android": "https://dc.lft.to/lastmile_qr_scan"}, "fusion_lon": 0.0, "lon": -77.03631866666667, "name": "528827af91ef006134ae287e77b2b5ac", "is_reserved": 0, "is_disabled": 0}, {"lat": 38.91066333333333, "fusion_lat": 0.0, "type": "electric_scooter", "bike_id": "45259ae5ba705420b4b3920beddaa388", "rental_uris": {"ios": "https://dc.lft.to/lastmile_qr_scan", "android": "https://dc.lft.to/lastmile_qr_scan"}, "fusion_lon": 0.0, "lon": -77.0539135, "name": "45259ae5ba705420b4b3920beddaa388", "is_reserved": 0, "is_disabled": 0}, {"lat": 38.91322483333333, "fusion_lat": 0.0, "type": "electric_scooter", "bike_id": "71775a5869500c9a1b1f14cf7d7611a6", "rental_uris": {"ios": "https://dc.lft.to/lastmile_qr_scan", "android": "https://dc.lft.to/lastmile_qr_scan"}, "fusion_lon": 0.0, "lon": -77.03175466666667, "name": "71775a5869500c9a1b1f14cf7d7611a6", "is_reserved": 0, "is_disabled": 0}, {"lat": 38.900658166666666, "fusion_lat": 0.0, "type": "electric_scooter", "bike_id": "4e84a854ceff2fd5bfa7986da7d7b358", "rental_uris": {"ios": "https://dc.lft.to/lastmile_qr_scan", "android": "https://dc.lft.to/lastmile_qr_scan"}, "fusion_lon": 0.0, "lon": -77.05054716666666, "name": "4e84a854ceff2fd5bfa7986da7d7b358", "is_reserved": 0, "is_disabled": 0}, {"lat": 38.9235105, "fusion_lat": 0.0, "type": "electric_scooter", "bike_id": "b8bc650842e890648d91217492e4481c", "rental_uris": {"ios": "https://dc.lft.to/lastmile_qr_scan", "android": "https://dc.lft.to/lastmile_qr_scan"}, "fusion_lon": 0.0, "lon": -77.003301, "name": "b8bc650842e890648d91217492e4481c", "is_reserved": 0, "is_disabled": 0}, {"lat": 38.8924235, "fusion_lat": 0.0, "type": "electric_scooter", "bike_id": "2ec03fe0567fe7320eab465b6f4bca6d", "rental_uris": {"ios": "https://dc.lft.to/lastmile_qr_scan", "android": "https://dc.lft.to/lastmile_qr_scan"}, "fusion_lon": 0.0, "lon": -77.05029116666667, "name": "2ec03fe0567fe7320eab465b6f4bca6d", "is_reserved": 0, "is_disabled": 0}, {"lat": 38.91528516666666, "fusion_lat": 0.0, "type": "electric_scooter", "bike_id": "f1b78780adcd87808aa1cd5095f9dfe2", "rental_uris": {"ios": "https://dc.lft.to/lastmile_qr_scan", "android": "https://dc.lft.to/lastmile_qr_scan"}, "fusion_lon": 0.0, "lon": -77.0486295, "name": "f1b78780adcd87808aa1cd5095f9dfe2", "is_reserved": 0, "is_disabled": 0}, {"lat": 38.91717516666667, "fusion_lat": 0.0, "type": "electric_scooter", "bike_id": "c85677780a931e705400a601b69d35c2", "rental_uris": {"ios": "https://dc.lft.to/lastmile_qr_scan", "android": "https://dc.lft.to/lastmile_qr_scan"}, "fusion_lon": 0.0, "lon": -77.0259565, "name": "c85677780a931e705400a601b69d35c2", "is_reserved": 0, "is_disabled": 0}, {"lat": 38.90652866666667, "fusion_lat": 0.0, "type": "electric_scooter", "bike_id": "cf0a9c66d069397393eca85c8e334d88", "rental_uris": {"ios": "https://dc.lft.to/lastmile_qr_scan", "android": "https://dc.lft.to/lastmile_qr_scan"}, "fusion_lon": 0.0, "lon": -77.03864766666666, "name": "cf0a9c66d069397393eca85c8e334d88", "is_reserved": 0, "is_disabled": 0}, {"lat": 38.8991495, "fusion_lat": 0.0, "type": "electric_scooter", "bike_id": "079bf3b53e07c76c7d6c5567dd33073c", "rental_uris": {"ios": "https://dc.lft.to/lastmile_qr_scan", "android": "https://dc.lft.to/lastmile_qr_scan"}, "fusion_lon": 0.0, "lon": -76.93385983333333, "name": "079bf3b53e07c76c7d6c5567dd33073c", "is_reserved": 0, "is_disabled": 0}, {"lat": 38.914041166666664, "fusion_lat": 0.0, "type": "electric_scooter", "bike_id": "ed5af893f9797cee90f81b9486320303", "rental_uris": {"ios": "https://dc.lft.to/lastmile_qr_scan", "android": "https://dc.lft.to/lastmile_qr_scan"}, "fusion_lon": 0.0, "lon": -77.0166005, "name": "ed5af893f9797cee90f81b9486320303", "is_reserved": 0, "is_disabled": 0}, {"lat": 38.9382495, "fusion_lat": 0.0, "type": "electric_scooter", "bike_id": "0eb4c7b6b2ba375b2424422f84f4da82", "rental_uris": {"ios": "https://dc.lft.to/lastmile_qr_scan", "android": "https://dc.lft.to/lastmile_qr_scan"}, "fusion_lon": 0.0, "lon": -76.989254, "name": "0eb4c7b6b2ba375b2424422f84f4da82", "is_reserved": 0, "is_disabled": 0}, {"lat": 38.919131666666665, "fusion_lat": 0.0, "type": "electric_scooter", "bike_id": "13fac8b5b3b450947a0c24856001cd6d", "rental_uris": {"ios": "https://dc.lft.to/lastmile_qr_scan", "android": "https://dc.lft.to/lastmile_qr_scan"}, "fusion_lon": 0.0, "lon": -77.025117, "name": "13fac8b5b3b450947a0c24856001cd6d", "is_reserved": 0, "is_disabled": 0}, {"lat": 39.0148385, "fusion_lat": 0.0, "type": "electric_bike", "bike_id": "808fc50dd962264781d8a47113579b76", "rental_uris": {"ios": "https://dc.lft.to/lastmile_qr_scan", "android": "https://dc.lft.to/lastmile_qr_scan"}, "fusion_lon": 0.0, "lon": -77.09949716666667, "name": "808fc50dd962264781d8a47113579b76", "is_reserved": 0, "is_disabled": 0}, {"lat": 38.921342833333334, "fusion_lat": 0.0, "type": "electric_scooter", "bike_id": "400a1a17a4adc4f27ab9d0886b8f140e", "rental_uris": {"ios": "https://dc.lft.to/lastmile_qr_scan", "android": "https://dc.lft.to/lastmile_qr_scan"}, "fusion_lon": 0.0, "lon": -77.04125633333334, "name": "400a1a17a4adc4f27ab9d0886b8f140e", "is_reserved": 0, "is_disabled": 0}, {"lat": 38.910226, "fusion_lat": 0.0, "type": "electric_scooter", "bike_id": "305f1d7ff26db1ce4710df89027d0b44", "rental_uris": {"ios": "https://dc.lft.to/lastmile_qr_scan", "android": "https://dc.lft.to/lastmile_qr_scan"}, "fusion_lon": 0.0, "lon": -76.99729716666667, "name": "305f1d7ff26db1ce4710df89027d0b44", "is_reserved": 0, "is_disabled": 0}, {"lat": 38.87901883333333, "fusion_lat": 0.0, "type": "electric_scooter", "bike_id": "ba061116b8b4aa69d04233cd93a3796c", "rental_uris": {"ios": "https://dc.lft.to/lastmile_qr_scan", "android": "https://dc.lft.to/lastmile_qr_scan"}, "fusion_lon": 0.0, "lon": -77.00569083333333, "name": "ba061116b8b4aa69d04233cd93a3796c", "is_reserved": 0, "is_disabled": 0}, {"lat": 38.92106733333333, "fusion_lat": 0.0, "type": "electric_scooter", "bike_id": "4cc7529d58bf572370978686dde9f203", "rental_uris": {"ios": "https://dc.lft.to/lastmile_qr_scan", "android": "https://dc.lft.to/lastmile_qr_scan"}, "fusion_lon": 0.0, "lon": -77.046904, "name": "4cc7529d58bf572370978686dde9f203", "is_reserved": 0, "is_disabled": 0}, {"lat": 38.908646, "fusion_lat": 0.0, "type": "electric_scooter", "bike_id": "7de73066f113e69414cad3584a8a4961", "rental_uris": {"ios": "https://dc.lft.to/lastmile_qr_scan", "android": "https://dc.lft.to/lastmile_qr_scan"}, "fusion_lon": 0.0, "lon": -77.0239515, "name": "7de73066f113e69414cad3584a8a4961", "is_reserved": 0, "is_disabled": 0}, {"lat": 38.909592, "fusion_lat": 0.0, "type": "electric_scooter", "bike_id": "97b91d69b32340a2326a96336c2b9186", "rental_uris": {"ios": "https://dc.lft.to/lastmile_qr_scan", "android": "https://dc.lft.to/lastmile_qr_scan"}, "fusion_lon": 0.0, "lon": -77.03995766666667, "name": "97b91d69b32340a2326a96336c2b9186", "is_reserved": 0, "is_disabled": 0}, {"lat": 38.91543016666667, "fusion_lat": 0.0, "type": "electric_scooter", "bike_id": "e993b08d1123dbe8c56d7ee392460c84", "rental_uris": {"ios": "https://dc.lft.to/lastmile_qr_scan", "android": "https://dc.lft.to/lastmile_qr_scan"}, "fusion_lon": 0.0, "lon": -77.022085, "name": "e993b08d1123dbe8c56d7ee392460c84", "is_reserved": 0, "is_disabled": 0}, {"lat": 38.917092, "fusion_lat": 0.0, "type": "electric_scooter", "bike_id": "3f842841e54293c65c0ee117fe1b2be8", "rental_uris": {"ios": "https://dc.lft.to/lastmile_qr_scan", "android": "https://dc.lft.to/lastmile_qr_scan"}, "fusion_lon": 0.0, "lon": -77.03868266666667, "name": "3f842841e54293c65c0ee117fe1b2be8", "is_reserved": 0, "is_disabled": 0}, {"lat": 38.90884466666667, "fusion_lat": 0.0, "type": "electric_scooter", "bike_id": "433542dd2fcc3fbe07d159ba7dcaf329", "rental_uris": {"ios": "https://dc.lft.to/lastmile_qr_scan", "android": "https://dc.lft.to/lastmile_qr_scan"}, "fusion_lon": 0.0, "lon": -76.9911965, "name": "433542dd2fcc3fbe07d159ba7dcaf329", "is_reserved": 0, "is_disabled": 0}, {"lat": 38.9008455, "fusion_lat": 0.0, "type": "electric_scooter", "bike_id": "28015875f105c2cebc10a833b076f814", "rental_uris": {"ios": "https://dc.lft.to/lastmile_qr_scan", "android": "https://dc.lft.to/lastmile_qr_scan"}, "fusion_lon": 0.0, "lon": -76.92961683333333, "name": "28015875f105c2cebc10a833b076f814", "is_reserved": 0, "is_disabled": 0}, {"lat": 38.88400433333334, "fusion_lat": 0.0, "type": "electric_scooter", "bike_id": "4a69c27f1ddaa796c235e9049487af08", "rental_uris": {"ios": "https://dc.lft.to/lastmile_qr_scan", "android": "https://dc.lft.to/lastmile_qr_scan"}, "fusion_lon": 0.0, "lon": -77.0315565, "name": "4a69c27f1ddaa796c235e9049487af08", "is_reserved": 0, "is_disabled": 0}, {"lat": 38.96796966666667, "fusion_lat": 0.0, "type": "electric_scooter", "bike_id": "7e2b96caf8f7190e3f3456203367f962", "rental_uris": {"ios": "https://dc.lft.to/lastmile_qr_scan", "android": "https://dc.lft.to/lastmile_qr_scan"}, "fusion_lon": 0.0, "lon": -77.02434783333334, "name": "7e2b96caf8f7190e3f3456203367f962", "is_reserved": 0, "is_disabled": 0}, {"lat": 38.837442833333334, "fusion_lat": 0.0, "type": "electric_bike", "bike_id": "2ee527f9051ef912fafd0b6af9217ebf", "rental_uris": {"ios": "https://dc.lft.to/lastmile_qr_scan", "android": "https://dc.lft.to/lastmile_qr_scan"}, "fusion_lon": 0.0, "lon": -76.99823916666666, "name": "2ee527f9051ef912fafd0b6af9217ebf", "is_reserved": 0, "is_disabled": 0}, {"lat": 38.8990455, "fusion_lat": 0.0, "type": "electric_scooter", "bike_id": "8a3e2347917bd43afdf08a8a021d884d", "rental_uris": {"ios": "https://dc.lft.to/lastmile_qr_scan", "android": "https://dc.lft.to/lastmile_qr_scan"}, "fusion_lon": 0.0, "lon": -77.03345966666667, "name": "8a3e2347917bd43afdf08a8a021d884d", "is_reserved": 0, "is_disabled": 0}, {"lat": 38.9159215, "fusion_lat": 0.0, "type": "electric_scooter", "bike_id": "e97310e8853269c08c1a1731deba17e2", "rental_uris": {"ios": "https://dc.lft.to/lastmile_qr_scan", "android": "https://dc.lft.to/lastmile_qr_scan"}, "fusion_lon": 0.0, "lon": -77.02290266666667, "name": "e97310e8853269c08c1a1731deba17e2", "is_reserved": 0, "is_disabled": 0}, {"lat": 38.884265666666664, "fusion_lat": 0.0, "type": "electric_scooter", "bike_id": "10c978d886cfbf40d632de911915b139", "rental_uris": {"ios": "https://dc.lft.to/lastmile_qr_scan", "android": "https://dc.lft.to/lastmile_qr_scan"}, "fusion_lon": 0.0, "lon": -76.95758833333333, "name": "10c978d886cfbf40d632de911915b139", "is_reserved": 0, "is_disabled": 0}, {"lat": 38.9363195, "fusion_lat": 0.0, "type": "electric_scooter", "bike_id": "d7d60aa0a47101e8fcfd5dbf588064f5", "rental_uris": {"ios": "https://dc.lft.to/lastmile_qr_scan", "android": "https://dc.lft.to/lastmile_qr_scan"}, "fusion_lon": 0.0, "lon": -77.02122266666667, "name": "d7d60aa0a47101e8fcfd5dbf588064f5", "is_reserved": 0, "is_disabled": 0}, {"lat": 38.8954845, "fusion_lat": 0.0, "type": "electric_scooter", "bike_id": "4fed4d43b45e1180a8cd2bfdc321dbf5", "rental_uris": {"ios": "https://dc.lft.to/lastmile_qr_scan", "android": "https://dc.lft.to/lastmile_qr_scan"}, "fusion_lon": 0.0, "lon": -76.9834385, "name": "4fed4d43b45e1180a8cd2bfdc321dbf5", "is_reserved": 0, "is_disabled": 0}, {"lat": 38.8973425, "fusion_lat": 0.0, "type": "electric_scooter", "bike_id": "13258e399dc3ab2a26b74df78fc1bcab", "rental_uris": {"ios": "https://dc.lft.to/lastmile_qr_scan", "android": "https://dc.lft.to/lastmile_qr_scan"}, "fusion_lon": 0.0, "lon": -77.04372366666666, "name": "13258e399dc3ab2a26b74df78fc1bcab", "is_reserved": 0, "is_disabled": 0}, {"lat": 38.953311666666664, "fusion_lat": 0.0, "type": "electric_bike", "bike_id": "fa699d0ee6a5adcd4f9e674287f93df8", "rental_uris": {"ios": "https://dc.lft.to/lastmile_qr_scan", "android": "https://dc.lft.to/lastmile_qr_scan"}, "fusion_lon": 0.0, "lon": -76.98258733333333, "name": "fa699d0ee6a5adcd4f9e674287f93df8", "is_reserved": 0, "is_disabled": 0}, {"lat": 38.959619333333336, "fusion_lat": 0.0, "type": "electric_bike", "bike_id": "6bf82f6d9e9474fb91f22d5c9146c509", "rental_uris": {"ios": "https://dc.lft.to/lastmile_qr_scan", "android": "https://dc.lft.to/lastmile_qr_scan"}, "fusion_lon": 0.0, "lon": -77.03059016666667, "name": "6bf82f6d9e9474fb91f22d5c9146c509", "is_reserved": 0, "is_disabled": 0}, {"lat": 38.932056, "fusion_lat": 0.0, "type": "electric_scooter", "bike_id": "dd825c35bcfbba789a82e5e65bdd904a", "rental_uris": {"ios": "https://dc.lft.to/lastmile_qr_scan", "android": "https://dc.lft.to/lastmile_qr_scan"}, "fusion_lon": 0.0, "lon": -77.03669083333334, "name": "dd825c35bcfbba789a82e5e65bdd904a", "is_reserved": 0, "is_disabled": 0}, {"lat": 38.931968499999996, "fusion_lat": 0.0, "type": "electric_scooter", "bike_id": "c38468e641a5a316d63b1c31011c11b1", "rental_uris": {"ios": "https://dc.lft.to/lastmile_qr_scan", "android": "https://dc.lft.to/lastmile_qr_scan"}, "fusion_lon": 0.0, "lon": -77.019911, "name": "c38468e641a5a316d63b1c31011c11b1", "is_reserved": 0, "is_disabled": 0}, {"lat": 38.905670666666666, "fusion_lat": 0.0, "type": "electric_scooter", "bike_id": "a330929afc5dcb4a1bc25c21793ddc4a", "rental_uris": {"ios": "https://dc.lft.to/lastmile_qr_scan", "android": "https://dc.lft.to/lastmile_qr_scan"}, "fusion_lon": 0.0, "lon": -77.006022, "name": "a330929afc5dcb4a1bc25c21793ddc4a", "is_reserved": 0, "is_disabled": 0}, {"lat": 38.86500433333333, "fusion_lat": 0.0, "type": "electric_bike", "bike_id": "f636195cb785df4e283d9fe80d55dc09", "rental_uris": {"ios": "https://dc.lft.to/lastmile_qr_scan", "android": "https://dc.lft.to/lastmile_qr_scan"}, "fusion_lon": 0.0, "lon": -76.97744033333333, "name": "f636195cb785df4e283d9fe80d55dc09", "is_reserved": 0, "is_disabled": 0}, {"lat": 38.884289333333335, "fusion_lat": 0.0, "type": "electric_scooter", "bike_id": "d57b35e6a9e022d485afb07cffac67ba", "rental_uris": {"ios": "https://dc.lft.to/lastmile_qr_scan", "android": "https://dc.lft.to/lastmile_qr_scan"}, "fusion_lon": 0.0, "lon": -76.95760866666667, "name": "d57b35e6a9e022d485afb07cffac67ba", "is_reserved": 0, "is_disabled": 0}, {"lat": 38.90782633333333, "fusion_lat": 0.0, "type": "electric_scooter", "bike_id": "7f08f86740a7adb434cbbd34b1eaa0c4", "rental_uris": {"ios": "https://dc.lft.to/lastmile_qr_scan", "android": "https://dc.lft.to/lastmile_qr_scan"}, "fusion_lon": 0.0, "lon": -77.04332633333334, "name": "7f08f86740a7adb434cbbd34b1eaa0c4", "is_reserved": 0, "is_disabled": 0}, {"lat": 38.92105566666667, "fusion_lat": 0.0, "type": "electric_scooter", "bike_id": "1e5a81ced3b387e6abd4527a7722c273", "rental_uris": {"ios": "https://dc.lft.to/lastmile_qr_scan", "android": "https://dc.lft.to/lastmile_qr_scan"}, "fusion_lon": 0.0, "lon": -77.0422145, "name": "1e5a81ced3b387e6abd4527a7722c273", "is_reserved": 0, "is_disabled": 0}, {"lat": 38.91628866666667, "fusion_lat": 0.0, "type": "electric_scooter", "bike_id": "229e8590c6566603fb3a202cdbcf6951", "rental_uris": {"ios": "https://dc.lft.to/lastmile_qr_scan", "android": "https://dc.lft.to/lastmile_qr_scan"}, "fusion_lon": 0.0, "lon": -77.0506895, "name": "229e8590c6566603fb3a202cdbcf6951", "is_reserved": 0, "is_disabled": 0}, {"lat": 38.91561383333333, "fusion_lat": 0.0, "type": "electric_bike", "bike_id": "52d6740b7c0d661797915a7081137b72", "rental_uris": {"ios": "https://dc.lft.to/lastmile_qr_scan", "android": "https://dc.lft.to/lastmile_qr_scan"}, "fusion_lon": 0.0, "lon": -77.0403865, "name": "52d6740b7c0d661797915a7081137b72", "is_reserved": 0, "is_disabled": 0}, {"lat": 38.910785833333335, "fusion_lat": 0.0, "type": "electric_scooter", "bike_id": "4962c43fd5ef423af5d2709038d04ce3", "rental_uris": {"ios": "https://dc.lft.to/lastmile_qr_scan", "android": "https://dc.lft.to/lastmile_qr_scan"}, "fusion_lon": 0.0, "lon": -77.00150816666667, "name": "4962c43fd5ef423af5d2709038d04ce3", "is_reserved": 0, "is_disabled": 0}, {"lat": 38.89979116666667, "fusion_lat": 0.0, "type": "electric_scooter", "bike_id": "6f2f8802b38a64b6d24cc4dafd493ca9", "rental_uris": {"ios": "https://dc.lft.to/lastmile_qr_scan", "android": "https://dc.lft.to/lastmile_qr_scan"}, "fusion_lon": 0.0, "lon": -77.02495066666667, "name": "6f2f8802b38a64b6d24cc4dafd493ca9", "is_reserved": 0, "is_disabled": 0}, {"lat": 38.90840983333333, "fusion_lat": 0.0, "type": "electric_scooter", "bike_id": "b1dff6d738926bab79f42d603e1a09b3", "rental_uris": {"ios": "https://dc.lft.to/lastmile_qr_scan", "android": "https://dc.lft.to/lastmile_qr_scan"}, "fusion_lon": 0.0, "lon": -77.03828716666666, "name": "b1dff6d738926bab79f42d603e1a09b3", "is_reserved": 0, "is_disabled": 0}, {"lat": 38.905342, "fusion_lat": 0.0, "type": "electric_scooter", "bike_id": "46c252a7eacbe7b1a61a2e2581cf6608", "rental_uris": {"ios": "https://dc.lft.to/lastmile_qr_scan", "android": "https://dc.lft.to/lastmile_qr_scan"}, "fusion_lon": 0.0, "lon": -77.0504885, "name": "46c252a7eacbe7b1a61a2e2581cf6608", "is_reserved": 0, "is_disabled": 0}, {"lat": 38.898948833333336, "fusion_lat": 0.0, "type": "electric_scooter", "bike_id": "4fa7d101cb56e28b370fab8fd423dd15", "rental_uris": {"ios": "https://dc.lft.to/lastmile_qr_scan", "android": "https://dc.lft.to/lastmile_qr_scan"}, "fusion_lon": 0.0, "lon": -77.044765, "name": "4fa7d101cb56e28b370fab8fd423dd15", "is_reserved": 0, "is_disabled": 0}, {"lat": 38.91021216666667, "fusion_lat": 0.0, "type": "electric_scooter", "bike_id": "49e6ba8fa2b94e371ae21a759fe7c0b8", "rental_uris": {"ios": "https://dc.lft.to/lastmile_qr_scan", "android": "https://dc.lft.to/lastmile_qr_scan"}, "fusion_lon": 0.0, "lon": -77.02933483333334, "name": "49e6ba8fa2b94e371ae21a759fe7c0b8", "is_reserved": 0, "is_disabled": 0}, {"lat": 38.94081633333333, "fusion_lat": 0.0, "type": "electric_scooter", "bike_id": "2374e6d2c3ead5ba4b7f171f770bd156", "rental_uris": {"ios": "https://dc.lft.to/lastmile_qr_scan", "android": "https://dc.lft.to/lastmile_qr_scan"}, "fusion_lon": 0.0, "lon": -77.02727916666667, "name": "2374e6d2c3ead5ba4b7f171f770bd156", "is_reserved": 0, "is_disabled": 0}, {"lat": 38.920818833333335, "fusion_lat": 0.0, "type": "electric_scooter", "bike_id": "1f791fe0da97e9e0527e9a089ff67ce8", "rental_uris": {"ios": "https://dc.lft.to/lastmile_qr_scan", "android": "https://dc.lft.to/lastmile_qr_scan"}, "fusion_lon": 0.0, "lon": -77.0819645, "name": "1f791fe0da97e9e0527e9a089ff67ce8", "is_reserved": 0, "is_disabled": 0}, {"lat": 38.95396366666667, "fusion_lat": 0.0, "type": "electric_scooter", "bike_id": "bf8d43a67a27a11670e41fc005b1f07d", "rental_uris": {"ios": "https://dc.lft.to/lastmile_qr_scan", "android": "https://dc.lft.to/lastmile_qr_scan"}, "fusion_lon": 0.0, "lon": -77.02798616666666, "name": "bf8d43a67a27a11670e41fc005b1f07d", "is_reserved": 0, "is_disabled": 0}, {"lat": 38.88744966666667, "fusion_lat": 0.0, "type": "electric_scooter", "bike_id": "ef680cde6942fbd838903533c6e86406", "rental_uris": {"ios": "https://dc.lft.to/lastmile_qr_scan", "android": "https://dc.lft.to/lastmile_qr_scan"}, "fusion_lon": 0.0, "lon": -77.02777033333334, "name": "ef680cde6942fbd838903533c6e86406", "is_reserved": 0, "is_disabled": 0}, {"lat": 38.88602233333334, "fusion_lat": 0.0, "type": "electric_scooter", "bike_id": "3e1270eaf495a4c1668a362b819e8d86", "rental_uris": {"ios": "https://dc.lft.to/lastmile_qr_scan", "android": "https://dc.lft.to/lastmile_qr_scan"}, "fusion_lon": 0.0, "lon": -77.02194433333334, "name": "3e1270eaf495a4c1668a362b819e8d86", "is_reserved": 0, "is_disabled": 0}, {"lat": 38.875612833333335, "fusion_lat": 0.0, "type": "electric_scooter", "bike_id": "07f8a3cc277a6f5d5b79404a021e2ad3", "rental_uris": {"ios": "https://dc.lft.to/lastmile_qr_scan", "android": "https://dc.lft.to/lastmile_qr_scan"}, "fusion_lon": 0.0, "lon": -77.0056275, "name": "07f8a3cc277a6f5d5b79404a021e2ad3", "is_reserved": 0, "is_disabled": 0}, {"lat": 38.934745, "fusion_lat": 0.0, "type": "electric_scooter", "bike_id": "9075d744f5d6ea076ee12741acc60e10", "rental_uris": {"ios": "https://dc.lft.to/lastmile_qr_scan", "android": "https://dc.lft.to/lastmile_qr_scan"}, "fusion_lon": 0.0, "lon": -77.07277116666667, "name": "9075d744f5d6ea076ee12741acc60e10", "is_reserved": 0, "is_disabled": 0}, {"lat": 38.934889, "fusion_lat": 0.0, "type": "electric_scooter", "bike_id": "66f26a9f3e756e3e3e27a9cd633c1ffb", "rental_uris": {"ios": "https://dc.lft.to/lastmile_qr_scan", "android": "https://dc.lft.to/lastmile_qr_scan"}, "fusion_lon": 0.0, "lon": -77.03617466666667, "name": "66f26a9f3e756e3e3e27a9cd633c1ffb", "is_reserved": 0, "is_disabled": 0}, {"lat": 38.93133733333333, "fusion_lat": 0.0, "type": "electric_bike", "bike_id": "d432a451368a3c12d8ddb2c572a9e5ac", "rental_uris": {"ios": "https://dc.lft.to/lastmile_qr_scan", "android": "https://dc.lft.to/lastmile_qr_scan"}, "fusion_lon": 0.0, "lon": -77.0197355, "name": "d432a451368a3c12d8ddb2c572a9e5ac", "is_reserved": 0, "is_disabled": 0}, {"lat": 38.922917, "fusion_lat": 0.0, "type": "electric_scooter", "bike_id": "7ca2dd6010fadad1bf798cba7ae881ee", "rental_uris": {"ios": "https://dc.lft.to/lastmile_qr_scan", "android": "https://dc.lft.to/lastmile_qr_scan"}, "fusion_lon": 0.0, "lon": -77.03668666666667, "name": "7ca2dd6010fadad1bf798cba7ae881ee", "is_reserved": 0, "is_disabled": 0}, {"lat": 38.904121, "fusion_lat": 0.0, "type": "electric_scooter", "bike_id": "8b32d492311bbd58d0dec5142a302f5f", "rental_uris": {"ios": "https://dc.lft.to/lastmile_qr_scan", "android": "https://dc.lft.to/lastmile_qr_scan"}, "fusion_lon": 0.0, "lon": -76.97335, "name": "8b32d492311bbd58d0dec5142a302f5f", "is_reserved": 0, "is_disabled": 0}, {"lat": 38.90852266666667, "fusion_lat": 0.0, "type": "electric_scooter", "bike_id": "00762c68004bd381f2c851d37e30f476", "rental_uris": {"ios": "https://dc.lft.to/lastmile_qr_scan", "android": "https://dc.lft.to/lastmile_qr_scan"}, "fusion_lon": 0.0, "lon": -77.02692183333333, "name": "00762c68004bd381f2c851d37e30f476", "is_reserved": 0, "is_disabled": 0}, {"lat": 38.839662, "fusion_lat": 0.0, "type": "electric_scooter", "bike_id": "e484e2440d334ad53c9a0518fb7de69f", "rental_uris": {"ios": "https://dc.lft.to/lastmile_qr_scan", "android": "https://dc.lft.to/lastmile_qr_scan"}, "fusion_lon": 0.0, "lon": -76.99842416666667, "name": "e484e2440d334ad53c9a0518fb7de69f", "is_reserved": 0, "is_disabled": 0}, {"lat": 38.911093, "fusion_lat": 0.0, "type": "electric_scooter", "bike_id": "11b6c3f70eefd190b36b2b4cceb55591", "rental_uris": {"ios": "https://dc.lft.to/lastmile_qr_scan", "android": "https://dc.lft.to/lastmile_qr_scan"}, "fusion_lon": 0.0, "lon": -77.04545583333334, "name": "11b6c3f70eefd190b36b2b4cceb55591", "is_reserved": 0, "is_disabled": 0}, {"lat": 38.89985333333333, "fusion_lat": 0.0, "type": "electric_scooter", "bike_id": "f872641ca2f6d2222aa4977823ff3178", "rental_uris": {"ios": "https://dc.lft.to/lastmile_qr_scan", "android": "https://dc.lft.to/lastmile_qr_scan"}, "fusion_lon": 0.0, "lon": -77.01135483333333, "name": "f872641ca2f6d2222aa4977823ff3178", "is_reserved": 0, "is_disabled": 0}, {"lat": 38.905074, "fusion_lat": 0.0, "type": "electric_scooter", "bike_id": "86a06c5c58454500e2afcd9e3be9d7fc", "rental_uris": {"ios": "https://dc.lft.to/lastmile_qr_scan", "android": "https://dc.lft.to/lastmile_qr_scan"}, "fusion_lon": 0.0, "lon": -77.03006083333334, "name": "86a06c5c58454500e2afcd9e3be9d7fc", "is_reserved": 0, "is_disabled": 0}, {"lat": 38.908581, "fusion_lat": 0.0, "type": "electric_scooter", "bike_id": "f97d9dd40395217b16bb5e7aa484ee26", "rental_uris": {"ios": "https://dc.lft.to/lastmile_qr_scan", "android": "https://dc.lft.to/lastmile_qr_scan"}, "fusion_lon": 0.0, "lon": -77.0448395, "name": "f97d9dd40395217b16bb5e7aa484ee26", "is_reserved": 0, "is_disabled": 0}, {"lat": 38.912690166666664, "fusion_lat": 0.0, "type": "electric_scooter", "bike_id": "492f4a76d54328e684efde2f6380fc62", "rental_uris": {"ios": "https://dc.lft.to/lastmile_qr_scan", "android": "https://dc.lft.to/lastmile_qr_scan"}, "fusion_lon": 0.0, "lon": -77.03177533333333, "name": "492f4a76d54328e684efde2f6380fc62", "is_reserved": 0, "is_disabled": 0}, {"lat": 38.878832333333335, "fusion_lat": 0.0, "type": "electric_scooter", "bike_id": "a5cab356304521f132410385edcc2d9d", "rental_uris": {"ios": "https://dc.lft.to/lastmile_qr_scan", "android": "https://dc.lft.to/lastmile_qr_scan"}, "fusion_lon": 0.0, "lon": -77.0231595, "name": "a5cab356304521f132410385edcc2d9d", "is_reserved": 0, "is_disabled": 0}, {"lat": 38.9072965, "fusion_lat": 0.0, "type": "electric_scooter", "bike_id": "ca54c1e3aaca6306ec55f65fa0456278", "rental_uris": {"ios": "https://dc.lft.to/lastmile_qr_scan", "android": "https://dc.lft.to/lastmile_qr_scan"}, "fusion_lon": 0.0, "lon": -77.035317, "name": "ca54c1e3aaca6306ec55f65fa0456278", "is_reserved": 0, "is_disabled": 0}, {"lat": 38.9362565, "fusion_lat": 0.0, "type": "electric_scooter", "bike_id": "f1211f7932dc27c145007a38c16d1e0e", "rental_uris": {"ios": "https://dc.lft.to/lastmile_qr_scan", "android": "https://dc.lft.to/lastmile_qr_scan"}, "fusion_lon": 0.0, "lon": -77.058782, "name": "f1211f7932dc27c145007a38c16d1e0e", "is_reserved": 0, "is_disabled": 0}, {"lat": 38.907041, "fusion_lat": 0.0, "type": "electric_scooter", "bike_id": "7607dcfc6396fbbcfdfe59b746d46c89", "rental_uris": {"ios": "https://dc.lft.to/lastmile_qr_scan", "android": "https://dc.lft.to/lastmile_qr_scan"}, "fusion_lon": 0.0, "lon": -76.98855816666666, "name": "7607dcfc6396fbbcfdfe59b746d46c89", "is_reserved": 0, "is_disabled": 0}, {"lat": 38.91565133333334, "fusion_lat": 0.0, "type": "electric_scooter", "bike_id": "b4de45b395d4323f8b9f654cf07cc705", "rental_uris": {"ios": "https://dc.lft.to/lastmile_qr_scan", "android": "https://dc.lft.to/lastmile_qr_scan"}, "fusion_lon": 0.0, "lon": -77.02525866666667, "name": "b4de45b395d4323f8b9f654cf07cc705", "is_reserved": 0, "is_disabled": 0}, {"lat": 38.85767633333333, "fusion_lat": 0.0, "type": "electric_bike", "bike_id": "f59dbb38c5819997d3b570af884742ce", "rental_uris": {"ios": "https://dc.lft.to/lastmile_qr_scan", "android": "https://dc.lft.to/lastmile_qr_scan"}, "fusion_lon": 0.0, "lon": -76.98768516666667, "name": "f59dbb38c5819997d3b570af884742ce", "is_reserved": 0, "is_disabled": 0}, {"lat": 39.08636966666667, "fusion_lat": 0.0, "type": "electric_bike", "bike_id": "10b97861fb18855d4a30cdb7f085872b", "rental_uris": {"ios": "https://dc.lft.to/lastmile_qr_scan", "android": "https://dc.lft.to/lastmile_qr_scan"}, "fusion_lon": 0.0, "lon": -77.15251133333334, "name": "10b97861fb18855d4a30cdb7f085872b", "is_reserved": 0, "is_disabled": 0}, {"lat": 38.93753683333333, "fusion_lat": 0.0, "type": "electric_scooter", "bike_id": "81cbbf3bc61e87f2912f11ddfa45a0bb", "rental_uris": {"ios": "https://dc.lft.to/lastmile_qr_scan", "android": "https://dc.lft.to/lastmile_qr_scan"}, "fusion_lon": 0.0, "lon": -77.03285233333334, "name": "81cbbf3bc61e87f2912f11ddfa45a0bb", "is_reserved": 0, "is_disabled": 0}, {"lat": 38.899047333333336, "fusion_lat": 0.0, "type": "electric_scooter", "bike_id": "a303c35152ded6e2ff1c079fdc0deec6", "rental_uris": {"ios": "https://dc.lft.to/lastmile_qr_scan", "android": "https://dc.lft.to/lastmile_qr_scan"}, "fusion_lon": 0.0, "lon": -77.04133583333333, "name": "a303c35152ded6e2ff1c079fdc0deec6", "is_reserved": 0, "is_disabled": 0}, {"lat": 38.917046666666664, "fusion_lat": 0.0, "type": "electric_scooter", "bike_id": "3df369d5d3c9262c6ea1090d19c0833c", "rental_uris": {"ios": "https://dc.lft.to/lastmile_qr_scan", "android": "https://dc.lft.to/lastmile_qr_scan"}, "fusion_lon": 0.0, "lon": -77.02901683333333, "name": "3df369d5d3c9262c6ea1090d19c0833c", "is_reserved": 0, "is_disabled": 0}, {"lat": 38.920418166666664, "fusion_lat": 0.0, "type": "electric_scooter", "bike_id": "dc7d13f4f2c2c5cd24ab7183e0b1dfa0", "rental_uris": {"ios": "https://dc.lft.to/lastmile_qr_scan", "android": "https://dc.lft.to/lastmile_qr_scan"}, "fusion_lon": 0.0, "lon": -77.01818633333333, "name": "dc7d13f4f2c2c5cd24ab7183e0b1dfa0", "is_reserved": 0, "is_disabled": 0}, {"lat": 38.940838666666664, "fusion_lat": 0.0, "type": "electric_scooter", "bike_id": "b851dc01633e704c9fe225d2ae360090", "rental_uris": {"ios": "https://dc.lft.to/lastmile_qr_scan", "android": "https://dc.lft.to/lastmile_qr_scan"}, "fusion_lon": 0.0, "lon": -77.0254505, "name": "b851dc01633e704c9fe225d2ae360090", "is_reserved": 0, "is_disabled": 0}, {"lat": 38.9234205, "fusion_lat": 0.0, "type": "electric_scooter", "bike_id": "283b99c8951485b269034dba4e2387a3", "rental_uris": {"ios": "https://dc.lft.to/lastmile_qr_scan", "android": "https://dc.lft.to/lastmile_qr_scan"}, "fusion_lon": 0.0, "lon": -77.0517495, "name": "283b99c8951485b269034dba4e2387a3", "is_reserved": 0, "is_disabled": 0}, {"lat": 38.884107666666665, "fusion_lat": 0.0, "type": "electric_scooter", "bike_id": "e838dd6771bb9becd49284e8bee6952c", "rental_uris": {"ios": "https://dc.lft.to/lastmile_qr_scan", "android": "https://dc.lft.to/lastmile_qr_scan"}, "fusion_lon": 0.0, "lon": -77.02559166666667, "name": "e838dd6771bb9becd49284e8bee6952c", "is_reserved": 0, "is_disabled": 0}, {"lat": 38.906525333333335, "fusion_lat": 0.0, "type": "electric_scooter", "bike_id": "352319c2a55b4217100598994c3d3f2b", "rental_uris": {"ios": "https://dc.lft.to/lastmile_qr_scan", "android": "https://dc.lft.to/lastmile_qr_scan"}, "fusion_lon": 0.0, "lon": -77.03869283333333, "name": "352319c2a55b4217100598994c3d3f2b", "is_reserved": 0, "is_disabled": 0}, {"lat": 38.89231866666667, "fusion_lat": 0.0, "type": "electric_scooter", "bike_id": "086a6389c1e93573046fe543f4cb8ea5", "rental_uris": {"ios": "https://dc.lft.to/lastmile_qr_scan", "android": "https://dc.lft.to/lastmile_qr_scan"}, "fusion_lon": 0.0, "lon": -77.04659583333333, "name": "086a6389c1e93573046fe543f4cb8ea5", "is_reserved": 0, "is_disabled": 0}, {"lat": 38.9171805, "fusion_lat": 0.0, "type": "electric_scooter", "bike_id": "6b1f7f0becebf43eb3fd83ed51b6e5fb", "rental_uris": {"ios": "https://dc.lft.to/lastmile_qr_scan", "android": "https://dc.lft.to/lastmile_qr_scan"}, "fusion_lon": 0.0, "lon": -76.9728285, "name": "6b1f7f0becebf43eb3fd83ed51b6e5fb", "is_reserved": 0, "is_disabled": 0}, {"lat": 38.90474066666667, "fusion_lat": 0.0, "type": "electric_scooter", "bike_id": "eccbf6a185bc179bf4f97d1a6514b2cc", "rental_uris": {"ios": "https://dc.lft.to/lastmile_qr_scan", "android": "https://dc.lft.to/lastmile_qr_scan"}, "fusion_lon": 0.0, "lon": -77.04839866666667, "name": "eccbf6a185bc179bf4f97d1a6514b2cc", "is_reserved": 0, "is_disabled": 0}, {"lat": 38.94260333333333, "fusion_lat": 0.0, "type": "electric_bike", "bike_id": "837ae774f2fbf3f42d0d3ae1378a66b3", "rental_uris": {"ios": "https://dc.lft.to/lastmile_qr_scan", "android": "https://dc.lft.to/lastmile_qr_scan"}, "fusion_lon": 0.0, "lon": -76.9907205, "name": "837ae774f2fbf3f42d0d3ae1378a66b3", "is_reserved": 0, "is_disabled": 0}, {"lat": 38.909684666666664, "fusion_lat": 0.0, "type": "electric_scooter", "bike_id": "13b7756a3206962e78f8207510d8ada4", "rental_uris": {"ios": "https://dc.lft.to/lastmile_qr_scan", "android": "https://dc.lft.to/lastmile_qr_scan"}, "fusion_lon": 0.0, "lon": -77.038677, "name": "13b7756a3206962e78f8207510d8ada4", "is_reserved": 0, "is_disabled": 0}, {"lat": 38.909543166666666, "fusion_lat": 0.0, "type": "electric_scooter", "bike_id": "a7fa9363e27689d08cd3b92b2a4583c2", "rental_uris": {"ios": "https://dc.lft.to/lastmile_qr_scan", "android": "https://dc.lft.to/lastmile_qr_scan"}, "fusion_lon": 0.0, "lon": -77.04645983333333, "name": "a7fa9363e27689d08cd3b92b2a4583c2", "is_reserved": 0, "is_disabled": 0}, {"lat": 38.89651533333333, "fusion_lat": 0.0, "type": "electric_scooter", "bike_id": "0d4308b6ae66f0ae20b6393784c8fbdd", "rental_uris": {"ios": "https://dc.lft.to/lastmile_qr_scan", "android": "https://dc.lft.to/lastmile_qr_scan"}, "fusion_lon": 0.0, "lon": -77.00925666666667, "name": "0d4308b6ae66f0ae20b6393784c8fbdd", "is_reserved": 0, "is_disabled": 0}, {"lat": 38.900272666666666, "fusion_lat": 0.0, "type": "electric_scooter", "bike_id": "1a296920745d4623d313f4d8d22711d1", "rental_uris": {"ios": "https://dc.lft.to/lastmile_qr_scan", "android": "https://dc.lft.to/lastmile_qr_scan"}, "fusion_lon": 0.0, "lon": -76.9896085, "name": "1a296920745d4623d313f4d8d22711d1", "is_reserved": 0, "is_disabled": 0}, {"lat": 38.9296245, "fusion_lat": 0.0, "type": "electric_scooter", "bike_id": "b30515437d3dd71b055963ee9ef8af3d", "rental_uris": {"ios": "https://dc.lft.to/lastmile_qr_scan", "android": "https://dc.lft.to/lastmile_qr_scan"}, "fusion_lon": 0.0, "lon": -76.99164533333334, "name": "b30515437d3dd71b055963ee9ef8af3d", "is_reserved": 0, "is_disabled": 0}, {"lat": 38.898798166666666, "fusion_lat": 0.0, "type": "electric_scooter", "bike_id": "df101a60da0dd64f13786156db92f324", "rental_uris": {"ios": "https://dc.lft.to/lastmile_qr_scan", "android": "https://dc.lft.to/lastmile_qr_scan"}, "fusion_lon": 0.0, "lon": -77.053446, "name": "df101a60da0dd64f13786156db92f324", "is_reserved": 0, "is_disabled": 0}, {"lat": 38.916559166666666, "fusion_lat": 0.0, "type": "electric_scooter", "bike_id": "e520e336e10974a8e2c4a8181f1b0cd9", "rental_uris": {"ios": "https://dc.lft.to/lastmile_qr_scan", "android": "https://dc.lft.to/lastmile_qr_scan"}, "fusion_lon": 0.0, "lon": -77.0247405, "name": "e520e336e10974a8e2c4a8181f1b0cd9", "is_reserved": 0, "is_disabled": 0}, {"lat": 38.920088, "fusion_lat": 0.0, "type": "electric_scooter", "bike_id": "b7127f213ffa9fd24754aadb1a7bc73f", "rental_uris": {"ios": "https://dc.lft.to/lastmile_qr_scan", "android": "https://dc.lft.to/lastmile_qr_scan"}, "fusion_lon": 0.0, "lon": -77.03225333333333, "name": "b7127f213ffa9fd24754aadb1a7bc73f", "is_reserved": 0, "is_disabled": 0}, {"lat": 38.8097335, "fusion_lat": 0.0, "type": "electric_bike", "bike_id": "135f3db163fbcdd509337309249ca3f4", "rental_uris": {"ios": "https://dc.lft.to/lastmile_qr_scan", "android": "https://dc.lft.to/lastmile_qr_scan"}, "fusion_lon": 0.0, "lon": -77.07660366666667, "name": "135f3db163fbcdd509337309249ca3f4", "is_reserved": 0, "is_disabled": 0}, {"lat": 38.8413425, "fusion_lat": 0.0, "type": "electric_bike", "bike_id": "79ed25f48dbdc1a0ab5591628242ad35", "rental_uris": {"ios": "https://dc.lft.to/lastmile_qr_scan", "android": "https://dc.lft.to/lastmile_qr_scan"}, "fusion_lon": 0.0, "lon": -77.063129, "name": "79ed25f48dbdc1a0ab5591628242ad35", "is_reserved": 0, "is_disabled": 0}, {"lat": 38.90049066666667, "fusion_lat": 0.0, "type": "electric_scooter", "bike_id": "b2f2ddfd5be8811c8c3a24ae15fdd5ee", "rental_uris": {"ios": "https://dc.lft.to/lastmile_qr_scan", "android": "https://dc.lft.to/lastmile_qr_scan"}, "fusion_lon": 0.0, "lon": -77.016937, "name": "b2f2ddfd5be8811c8c3a24ae15fdd5ee", "is_reserved": 0, "is_disabled": 0}, {"lat": 38.944547, "fusion_lat": 0.0, "type": "electric_scooter", "bike_id": "4c9e16fa7e808c2146dfa9adf408525e", "rental_uris": {"ios": "https://dc.lft.to/lastmile_qr_scan", "android": "https://dc.lft.to/lastmile_qr_scan"}, "fusion_lon": 0.0, "lon": -77.06354016666667, "name": "4c9e16fa7e808c2146dfa9adf408525e", "is_reserved": 0, "is_disabled": 0}, {"lat": 38.895484833333335, "fusion_lat": 0.0, "type": "electric_scooter", "bike_id": "6b4932b124751269d8bdc8aa497bee51", "rental_uris": {"ios": "https://dc.lft.to/lastmile_qr_scan", "android": "https://dc.lft.to/lastmile_qr_scan"}, "fusion_lon": 0.0, "lon": -76.98223866666666, "name": "6b4932b124751269d8bdc8aa497bee51", "is_reserved": 0, "is_disabled": 0}, {"lat": 38.892642333333335, "fusion_lat": 0.0, "type": "electric_scooter", "bike_id": "e098f7a335bbdac97948a27f3ae711df", "rental_uris": {"ios": "https://dc.lft.to/lastmile_qr_scan", "android": "https://dc.lft.to/lastmile_qr_scan"}, "fusion_lon": 0.0, "lon": -77.00351683333334, "name": "e098f7a335bbdac97948a27f3ae711df", "is_reserved": 0, "is_disabled": 0}, {"lat": 38.91787083333333, "fusion_lat": 0.0, "type": "electric_scooter", "bike_id": "524ff6c60d2437074a4c44a8661c10c3", "rental_uris": {"ios": "https://dc.lft.to/lastmile_qr_scan", "android": "https://dc.lft.to/lastmile_qr_scan"}, "fusion_lon": 0.0, "lon": -77.02316616666667, "name": "524ff6c60d2437074a4c44a8661c10c3", "is_reserved": 0, "is_disabled": 0}, {"lat": 38.92449516666667, "fusion_lat": 0.0, "type": "electric_scooter", "bike_id": "abc0633e6d0597f50ef7d47845ba8872", "rental_uris": {"ios": "https://dc.lft.to/lastmile_qr_scan", "android": "https://dc.lft.to/lastmile_qr_scan"}, "fusion_lon": 0.0, "lon": -77.03986783333333, "name": "abc0633e6d0597f50ef7d47845ba8872", "is_reserved": 0, "is_disabled": 0}, {"lat": 38.92499133333333, "fusion_lat": 0.0, "type": "electric_scooter", "bike_id": "28d70db96e7b62e61d052dccdeb8cdcb", "rental_uris": {"ios": "https://dc.lft.to/lastmile_qr_scan", "android": "https://dc.lft.to/lastmile_qr_scan"}, "fusion_lon": 0.0, "lon": -77.0215155, "name": "28d70db96e7b62e61d052dccdeb8cdcb", "is_reserved": 0, "is_disabled": 0}, {"lat": 38.914114, "fusion_lat": 0.0, "type": "electric_scooter", "bike_id": "9adce12c85c2410b855dc947b3baec73", "rental_uris": {"ios": "https://dc.lft.to/lastmile_qr_scan", "android": "https://dc.lft.to/lastmile_qr_scan"}, "fusion_lon": 0.0, "lon": -77.03544916666667, "name": "9adce12c85c2410b855dc947b3baec73", "is_reserved": 0, "is_disabled": 0}, {"lat": 38.906775, "fusion_lat": 0.0, "type": "electric_scooter", "bike_id": "32c687fa7afdbcf4666fa17c0a594a7b", "rental_uris": {"ios": "https://dc.lft.to/lastmile_qr_scan", "android": "https://dc.lft.to/lastmile_qr_scan"}, "fusion_lon": 0.0, "lon": -76.99980666666667, "name": "32c687fa7afdbcf4666fa17c0a594a7b", "is_reserved": 0, "is_disabled": 0}, {"lat": 38.91023283333333, "fusion_lat": 0.0, "type": "electric_scooter", "bike_id": "b4b0f8874d28e624881024144a4d94a6", "rental_uris": {"ios": "https://dc.lft.to/lastmile_qr_scan", "android": "https://dc.lft.to/lastmile_qr_scan"}, "fusion_lon": 0.0, "lon": -77.02940033333333, "name": "b4b0f8874d28e624881024144a4d94a6", "is_reserved": 0, "is_disabled": 0}, {"lat": 38.90156483333333, "fusion_lat": 0.0, "type": "electric_scooter", "bike_id": "d7665b247e80b20f35038ef01b745fea", "rental_uris": {"ios": "https://dc.lft.to/lastmile_qr_scan", "android": "https://dc.lft.to/lastmile_qr_scan"}, "fusion_lon": 0.0, "lon": -77.01587116666667, "name": "d7665b247e80b20f35038ef01b745fea", "is_reserved": 0, "is_disabled": 0}, {"lat": 38.906670166666665, "fusion_lat": 0.0, "type": "electric_scooter", "bike_id": "8e53a65aac9f09a72b485da7ca5a72de", "rental_uris": {"ios": "https://dc.lft.to/lastmile_qr_scan", "android": "https://dc.lft.to/lastmile_qr_scan"}, "fusion_lon": 0.0, "lon": -77.03806633333333, "name": "8e53a65aac9f09a72b485da7ca5a72de", "is_reserved": 0, "is_disabled": 0}, {"lat": 38.8922495, "fusion_lat": 0.0, "type": "electric_scooter", "bike_id": "a11bd8e4e6aceeb449b388c135b6485d", "rental_uris": {"ios": "https://dc.lft.to/lastmile_qr_scan", "android": "https://dc.lft.to/lastmile_qr_scan"}, "fusion_lon": 0.0, "lon": -77.031662, "name": "a11bd8e4e6aceeb449b388c135b6485d", "is_reserved": 0, "is_disabled": 0}, {"lat": 38.90973433333333, "fusion_lat": 0.0, "type": "electric_scooter", "bike_id": "2241ff723f462eb24bb85e0fa4490d48", "rental_uris": {"ios": "https://dc.lft.to/lastmile_qr_scan", "android": "https://dc.lft.to/lastmile_qr_scan"}, "fusion_lon": 0.0, "lon": -77.02388783333333, "name": "2241ff723f462eb24bb85e0fa4490d48", "is_reserved": 0, "is_disabled": 0}, {"lat": 38.922372333333335, "fusion_lat": 0.0, "type": "electric_scooter", "bike_id": "025278c2273548333f27c771664613a1", "rental_uris": {"ios": "https://dc.lft.to/lastmile_qr_scan", "android": "https://dc.lft.to/lastmile_qr_scan"}, "fusion_lon": 0.0, "lon": -77.04489666666667, "name": "025278c2273548333f27c771664613a1", "is_reserved": 0, "is_disabled": 0}, {"lat": 38.8924875, "fusion_lat": 0.0, "type": "electric_scooter", "bike_id": "0759f4db1001db04f71e309d7fc6207e", "rental_uris": {"ios": "https://dc.lft.to/lastmile_qr_scan", "android": "https://dc.lft.to/lastmile_qr_scan"}, "fusion_lon": 0.0, "lon": -76.98836233333333, "name": "0759f4db1001db04f71e309d7fc6207e", "is_reserved": 0, "is_disabled": 0}, {"lat": 38.91305583333333, "fusion_lat": 0.0, "type": "electric_scooter", "bike_id": "fce07afa413981d79d730405c86d5b8b", "rental_uris": {"ios": "https://dc.lft.to/lastmile_qr_scan", "android": "https://dc.lft.to/lastmile_qr_scan"}, "fusion_lon": 0.0, "lon": -77.03650633333334, "name": "fce07afa413981d79d730405c86d5b8b", "is_reserved": 0, "is_disabled": 0}, {"lat": 38.83143883333334, "fusion_lat": 0.0, "type": "electric_bike", "bike_id": "f0f56fac327a6367176b85db3f33eaa8", "rental_uris": {"ios": "https://dc.lft.to/lastmile_qr_scan", "android": "https://dc.lft.to/lastmile_qr_scan"}, "fusion_lon": 0.0, "lon": -76.99408633333333, "name": "f0f56fac327a6367176b85db3f33eaa8", "is_reserved": 0, "is_disabled": 0}, {"lat": 38.93673, "fusion_lat": 0.0, "type": "electric_scooter", "bike_id": "16ad82e8019b4c19d0d567802b60e942", "rental_uris": {"ios": "https://dc.lft.to/lastmile_qr_scan", "android": "https://dc.lft.to/lastmile_qr_scan"}, "fusion_lon": 0.0, "lon": -77.03592983333333, "name": "16ad82e8019b4c19d0d567802b60e942", "is_reserved": 0, "is_disabled": 0}, {"lat": 38.917432, "fusion_lat": 0.0, "type": "electric_scooter", "bike_id": "0ebe3ae84bd8d98f58b03b5ece511e73", "rental_uris": {"ios": "https://dc.lft.to/lastmile_qr_scan", "android": "https://dc.lft.to/lastmile_qr_scan"}, "fusion_lon": 0.0, "lon": -77.01699816666667, "name": "0ebe3ae84bd8d98f58b03b5ece511e73", "is_reserved": 0, "is_disabled": 0}, {"lat": 38.928112166666665, "fusion_lat": 0.0, "type": "electric_scooter", "bike_id": "e6adee2e91db2ebbf72461c5a637d370", "rental_uris": {"ios": "https://dc.lft.to/lastmile_qr_scan", "android": "https://dc.lft.to/lastmile_qr_scan"}, "fusion_lon": 0.0, "lon": -77.05395666666666, "name": "e6adee2e91db2ebbf72461c5a637d370", "is_reserved": 0, "is_disabled": 0}, {"lat": 38.9166905, "fusion_lat": 0.0, "type": "electric_scooter", "bike_id": "337346af6d2a4895edcc117effecd5ef", "rental_uris": {"ios": "https://dc.lft.to/lastmile_qr_scan", "android": "https://dc.lft.to/lastmile_qr_scan"}, "fusion_lon": 0.0, "lon": -77.02970183333333, "name": "337346af6d2a4895edcc117effecd5ef", "is_reserved": 0, "is_disabled": 0}, {"lat": 38.8893455, "fusion_lat": 0.0, "type": "electric_scooter", "bike_id": "0d00f31bba9a3e640bb4e560350703d0", "rental_uris": {"ios": "https://dc.lft.to/lastmile_qr_scan", "android": "https://dc.lft.to/lastmile_qr_scan"}, "fusion_lon": 0.0, "lon": -76.9937065, "name": "0d00f31bba9a3e640bb4e560350703d0", "is_reserved": 0, "is_disabled": 0}, {"lat": 38.934712833333336, "fusion_lat": 0.0, "type": "electric_scooter", "bike_id": "9c590af0b96b87f4e47c018fb5c04c8c", "rental_uris": {"ios": "https://dc.lft.to/lastmile_qr_scan", "android": "https://dc.lft.to/lastmile_qr_scan"}, "fusion_lon": 0.0, "lon": -77.07280066666667, "name": "9c590af0b96b87f4e47c018fb5c04c8c", "is_reserved": 0, "is_disabled": 0}, {"lat": 38.92435416666667, "fusion_lat": 0.0, "type": "electric_scooter", "bike_id": "3b6853b88b9372b659e50f173c928d76", "rental_uris": {"ios": "https://dc.lft.to/lastmile_qr_scan", "android": "https://dc.lft.to/lastmile_qr_scan"}, "fusion_lon": 0.0, "lon": -77.0203035, "name": "3b6853b88b9372b659e50f173c928d76", "is_reserved": 0, "is_disabled": 0}, {"lat": 38.88717, "fusion_lat": 0.0, "type": "electric_scooter", "bike_id": "c881fd31d6c42f12cc3377627f004554", "rental_uris": {"ios": "https://dc.lft.to/lastmile_qr_scan", "android": "https://dc.lft.to/lastmile_qr_scan"}, "fusion_lon": 0.0, "lon": -77.02210333333333, "name": "c881fd31d6c42f12cc3377627f004554", "is_reserved": 0, "is_disabled": 0}, {"lat": 38.92443133333333, "fusion_lat": 0.0, "type": "electric_scooter", "bike_id": "3bf5d0b33e1ee81795cf4f97a8de7e2f", "rental_uris": {"ios": "https://dc.lft.to/lastmile_qr_scan", "android": "https://dc.lft.to/lastmile_qr_scan"}, "fusion_lon": 0.0, "lon": -76.98994333333333, "name": "3bf5d0b33e1ee81795cf4f97a8de7e2f", "is_reserved": 0, "is_disabled": 0}, {"lat": 38.9324855, "fusion_lat": 0.0, "type": "electric_scooter", "bike_id": "ff80de41f953170ddfd292cc5331aa90", "rental_uris": {"ios": "https://dc.lft.to/lastmile_qr_scan", "android": "https://dc.lft.to/lastmile_qr_scan"}, "fusion_lon": 0.0, "lon": -77.02950433333334, "name": "ff80de41f953170ddfd292cc5331aa90", "is_reserved": 0, "is_disabled": 0}, {"lat": 38.907573666666664, "fusion_lat": 0.0, "type": "electric_scooter", "bike_id": "daa8b26de2fd86eba920aed6dfe750fa", "rental_uris": {"ios": "https://dc.lft.to/lastmile_qr_scan", "android": "https://dc.lft.to/lastmile_qr_scan"}, "fusion_lon": 0.0, "lon": -77.03452133333333, "name": "daa8b26de2fd86eba920aed6dfe750fa", "is_reserved": 0, "is_disabled": 0}, {"lat": 38.899958166666664, "fusion_lat": 0.0, "type": "electric_scooter", "bike_id": "e37738503414de3ee9d66ab3ffee7cb7", "rental_uris": {"ios": "https://dc.lft.to/lastmile_qr_scan", "android": "https://dc.lft.to/lastmile_qr_scan"}, "fusion_lon": 0.0, "lon": -77.028917, "name": "e37738503414de3ee9d66ab3ffee7cb7", "is_reserved": 0, "is_disabled": 0}, {"lat": 38.84743683333333, "fusion_lat": 0.0, "type": "electric_scooter", "bike_id": "35f664ce6a290ceae1e4ba38bc0f65fd", "rental_uris": {"ios": "https://dc.lft.to/lastmile_qr_scan", "android": "https://dc.lft.to/lastmile_qr_scan"}, "fusion_lon": 0.0, "lon": -76.99510583333333, "name": "35f664ce6a290ceae1e4ba38bc0f65fd", "is_reserved": 0, "is_disabled": 0}, {"lat": 38.9114835, "fusion_lat": 0.0, "type": "electric_scooter", "bike_id": "bf1d2bc5dc96336fda461480383a586c", "rental_uris": {"ios": "https://dc.lft.to/lastmile_qr_scan", "android": "https://dc.lft.to/lastmile_qr_scan"}, "fusion_lon": 0.0, "lon": -77.00881883333334, "name": "bf1d2bc5dc96336fda461480383a586c", "is_reserved": 0, "is_disabled": 0}, {"lat": 38.899658, "fusion_lat": 0.0, "type": "electric_scooter", "bike_id": "8b9695ac1f679efbdce6b14728f13c21", "rental_uris": {"ios": "https://dc.lft.to/lastmile_qr_scan", "android": "https://dc.lft.to/lastmile_qr_scan"}, "fusion_lon": 0.0, "lon": -77.04661983333334, "name": "8b9695ac1f679efbdce6b14728f13c21", "is_reserved": 0, "is_disabled": 0}, {"lat": 38.907282333333335, "fusion_lat": 0.0, "type": "electric_scooter", "bike_id": "e69d3eabd89bd2c2c95c98c6f17b84b0", "rental_uris": {"ios": "https://dc.lft.to/lastmile_qr_scan", "android": "https://dc.lft.to/lastmile_qr_scan"}, "fusion_lon": 0.0, "lon": -77.01486366666667, "name": "e69d3eabd89bd2c2c95c98c6f17b84b0", "is_reserved": 0, "is_disabled": 0}, {"lat": 38.89811366666667, "fusion_lat": 0.0, "type": "electric_scooter", "bike_id": "d9121336ab8d576d077afa48d8758bc8", "rental_uris": {"ios": "https://dc.lft.to/lastmile_qr_scan", "android": "https://dc.lft.to/lastmile_qr_scan"}, "fusion_lon": 0.0, "lon": -76.94719466666666, "name": "d9121336ab8d576d077afa48d8758bc8", "is_reserved": 0, "is_disabled": 0}, {"lat": 38.907187666666665, "fusion_lat": 0.0, "type": "electric_scooter", "bike_id": "11a8b6250afdfbad474d6116c227965d", "rental_uris": {"ios": "https://dc.lft.to/lastmile_qr_scan", "android": "https://dc.lft.to/lastmile_qr_scan"}, "fusion_lon": 0.0, "lon": -77.07611783333333, "name": "11a8b6250afdfbad474d6116c227965d", "is_reserved": 0, "is_disabled": 0}, {"lat": 38.89700066666666, "fusion_lat": 0.0, "type": "electric_bike", "bike_id": "40e75c03271e71362ddc7868b3c92f84", "rental_uris": {"ios": "https://dc.lft.to/lastmile_qr_scan", "android": "https://dc.lft.to/lastmile_qr_scan"}, "fusion_lon": 0.0, "lon": -76.96306516666667, "name": "40e75c03271e71362ddc7868b3c92f84", "is_reserved": 0, "is_disabled": 0}, {"lat": 38.91239866666667, "fusion_lat": 0.0, "type": "electric_scooter", "bike_id": "24d9fb68afa0ae86ae22ba59c9b3c3a0", "rental_uris": {"ios": "https://dc.lft.to/lastmile_qr_scan", "android": "https://dc.lft.to/lastmile_qr_scan"}, "fusion_lon": 0.0, "lon": -77.040695, "name": "24d9fb68afa0ae86ae22ba59c9b3c3a0", "is_reserved": 0, "is_disabled": 0}, {"lat": 38.911952666666664, "fusion_lat": 0.0, "type": "electric_scooter", "bike_id": "152bd65fd1750f5d30f94c0fe96ba13a", "rental_uris": {"ios": "https://dc.lft.to/lastmile_qr_scan", "android": "https://dc.lft.to/lastmile_qr_scan"}, "fusion_lon": 0.0, "lon": -77.01889083333333, "name": "152bd65fd1750f5d30f94c0fe96ba13a", "is_reserved": 0, "is_disabled": 0}, {"lat": 38.932742, "fusion_lat": 0.0, "type": "electric_scooter", "bike_id": "5054de71f240d0bfe6ddaacfc75ad369", "rental_uris": {"ios": "https://dc.lft.to/lastmile_qr_scan", "android": "https://dc.lft.to/lastmile_qr_scan"}, "fusion_lon": 0.0, "lon": -76.98440783333334, "name": "5054de71f240d0bfe6ddaacfc75ad369", "is_reserved": 0, "is_disabled": 0}, {"lat": 38.92264933333333, "fusion_lat": 0.0, "type": "electric_scooter", "bike_id": "27620868a09e11ee95ae3726d3f7eab7", "rental_uris": {"ios": "https://dc.lft.to/lastmile_qr_scan", "android": "https://dc.lft.to/lastmile_qr_scan"}, "fusion_lon": 0.0, "lon": -77.01965116666666, "name": "27620868a09e11ee95ae3726d3f7eab7", "is_reserved": 0, "is_disabled": 0}, {"lat": 38.932462666666666, "fusion_lat": 0.0, "type": "electric_scooter", "bike_id": "1bf512e3d5db05cb97e17750b0d42485", "rental_uris": {"ios": "https://dc.lft.to/lastmile_qr_scan", "android": "https://dc.lft.to/lastmile_qr_scan"}, "fusion_lon": 0.0, "lon": -77.0327565, "name": "1bf512e3d5db05cb97e17750b0d42485", "is_reserved": 0, "is_disabled": 0}, {"lat": 38.9275795, "fusion_lat": 0.0, "type": "electric_scooter", "bike_id": "42e2b1e68a61688a8d806039c643f8d9", "rental_uris": {"ios": "https://dc.lft.to/lastmile_qr_scan", "android": "https://dc.lft.to/lastmile_qr_scan"}, "fusion_lon": 0.0, "lon": -77.052701, "name": "42e2b1e68a61688a8d806039c643f8d9", "is_reserved": 0, "is_disabled": 0}, {"lat": 38.946976666666664, "fusion_lat": 0.0, "type": "electric_scooter", "bike_id": "b1873c1f8cd4775dd16690963b9c6b1d", "rental_uris": {"ios": "https://dc.lft.to/lastmile_qr_scan", "android": "https://dc.lft.to/lastmile_qr_scan"}, "fusion_lon": 0.0, "lon": -77.01940033333334, "name": "b1873c1f8cd4775dd16690963b9c6b1d", "is_reserved": 0, "is_disabled": 0}, {"lat": 38.91394666666667, "fusion_lat": 0.0, "type": "electric_scooter", "bike_id": "795d287028d21c585dbd1a20e21216c0", "rental_uris": {"ios": "https://dc.lft.to/lastmile_qr_scan", "android": "https://dc.lft.to/lastmile_qr_scan"}, "fusion_lon": 0.0, "lon": -77.010139, "name": "795d287028d21c585dbd1a20e21216c0", "is_reserved": 0, "is_disabled": 0}, {"lat": 38.91127216666667, "fusion_lat": 0.0, "type": "electric_scooter", "bike_id": "1311cf154cdf37a67347a9a2d1d1372e", "rental_uris": {"ios": "https://dc.lft.to/lastmile_qr_scan", "android": "https://dc.lft.to/lastmile_qr_scan"}, "fusion_lon": 0.0, "lon": -77.05275483333334, "name": "1311cf154cdf37a67347a9a2d1d1372e", "is_reserved": 0, "is_disabled": 0}, {"lat": 38.89992483333333, "fusion_lat": 0.0, "type": "electric_scooter", "bike_id": "662039e64d7bfffac7f0d0b11da476dd", "rental_uris": {"ios": "https://dc.lft.to/lastmile_qr_scan", "android": "https://dc.lft.to/lastmile_qr_scan"}, "fusion_lon": 0.0, "lon": -77.02368883333334, "name": "662039e64d7bfffac7f0d0b11da476dd", "is_reserved": 0, "is_disabled": 0}, {"lat": 38.891952, "fusion_lat": 0.0, "type": "electric_scooter", "bike_id": "f2575a5f378338a7f71f9734acb2eae9", "rental_uris": {"ios": "https://dc.lft.to/lastmile_qr_scan", "android": "https://dc.lft.to/lastmile_qr_scan"}, "fusion_lon": 0.0, "lon": -77.0238025, "name": "f2575a5f378338a7f71f9734acb2eae9", "is_reserved": 0, "is_disabled": 0},