{"data": {"bikes": [{"lon": -76.95370333333334, "bike_id": "84a9eab7be897d79692646561b614b70", "lat": 38.892049666666665, "fusion_lon": 0.0, "fusion_lat": 0.0, "type": "electric_scooter", "name": "84a9eab7be897d79692646561b614b70", "is_disabled": 0, "rental_uris": {"ios": "https://dc.lft.to/lastmile_qr_scan", "android": "https://dc.lft.to/lastmile_qr_scan"}, "is_reserved": 0}, {"lon": -77.0389715, "bike_id": "df9a1035922ca453866b91c4ce1b8a2a", "lat": 38.91003766666667, "fusion_lon": 0.0, "fusion_lat": 0.0, "type": "electric_scooter", "name": "df9a1035922ca453866b91c4ce1b8a2a", "is_disabled": 0, "rental_uris": {"ios": "https://dc.lft.to/lastmile_qr_scan", "android": "https://dc.lft.to/lastmile_qr_scan"}, "is_reserved": 0}, {"lon": -77.03846533333333, "bike_id": "e02e869527baaefaa163a5aee730bbfd", "lat": 38.913737, "fusion_lon": 0.0, "fusion_lat": 0.0, "type": "electric_scooter", "name": "e02e869527baaefaa163a5aee730bbfd", "is_disabled": 0, "rental_uris": {"ios": "https://dc.lft.to/lastmile_qr_scan", "android": "https://dc.lft.to/lastmile_qr_scan"}, "is_reserved": 0}, {"lon": -77.0193985, "bike_id": "2164e5b7f0a3032e5fb51b8d00b69cd1", "lat": 38.93590916666667, "fusion_lon": 0.0, "fusion_lat": 0.0, "type": "electric_bike", "name": "2164e5b7f0a3032e5fb51b8d00b69cd1", "is_disabled": 0, "rental_uris": {"ios": "https://dc.lft.to/lastmile_qr_scan", "android": "https://dc.lft.to/lastmile_qr_scan"}, "is_reserved": 0}, {"lon": -76.99863016666667, "bike_id": "e7ae7510813cb9b3833584e6d745e96a", "lat": 38.900292666666665, "fusion_lon": 0.0, "fusion_lat": 0.0, "type": "electric_scooter", "name": "e7ae7510813cb9b3833584e6d745e96a", "is_disabled": 0, "rental_uris": {"ios": "https://dc.lft.to/lastmile_qr_scan", "android": "https://dc.lft.to/lastmile_qr_scan"}, "is_reserved": 0}, {"lon": -76.981062, "bike_id": "a93d90697a30493c32cbfbb86cb51df0", "lat": 38.8954305, "fusion_lon": 0.0, "fusion_lat": 0.0, "type": "electric_scooter", "name": "a93d90697a30493c32cbfbb86cb51df0", "is_disabled": 0, "rental_uris": {"ios": "https://dc.lft.to/lastmile_qr_scan", "android": "https://dc.lft.to/lastmile_qr_scan"}, "is_reserved": 0}, {"lon": -76.96154083333333, "bike_id": "8a8be21d887fe0593b0b2a13127730b5", "lat": 38.88355283333333, "fusion_lon": 0.0, "fusion_lat": 0.0, "type": "electric_scooter", "name": "8a8be21d887fe0593b0b2a13127730b5", "is_disabled": 0, "rental_uris": {"ios": "https://dc.lft.to/lastmile_qr_scan", "android": "https://dc.lft.to/lastmile_qr_scan"}, "is_reserved": 0}, {"lon": -77.00591566666667, "bike_id": "1d1bd82078c75cc84eb4e934e09e03df", "lat": 38.8843435, "fusion_lon": 0.0, "fusion_lat": 0.0, "type": "electric_scooter", "name": "1d1bd82078c75cc84eb4e934e09e03df", "is_disabled": 0, "rental_uris": {"ios": "https://dc.lft.to/lastmile_qr_scan", "android": "https://dc.lft.to/lastmile_qr_scan"}, "is_reserved": 0}, {"lon": -77.0386785, "bike_id": "c77ca48936d54d3011ccdf6dd1ddb687", "lat": 38.945005333333334, "fusion_lon": 0.0, "fusion_lat": 0.0, "type": "electric_scooter", "name": "c77ca48936d54d3011ccdf6dd1ddb687", "is_disabled": 0, "rental_uris": {"ios": "https://dc.lft.to/lastmile_qr_scan", "android": "https://dc.lft.to/lastmile_qr_scan"}, "is_reserved": 0}, {"lon": -77.03681833333333, "bike_id": "ff2da86c5ca7436b2e131cf86c5e05a7", "lat": 38.91912283333333, "fusion_lon": 0.0, "fusion_lat": 0.0, "type": "electric_scooter", "name": "ff2da86c5ca7436b2e131cf86c5e05a7", "is_disabled": 0, "rental_uris": {"ios": "https://dc.lft.to/lastmile_qr_scan", "android": "https://dc.lft.to/lastmile_qr_scan"}, "is_reserved": 0}, {"lon": -76.9984665, "bike_id": "8debb366ed43836f75568434c8364cf3", "lat": 38.90212366666667, "fusion_lon": 0.0, "fusion_lat": 0.0, "type": "electric_scooter", "name": "8debb366ed43836f75568434c8364cf3", "is_disabled": 0, "rental_uris": {"ios": "https://dc.lft.to/lastmile_qr_scan", "android": "https://dc.lft.to/lastmile_qr_scan"}, "is_reserved": 0}, {"lon": -77.02664, "bike_id": "a15a255b5358c778a634d5442df56b09", "lat": 38.9170775, "fusion_lon": 0.0, "fusion_lat": 0.0, "type": "electric_scooter", "name": "a15a255b5358c778a634d5442df56b09", "is_disabled": 0, "rental_uris": {"ios": "https://dc.lft.to/lastmile_qr_scan", "android": "https://dc.lft.to/lastmile_qr_scan"}, "is_reserved": 0}, {"lon": -77.02696883333333, "bike_id": "74858e10712f71c123a4047513fdaa26", "lat": 38.916338833333334, "fusion_lon": 0.0, "fusion_lat": 0.0, "type": "electric_scooter", "name": "74858e10712f71c123a4047513fdaa26", "is_disabled": 0, "rental_uris": {"ios": "https://dc.lft.to/lastmile_qr_scan", "android": "https://dc.lft.to/lastmile_qr_scan"}, "is_reserved": 0}, {"lon": -76.99180233333334, "bike_id": "7861a110c735d1345960e46ab2bc1eae", "lat": 38.88989883333333, "fusion_lon": 0.0, "fusion_lat": 0.0, "type": "electric_scooter", "name": "7861a110c735d1345960e46ab2bc1eae", "is_disabled": 0, "rental_uris": {"ios": "https://dc.lft.to/lastmile_qr_scan", "android": "https://dc.lft.to/lastmile_qr_scan"}, "is_reserved": 0}, {"lon": -77.02398433333333, "bike_id": "081a258c58fd3c3fca0dd480c92a2132", "lat": 38.906808833333336, "fusion_lon": 0.0, "fusion_lat": 0.0, "type": "electric_scooter", "name": "081a258c58fd3c3fca0dd480c92a2132", "is_disabled": 0, "rental_uris": {"ios": "https://dc.lft.to/lastmile_qr_scan", "android": "https://dc.lft.to/lastmile_qr_scan"}, "is_reserved": 0}, {"lon": -77.033345, "bike_id": "bb738b54f6dcea3f80515266ec219b92", "lat": 38.915695166666666, "fusion_lon": 0.0, "fusion_lat": 0.0, "type": "electric_scooter", "name": "bb738b54f6dcea3f80515266ec219b92", "is_disabled": 0, "rental_uris": {"ios": "https://dc.lft.to/lastmile_qr_scan", "android": "https://dc.lft.to/lastmile_qr_scan"}, "is_reserved": 0}, {"lon": -77.03864016666667, "bike_id": "c1558ea73e5bb1ccf08ec4099d422cf7", "lat": 38.910170666666666, "fusion_lon": 0.0, "fusion_lat": 0.0, "type": "electric_scooter", "name": "c1558ea73e5bb1ccf08ec4099d422cf7", "is_disabled": 0, "rental_uris": {"ios": "https://dc.lft.to/lastmile_qr_scan", "android": "https://dc.lft.to/lastmile_qr_scan"}, "is_reserved": 0}, {"lon": -77.040952, "bike_id": "331e9f549242ff72afbd661f908c19eb", "lat": 38.924532, "fusion_lon": 0.0, "fusion_lat": 0.0, "type": "electric_scooter", "name": "331e9f549242ff72afbd661f908c19eb", "is_disabled": 0, "rental_uris": {"ios": "https://dc.lft.to/lastmile_qr_scan", "android": "https://dc.lft.to/lastmile_qr_scan"}, "is_reserved": 0}, {"lon": -77.02436933333334, "bike_id": "a4deec5408fba2340d5cce0ff7951e14", "lat": 38.92358566666667, "fusion_lon": 0.0, "fusion_lat": 0.0, "type": "electric_scooter", "name": "a4deec5408fba2340d5cce0ff7951e14", "is_disabled": 0, "rental_uris": {"ios": "https://dc.lft.to/lastmile_qr_scan", "android": "https://dc.lft.to/lastmile_qr_scan"}, "is_reserved": 0}, {"lon": -77.03669916666666, "bike_id": "9fee42b0860ba89d1ea6726b84ec32a2", "lat": 38.9223905, "fusion_lon": 0.0, "fusion_lat": 0.0, "type": "electric_scooter", "name": "9fee42b0860ba89d1ea6726b84ec32a2", "is_disabled": 0, "rental_uris": {"ios": "https://dc.lft.to/lastmile_qr_scan", "android": "https://dc.lft.to/lastmile_qr_scan"}, "is_reserved": 0}, {"lon": -77.058286, "bike_id": "1dad77d9a222866bfd038993c2647cd4", "lat": 38.905325166666664, "fusion_lon": 0.0, "fusion_lat": 0.0, "type": "electric_scooter", "name": "1dad77d9a222866bfd038993c2647cd4", "is_disabled": 0, "rental_uris": {"ios": "https://dc.lft.to/lastmile_qr_scan", "android": "https://dc.lft.to/lastmile_qr_scan"}, "is_reserved": 0}, {"lon": -77.02528883333333, "bike_id": "117c81514cd82f405ed5c312b1b091c4", "lat": 38.880443166666666, "fusion_lon": 0.0, "fusion_lat": 0.0, "type": "electric_scooter", "name": "117c81514cd82f405ed5c312b1b091c4", "is_disabled": 0, "rental_uris": {"ios": "https://dc.lft.to/lastmile_qr_scan", "android": "https://dc.lft.to/lastmile_qr_scan"}, "is_reserved": 0}, {"lon": -77.03328283333333, "bike_id": "5fb53e3e93b3652c59ed44f0d7bcb092", "lat": 38.933497333333335, "fusion_lon": 0.0, "fusion_lat": 0.0, "type": "electric_scooter", "name": "5fb53e3e93b3652c59ed44f0d7bcb092", "is_disabled": 0, "rental_uris": {"ios": "https://dc.lft.to/lastmile_qr_scan", "android": "https://dc.lft.to/lastmile_qr_scan"}, "is_reserved": 0}, {"lon": -76.98113916666667, "bike_id": "d1514e99881783fc6cfc7784b326d065", "lat": 38.91578716666667, "fusion_lon": 0.0, "fusion_lat": 0.0, "type": "electric_scooter", "name": "d1514e99881783fc6cfc7784b326d065", "is_disabled": 0, "rental_uris": {"ios": "https://dc.lft.to/lastmile_qr_scan", "android": "https://dc.lft.to/lastmile_qr_scan"}, "is_reserved": 0}, {"lon": -77.0424335, "bike_id": "0385134b6269a2a2db5a539c6b836d4d", "lat": 38.922117666666665, "fusion_lon": 0.0, "fusion_lat": 0.0, "type": "electric_scooter", "name": "0385134b6269a2a2db5a539c6b836d4d", "is_disabled": 0, "rental_uris": {"ios": "https://dc.lft.to/lastmile_qr_scan", "android": "https://dc.lft.to/lastmile_qr_scan"}, "is_reserved": 0}, {"lon": -76.98987566666666, "bike_id": "6b287d5bf0980e8b3394d61cdd3395c3", "lat": 38.93363983333333, "fusion_lon": 0.0, "fusion_lat": 0.0, "type": "electric_scooter", "name": "6b287d5bf0980e8b3394d61cdd3395c3", "is_disabled": 0, "rental_uris": {"ios": "https://dc.lft.to/lastmile_qr_scan", "android": "https://dc.lft.to/lastmile_qr_scan"}, "is_reserved": 0}, {"lon": -76.99256933333334, "bike_id": "122e744a15dbf10ee7f3822debfcb7da", "lat": 38.902991, "fusion_lon": 0.0, "fusion_lat": 0.0, "type": "electric_scooter", "name": "122e744a15dbf10ee7f3822debfcb7da", "is_disabled": 0, "rental_uris": {"ios": "https://dc.lft.to/lastmile_qr_scan", "android": "https://dc.lft.to/lastmile_qr_scan"}, "is_reserved": 0}, {"lon": -77.03179516666667, "bike_id": "ecff3fbc832f8983c462773101ea0374", "lat": 38.915776666666666, "fusion_lon": 0.0, "fusion_lat": 0.0, "type": "electric_scooter", "name": "ecff3fbc832f8983c462773101ea0374", "is_disabled": 0, "rental_uris": {"ios": "https://dc.lft.to/lastmile_qr_scan", "android": "https://dc.lft.to/lastmile_qr_scan"}, "is_reserved": 0}, {"lon": -77.03200983333333, "bike_id": "39f0d9c94875f892aedff4dcd7327895", "lat": 38.91675133333333, "fusion_lon": 0.0, "fusion_lat": 0.0, "type": "electric_scooter", "name": "39f0d9c94875f892aedff4dcd7327895", "is_disabled": 0, "rental_uris": {"ios": "https://dc.lft.to/lastmile_qr_scan", "android": "https://dc.lft.to/lastmile_qr_scan"}, "is_reserved": 0}, {"lon": -76.93189966666667, "bike_id": "62290320ff9c9127126c6309054800ff", "lat": 38.898741333333334, "fusion_lon": 0.0, "fusion_lat": 0.0, "type": "electric_scooter", "name": "62290320ff9c9127126c6309054800ff", "is_disabled": 0, "rental_uris": {"ios": "https://dc.lft.to/lastmile_qr_scan", "android": "https://dc.lft.to/lastmile_qr_scan"}, "is_reserved": 0}, {"lon": -77.0190395, "bike_id": "59108dc473346291d1d055870f807310", "lat": 38.90271666666666, "fusion_lon": 0.0, "fusion_lat": 0.0, "type": "electric_scooter", "name": "59108dc473346291d1d055870f807310", "is_disabled": 0, "rental_uris": {"ios": "https://dc.lft.to/lastmile_qr_scan", "android": "https://dc.lft.to/lastmile_qr_scan"}, "is_reserved": 0}, {"lon": -77.00321583333333, "bike_id": "92dd11c587f7669a411b02ba32b0752a", "lat": 38.91897083333333, "fusion_lon": 0.0, "fusion_lat": 0.0, "type": "electric_scooter", "name": "92dd11c587f7669a411b02ba32b0752a", "is_disabled": 0, "rental_uris": {"ios": "https://dc.lft.to/lastmile_qr_scan", "android": "https://dc.lft.to/lastmile_qr_scan"}, "is_reserved": 0}, {"lon": -76.94597916666666, "bike_id": "7ea6e2684f3cdb7898d9f7ad0fac3a45", "lat": 38.9014935, "fusion_lon": 0.0, "fusion_lat": 0.0, "type": "electric_scooter", "name": "7ea6e2684f3cdb7898d9f7ad0fac3a45", "is_disabled": 0, "rental_uris": {"ios": "https://dc.lft.to/lastmile_qr_scan", "android": "https://dc.lft.to/lastmile_qr_scan"}, "is_reserved": 0}, {"lon": -76.98058183333333, "bike_id": "a1eec49e8331b0421be80c8d10c6bd44", "lat": 38.884928, "fusion_lon": 0.0, "fusion_lat": 0.0, "type": "electric_scooter", "name": "a1eec49e8331b0421be80c8d10c6bd44", "is_disabled": 0, "rental_uris": {"ios": "https://dc.lft.to/lastmile_qr_scan", "android": "https://dc.lft.to/lastmile_qr_scan"}, "is_reserved": 0}, {"lon": -77.08807583333333, "bike_id": "d775d2f6462aefc6d278054ae8e1a9be", "lat": 38.91176133333333, "fusion_lon": 0.0, "fusion_lat": 0.0, "type": "electric_scooter", "name": "d775d2f6462aefc6d278054ae8e1a9be", "is_disabled": 0, "rental_uris": {"ios": "https://dc.lft.to/lastmile_qr_scan", "android": "https://dc.lft.to/lastmile_qr_scan"}, "is_reserved": 0}, {"lon": -77.08495466666666, "bike_id": "03dca81549c030536bdf029e9f0cd8b9", "lat": 38.848474833333334, "fusion_lon": 0.0, "fusion_lat": 0.0, "type": "electric_bike", "name": "03dca81549c030536bdf029e9f0cd8b9", "is_disabled": 0, "rental_uris": {"ios": "https://dc.lft.to/lastmile_qr_scan", "android": "https://dc.lft.to/lastmile_qr_scan"}, "is_reserved": 0}, {"lon": -76.97400683333333, "bike_id": "3f6d8c59fab02e763da3a9af79996731", "lat": 38.90298033333333, "fusion_lon": 0.0, "fusion_lat": 0.0, "type": "electric_scooter", "name": "3f6d8c59fab02e763da3a9af79996731", "is_disabled": 0, "rental_uris": {"ios": "https://dc.lft.to/lastmile_qr_scan", "android": "https://dc.lft.to/lastmile_qr_scan"}, "is_reserved": 0}, {"lon": -76.98913283333333, "bike_id": "b338edccde3773b51685716e7b477849", "lat": 38.864925, "fusion_lon": 0.0, "fusion_lat": 0.0, "type": "electric_scooter", "name": "b338edccde3773b51685716e7b477849", "is_disabled": 0, "rental_uris": {"ios": "https://dc.lft.to/lastmile_qr_scan", "android": "https://dc.lft.to/lastmile_qr_scan"}, "is_reserved": 0}, {"lon": -77.03996916666667, "bike_id": "73e477a67761980dceabe8ffd2c17b8b", "lat": 38.93432166666667, "fusion_lon": 0.0, "fusion_lat": 0.0, "type": "electric_scooter", "name": "73e477a67761980dceabe8ffd2c17b8b", "is_disabled": 0, "rental_uris": {"ios": "https://dc.lft.to/lastmile_qr_scan", "android": "https://dc.lft.to/lastmile_qr_scan"}, "is_reserved": 0}, {"lon": -77.02564966666667, "bike_id": "bf551ff3d78dff932c8f82c97ec90d6c", "lat": 38.895619833333335, "fusion_lon": 0.0, "fusion_lat": 0.0, "type": "electric_scooter", "name": "bf551ff3d78dff932c8f82c97ec90d6c", "is_disabled": 0, "rental_uris": {"ios": "https://dc.lft.to/lastmile_qr_scan", "android": "https://dc.lft.to/lastmile_qr_scan"}, "is_reserved": 0}, {"lon": -77.06527983333334, "bike_id": "ec6cfa02873569e67c80bdeede94fbb9", "lat": 38.905610333333335, "fusion_lon": 0.0, "fusion_lat": 0.0, "type": "electric_bike", "name": "ec6cfa02873569e67c80bdeede94fbb9", "is_disabled": 0, "rental_uris": {"ios": "https://dc.lft.to/lastmile_qr_scan", "android": "https://dc.lft.to/lastmile_qr_scan"}, "is_reserved": 0}, {"lon": -77.047266, "bike_id": "abe5d464d58a706b10d8e2f80eb76953", "lat": 38.90315833333333, "fusion_lon": 0.0, "fusion_lat": 0.0, "type": "electric_scooter", "name": "abe5d464d58a706b10d8e2f80eb76953", "is_disabled": 0, "rental_uris": {"ios": "https://dc.lft.to/lastmile_qr_scan", "android": "https://dc.lft.to/lastmile_qr_scan"}, "is_reserved": 0}, {"lon": -77.02501683333334, "bike_id": "7f9fa4f5e3d1cb188b4ec998dcb6133a", "lat": 38.93759816666667, "fusion_lon": 0.0, "fusion_lat": 0.0, "type": "electric_scooter", "name": "7f9fa4f5e3d1cb188b4ec998dcb6133a", "is_disabled": 0, "rental_uris": {"ios": "https://dc.lft.to/lastmile_qr_scan", "android": "https://dc.lft.to/lastmile_qr_scan"}, "is_reserved": 0}, {"lon": -77.03046083333334, "bike_id": "9ec66bc1aede50f899061668fd217935", "lat": 38.93713133333333, "fusion_lon": 0.0, "fusion_lat": 0.0, "type": "electric_scooter", "name": "9ec66bc1aede50f899061668fd217935", "is_disabled": 0, "rental_uris": {"ios": "https://dc.lft.to/lastmile_qr_scan", "android": "https://dc.lft.to/lastmile_qr_scan"}, "is_reserved": 0}, {"lon": -77.0741415, "bike_id": "bacf351b6c15adee65e155212ca4e283", "lat": 38.928871, "fusion_lon": 0.0, "fusion_lat": 0.0, "type": "electric_scooter", "name": "bacf351b6c15adee65e155212ca4e283", "is_disabled": 0, "rental_uris": {"ios": "https://dc.lft.to/lastmile_qr_scan", "android": "https://dc.lft.to/lastmile_qr_scan"}, "is_reserved": 0}, {"lon": -77.0342825, "bike_id": "a2374db73752ec76b05f8f48411c0479", "lat": 38.91931566666667, "fusion_lon": 0.0, "fusion_lat": 0.0, "type": "electric_scooter", "name": "a2374db73752ec76b05f8f48411c0479", "is_disabled": 0, "rental_uris": {"ios": "https://dc.lft.to/lastmile_qr_scan", "android": "https://dc.lft.to/lastmile_qr_scan"}, "is_reserved": 0}, {"lon": -77.036803, "bike_id": "716f4cd78cce756d601466d6b340fd5c", "lat": 38.908718, "fusion_lon": 0.0, "fusion_lat": 0.0, "type": "electric_scooter", "name": "716f4cd78cce756d601466d6b340fd5c", "is_disabled": 0, "rental_uris": {"ios": "https://dc.lft.to/lastmile_qr_scan", "android": "https://dc.lft.to/lastmile_qr_scan"}, "is_reserved": 0}, {"lon": -77.0326475, "bike_id": "0e2434e5e16eadd2e0b8947f80445886", "lat": 38.9369555, "fusion_lon": 0.0, "fusion_lat": 0.0, "type": "electric_scooter", "name": "0e2434e5e16eadd2e0b8947f80445886", "is_disabled": 0, "rental_uris": {"ios": "https://dc.lft.to/lastmile_qr_scan", "android": "https://dc.lft.to/lastmile_qr_scan"}, "is_reserved": 0}, {"lon": -77.006742, "bike_id": "932d41409929693f9f8ec314b25bdf49", "lat": 38.900236, "fusion_lon": 0.0, "fusion_lat": 0.0, "type": "electric_scooter", "name": "932d41409929693f9f8ec314b25bdf49", "is_disabled": 0, "rental_uris": {"ios": "https://dc.lft.to/lastmile_qr_scan", "android": "https://dc.lft.to/lastmile_qr_scan"}, "is_reserved": 0}, {"lon": -76.93755116666667, "bike_id": "2cdd02a22ee0067b06ea1c58312fdd56", "lat": 38.89052083333333, "fusion_lon": 0.0, "fusion_lat": 0.0, "type": "electric_scooter", "name": "2cdd02a22ee0067b06ea1c58312fdd56", "is_disabled": 0, "rental_uris": {"ios": "https://dc.lft.to/lastmile_qr_scan", "android": "https://dc.lft.to/lastmile_qr_scan"}, "is_reserved": 0}, {"lon": -77.052306, "bike_id": "07ba04b5ccdce4f9a66df5a4efac5d03", "lat": 38.924549, "fusion_lon": 0.0, "fusion_lat": 0.0, "type": "electric_scooter", "name": "07ba04b5ccdce4f9a66df5a4efac5d03", "is_disabled": 0, "rental_uris": {"ios": "https://dc.lft.to/lastmile_qr_scan", "android": "https://dc.lft.to/lastmile_qr_scan"}, "is_reserved": 0}, {"lon": -76.99554933333333, "bike_id": "4577991ba28724da6ef8227815e22b56", "lat": 38.86253583333333, "fusion_lon": 0.0, "fusion_lat": 0.0, "type": "electric_scooter", "name": "4577991ba28724da6ef8227815e22b56", "is_disabled": 0, "rental_uris": {"ios": "https://dc.lft.to/lastmile_qr_scan", "android": "https://dc.lft.to/lastmile_qr_scan"}, "is_reserved": 0}, {"lon": -77.03674716666667, "bike_id": "a900fdafa14af18c3b6c4baae061f8fb", "lat": 38.921263333333336, "fusion_lon": 0.0, "fusion_lat": 0.0, "type": "electric_scooter", "name": "a900fdafa14af18c3b6c4baae061f8fb", "is_disabled": 0, "rental_uris": {"ios": "https://dc.lft.to/lastmile_qr_scan", "android": "https://dc.lft.to/lastmile_qr_scan"}, "is_reserved": 0}, {"lon": -77.01629716666666, "bike_id": "c6a111aaf7cbfdd63e4457a62806681e", "lat": 38.928952, "fusion_lon": 0.0, "fusion_lat": 0.0, "type": "electric_scooter", "name": "c6a111aaf7cbfdd63e4457a62806681e", "is_disabled": 0, "rental_uris": {"ios": "https://dc.lft.to/lastmile_qr_scan", "android": "https://dc.lft.to/lastmile_qr_scan"}, "is_reserved": 0}, {"lon": -77.05807983333334, "bike_id": "0e8374caa65654c7521fd7d36e9756d8", "lat": 38.93449483333333, "fusion_lon": 0.0, "fusion_lat": 0.0, "type": "electric_scooter", "name": "0e8374caa65654c7521fd7d36e9756d8", "is_disabled": 0, "rental_uris": {"ios": "https://dc.lft.to/lastmile_qr_scan", "android": "https://dc.lft.to/lastmile_qr_scan"}, "is_reserved": 0}, {"lon": -77.04920283333334, "bike_id": "e7f615456646d0c7b967be87dce8d745", "lat": 38.903266, "fusion_lon": 0.0, "fusion_lat": 0.0, "type": "electric_scooter", "name": "e7f615456646d0c7b967be87dce8d745", "is_disabled": 0, "rental_uris": {"ios": "https://dc.lft.to/lastmile_qr_scan", "android": "https://dc.lft.to/lastmile_qr_scan"}, "is_reserved": 0}, {"lon": -77.03677166666667, "bike_id": "827923e729c8a0d4d7671bac450d66c4", "lat": 38.909597833333336, "fusion_lon": 0.0, "fusion_lat": 0.0, "type": "electric_scooter", "name": "827923e729c8a0d4d7671bac450d66c4", "is_disabled": 0, "rental_uris": {"ios": "https://dc.lft.to/lastmile_qr_scan", "android": "https://dc.lft.to/lastmile_qr_scan"}, "is_reserved": 0}, {"lon": -77.04489216666667, "bike_id": "454aaad8af4521022d655bae9f14b557", "lat": 38.9140085, "fusion_lon": 0.0, "fusion_lat": 0.0, "type": "electric_scooter", "name": "454aaad8af4521022d655bae9f14b557", "is_disabled": 0, "rental_uris": {"ios": "https://dc.lft.to/lastmile_qr_scan", "android": "https://dc.lft.to/lastmile_qr_scan"}, "is_reserved": 0}, {"lon": -76.93740183333334, "bike_id": "dbfab22c4d0f16a1d5caa9c40361c59b", "lat": 38.890138666666665, "fusion_lon": 0.0, "fusion_lat": 0.0, "type": "electric_scooter", "name": "dbfab22c4d0f16a1d5caa9c40361c59b", "is_disabled": 0, "rental_uris": {"ios": "https://dc.lft.to/lastmile_qr_scan", "android": "https://dc.lft.to/lastmile_qr_scan"}, "is_reserved": 0}, {"lon": -76.94634533333334, "bike_id": "82ba54f064025b057764ebd625497220", "lat": 38.898323833333336, "fusion_lon": 0.0, "fusion_lat": 0.0, "type": "electric_scooter", "name": "82ba54f064025b057764ebd625497220", "is_disabled": 0, "rental_uris": {"ios": "https://dc.lft.to/lastmile_qr_scan", "android": "https://dc.lft.to/lastmile_qr_scan"}, "is_reserved": 0}, {"lon": -77.03209683333333, "bike_id": "24703d5afb755514a5d131056818bfe3", "lat": 38.916795666666665, "fusion_lon": 0.0, "fusion_lat": 0.0, "type": "electric_scooter", "name": "24703d5afb755514a5d131056818bfe3", "is_disabled": 0, "rental_uris": {"ios": "https://dc.lft.to/lastmile_qr_scan", "android": "https://dc.lft.to/lastmile_qr_scan"}, "is_reserved": 0}, {"lon": -77.0352995, "bike_id": "6b2e4f0636d484b080fda1c0740c655b", "lat": 38.92337633333333, "fusion_lon": 0.0, "fusion_lat": 0.0, "type": "electric_scooter", "name": "6b2e4f0636d484b080fda1c0740c655b", "is_disabled": 0, "rental_uris": {"ios": "https://dc.lft.to/lastmile_qr_scan", "android": "https://dc.lft.to/lastmile_qr_scan"}, "is_reserved": 0}, {"lon": -77.017703, "bike_id": "2059faab2f2b0d3aa5a350e20b8a688b", "lat": 38.90371483333333, "fusion_lon": 0.0, "fusion_lat": 0.0, "type": "electric_scooter", "name": "2059faab2f2b0d3aa5a350e20b8a688b", "is_disabled": 0, "rental_uris": {"ios": "https://dc.lft.to/lastmile_qr_scan", "android": "https://dc.lft.to/lastmile_qr_scan"}, "is_reserved": 0}, {"lon": -77.033868, "bike_id": "64f03437a00657d9c61ece3becd2e4a0", "lat": 38.909798333333335, "fusion_lon": 0.0, "fusion_lat": 0.0, "type": "electric_scooter", "name": "64f03437a00657d9c61ece3becd2e4a0", "is_disabled": 0, "rental_uris": {"ios": "https://dc.lft.to/lastmile_qr_scan", "android": "https://dc.lft.to/lastmile_qr_scan"}, "is_reserved": 0}, {"lon": -77.04946716666667, "bike_id": "de8472f491a815cce35a9caa09b8e4fe", "lat": 38.908502666666664, "fusion_lon": 0.0, "fusion_lat": 0.0, "type": "electric_scooter", "name": "de8472f491a815cce35a9caa09b8e4fe", "is_disabled": 0, "rental_uris": {"ios": "https://dc.lft.to/lastmile_qr_scan", "android": "https://dc.lft.to/lastmile_qr_scan"}, "is_reserved": 0}, {"lon": -77.036777, "bike_id": "a87013da833f7933b28da51fec5c9fb1", "lat": 38.92097583333333, "fusion_lon": 0.0, "fusion_lat": 0.0, "type": "electric_scooter", "name": "a87013da833f7933b28da51fec5c9fb1", "is_disabled": 0, "rental_uris": {"ios": "https://dc.lft.to/lastmile_qr_scan", "android": "https://dc.lft.to/lastmile_qr_scan"}, "is_reserved": 0}, {"lon": -76.941059, "bike_id": "dd8a41eafc6b28aa57ee44569dc2fa7f", "lat": 38.8864135, "fusion_lon": 0.0, "fusion_lat": 0.0, "type": "electric_scooter", "name": "dd8a41eafc6b28aa57ee44569dc2fa7f", "is_disabled": 0, "rental_uris": {"ios": "https://dc.lft.to/lastmile_qr_scan", "android": "https://dc.lft.to/lastmile_qr_scan"}, "is_reserved": 0}, {"lon": -76.96530016666667, "bike_id": "0677717579d6213bf8e7005135e3239d", "lat": 38.876249333333334, "fusion_lon": 0.0, "fusion_lat": 0.0, "type": "electric_scooter", "name": "0677717579d6213bf8e7005135e3239d", "is_disabled": 0, "rental_uris": {"ios": "https://dc.lft.to/lastmile_qr_scan", "android": "https://dc.lft.to/lastmile_qr_scan"}, "is_reserved": 0}, {"lon": -77.050123, "bike_id": "b154160c6b662edc3ef6165dd89133f6", "lat": 38.898150666666666, "fusion_lon": 0.0, "fusion_lat": 0.0, "type": "electric_scooter", "name": "b154160c6b662edc3ef6165dd89133f6", "is_disabled": 0, "rental_uris": {"ios": "https://dc.lft.to/lastmile_qr_scan", "android": "https://dc.lft.to/lastmile_qr_scan"}, "is_reserved": 0}, {"lon": -76.98495266666667, "bike_id": "91c07883ac67f13c1b8423782f153457", "lat": 38.878354, "fusion_lon": 0.0, "fusion_lat": 0.0, "type": "electric_scooter", "name": "91c07883ac67f13c1b8423782f153457", "is_disabled": 0, "rental_uris": {"ios": "https://dc.lft.to/lastmile_qr_scan", "android": "https://dc.lft.to/lastmile_qr_scan"}, "is_reserved": 0}, {"lon": -77.05217083333334, "bike_id": "c3b22bc1a0efd1e85d5e1c76ed79d1dc", "lat": 38.915648, "fusion_lon": 0.0, "fusion_lat": 0.0, "type": "electric_scooter", "name": "c3b22bc1a0efd1e85d5e1c76ed79d1dc", "is_disabled": 0, "rental_uris": {"ios": "https://dc.lft.to/lastmile_qr_scan", "android": "https://dc.lft.to/lastmile_qr_scan"}, "is_reserved": 0}, {"lon": -77.06001683333334, "bike_id": "014dd6a5d77c77f92e73caba39dc1aa2", "lat": 38.905188, "fusion_lon": 0.0, "fusion_lat": 0.0, "type": "electric_scooter", "name": "014dd6a5d77c77f92e73caba39dc1aa2", "is_disabled": 0, "rental_uris": {"ios": "https://dc.lft.to/lastmile_qr_scan", "android": "https://dc.lft.to/lastmile_qr_scan"}, "is_reserved": 0}, {"lon": -77.03545716666666, "bike_id": "2d5eaead66058e6fedb7df22e80958df", "lat": 38.907682, "fusion_lon": 0.0, "fusion_lat": 0.0, "type": "electric_scooter", "name": "2d5eaead66058e6fedb7df22e80958df", "is_disabled": 0, "rental_uris": {"ios": "https://dc.lft.to/lastmile_qr_scan", "android": "https://dc.lft.to/lastmile_qr_scan"}, "is_reserved": 0}, {"lon": -77.03102133333333, "bike_id": "9120a880e9d9af6f35c4a163a4c7c9ff", "lat": 38.934528666666665, "fusion_lon": 0.0, "fusion_lat": 0.0, "type": "electric_scooter", "name": "9120a880e9d9af6f35c4a163a4c7c9ff", "is_disabled": 0, "rental_uris": {"ios": "https://dc.lft.to/lastmile_qr_scan", "android": "https://dc.lft.to/lastmile_qr_scan"}, "is_reserved": 0}, {"lon": -77.03250283333334, "bike_id": "e9088fb01904264d9090a5fdd9d38435", "lat": 38.9297195, "fusion_lon": 0.0, "fusion_lat": 0.0, "type": "electric_scooter", "name": "e9088fb01904264d9090a5fdd9d38435", "is_disabled": 0, "rental_uris": {"ios": "https://dc.lft.to/lastmile_qr_scan", "android": "https://dc.lft.to/lastmile_qr_scan"}, "is_reserved": 0}, {"lon": -76.99770833333334, "bike_id": "02a9133efb8f68792ceb5ddadaadf5e6", "lat": 38.924490666666664, "fusion_lon": 0.0, "fusion_lat": 0.0, "type": "electric_scooter", "name": "02a9133efb8f68792ceb5ddadaadf5e6", "is_disabled": 0, "rental_uris": {"ios": "https://dc.lft.to/lastmile_qr_scan", "android": "https://dc.lft.to/lastmile_qr_scan"}, "is_reserved": 0}, {"lon": -77.02314766666667, "bike_id": "c83fc562530791e2c62c9c870d57e219", "lat": 38.909547333333336, "fusion_lon": 0.0, "fusion_lat": 0.0, "type": "electric_scooter", "name": "c83fc562530791e2c62c9c870d57e219", "is_disabled": 0, "rental_uris": {"ios": "https://dc.lft.to/lastmile_qr_scan", "android": "https://dc.lft.to/lastmile_qr_scan"}, "is_reserved": 0}, {"lon": -77.05863316666667, "bike_id": "1b59516306730af78156707ddf53544a", "lat": 38.936023666666664, "fusion_lon": 0.0, "fusion_lat": 0.0, "type": "electric_scooter", "name": "1b59516306730af78156707ddf53544a", "is_disabled": 0, "rental_uris": {"ios": "https://dc.lft.to/lastmile_qr_scan", "android": "https://dc.lft.to/lastmile_qr_scan"}, "is_reserved": 0}, {"lon": -77.0299015, "bike_id": "0125af2df054d9594812ba4657a121a8", "lat": 38.974409666666666, "fusion_lon": 0.0, "fusion_lat": 0.0, "type": "electric_bike", "name": "0125af2df054d9594812ba4657a121a8", "is_disabled": 0, "rental_uris": {"ios": "https://dc.lft.to/lastmile_qr_scan", "android": "https://dc.lft.to/lastmile_qr_scan"}, "is_reserved": 0}, {"lon": -77.05034733333333, "bike_id": "f996f38e3c4a6440c5e3c068346c577b", "lat": 38.89767966666667, "fusion_lon": 0.0, "fusion_lat": 0.0, "type": "electric_scooter", "name": "f996f38e3c4a6440c5e3c068346c577b", "is_disabled": 0, "rental_uris": {"ios": "https://dc.lft.to/lastmile_qr_scan", "android": "https://dc.lft.to/lastmile_qr_scan"}, "is_reserved": 0}, {"lon": -77.04579, "bike_id": "dbcc968a6baee96dc14ad11cfdc58e9e", "lat": 38.913130333333335, "fusion_lon": 0.0, "fusion_lat": 0.0, "type": "electric_scooter", "name": "dbcc968a6baee96dc14ad11cfdc58e9e", "is_disabled": 0, "rental_uris": {"ios": "https://dc.lft.to/lastmile_qr_scan", "android": "https://dc.lft.to/lastmile_qr_scan"}, "is_reserved": 0}, {"lon": -77.03075633333333, "bike_id": "56263e97858409929e609e38d1631b76", "lat": 38.885879, "fusion_lon": 0.0, "fusion_lat": 0.0, "type": "electric_scooter", "name": "56263e97858409929e609e38d1631b76", "is_disabled": 0, "rental_uris": {"ios": "https://dc.lft.to/lastmile_qr_scan", "android": "https://dc.lft.to/lastmile_qr_scan"}, "is_reserved": 0}, {"lon": -76.98349333333333, "bike_id": "e81930603ba24bd76ee15194a7ae00e6", "lat": 38.9028825, "fusion_lon": 0.0, "fusion_lat": 0.0, "type": "electric_scooter", "name": "e81930603ba24bd76ee15194a7ae00e6", "is_disabled": 0, "rental_uris": {"ios": "https://dc.lft.to/lastmile_qr_scan", "android": "https://dc.lft.to/lastmile_qr_scan"}, "is_reserved": 0}, {"lon": -77.011277, "bike_id": "74fddc1c544bc810da9e9ee14e7cf533", "lat": 38.86823966666667, "fusion_lon": 0.0, "fusion_lat": 0.0, "type": "electric_scooter", "name": "74fddc1c544bc810da9e9ee14e7cf533", "is_disabled": 0, "rental_uris": {"ios": "https://dc.lft.to/lastmile_qr_scan", "android": "https://dc.lft.to/lastmile_qr_scan"}, "is_reserved": 0}, {"lon": -77.05843283333333, "bike_id": "faa5d51c764d996d4e99b399f7690119", "lat": 38.905255333333336, "fusion_lon": 0.0, "fusion_lat": 0.0, "type": "electric_scooter", "name": "faa5d51c764d996d4e99b399f7690119", "is_disabled": 0, "rental_uris": {"ios": "https://dc.lft.to/lastmile_qr_scan", "android": "https://dc.lft.to/lastmile_qr_scan"}, "is_reserved": 0}, {"lon": -76.8953805, "bike_id": "ccd67a415c168851a94dad4637769871", "lat": 38.94555533333333, "fusion_lon": 0.0, "fusion_lat": 0.0, "type": "electric_bike", "name": "ccd67a415c168851a94dad4637769871", "is_disabled": 0, "rental_uris": {"ios": "https://dc.lft.to/lastmile_qr_scan", "android": "https://dc.lft.to/lastmile_qr_scan"}, "is_reserved": 0}, {"lon": -77.04383566666667, "bike_id": "2fee1e2ac4fc7cea1487d5f29bb13e00", "lat": 38.92067216666667, "fusion_lon": 0.0, "fusion_lat": 0.0, "type": "electric_scooter", "name": "2fee1e2ac4fc7cea1487d5f29bb13e00", "is_disabled": 0, "rental_uris": {"ios": "https://dc.lft.to/lastmile_qr_scan", "android": "https://dc.lft.to/lastmile_qr_scan"}, "is_reserved": 0}, {"lon": -77.04013233333333, "bike_id": "21fd7d520a792033fd5be1ee6fc64725", "lat": 38.91005633333333, "fusion_lon": 0.0, "fusion_lat": 0.0, "type": "electric_scooter", "name": "21fd7d520a792033fd5be1ee6fc64725", "is_disabled": 0, "rental_uris": {"ios": "https://dc.lft.to/lastmile_qr_scan", "android": "https://dc.lft.to/lastmile_qr_scan"}, "is_reserved": 0}, {"lon": -77.02190766666666, "bike_id": "ad775f8ef669aed6eb13131a278031a8", "lat": 38.91124933333333, "fusion_lon": 0.0, "fusion_lat": 0.0, "type": "electric_scooter", "name": "ad775f8ef669aed6eb13131a278031a8", "is_disabled": 0, "rental_uris": {"ios": "https://dc.lft.to/lastmile_qr_scan", "android": "https://dc.lft.to/lastmile_qr_scan"}, "is_reserved": 0}, {"lon": -77.04483366666666, "bike_id": "40c0ea68b020eb14c8adf3e2ef07f81d", "lat": 38.9161835, "fusion_lon": 0.0, "fusion_lat": 0.0, "type": "electric_scooter", "name": "40c0ea68b020eb14c8adf3e2ef07f81d", "is_disabled": 0, "rental_uris": {"ios": "https://dc.lft.to/lastmile_qr_scan", "android": "https://dc.lft.to/lastmile_qr_scan"}, "is_reserved": 0}, {"lon": -77.00113816666666, "bike_id": "00bedbc63c6dec8d1b51872100aca82d", "lat": 38.9170795, "fusion_lon": 0.0, "fusion_lat": 0.0, "type": "electric_scooter", "name": "00bedbc63c6dec8d1b51872100aca82d", "is_disabled": 0, "rental_uris": {"ios": "https://dc.lft.to/lastmile_qr_scan", "android": "https://dc.lft.to/lastmile_qr_scan"}, "is_reserved": 0}, {"lon": -77.0260715, "bike_id": "36b4fd061d3710362f64ab89249b5c2a", "lat": 38.901303666666664, "fusion_lon": 0.0, "fusion_lat": 0.0, "type": "electric_scooter", "name": "36b4fd061d3710362f64ab89249b5c2a", "is_disabled": 0, "rental_uris": {"ios": "https://dc.lft.to/lastmile_qr_scan", "android": "https://dc.lft.to/lastmile_qr_scan"}, "is_reserved": 0}, {"lon": -77.0257385, "bike_id": "d3f0b94e8e43c55d194511e517149906", "lat": 38.9261065, "fusion_lon": 0.0, "fusion_lat": 0.0, "type": "electric_scooter", "name": "d3f0b94e8e43c55d194511e517149906", "is_disabled": 0, "rental_uris": {"ios": "https://dc.lft.to/lastmile_qr_scan", "android": "https://dc.lft.to/lastmile_qr_scan"}, "is_reserved": 0}, {"lon": -77.05174883333333, "bike_id": "5c7f6e6b8f6af7a37cc4ae783a873641", "lat": 38.9238075, "fusion_lon": 0.0, "fusion_lat": 0.0, "type": "electric_scooter", "name": "5c7f6e6b8f6af7a37cc4ae783a873641", "is_disabled": 0, "rental_uris": {"ios": "https://dc.lft.to/lastmile_qr_scan", "android": "https://dc.lft.to/lastmile_qr_scan"}, "is_reserved": 0}, {"lon": -77.0261725, "bike_id": "f70f295ecd9933cb745253924bc5c783", "lat": 38.914162833333336, "fusion_lon": 0.0, "fusion_lat": 0.0, "type": "electric_scooter", "name": "f70f295ecd9933cb745253924bc5c783", "is_disabled": 0, "rental_uris": {"ios": "https://dc.lft.to/lastmile_qr_scan", "android": "https://dc.lft.to/lastmile_qr_scan"}, "is_reserved": 0}, {"lon": -77.03765533333333, "bike_id": "4b9a78697cdea2653132129f13b3ce61", "lat": 38.907773666666664, "fusion_lon": 0.0, "fusion_lat": 0.0, "type": "electric_scooter", "name": "4b9a78697cdea2653132129f13b3ce61", "is_disabled": 0, "rental_uris": {"ios": "https://dc.lft.to/lastmile_qr_scan", "android": "https://dc.lft.to/lastmile_qr_scan"}, "is_reserved": 0}, {"lon": -77.0218015, "bike_id": "e22d1ceb20e1d7f5cfe267c5efad3494", "lat": 38.91484766666667, "fusion_lon": 0.0, "fusion_lat": 0.0, "type": "electric_scooter", "name": "e22d1ceb20e1d7f5cfe267c5efad3494", "is_disabled": 0, "rental_uris": {"ios": "https://dc.lft.to/lastmile_qr_scan", "android": "https://dc.lft.to/lastmile_qr_scan"}, "is_reserved": 0}, {"lon": -77.033326, "bike_id": "bfdbbd941769156be3f20726d33d7834", "lat": 38.90145016666666, "fusion_lon": 0.0, "fusion_lat": 0.0, "type": "electric_scooter", "name": "bfdbbd941769156be3f20726d33d7834", "is_disabled": 0, "rental_uris": {"ios": "https://dc.lft.to/lastmile_qr_scan", "android": "https://dc.lft.to/lastmile_qr_scan"}, "is_reserved": 0}, {"lon": -76.97804633333334, "bike_id": "02cc134692b2f7819ab6f34d457115e5", "lat": 38.90674383333333, "fusion_lon": 0.0, "fusion_lat": 0.0, "type": "electric_scooter", "name": "02cc134692b2f7819ab6f34d457115e5", "is_disabled": 0, "rental_uris": {"ios": "https://dc.lft.to/lastmile_qr_scan", "android": "https://dc.lft.to/lastmile_qr_scan"}, "is_reserved": 0}, {"lon": -77.03332616666667, "bike_id": "64e608a40086d78f8872f28267c508d6", "lat": 38.90145733333333, "fusion_lon": 0.0, "fusion_lat": 0.0, "type": "electric_scooter", "name": "64e608a40086d78f8872f28267c508d6", "is_disabled": 0, "rental_uris": {"ios": "https://dc.lft.to/lastmile_qr_scan", "android": "https://dc.lft.to/lastmile_qr_scan"}, "is_reserved": 0}, {"lon": -77.0436005, "bike_id": "8c2d5a798cb79ababdd3e07d452284c5", "lat": 38.90433, "fusion_lon": 0.0, "fusion_lat": 0.0, "type": "electric_scooter", "name": "8c2d5a798cb79ababdd3e07d452284c5", "is_disabled": 0, "rental_uris": {"ios": "https://dc.lft.to/lastmile_qr_scan", "android": "https://dc.lft.to/lastmile_qr_scan"}, "is_reserved": 0}, {"lon": -77.0273145, "bike_id": "901408fbfc5ea5d386080aaffa220311", "lat": 38.94086716666666, "fusion_lon": 0.0, "fusion_lat": 0.0, "type": "electric_scooter", "name": "901408fbfc5ea5d386080aaffa220311", "is_disabled": 0, "rental_uris": {"ios": "https://dc.lft.to/lastmile_qr_scan", "android": "https://dc.lft.to/lastmile_qr_scan"}, "is_reserved": 0}, {"lon": -77.02609933333333, "bike_id": "33ff5b2d8d53107150996b896ed9f036", "lat": 38.88378083333333, "fusion_lon": 0.0, "fusion_lat": 0.0, "type": "electric_scooter", "name": "33ff5b2d8d53107150996b896ed9f036", "is_disabled": 0, "rental_uris": {"ios": "https://dc.lft.to/lastmile_qr_scan", "android": "https://dc.lft.to/lastmile_qr_scan"}, "is_reserved": 0}, {"lon": -77.12975216666666, "bike_id": "50a4aba0ecf01288c39e839d68d830c0", "lat": 38.7998565, "fusion_lon": 0.0, "fusion_lat": 0.0, "type": "electric_bike", "name": "50a4aba0ecf01288c39e839d68d830c0", "is_disabled": 0, "rental_uris": {"ios": "https://dc.lft.to/lastmile_qr_scan", "android": "https://dc.lft.to/lastmile_qr_scan"}, "is_reserved": 0}, {"lon": -77.02594016666667, "bike_id": "e951bb940e483af48667626b7d6a3233", "lat": 38.918483333333334, "fusion_lon": 0.0, "fusion_lat": 0.0, "type": "electric_scooter", "name": "e951bb940e483af48667626b7d6a3233", "is_disabled": 0, "rental_uris": {"ios": "https://dc.lft.to/lastmile_qr_scan", "android": "https://dc.lft.to/lastmile_qr_scan"}, "is_reserved": 0}, {"lon": -77.00198966666666, "bike_id": "3be5ced63d323302fa163e7725fcb4f8", "lat": 38.9023705, "fusion_lon": 0.0, "fusion_lat": 0.0, "type": "electric_scooter", "name": "3be5ced63d323302fa163e7725fcb4f8", "is_disabled": 0, "rental_uris": {"ios": "https://dc.lft.to/lastmile_qr_scan", "android": "https://dc.lft.to/lastmile_qr_scan"}, "is_reserved": 0}, {"lon": -77.0067995, "bike_id": "6fb46217b920a5174fc87d002d34238f", "lat": 38.900312, "fusion_lon": 0.0, "fusion_lat": 0.0, "type": "electric_scooter", "name": "6fb46217b920a5174fc87d002d34238f", "is_disabled": 0, "rental_uris": {"ios": "https://dc.lft.to/lastmile_qr_scan", "android": "https://dc.lft.to/lastmile_qr_scan"}, "is_reserved": 0}, {"lon": -77.0220575, "bike_id": "19d1d2de59fb5ff196e2c631d3100fcc", "lat": 38.91644683333333, "fusion_lon": 0.0, "fusion_lat": 0.0, "type": "electric_scooter", "name": "19d1d2de59fb5ff196e2c631d3100fcc", "is_disabled": 0, "rental_uris": {"ios": "https://dc.lft.to/lastmile_qr_scan", "android": "https://dc.lft.to/lastmile_qr_scan"}, "is_reserved": 0}, {"lon": -77.05466783333334, "bike_id": "ccd8acdde0d074cce8ae53cbe806de8b", "lat": 38.85538016666667, "fusion_lon": 0.0, "fusion_lat": 0.0, "type": "electric_bike", "name": "ccd8acdde0d074cce8ae53cbe806de8b", "is_disabled": 0, "rental_uris": {"ios": "https://dc.lft.to/lastmile_qr_scan", "android": "https://dc.lft.to/lastmile_qr_scan"}, "is_reserved": 0}, {"lon": -77.01430816666667, "bike_id": "030e9d1c9942d7b9da363345c84db259", "lat": 38.9721555, "fusion_lon": 0.0, "fusion_lat": 0.0, "type": "electric_bike", "name": "030e9d1c9942d7b9da363345c84db259", "is_disabled": 0, "rental_uris": {"ios": "https://dc.lft.to/lastmile_qr_scan", "android": "https://dc.lft.to/lastmile_qr_scan"}, "is_reserved": 0}, {"lon": -77.02876183333333, "bike_id": "2f412a16371f195cf598297e4bbcc743", "lat": 38.885023, "fusion_lon": 0.0, "fusion_lat": 0.0, "type": "electric_scooter", "name": "2f412a16371f195cf598297e4bbcc743", "is_disabled": 0, "rental_uris": {"ios": "https://dc.lft.to/lastmile_qr_scan", "android": "https://dc.lft.to/lastmile_qr_scan"}, "is_reserved": 0}, {"lon": -76.976222, "bike_id": "4464aa1c49395ab57dfeb69b3a2c4f04", "lat": 38.926524666666666, "fusion_lon": 0.0, "fusion_lat": 0.0, "type": "electric_scooter", "name": "4464aa1c49395ab57dfeb69b3a2c4f04", "is_disabled": 0, "rental_uris": {"ios": "https://dc.lft.to/lastmile_qr_scan", "android": "https://dc.lft.to/lastmile_qr_scan"}, "is_reserved": 0}, {"lon": -77.04357033333334, "bike_id": "f4b070f3113d711c514c0fc1ca8f6548", "lat": 38.9214345, "fusion_lon": 0.0, "fusion_lat": 0.0, "type": "electric_scooter", "name": "f4b070f3113d711c514c0fc1ca8f6548", "is_disabled": 0, "rental_uris": {"ios": "https://dc.lft.to/lastmile_qr_scan", "android": "https://dc.lft.to/lastmile_qr_scan"}, "is_reserved": 0}, {"lon": -77.0187135, "bike_id": "73249eea693335fdfd7066b7710c38ed", "lat": 38.951496666666664, "fusion_lon": 0.0, "fusion_lat": 0.0, "type": "electric_scooter", "name": "73249eea693335fdfd7066b7710c38ed", "is_disabled": 0, "rental_uris": {"ios": "https://dc.lft.to/lastmile_qr_scan", "android": "https://dc.lft.to/lastmile_qr_scan"}, "is_reserved": 0}, {"lon": -77.0393075, "bike_id": "b8ba0c2506faaac1bded7a5043015997", "lat": 38.92793983333333, "fusion_lon": 0.0, "fusion_lat": 0.0, "type": "electric_scooter", "name": "b8ba0c2506faaac1bded7a5043015997", "is_disabled": 0, "rental_uris": {"ios": "https://dc.lft.to/lastmile_qr_scan", "android": "https://dc.lft.to/lastmile_qr_scan"}, "is_reserved": 0}, {"lon": -77.03299883333334, "bike_id": "d43f86ee8dc97a3da6f1d7bd8a4694fa", "lat": 38.9033915, "fusion_lon": 0.0, "fusion_lat": 0.0, "type": "electric_scooter", "name": "d43f86ee8dc97a3da6f1d7bd8a4694fa", "is_disabled": 0, "rental_uris": {"ios": "https://dc.lft.to/lastmile_qr_scan", "android": "https://dc.lft.to/lastmile_qr_scan"}, "is_reserved": 0}, {"lon": -77.007035, "bike_id": "2b42137642fc8970e43fe0c7dfa1d877", "lat": 38.8999755, "fusion_lon": 0.0, "fusion_lat": 0.0, "type": "electric_scooter", "name": "2b42137642fc8970e43fe0c7dfa1d877", "is_disabled": 0, "rental_uris": {"ios": "https://dc.lft.to/lastmile_qr_scan", "android": "https://dc.lft.to/lastmile_qr_scan"}, "is_reserved": 0}, {"lon": -77.03665216666667, "bike_id": "7018e488761372e2d0e1d8c396cfc620", "lat": 38.91749983333333, "fusion_lon": 0.0, "fusion_lat": 0.0, "type": "electric_scooter", "name": "7018e488761372e2d0e1d8c396cfc620", "is_disabled": 0, "rental_uris": {"ios": "https://dc.lft.to/lastmile_qr_scan", "android": "https://dc.lft.to/lastmile_qr_scan"}, "is_reserved": 0}, {"lon": -76.954763, "bike_id": "41cb474d90009a2deae2b5f23507b2e8", "lat": 38.88468666666667, "fusion_lon": 0.0, "fusion_lat": 0.0, "type": "electric_scooter", "name": "41cb474d90009a2deae2b5f23507b2e8", "is_disabled": 0, "rental_uris": {"ios": "https://dc.lft.to/lastmile_qr_scan", "android": "https://dc.lft.to/lastmile_qr_scan"}, "is_reserved": 0}, {"lon": -77.026856, "bike_id": "e5e2a9df6b7ea3f4934d9b1f3b64ed93", "lat": 38.92776033333333, "fusion_lon": 0.0, "fusion_lat": 0.0, "type": "electric_scooter", "name": "e5e2a9df6b7ea3f4934d9b1f3b64ed93", "is_disabled": 0, "rental_uris": {"ios": "https://dc.lft.to/lastmile_qr_scan", "android": "https://dc.lft.to/lastmile_qr_scan"}, "is_reserved": 0}, {"lon": -76.99485116666666, "bike_id": "6e8162afc976fe057d5216f46ff14528", "lat": 38.9156915, "fusion_lon": 0.0, "fusion_lat": 0.0, "type": "electric_scooter", "name": "6e8162afc976fe057d5216f46ff14528", "is_disabled": 0, "rental_uris": {"ios": "https://dc.lft.to/lastmile_qr_scan", "android": "https://dc.lft.to/lastmile_qr_scan"}, "is_reserved": 0}, {"lon": -76.9859595, "bike_id": "6d0c26a781ef4802e8d2bbcaff18b4c0", "lat": 38.908104, "fusion_lon": 0.0, "fusion_lat": 0.0, "type": "electric_scooter", "name": "6d0c26a781ef4802e8d2bbcaff18b4c0", "is_disabled": 0, "rental_uris": {"ios": "https://dc.lft.to/lastmile_qr_scan", "android": "https://dc.lft.to/lastmile_qr_scan"}, "is_reserved": 0}, {"lon": -77.1009535, "bike_id": "f4f50630a3bd9a91c720e984da11964c", "lat": 38.95956266666666, "fusion_lon": 0.0, "fusion_lat": 0.0, "type": "electric_bike", "name": "f4f50630a3bd9a91c720e984da11964c", "is_disabled": 0, "rental_uris": {"ios": "https://dc.lft.to/lastmile_qr_scan", "android": "https://dc.lft.to/lastmile_qr_scan"}, "is_reserved": 0}, {"lon": -76.982616, "bike_id": "c2dbd333b9f8e1b5f62411812c17eb8d", "lat": 38.908568, "fusion_lon": 0.0, "fusion_lat": 0.0, "type": "electric_scooter", "name": "c2dbd333b9f8e1b5f62411812c17eb8d", "is_disabled": 0, "rental_uris": {"ios": "https://dc.lft.to/lastmile_qr_scan", "android": "https://dc.lft.to/lastmile_qr_scan"}, "is_reserved": 0}, {"lon": -77.0283205, "bike_id": "d3ce69e38d8d292e6bac08b6a48f6445", "lat": 38.906165666666666, "fusion_lon": 0.0, "fusion_lat": 0.0, "type": "electric_scooter", "name": "d3ce69e38d8d292e6bac08b6a48f6445", "is_disabled": 0, "rental_uris": {"ios": "https://dc.lft.to/lastmile_qr_scan", "android": "https://dc.lft.to/lastmile_qr_scan"}, "is_reserved": 0}, {"lon": -77.00792016666666, "bike_id": "7481439ebafb31f810f507a63eb90f3c", "lat": 38.896640166666664, "fusion_lon": 0.0, "fusion_lat": 0.0, "type": "electric_scooter", "name": "7481439ebafb31f810f507a63eb90f3c", "is_disabled": 0, "rental_uris": {"ios": "https://dc.lft.to/lastmile_qr_scan", "android": "https://dc.lft.to/lastmile_qr_scan"}, "is_reserved": 0}, {"lon": -76.99405933333334, "bike_id": "e167748d7309fd0898cfe44e0cc0979a", "lat": 38.8314005, "fusion_lon": 0.0, "fusion_lat": 0.0, "type": "electric_bike", "name": "e167748d7309fd0898cfe44e0cc0979a", "is_disabled": 0, "rental_uris": {"ios": "https://dc.lft.to/lastmile_qr_scan", "android": "https://dc.lft.to/lastmile_qr_scan"}, "is_reserved": 0}, {"lon": -76.98898616666666, "bike_id": "5f62a811a0c6c3c986253838ec5b59f6", "lat": 38.913423333333334, "fusion_lon": 0.0, "fusion_lat": 0.0, "type": "electric_scooter", "name": "5f62a811a0c6c3c986253838ec5b59f6", "is_disabled": 0, "rental_uris": {"ios": "https://dc.lft.to/lastmile_qr_scan", "android": "https://dc.lft.to/lastmile_qr_scan"}, "is_reserved": 0}, {"lon": -76.933716, "bike_id": "2504a9e4bf5e41b85ecda7b626ad9514", "lat": 38.89910666666667, "fusion_lon": 0.0, "fusion_lat": 0.0, "type": "electric_scooter", "name": "2504a9e4bf5e41b85ecda7b626ad9514", "is_disabled": 0, "rental_uris": {"ios": "https://dc.lft.to/lastmile_qr_scan", "android": "https://dc.lft.to/lastmile_qr_scan"}, "is_reserved": 0}, {"lon": -77.03454366666666, "bike_id": "1cb384dd3ee0b5a21e9fbb70d2a43531", "lat": 38.908096, "fusion_lon": 0.0, "fusion_lat": 0.0, "type": "electric_scooter", "name": "1cb384dd3ee0b5a21e9fbb70d2a43531", "is_disabled": 0, "rental_uris": {"ios": "https://dc.lft.to/lastmile_qr_scan", "android": "https://dc.lft.to/lastmile_qr_scan"}, "is_reserved": 0}, {"lon": -76.95672983333333, "bike_id": "50c180292fc66e7fd233709a1af63b3a", "lat": 38.94662666666667, "fusion_lon": 0.0, "fusion_lat": 0.0, "type": "electric_bike", "name": "50c180292fc66e7fd233709a1af63b3a", "is_disabled": 0, "rental_uris": {"ios": "https://dc.lft.to/lastmile_qr_scan", "android": "https://dc.lft.to/lastmile_qr_scan"}, "is_reserved": 0}, {"lon": -76.98884466666667, "bike_id": "78e5f312e3e975bb2cd2b290176be8d7", "lat": 38.86649466666667, "fusion_lon": 0.0, "fusion_lat": 0.0, "type": "electric_scooter", "name": "78e5f312e3e975bb2cd2b290176be8d7", "is_disabled": 0, "rental_uris": {"ios": "https://dc.lft.to/lastmile_qr_scan", "android": "https://dc.lft.to/lastmile_qr_scan"}, "is_reserved": 0}, {"lon": -77.01157383333333, "bike_id": "252d524445892a87a2a380206a39ce29", "lat": 38.9140225, "fusion_lon": 0.0, "fusion_lat": 0.0, "type": "electric_scooter", "name": "252d524445892a87a2a380206a39ce29", "is_disabled": 0, "rental_uris": {"ios": "https://dc.lft.to/lastmile_qr_scan", "android": "https://dc.lft.to/lastmile_qr_scan"}, "is_reserved": 0}, {"lon": -76.98183866666666, "bike_id": "c03de5fdd197723e0b04fc8ed45fef78", "lat": 38.92604766666667, "fusion_lon": 0.0, "fusion_lat": 0.0, "type": "electric_scooter", "name": "c03de5fdd197723e0b04fc8ed45fef78", "is_disabled": 0, "rental_uris": {"ios": "https://dc.lft.to/lastmile_qr_scan", "android": "https://dc.lft.to/lastmile_qr_scan"}, "is_reserved": 0}, {"lon": -77.0250405, "bike_id": "1c3b8bf798a72555d25f9a9d79841de2", "lat": 38.9198375, "fusion_lon": 0.0, "fusion_lat": 0.0, "type": "electric_scooter", "name": "1c3b8bf798a72555d25f9a9d79841de2", "is_disabled": 0, "rental_uris": {"ios": "https://dc.lft.to/lastmile_qr_scan", "android": "https://dc.lft.to/lastmile_qr_scan"}, "is_reserved": 0}, {"lon": -77.01994216666667, "bike_id": "c2f15c426ceb85e36132cf44195a82fc", "lat": 38.930978, "fusion_lon": 0.0, "fusion_lat": 0.0, "type": "electric_scooter", "name": "c2f15c426ceb85e36132cf44195a82fc", "is_disabled": 0, "rental_uris": {"ios": "https://dc.lft.to/lastmile_qr_scan", "android": "https://dc.lft.to/lastmile_qr_scan"}, "is_reserved": 0}, {"lon": -77.014898, "bike_id": "8283458e89a25f6944e1998b46d2752f", "lat": 38.91768966666667, "fusion_lon": 0.0, "fusion_lat": 0.0, "type": "electric_scooter", "name": "8283458e89a25f6944e1998b46d2752f", "is_disabled": 0, "rental_uris": {"ios": "https://dc.lft.to/lastmile_qr_scan", "android": "https://dc.lft.to/lastmile_qr_scan"}, "is_reserved": 0}, {"lon": -77.029006, "bike_id": "1d7640bc234b46fec30236534078d195", "lat": 38.928161, "fusion_lon": 0.0, "fusion_lat": 0.0, "type": "electric_scooter", "name": "1d7640bc234b46fec30236534078d195", "is_disabled": 0, "rental_uris": {"ios": "https://dc.lft.to/lastmile_qr_scan", "android": "https://dc.lft.to/lastmile_qr_scan"}, "is_reserved": 0}, {"lon": -77.0386, "bike_id": "4d43e4b0d69d9a95fd4908c2352dc1b7", "lat": 38.93225533333333, "fusion_lon": 0.0, "fusion_lat": 0.0, "type": "electric_scooter", "name": "4d43e4b0d69d9a95fd4908c2352dc1b7", "is_disabled": 0, "rental_uris": {"ios": "https://dc.lft.to/lastmile_qr_scan", "android": "https://dc.lft.to/lastmile_qr_scan"}, "is_reserved": 0}, {"lon": -76.998815, "bike_id": "04cd5ceebefbb55a8ef9772b95023075", "lat": 38.901296333333335, "fusion_lon": 0.0, "fusion_lat": 0.0, "type": "electric_scooter", "name": "04cd5ceebefbb55a8ef9772b95023075", "is_disabled": 0, "rental_uris": {"ios": "https://dc.lft.to/lastmile_qr_scan", "android": "https://dc.lft.to/lastmile_qr_scan"}, "is_reserved": 0}, {"lon": -77.04596683333334, "bike_id": "4cf2134eedb9eb4eaf9cadb20a695bf2", "lat": 38.9132745, "fusion_lon": 0.0, "fusion_lat": 0.0, "type": "electric_scooter", "name": "4cf2134eedb9eb4eaf9cadb20a695bf2", "is_disabled": 0, "rental_uris": {"ios": "https://dc.lft.to/lastmile_qr_scan", "android": "https://dc.lft.to/lastmile_qr_scan"}, "is_reserved": 0}, {"lon": -77.03849383333333, "bike_id": "6e62c362b3b6fbe2d1ce5b8f5de7ff71", "lat": 38.9097875, "fusion_lon": 0.0, "fusion_lat": 0.0, "type": "electric_scooter", "name": "6e62c362b3b6fbe2d1ce5b8f5de7ff71", "is_disabled": 0, "rental_uris": {"ios": "https://dc.lft.to/lastmile_qr_scan", "android": "https://dc.lft.to/lastmile_qr_scan"}, "is_reserved": 0}, {"lon": -77.0078425, "bike_id": "24d94b1204e478c1851a66a20caa7e4b", "lat": 38.897315666666664, "fusion_lon": 0.0, "fusion_lat": 0.0, "type": "electric_scooter", "name": "24d94b1204e478c1851a66a20caa7e4b", "is_disabled": 0, "rental_uris": {"ios": "https://dc.lft.to/lastmile_qr_scan", "android": "https://dc.lft.to/lastmile_qr_scan"}, "is_reserved": 0}, {"lon": -77.0770245, "bike_id": "9aa0b79e630d9856fc41617cfa816a95", "lat": 38.88861333333333, "fusion_lon": 0.0, "fusion_lat": 0.0, "type": "electric_bike", "name": "9aa0b79e630d9856fc41617cfa816a95", "is_disabled": 0, "rental_uris": {"ios": "https://dc.lft.to/lastmile_qr_scan", "android": "https://dc.lft.to/lastmile_qr_scan"}, "is_reserved": 0}, {"lon": -77.04362383333333, "bike_id": "5cd3c7014e2880795cdb70c8a25d3b1f", "lat": 38.906248166666664, "fusion_lon": 0.0, "fusion_lat": 0.0, "type": "electric_scooter", "name": "5cd3c7014e2880795cdb70c8a25d3b1f", "is_disabled": 0, "rental_uris": {"ios": "https://dc.lft.to/lastmile_qr_scan", "android": "https://dc.lft.to/lastmile_qr_scan"}, "is_reserved": 0}, {"lon": -77.05630566666666, "bike_id": "75b91c30f08c09ad428ca59017b12c95", "lat": 38.96070516666666, "fusion_lon": 0.0, "fusion_lat": 0.0, "type": "electric_scooter", "name": "75b91c30f08c09ad428ca59017b12c95", "is_disabled": 0, "rental_uris": {"ios": "https://dc.lft.to/lastmile_qr_scan", "android": "https://dc.lft.to/lastmile_qr_scan"}, "is_reserved": 0}, {"lon": -77.13106883333333, "bike_id": "92eaa2b86200d6e5678fe7b45096b658", "lat": 39.024332, "fusion_lon": 0.0, "fusion_lat": 0.0, "type": "electric_bike", "name": "92eaa2b86200d6e5678fe7b45096b658", "is_disabled": 0, "rental_uris": {"ios": "https://dc.lft.to/lastmile_qr_scan", "android": "https://dc.lft.to/lastmile_qr_scan"}, "is_reserved": 0}, {"lon": -77.00223116666666, "bike_id": "27cb177b382f1d3157b2deab4adbcebc", "lat": 38.900121, "fusion_lon": 0.0, "fusion_lat": 0.0, "type": "electric_scooter", "name": "27cb177b382f1d3157b2deab4adbcebc", "is_disabled": 0, "rental_uris": {"ios": "https://dc.lft.to/lastmile_qr_scan", "android": "https://dc.lft.to/lastmile_qr_scan"}, "is_reserved": 0}, {"lon": -77.03207, "bike_id": "003029c51cc4d844bdc5e0d68c35d496", "lat": 38.91819533333334, "fusion_lon": 0.0, "fusion_lat": 0.0, "type": "electric_scooter", "name": "003029c51cc4d844bdc5e0d68c35d496", "is_disabled": 0, "rental_uris": {"ios": "https://dc.lft.to/lastmile_qr_scan", "android": "https://dc.lft.to/lastmile_qr_scan"}, "is_reserved": 0}, {"lon": -76.98818783333333, "bike_id": "69f8d78316f0280fa5b97f03d844bce1", "lat": 38.90048316666667, "fusion_lon": 0.0, "fusion_lat": 0.0, "type": "electric_scooter", "name": "69f8d78316f0280fa5b97f03d844bce1", "is_disabled": 0, "rental_uris": {"ios": "https://dc.lft.to/lastmile_qr_scan", "android": "https://dc.lft.to/lastmile_qr_scan"}, "is_reserved": 0}, {"lon": -77.034695, "bike_id": "ca0882b3b3a87c61fa4a8133746feaa7", "lat": 38.92153116666667, "fusion_lon": 0.0, "fusion_lat": 0.0, "type": "electric_scooter", "name": "ca0882b3b3a87c61fa4a8133746feaa7", "is_disabled": 0, "rental_uris": {"ios": "https://dc.lft.to/lastmile_qr_scan", "android": "https://dc.lft.to/lastmile_qr_scan"}, "is_reserved": 0}, {"lon": -77.0322035, "bike_id": "56447174673372ab9ce9c75563a8dde4", "lat": 38.915526666666665, "fusion_lon": 0.0, "fusion_lat": 0.0, "type": "electric_scooter", "name": "56447174673372ab9ce9c75563a8dde4", "is_disabled": 0, "rental_uris": {"ios": "https://dc.lft.to/lastmile_qr_scan", "android": "https://dc.lft.to/lastmile_qr_scan"}, "is_reserved": 0}, {"lon": -77.00344433333333, "bike_id": "b5c197771125da4272cf4f892097173b", "lat": 38.88717616666667, "fusion_lon": 0.0, "fusion_lat": 0.0, "type": "electric_scooter", "name": "b5c197771125da4272cf4f892097173b", "is_disabled": 0, "rental_uris": {"ios": "https://dc.lft.to/lastmile_qr_scan", "android": "https://dc.lft.to/lastmile_qr_scan"}, "is_reserved": 0}, {"lon": -77.03550483333333, "bike_id": "b1598f38e0bf24de89c3feeb5185e2b4", "lat": 38.92396633333333, "fusion_lon": 0.0, "fusion_lat": 0.0, "type": "electric_scooter", "name": "b1598f38e0bf24de89c3feeb5185e2b4", "is_disabled": 0, "rental_uris": {"ios": "https://dc.lft.to/lastmile_qr_scan", "android": "https://dc.lft.to/lastmile_qr_scan"}, "is_reserved": 0}, {"lon": -77.03181683333334, "bike_id": "37abba4362f7eab8d009c823a8128300", "lat": 38.90975433333333, "fusion_lon": 0.0, "fusion_lat": 0.0, "type": "electric_scooter", "name": "37abba4362f7eab8d009c823a8128300", "is_disabled": 0, "rental_uris": {"ios": "https://dc.lft.to/lastmile_qr_scan", "android": "https://dc.lft.to/lastmile_qr_scan"}, "is_reserved": 0}, {"lon": -77.0295325, "bike_id": "d14713c0fd1d172a1a4302feb08cfcdc", "lat": 38.921756333333335, "fusion_lon": 0.0, "fusion_lat": 0.0, "type": "electric_scooter", "name": "d14713c0fd1d172a1a4302feb08cfcdc", "is_disabled": 0, "rental_uris": {"ios": "https://dc.lft.to/lastmile_qr_scan", "android": "https://dc.lft.to/lastmile_qr_scan"}, "is_reserved": 0}, {"lon": -76.98713033333334, "bike_id": "2a7365f4d4f52edda860878b4762bbd4", "lat": 38.86700483333333, "fusion_lon": 0.0, "fusion_lat": 0.0, "type": "electric_scooter", "name": "2a7365f4d4f52edda860878b4762bbd4", "is_disabled": 0, "rental_uris": {"ios": "https://dc.lft.to/lastmile_qr_scan", "android": "https://dc.lft.to/lastmile_qr_scan"}, "is_reserved": 0}, {"lon": -76.97861733333333, "bike_id": "b619708348dee1b46c089b1ec1656fd2", "lat": 38.870678, "fusion_lon": 0.0, "fusion_lat": 0.0, "type": "electric_scooter", "name": "b619708348dee1b46c089b1ec1656fd2", "is_disabled": 0, "rental_uris": {"ios": "https://dc.lft.to/lastmile_qr_scan", "android": "https://dc.lft.to/lastmile_qr_scan"}, "is_reserved": 0}, {"lon": -77.00192366666667, "bike_id": "655a3cd80bcb93b0cea1d0c98b7f6a0b", "lat": 38.9147875, "fusion_lon": 0.0, "fusion_lat": 0.0, "type": "electric_scooter", "name": "655a3cd80bcb93b0cea1d0c98b7f6a0b", "is_disabled": 0, "rental_uris": {"ios": "https://dc.lft.to/lastmile_qr_scan", "android": "https://dc.lft.to/lastmile_qr_scan"}, "is_reserved": 0}, {"lon": -77.03865366666666, "bike_id": "a5e4c8bc6e610d9a55cee69d341d4412", "lat": 38.917072166666664, "fusion_lon": 0.0, "fusion_lat": 0.0, "type": "electric_scooter", "name": "a5e4c8bc6e610d9a55cee69d341d4412", "is_disabled": 0, "rental_uris": {"ios": "https://dc.lft.to/lastmile_qr_scan", "android": "https://dc.lft.to/lastmile_qr_scan"}, "is_reserved": 0}, {"lon": -77.02542433333333, "bike_id": "85bebe9e43830d7f7f33cac1936930cc", "lat": 38.931007, "fusion_lon": 0.0, "fusion_lat": 0.0, "type": "electric_scooter", "name": "85bebe9e43830d7f7f33cac1936930cc", "is_disabled": 0, "rental_uris": {"ios": "https://dc.lft.to/lastmile_qr_scan", "android": "https://dc.lft.to/lastmile_qr_scan"}, "is_reserved": 0}, {"lon": -77.06407466666667, "bike_id": "60752088e82f7156b01891eef1389783", "lat": 38.840582, "fusion_lon": 0.0, "fusion_lat": 0.0, "type": "electric_bike", "name": "60752088e82f7156b01891eef1389783", "is_disabled": 0, "rental_uris": {"ios": "https://dc.lft.to/lastmile_qr_scan", "android": "https://dc.lft.to/lastmile_qr_scan"}, "is_reserved": 0}, {"lon": -76.98883783333333, "bike_id": "7a4bc72b8669d6fbafa845c4ce678ad2", "lat": 38.86649666666667, "fusion_lon": 0.0, "fusion_lat": 0.0, "type": "electric_scooter", "name": "7a4bc72b8669d6fbafa845c4ce678ad2", "is_disabled": 0, "rental_uris": {"ios": "https://dc.lft.to/lastmile_qr_scan", "android": "https://dc.lft.to/lastmile_qr_scan"}, "is_reserved": 0}, {"lon": -77.02452316666667, "bike_id": "2383100f9dd6b547349a19b90d60bd40", "lat": 38.899423166666665, "fusion_lon": 0.0, "fusion_lat": 0.0, "type": "electric_scooter", "name": "2383100f9dd6b547349a19b90d60bd40", "is_disabled": 0, "rental_uris": {"ios": "https://dc.lft.to/lastmile_qr_scan", "android": "https://dc.lft.to/lastmile_qr_scan"}, "is_reserved": 0}, {"lon": -77.04611983333334, "bike_id": "de84e5f38ceb8cb17c87bafecfb2850c", "lat": 38.88378433333333, "fusion_lon": 0.0, "fusion_lat": 0.0, "type": "electric_scooter", "name": "de84e5f38ceb8cb17c87bafecfb2850c", "is_disabled": 0, "rental_uris": {"ios": "https://dc.lft.to/lastmile_qr_scan", "android": "https://dc.lft.to/lastmile_qr_scan"}, "is_reserved": 0}, {"lon": -77.02378616666667, "bike_id": "8cb33025783a1a5e4a10d99f43368a4c", "lat": 38.90088466666667, "fusion_lon": 0.0, "fusion_lat": 0.0, "type": "electric_scooter", "name": "8cb33025783a1a5e4a10d99f43368a4c", "is_disabled": 0, "rental_uris": {"ios": "https://dc.lft.to/lastmile_qr_scan", "android": "https://dc.lft.to/lastmile_qr_scan"}, "is_reserved": 0}, {"lon": -77.0034705, "bike_id": "1f3b8a1ef616432a2df7b4089816b594", "lat": 38.90360116666667, "fusion_lon": 0.0, "fusion_lat": 0.0, "type": "electric_scooter", "name": "1f3b8a1ef616432a2df7b4089816b594", "is_disabled": 0, "rental_uris": {"ios": "https://dc.lft.to/lastmile_qr_scan", "android": "https://dc.lft.to/lastmile_qr_scan"}, "is_reserved": 0}, {"lon": -77.03028166666667, "bike_id": "b5bd760bc50deca4649a9a9754da4583", "lat": 38.916800333333335, "fusion_lon": 0.0, "fusion_lat": 0.0, "type": "electric_scooter", "name": "b5bd760bc50deca4649a9a9754da4583", "is_disabled": 0, "rental_uris": {"ios": "https://dc.lft.to/lastmile_qr_scan", "android": "https://dc.lft.to/lastmile_qr_scan"}, "is_reserved": 0}, {"lon": -77.004852, "bike_id": "b5d85779a493c28e796fa62a618e919f", "lat": 38.92063783333333, "fusion_lon": 0.0, "fusion_lat": 0.0, "type": "electric_scooter", "name": "b5d85779a493c28e796fa62a618e919f", "is_disabled": 0, "rental_uris": {"ios": "https://dc.lft.to/lastmile_qr_scan", "android": "https://dc.lft.to/lastmile_qr_scan"}, "is_reserved": 0}, {"lon": -77.03642383333333, "bike_id": "37c91e0a8f4b68d2c53e61db81cd775b", "lat": 38.9173815, "fusion_lon": 0.0, "fusion_lat": 0.0, "type": "electric_scooter", "name": "37c91e0a8f4b68d2c53e61db81cd775b", "is_disabled": 0, "rental_uris": {"ios": "https://dc.lft.to/lastmile_qr_scan", "android": "https://dc.lft.to/lastmile_qr_scan"}, "is_reserved": 0}, {"lon": -76.99524966666667, "bike_id": "9ea49c68c98b5b227809c83078c04713", "lat": 38.90013533333333, "fusion_lon": 0.0, "fusion_lat": 0.0, "type": "electric_scooter", "name": "9ea49c68c98b5b227809c83078c04713", "is_disabled": 0, "rental_uris": {"ios": "https://dc.lft.to/lastmile_qr_scan", "android": "https://dc.lft.to/lastmile_qr_scan"}, "is_reserved": 0}, {"lon": -76.9978335, "bike_id": "26b9ed3e4d59d0871e6258ee50d0435a", "lat": 38.844322166666664, "fusion_lon": 0.0, "fusion_lat": 0.0, "type": "electric_scooter", "name": "26b9ed3e4d59d0871e6258ee50d0435a", "is_disabled": 0, "rental_uris": {"ios": "https://dc.lft.to/lastmile_qr_scan", "android": "https://dc.lft.to/lastmile_qr_scan"}, "is_reserved": 0}, {"lon": -77.0242905, "bike_id": "140410aa8cb59c82cfc7f20649837412", "lat": 38.9275125, "fusion_lon": 0.0, "fusion_lat": 0.0, "type": "electric_scooter", "name": "140410aa8cb59c82cfc7f20649837412", "is_disabled": 0, "rental_uris": {"ios": "https://dc.lft.to/lastmile_qr_scan", "android": "https://dc.lft.to/lastmile_qr_scan"}, "is_reserved": 0}, {"lon": -77.0320245, "bike_id": "3cd3c16b8ad8b327d3b9ae9591b2fe2c", "lat": 38.9167705, "fusion_lon": 0.0, "fusion_lat": 0.0, "type": "electric_scooter", "name": "3cd3c16b8ad8b327d3b9ae9591b2fe2c", "is_disabled": 0, "rental_uris": {"ios": "https://dc.lft.to/lastmile_qr_scan", "android": "https://dc.lft.to/lastmile_qr_scan"}, "is_reserved": 0}, {"lon": -77.051819, "bike_id": "526bf8ebae8e7f0d11b5dae0640f7550", "lat": 38.9242485, "fusion_lon": 0.0, "fusion_lat": 0.0, "type": "electric_scooter", "name": "526bf8ebae8e7f0d11b5dae0640f7550", "is_disabled": 0, "rental_uris": {"ios": "https://dc.lft.to/lastmile_qr_scan", "android": "https://dc.lft.to/lastmile_qr_scan"}, "is_reserved": 0}, {"lon": -77.02201983333333, "bike_id": "84e7e50b35ad3ed697cf5d79d586c6f6", "lat": 38.90113016666667, "fusion_lon": 0.0, "fusion_lat": 0.0, "type": "electric_scooter", "name": "84e7e50b35ad3ed697cf5d79d586c6f6", "is_disabled": 0, "rental_uris": {"ios": "https://dc.lft.to/lastmile_qr_scan", "android": "https://dc.lft.to/lastmile_qr_scan"}, "is_reserved": 0}, {"lon": -77.0344355, "bike_id": "5c93aa8fb61cb917a8bbf1a639f437ad", "lat": 38.9141015, "fusion_lon": 0.0, "fusion_lat": 0.0, "type": "electric_scooter", "name": "5c93aa8fb61cb917a8bbf1a639f437ad", "is_disabled": 0, "rental_uris": {"ios": "https://dc.lft.to/lastmile_qr_scan", "android": "https://dc.lft.to/lastmile_qr_scan"}, "is_reserved": 0}, {"lon": -77.0431995, "bike_id": "a91397103aa6007969aac0d5d07ece58", "lat": 38.91876233333333, "fusion_lon": 0.0, "fusion_lat": 0.0, "type": "electric_scooter", "name": "a91397103aa6007969aac0d5d07ece58", "is_disabled": 0, "rental_uris": {"ios": "https://dc.lft.to/lastmile_qr_scan", "android": "https://dc.lft.to/lastmile_qr_scan"}, "is_reserved": 0}, {"lon": -77.05769316666667, "bike_id": "e1a6a51408be072c08d7f5893d72ecb0", "lat": 38.93619366666667, "fusion_lon": 0.0, "fusion_lat": 0.0, "type": "electric_scooter", "name": "e1a6a51408be072c08d7f5893d72ecb0", "is_disabled": 0, "rental_uris": {"ios": "https://dc.lft.to/lastmile_qr_scan", "android": "https://dc.lft.to/lastmile_qr_scan"}, "is_reserved": 0}, {"lon": -76.965803, "bike_id": "b44f67e79be132b24071bb6b79f2a3cf", "lat": 38.87142516666667, "fusion_lon": 0.0, "fusion_lat": 0.0, "type": "electric_scooter", "name": "b44f67e79be132b24071bb6b79f2a3cf", "is_disabled": 0, "rental_uris": {"ios": "https://dc.lft.to/lastmile_qr_scan", "android": "https://dc.lft.to/lastmile_qr_scan"}, "is_reserved": 0}, {"lon": -77.002896, "bike_id": "07db7f476f6bad4863c5574378c431a6", "lat": 38.95699283333333, "fusion_lon": 0.0, "fusion_lat": 0.0, "type": "electric_bike", "name": "07db7f476f6bad4863c5574378c431a6", "is_disabled": 0, "rental_uris": {"ios": "https://dc.lft.to/lastmile_qr_scan", "android": "https://dc.lft.to/lastmile_qr_scan"}, "is_reserved": 0}, {"lon": -77.064254, "bike_id": "0dba3bd11cfa733b880fef44dd2f8f3f", "lat": 38.908849333333336, "fusion_lon": 0.0, "fusion_lat": 0.0, "type": "electric_scooter", "name": "0dba3bd11cfa733b880fef44dd2f8f3f", "is_disabled": 0, "rental_uris": {"ios": "https://dc.lft.to/lastmile_qr_scan", "android": "https://dc.lft.to/lastmile_qr_scan"}, "is_reserved": 0}, {"lon": -77.0339665, "bike_id": "00722e7c9cb1d5468c92fcbdef4a705c", "lat": 38.9322935, "fusion_lon": 0.0, "fusion_lat": 0.0, "type": "electric_scooter", "name": "00722e7c9cb1d5468c92fcbdef4a705c", "is_disabled": 0, "rental_uris": {"ios": "https://dc.lft.to/lastmile_qr_scan", "android": "https://dc.lft.to/lastmile_qr_scan"}, "is_reserved": 0}, {"lon": -77.03509766666667, "bike_id": "c84b52b8734824d91bfea69e536fcb36", "lat": 38.9215105, "fusion_lon": 0.0, "fusion_lat": 0.0, "type": "electric_scooter", "name": "c84b52b8734824d91bfea69e536fcb36", "is_disabled": 0, "rental_uris": {"ios": "https://dc.lft.to/lastmile_qr_scan", "android": "https://dc.lft.to/lastmile_qr_scan"}, "is_reserved": 0}, {"lon": -77.034066, "bike_id": "b65667e5f79cf51ca3e74d0b410ebeab", "lat": 38.9602955, "fusion_lon": 0.0, "fusion_lat": 0.0, "type": "electric_bike", "name": "b65667e5f79cf51ca3e74d0b410ebeab", "is_disabled": 0, "rental_uris": {"ios": "https://dc.lft.to/lastmile_qr_scan", "android": "https://dc.lft.to/lastmile_qr_scan"}, "is_reserved": 0}, {"lon": -77.124922, "bike_id": "113edcaf85d1439de33d2141e6a852bd", "lat": 38.8279745, "fusion_lon": 0.0, "fusion_lat": 0.0, "type": "electric_bike", "name": "113edcaf85d1439de33d2141e6a852bd", "is_disabled": 0, "rental_uris": {"ios": "https://dc.lft.to/lastmile_qr_scan", "android": "https://dc.lft.to/lastmile_qr_scan"}, "is_reserved": 0}, {"lon": -76.99515566666666, "bike_id": "d281eb884979b8c10ba3eaa232a08a53", "lat": 38.8776555, "fusion_lon": 0.0, "fusion_lat": 0.0, "type": "electric_scooter", "name": "d281eb884979b8c10ba3eaa232a08a53", "is_disabled": 0, "rental_uris": {"ios": "https://dc.lft.to/lastmile_qr_scan", "android": "https://dc.lft.to/lastmile_qr_scan"}, "is_reserved": 0}, {"lon": -77.0342445, "bike_id": "d2dcd620826ad8619f19a7706cf0322c", "lat": 38.919277, "fusion_lon": 0.0, "fusion_lat": 0.0, "type": "electric_scooter", "name": "d2dcd620826ad8619f19a7706cf0322c", "is_disabled": 0, "rental_uris": {"ios": "https://dc.lft.to/lastmile_qr_scan", "android": "https://dc.lft.to/lastmile_qr_scan"}, "is_reserved": 0}, {"lon": -77.02047516666667, "bike_id": "b25f32f0242e641a5e7be59ef95ba52d", "lat": 38.91556, "fusion_lon": 0.0, "fusion_lat": 0.0, "type": "electric_scooter", "name": "b25f32f0242e641a5e7be59ef95ba52d", "is_disabled": 0, "rental_uris": {"ios": "https://dc.lft.to/lastmile_qr_scan", "android": "https://dc.lft.to/lastmile_qr_scan"}, "is_reserved": 0}, {"lon": -77.04295633333334, "bike_id": "0b4e701c4887e0dd5278880c8c7e6ed6", "lat": 38.922401666666666, "fusion_lon": 0.0, "fusion_lat": 0.0, "type": "electric_scooter", "name": "0b4e701c4887e0dd5278880c8c7e6ed6", "is_disabled": 0, "rental_uris": {"ios": "https://dc.lft.to/lastmile_qr_scan", "android": "https://dc.lft.to/lastmile_qr_scan"}, "is_reserved": 0}, {"lon": -77.02940016666666, "bike_id": "c4a943b3b2a362fcb30fd65f3109857d", "lat": 38.92077483333333, "fusion_lon": 0.0, "fusion_lat": 0.0, "type": "electric_scooter", "name": "c4a943b3b2a362fcb30fd65f3109857d", "is_disabled": 0, "rental_uris": {"ios": "https://dc.lft.to/lastmile_qr_scan", "android": "https://dc.lft.to/lastmile_qr_scan"}, "is_reserved": 0}, {"lon": -77.05232516666666, "bike_id": "f45f1ebb3bdc8f0776216ef5ec6d8a19", "lat": 38.924594166666665, "fusion_lon": 0.0, "fusion_lat": 0.0, "type": "electric_scooter", "name": "f45f1ebb3bdc8f0776216ef5ec6d8a19", "is_disabled": 0, "rental_uris": {"ios": "https://dc.lft.to/lastmile_qr_scan", "android": "https://dc.lft.to/lastmile_qr_scan"}, "is_reserved": 0}, {"lon": -77.00844416666666, "bike_id": "22788ec7f51cd9c96dbd70493e244d41", "lat": 38.91627716666667, "fusion_lon": 0.0, "fusion_lat": 0.0, "type": "electric_scooter", "name": "22788ec7f51cd9c96dbd70493e244d41", "is_disabled": 0, "rental_uris": {"ios": "https://dc.lft.to/lastmile_qr_scan", "android": "https://dc.lft.to/lastmile_qr_scan"}, "is_reserved": 0}, {"lon": -77.059296, "bike_id": "516bf06d064289fd44934e763bbfa5c0", "lat": 38.8623925, "fusion_lon": 0.0, "fusion_lat": 0.0, "type": "electric_scooter", "name": "516bf06d064289fd44934e763bbfa5c0", "is_disabled": 0, "rental_uris": {"ios": "https://dc.lft.to/lastmile_qr_scan", "android": "https://dc.lft.to/lastmile_qr_scan"}, "is_reserved": 0}, {"lon": -77.02994, "bike_id": "11c845ea0bd722d0d419d565e4cfd73f", "lat": 38.902749166666666, "fusion_lon": 0.0, "fusion_lat": 0.0, "type": "electric_scooter", "name": "11c845ea0bd722d0d419d565e4cfd73f", "is_disabled": 0, "rental_uris": {"ios": "https://dc.lft.to/lastmile_qr_scan", "android": "https://dc.lft.to/lastmile_qr_scan"}, "is_reserved": 0}, {"lon": -77.00200233333334, "bike_id": "2ae4af8126b36ac75a126e11744a38f0", "lat": 38.90246783333333, "fusion_lon": 0.0, "fusion_lat": 0.0, "type": "electric_scooter", "name": "2ae4af8126b36ac75a126e11744a38f0", "is_disabled": 0, "rental_uris": {"ios": "https://dc.lft.to/lastmile_qr_scan", "android": "https://dc.lft.to/lastmile_qr_scan"}, "is_reserved": 0}, {"lon": -77.03342483333333, "bike_id": "e49bd369ce4d6cd3bcf79e7aa01e6f85", "lat": 38.901608, "fusion_lon": 0.0, "fusion_lat": 0.0, "type": "electric_scooter", "name": "e49bd369ce4d6cd3bcf79e7aa01e6f85", "is_disabled": 0, "rental_uris": {"ios": "https://dc.lft.to/lastmile_qr_scan", "android": "https://dc.lft.to/lastmile_qr_scan"}, "is_reserved": 0}, {"lon": -77.04252916666667, "bike_id": "cb6de0d26430bfeb7c515ae0826d37a2", "lat": 38.9225215, "fusion_lon": 0.0, "fusion_lat": 0.0, "type": "electric_scooter", "name": "cb6de0d26430bfeb7c515ae0826d37a2", "is_disabled": 0, "rental_uris": {"ios": "https://dc.lft.to/lastmile_qr_scan", "android": "https://dc.lft.to/lastmile_qr_scan"}, "is_reserved": 0}, {"lon": -76.98885816666666, "bike_id": "aaa88513cad3fc49c84d13f35c89849c", "lat": 38.913473, "fusion_lon": 0.0, "fusion_lat": 0.0, "type": "electric_scooter", "name": "aaa88513cad3fc49c84d13f35c89849c", "is_disabled": 0, "rental_uris": {"ios": "https://dc.lft.to/lastmile_qr_scan", "android": "https://dc.lft.to/lastmile_qr_scan"}, "is_reserved": 0}, {"lon": -77.00115066666666, "bike_id": "1b525c776d886f19340d4457b7cd7a05", "lat": 38.91961, "fusion_lon": 0.0, "fusion_lat": 0.0, "type": "electric_scooter", "name": "1b525c776d886f19340d4457b7cd7a05", "is_disabled": 0, "rental_uris": {"ios": "https://dc.lft.to/lastmile_qr_scan", "android": "https://dc.lft.to/lastmile_qr_scan"}, "is_reserved": 0}, {"lon": -77.03273583333333, "bike_id": "bccc1274142b1f3c0e7bb11f5d965198", "lat": 38.900393666666666, "fusion_lon": 0.0, "fusion_lat": 0.0, "type": "electric_scooter", "name": "bccc1274142b1f3c0e7bb11f5d965198", "is_disabled": 0, "rental_uris": {"ios": "https://dc.lft.to/lastmile_qr_scan", "android": "https://dc.lft.to/lastmile_qr_scan"}, "is_reserved": 0}, {"lon": -77.0281795, "bike_id": "3d87e1491636f5743fd1f8ccf37ef2cb", "lat": 38.902253333333334, "fusion_lon": 0.0, "fusion_lat": 0.0, "type": "electric_scooter", "name": "3d87e1491636f5743fd1f8ccf37ef2cb", "is_disabled": 0, "rental_uris": {"ios": "https://dc.lft.to/lastmile_qr_scan", "android": "https://dc.lft.to/lastmile_qr_scan"}, "is_reserved": 0}, {"lon": -77.0321445, "bike_id": "e3b356c77a54e66b96bd670cbd4218bf", "lat": 38.91919716666666, "fusion_lon": 0.0, "fusion_lat": 0.0, "type": "electric_scooter", "name": "e3b356c77a54e66b96bd670cbd4218bf", "is_disabled": 0, "rental_uris": {"ios": "https://dc.lft.to/lastmile_qr_scan", "android": "https://dc.lft.to/lastmile_qr_scan"}, "is_reserved": 0}, {"lon": -77.0019335, "bike_id": "9d79b122d48c2d3ba04090c4d17b4d45", "lat": 38.894745, "fusion_lon": 0.0, "fusion_lat": 0.0, "type": "electric_scooter", "name": "9d79b122d48c2d3ba04090c4d17b4d45", "is_disabled": 0, "rental_uris": {"ios": "https://dc.lft.to/lastmile_qr_scan", "android": "https://dc.lft.to/lastmile_qr_scan"}, "is_reserved": 0}, {"lon": -76.99790466666667, "bike_id": "c3abbce62dd2a5067b9a17d9173489c6", "lat": 38.89092733333333, "fusion_lon": 0.0, "fusion_lat": 0.0, "type": "electric_scooter", "name": "c3abbce62dd2a5067b9a17d9173489c6", "is_disabled": 0, "rental_uris": {"ios": "https://dc.lft.to/lastmile_qr_scan", "android": "https://dc.lft.to/lastmile_qr_scan"}, "is_reserved": 0}, {"lon": -76.99872716666667, "bike_id": "67fecfcd8725851ad8d88e414fa61e3b", "lat": 38.900196, "fusion_lon": 0.0, "fusion_lat": 0.0, "type": "electric_scooter", "name": "67fecfcd8725851ad8d88e414fa61e3b", "is_disabled": 0, "rental_uris": {"ios": "https://dc.lft.to/lastmile_qr_scan", "android": "https://dc.lft.to/lastmile_qr_scan"}, "is_reserved": 0}, {"lon": -77.037195, "bike_id": "75cd413da206802e99e4e33d51df1478", "lat": 38.92836283333333, "fusion_lon": 0.0, "fusion_lat": 0.0, "type": "electric_scooter", "name": "75cd413da206802e99e4e33d51df1478", "is_disabled": 0, "rental_uris": {"ios": "https://dc.lft.to/lastmile_qr_scan", "android": "https://dc.lft.to/lastmile_qr_scan"}, "is_reserved": 0}, {"lon": -77.0320745, "bike_id": "6cbb63e1c112d661969bd492f17a56c9", "lat": 38.91813833333333, "fusion_lon": 0.0, "fusion_lat": 0.0, "type": "electric_scooter", "name": "6cbb63e1c112d661969bd492f17a56c9", "is_disabled": 0, "rental_uris": {"ios": "https://dc.lft.to/lastmile_qr_scan", "android": "https://dc.lft.to/lastmile_qr_scan"}, "is_reserved": 0}, {"lon": -77.00612483333333, "bike_id": "8506a19f3ce540b8cb9df181a4eb2e38", "lat": 38.90009366666666, "fusion_lon": 0.0, "fusion_lat": 0.0, "type": "electric_scooter", "name": "8506a19f3ce540b8cb9df181a4eb2e38", "is_disabled": 0, "rental_uris": {"ios": "https://dc.lft.to/lastmile_qr_scan", "android": "https://dc.lft.to/lastmile_qr_scan"}, "is_reserved": 0}, {"lon": -77.00248483333333, "bike_id": "8f3a12fcd98f204f5d984cbd4dd63953", "lat": 38.885117, "fusion_lon": 0.0, "fusion_lat": 0.0, "type": "electric_scooter", "name": "8f3a12fcd98f204f5d984cbd4dd63953", "is_disabled": 0, "rental_uris": {"ios": "https://dc.lft.to/lastmile_qr_scan", "android": "https://dc.lft.to/lastmile_qr_scan"}, "is_reserved": 0}, {"lon": -77.01505, "bike_id": "b47b08d1dc0ce6d9eaa3e951efceca5e", "lat": 38.945289833333334, "fusion_lon": 0.0, "fusion_lat": 0.0, "type": "electric_scooter", "name": "b47b08d1dc0ce6d9eaa3e951efceca5e", "is_disabled": 0, "rental_uris": {"ios": "https://dc.lft.to/lastmile_qr_scan", "android": "https://dc.lft.to/lastmile_qr_scan"}, "is_reserved": 0}, {"lon": -77.0315135, "bike_id": "c72144af6b52db7f92d119ce3d26b711", "lat": 38.917046166666665, "fusion_lon": 0.0, "fusion_lat": 0.0, "type": "electric_scooter", "name": "c72144af6b52db7f92d119ce3d26b711", "is_disabled": 0, "rental_uris": {"ios": "https://dc.lft.to/lastmile_qr_scan", "android": "https://dc.lft.to/lastmile_qr_scan"}, "is_reserved": 0}, {"lon": -76.98108383333333, "bike_id": "bfa5c5691db81da09e305c855e345ec2", "lat": 38.877305, "fusion_lon": 0.0, "fusion_lat": 0.0, "type": "electric_bike", "name": "bfa5c5691db81da09e305c855e345ec2", "is_disabled": 0, "rental_uris": {"ios": "https://dc.lft.to/lastmile_qr_scan", "android": "https://dc.lft.to/lastmile_qr_scan"}, "is_reserved": 0}, {"lon": -77.00296616666667, "bike_id": "8241e8007ae404d11cbb0ee44437079b", "lat": 38.901165, "fusion_lon": 0.0, "fusion_lat": 0.0, "type": "electric_scooter", "name": "8241e8007ae404d11cbb0ee44437079b", "is_disabled": 0, "rental_uris": {"ios": "https://dc.lft.to/lastmile_qr_scan", "android": "https://dc.lft.to/lastmile_qr_scan"}, "is_reserved": 0}, {"lon": -77.04699566666666, "bike_id": "46057acc99d4c6b9fa2b2e5e72805e8e", "lat": 38.91899633333333, "fusion_lon": 0.0, "fusion_lat": 0.0, "type": "electric_scooter", "name": "46057acc99d4c6b9fa2b2e5e72805e8e", "is_disabled": 0, "rental_uris": {"ios": "https://dc.lft.to/lastmile_qr_scan", "android": "https://dc.lft.to/lastmile_qr_scan"}, "is_reserved": 0}, {"lon": -77.04007383333334, "bike_id": "82ae46576985b4c7de69f597136a18ad", "lat": 38.934263, "fusion_lon": 0.0, "fusion_lat": 0.0, "type": "electric_scooter", "name": "82ae46576985b4c7de69f597136a18ad", "is_disabled": 0, "rental_uris": {"ios": "https://dc.lft.to/lastmile_qr_scan", "android": "https://dc.lft.to/lastmile_qr_scan"}, "is_reserved": 0}, {"lon": -76.98246333333333, "bike_id": "3ac31e94ed277cad902ae7e7f4d887c5", "lat": 38.864557833333336, "fusion_lon": 0.0, "fusion_lat": 0.0, "type": "electric_scooter", "name": "3ac31e94ed277cad902ae7e7f4d887c5", "is_disabled": 0, "rental_uris": {"ios": "https://dc.lft.to/lastmile_qr_scan", "android": "https://dc.lft.to/lastmile_qr_scan"}, "is_reserved": 0}, {"lon": -76.94944933333333, "bike_id": "b8bd21c4c0b51a704fb093cc06409651", "lat": 38.903731, "fusion_lon": 0.0, "fusion_lat": 0.0, "type": "electric_scooter", "name": "b8bd21c4c0b51a704fb093cc06409651", "is_disabled": 0, "rental_uris": {"ios": "https://dc.lft.to/lastmile_qr_scan", "android": "https://dc.lft.to/lastmile_qr_scan"}, "is_reserved": 0}, {"lon": -77.0321935, "bike_id": "ea47778ab285092481d123a4feda8604", "lat": 38.919254333333335, "fusion_lon": 0.0, "fusion_lat": 0.0, "type": "electric_scooter", "name": "ea47778ab285092481d123a4feda8604", "is_disabled": 0, "rental_uris": {"ios": "https://dc.lft.to/lastmile_qr_scan", "android": "https://dc.lft.to/lastmile_qr_scan"}, "is_reserved": 0}, {"lon": -77.05862183333333, "bike_id": "67a4e5b06042d0918069220d689b3934", "lat": 38.93610566666667, "fusion_lon": 0.0, "fusion_lat": 0.0, "type": "electric_scooter", "name": "67a4e5b06042d0918069220d689b3934", "is_disabled": 0, "rental_uris": {"ios": "https://dc.lft.to/lastmile_qr_scan", "android": "https://dc.lft.to/lastmile_qr_scan"}, "is_reserved": 0}, {"lon": -77.01802866666667, "bike_id": "8be59a21db0b93266c4ec1a79e88eba7", "lat": 38.919932333333335, "fusion_lon": 0.0, "fusion_lat": 0.0, "type": "electric_scooter", "name": "8be59a21db0b93266c4ec1a79e88eba7", "is_disabled": 0, "rental_uris": {"ios": "https://dc.lft.to/lastmile_qr_scan", "android": "https://dc.lft.to/lastmile_qr_scan"}, "is_reserved": 0}, {"lon": -77.01451733333333, "bike_id": "642f8129b1b65b36b5cadb7dddd14bd9", "lat": 38.905244333333336, "fusion_lon": 0.0, "fusion_lat": 0.0, "type": "electric_scooter", "name": "642f8129b1b65b36b5cadb7dddd14bd9", "is_disabled": 0, "rental_uris": {"ios": "https://dc.lft.to/lastmile_qr_scan", "android": "https://dc.lft.to/lastmile_qr_scan"}, "is_reserved": 0}, {"lon": -76.9775115, "bike_id": "4a49173a831a19f0f2ee1eb8925b3945", "lat": 38.86499833333333, "fusion_lon": 0.0, "fusion_lat": 0.0, "type": "electric_scooter", "name": "4a49173a831a19f0f2ee1eb8925b3945", "is_disabled": 0, "rental_uris": {"ios": "https://dc.lft.to/lastmile_qr_scan", "android": "https://dc.lft.to/lastmile_qr_scan"}, "is_reserved": 0}, {"lon": -77.01943916666667, "bike_id": "6cfead6d618f6af515647a4c82ed4ac9", "lat": 38.93185533333333, "fusion_lon": 0.0, "fusion_lat": 0.0, "type": "electric_scooter", "name": "6cfead6d618f6af515647a4c82ed4ac9", "is_disabled": 0, "rental_uris": {"ios": "https://dc.lft.to/lastmile_qr_scan", "android": "https://dc.lft.to/lastmile_qr_scan"}, "is_reserved": 0}, {"lon": -77.02967966666667, "bike_id": "77712211f0272e6ad85133faaba01776", "lat": 38.905438833333335, "fusion_lon": 0.0, "fusion_lat": 0.0, "type": "electric_scooter", "name": "77712211f0272e6ad85133faaba01776", "is_disabled": 0, "rental_uris": {"ios": "https://dc.lft.to/lastmile_qr_scan", "android": "https://dc.lft.to/lastmile_qr_scan"}, "is_reserved": 0}, {"lon": -76.98852533333333, "bike_id": "f6b164b7c928bb2612b0987d39d384f0", "lat": 38.901254333333334, "fusion_lon": 0.0, "fusion_lat": 0.0, "type": "electric_scooter", "name": "f6b164b7c928bb2612b0987d39d384f0", "is_disabled": 0, "rental_uris": {"ios": "https://dc.lft.to/lastmile_qr_scan", "android": "https://dc.lft.to/lastmile_qr_scan"}, "is_reserved": 0}, {"lon": -77.011319, "bike_id": "8e5bbd67178ed659d02a3a9e11620b47", "lat": 38.8947375, "fusion_lon": 0.0, "fusion_lat": 0.0, "type": "electric_scooter", "name": "8e5bbd67178ed659d02a3a9e11620b47", "is_disabled": 0, "rental_uris": {"ios": "https://dc.lft.to/lastmile_qr_scan", "android": "https://dc.lft.to/lastmile_qr_scan"}, "is_reserved": 0}, {"lon": -77.02454533333334, "bike_id": "24b63b7dbada16bbe55bc0ffd4cf3c84", "lat": 38.91851183333333, "fusion_lon": 0.0, "fusion_lat": 0.0, "type": "electric_scooter", "name": "24b63b7dbada16bbe55bc0ffd4cf3c84", "is_disabled": 0, "rental_uris": {"ios": "https://dc.lft.to/lastmile_qr_scan", "android": "https://dc.lft.to/lastmile_qr_scan"}, "is_reserved": 0}, {"lon": -77.01142166666666, "bike_id": "299bb92353d9dc366544f55e4845f32f", "lat": 38.89585966666667, "fusion_lon": 0.0, "fusion_lat": 0.0, "type": "electric_scooter", "name": "299bb92353d9dc366544f55e4845f32f", "is_disabled": 0, "rental_uris": {"ios": "https://dc.lft.to/lastmile_qr_scan", "android": "https://dc.lft.to/lastmile_qr_scan"}, "is_reserved": 0}, {"lon": -77.00215183333333, "bike_id": "c957a63cc996febfa6f3c265763c5751", "lat": 38.89540383333333, "fusion_lon": 0.0, "fusion_lat": 0.0, "type": "electric_scooter", "name": "c957a63cc996febfa6f3c265763c5751", "is_disabled": 0, "rental_uris": {"ios": "https://dc.lft.to/lastmile_qr_scan", "android": "https://dc.lft.to/lastmile_qr_scan"}, "is_reserved": 0}, {"lon": -77.0222365, "bike_id": "47c36eefac4e733ca6f1cdd2d0946574", "lat": 38.9110715, "fusion_lon": 0.0, "fusion_lat": 0.0, "type": "electric_scooter", "name": "47c36eefac4e733ca6f1cdd2d0946574", "is_disabled": 0, "rental_uris": {"ios": "https://dc.lft.to/lastmile_qr_scan", "android": "https://dc.lft.to/lastmile_qr_scan"}, "is_reserved": 0}, {"lon": -76.9374085, "bike_id": "da9e765a75fb2d0ce36c1745dbd8d370", "lat": 38.890191, "fusion_lon": 0.0, "fusion_lat": 0.0, "type": "electric_scooter", "name": "da9e765a75fb2d0ce36c1745dbd8d370", "is_disabled": 0, "rental_uris": {"ios": "https://dc.lft.to/lastmile_qr_scan", "android": "https://dc.lft.to/lastmile_qr_scan"}, "is_reserved": 0}, {"lon": -77.022643, "bike_id": "0f70c783dc3308ef1b21661ec57463f4", "lat": 38.9376045, "fusion_lon": 0.0, "fusion_lat": 0.0, "type": "electric_scooter", "name": "0f70c783dc3308ef1b21661ec57463f4", "is_disabled": 0, "rental_uris": {"ios": "https://dc.lft.to/lastmile_qr_scan", "android": "https://dc.lft.to/lastmile_qr_scan"}, "is_reserved": 0}, {"lon": -76.99557866666666, "bike_id": "7fc610eeaf07baad2ee76526b3b7866d", "lat": 38.9002945, "fusion_lon": 0.0, "fusion_lat": 0.0, "type": "electric_scooter", "name": "7fc610eeaf07baad2ee76526b3b7866d", "is_disabled": 0, "rental_uris": {"ios": "https://dc.lft.to/lastmile_qr_scan", "android": "https://dc.lft.to/lastmile_qr_scan"}, "is_reserved": 0}, {"lon": -77.020432, "bike_id": "fca3b2ff22c9a49caa68e3aa60776ed2", "lat": 38.90868566666666, "fusion_lon": 0.0, "fusion_lat": 0.0, "type": "electric_scooter", "name": "fca3b2ff22c9a49caa68e3aa60776ed2", "is_disabled": 0, "rental_uris": {"ios": "https://dc.lft.to/lastmile_qr_scan", "android": "https://dc.lft.to/lastmile_qr_scan"}, "is_reserved": 0}, {"lon": -77.01277233333333, "bike_id": "afa5214047c5bf329a9c3deb42ea40da", "lat": 38.95166833333333, "fusion_lon": 0.0, "fusion_lat": 0.0, "type": "electric_bike", "name": "afa5214047c5bf329a9c3deb42ea40da", "is_disabled": 0, "rental_uris": {"ios": "https://dc.lft.to/lastmile_qr_scan", "android": "https://dc.lft.to/lastmile_qr_scan"}, "is_reserved": 0}, {"lon": -76.97602283333333, "bike_id": "3bb43e59c616b96ea3eab3ee42e5a53d", "lat": 38.905705, "fusion_lon": 0.0, "fusion_lat": 0.0, "type": "electric_scooter", "name": "3bb43e59c616b96ea3eab3ee42e5a53d", "is_disabled": 0, "rental_uris": {"ios": "https://dc.lft.to/lastmile_qr_scan", "android": "https://dc.lft.to/lastmile_qr_scan"}, "is_reserved": 0}, {"lon": -77.06616066666666, "bike_id": "4cc62588cb20b60a3788bc581ab36e53", "lat": 38.949080333333335, "fusion_lon": 0.0, "fusion_lat": 0.0, "type": "electric_scooter", "name": "4cc62588cb20b60a3788bc581ab36e53", "is_disabled": 0, "rental_uris": {"ios": "https://dc.lft.to/lastmile_qr_scan", "android": "https://dc.lft.to/lastmile_qr_scan"}, "is_reserved": 0}, {"lon": -76.97328283333333, "bike_id": "531caadba1add02a6c5400239c348417", "lat": 38.917721, "fusion_lon": 0.0, "fusion_lat": 0.0, "type": "electric_scooter", "name": "531caadba1add02a6c5400239c348417", "is_disabled": 0, "rental_uris": {"ios": "https://dc.lft.to/lastmile_qr_scan", "android": "https://dc.lft.to/lastmile_qr_scan"}, "is_reserved": 0}, {"lon": -77.00534316666666, "bike_id": "71af247b08d9f234ac0e0f99a824d3b2", "lat": 38.929732333333334, "fusion_lon": 0.0, "fusion_lat": 0.0, "type": "electric_scooter", "name": "71af247b08d9f234ac0e0f99a824d3b2", "is_disabled": 0, "rental_uris": {"ios": "https://dc.lft.to/lastmile_qr_scan", "android": "https://dc.lft.to/lastmile_qr_scan"}, "is_reserved": 0}, {"lon": -77.0660005, "bike_id": "4b77ab9d408bec075d6ad1a1ac065525", "lat": 38.90403966666667, "fusion_lon": 0.0, "fusion_lat": 0.0, "type": "electric_bike", "name": "4b77ab9d408bec075d6ad1a1ac065525", "is_disabled": 0, "rental_uris": {"ios": "https://dc.lft.to/lastmile_qr_scan", "android": "https://dc.lft.to/lastmile_qr_scan"}, "is_reserved": 0}, {"lon": -77.00550666666666, "bike_id": "3b3f3968d5448b528dba5d41a88221dc", "lat": 38.874565, "fusion_lon": 0.0, "fusion_lat": 0.0, "type": "electric_scooter", "name": "3b3f3968d5448b528dba5d41a88221dc", "is_disabled": 0, "rental_uris": {"ios": "https://dc.lft.to/lastmile_qr_scan", "android": "https://dc.lft.to/lastmile_qr_scan"}, "is_reserved": 0}, {"lon": -77.03173283333334, "bike_id": "77e17e8b724bbd6b3256b7f2e9d03ca3", "lat": 38.8840955, "fusion_lon": 0.0, "fusion_lat": 0.0, "type": "electric_scooter", "name": "77e17e8b724bbd6b3256b7f2e9d03ca3", "is_disabled": 0, "rental_uris": {"ios": "https://dc.lft.to/lastmile_qr_scan", "android": "https://dc.lft.to/lastmile_qr_scan"}, "is_reserved": 0}, {"lon": -77.02576916666666, "bike_id": "5b7ee4385cf20185634e05a254dfbe56", "lat": 38.887442666666665, "fusion_lon": 0.0, "fusion_lat": 0.0, "type": "electric_scooter", "name": "5b7ee4385cf20185634e05a254dfbe56", "is_disabled": 0, "rental_uris": {"ios": "https://dc.lft.to/lastmile_qr_scan", "android": "https://dc.lft.to/lastmile_qr_scan"}, "is_reserved": 0}, {"lon": -76.98695, "bike_id": "77f6081e258eb6a5009755665a036c26", "lat": 38.862501, "fusion_lon": 0.0, "fusion_lat": 0.0, "type": "electric_scooter", "name": "77f6081e258eb6a5009755665a036c26", "is_disabled": 0, "rental_uris": {"ios": "https://dc.lft.to/lastmile_qr_scan", "android": "https://dc.lft.to/lastmile_qr_scan"}, "is_reserved": 0}, {"lon": -76.99697733333333, "bike_id": "2d5ac16b19a94942b3248f0cba5365bc", "lat": 38.908347166666665, "fusion_lon": 0.0, "fusion_lat": 0.0, "type": "electric_scooter", "name": "2d5ac16b19a94942b3248f0cba5365bc", "is_disabled": 0, "rental_uris": {"ios": "https://dc.lft.to/lastmile_qr_scan", "android": "https://dc.lft.to/lastmile_qr_scan"}, "is_reserved": 0}, {"lon": -77.03420266666667, "bike_id": "3a1a014fdd71326d2483923b667a3561", "lat": 38.9324805, "fusion_lon": 0.0, "fusion_lat": 0.0, "type": "electric_scooter", "name": "3a1a014fdd71326d2483923b667a3561", "is_disabled": 0, "rental_uris": {"ios": "https://dc.lft.to/lastmile_qr_scan", "android": "https://dc.lft.to/lastmile_qr_scan"}, "is_reserved": 0}, {"lon": -77.030557, "bike_id": "46404562d0d5e23bda8bff17a20aeb8e", "lat": 38.8840685, "fusion_lon": 0.0, "fusion_lat": 0.0, "type": "electric_scooter", "name": "46404562d0d5e23bda8bff17a20aeb8e", "is_disabled": 0, "rental_uris": {"ios": "https://dc.lft.to/lastmile_qr_scan", "android": "https://dc.lft.to/lastmile_qr_scan"}, "is_reserved": 0}, {"lon": -77.03954133333333, "bike_id": "75c8af6e417f759b71688c10c892592e", "lat": 38.9011965, "fusion_lon": 0.0, "fusion_lat": 0.0, "type": "electric_scooter", "name": "75c8af6e417f759b71688c10c892592e", "is_disabled": 0, "rental_uris": {"ios": "https://dc.lft.to/lastmile_qr_scan", "android": "https://dc.lft.to/lastmile_qr_scan"}, "is_reserved": 0}, {"lon": -77.02761116666667, "bike_id": "e807f4ecc4ef712291934fb5b8c5b55a", "lat": 38.94177633333334, "fusion_lon": 0.0, "fusion_lat": 0.0, "type": "electric_scooter", "name": "e807f4ecc4ef712291934fb5b8c5b55a", "is_disabled": 0, "rental_uris": {"ios": "https://dc.lft.to/lastmile_qr_scan", "android": "https://dc.lft.to/lastmile_qr_scan"}, "is_reserved": 0}, {"lon": -77.03463783333333, "bike_id": "a5cf5b2036e7aa0e25ed4f329eae0a2a", "lat": 38.92157133333333, "fusion_lon": 0.0, "fusion_lat": 0.0, "type": "electric_scooter", "name": "a5cf5b2036e7aa0e25ed4f329eae0a2a", "is_disabled": 0, "rental_uris": {"ios": "https://dc.lft.to/lastmile_qr_scan", "android": "https://dc.lft.to/lastmile_qr_scan"}, "is_reserved": 0}, {"lon": -76.9730645, "bike_id": "898ef4434b9343139fcc3c02fc518bc6", "lat": 38.88743816666667, "fusion_lon": 0.0, "fusion_lat": 0.0, "type": "electric_scooter", "name": "898ef4434b9343139fcc3c02fc518bc6", "is_disabled": 0, "rental_uris": {"ios": "https://dc.lft.to/lastmile_qr_scan", "android": "https://dc.lft.to/lastmile_qr_scan"}, "is_reserved": 0}, {"lon": -77.02732466666667, "bike_id": "4b04aaf44c4782a9ed038a58be4c7924", "lat": 38.91560583333333, "fusion_lon": 0.0, "fusion_lat": 0.0, "type": "electric_scooter", "name": "4b04aaf44c4782a9ed038a58be4c7924", "is_disabled": 0, "rental_uris": {"ios": "https://dc.lft.to/lastmile_qr_scan", "android": "https://dc.lft.to/lastmile_qr_scan"}, "is_reserved": 0}, {"lon": -76.98792716666667, "bike_id": "a89f0fa5e9029a92741d6eeeaa841f6b", "lat": 38.86722816666666, "fusion_lon": 0.0, "fusion_lat": 0.0, "type": "electric_scooter", "name": "a89f0fa5e9029a92741d6eeeaa841f6b", "is_disabled": 0, "rental_uris": {"ios": "https://dc.lft.to/lastmile_qr_scan", "android": "https://dc.lft.to/lastmile_qr_scan"}, "is_reserved": 0}, {"lon": -77.03260166666666, "bike_id": "d9564b63a69a9936d26dc12c5bdc0aa3", "lat": 38.905930166666664, "fusion_lon": 0.0, "fusion_lat": 0.0, "type": "electric_scooter", "name": "d9564b63a69a9936d26dc12c5bdc0aa3", "is_disabled": 0, "rental_uris": {"ios": "https://dc.lft.to/lastmile_qr_scan", "android": "https://dc.lft.to/lastmile_qr_scan"}, "is_reserved": 0}, {"lon": -77.030154, "bike_id": "eb73c21e68e2aec3d606944790efb913", "lat": 38.8961975, "fusion_lon": 0.0, "fusion_lat": 0.0, "type": "electric_scooter", "name": "eb73c21e68e2aec3d606944790efb913", "is_disabled": 0, "rental_uris": {"ios": "https://dc.lft.to/lastmile_qr_scan", "android": "https://dc.lft.to/lastmile_qr_scan"}, "is_reserved": 0}, {"lon": -77.03645083333333, "bike_id": "ddd6952f2010e28c7575b45c171f649e", "lat": 38.917341666666665, "fusion_lon": 0.0, "fusion_lat": 0.0, "type": "electric_scooter", "name": "ddd6952f2010e28c7575b45c171f649e", "is_disabled": 0, "rental_uris": {"ios": "https://dc.lft.to/lastmile_qr_scan", "android": "https://dc.lft.to/lastmile_qr_scan"}, "is_reserved": 0}, {"lon": -77.025076, "bike_id": "c888c36811dda443913ffe575aaf9f5b", "lat": 38.926445333333334, "fusion_lon": 0.0, "fusion_lat": 0.0, "type": "electric_scooter", "name": "c888c36811dda443913ffe575aaf9f5b", "is_disabled": 0, "rental_uris": {"ios": "https://dc.lft.to/lastmile_qr_scan", "android": "https://dc.lft.to/lastmile_qr_scan"}, "is_reserved": 0}, {"lon": -77.03858266666667, "bike_id": "cea8837934234b83b2870d1419476497", "lat": 38.91619166666667, "fusion_lon": 0.0, "fusion_lat": 0.0, "type": "electric_scooter", "name": "cea8837934234b83b2870d1419476497", "is_disabled": 0, "rental_uris": {"ios": "https://dc.lft.to/lastmile_qr_scan", "android": "https://dc.lft.to/lastmile_qr_scan"}, "is_reserved": 0}, {"lon": -76.981521, "bike_id": "0a53d14b41cfe024617bfe3c5938df83", "lat": 38.9032125, "fusion_lon": 0.0, "fusion_lat": 0.0, "type": "electric_scooter", "name": "0a53d14b41cfe024617bfe3c5938df83", "is_disabled": 0, "rental_uris": {"ios": "https://dc.lft.to/lastmile_qr_scan", "android": "https://dc.lft.to/lastmile_qr_scan"}, "is_reserved": 0}, {"lon": -77.024022, "bike_id": "7ba1ddb52ed1bcada85e4410a9654235", "lat": 38.883970166666664, "fusion_lon": 0.0, "fusion_lat": 0.0, "type": "electric_scooter", "name": "7ba1ddb52ed1bcada85e4410a9654235", "is_disabled": 0, "rental_uris": {"ios": "https://dc.lft.to/lastmile_qr_scan", "android": "https://dc.lft.to/lastmile_qr_scan"}, "is_reserved": 0}, {"lon": -77.025853, "bike_id": "b635b9a6e9526610430c559cce01e366", "lat": 38.897613166666666, "fusion_lon": 0.0, "fusion_lat": 0.0, "type": "electric_scooter", "name": "b635b9a6e9526610430c559cce01e366", "is_disabled": 0, "rental_uris": {"ios": "https://dc.lft.to/lastmile_qr_scan", "android": "https://dc.lft.to/lastmile_qr_scan"}, "is_reserved": 0}, {"lon": -76.99463733333333, "bike_id": "78e9e0993a1a6dfb2707e7764494528e", "lat": 38.94066766666667, "fusion_lon": 0.0, "fusion_lat": 0.0, "type": "electric_scooter", "name": "78e9e0993a1a6dfb2707e7764494528e", "is_disabled": 0, "rental_uris": {"ios": "https://dc.lft.to/lastmile_qr_scan", "android": "https://dc.lft.to/lastmile_qr_scan"}, "is_reserved": 0}, {"lon": -77.03845833333334, "bike_id": "04d87a2fdf9ae4e7d88098ad6cca2826", "lat": 38.91684333333333, "fusion_lon": 0.0, "fusion_lat": 0.0, "type": "electric_scooter", "name": "04d87a2fdf9ae4e7d88098ad6cca2826", "is_disabled": 0, "rental_uris": {"ios": "https://dc.lft.to/lastmile_qr_scan", "android": "https://dc.lft.to/lastmile_qr_scan"}, "is_reserved": 0}, {"lon": -77.0180145, "bike_id": "416f580f6f5819d6f7519d7b3356d56c", "lat": 38.904048333333336, "fusion_lon": 0.0, "fusion_lat": 0.0, "type": "electric_scooter", "name": "416f580f6f5819d6f7519d7b3356d56c", "is_disabled": 0, "rental_uris": {"ios": "https://dc.lft.to/lastmile_qr_scan", "android": "https://dc.lft.to/lastmile_qr_scan"}, "is_reserved": 0}, {"lon": -77.00676383333334, "bike_id": "cbdca26c9aee3ca773780cd556981281", "lat": 38.9003105, "fusion_lon": 0.0, "fusion_lat": 0.0, "type": "electric_scooter", "name": "cbdca26c9aee3ca773780cd556981281", "is_disabled": 0, "rental_uris": {"ios": "https://dc.lft.to/lastmile_qr_scan", "android": "https://dc.lft.to/lastmile_qr_scan"}, "is_reserved": 0}, {"lon": -77.00613833333334, "bike_id": "c37f552bbf3693432d669c8dfaf38017", "lat": 38.90004833333333, "fusion_lon": 0.0, "fusion_lat": 0.0, "type": "electric_scooter", "name": "c37f552bbf3693432d669c8dfaf38017", "is_disabled": 0, "rental_uris": {"ios": "https://dc.lft.to/lastmile_qr_scan", "android": "https://dc.lft.to/lastmile_qr_scan"}, "is_reserved": 0}, {"lon": -76.9767175, "bike_id": "7b5772db5fc972bb217c7b8a38df38c7", "lat": 38.95247283333333, "fusion_lon": 0.0, "fusion_lat": 0.0, "type": "electric_bike", "name": "7b5772db5fc972bb217c7b8a38df38c7", "is_disabled": 0, "rental_uris": {"ios": "https://dc.lft.to/lastmile_qr_scan", "android": "https://dc.lft.to/lastmile_qr_scan"}, "is_reserved": 0}, {"lon": -77.07913516666666, "bike_id": "d070c2d7ebb665b303858bbc6f83a67c", "lat": 38.930908333333335, "fusion_lon": 0.0, "fusion_lat": 0.0, "type": "electric_scooter", "name": "d070c2d7ebb665b303858bbc6f83a67c", "is_disabled": 0, "rental_uris": {"ios": "https://dc.lft.to/lastmile_qr_scan", "android": "https://dc.lft.to/lastmile_qr_scan"}, "is_reserved": 0}, {"lon": -77.11111616666666, "bike_id": "5f9ea0b79fce9a6fb4237fd13e4a3871", "lat": 38.8798115, "fusion_lon": 0.0, "fusion_lat": 0.0, "type": "electric_bike", "name": "5f9ea0b79fce9a6fb4237fd13e4a3871", "is_disabled": 0, "rental_uris": {"ios": "https://dc.lft.to/lastmile_qr_scan", "android": "https://dc.lft.to/lastmile_qr_scan"}, "is_reserved": 0}, {"lon": -77.02447766666667, "bike_id": "f0a41156ba2d9bccb0fce949b452ae42", "lat": 38.924998, "fusion_lon": 0.0, "fusion_lat": 0.0, "type": "electric_scooter", "name": "f0a41156ba2d9bccb0fce949b452ae42", "is_disabled": 0, "rental_uris": {"ios": "https://dc.lft.to/lastmile_qr_scan", "android": "https://dc.lft.to/lastmile_qr_scan"}, "is_reserved": 0}, {"lon": -77.035972, "bike_id": "147d230ff5233ef26c1bb1cc9f129142", "lat": 38.93940333333333, "fusion_lon": 0.0, "fusion_lat": 0.0, "type": "electric_scooter", "name": "147d230ff5233ef26c1bb1cc9f129142", "is_disabled": 0, "rental_uris": {"ios": "https://dc.lft.to/lastmile_qr_scan", "android": "https://dc.lft.to/lastmile_qr_scan"}, "is_reserved": 0}, {"lon": -77.038656, "bike_id": "182f656ddebb252731ff9d0dd5e4b592", "lat": 38.9316785, "fusion_lon": 0.0, "fusion_lat": 0.0, "type": "electric_scooter", "name": "182f656ddebb252731ff9d0dd5e4b592", "is_disabled": 0, "rental_uris": {"ios": "https://dc.lft.to/lastmile_qr_scan", "android": "https://dc.lft.to/lastmile_qr_scan"}, "is_reserved": 0}, {"lon": -76.99518483333334, "bike_id": "51fb96f57b56b8868e26ad14d3df2bca", "lat": 38.8625695, "fusion_lon": 0.0, "fusion_lat": 0.0, "type": "electric_scooter", "name": "51fb96f57b56b8868e26ad14d3df2bca", "is_disabled": 0, "rental_uris": {"ios": "https://dc.lft.to/lastmile_qr_scan", "android": "https://dc.lft.to/lastmile_qr_scan"}, "is_reserved": 0}, {"lon": -76.99275383333334, "bike_id": "1d6d6bfc5838ca55cf65aaedcd1e0f88", "lat": 38.89947516666667, "fusion_lon": 0.0, "fusion_lat": 0.0, "type": "electric_scooter", "name": "1d6d6bfc5838ca55cf65aaedcd1e0f88", "is_disabled": 0, "rental_uris": {"ios": "https://dc.lft.to/lastmile_qr_scan", "android": "https://dc.lft.to/lastmile_qr_scan"}, "is_reserved": 0}, {"lon": -76.98923483333333, "bike_id": "7f675270d65cc27c3803d9e803a657b1", "lat": 38.85808, "fusion_lon": 0.0, "fusion_lat": 0.0, "type": "electric_scooter", "name": "7f675270d65cc27c3803d9e803a657b1", "is_disabled": 0, "rental_uris": {"ios": "https://dc.lft.to/lastmile_qr_scan", "android": "https://dc.lft.to/lastmile_qr_scan"}, "is_reserved": 0}, {"lon": -77.021152, "bike_id": "f570099d4beb3c23a1f2c67b257b2856", "lat": 38.9060125, "fusion_lon": 0.0, "fusion_lat": 0.0, "type": "electric_scooter", "name": "f570099d4beb3c23a1f2c67b257b2856", "is_disabled": 0, "rental_uris": {"ios": "https://dc.lft.to/lastmile_qr_scan", "android": "https://dc.lft.to/lastmile_qr_scan"}, "is_reserved": 0}, {"lon": -77.05248666666667, "bike_id": "4ac37d96a691ce977474b509b70ff9f3", "lat": 38.900036166666666, "fusion_lon": 0.0, "fusion_lat": 0.0, "type": "electric_scooter", "name": "4ac37d96a691ce977474b509b70ff9f3", "is_disabled": 0, "rental_uris": {"ios": "https://dc.lft.to/lastmile_qr_scan", "android": "https://dc.lft.to/lastmile_qr_scan"}, "is_reserved": 0}, {"lon": -77.03237033333333, "bike_id": "a90a8f1571fa2a6b2e13f4d1390f975c", "lat": 38.929858, "fusion_lon": 0.0, "fusion_lat": 0.0, "type": "electric_scooter", "name": "a90a8f1571fa2a6b2e13f4d1390f975c", "is_disabled": 0, "rental_uris": {"ios": "https://dc.lft.to/lastmile_qr_scan", "android": "https://dc.lft.to/lastmile_qr_scan"}, "is_reserved": 0}, {"lon": -77.04395283333334, "bike_id": "c12c81a63f4b0bc7c228451cdadebd05", "lat": 39.047177833333336, "fusion_lon": 0.0, "fusion_lat": 0.0, "type": "electric_bike", "name": "c12c81a63f4b0bc7c228451cdadebd05", "is_disabled": 0, "rental_uris": {"ios": "https://dc.lft.to/lastmile_qr_scan", "android": "https://dc.lft.to/lastmile_qr_scan"}, "is_reserved": 0}, {"lon": -77.05003766666667, "bike_id": "677cb5f5d2a48d4f058898a43d2dfff6", "lat": 38.89231516666667, "fusion_lon": 0.0, "fusion_lat": 0.0, "type": "electric_scooter", "name": "677cb5f5d2a48d4f058898a43d2dfff6", "is_disabled": 0, "rental_uris": {"ios": "https://dc.lft.to/lastmile_qr_scan", "android": "https://dc.lft.to/lastmile_qr_scan"}, "is_reserved": 0}, {"lon": -76.9573135, "bike_id": "12268d67ff0c9e48048918bf565f2e88", "lat": 38.91925033333333, "fusion_lon": 0.0, "fusion_lat": 0.0, "type": "electric_bike", "name": "12268d67ff0c9e48048918bf565f2e88", "is_disabled": 0, "rental_uris": {"ios": "https://dc.lft.to/lastmile_qr_scan", "android": "https://dc.lft.to/lastmile_qr_scan"}, "is_reserved": 0},