{"data": {"bikes": [{"rental_uris": {"ios": "https://dc.lft.to/lastmile_qr_scan", "android": "https://dc.lft.to/lastmile_qr_scan"}, "lat": 38.919830833333336, "is_reserved": 0, "bike_id": "dfd8e20456ae3fa043ff5bab80c995ed", "lon": -77.041703, "is_disabled": 0, "fusion_lat": 0.0, "fusion_lon": 0.0, "name": "dfd8e20456ae3fa043ff5bab80c995ed", "type": "electric_scooter"}, {"rental_uris": {"ios": "https://dc.lft.to/lastmile_qr_scan", "android": "https://dc.lft.to/lastmile_qr_scan"}, "lat": 38.92472016666667, "is_reserved": 0, "bike_id": "d6214f95d8d3c79cc41a52b24c350018", "lon": -77.022003, "is_disabled": 0, "fusion_lat": 0.0, "fusion_lon": 0.0, "name": "d6214f95d8d3c79cc41a52b24c350018", "type": "electric_scooter"}, {"rental_uris": {"ios": "https://dc.lft.to/lastmile_qr_scan", "android": "https://dc.lft.to/lastmile_qr_scan"}, "lat": 38.905689, "is_reserved": 0, "bike_id": "1b9852b1c6083ee38f20c5360b950caf", "lon": -77.003962, "is_disabled": 0, "fusion_lat": 0.0, "fusion_lon": 0.0, "name": "1b9852b1c6083ee38f20c5360b950caf", "type": "electric_scooter"}, {"rental_uris": {"ios": "https://dc.lft.to/lastmile_qr_scan", "android": "https://dc.lft.to/lastmile_qr_scan"}, "lat": 38.906576666666666, "is_reserved": 0, "bike_id": "de678a9d98b4d8d2f4a08ebf2855109b", "lon": -77.03871716666667, "is_disabled": 0, "fusion_lat": 0.0, "fusion_lon": 0.0, "name": "de678a9d98b4d8d2f4a08ebf2855109b", "type": "electric_scooter"}, {"rental_uris": {"ios": "https://dc.lft.to/lastmile_qr_scan", "android": "https://dc.lft.to/lastmile_qr_scan"}, "lat": 38.8873915, "is_reserved": 0, "bike_id": "57b5b7b8a5dbd5436ccb72cb30f27e52", "lon": -77.02121, "is_disabled": 0, "fusion_lat": 0.0, "fusion_lon": 0.0, "name": "57b5b7b8a5dbd5436ccb72cb30f27e52", "type": "electric_scooter"}, {"rental_uris": {"ios": "https://dc.lft.to/lastmile_qr_scan", "android": "https://dc.lft.to/lastmile_qr_scan"}, "lat": 38.89818116666667, "is_reserved": 0, "bike_id": "d5867ada5f2b02ab89e5e0aaaf0200a6", "lon": -77.04815066666667, "is_disabled": 0, "fusion_lat": 0.0, "fusion_lon": 0.0, "name": "d5867ada5f2b02ab89e5e0aaaf0200a6", "type": "electric_scooter"}, {"rental_uris": {"ios": "https://dc.lft.to/lastmile_qr_scan", "android": "https://dc.lft.to/lastmile_qr_scan"}, "lat": 38.91449566666667, "is_reserved": 0, "bike_id": "e95c4bbe8eaf51a441c266ee183bad92", "lon": -77.04619216666667, "is_disabled": 0, "fusion_lat": 0.0, "fusion_lon": 0.0, "name": "e95c4bbe8eaf51a441c266ee183bad92", "type": "electric_scooter"}, {"rental_uris": {"ios": "https://dc.lft.to/lastmile_qr_scan", "android": "https://dc.lft.to/lastmile_qr_scan"}, "lat": 38.910841, "is_reserved": 0, "bike_id": "9633992b25bffd098b5016a40e626177", "lon": -77.0050045, "is_disabled": 0, "fusion_lat": 0.0, "fusion_lon": 0.0, "name": "9633992b25bffd098b5016a40e626177", "type": "electric_scooter"}, {"rental_uris": {"ios": "https://dc.lft.to/lastmile_qr_scan", "android": "https://dc.lft.to/lastmile_qr_scan"}, "lat": 38.9063445, "is_reserved": 0, "bike_id": "0090f60f5da574dbb4e7ba36698729c5", "lon": -77.072071, "is_disabled": 0, "fusion_lat": 0.0, "fusion_lon": 0.0, "name": "0090f60f5da574dbb4e7ba36698729c5", "type": "electric_scooter"}, {"rental_uris": {"ios": "https://dc.lft.to/lastmile_qr_scan", "android": "https://dc.lft.to/lastmile_qr_scan"}, "lat": 38.90267933333333, "is_reserved": 0, "bike_id": "b714a03b6a351bc76ed1c194c106e5ce", "lon": -77.03976566666667, "is_disabled": 0, "fusion_lat": 0.0, "fusion_lon": 0.0, "name": "b714a03b6a351bc76ed1c194c106e5ce", "type": "electric_scooter"}, {"rental_uris": {"ios": "https://dc.lft.to/lastmile_qr_scan", "android": "https://dc.lft.to/lastmile_qr_scan"}, "lat": 38.884036, "is_reserved": 0, "bike_id": "e80f9517ea12d05d7b048929afacd5f1", "lon": -76.95418016666666, "is_disabled": 0, "fusion_lat": 0.0, "fusion_lon": 0.0, "name": "e80f9517ea12d05d7b048929afacd5f1", "type": "electric_bike"}, {"rental_uris": {"ios": "https://dc.lft.to/lastmile_qr_scan", "android": "https://dc.lft.to/lastmile_qr_scan"}, "lat": 38.865386, "is_reserved": 0, "bike_id": "e094e0c9aeef2c0858f435eeb9b15044", "lon": -76.98976483333334, "is_disabled": 0, "fusion_lat": 0.0, "fusion_lon": 0.0, "name": "e094e0c9aeef2c0858f435eeb9b15044", "type": "electric_scooter"}, {"rental_uris": {"ios": "https://dc.lft.to/lastmile_qr_scan", "android": "https://dc.lft.to/lastmile_qr_scan"}, "lat": 38.91128333333333, "is_reserved": 0, "bike_id": "8c53e0bf42a821faa5a195cc1154adee", "lon": -77.04406233333333, "is_disabled": 0, "fusion_lat": 0.0, "fusion_lon": 0.0, "name": "8c53e0bf42a821faa5a195cc1154adee", "type": "electric_scooter"}, {"rental_uris": {"ios": "https://dc.lft.to/lastmile_qr_scan", "android": "https://dc.lft.to/lastmile_qr_scan"}, "lat": 38.928675166666665, "is_reserved": 0, "bike_id": "5c635c0c0af5106bba063156d759c410", "lon": -77.03250966666667, "is_disabled": 0, "fusion_lat": 0.0, "fusion_lon": 0.0, "name": "5c635c0c0af5106bba063156d759c410", "type": "electric_scooter"}, {"rental_uris": {"ios": "https://dc.lft.to/lastmile_qr_scan", "android": "https://dc.lft.to/lastmile_qr_scan"}, "lat": 38.90119966666666, "is_reserved": 0, "bike_id": "27fd0ff4bf1c9a1142f91dc4be509195", "lon": -77.034726, "is_disabled": 0, "fusion_lat": 0.0, "fusion_lon": 0.0, "name": "27fd0ff4bf1c9a1142f91dc4be509195", "type": "electric_scooter"}, {"rental_uris": {"ios": "https://dc.lft.to/lastmile_qr_scan", "android": "https://dc.lft.to/lastmile_qr_scan"}, "lat": 38.91626483333334, "is_reserved": 0, "bike_id": "473bc40394d4ce63930d53ce6b1855e6", "lon": -77.03211983333334, "is_disabled": 0, "fusion_lat": 0.0, "fusion_lon": 0.0, "name": "473bc40394d4ce63930d53ce6b1855e6", "type": "electric_scooter"}, {"rental_uris": {"ios": "https://dc.lft.to/lastmile_qr_scan", "android": "https://dc.lft.to/lastmile_qr_scan"}, "lat": 38.94054283333333, "is_reserved": 0, "bike_id": "728baa322f1627fe2d81f3d9fe64df37", "lon": -76.9042255, "is_disabled": 0, "fusion_lat": 0.0, "fusion_lon": 0.0, "name": "728baa322f1627fe2d81f3d9fe64df37", "type": "electric_bike"}, {"rental_uris": {"ios": "https://dc.lft.to/lastmile_qr_scan", "android": "https://dc.lft.to/lastmile_qr_scan"}, "lat": 38.91703833333333, "is_reserved": 0, "bike_id": "6364d9f55a041b7f9be7449ed5daf9fe", "lon": -77.03865533333334, "is_disabled": 0, "fusion_lat": 0.0, "fusion_lon": 0.0, "name": "6364d9f55a041b7f9be7449ed5daf9fe", "type": "electric_scooter"}, {"rental_uris": {"ios": "https://dc.lft.to/lastmile_qr_scan", "android": "https://dc.lft.to/lastmile_qr_scan"}, "lat": 38.92979916666667, "is_reserved": 0, "bike_id": "11e23f26b84d3a26d43d8eb6b761274c", "lon": -77.02523533333333, "is_disabled": 0, "fusion_lat": 0.0, "fusion_lon": 0.0, "name": "11e23f26b84d3a26d43d8eb6b761274c", "type": "electric_scooter"}, {"rental_uris": {"ios": "https://dc.lft.to/lastmile_qr_scan", "android": "https://dc.lft.to/lastmile_qr_scan"}, "lat": 38.87922066666667, "is_reserved": 0, "bike_id": "846b53823077f7b8a72bd85195013c4e", "lon": -77.00535133333334, "is_disabled": 0, "fusion_lat": 0.0, "fusion_lon": 0.0, "name": "846b53823077f7b8a72bd85195013c4e", "type": "electric_scooter"}, {"rental_uris": {"ios": "https://dc.lft.to/lastmile_qr_scan", "android": "https://dc.lft.to/lastmile_qr_scan"}, "lat": 38.93111916666667, "is_reserved": 0, "bike_id": "19bd6eec9c0ff8362e6b3142759360a8", "lon": -77.03280366666667, "is_disabled": 0, "fusion_lat": 0.0, "fusion_lon": 0.0, "name": "19bd6eec9c0ff8362e6b3142759360a8", "type": "electric_scooter"}, {"rental_uris": {"ios": "https://dc.lft.to/lastmile_qr_scan", "android": "https://dc.lft.to/lastmile_qr_scan"}, "lat": 38.90069716666667, "is_reserved": 0, "bike_id": "6668b63c29f34e801d9e012d906842fc", "lon": -77.0240575, "is_disabled": 0, "fusion_lat": 0.0, "fusion_lon": 0.0, "name": "6668b63c29f34e801d9e012d906842fc", "type": "electric_scooter"}, {"rental_uris": {"ios": "https://dc.lft.to/lastmile_qr_scan", "android": "https://dc.lft.to/lastmile_qr_scan"}, "lat": 38.9233525, "is_reserved": 0, "bike_id": "1e80ca7a2e2f14db41b0a6709582421a", "lon": -77.05348033333334, "is_disabled": 0, "fusion_lat": 0.0, "fusion_lon": 0.0, "name": "1e80ca7a2e2f14db41b0a6709582421a", "type": "electric_scooter"}, {"rental_uris": {"ios": "https://dc.lft.to/lastmile_qr_scan", "android": "https://dc.lft.to/lastmile_qr_scan"}, "lat": 38.94913483333333, "is_reserved": 0, "bike_id": "e5f4196742673a13b92e78feac68e64e", "lon": -77.00797216666666, "is_disabled": 0, "fusion_lat": 0.0, "fusion_lon": 0.0, "name": "e5f4196742673a13b92e78feac68e64e", "type": "electric_bike"}, {"rental_uris": {"ios": "https://dc.lft.to/lastmile_qr_scan", "android": "https://dc.lft.to/lastmile_qr_scan"}, "lat": 38.9030515, "is_reserved": 0, "bike_id": "824144771931e0ac33bc8e0943c8c4b4", "lon": -77.03833966666667, "is_disabled": 0, "fusion_lat": 0.0, "fusion_lon": 0.0, "name": "824144771931e0ac33bc8e0943c8c4b4", "type": "electric_scooter"}, {"rental_uris": {"ios": "https://dc.lft.to/lastmile_qr_scan", "android": "https://dc.lft.to/lastmile_qr_scan"}, "lat": 38.9392155, "is_reserved": 0, "bike_id": "b03567e4442a0e525a96cdf2313407e4", "lon": -77.03672916666666, "is_disabled": 0, "fusion_lat": 0.0, "fusion_lon": 0.0, "name": "b03567e4442a0e525a96cdf2313407e4", "type": "electric_scooter"}, {"rental_uris": {"ios": "https://dc.lft.to/lastmile_qr_scan", "android": "https://dc.lft.to/lastmile_qr_scan"}, "lat": 38.91648283333333, "is_reserved": 0, "bike_id": "53ab0ceb7937334fc13bf9f5d48ccbb5", "lon": -77.03645766666666, "is_disabled": 0, "fusion_lat": 0.0, "fusion_lon": 0.0, "name": "53ab0ceb7937334fc13bf9f5d48ccbb5", "type": "electric_scooter"}, {"rental_uris": {"ios": "https://dc.lft.to/lastmile_qr_scan", "android": "https://dc.lft.to/lastmile_qr_scan"}, "lat": 38.901247166666664, "is_reserved": 0, "bike_id": "e416856e0ed7b16063b10caedd23942a", "lon": -77.04366883333333, "is_disabled": 0, "fusion_lat": 0.0, "fusion_lon": 0.0, "name": "e416856e0ed7b16063b10caedd23942a", "type": "electric_scooter"}, {"rental_uris": {"ios": "https://dc.lft.to/lastmile_qr_scan", "android": "https://dc.lft.to/lastmile_qr_scan"}, "lat": 38.865635, "is_reserved": 0, "bike_id": "9ded1418933fbb810a723f19229dbd53", "lon": -76.98334516666667, "is_disabled": 0, "fusion_lat": 0.0, "fusion_lon": 0.0, "name": "9ded1418933fbb810a723f19229dbd53", "type": "electric_scooter"}, {"rental_uris": {"ios": "https://dc.lft.to/lastmile_qr_scan", "android": "https://dc.lft.to/lastmile_qr_scan"}, "lat": 38.89962416666667, "is_reserved": 0, "bike_id": "d84210cd15a680dbf045dde5b0877e78", "lon": -77.00672666666667, "is_disabled": 0, "fusion_lat": 0.0, "fusion_lon": 0.0, "name": "d84210cd15a680dbf045dde5b0877e78", "type": "electric_scooter"}, {"rental_uris": {"ios": "https://dc.lft.to/lastmile_qr_scan", "android": "https://dc.lft.to/lastmile_qr_scan"}, "lat": 38.89223366666667, "is_reserved": 0, "bike_id": "1411173b03294e4cefdcc7b4aded63a1", "lon": -77.04775566666666, "is_disabled": 0, "fusion_lat": 0.0, "fusion_lon": 0.0, "name": "1411173b03294e4cefdcc7b4aded63a1", "type": "electric_scooter"}, {"rental_uris": {"ios": "https://dc.lft.to/lastmile_qr_scan", "android": "https://dc.lft.to/lastmile_qr_scan"}, "lat": 38.90134283333333, "is_reserved": 0, "bike_id": "d127fbb8a23397ab57e7a1b450b3f079", "lon": -77.01809633333333, "is_disabled": 0, "fusion_lat": 0.0, "fusion_lon": 0.0, "name": "d127fbb8a23397ab57e7a1b450b3f079", "type": "electric_scooter"}, {"rental_uris": {"ios": "https://dc.lft.to/lastmile_qr_scan", "android": "https://dc.lft.to/lastmile_qr_scan"}, "lat": 38.8922115, "is_reserved": 0, "bike_id": "792bd1d23b3ed21a96a041fc3a779443", "lon": -77.0451745, "is_disabled": 0, "fusion_lat": 0.0, "fusion_lon": 0.0, "name": "792bd1d23b3ed21a96a041fc3a779443", "type": "electric_scooter"}, {"rental_uris": {"ios": "https://dc.lft.to/lastmile_qr_scan", "android": "https://dc.lft.to/lastmile_qr_scan"}, "lat": 38.915903, "is_reserved": 0, "bike_id": "57517832cf97b76c8642a4a628bcb1ae", "lon": -77.02201833333334, "is_disabled": 0, "fusion_lat": 0.0, "fusion_lon": 0.0, "name": "57517832cf97b76c8642a4a628bcb1ae", "type": "electric_scooter"}, {"rental_uris": {"ios": "https://dc.lft.to/lastmile_qr_scan", "android": "https://dc.lft.to/lastmile_qr_scan"}, "lat": 38.90242416666667, "is_reserved": 0, "bike_id": "609a8fac9a6fdca15ccf9ee0359fabde", "lon": -77.02695216666666, "is_disabled": 0, "fusion_lat": 0.0, "fusion_lon": 0.0, "name": "609a8fac9a6fdca15ccf9ee0359fabde", "type": "electric_scooter"}, {"rental_uris": {"ios": "https://dc.lft.to/lastmile_qr_scan", "android": "https://dc.lft.to/lastmile_qr_scan"}, "lat": 38.904616833333336, "is_reserved": 0, "bike_id": "2673c6e9a5efa111a89e66232633a44d", "lon": -77.043652, "is_disabled": 0, "fusion_lat": 0.0, "fusion_lon": 0.0, "name": "2673c6e9a5efa111a89e66232633a44d", "type": "electric_scooter"}, {"rental_uris": {"ios": "https://dc.lft.to/lastmile_qr_scan", "android": "https://dc.lft.to/lastmile_qr_scan"}, "lat": 38.92316783333333, "is_reserved": 0, "bike_id": "c57856b6f873910ec8a7ab40ea4ce499", "lon": -77.04183316666666, "is_disabled": 0, "fusion_lat": 0.0, "fusion_lon": 0.0, "name": "c57856b6f873910ec8a7ab40ea4ce499", "type": "electric_scooter"}, {"rental_uris": {"ios": "https://dc.lft.to/lastmile_qr_scan", "android": "https://dc.lft.to/lastmile_qr_scan"}, "lat": 38.879069666666666, "is_reserved": 0, "bike_id": "8dc7aba1b82479039f8dcc97f920cb26", "lon": -77.02201266666667, "is_disabled": 0, "fusion_lat": 0.0, "fusion_lon": 0.0, "name": "8dc7aba1b82479039f8dcc97f920cb26", "type": "electric_scooter"}, {"rental_uris": {"ios": "https://dc.lft.to/lastmile_qr_scan", "android": "https://dc.lft.to/lastmile_qr_scan"}, "lat": 38.9233835, "is_reserved": 0, "bike_id": "b0daabea742b87c002026f5fb52412e2", "lon": -77.043145, "is_disabled": 0, "fusion_lat": 0.0, "fusion_lon": 0.0, "name": "b0daabea742b87c002026f5fb52412e2", "type": "electric_scooter"}, {"rental_uris": {"ios": "https://dc.lft.to/lastmile_qr_scan", "android": "https://dc.lft.to/lastmile_qr_scan"}, "lat": 38.90381433333334, "is_reserved": 0, "bike_id": "2dad6a599e17f9e7d1fa7e6fdfc07835", "lon": -77.0362725, "is_disabled": 0, "fusion_lat": 0.0, "fusion_lon": 0.0, "name": "2dad6a599e17f9e7d1fa7e6fdfc07835", "type": "electric_scooter"}, {"rental_uris": {"ios": "https://dc.lft.to/lastmile_qr_scan", "android": "https://dc.lft.to/lastmile_qr_scan"}, "lat": 38.90406133333333, "is_reserved": 0, "bike_id": "0991e7f250d770d3228d64e17c1551ce", "lon": -77.0407955, "is_disabled": 0, "fusion_lat": 0.0, "fusion_lon": 0.0, "name": "0991e7f250d770d3228d64e17c1551ce", "type": "electric_scooter"}, {"rental_uris": {"ios": "https://dc.lft.to/lastmile_qr_scan", "android": "https://dc.lft.to/lastmile_qr_scan"}, "lat": 38.91956716666667, "is_reserved": 0, "bike_id": "1a1111c59738d503c4108a432becb74e", "lon": -77.01477783333333, "is_disabled": 0, "fusion_lat": 0.0, "fusion_lon": 0.0, "name": "1a1111c59738d503c4108a432becb74e", "type": "electric_scooter"}, {"rental_uris": {"ios": "https://dc.lft.to/lastmile_qr_scan", "android": "https://dc.lft.to/lastmile_qr_scan"}, "lat": 38.92791916666667, "is_reserved": 0, "bike_id": "6b2b1ca2a3c27817dd6efc807ed3de6e", "lon": -77.05530183333333, "is_disabled": 0, "fusion_lat": 0.0, "fusion_lon": 0.0, "name": "6b2b1ca2a3c27817dd6efc807ed3de6e", "type": "electric_scooter"}, {"rental_uris": {"ios": "https://dc.lft.to/lastmile_qr_scan", "android": "https://dc.lft.to/lastmile_qr_scan"}, "lat": 38.884647333333334, "is_reserved": 0, "bike_id": "45d58827cceae417968700e02362d02d", "lon": -76.956668, "is_disabled": 0, "fusion_lat": 0.0, "fusion_lon": 0.0, "name": "45d58827cceae417968700e02362d02d", "type": "electric_bike"}, {"rental_uris": {"ios": "https://dc.lft.to/lastmile_qr_scan", "android": "https://dc.lft.to/lastmile_qr_scan"}, "lat": 38.8746105, "is_reserved": 0, "bike_id": "a57faea060bd8e36dd7397974767bbf3", "lon": -77.0083375, "is_disabled": 0, "fusion_lat": 0.0, "fusion_lon": 0.0, "name": "a57faea060bd8e36dd7397974767bbf3", "type": "electric_scooter"}, {"rental_uris": {"ios": "https://dc.lft.to/lastmile_qr_scan", "android": "https://dc.lft.to/lastmile_qr_scan"}, "lat": 38.89748933333333, "is_reserved": 0, "bike_id": "5fad34a1c460db85c3c8cd7535a579b0", "lon": -77.0189105, "is_disabled": 0, "fusion_lat": 0.0, "fusion_lon": 0.0, "name": "5fad34a1c460db85c3c8cd7535a579b0", "type": "electric_scooter"}, {"rental_uris": {"ios": "https://dc.lft.to/lastmile_qr_scan", "android": "https://dc.lft.to/lastmile_qr_scan"}, "lat": 38.91831116666667, "is_reserved": 0, "bike_id": "14ab57d3ecab14d4c18160213a017e78", "lon": -77.03890383333334, "is_disabled": 0, "fusion_lat": 0.0, "fusion_lon": 0.0, "name": "14ab57d3ecab14d4c18160213a017e78", "type": "electric_scooter"}, {"rental_uris": {"ios": "https://dc.lft.to/lastmile_qr_scan", "android": "https://dc.lft.to/lastmile_qr_scan"}, "lat": 38.90686933333333, "is_reserved": 0, "bike_id": "ead6c677a92919b7335afbbd9c085bd5", "lon": -76.98498233333333, "is_disabled": 0, "fusion_lat": 0.0, "fusion_lon": 0.0, "name": "ead6c677a92919b7335afbbd9c085bd5", "type": "electric_scooter"}, {"rental_uris": {"ios": "https://dc.lft.to/lastmile_qr_scan", "android": "https://dc.lft.to/lastmile_qr_scan"}, "lat": 38.882657333333334, "is_reserved": 0, "bike_id": "d88b6e4628dfe340690ad48baba3cefa", "lon": -76.994884, "is_disabled": 0, "fusion_lat": 0.0, "fusion_lon": 0.0, "name": "d88b6e4628dfe340690ad48baba3cefa", "type": "electric_scooter"}, {"rental_uris": {"ios": "https://dc.lft.to/lastmile_qr_scan", "android": "https://dc.lft.to/lastmile_qr_scan"}, "lat": 38.93507733333333, "is_reserved": 0, "bike_id": "e3a13558d0c4a9fc71fa752f6639107f", "lon": -77.02408616666666, "is_disabled": 0, "fusion_lat": 0.0, "fusion_lon": 0.0, "name": "e3a13558d0c4a9fc71fa752f6639107f", "type": "electric_scooter"}, {"rental_uris": {"ios": "https://dc.lft.to/lastmile_qr_scan", "android": "https://dc.lft.to/lastmile_qr_scan"}, "lat": 38.924698, "is_reserved": 0, "bike_id": "994a36991a0af359984e79cac5a2affb", "lon": -77.02202533333333, "is_disabled": 0, "fusion_lat": 0.0, "fusion_lon": 0.0, "name": "994a36991a0af359984e79cac5a2affb", "type": "electric_scooter"}, {"rental_uris": {"ios": "https://dc.lft.to/lastmile_qr_scan", "android": "https://dc.lft.to/lastmile_qr_scan"}, "lat": 38.876285833333334, "is_reserved": 0, "bike_id": "3240e8eaf2523d0061b9422a99749cf4", "lon": -77.009945, "is_disabled": 0, "fusion_lat": 0.0, "fusion_lon": 0.0, "name": "3240e8eaf2523d0061b9422a99749cf4", "type": "electric_scooter"}, {"rental_uris": {"ios": "https://dc.lft.to/lastmile_qr_scan", "android": "https://dc.lft.to/lastmile_qr_scan"}, "lat": 38.95722283333333, "is_reserved": 0, "bike_id": "d2b59113f0482e1b64ed7a253e048a1f", "lon": -77.028759, "is_disabled": 0, "fusion_lat": 0.0, "fusion_lon": 0.0, "name": "d2b59113f0482e1b64ed7a253e048a1f", "type": "electric_scooter"}, {"rental_uris": {"ios": "https://dc.lft.to/lastmile_qr_scan", "android": "https://dc.lft.to/lastmile_qr_scan"}, "lat": 38.90227983333333, "is_reserved": 0, "bike_id": "de1a2bb52bb99facb122c437f5717b45", "lon": -77.037663, "is_disabled": 0, "fusion_lat": 0.0, "fusion_lon": 0.0, "name": "de1a2bb52bb99facb122c437f5717b45", "type": "electric_scooter"}, {"rental_uris": {"ios": "https://dc.lft.to/lastmile_qr_scan", "android": "https://dc.lft.to/lastmile_qr_scan"}, "lat": 38.88645416666667, "is_reserved": 0, "bike_id": "77b0d66c67d27bfb611c648242437042", "lon": -77.01536883333333, "is_disabled": 0, "fusion_lat": 0.0, "fusion_lon": 0.0, "name": "77b0d66c67d27bfb611c648242437042", "type": "electric_scooter"}, {"rental_uris": {"ios": "https://dc.lft.to/lastmile_qr_scan", "android": "https://dc.lft.to/lastmile_qr_scan"}, "lat": 38.909712, "is_reserved": 0, "bike_id": "be391cfa58ea2920c98ae02b2cb3c85d", "lon": -77.0384365, "is_disabled": 0, "fusion_lat": 0.0, "fusion_lon": 0.0, "name": "be391cfa58ea2920c98ae02b2cb3c85d", "type": "electric_scooter"}, {"rental_uris": {"ios": "https://dc.lft.to/lastmile_qr_scan", "android": "https://dc.lft.to/lastmile_qr_scan"}, "lat": 38.89740533333333, "is_reserved": 0, "bike_id": "1200dba18d20089cd0f5b6add5a1ea68", "lon": -77.0471025, "is_disabled": 0, "fusion_lat": 0.0, "fusion_lon": 0.0, "name": "1200dba18d20089cd0f5b6add5a1ea68", "type": "electric_scooter"}, {"rental_uris": {"ios": "https://dc.lft.to/lastmile_qr_scan", "android": "https://dc.lft.to/lastmile_qr_scan"}, "lat": 38.88488483333333, "is_reserved": 0, "bike_id": "4a31db11f7b6313ca59fd5ca615cd8aa", "lon": -77.0071145, "is_disabled": 0, "fusion_lat": 0.0, "fusion_lon": 0.0, "name": "4a31db11f7b6313ca59fd5ca615cd8aa", "type": "electric_scooter"}, {"rental_uris": {"ios": "https://dc.lft.to/lastmile_qr_scan", "android": "https://dc.lft.to/lastmile_qr_scan"}, "lat": 38.90653116666667, "is_reserved": 0, "bike_id": "21bd1622df34a2ec9188f532c2f52a3a", "lon": -77.02528016666666, "is_disabled": 0, "fusion_lat": 0.0, "fusion_lon": 0.0, "name": "21bd1622df34a2ec9188f532c2f52a3a", "type": "electric_scooter"}, {"rental_uris": {"ios": "https://dc.lft.to/lastmile_qr_scan", "android": "https://dc.lft.to/lastmile_qr_scan"}, "lat": 39.034031, "is_reserved": 0, "bike_id": "a7ab44c6844597b9af04c0bb44d53f64", "lon": -77.0414835, "is_disabled": 0, "fusion_lat": 0.0, "fusion_lon": 0.0, "name": "a7ab44c6844597b9af04c0bb44d53f64", "type": "electric_bike"}, {"rental_uris": {"ios": "https://dc.lft.to/lastmile_qr_scan", "android": "https://dc.lft.to/lastmile_qr_scan"}, "lat": 38.930944, "is_reserved": 0, "bike_id": "54b641df38f383a1e22c0880f7f7dc90", "lon": -77.0248235, "is_disabled": 0, "fusion_lat": 0.0, "fusion_lon": 0.0, "name": "54b641df38f383a1e22c0880f7f7dc90", "type": "electric_scooter"}, {"rental_uris": {"ios": "https://dc.lft.to/lastmile_qr_scan", "android": "https://dc.lft.to/lastmile_qr_scan"}, "lat": 38.845523166666666, "is_reserved": 0, "bike_id": "d7a829c15f7f25bf82391fc70a9ac0cc", "lon": -76.98776483333333, "is_disabled": 0, "fusion_lat": 0.0, "fusion_lon": 0.0, "name": "d7a829c15f7f25bf82391fc70a9ac0cc", "type": "electric_bike"}, {"rental_uris": {"ios": "https://dc.lft.to/lastmile_qr_scan", "android": "https://dc.lft.to/lastmile_qr_scan"}, "lat": 38.8728895, "is_reserved": 0, "bike_id": "359701d4abbb0bf7a3fb6c2186d8fb59", "lon": -76.99960416666667, "is_disabled": 0, "fusion_lat": 0.0, "fusion_lon": 0.0, "name": "359701d4abbb0bf7a3fb6c2186d8fb59", "type": "electric_scooter"}, {"rental_uris": {"ios": "https://dc.lft.to/lastmile_qr_scan", "android": "https://dc.lft.to/lastmile_qr_scan"}, "lat": 38.90337483333333, "is_reserved": 0, "bike_id": "744b1cb763e8f504504a2fc66843adec", "lon": -77.0591385, "is_disabled": 0, "fusion_lat": 0.0, "fusion_lon": 0.0, "name": "744b1cb763e8f504504a2fc66843adec", "type": "electric_scooter"}, {"rental_uris": {"ios": "https://dc.lft.to/lastmile_qr_scan", "android": "https://dc.lft.to/lastmile_qr_scan"}, "lat": 38.85713883333333, "is_reserved": 0, "bike_id": "71b5e370384ae23b5a78c27ed283f697", "lon": -76.99599183333333, "is_disabled": 0, "fusion_lat": 0.0, "fusion_lon": 0.0, "name": "71b5e370384ae23b5a78c27ed283f697", "type": "electric_scooter"}, {"rental_uris": {"ios": "https://dc.lft.to/lastmile_qr_scan", "android": "https://dc.lft.to/lastmile_qr_scan"}, "lat": 38.91700016666667, "is_reserved": 0, "bike_id": "e949be9037a7c623c1ec20846426d5ef", "lon": -77.0288985, "is_disabled": 0, "fusion_lat": 0.0, "fusion_lon": 0.0, "name": "e949be9037a7c623c1ec20846426d5ef", "type": "electric_scooter"}, {"rental_uris": {"ios": "https://dc.lft.to/lastmile_qr_scan", "android": "https://dc.lft.to/lastmile_qr_scan"}, "lat": 38.91116733333333, "is_reserved": 0, "bike_id": "3dd91437a0b8b184f08d7fa7588b24bf", "lon": -77.0424305, "is_disabled": 0, "fusion_lat": 0.0, "fusion_lon": 0.0, "name": "3dd91437a0b8b184f08d7fa7588b24bf", "type": "electric_scooter"}, {"rental_uris": {"ios": "https://dc.lft.to/lastmile_qr_scan", "android": "https://dc.lft.to/lastmile_qr_scan"}, "lat": 38.91112116666667, "is_reserved": 0, "bike_id": "67423c1234fc9cfd6e6580f12d8bb5ac", "lon": -76.9977025, "is_disabled": 0, "fusion_lat": 0.0, "fusion_lon": 0.0, "name": "67423c1234fc9cfd6e6580f12d8bb5ac", "type": "electric_scooter"}, {"rental_uris": {"ios": "https://dc.lft.to/lastmile_qr_scan", "android": "https://dc.lft.to/lastmile_qr_scan"}, "lat": 38.91111166666666, "is_reserved": 0, "bike_id": "60d2a94070d6e7f29678f54df710df89", "lon": -77.03837583333333, "is_disabled": 0, "fusion_lat": 0.0, "fusion_lon": 0.0, "name": "60d2a94070d6e7f29678f54df710df89", "type": "electric_scooter"}, {"rental_uris": {"ios": "https://dc.lft.to/lastmile_qr_scan", "android": "https://dc.lft.to/lastmile_qr_scan"}, "lat": 38.92716566666667, "is_reserved": 0, "bike_id": "e930999e3ea3d845e0d8c154847eaa5f", "lon": -77.0231665, "is_disabled": 0, "fusion_lat": 0.0, "fusion_lon": 0.0, "name": "e930999e3ea3d845e0d8c154847eaa5f", "type": "electric_scooter"}, {"rental_uris": {"ios": "https://dc.lft.to/lastmile_qr_scan", "android": "https://dc.lft.to/lastmile_qr_scan"}, "lat": 38.91142816666667, "is_reserved": 0, "bike_id": "7ed4a28918540783115cb02f5660908a", "lon": -77.023935, "is_disabled": 0, "fusion_lat": 0.0, "fusion_lon": 0.0, "name": "7ed4a28918540783115cb02f5660908a", "type": "electric_scooter"}, {"rental_uris": {"ios": "https://dc.lft.to/lastmile_qr_scan", "android": "https://dc.lft.to/lastmile_qr_scan"}, "lat": 38.90341983333333, "is_reserved": 0, "bike_id": "fcd2e65ed65e48d4c7256cd275dc9e54", "lon": -77.02010983333334, "is_disabled": 0, "fusion_lat": 0.0, "fusion_lon": 0.0, "name": "fcd2e65ed65e48d4c7256cd275dc9e54", "type": "electric_scooter"}, {"rental_uris": {"ios": "https://dc.lft.to/lastmile_qr_scan", "android": "https://dc.lft.to/lastmile_qr_scan"}, "lat": 38.92599833333333, "is_reserved": 0, "bike_id": "3d0ec111b59df7eb513219c4413c205f", "lon": -77.02584833333333, "is_disabled": 0, "fusion_lat": 0.0, "fusion_lon": 0.0, "name": "3d0ec111b59df7eb513219c4413c205f", "type": "electric_scooter"}, {"rental_uris": {"ios": "https://dc.lft.to/lastmile_qr_scan", "android": "https://dc.lft.to/lastmile_qr_scan"}, "lat": 38.90240883333333, "is_reserved": 0, "bike_id": "3fcfede39d7a811500baa73933a1648b", "lon": -77.001965, "is_disabled": 0, "fusion_lat": 0.0, "fusion_lon": 0.0, "name": "3fcfede39d7a811500baa73933a1648b", "type": "electric_scooter"}, {"rental_uris": {"ios": "https://dc.lft.to/lastmile_qr_scan", "android": "https://dc.lft.to/lastmile_qr_scan"}, "lat": 38.88888033333333, "is_reserved": 0, "bike_id": "7a3a5f4a8bb1221c5b43ca129ad63b16", "lon": -77.03325183333334, "is_disabled": 0, "fusion_lat": 0.0, "fusion_lon": 0.0, "name": "7a3a5f4a8bb1221c5b43ca129ad63b16", "type": "electric_scooter"}, {"rental_uris": {"ios": "https://dc.lft.to/lastmile_qr_scan", "android": "https://dc.lft.to/lastmile_qr_scan"}, "lat": 38.908238833333336, "is_reserved": 0, "bike_id": "6d7d5dbf5c067e2341f0a670409ce338", "lon": -77.03562966666667, "is_disabled": 0, "fusion_lat": 0.0, "fusion_lon": 0.0, "name": "6d7d5dbf5c067e2341f0a670409ce338", "type": "electric_scooter"}, {"rental_uris": {"ios": "https://dc.lft.to/lastmile_qr_scan", "android": "https://dc.lft.to/lastmile_qr_scan"}, "lat": 38.9074235, "is_reserved": 0, "bike_id": "cd36603429e899df2d60200831c1d0c4", "lon": -77.04272516666667, "is_disabled": 0, "fusion_lat": 0.0, "fusion_lon": 0.0, "name": "cd36603429e899df2d60200831c1d0c4", "type": "electric_scooter"}, {"rental_uris": {"ios": "https://dc.lft.to/lastmile_qr_scan", "android": "https://dc.lft.to/lastmile_qr_scan"}, "lat": 38.928785, "is_reserved": 0, "bike_id": "055e641cfbe863ec28c81d7c499eb16a", "lon": -77.03318333333333, "is_disabled": 0, "fusion_lat": 0.0, "fusion_lon": 0.0, "name": "055e641cfbe863ec28c81d7c499eb16a", "type": "electric_scooter"}, {"rental_uris": {"ios": "https://dc.lft.to/lastmile_qr_scan", "android": "https://dc.lft.to/lastmile_qr_scan"}, "lat": 38.8813785, "is_reserved": 0, "bike_id": "78f2b00525a11d7e3ccb9620c6e68fa9", "lon": -77.01648866666666, "is_disabled": 0, "fusion_lat": 0.0, "fusion_lon": 0.0, "name": "78f2b00525a11d7e3ccb9620c6e68fa9", "type": "electric_scooter"}, {"rental_uris": {"ios": "https://dc.lft.to/lastmile_qr_scan", "android": "https://dc.lft.to/lastmile_qr_scan"}, "lat": 38.89554916666667, "is_reserved": 0, "bike_id": "6badd1a5af52481d40b8823b7e363fe6", "lon": -77.0467795, "is_disabled": 0, "fusion_lat": 0.0, "fusion_lon": 0.0, "name": "6badd1a5af52481d40b8823b7e363fe6", "type": "electric_scooter"}, {"rental_uris": {"ios": "https://dc.lft.to/lastmile_qr_scan", "android": "https://dc.lft.to/lastmile_qr_scan"}, "lat": 38.93173566666667, "is_reserved": 0, "bike_id": "d6d0623aa44ce62d1433f5a7aaf00254", "lon": -77.0783855, "is_disabled": 0, "fusion_lat": 0.0, "fusion_lon": 0.0, "name": "d6d0623aa44ce62d1433f5a7aaf00254", "type": "electric_scooter"}, {"rental_uris": {"ios": "https://dc.lft.to/lastmile_qr_scan", "android": "https://dc.lft.to/lastmile_qr_scan"}, "lat": 38.892214333333335, "is_reserved": 0, "bike_id": "fe46a68cfd3741d75e82b28d6b6302ba", "lon": -77.04688166666666, "is_disabled": 0, "fusion_lat": 0.0, "fusion_lon": 0.0, "name": "fe46a68cfd3741d75e82b28d6b6302ba", "type": "electric_scooter"}, {"rental_uris": {"ios": "https://dc.lft.to/lastmile_qr_scan", "android": "https://dc.lft.to/lastmile_qr_scan"}, "lat": 38.917731833333335, "is_reserved": 0, "bike_id": "43f897c22b8b42e01c096bd60a22c0bc", "lon": -77.01455166666666, "is_disabled": 0, "fusion_lat": 0.0, "fusion_lon": 0.0, "name": "43f897c22b8b42e01c096bd60a22c0bc", "type": "electric_scooter"}, {"rental_uris": {"ios": "https://dc.lft.to/lastmile_qr_scan", "android": "https://dc.lft.to/lastmile_qr_scan"}, "lat": 38.897318166666665, "is_reserved": 0, "bike_id": "a59f70d7b763ead2280f54ced253d1bc", "lon": -77.003696, "is_disabled": 0, "fusion_lat": 0.0, "fusion_lon": 0.0, "name": "a59f70d7b763ead2280f54ced253d1bc", "type": "electric_scooter"}, {"rental_uris": {"ios": "https://dc.lft.to/lastmile_qr_scan", "android": "https://dc.lft.to/lastmile_qr_scan"}, "lat": 38.866221, "is_reserved": 0, "bike_id": "1e8495696ccc61330377547bd54643f9", "lon": -76.98717466666666, "is_disabled": 0, "fusion_lat": 0.0, "fusion_lon": 0.0, "name": "1e8495696ccc61330377547bd54643f9", "type": "electric_scooter"}, {"rental_uris": {"ios": "https://dc.lft.to/lastmile_qr_scan", "android": "https://dc.lft.to/lastmile_qr_scan"}, "lat": 38.92423866666667, "is_reserved": 0, "bike_id": "cf2827cc1a5b69f81ec5d7da10b20e10", "lon": -77.019519, "is_disabled": 0, "fusion_lat": 0.0, "fusion_lon": 0.0, "name": "cf2827cc1a5b69f81ec5d7da10b20e10", "type": "electric_scooter"}, {"rental_uris": {"ios": "https://dc.lft.to/lastmile_qr_scan", "android": "https://dc.lft.to/lastmile_qr_scan"}, "lat": 38.86217383333333, "is_reserved": 0, "bike_id": "2266a6e262cff41ed272cbac6a758f3d", "lon": -76.99488433333333, "is_disabled": 0, "fusion_lat": 0.0, "fusion_lon": 0.0, "name": "2266a6e262cff41ed272cbac6a758f3d", "type": "electric_scooter"}, {"rental_uris": {"ios": "https://dc.lft.to/lastmile_qr_scan", "android": "https://dc.lft.to/lastmile_qr_scan"}, "lat": 38.9287275, "is_reserved": 0, "bike_id": "00caf6002a744b05ca9940ec94f4c1a1", "lon": -77.03322333333334, "is_disabled": 0, "fusion_lat": 0.0, "fusion_lon": 0.0, "name": "00caf6002a744b05ca9940ec94f4c1a1", "type": "electric_scooter"}, {"rental_uris": {"ios": "https://dc.lft.to/lastmile_qr_scan", "android": "https://dc.lft.to/lastmile_qr_scan"}, "lat": 38.87783066666667, "is_reserved": 0, "bike_id": "c66407d77460d01eb07074270d57feb6", "lon": -76.99409566666667, "is_disabled": 0, "fusion_lat": 0.0, "fusion_lon": 0.0, "name": "c66407d77460d01eb07074270d57feb6", "type": "electric_scooter"}, {"rental_uris": {"ios": "https://dc.lft.to/lastmile_qr_scan", "android": "https://dc.lft.to/lastmile_qr_scan"}, "lat": 38.92046583333333, "is_reserved": 0, "bike_id": "be51e49686292a07925ed28c6e8e5b2a", "lon": -77.03442866666667, "is_disabled": 0, "fusion_lat": 0.0, "fusion_lon": 0.0, "name": "be51e49686292a07925ed28c6e8e5b2a", "type": "electric_scooter"}, {"rental_uris": {"ios": "https://dc.lft.to/lastmile_qr_scan", "android": "https://dc.lft.to/lastmile_qr_scan"}, "lat": 38.90766166666667, "is_reserved": 0, "bike_id": "c0c542a204915b40012456ea9b3f19af", "lon": -77.038401, "is_disabled": 0, "fusion_lat": 0.0, "fusion_lon": 0.0, "name": "c0c542a204915b40012456ea9b3f19af", "type": "electric_scooter"}, {"rental_uris": {"ios": "https://dc.lft.to/lastmile_qr_scan", "android": "https://dc.lft.to/lastmile_qr_scan"}, "lat": 38.898920333333336, "is_reserved": 0, "bike_id": "119ce488b65baa0567c37c5cc3178bce", "lon": -77.02819683333334, "is_disabled": 0, "fusion_lat": 0.0, "fusion_lon": 0.0, "name": "119ce488b65baa0567c37c5cc3178bce", "type": "electric_scooter"}, {"rental_uris": {"ios": "https://dc.lft.to/lastmile_qr_scan", "android": "https://dc.lft.to/lastmile_qr_scan"}, "lat": 38.90699983333333, "is_reserved": 0, "bike_id": "963629addb37dbe0b6f9571e3ffccbee", "lon": -77.00211216666666, "is_disabled": 0, "fusion_lat": 0.0, "fusion_lon": 0.0, "name": "963629addb37dbe0b6f9571e3ffccbee", "type": "electric_scooter"}, {"rental_uris": {"ios": "https://dc.lft.to/lastmile_qr_scan", "android": "https://dc.lft.to/lastmile_qr_scan"}, "lat": 38.919270833333336, "is_reserved": 0, "bike_id": "30ebb2b66cb6db8e35f05d31c57b95b9", "lon": -77.0341835, "is_disabled": 0, "fusion_lat": 0.0, "fusion_lon": 0.0, "name": "30ebb2b66cb6db8e35f05d31c57b95b9", "type": "electric_scooter"}, {"rental_uris": {"ios": "https://dc.lft.to/lastmile_qr_scan", "android": "https://dc.lft.to/lastmile_qr_scan"}, "lat": 38.903863, "is_reserved": 0, "bike_id": "f12e3dae7d72ca51bd7ea82b513d14a8", "lon": -77.0362685, "is_disabled": 0, "fusion_lat": 0.0, "fusion_lon": 0.0, "name": "f12e3dae7d72ca51bd7ea82b513d14a8", "type": "electric_scooter"}, {"rental_uris": {"ios": "https://dc.lft.to/lastmile_qr_scan", "android": "https://dc.lft.to/lastmile_qr_scan"}, "lat": 38.899598833333336, "is_reserved": 0, "bike_id": "afb7360ce31747b4e88465975947f970", "lon": -77.04146166666666, "is_disabled": 0, "fusion_lat": 0.0, "fusion_lon": 0.0, "name": "afb7360ce31747b4e88465975947f970", "type": "electric_scooter"}, {"rental_uris": {"ios": "https://dc.lft.to/lastmile_qr_scan", "android": "https://dc.lft.to/lastmile_qr_scan"}, "lat": 38.916926333333336, "is_reserved": 0, "bike_id": "0a12f00450a2d39a0acfb89856a82022", "lon": -77.02804466666667, "is_disabled": 0, "fusion_lat": 0.0, "fusion_lon": 0.0, "name": "0a12f00450a2d39a0acfb89856a82022", "type": "electric_scooter"}, {"rental_uris": {"ios": "https://dc.lft.to/lastmile_qr_scan", "android": "https://dc.lft.to/lastmile_qr_scan"}, "lat": 38.89232833333333, "is_reserved": 0, "bike_id": "b471bfbfa1c0d4a5127735625b3f11fa", "lon": -77.04876666666667, "is_disabled": 0, "fusion_lat": 0.0, "fusion_lon": 0.0, "name": "b471bfbfa1c0d4a5127735625b3f11fa", "type": "electric_scooter"}, {"rental_uris": {"ios": "https://dc.lft.to/lastmile_qr_scan", "android": "https://dc.lft.to/lastmile_qr_scan"}, "lat": 38.9013915, "is_reserved": 0, "bike_id": "5edd3dc470af1ed2339f96565b69ddf8", "lon": -77.05920416666666, "is_disabled": 0, "fusion_lat": 0.0, "fusion_lon": 0.0, "name": "5edd3dc470af1ed2339f96565b69ddf8", "type": "electric_scooter"}, {"rental_uris": {"ios": "https://dc.lft.to/lastmile_qr_scan", "android": "https://dc.lft.to/lastmile_qr_scan"}, "lat": 38.91069, "is_reserved": 0, "bike_id": "0582e0480792c9e945e8abbc1d703fb9", "lon": -77.00455816666667, "is_disabled": 0, "fusion_lat": 0.0, "fusion_lon": 0.0, "name": "0582e0480792c9e945e8abbc1d703fb9", "type": "electric_scooter"}, {"rental_uris": {"ios": "https://dc.lft.to/lastmile_qr_scan", "android": "https://dc.lft.to/lastmile_qr_scan"}, "lat": 38.90852316666667, "is_reserved": 0, "bike_id": "6751a283c4a9e13e0f35570eca98a2d4", "lon": -77.01970333333334, "is_disabled": 0, "fusion_lat": 0.0, "fusion_lon": 0.0, "name": "6751a283c4a9e13e0f35570eca98a2d4", "type": "electric_scooter"}, {"rental_uris": {"ios": "https://dc.lft.to/lastmile_qr_scan", "android": "https://dc.lft.to/lastmile_qr_scan"}, "lat": 38.915970333333334, "is_reserved": 0, "bike_id": "18f7d3fba174060d142a5634e81aa321", "lon": -77.02100233333333, "is_disabled": 0, "fusion_lat": 0.0, "fusion_lon": 0.0, "name": "18f7d3fba174060d142a5634e81aa321", "type": "electric_scooter"}, {"rental_uris": {"ios": "https://dc.lft.to/lastmile_qr_scan", "android": "https://dc.lft.to/lastmile_qr_scan"}, "lat": 38.905966166666666, "is_reserved": 0, "bike_id": "546d2293dd017594a5ef5bcac36a0d22", "lon": -77.00199466666666, "is_disabled": 0, "fusion_lat": 0.0, "fusion_lon": 0.0, "name": "546d2293dd017594a5ef5bcac36a0d22", "type": "electric_scooter"}, {"rental_uris": {"ios": "https://dc.lft.to/lastmile_qr_scan", "android": "https://dc.lft.to/lastmile_qr_scan"}, "lat": 38.92389766666667, "is_reserved": 0, "bike_id": "3b3a21cc29be456eb8d4b26b639a804d", "lon": -77.02975433333333, "is_disabled": 0, "fusion_lat": 0.0, "fusion_lon": 0.0, "name": "3b3a21cc29be456eb8d4b26b639a804d", "type": "electric_scooter"}, {"rental_uris": {"ios": "https://dc.lft.to/lastmile_qr_scan", "android": "https://dc.lft.to/lastmile_qr_scan"}, "lat": 38.92721983333333, "is_reserved": 0, "bike_id": "03a0e58f5eee72974e17877d92b51fd4", "lon": -77.0324495, "is_disabled": 0, "fusion_lat": 0.0, "fusion_lon": 0.0, "name": "03a0e58f5eee72974e17877d92b51fd4", "type": "electric_scooter"}, {"rental_uris": {"ios": "https://dc.lft.to/lastmile_qr_scan", "android": "https://dc.lft.to/lastmile_qr_scan"}, "lat": 38.907742666666664, "is_reserved": 0, "bike_id": "d73193dbbde4cef27260520e922ff2aa", "lon": -77.07149116666666, "is_disabled": 0, "fusion_lat": 0.0, "fusion_lon": 0.0, "name": "d73193dbbde4cef27260520e922ff2aa", "type": "electric_scooter"}, {"rental_uris": {"ios": "https://dc.lft.to/lastmile_qr_scan", "android": "https://dc.lft.to/lastmile_qr_scan"}, "lat": 38.93729483333333, "is_reserved": 0, "bike_id": "95c418e69fbb14fad3785ae21a151b06", "lon": -77.0244395, "is_disabled": 0, "fusion_lat": 0.0, "fusion_lon": 0.0, "name": "95c418e69fbb14fad3785ae21a151b06", "type": "electric_scooter"}, {"rental_uris": {"ios": "https://dc.lft.to/lastmile_qr_scan", "android": "https://dc.lft.to/lastmile_qr_scan"}, "lat": 38.88743366666667, "is_reserved": 0, "bike_id": "5c47aac0391dcc533c4e72dbdd5f94b9", "lon": -77.01728016666667, "is_disabled": 0, "fusion_lat": 0.0, "fusion_lon": 0.0, "name": "5c47aac0391dcc533c4e72dbdd5f94b9", "type": "electric_scooter"}, {"rental_uris": {"ios": "https://dc.lft.to/lastmile_qr_scan", "android": "https://dc.lft.to/lastmile_qr_scan"}, "lat": 38.858049666666666, "is_reserved": 0, "bike_id": "b4315b885b3224bca30eea0749b5a0c1", "lon": -76.98654533333334, "is_disabled": 0, "fusion_lat": 0.0, "fusion_lon": 0.0, "name": "b4315b885b3224bca30eea0749b5a0c1", "type": "electric_scooter"}, {"rental_uris": {"ios": "https://dc.lft.to/lastmile_qr_scan", "android": "https://dc.lft.to/lastmile_qr_scan"}, "lat": 38.911119166666666, "is_reserved": 0, "bike_id": "e3d8b6572b1c210e0ccf0f2f1dffb6d5", "lon": -77.04461933333333, "is_disabled": 0, "fusion_lat": 0.0, "fusion_lon": 0.0, "name": "e3d8b6572b1c210e0ccf0f2f1dffb6d5", "type": "electric_scooter"}, {"rental_uris": {"ios": "https://dc.lft.to/lastmile_qr_scan", "android": "https://dc.lft.to/lastmile_qr_scan"}, "lat": 38.910553, "is_reserved": 0, "bike_id": "96bc4397250882e204de79eb2f5ac99f", "lon": -77.04082316666667, "is_disabled": 0, "fusion_lat": 0.0, "fusion_lon": 0.0, "name": "96bc4397250882e204de79eb2f5ac99f", "type": "electric_scooter"}, {"rental_uris": {"ios": "https://dc.lft.to/lastmile_qr_scan", "android": "https://dc.lft.to/lastmile_qr_scan"}, "lat": 38.892229666666665, "is_reserved": 0, "bike_id": "41362286859b4e2a58614513227a3f7e", "lon": -77.02207816666666, "is_disabled": 0, "fusion_lat": 0.0, "fusion_lon": 0.0, "name": "41362286859b4e2a58614513227a3f7e", "type": "electric_scooter"}, {"rental_uris": {"ios": "https://dc.lft.to/lastmile_qr_scan", "android": "https://dc.lft.to/lastmile_qr_scan"}, "lat": 38.88518366666667, "is_reserved": 0, "bike_id": "d520813b07ef52f056b4d73fba265345", "lon": -77.0027485, "is_disabled": 0, "fusion_lat": 0.0, "fusion_lon": 0.0, "name": "d520813b07ef52f056b4d73fba265345", "type": "electric_scooter"}, {"rental_uris": {"ios": "https://dc.lft.to/lastmile_qr_scan", "android": "https://dc.lft.to/lastmile_qr_scan"}, "lat": 38.866268166666664, "is_reserved": 0, "bike_id": "9d3cedf868d22d3cbd0ce5951b1f9edc", "lon": -76.98714666666666, "is_disabled": 0, "fusion_lat": 0.0, "fusion_lon": 0.0, "name": "9d3cedf868d22d3cbd0ce5951b1f9edc", "type": "electric_scooter"}, {"rental_uris": {"ios": "https://dc.lft.to/lastmile_qr_scan", "android": "https://dc.lft.to/lastmile_qr_scan"}, "lat": 38.88397966666667, "is_reserved": 0, "bike_id": "00cf1ad8bcea37ea6924c298be55d481", "lon": -77.015239, "is_disabled": 0, "fusion_lat": 0.0, "fusion_lon": 0.0, "name": "00cf1ad8bcea37ea6924c298be55d481", "type": "electric_scooter"}, {"rental_uris": {"ios": "https://dc.lft.to/lastmile_qr_scan", "android": "https://dc.lft.to/lastmile_qr_scan"}, "lat": 38.86679383333333, "is_reserved": 0, "bike_id": "e09abec34c55bc3d8093b282c50db093", "lon": -76.9857345, "is_disabled": 0, "fusion_lat": 0.0, "fusion_lon": 0.0, "name": "e09abec34c55bc3d8093b282c50db093", "type": "electric_scooter"}, {"rental_uris": {"ios": "https://dc.lft.to/lastmile_qr_scan", "android": "https://dc.lft.to/lastmile_qr_scan"}, "lat": 38.82788816666667, "is_reserved": 0, "bike_id": "40be5f75130064ed4760ad0a0b5f3162", "lon": -77.12489483333333, "is_disabled": 0, "fusion_lat": 0.0, "fusion_lon": 0.0, "name": "40be5f75130064ed4760ad0a0b5f3162", "type": "electric_bike"}, {"rental_uris": {"ios": "https://dc.lft.to/lastmile_qr_scan", "android": "https://dc.lft.to/lastmile_qr_scan"}, "lat": 38.8651135, "is_reserved": 0, "bike_id": "6b2eeefe043ed9b760e3a6cb3a4b717e", "lon": -76.97319216666666, "is_disabled": 0, "fusion_lat": 0.0, "fusion_lon": 0.0, "name": "6b2eeefe043ed9b760e3a6cb3a4b717e", "type": "electric_bike"}, {"rental_uris": {"ios": "https://dc.lft.to/lastmile_qr_scan", "android": "https://dc.lft.to/lastmile_qr_scan"}, "lat": 38.90959466666666, "is_reserved": 0, "bike_id": "529122c5b96cfcba2c4bd1d002ac217e", "lon": -76.98441566666666, "is_disabled": 0, "fusion_lat": 0.0, "fusion_lon": 0.0, "name": "529122c5b96cfcba2c4bd1d002ac217e", "type": "electric_bike"}, {"rental_uris": {"ios": "https://dc.lft.to/lastmile_qr_scan", "android": "https://dc.lft.to/lastmile_qr_scan"}, "lat": 38.900268, "is_reserved": 0, "bike_id": "d0d0ffaa9936e7137e3c8811eb367a01", "lon": -77.00689583333333, "is_disabled": 0, "fusion_lat": 0.0, "fusion_lon": 0.0, "name": "d0d0ffaa9936e7137e3c8811eb367a01", "type": "electric_scooter"}, {"rental_uris": {"ios": "https://dc.lft.to/lastmile_qr_scan", "android": "https://dc.lft.to/lastmile_qr_scan"}, "lat": 38.898301333333336, "is_reserved": 0, "bike_id": "04e5d57e19e93c7899cd56e5d5b0bd26", "lon": -77.033298, "is_disabled": 0, "fusion_lat": 0.0, "fusion_lon": 0.0, "name": "04e5d57e19e93c7899cd56e5d5b0bd26", "type": "electric_scooter"}, {"rental_uris": {"ios": "https://dc.lft.to/lastmile_qr_scan", "android": "https://dc.lft.to/lastmile_qr_scan"}, "lat": 38.89932366666667, "is_reserved": 0, "bike_id": "f98f1020a4de274b63534985c84a65ba", "lon": -77.02391616666667, "is_disabled": 0, "fusion_lat": 0.0, "fusion_lon": 0.0, "name": "f98f1020a4de274b63534985c84a65ba", "type": "electric_scooter"}, {"rental_uris": {"ios": "https://dc.lft.to/lastmile_qr_scan", "android": "https://dc.lft.to/lastmile_qr_scan"}, "lat": 38.923603, "is_reserved": 0, "bike_id": "9bad5b8d92e41fd8ec5d247c303dbd9e", "lon": -77.05051916666666, "is_disabled": 0, "fusion_lat": 0.0, "fusion_lon": 0.0, "name": "9bad5b8d92e41fd8ec5d247c303dbd9e", "type": "electric_scooter"}, {"rental_uris": {"ios": "https://dc.lft.to/lastmile_qr_scan", "android": "https://dc.lft.to/lastmile_qr_scan"}, "lat": 38.926552666666666, "is_reserved": 0, "bike_id": "16d5fa7592607f5258bae21bb225e59f", "lon": -77.03733816666667, "is_disabled": 0, "fusion_lat": 0.0, "fusion_lon": 0.0, "name": "16d5fa7592607f5258bae21bb225e59f", "type": "electric_scooter"}, {"rental_uris": {"ios": "https://dc.lft.to/lastmile_qr_scan", "android": "https://dc.lft.to/lastmile_qr_scan"}, "lat": 38.896177, "is_reserved": 0, "bike_id": "d09ff30dc9623c35726b217bb4264853", "lon": -77.00920666666667, "is_disabled": 0, "fusion_lat": 0.0, "fusion_lon": 0.0, "name": "d09ff30dc9623c35726b217bb4264853", "type": "electric_scooter"}, {"rental_uris": {"ios": "https://dc.lft.to/lastmile_qr_scan", "android": "https://dc.lft.to/lastmile_qr_scan"}, "lat": 38.8925035, "is_reserved": 0, "bike_id": "a73ac7c862acf07b485a0a2d894a8552", "lon": -77.03957166666666, "is_disabled": 0, "fusion_lat": 0.0, "fusion_lon": 0.0, "name": "a73ac7c862acf07b485a0a2d894a8552", "type": "electric_scooter"}, {"rental_uris": {"ios": "https://dc.lft.to/lastmile_qr_scan", "android": "https://dc.lft.to/lastmile_qr_scan"}, "lat": 38.884877833333334, "is_reserved": 0, "bike_id": "bd88acaf1ee549208aeac28fff4bbc7a", "lon": -76.95649666666667, "is_disabled": 0, "fusion_lat": 0.0, "fusion_lon": 0.0, "name": "bd88acaf1ee549208aeac28fff4bbc7a", "type": "electric_scooter"}, {"rental_uris": {"ios": "https://dc.lft.to/lastmile_qr_scan", "android": "https://dc.lft.to/lastmile_qr_scan"}, "lat": 38.89661566666667, "is_reserved": 0, "bike_id": "f1bfcd2dee7cfbaf8552813ebb0d1888", "lon": -77.02381766666667, "is_disabled": 0, "fusion_lat": 0.0, "fusion_lon": 0.0, "name": "f1bfcd2dee7cfbaf8552813ebb0d1888", "type": "electric_scooter"}, {"rental_uris": {"ios": "https://dc.lft.to/lastmile_qr_scan", "android": "https://dc.lft.to/lastmile_qr_scan"}, "lat": 38.909167, "is_reserved": 0, "bike_id": "ccf9f834978887db18d84368433aad04", "lon": -77.07194516666667, "is_disabled": 0, "fusion_lat": 0.0, "fusion_lon": 0.0, "name": "ccf9f834978887db18d84368433aad04", "type": "electric_scooter"}, {"rental_uris": {"ios": "https://dc.lft.to/lastmile_qr_scan", "android": "https://dc.lft.to/lastmile_qr_scan"}, "lat": 38.901387, "is_reserved": 0, "bike_id": "aa2e6e1fb41b2344dad45b6ac55f66d4", "lon": -77.03188883333333, "is_disabled": 0, "fusion_lat": 0.0, "fusion_lon": 0.0, "name": "aa2e6e1fb41b2344dad45b6ac55f66d4", "type": "electric_scooter"}, {"rental_uris": {"ios": "https://dc.lft.to/lastmile_qr_scan", "android": "https://dc.lft.to/lastmile_qr_scan"}, "lat": 38.902993, "is_reserved": 0, "bike_id": "1a16101b4c11fa301e13b438ee3ba5cf", "lon": -77.03441133333334, "is_disabled": 0, "fusion_lat": 0.0, "fusion_lon": 0.0, "name": "1a16101b4c11fa301e13b438ee3ba5cf", "type": "electric_scooter"}, {"rental_uris": {"ios": "https://dc.lft.to/lastmile_qr_scan", "android": "https://dc.lft.to/lastmile_qr_scan"}, "lat": 38.932927666666664, "is_reserved": 0, "bike_id": "691ede57c7b611d0385f5a5a8b27c75b", "lon": -77.02853416666666, "is_disabled": 0, "fusion_lat": 0.0, "fusion_lon": 0.0, "name": "691ede57c7b611d0385f5a5a8b27c75b", "type": "electric_scooter"}, {"rental_uris": {"ios": "https://dc.lft.to/lastmile_qr_scan", "android": "https://dc.lft.to/lastmile_qr_scan"}, "lat": 38.90399466666667, "is_reserved": 0, "bike_id": "3b3d084ff883d6f5b167b833193b2b77", "lon": -77.04026483333334, "is_disabled": 0, "fusion_lat": 0.0, "fusion_lon": 0.0, "name": "3b3d084ff883d6f5b167b833193b2b77", "type": "electric_scooter"}, {"rental_uris": {"ios": "https://dc.lft.to/lastmile_qr_scan", "android": "https://dc.lft.to/lastmile_qr_scan"}, "lat": 38.8874565, "is_reserved": 0, "bike_id": "d2b882fbd102b05a524586319ebe84be", "lon": -77.022322, "is_disabled": 0, "fusion_lat": 0.0, "fusion_lon": 0.0, "name": "d2b882fbd102b05a524586319ebe84be", "type": "electric_scooter"}, {"rental_uris": {"ios": "https://dc.lft.to/lastmile_qr_scan", "android": "https://dc.lft.to/lastmile_qr_scan"}, "lat": 38.927503, "is_reserved": 0, "bike_id": "3904b2aefa6a50c139fd7d2c73f82e30", "lon": -77.03309916666667, "is_disabled": 0, "fusion_lat": 0.0, "fusion_lon": 0.0, "name": "3904b2aefa6a50c139fd7d2c73f82e30", "type": "electric_scooter"}, {"rental_uris": {"ios": "https://dc.lft.to/lastmile_qr_scan", "android": "https://dc.lft.to/lastmile_qr_scan"}, "lat": 38.87386766666667, "is_reserved": 0, "bike_id": "f916a1fcc291f80d033c5a199dca2b1f", "lon": -77.0000935, "is_disabled": 0, "fusion_lat": 0.0, "fusion_lon": 0.0, "name": "f916a1fcc291f80d033c5a199dca2b1f", "type": "electric_scooter"}, {"rental_uris": {"ios": "https://dc.lft.to/lastmile_qr_scan", "android": "https://dc.lft.to/lastmile_qr_scan"}, "lat": 38.9246415, "is_reserved": 0, "bike_id": "6d53bf2c9cc59bbd0b60c0e5d15dc677", "lon": -77.02219866666667, "is_disabled": 0, "fusion_lat": 0.0, "fusion_lon": 0.0, "name": "6d53bf2c9cc59bbd0b60c0e5d15dc677", "type": "electric_scooter"}, {"rental_uris": {"ios": "https://dc.lft.to/lastmile_qr_scan", "android": "https://dc.lft.to/lastmile_qr_scan"}, "lat": 38.92324683333333, "is_reserved": 0, "bike_id": "4b750e2762a4f111e09f74373467e4c8", "lon": -77.04522933333334, "is_disabled": 0, "fusion_lat": 0.0, "fusion_lon": 0.0, "name": "4b750e2762a4f111e09f74373467e4c8", "type": "electric_scooter"}, {"rental_uris": {"ios": "https://dc.lft.to/lastmile_qr_scan", "android": "https://dc.lft.to/lastmile_qr_scan"}, "lat": 38.92701133333333, "is_reserved": 0, "bike_id": "eac4c5e4db0ed516f00108525a5076cd", "lon": -77.0243865, "is_disabled": 0, "fusion_lat": 0.0, "fusion_lon": 0.0, "name": "eac4c5e4db0ed516f00108525a5076cd", "type": "electric_scooter"}, {"rental_uris": {"ios": "https://dc.lft.to/lastmile_qr_scan", "android": "https://dc.lft.to/lastmile_qr_scan"}, "lat": 38.839442166666664, "is_reserved": 0, "bike_id": "35a0d61c59e56ad5dce71edc303ad600", "lon": -77.087519, "is_disabled": 0, "fusion_lat": 0.0, "fusion_lon": 0.0, "name": "35a0d61c59e56ad5dce71edc303ad600", "type": "electric_bike"}, {"rental_uris": {"ios": "https://dc.lft.to/lastmile_qr_scan", "android": "https://dc.lft.to/lastmile_qr_scan"}, "lat": 38.9170065, "is_reserved": 0, "bike_id": "b391a0dd8b838ed33517c2d7bead2cc6", "lon": -77.0322345, "is_disabled": 0, "fusion_lat": 0.0, "fusion_lon": 0.0, "name": "b391a0dd8b838ed33517c2d7bead2cc6", "type": "electric_scooter"}, {"rental_uris": {"ios": "https://dc.lft.to/lastmile_qr_scan", "android": "https://dc.lft.to/lastmile_qr_scan"}, "lat": 38.905116666666665, "is_reserved": 0, "bike_id": "0e02b5875ca3b682b7bdeed661e22455", "lon": -77.05850783333334, "is_disabled": 0, "fusion_lat": 0.0, "fusion_lon": 0.0, "name": "0e02b5875ca3b682b7bdeed661e22455", "type": "electric_scooter"}, {"rental_uris": {"ios": "https://dc.lft.to/lastmile_qr_scan", "android": "https://dc.lft.to/lastmile_qr_scan"}, "lat": 38.908492333333335, "is_reserved": 0, "bike_id": "b922b290e344fa059e6d33f5a5524bab", "lon": -77.02242916666667, "is_disabled": 0, "fusion_lat": 0.0, "fusion_lon": 0.0, "name": "b922b290e344fa059e6d33f5a5524bab", "type": "electric_scooter"}, {"rental_uris": {"ios": "https://dc.lft.to/lastmile_qr_scan", "android": "https://dc.lft.to/lastmile_qr_scan"}, "lat": 38.92657616666666, "is_reserved": 0, "bike_id": "8a00ecdf5318bbae5584fc90fe5bce37", "lon": -77.02425083333333, "is_disabled": 0, "fusion_lat": 0.0, "fusion_lon": 0.0, "name": "8a00ecdf5318bbae5584fc90fe5bce37", "type": "electric_scooter"}, {"rental_uris": {"ios": "https://dc.lft.to/lastmile_qr_scan", "android": "https://dc.lft.to/lastmile_qr_scan"}, "lat": 38.90733933333333, "is_reserved": 0, "bike_id": "5babed08a3035bb90fca528d4a41546d", "lon": -77.0237285, "is_disabled": 0, "fusion_lat": 0.0, "fusion_lon": 0.0, "name": "5babed08a3035bb90fca528d4a41546d", "type": "electric_scooter"}, {"rental_uris": {"ios": "https://dc.lft.to/lastmile_qr_scan", "android": "https://dc.lft.to/lastmile_qr_scan"}, "lat": 38.90016583333333, "is_reserved": 0, "bike_id": "c46d1bd718e16c2c95b0ea989a78e54f", "lon": -76.99551566666666, "is_disabled": 0, "fusion_lat": 0.0, "fusion_lon": 0.0, "name": "c46d1bd718e16c2c95b0ea989a78e54f", "type": "electric_scooter"}, {"rental_uris": {"ios": "https://dc.lft.to/lastmile_qr_scan", "android": "https://dc.lft.to/lastmile_qr_scan"}, "lat": 38.8972345, "is_reserved": 0, "bike_id": "0930516f039c708dc513035bfb1d9fc7", "lon": -77.04738466666667, "is_disabled": 0, "fusion_lat": 0.0, "fusion_lon": 0.0, "name": "0930516f039c708dc513035bfb1d9fc7", "type": "electric_scooter"}, {"rental_uris": {"ios": "https://dc.lft.to/lastmile_qr_scan", "android": "https://dc.lft.to/lastmile_qr_scan"}, "lat": 38.896141166666666, "is_reserved": 0, "bike_id": "98008ea94d4edbe1667563f5651b4ce7", "lon": -77.026752, "is_disabled": 0, "fusion_lat": 0.0, "fusion_lon": 0.0, "name": "98008ea94d4edbe1667563f5651b4ce7", "type": "electric_scooter"}, {"rental_uris": {"ios": "https://dc.lft.to/lastmile_qr_scan", "android": "https://dc.lft.to/lastmile_qr_scan"}, "lat": 38.894371166666666, "is_reserved": 0, "bike_id": "470ee6653f0d931e0931f33fbed716d6", "lon": -76.98362883333333, "is_disabled": 0, "fusion_lat": 0.0, "fusion_lon": 0.0, "name": "470ee6653f0d931e0931f33fbed716d6", "type": "electric_scooter"}, {"rental_uris": {"ios": "https://dc.lft.to/lastmile_qr_scan", "android": "https://dc.lft.to/lastmile_qr_scan"}, "lat": 38.8925415, "is_reserved": 0, "bike_id": "d9be270e1279270591121203af62b97b", "lon": -77.01960916666667, "is_disabled": 0, "fusion_lat": 0.0, "fusion_lon": 0.0, "name": "d9be270e1279270591121203af62b97b", "type": "electric_scooter"}, {"rental_uris": {"ios": "https://dc.lft.to/lastmile_qr_scan", "android": "https://dc.lft.to/lastmile_qr_scan"}, "lat": 38.894861, "is_reserved": 0, "bike_id": "bd3220e6f6912d0ac23206a76a3c9c67", "lon": -77.02672533333333, "is_disabled": 0, "fusion_lat": 0.0, "fusion_lon": 0.0, "name": "bd3220e6f6912d0ac23206a76a3c9c67", "type": "electric_scooter"}, {"rental_uris": {"ios": "https://dc.lft.to/lastmile_qr_scan", "android": "https://dc.lft.to/lastmile_qr_scan"}, "lat": 38.923468666666665, "is_reserved": 0, "bike_id": "fdd9f8adbb58ba746a200113edcfa7dd", "lon": -77.0352955, "is_disabled": 0, "fusion_lat": 0.0, "fusion_lon": 0.0, "name": "fdd9f8adbb58ba746a200113edcfa7dd", "type": "electric_scooter"}, {"rental_uris": {"ios": "https://dc.lft.to/lastmile_qr_scan", "android": "https://dc.lft.to/lastmile_qr_scan"}, "lat": 38.90060966666667, "is_reserved": 0, "bike_id": "a4024f6332c13472f9639d9076ebc048", "lon": -77.01311816666667, "is_disabled": 0, "fusion_lat": 0.0, "fusion_lon": 0.0, "name": "a4024f6332c13472f9639d9076ebc048", "type": "electric_bike"}, {"rental_uris": {"ios": "https://dc.lft.to/lastmile_qr_scan", "android": "https://dc.lft.to/lastmile_qr_scan"}, "lat": 38.92257216666667, "is_reserved": 0, "bike_id": "eb52005cf710917c384b90d5fc7c8042", "lon": -77.0352315, "is_disabled": 0, "fusion_lat": 0.0, "fusion_lon": 0.0, "name": "eb52005cf710917c384b90d5fc7c8042", "type": "electric_scooter"}, {"rental_uris": {"ios": "https://dc.lft.to/lastmile_qr_scan", "android": "https://dc.lft.to/lastmile_qr_scan"}, "lat": 38.899889, "is_reserved": 0, "bike_id": "56e3410396215d26a57dbecd57dd86fd", "lon": -77.03086083333334, "is_disabled": 0, "fusion_lat": 0.0, "fusion_lon": 0.0, "name": "56e3410396215d26a57dbecd57dd86fd", "type": "electric_scooter"}, {"rental_uris": {"ios": "https://dc.lft.to/lastmile_qr_scan", "android": "https://dc.lft.to/lastmile_qr_scan"}, "lat": 38.923514, "is_reserved": 0, "bike_id": "0e43e7cecf9b4b26813ccf3247eccc09", "lon": -77.04388833333333, "is_disabled": 0, "fusion_lat": 0.0, "fusion_lon": 0.0, "name": "0e43e7cecf9b4b26813ccf3247eccc09", "type": "electric_scooter"}, {"rental_uris": {"ios": "https://dc.lft.to/lastmile_qr_scan", "android": "https://dc.lft.to/lastmile_qr_scan"}, "lat": 38.9549825, "is_reserved": 0, "bike_id": "9005f9532405266603b8bd45abc4410c", "lon": -77.00201433333334, "is_disabled": 0, "fusion_lat": 0.0, "fusion_lon": 0.0, "name": "9005f9532405266603b8bd45abc4410c", "type": "electric_bike"}, {"rental_uris": {"ios": "https://dc.lft.to/lastmile_qr_scan", "android": "https://dc.lft.to/lastmile_qr_scan"}, "lat": 38.917057666666665, "is_reserved": 0, "bike_id": "f07ae9123f1a57542f8aca924d3b3f7a", "lon": -77.03140033333334, "is_disabled": 0, "fusion_lat": 0.0, "fusion_lon": 0.0, "name": "f07ae9123f1a57542f8aca924d3b3f7a", "type": "electric_scooter"}, {"rental_uris": {"ios": "https://dc.lft.to/lastmile_qr_scan", "android": "https://dc.lft.to/lastmile_qr_scan"}, "lat": 38.8986025, "is_reserved": 0, "bike_id": "7622c351061a343c283a417450cbd39f", "lon": -76.94639016666666, "is_disabled": 0, "fusion_lat": 0.0, "fusion_lon": 0.0, "name": "7622c351061a343c283a417450cbd39f", "type": "electric_scooter"}, {"rental_uris": {"ios": "https://dc.lft.to/lastmile_qr_scan", "android": "https://dc.lft.to/lastmile_qr_scan"}, "lat": 38.86685683333333, "is_reserved": 0, "bike_id": "64e29a267004d28864dd500fc0d831e2", "lon": -76.985664, "is_disabled": 0, "fusion_lat": 0.0, "fusion_lon": 0.0, "name": "64e29a267004d28864dd500fc0d831e2", "type": "electric_scooter"}, {"rental_uris": {"ios": "https://dc.lft.to/lastmile_qr_scan", "android": "https://dc.lft.to/lastmile_qr_scan"}, "lat": 38.87657383333333, "is_reserved": 0, "bike_id": "3e40175d93e9465defbb8da407ea8b97", "lon": -77.00430833333333, "is_disabled": 0, "fusion_lat": 0.0, "fusion_lon": 0.0, "name": "3e40175d93e9465defbb8da407ea8b97", "type": "electric_scooter"}, {"rental_uris": {"ios": "https://dc.lft.to/lastmile_qr_scan", "android": "https://dc.lft.to/lastmile_qr_scan"}, "lat": 38.903211666666664, "is_reserved": 0, "bike_id": "6c0fa810f85bed835b6b0c7b44d1d9f2", "lon": -76.97551016666667, "is_disabled": 0, "fusion_lat": 0.0, "fusion_lon": 0.0, "name": "6c0fa810f85bed835b6b0c7b44d1d9f2", "type": "electric_scooter"}, {"rental_uris": {"ios": "https://dc.lft.to/lastmile_qr_scan", "android": "https://dc.lft.to/lastmile_qr_scan"}, "lat": 38.920784166666664, "is_reserved": 0, "bike_id": "f86bda142d8e5b99a9215fcd53bb601a", "lon": -77.02543066666667, "is_disabled": 0, "fusion_lat": 0.0, "fusion_lon": 0.0, "name": "f86bda142d8e5b99a9215fcd53bb601a", "type": "electric_scooter"}, {"rental_uris": {"ios": "https://dc.lft.to/lastmile_qr_scan", "android": "https://dc.lft.to/lastmile_qr_scan"}, "lat": 38.924615, "is_reserved": 0, "bike_id": "c4af0767b5243ff211609c4659230248", "lon": -77.0221165, "is_disabled": 0, "fusion_lat": 0.0, "fusion_lon": 0.0, "name": "c4af0767b5243ff211609c4659230248", "type": "electric_scooter"}, {"rental_uris": {"ios": "https://dc.lft.to/lastmile_qr_scan", "android": "https://dc.lft.to/lastmile_qr_scan"}, "lat": 38.889880833333336, "is_reserved": 0, "bike_id": "c70ba85fdcc366aa380c4391210acff1", "lon": -76.9542245, "is_disabled": 0, "fusion_lat": 0.0, "fusion_lon": 0.0, "name": "c70ba85fdcc366aa380c4391210acff1", "type": "electric_scooter"}, {"rental_uris": {"ios": "https://dc.lft.to/lastmile_qr_scan", "android": "https://dc.lft.to/lastmile_qr_scan"}, "lat": 38.931877166666666, "is_reserved": 0, "bike_id": "1ce79a168b12901e43a32d6561a9bdc4", "lon": -77.03635183333333, "is_disabled": 0, "fusion_lat": 0.0, "fusion_lon": 0.0, "name": "1ce79a168b12901e43a32d6561a9bdc4", "type": "electric_scooter"}, {"rental_uris": {"ios": "https://dc.lft.to/lastmile_qr_scan", "android": "https://dc.lft.to/lastmile_qr_scan"}, "lat": 38.902558666666664, "is_reserved": 0, "bike_id": "5d8ff47b4acfc10323b3cb37aa3ada42", "lon": -77.04373266666667, "is_disabled": 0, "fusion_lat": 0.0, "fusion_lon": 0.0, "name": "5d8ff47b4acfc10323b3cb37aa3ada42", "type": "electric_scooter"}, {"rental_uris": {"ios": "https://dc.lft.to/lastmile_qr_scan", "android": "https://dc.lft.to/lastmile_qr_scan"}, "lat": 38.920327, "is_reserved": 0, "bike_id": "5085d73a898696e0c43a2d69fa66eae6", "lon": -77.01067583333334, "is_disabled": 0, "fusion_lat": 0.0, "fusion_lon": 0.0, "name": "5085d73a898696e0c43a2d69fa66eae6", "type": "electric_scooter"}, {"rental_uris": {"ios": "https://dc.lft.to/lastmile_qr_scan", "android": "https://dc.lft.to/lastmile_qr_scan"}, "lat": 38.906166166666665, "is_reserved": 0, "bike_id": "225bc77bb0481f84293ba1fb88b75691", "lon": -77.04178383333333, "is_disabled": 0, "fusion_lat": 0.0, "fusion_lon": 0.0, "name": "225bc77bb0481f84293ba1fb88b75691", "type": "electric_scooter"}, {"rental_uris": {"ios": "https://dc.lft.to/lastmile_qr_scan", "android": "https://dc.lft.to/lastmile_qr_scan"}, "lat": 38.926554, "is_reserved": 0, "bike_id": "91a40737055ba757111dedc55e2ef466", "lon": -77.02305666666666, "is_disabled": 0, "fusion_lat": 0.0, "fusion_lon": 0.0, "name": "91a40737055ba757111dedc55e2ef466", "type": "electric_scooter"}, {"rental_uris": {"ios": "https://dc.lft.to/lastmile_qr_scan", "android": "https://dc.lft.to/lastmile_qr_scan"}, "lat": 38.895579166666664, "is_reserved": 0, "bike_id": "12a3415f56e516fbac11f68ed07d8a35", "lon": -77.04676216666667, "is_disabled": 0, "fusion_lat": 0.0, "fusion_lon": 0.0, "name": "12a3415f56e516fbac11f68ed07d8a35", "type": "electric_scooter"}, {"rental_uris": {"ios": "https://dc.lft.to/lastmile_qr_scan", "android": "https://dc.lft.to/lastmile_qr_scan"}, "lat": 38.901690333333335, "is_reserved": 0, "bike_id": "81aa18be260064e74208df76fdacaf4a", "lon": -77.0248305, "is_disabled": 0, "fusion_lat": 0.0, "fusion_lon": 0.0, "name": "81aa18be260064e74208df76fdacaf4a", "type": "electric_scooter"}, {"rental_uris": {"ios": "https://dc.lft.to/lastmile_qr_scan", "android": "https://dc.lft.to/lastmile_qr_scan"}, "lat": 38.90536916666667, "is_reserved": 0, "bike_id": "d3df871d02ccc015199f50c666393e18", "lon": -77.04895366666666, "is_disabled": 0, "fusion_lat": 0.0, "fusion_lon": 0.0, "name": "d3df871d02ccc015199f50c666393e18", "type": "electric_scooter"}, {"rental_uris": {"ios": "https://dc.lft.to/lastmile_qr_scan", "android": "https://dc.lft.to/lastmile_qr_scan"}, "lat": 38.9052425, "is_reserved": 0, "bike_id": "3ac24ef0fa85f2cd4c871880e8359298", "lon": -77.06042416666666, "is_disabled": 0, "fusion_lat": 0.0, "fusion_lon": 0.0, "name": "3ac24ef0fa85f2cd4c871880e8359298", "type": "electric_scooter"}, {"rental_uris": {"ios": "https://dc.lft.to/lastmile_qr_scan", "android": "https://dc.lft.to/lastmile_qr_scan"}, "lat": 38.857593666666666, "is_reserved": 0, "bike_id": "b348a5000097381774e26b336cbd35a6", "lon": -76.98747716666666, "is_disabled": 0, "fusion_lat": 0.0, "fusion_lon": 0.0, "name": "b348a5000097381774e26b336cbd35a6", "type": "electric_bike"}, {"rental_uris": {"ios": "https://dc.lft.to/lastmile_qr_scan", "android": "https://dc.lft.to/lastmile_qr_scan"}, "lat": 38.89222483333333, "is_reserved": 0, "bike_id": "f2721ac87f0f9d6ec57db0db252e0013", "lon": -77.04194683333333, "is_disabled": 0, "fusion_lat": 0.0, "fusion_lon": 0.0, "name": "f2721ac87f0f9d6ec57db0db252e0013", "type": "electric_scooter"}, {"rental_uris": {"ios": "https://dc.lft.to/lastmile_qr_scan", "android": "https://dc.lft.to/lastmile_qr_scan"}, "lat": 38.90248316666667, "is_reserved": 0, "bike_id": "55ca3c9bc245604d77b04e478ca3b33a", "lon": -77.03055416666666, "is_disabled": 0, "fusion_lat": 0.0, "fusion_lon": 0.0, "name": "55ca3c9bc245604d77b04e478ca3b33a", "type": "electric_scooter"}, {"rental_uris": {"ios": "https://dc.lft.to/lastmile_qr_scan", "android": "https://dc.lft.to/lastmile_qr_scan"}, "lat": 38.914724, "is_reserved": 0, "bike_id": "c3f438e06fd119877c6a9cdc91ac34a1", "lon": -76.98114266666667, "is_disabled": 0, "fusion_lat": 0.0, "fusion_lon": 0.0, "name": "c3f438e06fd119877c6a9cdc91ac34a1", "type": "electric_scooter"}, {"rental_uris": {"ios": "https://dc.lft.to/lastmile_qr_scan", "android": "https://dc.lft.to/lastmile_qr_scan"}, "lat": 38.91227116666666, "is_reserved": 0, "bike_id": "670af0e96b89f4ca19e2c1415b095968", "lon": -77.04883883333333, "is_disabled": 0, "fusion_lat": 0.0, "fusion_lon": 0.0, "name": "670af0e96b89f4ca19e2c1415b095968", "type": "electric_scooter"}, {"rental_uris": {"ios": "https://dc.lft.to/lastmile_qr_scan", "android": "https://dc.lft.to/lastmile_qr_scan"}, "lat": 38.903879833333335, "is_reserved": 0, "bike_id": "383de236e0bfd342a7a32d95a3af54d6", "lon": -77.04352116666666, "is_disabled": 0, "fusion_lat": 0.0, "fusion_lon": 0.0, "name": "383de236e0bfd342a7a32d95a3af54d6", "type": "electric_scooter"}, {"rental_uris": {"ios": "https://dc.lft.to/lastmile_qr_scan", "android": "https://dc.lft.to/lastmile_qr_scan"}, "lat": 38.90498633333333, "is_reserved": 0, "bike_id": "c76d839b685b12400b18a9027e67662b", "lon": -77.04351, "is_disabled": 0, "fusion_lat": 0.0, "fusion_lon": 0.0, "name": "c76d839b685b12400b18a9027e67662b", "type": "electric_scooter"}, {"rental_uris": {"ios": "https://dc.lft.to/lastmile_qr_scan", "android": "https://dc.lft.to/lastmile_qr_scan"}, "lat": 38.9222945, "is_reserved": 0, "bike_id": "8b21d31615676205c512155f3dc1fbb8", "lon": -77.0212155, "is_disabled": 0, "fusion_lat": 0.0, "fusion_lon": 0.0, "name": "8b21d31615676205c512155f3dc1fbb8", "type": "electric_scooter"}, {"rental_uris": {"ios": "https://dc.lft.to/lastmile_qr_scan", "android": "https://dc.lft.to/lastmile_qr_scan"}, "lat": 38.90115933333333, "is_reserved": 0, "bike_id": "6019f96b4cdc78c0fdcdecc55e3ba7fb", "lon": -77.01785233333334, "is_disabled": 0, "fusion_lat": 0.0, "fusion_lon": 0.0, "name": "6019f96b4cdc78c0fdcdecc55e3ba7fb", "type": "electric_scooter"}, {"rental_uris": {"ios": "https://dc.lft.to/lastmile_qr_scan", "android": "https://dc.lft.to/lastmile_qr_scan"}, "lat": 38.907545999999996, "is_reserved": 0, "bike_id": "43b9d3ae4969c6f84f374efca673a75a", "lon": -77.0321725, "is_disabled": 0, "fusion_lat": 0.0, "fusion_lon": 0.0, "name": "43b9d3ae4969c6f84f374efca673a75a", "type": "electric_scooter"}, {"rental_uris": {"ios": "https://dc.lft.to/lastmile_qr_scan", "android": "https://dc.lft.to/lastmile_qr_scan"}, "lat": 38.908653, "is_reserved": 0, "bike_id": "f828fc51e6df80db2c5aca70de852f84", "lon": -77.04741266666667, "is_disabled": 0, "fusion_lat": 0.0, "fusion_lon": 0.0, "name": "f828fc51e6df80db2c5aca70de852f84", "type": "electric_scooter"}, {"rental_uris": {"ios": "https://dc.lft.to/lastmile_qr_scan", "android": "https://dc.lft.to/lastmile_qr_scan"}, "lat": 38.89708016666667, "is_reserved": 0, "bike_id": "49dfc04d63a6f631185e8ad91eff81b3", "lon": -77.0084495, "is_disabled": 0, "fusion_lat": 0.0, "fusion_lon": 0.0, "name": "49dfc04d63a6f631185e8ad91eff81b3", "type": "electric_scooter"}, {"rental_uris": {"ios": "https://dc.lft.to/lastmile_qr_scan", "android": "https://dc.lft.to/lastmile_qr_scan"}, "lat": 38.90541416666667, "is_reserved": 0, "bike_id": "fa737e44ff365df26a5d73e9278525e9", "lon": -77.03472833333333, "is_disabled": 0, "fusion_lat": 0.0, "fusion_lon": 0.0, "name": "fa737e44ff365df26a5d73e9278525e9", "type": "electric_scooter"}, {"rental_uris": {"ios": "https://dc.lft.to/lastmile_qr_scan", "android": "https://dc.lft.to/lastmile_qr_scan"}, "lat": 38.8952945, "is_reserved": 0, "bike_id": "8100d7142ea3042c0faefaea1f1d2971", "lon": -77.04267916666667, "is_disabled": 0, "fusion_lat": 0.0, "fusion_lon": 0.0, "name": "8100d7142ea3042c0faefaea1f1d2971", "type": "electric_scooter"}, {"rental_uris": {"ios": "https://dc.lft.to/lastmile_qr_scan", "android": "https://dc.lft.to/lastmile_qr_scan"}, "lat": 38.92172633333333, "is_reserved": 0, "bike_id": "093278a392f5929c77d74a294a48295a", "lon": -77.04714766666666, "is_disabled": 0, "fusion_lat": 0.0, "fusion_lon": 0.0, "name": "093278a392f5929c77d74a294a48295a", "type": "electric_scooter"}, {"rental_uris": {"ios": "https://dc.lft.to/lastmile_qr_scan", "android": "https://dc.lft.to/lastmile_qr_scan"}, "lat": 38.897476, "is_reserved": 0, "bike_id": "e7bda880600864a63e763435cf837f38", "lon": -77.00750016666667, "is_disabled": 0, "fusion_lat": 0.0, "fusion_lon": 0.0, "name": "e7bda880600864a63e763435cf837f38", "type": "electric_scooter"}, {"rental_uris": {"ios": "https://dc.lft.to/lastmile_qr_scan", "android": "https://dc.lft.to/lastmile_qr_scan"}, "lat": 38.94187733333333, "is_reserved": 0, "bike_id": "b7fab9b1148eb44ffc7cb3cebbdb1741", "lon": -77.03841516666667, "is_disabled": 0, "fusion_lat": 0.0, "fusion_lon": 0.0, "name": "b7fab9b1148eb44ffc7cb3cebbdb1741", "type": "electric_scooter"}, {"rental_uris": {"ios": "https://dc.lft.to/lastmile_qr_scan", "android": "https://dc.lft.to/lastmile_qr_scan"}, "lat": 38.9181245, "is_reserved": 0, "bike_id": "33b5573a6ce3b41f3169233f75c06d65", "lon": -77.02476666666666, "is_disabled": 0, "fusion_lat": 0.0, "fusion_lon": 0.0, "name": "33b5573a6ce3b41f3169233f75c06d65", "type": "electric_scooter"}, {"rental_uris": {"ios": "https://dc.lft.to/lastmile_qr_scan", "android": "https://dc.lft.to/lastmile_qr_scan"}, "lat": 38.9050375, "is_reserved": 0, "bike_id": "6c3196db6ae73e7fd1ee388dba5c2fd0", "lon": -77.0410285, "is_disabled": 0, "fusion_lat": 0.0, "fusion_lon": 0.0, "name": "6c3196db6ae73e7fd1ee388dba5c2fd0", "type": "electric_scooter"}, {"rental_uris": {"ios": "https://dc.lft.to/lastmile_qr_scan", "android": "https://dc.lft.to/lastmile_qr_scan"}, "lat": 38.91152733333333, "is_reserved": 0, "bike_id": "6089258061e3286ba6b9f0efcb90efe3", "lon": -77.0237655, "is_disabled": 0, "fusion_lat": 0.0, "fusion_lon": 0.0, "name": "6089258061e3286ba6b9f0efcb90efe3", "type": "electric_scooter"}, {"rental_uris": {"ios": "https://dc.lft.to/lastmile_qr_scan", "android": "https://dc.lft.to/lastmile_qr_scan"}, "lat": 38.902743666666666, "is_reserved": 0, "bike_id": "8fec365da03bf67ed0ea6f32a320ff2c", "lon": -77.02757233333334, "is_disabled": 0, "fusion_lat": 0.0, "fusion_lon": 0.0, "name": "8fec365da03bf67ed0ea6f32a320ff2c", "type": "electric_scooter"}, {"rental_uris": {"ios": "https://dc.lft.to/lastmile_qr_scan", "android": "https://dc.lft.to/lastmile_qr_scan"}, "lat": 38.902570833333336, "is_reserved": 0, "bike_id": "d8f056d90cac74ca36e487c2b4ae8df3", "lon": -77.01005866666667, "is_disabled": 0, "fusion_lat": 0.0, "fusion_lon": 0.0, "name": "d8f056d90cac74ca36e487c2b4ae8df3", "type": "electric_scooter"}, {"rental_uris": {"ios": "https://dc.lft.to/lastmile_qr_scan", "android": "https://dc.lft.to/lastmile_qr_scan"}, "lat": 38.91808966666667, "is_reserved": 0, "bike_id": "1a53af07a06dba7be3f51413e4c4d8b5", "lon": -77.0371495, "is_disabled": 0, "fusion_lat": 0.0, "fusion_lon": 0.0, "name": "1a53af07a06dba7be3f51413e4c4d8b5", "type": "electric_scooter"}, {"rental_uris": {"ios": "https://dc.lft.to/lastmile_qr_scan", "android": "https://dc.lft.to/lastmile_qr_scan"}, "lat": 38.92688066666667, "is_reserved": 0, "bike_id": "0e2989c12ab9a8fc5f3216b96b288d37", "lon": -77.03233716666666, "is_disabled": 0, "fusion_lat": 0.0, "fusion_lon": 0.0, "name": "0e2989c12ab9a8fc5f3216b96b288d37", "type": "electric_scooter"}, {"rental_uris": {"ios": "https://dc.lft.to/lastmile_qr_scan", "android": "https://dc.lft.to/lastmile_qr_scan"}, "lat": 38.90265466666666, "is_reserved": 0, "bike_id": "99b115130af380c55f2e7566841dd956", "lon": -77.03843833333333, "is_disabled": 0, "fusion_lat": 0.0, "fusion_lon": 0.0, "name": "99b115130af380c55f2e7566841dd956", "type": "electric_scooter"}, {"rental_uris": {"ios": "https://dc.lft.to/lastmile_qr_scan", "android": "https://dc.lft.to/lastmile_qr_scan"}, "lat": 38.901411833333334, "is_reserved": 0, "bike_id": "716a5c7d7bac3a1d930f2a7b68f46fcb", "lon": -77.02785666666666, "is_disabled": 0, "fusion_lat": 0.0, "fusion_lon": 0.0, "name": "716a5c7d7bac3a1d930f2a7b68f46fcb", "type": "electric_scooter"}, {"rental_uris": {"ios": "https://dc.lft.to/lastmile_qr_scan", "android": "https://dc.lft.to/lastmile_qr_scan"}, "lat": 38.879003, "is_reserved": 0, "bike_id": "8977a278ef5b00c11fc73cba80038cea", "lon": -77.0137635, "is_disabled": 0, "fusion_lat": 0.0, "fusion_lon": 0.0, "name": "8977a278ef5b00c11fc73cba80038cea", "type": "electric_scooter"}, {"rental_uris": {"ios": "https://dc.lft.to/lastmile_qr_scan", "android": "https://dc.lft.to/lastmile_qr_scan"}, "lat": 38.9125295, "is_reserved": 0, "bike_id": "b55451987adb58c2053e0eb3bd0fb3b0", "lon": -77.0222315, "is_disabled": 0, "fusion_lat": 0.0, "fusion_lon": 0.0, "name": "b55451987adb58c2053e0eb3bd0fb3b0", "type": "electric_scooter"}, {"rental_uris": {"ios": "https://dc.lft.to/lastmile_qr_scan", "android": "https://dc.lft.to/lastmile_qr_scan"}, "lat": 38.90337933333333, "is_reserved": 0, "bike_id": "585abfaf87f55a06ab0d268a9165f180", "lon": -77.0200645, "is_disabled": 0, "fusion_lat": 0.0, "fusion_lon": 0.0, "name": "585abfaf87f55a06ab0d268a9165f180", "type": "electric_scooter"}, {"rental_uris": {"ios": "https://dc.lft.to/lastmile_qr_scan", "android": "https://dc.lft.to/lastmile_qr_scan"}, "lat": 38.89718033333333, "is_reserved": 0, "bike_id": "b0a48e0cb6149ce83d689a36a4f6faa6", "lon": -77.00797866666667, "is_disabled": 0, "fusion_lat": 0.0, "fusion_lon": 0.0, "name": "b0a48e0cb6149ce83d689a36a4f6faa6", "type": "electric_scooter"}, {"rental_uris": {"ios": "https://dc.lft.to/lastmile_qr_scan", "android": "https://dc.lft.to/lastmile_qr_scan"}, "lat": 38.9296805, "is_reserved": 0, "bike_id": "4933070ffe65df0535c00033f8e91407", "lon": -77.0325725, "is_disabled": 0, "fusion_lat": 0.0, "fusion_lon": 0.0, "name": "4933070ffe65df0535c00033f8e91407", "type": "electric_scooter"}, {"rental_uris": {"ios": "https://dc.lft.to/lastmile_qr_scan", "android": "https://dc.lft.to/lastmile_qr_scan"}, "lat": 38.9342345, "is_reserved": 0, "bike_id": "d8724801c1c8ebd4a1fac1d373974575", "lon": -77.040013, "is_disabled": 0, "fusion_lat": 0.0, "fusion_lon": 0.0, "name": "d8724801c1c8ebd4a1fac1d373974575", "type": "electric_scooter"}, {"rental_uris": {"ios": "https://dc.lft.to/lastmile_qr_scan", "android": "https://dc.lft.to/lastmile_qr_scan"}, "lat": 38.972311166666664, "is_reserved": 0, "bike_id": "8e13605dc385307c7b86edcfe31f7cee", "lon": -77.02710916666666, "is_disabled": 0, "fusion_lat": 0.0, "fusion_lon": 0.0, "name": "8e13605dc385307c7b86edcfe31f7cee", "type": "electric_scooter"}, {"rental_uris": {"ios": "https://dc.lft.to/lastmile_qr_scan", "android": "https://dc.lft.to/lastmile_qr_scan"}, "lat": 38.92141483333333, "is_reserved": 0, "bike_id": "84f8208797ca804926e5f280f87d6ec7", "lon": -77.03498533333334, "is_disabled": 0, "fusion_lat": 0.0, "fusion_lon": 0.0, "name": "84f8208797ca804926e5f280f87d6ec7", "type": "electric_scooter"}, {"rental_uris": {"ios": "https://dc.lft.to/lastmile_qr_scan", "android": "https://dc.lft.to/lastmile_qr_scan"}, "lat": 38.90867333333333, "is_reserved": 0, "bike_id": "825b52fe90cd6f79f3a8965ff5985304", "lon": -76.93338716666666, "is_disabled": 0, "fusion_lat": 0.0, "fusion_lon": 0.0, "name": "825b52fe90cd6f79f3a8965ff5985304", "type": "electric_scooter"}, {"rental_uris": {"ios": "https://dc.lft.to/lastmile_qr_scan", "android": "https://dc.lft.to/lastmile_qr_scan"}, "lat": 38.927664166666666, "is_reserved": 0, "bike_id": "894803a38b34ce30418c9671618f0ce7", "lon": -77.02741133333333, "is_disabled": 0, "fusion_lat": 0.0, "fusion_lon": 0.0, "name": "894803a38b34ce30418c9671618f0ce7", "type": "electric_scooter"}, {"rental_uris": {"ios": "https://dc.lft.to/lastmile_qr_scan", "android": "https://dc.lft.to/lastmile_qr_scan"}, "lat": 38.90997333333333, "is_reserved": 0, "bike_id": "42ba09311305726de5df751a83265a2d", "lon": -77.0319965, "is_disabled": 0, "fusion_lat": 0.0, "fusion_lon": 0.0, "name": "42ba09311305726de5df751a83265a2d", "type": "electric_scooter"}, {"rental_uris": {"ios": "https://dc.lft.to/lastmile_qr_scan", "android": "https://dc.lft.to/lastmile_qr_scan"}, "lat": 38.89721133333333, "is_reserved": 0, "bike_id": "4d34c46b7dd6cb60bb8045e9647a4c70", "lon": -77.00930283333334, "is_disabled": 0, "fusion_lat": 0.0, "fusion_lon": 0.0, "name": "4d34c46b7dd6cb60bb8045e9647a4c70", "type": "electric_scooter"}, {"rental_uris": {"ios": "https://dc.lft.to/lastmile_qr_scan", "android": "https://dc.lft.to/lastmile_qr_scan"}, "lat": 38.9052625, "is_reserved": 0, "bike_id": "511fee4212d9aceb8927d3b926b69520", "lon": -76.99636033333333, "is_disabled": 0, "fusion_lat": 0.0, "fusion_lon": 0.0, "name": "511fee4212d9aceb8927d3b926b69520", "type": "electric_scooter"}, {"rental_uris": {"ios": "https://dc.lft.to/lastmile_qr_scan", "android": "https://dc.lft.to/lastmile_qr_scan"}, "lat": 38.924654, "is_reserved": 0, "bike_id": "ce09b3068e53696df4d56b925177282e", "lon": -77.02271783333333, "is_disabled": 0, "fusion_lat": 0.0, "fusion_lon": 0.0, "name": "ce09b3068e53696df4d56b925177282e", "type": "electric_scooter"}, {"rental_uris": {"ios": "https://dc.lft.to/lastmile_qr_scan", "android": "https://dc.lft.to/lastmile_qr_scan"}, "lat": 38.90399766666667, "is_reserved": 0, "bike_id": "b69f2f998f89c88a8ef45e7896c64410", "lon": -77.053451, "is_disabled": 0, "fusion_lat": 0.0, "fusion_lon": 0.0, "name": "b69f2f998f89c88a8ef45e7896c64410", "type": "electric_scooter"}, {"rental_uris": {"ios": "https://dc.lft.to/lastmile_qr_scan", "android": "https://dc.lft.to/lastmile_qr_scan"}, "lat": 38.883787166666664, "is_reserved": 0, "bike_id": "4f8030c1ed1108bf8766da96809882b2", "lon": -76.99524516666666, "is_disabled": 0, "fusion_lat": 0.0, "fusion_lon": 0.0, "name": "4f8030c1ed1108bf8766da96809882b2", "type": "electric_scooter"}, {"rental_uris": {"ios": "https://dc.lft.to/lastmile_qr_scan", "android": "https://dc.lft.to/lastmile_qr_scan"}, "lat": 38.92574966666667, "is_reserved": 0, "bike_id": "23373c8da2e15b32fec008e05dbfa734", "lon": -77.0364245, "is_disabled": 0, "fusion_lat": 0.0, "fusion_lon": 0.0, "name": "23373c8da2e15b32fec008e05dbfa734", "type": "electric_scooter"}, {"rental_uris": {"ios": "https://dc.lft.to/lastmile_qr_scan", "android": "https://dc.lft.to/lastmile_qr_scan"}, "lat": 38.901423666666666, "is_reserved": 0, "bike_id": "dad91197cd638e85b18043c872c5ce4a", "lon": -77.03570416666666, "is_disabled": 0, "fusion_lat": 0.0, "fusion_lon": 0.0, "name": "dad91197cd638e85b18043c872c5ce4a", "type": "electric_scooter"}, {"rental_uris": {"ios": "https://dc.lft.to/lastmile_qr_scan", "android": "https://dc.lft.to/lastmile_qr_scan"}, "lat": 38.91535233333333, "is_reserved": 0, "bike_id": "63e4711a4d6d9fab5d4ef97d7def2bb7", "lon": -77.03210733333333, "is_disabled": 0, "fusion_lat": 0.0, "fusion_lon": 0.0, "name": "63e4711a4d6d9fab5d4ef97d7def2bb7", "type": "electric_scooter"}, {"rental_uris": {"ios": "https://dc.lft.to/lastmile_qr_scan", "android": "https://dc.lft.to/lastmile_qr_scan"}, "lat": 38.92455266666666, "is_reserved": 0, "bike_id": "ceb972b28bd407a388e44916d756bcbe", "lon": -77.0673375, "is_disabled": 0, "fusion_lat": 0.0, "fusion_lon": 0.0, "name": "ceb972b28bd407a388e44916d756bcbe", "type": "electric_bike"}, {"rental_uris": {"ios": "https://dc.lft.to/lastmile_qr_scan", "android": "https://dc.lft.to/lastmile_qr_scan"}, "lat": 38.923720333333335, "is_reserved": 0, "bike_id": "416c9ede42d095650877daa4b8ea7395", "lon": -77.02717383333334, "is_disabled": 0, "fusion_lat": 0.0, "fusion_lon": 0.0, "name": "416c9ede42d095650877daa4b8ea7395", "type": "electric_scooter"}, {"rental_uris": {"ios": "https://dc.lft.to/lastmile_qr_scan", "android": "https://dc.lft.to/lastmile_qr_scan"}, "lat": 38.917741, "is_reserved": 0, "bike_id": "b6617fcf84e799bfd39ceee2030570cc", "lon": -77.04098983333333, "is_disabled": 0, "fusion_lat": 0.0, "fusion_lon": 0.0, "name": "b6617fcf84e799bfd39ceee2030570cc", "type": "electric_scooter"}, {"rental_uris": {"ios": "https://dc.lft.to/lastmile_qr_scan", "android": "https://dc.lft.to/lastmile_qr_scan"}, "lat": 38.90846583333333, "is_reserved": 0, "bike_id": "8993fb20ca9d07a46fa07f3900d88c6b", "lon": -77.0393225, "is_disabled": 0, "fusion_lat": 0.0, "fusion_lon": 0.0, "name": "8993fb20ca9d07a46fa07f3900d88c6b", "type": "electric_scooter"}, {"rental_uris": {"ios": "https://dc.lft.to/lastmile_qr_scan", "android": "https://dc.lft.to/lastmile_qr_scan"}, "lat": 38.909376, "is_reserved": 0, "bike_id": "250a62f310ba733198390bb3ff1d8349", "lon": -77.02113683333333, "is_disabled": 0, "fusion_lat": 0.0, "fusion_lon": 0.0, "name": "250a62f310ba733198390bb3ff1d8349", "type": "electric_scooter"}, {"rental_uris": {"ios": "https://dc.lft.to/lastmile_qr_scan", "android": "https://dc.lft.to/lastmile_qr_scan"}, "lat": 38.90519883333333, "is_reserved": 0, "bike_id": "0650ba241a426d80ffaf397bdf9a4a1e", "lon": -77.031218, "is_disabled": 0, "fusion_lat": 0.0, "fusion_lon": 0.0, "name": "0650ba241a426d80ffaf397bdf9a4a1e", "type": "electric_scooter"}, {"rental_uris": {"ios": "https://dc.lft.to/lastmile_qr_scan", "android": "https://dc.lft.to/lastmile_qr_scan"}, "lat": 38.905712666666666, "is_reserved": 0, "bike_id": "5ad9e559007525eca0e0343495749f24", "lon": -76.98430666666667, "is_disabled": 0, "fusion_lat": 0.0, "fusion_lon": 0.0, "name": "5ad9e559007525eca0e0343495749f24", "type": "electric_scooter"}, {"rental_uris": {"ios": "https://dc.lft.to/lastmile_qr_scan", "android": "https://dc.lft.to/lastmile_qr_scan"}, "lat": 38.89828333333333, "is_reserved": 0, "bike_id": "fc775e635034bcdc7954a347f74f8daa", "lon": -77.03155133333334, "is_disabled": 0, "fusion_lat": 0.0, "fusion_lon": 0.0, "name": "fc775e635034bcdc7954a347f74f8daa", "type": "electric_scooter"}, {"rental_uris": {"ios": "https://dc.lft.to/lastmile_qr_scan", "android": "https://dc.lft.to/lastmile_qr_scan"}, "lat": 38.8873095, "is_reserved": 0, "bike_id": "6bd367e066cb29ba1692bb037590a8bb", "lon": -77.02583133333333, "is_disabled": 0, "fusion_lat": 0.0, "fusion_lon": 0.0, "name": "6bd367e066cb29ba1692bb037590a8bb", "type": "electric_scooter"}, {"rental_uris": {"ios": "https://dc.lft.to/lastmile_qr_scan", "android": "https://dc.lft.to/lastmile_qr_scan"}, "lat": 38.916735333333335, "is_reserved": 0, "bike_id": "c3ba812edf89bb249df93e80a223d8fd", "lon": -77.02977133333333, "is_disabled": 0, "fusion_lat": 0.0, "fusion_lon": 0.0, "name": "c3ba812edf89bb249df93e80a223d8fd", "type": "electric_scooter"}, {"rental_uris": {"ios": "https://dc.lft.to/lastmile_qr_scan", "android": "https://dc.lft.to/lastmile_qr_scan"}, "lat": 38.9318785, "is_reserved": 0, "bike_id": "1999af74a647bd995eac0885462b0f35", "lon": -77.2292725, "is_disabled": 0, "fusion_lat": 0.0, "fusion_lon": 0.0, "name": "1999af74a647bd995eac0885462b0f35", "type": "electric_bike"}, {"rental_uris": {"ios": "https://dc.lft.to/lastmile_qr_scan", "android": "https://dc.lft.to/lastmile_qr_scan"}, "lat": 38.900125833333334, "is_reserved": 0, "bike_id": "8791dd4731d4272bcc2d27f6238cd293", "lon": -76.99172916666667, "is_disabled": 0, "fusion_lat": 0.0, "fusion_lon": 0.0, "name": "8791dd4731d4272bcc2d27f6238cd293", "type": "electric_scooter"}, {"rental_uris": {"ios": "https://dc.lft.to/lastmile_qr_scan", "android": "https://dc.lft.to/lastmile_qr_scan"}, "lat": 38.8498985, "is_reserved": 0, "bike_id": "d8f48b50e6bdc6018e0735914ff58ff6", "lon": -77.09761466666667, "is_disabled": 0, "fusion_lat": 0.0, "fusion_lon": 0.0, "name": "d8f48b50e6bdc6018e0735914ff58ff6", "type": "electric_bike"}, {"rental_uris": {"ios": "https://dc.lft.to/lastmile_qr_scan", "android": "https://dc.lft.to/lastmile_qr_scan"}, "lat": 38.88298266666666, "is_reserved": 0, "bike_id": "13aa921aef9ce6d79c73360669504d2a", "lon": -77.02478333333333, "is_disabled": 0, "fusion_lat": 0.0, "fusion_lon": 0.0, "name": "13aa921aef9ce6d79c73360669504d2a", "type": "electric_scooter"}, {"rental_uris": {"ios": "https://dc.lft.to/lastmile_qr_scan", "android": "https://dc.lft.to/lastmile_qr_scan"}, "lat": 38.81320866666667, "is_reserved": 0, "bike_id": "fdf0837d2cf4dcd8f9269d4db02cc762", "lon": -77.05083533333334, "is_disabled": 0, "fusion_lat": 0.0, "fusion_lon": 0.0, "name": "fdf0837d2cf4dcd8f9269d4db02cc762", "type": "electric_bike"}, {"rental_uris": {"ios": "https://dc.lft.to/lastmile_qr_scan", "android": "https://dc.lft.to/lastmile_qr_scan"}, "lat": 38.883542, "is_reserved": 0, "bike_id": "5030ab7aac3d003f1ca853694dfd9989", "lon": -77.01980633333334, "is_disabled": 0, "fusion_lat": 0.0, "fusion_lon": 0.0, "name": "5030ab7aac3d003f1ca853694dfd9989", "type": "electric_scooter"}, {"rental_uris": {"ios": "https://dc.lft.to/lastmile_qr_scan", "android": "https://dc.lft.to/lastmile_qr_scan"}, "lat": 38.911123, "is_reserved": 0, "bike_id": "864aec2d2afd34f3f755de113b4df7ac", "lon": -77.037325, "is_disabled": 0, "fusion_lat": 0.0, "fusion_lon": 0.0, "name": "864aec2d2afd34f3f755de113b4df7ac", "type": "electric_scooter"}, {"rental_uris": {"ios": "https://dc.lft.to/lastmile_qr_scan", "android": "https://dc.lft.to/lastmile_qr_scan"}, "lat": 38.927183, "is_reserved": 0, "bike_id": "0f446d4b267dff60bb0ff41869f36db7", "lon": -77.01596383333333, "is_disabled": 0, "fusion_lat": 0.0, "fusion_lon": 0.0, "name": "0f446d4b267dff60bb0ff41869f36db7", "type": "electric_scooter"}, {"rental_uris": {"ios": "https://dc.lft.to/lastmile_qr_scan", "android": "https://dc.lft.to/lastmile_qr_scan"}, "lat": 38.922353333333334, "is_reserved": 0, "bike_id": "2435d0dd3327870c0a0d332631bfb63f", "lon": -76.98386966666666, "is_disabled": 0, "fusion_lat": 0.0, "fusion_lon": 0.0, "name": "2435d0dd3327870c0a0d332631bfb63f", "type": "electric_scooter"}, {"rental_uris": {"ios": "https://dc.lft.to/lastmile_qr_scan", "android": "https://dc.lft.to/lastmile_qr_scan"}, "lat": 38.9284435, "is_reserved": 0, "bike_id": "9d354dc2b8a2686b6fb9fe0ac2606dbd", "lon": -77.05424916666666, "is_disabled": 0, "fusion_lat": 0.0, "fusion_lon": 0.0, "name": "9d354dc2b8a2686b6fb9fe0ac2606dbd", "type": "electric_scooter"}, {"rental_uris": {"ios": "https://dc.lft.to/lastmile_qr_scan", "android": "https://dc.lft.to/lastmile_qr_scan"}, "lat": 38.902661, "is_reserved": 0, "bike_id": "93c398006558498026a7153370c74e33", "lon": -77.02010683333333, "is_disabled": 0, "fusion_lat": 0.0, "fusion_lon": 0.0, "name": "93c398006558498026a7153370c74e33", "type": "electric_scooter"}, {"rental_uris": {"ios": "https://dc.lft.to/lastmile_qr_scan", "android": "https://dc.lft.to/lastmile_qr_scan"}, "lat": 38.9045505, "is_reserved": 0, "bike_id": "26dcbec37c7d37f0043bc4e097cfd2d0", "lon": -77.04362233333333, "is_disabled": 0, "fusion_lat": 0.0, "fusion_lon": 0.0, "name": "26dcbec37c7d37f0043bc4e097cfd2d0", "type": "electric_scooter"}, {"rental_uris": {"ios": "https://dc.lft.to/lastmile_qr_scan", "android": "https://dc.lft.to/lastmile_qr_scan"}, "lat": 38.901063, "is_reserved": 0, "bike_id": "7869a9e3c3d1a26e142775a5acba04d1", "lon": -76.99492633333334, "is_disabled": 0, "fusion_lat": 0.0, "fusion_lon": 0.0, "name": "7869a9e3c3d1a26e142775a5acba04d1", "type": "electric_scooter"}, {"rental_uris": {"ios": "https://dc.lft.to/lastmile_qr_scan", "android": "https://dc.lft.to/lastmile_qr_scan"}, "lat": 38.9125745, "is_reserved": 0, "bike_id": "9a8d42f2eeebd1137058c154533fe2c7", "lon": -77.033621, "is_disabled": 0, "fusion_lat": 0.0, "fusion_lon": 0.0, "name": "9a8d42f2eeebd1137058c154533fe2c7", "type": "electric_scooter"}, {"rental_uris": {"ios": "https://dc.lft.to/lastmile_qr_scan", "android": "https://dc.lft.to/lastmile_qr_scan"}, "lat": 38.895674166666666, "is_reserved": 0, "bike_id": "01da2bace7d21d55bc21db5ded1a77a7", "lon": -77.12737716666666, "is_disabled": 0, "fusion_lat": 0.0, "fusion_lon": 0.0, "name": "01da2bace7d21d55bc21db5ded1a77a7", "type": "electric_bike"}, {"rental_uris": {"ios": "https://dc.lft.to/lastmile_qr_scan", "android": "https://dc.lft.to/lastmile_qr_scan"}, "lat": 38.91629366666667, "is_reserved": 0, "bike_id": "dbfd6f50fd45d9d4356358539974b171", "lon": -77.04846316666666, "is_disabled": 0, "fusion_lat": 0.0, "fusion_lon": 0.0, "name": "dbfd6f50fd45d9d4356358539974b171", "type": "electric_scooter"}, {"rental_uris": {"ios": "https://dc.lft.to/lastmile_qr_scan", "android": "https://dc.lft.to/lastmile_qr_scan"}, "lat": 38.9661645, "is_reserved": 0, "bike_id": "5f3ee6c97e36a514c6b5144e47a2f180", "lon": -77.03425016666667, "is_disabled": 0, "fusion_lat": 0.0, "fusion_lon": 0.0, "name": "5f3ee6c97e36a514c6b5144e47a2f180", "type": "electric_bike"}, {"rental_uris": {"ios": "https://dc.lft.to/lastmile_qr_scan", "android": "https://dc.lft.to/lastmile_qr_scan"}, "lat": 38.90411316666667, "is_reserved": 0, "bike_id": "f00f060a528abe86f6aedfba602bb5e5", "lon": -76.97331266666667, "is_disabled": 0, "fusion_lat": 0.0, "fusion_lon": 0.0, "name": "f00f060a528abe86f6aedfba602bb5e5", "type": "electric_scooter"}, {"rental_uris": {"ios": "https://dc.lft.to/lastmile_qr_scan", "android": "https://dc.lft.to/lastmile_qr_scan"}, "lat": 38.88332166666667, "is_reserved": 0, "bike_id": "1f87e8608d0cdecca92dbaf68f2d97d2", "lon": -77.0173875, "is_disabled": 0, "fusion_lat": 0.0, "fusion_lon": 0.0, "name": "1f87e8608d0cdecca92dbaf68f2d97d2", "type": "electric_scooter"}, {"rental_uris": {"ios": "https://dc.lft.to/lastmile_qr_scan", "android": "https://dc.lft.to/lastmile_qr_scan"}, "lat": 38.85731883333333, "is_reserved": 0, "bike_id": "9512501657da95645b2f6047df226ba5", "lon": -76.973679, "is_disabled": 0, "fusion_lat": 0.0, "fusion_lon": 0.0, "name": "9512501657da95645b2f6047df226ba5", "type": "electric_scooter"}, {"rental_uris": {"ios": "https://dc.lft.to/lastmile_qr_scan", "android": "https://dc.lft.to/lastmile_qr_scan"}, "lat": 38.904806666666666, "is_reserved": 0, "bike_id": "7b13611d22ccaad0b0e23b27a877dc70", "lon": -77.06126133333333, "is_disabled": 0, "fusion_lat": 0.0, "fusion_lon": 0.0, "name": "7b13611d22ccaad0b0e23b27a877dc70", "type": "electric_scooter"}, {"rental_uris": {"ios": "https://dc.lft.to/lastmile_qr_scan", "android": "https://dc.lft.to/lastmile_qr_scan"}, "lat": 38.901919666666664, "is_reserved": 0, "bike_id": "25c8d70e0f267eaf9aecb352f4456cef", "lon": -77.04825633333333, "is_disabled": 0, "fusion_lat": 0.0, "fusion_lon": 0.0, "name": "25c8d70e0f267eaf9aecb352f4456cef", "type": "electric_scooter"}, {"rental_uris": {"ios": "https://dc.lft.to/lastmile_qr_scan", "android": "https://dc.lft.to/lastmile_qr_scan"}, "lat": 38.92455916666667, "is_reserved": 0, "bike_id": "dd9b27fde0be02869dd2516cd4013be0", "lon": -77.0215865, "is_disabled": 0, "fusion_lat": 0.0, "fusion_lon": 0.0, "name": "dd9b27fde0be02869dd2516cd4013be0", "type": "electric_scooter"}, {"rental_uris": {"ios": "https://dc.lft.to/lastmile_qr_scan", "android": "https://dc.lft.to/lastmile_qr_scan"}, "lat": 38.934246, "is_reserved": 0, "bike_id": "1afe28146870cf1bb1f78b4b21faa50c", "lon": -77.04414316666667, "is_disabled": 0, "fusion_lat": 0.0, "fusion_lon": 0.0, "name": "1afe28146870cf1bb1f78b4b21faa50c", "type": "electric_scooter"}, {"rental_uris": {"ios": "https://dc.lft.to/lastmile_qr_scan", "android": "https://dc.lft.to/lastmile_qr_scan"}, "lat": 38.8767805, "is_reserved": 0, "bike_id": "eaf4be31e273bbf0cf876112f4821253", "lon": -77.017613, "is_disabled": 0, "fusion_lat": 0.0, "fusion_lon": 0.0, "name": "eaf4be31e273bbf0cf876112f4821253", "type": "electric_scooter"}, {"rental_uris": {"ios": "https://dc.lft.to/lastmile_qr_scan", "android": "https://dc.lft.to/lastmile_qr_scan"}, "lat": 38.902735666666665, "is_reserved": 0, "bike_id": "e1b0df926815887b3bbdaf7336584125", "lon": -77.03142233333334, "is_disabled": 0, "fusion_lat": 0.0, "fusion_lon": 0.0, "name": "e1b0df926815887b3bbdaf7336584125", "type": "electric_scooter"}, {"rental_uris": {"ios": "https://dc.lft.to/lastmile_qr_scan", "android": "https://dc.lft.to/lastmile_qr_scan"}, "lat": 38.898099333333334, "is_reserved": 0, "bike_id": "93718e3465cb3b38ad0286102bd4f6a0", "lon": -77.03322716666666, "is_disabled": 0, "fusion_lat": 0.0, "fusion_lon": 0.0, "name": "93718e3465cb3b38ad0286102bd4f6a0", "type": "electric_scooter"}, {"rental_uris": {"ios": "https://dc.lft.to/lastmile_qr_scan", "android": "https://dc.lft.to/lastmile_qr_scan"}, "lat": 38.90147433333333, "is_reserved": 0, "bike_id": "9bf42cb8678b1c1ab1773a70e1df6d92", "lon": -76.99030783333333, "is_disabled": 0, "fusion_lat": 0.0, "fusion_lon": 0.0, "name": "9bf42cb8678b1c1ab1773a70e1df6d92", "type": "electric_scooter"}, {"rental_uris": {"ios": "https://dc.lft.to/lastmile_qr_scan", "android": "https://dc.lft.to/lastmile_qr_scan"}, "lat": 38.89949333333333, "is_reserved": 0, "bike_id": "a4c82f6f6de225bdccf208a4369892e9", "lon": -77.0424125, "is_disabled": 0, "fusion_lat": 0.0, "fusion_lon": 0.0, "name": "a4c82f6f6de225bdccf208a4369892e9", "type": "electric_scooter"}, {"rental_uris": {"ios": "https://dc.lft.to/lastmile_qr_scan", "android": "https://dc.lft.to/lastmile_qr_scan"}, "lat": 38.94301033333333, "is_reserved": 0, "bike_id": "b3a323309b3a55df17d81ff5ef4ebb13", "lon": -77.02959583333333, "is_disabled": 0, "fusion_lat": 0.0, "fusion_lon": 0.0, "name": "b3a323309b3a55df17d81ff5ef4ebb13", "type": "electric_scooter"}, {"rental_uris": {"ios": "https://dc.lft.to/lastmile_qr_scan", "android": "https://dc.lft.to/lastmile_qr_scan"}, "lat": 38.919805833333335, "is_reserved": 0, "bike_id": "9e52ddf0dabca2d30bc4c4d3694cc5d9", "lon": -77.024627, "is_disabled": 0, "fusion_lat": 0.0, "fusion_lon": 0.0, "name": "9e52ddf0dabca2d30bc4c4d3694cc5d9", "type": "electric_scooter"}, {"rental_uris": {"ios": "https://dc.lft.to/lastmile_qr_scan", "android": "https://dc.lft.to/lastmile_qr_scan"}, "lat": 38.86652933333333, "is_reserved": 0, "bike_id": "fb5a9678f32d1cbd068db9f2966b2fb6", "lon": -76.988799, "is_disabled": 0, "fusion_lat": 0.0, "fusion_lon": 0.0, "name": "fb5a9678f32d1cbd068db9f2966b2fb6", "type": "electric_scooter"}, {"rental_uris": {"ios": "https://dc.lft.to/lastmile_qr_scan", "android": "https://dc.lft.to/lastmile_qr_scan"}, "lat": 38.905043666666664, "is_reserved": 0, "bike_id": "8de017e1c52d0ebe74f3a75a3095f91a", "lon": -77.0602035, "is_disabled": 0, "fusion_lat": 0.0, "fusion_lon": 0.0, "name": "8de017e1c52d0ebe74f3a75a3095f91a", "type": "electric_scooter"}, {"rental_uris": {"ios": "https://dc.lft.to/lastmile_qr_scan", "android": "https://dc.lft.to/lastmile_qr_scan"}, "lat": 38.90840766666667, "is_reserved": 0, "bike_id": "1c226950dda1443d5ea8d6936e973f2a", "lon": -77.00226183333334, "is_disabled": 0, "fusion_lat": 0.0, "fusion_lon": 0.0, "name": "1c226950dda1443d5ea8d6936e973f2a", "type": "electric_scooter"}, {"rental_uris": {"ios": "https://dc.lft.to/lastmile_qr_scan", "android": "https://dc.lft.to/lastmile_qr_scan"}, "lat": 38.92112683333333, "is_reserved": 0, "bike_id": "10ae6b7b0fda8722e9c3a891eae5d21e", "lon": -77.00925033333333, "is_disabled": 0, "fusion_lat": 0.0, "fusion_lon": 0.0, "name": "10ae6b7b0fda8722e9c3a891eae5d21e", "type": "electric_scooter"}, {"rental_uris": {"ios": "https://dc.lft.to/lastmile_qr_scan", "android": "https://dc.lft.to/lastmile_qr_scan"}, "lat": 38.90955816666666, "is_reserved": 0, "bike_id": "6ae2dce77af35c1309695b74461b1e7c", "lon": -77.22891233333333, "is_disabled": 0, "fusion_lat": 0.0, "fusion_lon": 0.0, "name": "6ae2dce77af35c1309695b74461b1e7c", "type": "electric_bike"}, {"rental_uris": {"ios": "https://dc.lft.to/lastmile_qr_scan", "android": "https://dc.lft.to/lastmile_qr_scan"}, "lat": 38.9052815, "is_reserved": 0, "bike_id": "f9eee2d8c7cff8c26527df2108351a63", "lon": -76.99631516666666, "is_disabled": 0, "fusion_lat": 0.0, "fusion_lon": 0.0, "name": "f9eee2d8c7cff8c26527df2108351a63", "type": "electric_scooter"}, {"rental_uris": {"ios": "https://dc.lft.to/lastmile_qr_scan", "android": "https://dc.lft.to/lastmile_qr_scan"}, "lat": 38.89434416666667, "is_reserved": 0, "bike_id": "cabaf69c1c7854c9b4d90e54062e3c84", "lon": -77.02635716666667, "is_disabled": 0, "fusion_lat": 0.0, "fusion_lon": 0.0, "name": "cabaf69c1c7854c9b4d90e54062e3c84", "type": "electric_scooter"}, {"rental_uris": {"ios": "https://dc.lft.to/lastmile_qr_scan", "android": "https://dc.lft.to/lastmile_qr_scan"}, "lat": 38.906766, "is_reserved": 0, "bike_id": "4ac258f3b141982a6d9529b89243c568", "lon": -77.026009, "is_disabled": 0, "fusion_lat": 0.0, "fusion_lon": 0.0, "name": "4ac258f3b141982a6d9529b89243c568", "type": "electric_scooter"}, {"rental_uris": {"ios": "https://dc.lft.to/lastmile_qr_scan", "android": "https://dc.lft.to/lastmile_qr_scan"}, "lat": 38.92074983333333, "is_reserved": 0, "bike_id": "babef60d18f9cfb71433f1691b0d289c", "lon": -77.02328133333333, "is_disabled": 0, "fusion_lat": 0.0, "fusion_lon": 0.0, "name": "babef60d18f9cfb71433f1691b0d289c", "type": "electric_scooter"}, {"rental_uris": {"ios": "https://dc.lft.to/lastmile_qr_scan", "android": "https://dc.lft.to/lastmile_qr_scan"}, "lat": 38.903999666666664, "is_reserved": 0, "bike_id": "053d37ce955953b1d9684cd3f4d7dd4a", "lon": -77.04362066666667, "is_disabled": 0, "fusion_lat": 0.0, "fusion_lon": 0.0, "name": "053d37ce955953b1d9684cd3f4d7dd4a", "type": "electric_scooter"}, {"rental_uris": {"ios": "https://dc.lft.to/lastmile_qr_scan", "android": "https://dc.lft.to/lastmile_qr_scan"}, "lat": 38.925500666666665, "is_reserved": 0, "bike_id": "a658b5e02f0b14d439719667e86929de", "lon": -77.00073266666666, "is_disabled": 0, "fusion_lat": 0.0, "fusion_lon": 0.0, "name": "a658b5e02f0b14d439719667e86929de", "type": "electric_scooter"}, {"rental_uris": {"ios": "https://dc.lft.to/lastmile_qr_scan", "android": "https://dc.lft.to/lastmile_qr_scan"}, "lat": 38.9002635, "is_reserved": 0, "bike_id": "39a223ce4e321bdfd6d4255661338212", "lon": -77.00234083333334, "is_disabled": 0, "fusion_lat": 0.0, "fusion_lon": 0.0, "name": "39a223ce4e321bdfd6d4255661338212", "type": "electric_scooter"}, {"rental_uris": {"ios": "https://dc.lft.to/lastmile_qr_scan", "android": "https://dc.lft.to/lastmile_qr_scan"}, "lat": 38.897295666666665, "is_reserved": 0, "bike_id": "6a6373c2e0b11ae5f57b4e63970d09f8", "lon": -77.0201835, "is_disabled": 0, "fusion_lat": 0.0, "fusion_lon": 0.0, "name": "6a6373c2e0b11ae5f57b4e63970d09f8", "type": "electric_scooter"}, {"rental_uris": {"ios": "https://dc.lft.to/lastmile_qr_scan", "android": "https://dc.lft.to/lastmile_qr_scan"}, "lat": 38.91408966666667, "is_reserved": 0, "bike_id": "24e3fb7b401660b0837e91cc08d38b85", "lon": -77.014838, "is_disabled": 0, "fusion_lat": 0.0, "fusion_lon": 0.0, "name": "24e3fb7b401660b0837e91cc08d38b85", "type": "electric_scooter"}, {"rental_uris": {"ios": "https://dc.lft.to/lastmile_qr_scan", "android": "https://dc.lft.to/lastmile_qr_scan"}, "lat": 38.957366, "is_reserved": 0, "bike_id": "cedd354cd37f7a5925bb421fd2b7bae2", "lon": -76.97253416666666, "is_disabled": 0, "fusion_lat": 0.0, "fusion_lon": 0.0, "name": "cedd354cd37f7a5925bb421fd2b7bae2", "type": "electric_bike"}, {"rental_uris": {"ios": "https://dc.lft.to/lastmile_qr_scan", "android": "https://dc.lft.to/lastmile_qr_scan"}, "lat": 38.874070333333336, "is_reserved": 0, "bike_id": "cd3fc17eb6e2256acc412430d6f51fbf", "lon": -76.99955, "is_disabled": 0, "fusion_lat": 0.0, "fusion_lon": 0.0, "name": "cd3fc17eb6e2256acc412430d6f51fbf", "type": "electric_scooter"}, {"rental_uris": {"ios": "https://dc.lft.to/lastmile_qr_scan", "android": "https://dc.lft.to/lastmile_qr_scan"}, "lat": 38.900274833333334, "is_reserved": 0, "bike_id": "0ab35ff8f28e3938d42bfc6cf8bf0df9", "lon": -77.00111283333334, "is_disabled": 0, "fusion_lat": 0.0, "fusion_lon": 0.0, "name": "0ab35ff8f28e3938d42bfc6cf8bf0df9", "type": "electric_scooter"}, {"rental_uris": {"ios": "https://dc.lft.to/lastmile_qr_scan", "android": "https://dc.lft.to/lastmile_qr_scan"}, "lat": 38.905784833333335, "is_reserved": 0, "bike_id": "3961e55c7a1a76da70503fa4beb5653d", "lon": -77.04033716666666, "is_disabled": 0, "fusion_lat": 0.0, "fusion_lon": 0.0, "name": "3961e55c7a1a76da70503fa4beb5653d", "type": "electric_scooter"}, {"rental_uris": {"ios": "https://dc.lft.to/lastmile_qr_scan", "android": "https://dc.lft.to/lastmile_qr_scan"}, "lat": 38.95745333333333, "is_reserved": 0, "bike_id": "603ab0fc370ed83662d5c2b339cd306a", "lon": -76.9725565, "is_disabled": 0, "fusion_lat": 0.0, "fusion_lon": 0.0, "name": "603ab0fc370ed83662d5c2b339cd306a", "type": "electric_bike"}, {"rental_uris": {"ios": "https://dc.lft.to/lastmile_qr_scan", "android": "https://dc.lft.to/lastmile_qr_scan"}, "lat": 38.907343, "is_reserved": 0, "bike_id": "3e1dacab304d5cb37f2b4c8ae9e8f132", "lon": -77.04189283333334, "is_disabled": 0, "fusion_lat": 0.0, "fusion_lon": 0.0, "name": "3e1dacab304d5cb37f2b4c8ae9e8f132", "type": "electric_scooter"}, {"rental_uris": {"ios": "https://dc.lft.to/lastmile_qr_scan", "android": "https://dc.lft.to/lastmile_qr_scan"}, "lat": 38.917259666666666, "is_reserved": 0, "bike_id": "432d55f9607be37dd0abf31f6ccea2b4", "lon": -77.03662733333333, "is_disabled": 0, "fusion_lat": 0.0, "fusion_lon": 0.0, "name": "432d55f9607be37dd0abf31f6ccea2b4", "type": "electric_scooter"}, {"rental_uris": {"ios": "https://dc.lft.to/lastmile_qr_scan", "android": "https://dc.lft.to/lastmile_qr_scan"}, "lat": 38.89230366666666, "is_reserved": 0, "bike_id": "d9f5c672fa766d8948344415ddad8ae7", "lon": -77.04159466666667, "is_disabled": 0, "fusion_lat": 0.0, "fusion_lon": 0.0, "name": "d9f5c672fa766d8948344415ddad8ae7", "type": "electric_scooter"},