{"data": {"bikes": [{"is_disabled": 0, "fusion_lon": 0.0, "fusion_lat": 0.0, "lat": 38.86330533333334, "type": "electric_scooter", "lon": -76.9905055, "bike_id": "861107d3af5a96fea03906850c74d46c", "rental_uris": {"android": "https://dc.lft.to/lastmile_qr_scan", "ios": "https://dc.lft.to/lastmile_qr_scan"}, "name": "861107d3af5a96fea03906850c74d46c", "is_reserved": 0}, {"is_disabled": 0, "fusion_lon": 0.0, "fusion_lat": 0.0, "lat": 38.930874833333334, "type": "electric_scooter", "lon": -77.037631, "bike_id": "a3580e1fa1eb3d35e261964fb98f5e15", "rental_uris": {"android": "https://dc.lft.to/lastmile_qr_scan", "ios": "https://dc.lft.to/lastmile_qr_scan"}, "name": "a3580e1fa1eb3d35e261964fb98f5e15", "is_reserved": 0}, {"is_disabled": 0, "fusion_lon": 0.0, "fusion_lat": 0.0, "lat": 38.836045166666665, "type": "electric_scooter", "lon": -77.00362883333334, "bike_id": "54b9cd345a544c027e5d69de90e98ff8", "rental_uris": {"android": "https://dc.lft.to/lastmile_qr_scan", "ios": "https://dc.lft.to/lastmile_qr_scan"}, "name": "54b9cd345a544c027e5d69de90e98ff8", "is_reserved": 0}, {"is_disabled": 0, "fusion_lon": 0.0, "fusion_lat": 0.0, "lat": 38.931265833333335, "type": "electric_scooter", "lon": -77.022662, "bike_id": "173381976e828c0b08207af1864ec71a", "rental_uris": {"android": "https://dc.lft.to/lastmile_qr_scan", "ios": "https://dc.lft.to/lastmile_qr_scan"}, "name": "173381976e828c0b08207af1864ec71a", "is_reserved": 0}, {"is_disabled": 0, "fusion_lon": 0.0, "fusion_lat": 0.0, "lat": 38.928493, "type": "electric_scooter", "lon": -77.0141425, "bike_id": "811815c24bdaf1659bf1e7399b804241", "rental_uris": {"android": "https://dc.lft.to/lastmile_qr_scan", "ios": "https://dc.lft.to/lastmile_qr_scan"}, "name": "811815c24bdaf1659bf1e7399b804241", "is_reserved": 0}, {"is_disabled": 0, "fusion_lon": 0.0, "fusion_lat": 0.0, "lat": 38.967671333333335, "type": "electric_bike", "lon": -77.09163566666666, "bike_id": "26aeb75c68788c47843fe07dcc41599c", "rental_uris": {"android": "https://dc.lft.to/lastmile_qr_scan", "ios": "https://dc.lft.to/lastmile_qr_scan"}, "name": "26aeb75c68788c47843fe07dcc41599c", "is_reserved": 0}, {"is_disabled": 0, "fusion_lon": 0.0, "fusion_lat": 0.0, "lat": 38.915913333333336, "type": "electric_scooter", "lon": -77.046791, "bike_id": "927f0a4ef77f8dd987a2b5a89e5933aa", "rental_uris": {"android": "https://dc.lft.to/lastmile_qr_scan", "ios": "https://dc.lft.to/lastmile_qr_scan"}, "name": "927f0a4ef77f8dd987a2b5a89e5933aa", "is_reserved": 0}, {"is_disabled": 0, "fusion_lon": 0.0, "fusion_lat": 0.0, "lat": 38.91621633333333, "type": "electric_scooter", "lon": -77.03370316666667, "bike_id": "3b7c7b8aa08e66c615d5646f9ea82fa2", "rental_uris": {"android": "https://dc.lft.to/lastmile_qr_scan", "ios": "https://dc.lft.to/lastmile_qr_scan"}, "name": "3b7c7b8aa08e66c615d5646f9ea82fa2", "is_reserved": 0}, {"is_disabled": 0, "fusion_lon": 0.0, "fusion_lat": 0.0, "lat": 38.8473425, "type": "electric_bike", "lon": -77.0953425, "bike_id": "9b547bb419f25fab923f9e1d7769c8e1", "rental_uris": {"android": "https://dc.lft.to/lastmile_qr_scan", "ios": "https://dc.lft.to/lastmile_qr_scan"}, "name": "9b547bb419f25fab923f9e1d7769c8e1", "is_reserved": 0}, {"is_disabled": 0, "fusion_lon": 0.0, "fusion_lat": 0.0, "lat": 38.887415833333336, "type": "electric_scooter", "lon": -77.02163016666667, "bike_id": "ccb057bcb6ac0a86c6dcd3ab35a93b22", "rental_uris": {"android": "https://dc.lft.to/lastmile_qr_scan", "ios": "https://dc.lft.to/lastmile_qr_scan"}, "name": "ccb057bcb6ac0a86c6dcd3ab35a93b22", "is_reserved": 0}, {"is_disabled": 0, "fusion_lon": 0.0, "fusion_lat": 0.0, "lat": 38.914769666666665, "type": "electric_scooter", "lon": -76.98361066666666, "bike_id": "df52bdc5d8098210d11462b8d400a9eb", "rental_uris": {"android": "https://dc.lft.to/lastmile_qr_scan", "ios": "https://dc.lft.to/lastmile_qr_scan"}, "name": "df52bdc5d8098210d11462b8d400a9eb", "is_reserved": 0}, {"is_disabled": 0, "fusion_lon": 0.0, "fusion_lat": 0.0, "lat": 38.916930666666666, "type": "electric_scooter", "lon": -77.02439083333333, "bike_id": "2a66734a7d19a6082346e52df4add64f", "rental_uris": {"android": "https://dc.lft.to/lastmile_qr_scan", "ios": "https://dc.lft.to/lastmile_qr_scan"}, "name": "2a66734a7d19a6082346e52df4add64f", "is_reserved": 0}, {"is_disabled": 0, "fusion_lon": 0.0, "fusion_lat": 0.0, "lat": 38.8580745, "type": "electric_scooter", "lon": -76.98653916666666, "bike_id": "004d66cf2485b95dfb389d894627299f", "rental_uris": {"android": "https://dc.lft.to/lastmile_qr_scan", "ios": "https://dc.lft.to/lastmile_qr_scan"}, "name": "004d66cf2485b95dfb389d894627299f", "is_reserved": 0}, {"is_disabled": 0, "fusion_lon": 0.0, "fusion_lat": 0.0, "lat": 38.93614066666667, "type": "electric_scooter", "lon": -77.03726283333333, "bike_id": "3eadf4ccf49b2c010e3c43d184d2c619", "rental_uris": {"android": "https://dc.lft.to/lastmile_qr_scan", "ios": "https://dc.lft.to/lastmile_qr_scan"}, "name": "3eadf4ccf49b2c010e3c43d184d2c619", "is_reserved": 0}, {"is_disabled": 0, "fusion_lon": 0.0, "fusion_lat": 0.0, "lat": 38.90041133333333, "type": "electric_scooter", "lon": -77.046518, "bike_id": "c0529af7b660c3369f347198ecc24594", "rental_uris": {"android": "https://dc.lft.to/lastmile_qr_scan", "ios": "https://dc.lft.to/lastmile_qr_scan"}, "name": "c0529af7b660c3369f347198ecc24594", "is_reserved": 0}, {"is_disabled": 0, "fusion_lon": 0.0, "fusion_lat": 0.0, "lat": 38.90781116666667, "type": "electric_scooter", "lon": -77.032665, "bike_id": "657cb70402339d025c5faedd65339d21", "rental_uris": {"android": "https://dc.lft.to/lastmile_qr_scan", "ios": "https://dc.lft.to/lastmile_qr_scan"}, "name": "657cb70402339d025c5faedd65339d21", "is_reserved": 0}, {"is_disabled": 0, "fusion_lon": 0.0, "fusion_lat": 0.0, "lat": 38.9240755, "type": "electric_scooter", "lon": -77.02541983333333, "bike_id": "c823b81f776b7019f019d53999dc571a", "rental_uris": {"android": "https://dc.lft.to/lastmile_qr_scan", "ios": "https://dc.lft.to/lastmile_qr_scan"}, "name": "c823b81f776b7019f019d53999dc571a", "is_reserved": 0}, {"is_disabled": 0, "fusion_lon": 0.0, "fusion_lat": 0.0, "lat": 38.957245, "type": "electric_scooter", "lon": -77.030989, "bike_id": "e0e05d64db2b458f68ca5d594be2d16a", "rental_uris": {"android": "https://dc.lft.to/lastmile_qr_scan", "ios": "https://dc.lft.to/lastmile_qr_scan"}, "name": "e0e05d64db2b458f68ca5d594be2d16a", "is_reserved": 0}, {"is_disabled": 0, "fusion_lon": 0.0, "fusion_lat": 0.0, "lat": 38.990941, "type": "electric_bike", "lon": -76.87497416666666, "bike_id": "58245d079769af82cae9cef6e51da1b5", "rental_uris": {"android": "https://dc.lft.to/lastmile_qr_scan", "ios": "https://dc.lft.to/lastmile_qr_scan"}, "name": "58245d079769af82cae9cef6e51da1b5", "is_reserved": 0}, {"is_disabled": 0, "fusion_lon": 0.0, "fusion_lat": 0.0, "lat": 38.915442, "type": "electric_scooter", "lon": -77.032102, "bike_id": "38b43f8f8be840b44bdbb02344a66fe9", "rental_uris": {"android": "https://dc.lft.to/lastmile_qr_scan", "ios": "https://dc.lft.to/lastmile_qr_scan"}, "name": "38b43f8f8be840b44bdbb02344a66fe9", "is_reserved": 0}, {"is_disabled": 0, "fusion_lon": 0.0, "fusion_lat": 0.0, "lat": 38.899861, "type": "electric_scooter", "lon": -77.02933283333333, "bike_id": "bcb790f7fdc911fb54661d3add6f456e", "rental_uris": {"android": "https://dc.lft.to/lastmile_qr_scan", "ios": "https://dc.lft.to/lastmile_qr_scan"}, "name": "bcb790f7fdc911fb54661d3add6f456e", "is_reserved": 0}, {"is_disabled": 0, "fusion_lon": 0.0, "fusion_lat": 0.0, "lat": 38.88825383333333, "type": "electric_bike", "lon": -77.1274215, "bike_id": "345db125451dcd12c4788108af417307", "rental_uris": {"android": "https://dc.lft.to/lastmile_qr_scan", "ios": "https://dc.lft.to/lastmile_qr_scan"}, "name": "345db125451dcd12c4788108af417307", "is_reserved": 0}, {"is_disabled": 0, "fusion_lon": 0.0, "fusion_lat": 0.0, "lat": 38.975738666666665, "type": "electric_bike", "lon": -76.96406466666667, "bike_id": "342687aacc0f1e9171a3fdf26f7dddb7", "rental_uris": {"android": "https://dc.lft.to/lastmile_qr_scan", "ios": "https://dc.lft.to/lastmile_qr_scan"}, "name": "342687aacc0f1e9171a3fdf26f7dddb7", "is_reserved": 0}, {"is_disabled": 0, "fusion_lon": 0.0, "fusion_lat": 0.0, "lat": 38.855035, "type": "electric_bike", "lon": -77.10720566666667, "bike_id": "fe3c12917c09fa142b7e9e914aa3f359", "rental_uris": {"android": "https://dc.lft.to/lastmile_qr_scan", "ios": "https://dc.lft.to/lastmile_qr_scan"}, "name": "fe3c12917c09fa142b7e9e914aa3f359", "is_reserved": 0}, {"is_disabled": 0, "fusion_lon": 0.0, "fusion_lat": 0.0, "lat": 38.8960855, "type": "electric_scooter", "lon": -77.02579983333334, "bike_id": "e38861efac9d7ebeaaa71a64ea0060a5", "rental_uris": {"android": "https://dc.lft.to/lastmile_qr_scan", "ios": "https://dc.lft.to/lastmile_qr_scan"}, "name": "e38861efac9d7ebeaaa71a64ea0060a5", "is_reserved": 0}, {"is_disabled": 0, "fusion_lon": 0.0, "fusion_lat": 0.0, "lat": 38.91718483333333, "type": "electric_scooter", "lon": -77.02803466666667, "bike_id": "cfaa5f9475fb9501c532cbdbe7b0d4d8", "rental_uris": {"android": "https://dc.lft.to/lastmile_qr_scan", "ios": "https://dc.lft.to/lastmile_qr_scan"}, "name": "cfaa5f9475fb9501c532cbdbe7b0d4d8", "is_reserved": 0}, {"is_disabled": 0, "fusion_lon": 0.0, "fusion_lat": 0.0, "lat": 38.90626483333333, "type": "electric_scooter", "lon": -77.02184233333334, "bike_id": "abbe98df57d50e665aea96736bb665b3", "rental_uris": {"android": "https://dc.lft.to/lastmile_qr_scan", "ios": "https://dc.lft.to/lastmile_qr_scan"}, "name": "abbe98df57d50e665aea96736bb665b3", "is_reserved": 0}, {"is_disabled": 0, "fusion_lon": 0.0, "fusion_lat": 0.0, "lat": 39.000215833333336, "type": "electric_bike", "lon": -76.8728705, "bike_id": "3f671089760cbdd0632c582f7d9405e7", "rental_uris": {"android": "https://dc.lft.to/lastmile_qr_scan", "ios": "https://dc.lft.to/lastmile_qr_scan"}, "name": "3f671089760cbdd0632c582f7d9405e7", "is_reserved": 0}, {"is_disabled": 0, "fusion_lon": 0.0, "fusion_lat": 0.0, "lat": 38.925849166666666, "type": "electric_scooter", "lon": -77.04013233333333, "bike_id": "c4c940185cc06a3fc7d1b38708c848d3", "rental_uris": {"android": "https://dc.lft.to/lastmile_qr_scan", "ios": "https://dc.lft.to/lastmile_qr_scan"}, "name": "c4c940185cc06a3fc7d1b38708c848d3", "is_reserved": 0}, {"is_disabled": 0, "fusion_lon": 0.0, "fusion_lat": 0.0, "lat": 38.82880316666667, "type": "electric_bike", "lon": -77.11218083333333, "bike_id": "a1316646abe1ba320dc7f682866115cd", "rental_uris": {"android": "https://dc.lft.to/lastmile_qr_scan", "ios": "https://dc.lft.to/lastmile_qr_scan"}, "name": "a1316646abe1ba320dc7f682866115cd", "is_reserved": 0}, {"is_disabled": 0, "fusion_lon": 0.0, "fusion_lat": 0.0, "lat": 38.92551316666667, "type": "electric_scooter", "lon": -77.0405605, "bike_id": "f48f4fc2e666274ea06190fdc607394f", "rental_uris": {"android": "https://dc.lft.to/lastmile_qr_scan", "ios": "https://dc.lft.to/lastmile_qr_scan"}, "name": "f48f4fc2e666274ea06190fdc607394f", "is_reserved": 0}, {"is_disabled": 0, "fusion_lon": 0.0, "fusion_lat": 0.0, "lat": 38.89536066666667, "type": "electric_scooter", "lon": -77.02805983333333, "bike_id": "95582d425460f653ce4f0c2fa3a27e08", "rental_uris": {"android": "https://dc.lft.to/lastmile_qr_scan", "ios": "https://dc.lft.to/lastmile_qr_scan"}, "name": "95582d425460f653ce4f0c2fa3a27e08", "is_reserved": 0}, {"is_disabled": 0, "fusion_lon": 0.0, "fusion_lat": 0.0, "lat": 38.909668, "type": "electric_scooter", "lon": -77.01108433333333, "bike_id": "3e57dccaa94e047af36668db5e40cc18", "rental_uris": {"android": "https://dc.lft.to/lastmile_qr_scan", "ios": "https://dc.lft.to/lastmile_qr_scan"}, "name": "3e57dccaa94e047af36668db5e40cc18", "is_reserved": 0}, {"is_disabled": 0, "fusion_lon": 0.0, "fusion_lat": 0.0, "lat": 38.91252816666667, "type": "electric_scooter", "lon": -77.0223515, "bike_id": "d8a0b579091b484404817bc59344427e", "rental_uris": {"android": "https://dc.lft.to/lastmile_qr_scan", "ios": "https://dc.lft.to/lastmile_qr_scan"}, "name": "d8a0b579091b484404817bc59344427e", "is_reserved": 0}, {"is_disabled": 0, "fusion_lon": 0.0, "fusion_lat": 0.0, "lat": 38.92617166666667, "type": "electric_scooter", "lon": -77.02165333333333, "bike_id": "8ba390695fcfc1d19b39430233c74993", "rental_uris": {"android": "https://dc.lft.to/lastmile_qr_scan", "ios": "https://dc.lft.to/lastmile_qr_scan"}, "name": "8ba390695fcfc1d19b39430233c74993", "is_reserved": 0}, {"is_disabled": 0, "fusion_lon": 0.0, "fusion_lat": 0.0, "lat": 38.90059816666667, "type": "electric_scooter", "lon": -77.0445175, "bike_id": "e13b937e42559706bd5d9c9482136781", "rental_uris": {"android": "https://dc.lft.to/lastmile_qr_scan", "ios": "https://dc.lft.to/lastmile_qr_scan"}, "name": "e13b937e42559706bd5d9c9482136781", "is_reserved": 0}, {"is_disabled": 0, "fusion_lon": 0.0, "fusion_lat": 0.0, "lat": 38.878435, "type": "electric_scooter", "lon": -77.00721016666667, "bike_id": "733eed2dbadf61fe49b645d732efc067", "rental_uris": {"android": "https://dc.lft.to/lastmile_qr_scan", "ios": "https://dc.lft.to/lastmile_qr_scan"}, "name": "733eed2dbadf61fe49b645d732efc067", "is_reserved": 0}, {"is_disabled": 0, "fusion_lon": 0.0, "fusion_lat": 0.0, "lat": 38.9015765, "type": "electric_scooter", "lon": -77.059098, "bike_id": "36429f4aaf99e8395bc2eaf2300618c6", "rental_uris": {"android": "https://dc.lft.to/lastmile_qr_scan", "ios": "https://dc.lft.to/lastmile_qr_scan"}, "name": "36429f4aaf99e8395bc2eaf2300618c6", "is_reserved": 0}, {"is_disabled": 0, "fusion_lon": 0.0, "fusion_lat": 0.0, "lat": 38.92170383333333, "type": "electric_scooter", "lon": -77.055339, "bike_id": "728a4194ec403ad391393beec478acc3", "rental_uris": {"android": "https://dc.lft.to/lastmile_qr_scan", "ios": "https://dc.lft.to/lastmile_qr_scan"}, "name": "728a4194ec403ad391393beec478acc3", "is_reserved": 0}, {"is_disabled": 0, "fusion_lon": 0.0, "fusion_lat": 0.0, "lat": 38.9175875, "type": "electric_scooter", "lon": -77.0049995, "bike_id": "973eb5157fe06e5972c54ef192461a94", "rental_uris": {"android": "https://dc.lft.to/lastmile_qr_scan", "ios": "https://dc.lft.to/lastmile_qr_scan"}, "name": "973eb5157fe06e5972c54ef192461a94", "is_reserved": 0}, {"is_disabled": 0, "fusion_lon": 0.0, "fusion_lat": 0.0, "lat": 38.91631, "type": "electric_scooter", "lon": -77.02563166666667, "bike_id": "4bde208defbe668778e2051df5179da4", "rental_uris": {"android": "https://dc.lft.to/lastmile_qr_scan", "ios": "https://dc.lft.to/lastmile_qr_scan"}, "name": "4bde208defbe668778e2051df5179da4", "is_reserved": 0}, {"is_disabled": 0, "fusion_lon": 0.0, "fusion_lat": 0.0, "lat": 38.893543666666666, "type": "electric_scooter", "lon": -76.94947733333333, "bike_id": "b8be2b3a775cb174e01493e63884ee7b", "rental_uris": {"android": "https://dc.lft.to/lastmile_qr_scan", "ios": "https://dc.lft.to/lastmile_qr_scan"}, "name": "b8be2b3a775cb174e01493e63884ee7b", "is_reserved": 0}, {"is_disabled": 0, "fusion_lon": 0.0, "fusion_lat": 0.0, "lat": 38.949235333333334, "type": "electric_scooter", "lon": -77.0185845, "bike_id": "2ec29e03b11d52a6a134ff44d4dcc258", "rental_uris": {"android": "https://dc.lft.to/lastmile_qr_scan", "ios": "https://dc.lft.to/lastmile_qr_scan"}, "name": "2ec29e03b11d52a6a134ff44d4dcc258", "is_reserved": 0}, {"is_disabled": 0, "fusion_lon": 0.0, "fusion_lat": 0.0, "lat": 38.93558683333333, "type": "electric_scooter", "lon": -77.02861066666667, "bike_id": "0069a3d52810a31e28464e8fdbb46cd8", "rental_uris": {"android": "https://dc.lft.to/lastmile_qr_scan", "ios": "https://dc.lft.to/lastmile_qr_scan"}, "name": "0069a3d52810a31e28464e8fdbb46cd8", "is_reserved": 0}, {"is_disabled": 0, "fusion_lon": 0.0, "fusion_lat": 0.0, "lat": 38.900454333333336, "type": "electric_scooter", "lon": -77.04373916666667, "bike_id": "ea2ba66ee804cd18b6e4bff74cb9b4e2", "rental_uris": {"android": "https://dc.lft.to/lastmile_qr_scan", "ios": "https://dc.lft.to/lastmile_qr_scan"}, "name": "ea2ba66ee804cd18b6e4bff74cb9b4e2", "is_reserved": 0}, {"is_disabled": 0, "fusion_lon": 0.0, "fusion_lat": 0.0, "lat": 38.914847, "type": "electric_scooter", "lon": -77.032938, "bike_id": "c3639bdb4ceaf147a9188a3c85904a6e", "rental_uris": {"android": "https://dc.lft.to/lastmile_qr_scan", "ios": "https://dc.lft.to/lastmile_qr_scan"}, "name": "c3639bdb4ceaf147a9188a3c85904a6e", "is_reserved": 0}, {"is_disabled": 0, "fusion_lon": 0.0, "fusion_lat": 0.0, "lat": 38.90560716666667, "type": "electric_scooter", "lon": -77.0660645, "bike_id": "bf1612cecca4d118542546f3eab5f78b", "rental_uris": {"android": "https://dc.lft.to/lastmile_qr_scan", "ios": "https://dc.lft.to/lastmile_qr_scan"}, "name": "bf1612cecca4d118542546f3eab5f78b", "is_reserved": 0}, {"is_disabled": 0, "fusion_lon": 0.0, "fusion_lat": 0.0, "lat": 38.90621683333333, "type": "electric_scooter", "lon": -77.0321255, "bike_id": "479dc245e3075b14223221371500aa04", "rental_uris": {"android": "https://dc.lft.to/lastmile_qr_scan", "ios": "https://dc.lft.to/lastmile_qr_scan"}, "name": "479dc245e3075b14223221371500aa04", "is_reserved": 0}, {"is_disabled": 0, "fusion_lon": 0.0, "fusion_lat": 0.0, "lat": 38.902802, "type": "electric_scooter", "lon": -76.97400083333333, "bike_id": "f120a64888fbb8ecb585eaf3ed27da70", "rental_uris": {"android": "https://dc.lft.to/lastmile_qr_scan", "ios": "https://dc.lft.to/lastmile_qr_scan"}, "name": "f120a64888fbb8ecb585eaf3ed27da70", "is_reserved": 0}, {"is_disabled": 0, "fusion_lon": 0.0, "fusion_lat": 0.0, "lat": 38.929697833333336, "type": "electric_scooter", "lon": -77.0365635, "bike_id": "e7b370e068c474986e466735aef35f7e", "rental_uris": {"android": "https://dc.lft.to/lastmile_qr_scan", "ios": "https://dc.lft.to/lastmile_qr_scan"}, "name": "e7b370e068c474986e466735aef35f7e", "is_reserved": 0}, {"is_disabled": 0, "fusion_lon": 0.0, "fusion_lat": 0.0, "lat": 38.90100533333333, "type": "electric_scooter", "lon": -77.04761383333333, "bike_id": "7a7bbd1807609dd262f68f9f54cc395f", "rental_uris": {"android": "https://dc.lft.to/lastmile_qr_scan", "ios": "https://dc.lft.to/lastmile_qr_scan"}, "name": "7a7bbd1807609dd262f68f9f54cc395f", "is_reserved": 0}, {"is_disabled": 0, "fusion_lon": 0.0, "fusion_lat": 0.0, "lat": 38.87498716666666, "type": "electric_scooter", "lon": -77.0017595, "bike_id": "10828d19c85b73b53714c9e1f56becf9", "rental_uris": {"android": "https://dc.lft.to/lastmile_qr_scan", "ios": "https://dc.lft.to/lastmile_qr_scan"}, "name": "10828d19c85b73b53714c9e1f56becf9", "is_reserved": 0}, {"is_disabled": 0, "fusion_lon": 0.0, "fusion_lat": 0.0, "lat": 38.894723666666664, "type": "electric_scooter", "lon": -76.93304633333334, "bike_id": "1817477d2d013d05d0e40e9d836ceb03", "rental_uris": {"android": "https://dc.lft.to/lastmile_qr_scan", "ios": "https://dc.lft.to/lastmile_qr_scan"}, "name": "1817477d2d013d05d0e40e9d836ceb03", "is_reserved": 0}, {"is_disabled": 0, "fusion_lon": 0.0, "fusion_lat": 0.0, "lat": 38.884291, "type": "electric_scooter", "lon": -77.0197735, "bike_id": "9f8a42fa4ec59ebeb289f46327c7a07e", "rental_uris": {"android": "https://dc.lft.to/lastmile_qr_scan", "ios": "https://dc.lft.to/lastmile_qr_scan"}, "name": "9f8a42fa4ec59ebeb289f46327c7a07e", "is_reserved": 0}, {"is_disabled": 0, "fusion_lon": 0.0, "fusion_lat": 0.0, "lat": 38.8979655, "type": "electric_scooter", "lon": -77.01205866666666, "bike_id": "558aff99925fa8dd55207fd7824f9e39", "rental_uris": {"android": "https://dc.lft.to/lastmile_qr_scan", "ios": "https://dc.lft.to/lastmile_qr_scan"}, "name": "558aff99925fa8dd55207fd7824f9e39", "is_reserved": 0}, {"is_disabled": 0, "fusion_lon": 0.0, "fusion_lat": 0.0, "lat": 38.90019783333334, "type": "electric_scooter", "lon": -77.0069015, "bike_id": "1deef3619d2cfeb6427092b3824fcc20", "rental_uris": {"android": "https://dc.lft.to/lastmile_qr_scan", "ios": "https://dc.lft.to/lastmile_qr_scan"}, "name": "1deef3619d2cfeb6427092b3824fcc20", "is_reserved": 0}, {"is_disabled": 0, "fusion_lon": 0.0, "fusion_lat": 0.0, "lat": 38.912750833333334, "type": "electric_scooter", "lon": -77.04170183333333, "bike_id": "11fdbdbc1457c316e206a5de185707ac", "rental_uris": {"android": "https://dc.lft.to/lastmile_qr_scan", "ios": "https://dc.lft.to/lastmile_qr_scan"}, "name": "11fdbdbc1457c316e206a5de185707ac", "is_reserved": 0}, {"is_disabled": 0, "fusion_lon": 0.0, "fusion_lat": 0.0, "lat": 38.878969, "type": "electric_scooter", "lon": -76.93522083333333, "bike_id": "50f5b0e4cb92d4f8c04dabf12f6bef91", "rental_uris": {"android": "https://dc.lft.to/lastmile_qr_scan", "ios": "https://dc.lft.to/lastmile_qr_scan"}, "name": "50f5b0e4cb92d4f8c04dabf12f6bef91", "is_reserved": 0}, {"is_disabled": 0, "fusion_lon": 0.0, "fusion_lat": 0.0, "lat": 38.807872833333334, "type": "electric_bike", "lon": -77.13838066666666, "bike_id": "847db02e6ae8e3ea09f36d5c87a74d23", "rental_uris": {"android": "https://dc.lft.to/lastmile_qr_scan", "ios": "https://dc.lft.to/lastmile_qr_scan"}, "name": "847db02e6ae8e3ea09f36d5c87a74d23", "is_reserved": 0}, {"is_disabled": 0, "fusion_lon": 0.0, "fusion_lat": 0.0, "lat": 38.9430265, "type": "electric_scooter", "lon": -77.02530933333334, "bike_id": "09244841183ba0ebf895b41edc10addb", "rental_uris": {"android": "https://dc.lft.to/lastmile_qr_scan", "ios": "https://dc.lft.to/lastmile_qr_scan"}, "name": "09244841183ba0ebf895b41edc10addb", "is_reserved": 0}, {"is_disabled": 0, "fusion_lon": 0.0, "fusion_lat": 0.0, "lat": 38.90246116666667, "type": "electric_scooter", "lon": -77.02848433333334, "bike_id": "fb274f5d5720b5b3683cda8f59a40432", "rental_uris": {"android": "https://dc.lft.to/lastmile_qr_scan", "ios": "https://dc.lft.to/lastmile_qr_scan"}, "name": "fb274f5d5720b5b3683cda8f59a40432", "is_reserved": 0}, {"is_disabled": 0, "fusion_lon": 0.0, "fusion_lat": 0.0, "lat": 38.905304666666666, "type": "electric_scooter", "lon": -77.05766766666666, "bike_id": "f124f4ba857fc24f85b7c203c88a3f5f", "rental_uris": {"android": "https://dc.lft.to/lastmile_qr_scan", "ios": "https://dc.lft.to/lastmile_qr_scan"}, "name": "f124f4ba857fc24f85b7c203c88a3f5f", "is_reserved": 0}, {"is_disabled": 0, "fusion_lon": 0.0, "fusion_lat": 0.0, "lat": 38.911584833333336, "type": "electric_scooter", "lon": -77.08794833333333, "bike_id": "9caa0016b65f825ff335ef413ba82c76", "rental_uris": {"android": "https://dc.lft.to/lastmile_qr_scan", "ios": "https://dc.lft.to/lastmile_qr_scan"}, "name": "9caa0016b65f825ff335ef413ba82c76", "is_reserved": 0}, {"is_disabled": 0, "fusion_lon": 0.0, "fusion_lat": 0.0, "lat": 38.904689166666664, "type": "electric_scooter", "lon": -77.02714466666667, "bike_id": "1fd28bd6087e3f28e45d6cb482db2911", "rental_uris": {"android": "https://dc.lft.to/lastmile_qr_scan", "ios": "https://dc.lft.to/lastmile_qr_scan"}, "name": "1fd28bd6087e3f28e45d6cb482db2911", "is_reserved": 0}, {"is_disabled": 0, "fusion_lon": 0.0, "fusion_lat": 0.0, "lat": 38.910912833333335, "type": "electric_scooter", "lon": -77.021695, "bike_id": "9dc2feca2e692dabf61f515e0716a1e9", "rental_uris": {"android": "https://dc.lft.to/lastmile_qr_scan", "ios": "https://dc.lft.to/lastmile_qr_scan"}, "name": "9dc2feca2e692dabf61f515e0716a1e9", "is_reserved": 0}, {"is_disabled": 0, "fusion_lon": 0.0, "fusion_lat": 0.0, "lat": 38.984754333333335, "type": "electric_scooter", "lon": -77.02645083333333, "bike_id": "61ffd49b04761b0f2cffa68b30ab7fca", "rental_uris": {"android": "https://dc.lft.to/lastmile_qr_scan", "ios": "https://dc.lft.to/lastmile_qr_scan"}, "name": "61ffd49b04761b0f2cffa68b30ab7fca", "is_reserved": 0}, {"is_disabled": 0, "fusion_lon": 0.0, "fusion_lat": 0.0, "lat": 38.933233666666666, "type": "electric_scooter", "lon": -77.08198466666667, "bike_id": "f3b885c91d49f2530d748ee80956d94f", "rental_uris": {"android": "https://dc.lft.to/lastmile_qr_scan", "ios": "https://dc.lft.to/lastmile_qr_scan"}, "name": "f3b885c91d49f2530d748ee80956d94f", "is_reserved": 0}, {"is_disabled": 0, "fusion_lon": 0.0, "fusion_lat": 0.0, "lat": 38.90445316666667, "type": "electric_scooter", "lon": -77.02897716666666, "bike_id": "8b0692b869fbbb1a83dcaf34f4869dde", "rental_uris": {"android": "https://dc.lft.to/lastmile_qr_scan", "ios": "https://dc.lft.to/lastmile_qr_scan"}, "name": "8b0692b869fbbb1a83dcaf34f4869dde", "is_reserved": 0}, {"is_disabled": 0, "fusion_lon": 0.0, "fusion_lat": 0.0, "lat": 38.90430416666667, "type": "electric_scooter", "lon": -77.04366933333333, "bike_id": "57e2235bcf690f6c6ba45a3c6681ceb7", "rental_uris": {"android": "https://dc.lft.to/lastmile_qr_scan", "ios": "https://dc.lft.to/lastmile_qr_scan"}, "name": "57e2235bcf690f6c6ba45a3c6681ceb7", "is_reserved": 0}, {"is_disabled": 0, "fusion_lon": 0.0, "fusion_lat": 0.0, "lat": 38.9026685, "type": "electric_scooter", "lon": -77.0343425, "bike_id": "faad0aaf5c03dade59850e05bd6c2985", "rental_uris": {"android": "https://dc.lft.to/lastmile_qr_scan", "ios": "https://dc.lft.to/lastmile_qr_scan"}, "name": "faad0aaf5c03dade59850e05bd6c2985", "is_reserved": 0}, {"is_disabled": 0, "fusion_lon": 0.0, "fusion_lat": 0.0, "lat": 38.911182833333335, "type": "electric_scooter", "lon": -76.99779466666666, "bike_id": "ab5c3c28432d864344da954b6a841c41", "rental_uris": {"android": "https://dc.lft.to/lastmile_qr_scan", "ios": "https://dc.lft.to/lastmile_qr_scan"}, "name": "ab5c3c28432d864344da954b6a841c41", "is_reserved": 0}, {"is_disabled": 0, "fusion_lon": 0.0, "fusion_lat": 0.0, "lat": 38.893561, "type": "electric_scooter", "lon": -77.022167, "bike_id": "fa7246a8fcb0289abefbc57c333bc940", "rental_uris": {"android": "https://dc.lft.to/lastmile_qr_scan", "ios": "https://dc.lft.to/lastmile_qr_scan"}, "name": "fa7246a8fcb0289abefbc57c333bc940", "is_reserved": 0}, {"is_disabled": 0, "fusion_lon": 0.0, "fusion_lat": 0.0, "lat": 38.9665075, "type": "electric_bike", "lon": -76.930204, "bike_id": "41530572b023408e6d1c1cab3d29ba77", "rental_uris": {"android": "https://dc.lft.to/lastmile_qr_scan", "ios": "https://dc.lft.to/lastmile_qr_scan"}, "name": "41530572b023408e6d1c1cab3d29ba77", "is_reserved": 0}, {"is_disabled": 0, "fusion_lon": 0.0, "fusion_lat": 0.0, "lat": 38.858011166666664, "type": "electric_bike", "lon": -76.98751833333333, "bike_id": "d044aa7ce61044ed97b191f2737ffeef", "rental_uris": {"android": "https://dc.lft.to/lastmile_qr_scan", "ios": "https://dc.lft.to/lastmile_qr_scan"}, "name": "d044aa7ce61044ed97b191f2737ffeef", "is_reserved": 0}, {"is_disabled": 0, "fusion_lon": 0.0, "fusion_lat": 0.0, "lat": 38.920442333333334, "type": "electric_scooter", "lon": -77.04188283333333, "bike_id": "4af3557bd6277115f06ce16e38e28caf", "rental_uris": {"android": "https://dc.lft.to/lastmile_qr_scan", "ios": "https://dc.lft.to/lastmile_qr_scan"}, "name": "4af3557bd6277115f06ce16e38e28caf", "is_reserved": 0}, {"is_disabled": 0, "fusion_lon": 0.0, "fusion_lat": 0.0, "lat": 38.91955316666667, "type": "electric_scooter", "lon": -77.0138015, "bike_id": "a3683e76726d2d2bc0d845e98db6e3dd", "rental_uris": {"android": "https://dc.lft.to/lastmile_qr_scan", "ios": "https://dc.lft.to/lastmile_qr_scan"}, "name": "a3683e76726d2d2bc0d845e98db6e3dd", "is_reserved": 0}, {"is_disabled": 0, "fusion_lon": 0.0, "fusion_lat": 0.0, "lat": 38.907948833333336, "type": "electric_scooter", "lon": -77.00210683333333, "bike_id": "93af4281b4e6c4e5bda899900ca7a8bb", "rental_uris": {"android": "https://dc.lft.to/lastmile_qr_scan", "ios": "https://dc.lft.to/lastmile_qr_scan"}, "name": "93af4281b4e6c4e5bda899900ca7a8bb", "is_reserved": 0}, {"is_disabled": 0, "fusion_lon": 0.0, "fusion_lat": 0.0, "lat": 38.879841166666665, "type": "electric_bike", "lon": -76.91599366666667, "bike_id": "cbc749e761dc94002e62080d335410b9", "rental_uris": {"android": "https://dc.lft.to/lastmile_qr_scan", "ios": "https://dc.lft.to/lastmile_qr_scan"}, "name": "cbc749e761dc94002e62080d335410b9", "is_reserved": 0}, {"is_disabled": 0, "fusion_lon": 0.0, "fusion_lat": 0.0, "lat": 38.916794833333334, "type": "electric_scooter", "lon": -77.02949183333334, "bike_id": "bbf94fe3765edbbc7b4c5acd81626ea9", "rental_uris": {"android": "https://dc.lft.to/lastmile_qr_scan", "ios": "https://dc.lft.to/lastmile_qr_scan"}, "name": "bbf94fe3765edbbc7b4c5acd81626ea9", "is_reserved": 0}, {"is_disabled": 0, "fusion_lon": 0.0, "fusion_lat": 0.0, "lat": 38.88501683333333, "type": "electric_scooter", "lon": -77.01587, "bike_id": "3839b44a5e9d4dfdf1c7205e754ee145", "rental_uris": {"android": "https://dc.lft.to/lastmile_qr_scan", "ios": "https://dc.lft.to/lastmile_qr_scan"}, "name": "3839b44a5e9d4dfdf1c7205e754ee145", "is_reserved": 0}, {"is_disabled": 0, "fusion_lon": 0.0, "fusion_lat": 0.0, "lat": 38.9224505, "type": "electric_scooter", "lon": -77.02241883333333, "bike_id": "313a57202e90569dd46f987668fb4da8", "rental_uris": {"android": "https://dc.lft.to/lastmile_qr_scan", "ios": "https://dc.lft.to/lastmile_qr_scan"}, "name": "313a57202e90569dd46f987668fb4da8", "is_reserved": 0}, {"is_disabled": 0, "fusion_lon": 0.0, "fusion_lat": 0.0, "lat": 38.87052633333333, "type": "electric_bike", "lon": -77.01352616666667, "bike_id": "07b9b36a7a451f02f0f058afeddff40e", "rental_uris": {"android": "https://dc.lft.to/lastmile_qr_scan", "ios": "https://dc.lft.to/lastmile_qr_scan"}, "name": "07b9b36a7a451f02f0f058afeddff40e", "is_reserved": 0}, {"is_disabled": 0, "fusion_lon": 0.0, "fusion_lat": 0.0, "lat": 38.89812666666667, "type": "electric_scooter", "lon": -77.00212916666666, "bike_id": "ce40061299ce9d95309d7fd98d3a2815", "rental_uris": {"android": "https://dc.lft.to/lastmile_qr_scan", "ios": "https://dc.lft.to/lastmile_qr_scan"}, "name": "ce40061299ce9d95309d7fd98d3a2815", "is_reserved": 0}, {"is_disabled": 0, "fusion_lon": 0.0, "fusion_lat": 0.0, "lat": 38.91056, "type": "electric_scooter", "lon": -77.02186316666666, "bike_id": "f50d2c99a21f48f006c4b36234aa18a4", "rental_uris": {"android": "https://dc.lft.to/lastmile_qr_scan", "ios": "https://dc.lft.to/lastmile_qr_scan"}, "name": "f50d2c99a21f48f006c4b36234aa18a4", "is_reserved": 0}, {"is_disabled": 0, "fusion_lon": 0.0, "fusion_lat": 0.0, "lat": 38.911143833333334, "type": "electric_scooter", "lon": -77.0424935, "bike_id": "14154ddd19d2f6f3b1721c99348e2039", "rental_uris": {"android": "https://dc.lft.to/lastmile_qr_scan", "ios": "https://dc.lft.to/lastmile_qr_scan"}, "name": "14154ddd19d2f6f3b1721c99348e2039", "is_reserved": 0}, {"is_disabled": 0, "fusion_lon": 0.0, "fusion_lat": 0.0, "lat": 38.86846033333333, "type": "electric_bike", "lon": -77.09739066666667, "bike_id": "a3c4a0eea550e072c6513470f811e0b8", "rental_uris": {"android": "https://dc.lft.to/lastmile_qr_scan", "ios": "https://dc.lft.to/lastmile_qr_scan"}, "name": "a3c4a0eea550e072c6513470f811e0b8", "is_reserved": 0}, {"is_disabled": 0, "fusion_lon": 0.0, "fusion_lat": 0.0, "lat": 38.908656666666666, "type": "electric_scooter", "lon": -77.02678283333333, "bike_id": "375f7abdc318651c144ca92de45a2783", "rental_uris": {"android": "https://dc.lft.to/lastmile_qr_scan", "ios": "https://dc.lft.to/lastmile_qr_scan"}, "name": "375f7abdc318651c144ca92de45a2783", "is_reserved": 0}, {"is_disabled": 0, "fusion_lon": 0.0, "fusion_lat": 0.0, "lat": 38.91864416666667, "type": "electric_bike", "lon": -76.96096633333333, "bike_id": "5ce5aa84410a2e1bf291f44ac84d3af5", "rental_uris": {"android": "https://dc.lft.to/lastmile_qr_scan", "ios": "https://dc.lft.to/lastmile_qr_scan"}, "name": "5ce5aa84410a2e1bf291f44ac84d3af5", "is_reserved": 0}, {"is_disabled": 0, "fusion_lon": 0.0, "fusion_lat": 0.0, "lat": 38.89854716666667, "type": "electric_bike", "lon": -76.93190733333333, "bike_id": "fb150d7b367905c1850df241d4a9f1f8", "rental_uris": {"android": "https://dc.lft.to/lastmile_qr_scan", "ios": "https://dc.lft.to/lastmile_qr_scan"}, "name": "fb150d7b367905c1850df241d4a9f1f8", "is_reserved": 0}, {"is_disabled": 0, "fusion_lon": 0.0, "fusion_lat": 0.0, "lat": 38.91692583333333, "type": "electric_scooter", "lon": -77.012155, "bike_id": "96eb4d3a11b0dcb24c5d66094a3f029b", "rental_uris": {"android": "https://dc.lft.to/lastmile_qr_scan", "ios": "https://dc.lft.to/lastmile_qr_scan"}, "name": "96eb4d3a11b0dcb24c5d66094a3f029b", "is_reserved": 0}, {"is_disabled": 0, "fusion_lon": 0.0, "fusion_lat": 0.0, "lat": 38.914154, "type": "electric_scooter", "lon": -77.025662, "bike_id": "f20468f0dd20f03f81d8f756f3d829b1", "rental_uris": {"android": "https://dc.lft.to/lastmile_qr_scan", "ios": "https://dc.lft.to/lastmile_qr_scan"}, "name": "f20468f0dd20f03f81d8f756f3d829b1", "is_reserved": 0}, {"is_disabled": 0, "fusion_lon": 0.0, "fusion_lat": 0.0, "lat": 38.906234, "type": "electric_scooter", "lon": -77.03210566666667, "bike_id": "e9f555800ee74535ef94c2c538c8f82a", "rental_uris": {"android": "https://dc.lft.to/lastmile_qr_scan", "ios": "https://dc.lft.to/lastmile_qr_scan"}, "name": "e9f555800ee74535ef94c2c538c8f82a", "is_reserved": 0}, {"is_disabled": 0, "fusion_lon": 0.0, "fusion_lat": 0.0, "lat": 38.90735883333333, "type": "electric_scooter", "lon": -77.01092416666667, "bike_id": "dc32fab4a32acfe5b8f6d9ab08747db9", "rental_uris": {"android": "https://dc.lft.to/lastmile_qr_scan", "ios": "https://dc.lft.to/lastmile_qr_scan"}, "name": "dc32fab4a32acfe5b8f6d9ab08747db9", "is_reserved": 0}, {"is_disabled": 0, "fusion_lon": 0.0, "fusion_lat": 0.0, "lat": 38.87731683333333, "type": "electric_scooter", "lon": -77.01747766666666, "bike_id": "11610b63f61c38c50e5bd68648f82fa7", "rental_uris": {"android": "https://dc.lft.to/lastmile_qr_scan", "ios": "https://dc.lft.to/lastmile_qr_scan"}, "name": "11610b63f61c38c50e5bd68648f82fa7", "is_reserved": 0}, {"is_disabled": 0, "fusion_lon": 0.0, "fusion_lat": 0.0, "lat": 38.914041, "type": "electric_scooter", "lon": -77.02174266666667, "bike_id": "a1dd460710a4f63fdfcf4ee4f3fcb55f", "rental_uris": {"android": "https://dc.lft.to/lastmile_qr_scan", "ios": "https://dc.lft.to/lastmile_qr_scan"}, "name": "a1dd460710a4f63fdfcf4ee4f3fcb55f", "is_reserved": 0}, {"is_disabled": 0, "fusion_lon": 0.0, "fusion_lat": 0.0, "lat": 38.909641, "type": "electric_scooter", "lon": -77.03835916666667, "bike_id": "20a1da7dc3dcd8b2764e849e5fa0bed8", "rental_uris": {"android": "https://dc.lft.to/lastmile_qr_scan", "ios": "https://dc.lft.to/lastmile_qr_scan"}, "name": "20a1da7dc3dcd8b2764e849e5fa0bed8", "is_reserved": 0}, {"is_disabled": 0, "fusion_lon": 0.0, "fusion_lat": 0.0, "lat": 38.91267166666667, "type": "electric_scooter", "lon": -77.0358705, "bike_id": "83bb1aa3041db4e0ddf4e8bc3d47bae5", "rental_uris": {"android": "https://dc.lft.to/lastmile_qr_scan", "ios": "https://dc.lft.to/lastmile_qr_scan"}, "name": "83bb1aa3041db4e0ddf4e8bc3d47bae5", "is_reserved": 0}, {"is_disabled": 0, "fusion_lon": 0.0, "fusion_lat": 0.0, "lat": 38.955549833333336, "type": "electric_scooter", "lon": -77.06995583333334, "bike_id": "a8eacb975969b3525f8b8f58681793f6", "rental_uris": {"android": "https://dc.lft.to/lastmile_qr_scan", "ios": "https://dc.lft.to/lastmile_qr_scan"}, "name": "a8eacb975969b3525f8b8f58681793f6", "is_reserved": 0}, {"is_disabled": 0, "fusion_lon": 0.0, "fusion_lat": 0.0, "lat": 38.884352166666666, "type": "electric_scooter", "lon": -76.99805333333333, "bike_id": "6c10ddaad95cc4ba4b514dafc3616ba6", "rental_uris": {"android": "https://dc.lft.to/lastmile_qr_scan", "ios": "https://dc.lft.to/lastmile_qr_scan"}, "name": "6c10ddaad95cc4ba4b514dafc3616ba6", "is_reserved": 0}, {"is_disabled": 0, "fusion_lon": 0.0, "fusion_lat": 0.0, "lat": 38.91253566666666, "type": "electric_scooter", "lon": -77.012221, "bike_id": "3f375c8806560e355d775d49200a6b1d", "rental_uris": {"android": "https://dc.lft.to/lastmile_qr_scan", "ios": "https://dc.lft.to/lastmile_qr_scan"}, "name": "3f375c8806560e355d775d49200a6b1d", "is_reserved": 0}, {"is_disabled": 0, "fusion_lon": 0.0, "fusion_lat": 0.0, "lat": 38.87658016666666, "type": "electric_scooter", "lon": -77.0090625, "bike_id": "2b5695ed174732509d3705b2f2a43315", "rental_uris": {"android": "https://dc.lft.to/lastmile_qr_scan", "ios": "https://dc.lft.to/lastmile_qr_scan"}, "name": "2b5695ed174732509d3705b2f2a43315", "is_reserved": 0}, {"is_disabled": 0, "fusion_lon": 0.0, "fusion_lat": 0.0, "lat": 38.91619433333334, "type": "electric_scooter", "lon": -77.0322025, "bike_id": "34f98200af4c81255e3224730ca2e43f", "rental_uris": {"android": "https://dc.lft.to/lastmile_qr_scan", "ios": "https://dc.lft.to/lastmile_qr_scan"}, "name": "34f98200af4c81255e3224730ca2e43f", "is_reserved": 0}, {"is_disabled": 0, "fusion_lon": 0.0, "fusion_lat": 0.0, "lat": 38.89224683333333, "type": "electric_scooter", "lon": -77.04807933333333, "bike_id": "f3669b4cb3d6e03f429b91e5c1083324", "rental_uris": {"android": "https://dc.lft.to/lastmile_qr_scan", "ios": "https://dc.lft.to/lastmile_qr_scan"}, "name": "f3669b4cb3d6e03f429b91e5c1083324", "is_reserved": 0}, {"is_disabled": 0, "fusion_lon": 0.0, "fusion_lat": 0.0, "lat": 38.88407516666667, "type": "electric_scooter", "lon": -76.95416633333333, "bike_id": "de86be77247599cb8c34bedfaae90833", "rental_uris": {"android": "https://dc.lft.to/lastmile_qr_scan", "ios": "https://dc.lft.to/lastmile_qr_scan"}, "name": "de86be77247599cb8c34bedfaae90833", "is_reserved": 0}, {"is_disabled": 0, "fusion_lon": 0.0, "fusion_lat": 0.0, "lat": 38.9066675, "type": "electric_scooter", "lon": -77.00596616666667, "bike_id": "e833256a8b91c84a0c7191bfb4888624", "rental_uris": {"android": "https://dc.lft.to/lastmile_qr_scan", "ios": "https://dc.lft.to/lastmile_qr_scan"}, "name": "e833256a8b91c84a0c7191bfb4888624", "is_reserved": 0}, {"is_disabled": 0, "fusion_lon": 0.0, "fusion_lat": 0.0, "lat": 38.877541, "type": "electric_scooter", "lon": -77.0067275, "bike_id": "49faca270cd1ec5c7e0b893ca7a74afc", "rental_uris": {"android": "https://dc.lft.to/lastmile_qr_scan", "ios": "https://dc.lft.to/lastmile_qr_scan"}, "name": "49faca270cd1ec5c7e0b893ca7a74afc", "is_reserved": 0}, {"is_disabled": 0, "fusion_lon": 0.0, "fusion_lat": 0.0, "lat": 39.088473, "type": "electric_bike", "lon": -77.1780295, "bike_id": "2b20e90c0d2d99354ea81288cab737dd", "rental_uris": {"android": "https://dc.lft.to/lastmile_qr_scan", "ios": "https://dc.lft.to/lastmile_qr_scan"}, "name": "2b20e90c0d2d99354ea81288cab737dd", "is_reserved": 0}, {"is_disabled": 0, "fusion_lon": 0.0, "fusion_lat": 0.0, "lat": 38.88200633333334, "type": "electric_scooter", "lon": -76.92703533333334, "bike_id": "7c74c2bea8a1fc2b152843ff29a6c41c", "rental_uris": {"android": "https://dc.lft.to/lastmile_qr_scan", "ios": "https://dc.lft.to/lastmile_qr_scan"}, "name": "7c74c2bea8a1fc2b152843ff29a6c41c", "is_reserved": 0}, {"is_disabled": 0, "fusion_lon": 0.0, "fusion_lat": 0.0, "lat": 38.903383, "type": "electric_scooter", "lon": -76.97574933333334, "bike_id": "d1bc02cd964c9e25c554a1da928e06e9", "rental_uris": {"android": "https://dc.lft.to/lastmile_qr_scan", "ios": "https://dc.lft.to/lastmile_qr_scan"}, "name": "d1bc02cd964c9e25c554a1da928e06e9", "is_reserved": 0}, {"is_disabled": 0, "fusion_lon": 0.0, "fusion_lat": 0.0, "lat": 38.86500233333334, "type": "electric_scooter", "lon": -76.9897865, "bike_id": "6029fb134ef72848677d21dcd2bd4632", "rental_uris": {"android": "https://dc.lft.to/lastmile_qr_scan", "ios": "https://dc.lft.to/lastmile_qr_scan"}, "name": "6029fb134ef72848677d21dcd2bd4632", "is_reserved": 0}, {"is_disabled": 0, "fusion_lon": 0.0, "fusion_lat": 0.0, "lat": 38.89667266666667, "type": "electric_scooter", "lon": -77.02415816666667, "bike_id": "858f22ffe4f5437e2e0b7bee22bcf8e3", "rental_uris": {"android": "https://dc.lft.to/lastmile_qr_scan", "ios": "https://dc.lft.to/lastmile_qr_scan"}, "name": "858f22ffe4f5437e2e0b7bee22bcf8e3", "is_reserved": 0}, {"is_disabled": 0, "fusion_lon": 0.0, "fusion_lat": 0.0, "lat": 38.9044445, "type": "electric_scooter", "lon": -77.03142716666666, "bike_id": "890438bca062ea4ea82ab725d8dbb1e6", "rental_uris": {"android": "https://dc.lft.to/lastmile_qr_scan", "ios": "https://dc.lft.to/lastmile_qr_scan"}, "name": "890438bca062ea4ea82ab725d8dbb1e6", "is_reserved": 0}, {"is_disabled": 0, "fusion_lon": 0.0, "fusion_lat": 0.0, "lat": 38.90259966666667, "type": "electric_scooter", "lon": -77.00830683333334, "bike_id": "6f015c97cb6a511f3ee9ac6f9e673e91", "rental_uris": {"android": "https://dc.lft.to/lastmile_qr_scan", "ios": "https://dc.lft.to/lastmile_qr_scan"}, "name": "6f015c97cb6a511f3ee9ac6f9e673e91", "is_reserved": 0}, {"is_disabled": 0, "fusion_lon": 0.0, "fusion_lat": 0.0, "lat": 38.9216725, "type": "electric_scooter", "lon": -77.03394766666666, "bike_id": "4fcd014a71064d8d6d8ae0504ebaf621", "rental_uris": {"android": "https://dc.lft.to/lastmile_qr_scan", "ios": "https://dc.lft.to/lastmile_qr_scan"}, "name": "4fcd014a71064d8d6d8ae0504ebaf621", "is_reserved": 0}, {"is_disabled": 0, "fusion_lon": 0.0, "fusion_lat": 0.0, "lat": 38.903905333333334, "type": "electric_scooter", "lon": -77.035278, "bike_id": "90b0212dab2fbbaf108e96b60ee555e4", "rental_uris": {"android": "https://dc.lft.to/lastmile_qr_scan", "ios": "https://dc.lft.to/lastmile_qr_scan"}, "name": "90b0212dab2fbbaf108e96b60ee555e4", "is_reserved": 0}, {"is_disabled": 0, "fusion_lon": 0.0, "fusion_lat": 0.0, "lat": 38.9067845, "type": "electric_scooter", "lon": -77.0712925, "bike_id": "c3d2d14cced02872491d5cb5aaa78823", "rental_uris": {"android": "https://dc.lft.to/lastmile_qr_scan", "ios": "https://dc.lft.to/lastmile_qr_scan"}, "name": "c3d2d14cced02872491d5cb5aaa78823", "is_reserved": 0}, {"is_disabled": 0, "fusion_lon": 0.0, "fusion_lat": 0.0, "lat": 38.9066635, "type": "electric_scooter", "lon": -77.02707766666667, "bike_id": "12450de879993748aea0499c26ea2e6c", "rental_uris": {"android": "https://dc.lft.to/lastmile_qr_scan", "ios": "https://dc.lft.to/lastmile_qr_scan"}, "name": "12450de879993748aea0499c26ea2e6c", "is_reserved": 0}, {"is_disabled": 0, "fusion_lon": 0.0, "fusion_lat": 0.0, "lat": 38.892272, "type": "electric_scooter", "lon": -77.0283795, "bike_id": "54858d1b50604006b02c64beac5e71ba", "rental_uris": {"android": "https://dc.lft.to/lastmile_qr_scan", "ios": "https://dc.lft.to/lastmile_qr_scan"}, "name": "54858d1b50604006b02c64beac5e71ba", "is_reserved": 0}, {"is_disabled": 0, "fusion_lon": 0.0, "fusion_lat": 0.0, "lat": 38.848985, "type": "electric_scooter", "lon": -77.0052075, "bike_id": "4b91e0544b405c2465e3eadfc22289e4", "rental_uris": {"android": "https://dc.lft.to/lastmile_qr_scan", "ios": "https://dc.lft.to/lastmile_qr_scan"}, "name": "4b91e0544b405c2465e3eadfc22289e4", "is_reserved": 0}, {"is_disabled": 0, "fusion_lon": 0.0, "fusion_lat": 0.0, "lat": 38.88548216666667, "type": "electric_scooter", "lon": -77.00580216666667, "bike_id": "1454c3664adb9eec9093b79dd8163b71", "rental_uris": {"android": "https://dc.lft.to/lastmile_qr_scan", "ios": "https://dc.lft.to/lastmile_qr_scan"}, "name": "1454c3664adb9eec9093b79dd8163b71", "is_reserved": 0}, {"is_disabled": 0, "fusion_lon": 0.0, "fusion_lat": 0.0, "lat": 38.9058925, "type": "electric_scooter", "lon": -77.04038166666666, "bike_id": "d09a1b59d0fea78c12a493eb9811260e", "rental_uris": {"android": "https://dc.lft.to/lastmile_qr_scan", "ios": "https://dc.lft.to/lastmile_qr_scan"}, "name": "d09a1b59d0fea78c12a493eb9811260e", "is_reserved": 0}, {"is_disabled": 0, "fusion_lon": 0.0, "fusion_lat": 0.0, "lat": 38.91292166666667, "type": "electric_scooter", "lon": -76.98693516666667, "bike_id": "46d9e7927ad56439a1a0043b34d8cafb", "rental_uris": {"android": "https://dc.lft.to/lastmile_qr_scan", "ios": "https://dc.lft.to/lastmile_qr_scan"}, "name": "46d9e7927ad56439a1a0043b34d8cafb", "is_reserved": 0}, {"is_disabled": 0, "fusion_lon": 0.0, "fusion_lat": 0.0, "lat": 38.8427185, "type": "electric_bike", "lon": -76.98849, "bike_id": "a1ca7d15cb7cd5f45ddc1b5fcdddd905", "rental_uris": {"android": "https://dc.lft.to/lastmile_qr_scan", "ios": "https://dc.lft.to/lastmile_qr_scan"}, "name": "a1ca7d15cb7cd5f45ddc1b5fcdddd905", "is_reserved": 0}, {"is_disabled": 0, "fusion_lon": 0.0, "fusion_lat": 0.0, "lat": 38.91818166666667, "type": "electric_scooter", "lon": -77.02475533333333, "bike_id": "141806a8c70182851ad1016dbce1b2e0", "rental_uris": {"android": "https://dc.lft.to/lastmile_qr_scan", "ios": "https://dc.lft.to/lastmile_qr_scan"}, "name": "141806a8c70182851ad1016dbce1b2e0", "is_reserved": 0}, {"is_disabled": 0, "fusion_lon": 0.0, "fusion_lat": 0.0, "lat": 38.8991195, "type": "electric_scooter", "lon": -76.933933, "bike_id": "3fa3df61d7c3545fc8828865ae6a9f9a", "rental_uris": {"android": "https://dc.lft.to/lastmile_qr_scan", "ios": "https://dc.lft.to/lastmile_qr_scan"}, "name": "3fa3df61d7c3545fc8828865ae6a9f9a", "is_reserved": 0}, {"is_disabled": 0, "fusion_lon": 0.0, "fusion_lat": 0.0, "lat": 38.905598166666664, "type": "electric_scooter", "lon": -77.04079933333334, "bike_id": "5d51590fae13c21e7416ddbf3e026f01", "rental_uris": {"android": "https://dc.lft.to/lastmile_qr_scan", "ios": "https://dc.lft.to/lastmile_qr_scan"}, "name": "5d51590fae13c21e7416ddbf3e026f01", "is_reserved": 0}, {"is_disabled": 0, "fusion_lon": 0.0, "fusion_lat": 0.0, "lat": 38.9028585, "type": "electric_scooter", "lon": -77.03654816666666, "bike_id": "32a6df68a36c74a7cb9bc5344028c640", "rental_uris": {"android": "https://dc.lft.to/lastmile_qr_scan", "ios": "https://dc.lft.to/lastmile_qr_scan"}, "name": "32a6df68a36c74a7cb9bc5344028c640", "is_reserved": 0}, {"is_disabled": 0, "fusion_lon": 0.0, "fusion_lat": 0.0, "lat": 38.906652333333334, "type": "electric_scooter", "lon": -77.0060405, "bike_id": "5822070358d8a074af09344e50dbd487", "rental_uris": {"android": "https://dc.lft.to/lastmile_qr_scan", "ios": "https://dc.lft.to/lastmile_qr_scan"}, "name": "5822070358d8a074af09344e50dbd487", "is_reserved": 0}, {"is_disabled": 0, "fusion_lon": 0.0, "fusion_lat": 0.0, "lat": 38.90277433333333, "type": "electric_scooter", "lon": -77.034387, "bike_id": "578983a9ba65747f0a0d1480639ea8e3", "rental_uris": {"android": "https://dc.lft.to/lastmile_qr_scan", "ios": "https://dc.lft.to/lastmile_qr_scan"}, "name": "578983a9ba65747f0a0d1480639ea8e3", "is_reserved": 0}, {"is_disabled": 0, "fusion_lon": 0.0, "fusion_lat": 0.0, "lat": 38.89726366666667, "type": "electric_scooter", "lon": -77.02445416666667, "bike_id": "c7402d0d2823a8f525d8bc2f24c368ee", "rental_uris": {"android": "https://dc.lft.to/lastmile_qr_scan", "ios": "https://dc.lft.to/lastmile_qr_scan"}, "name": "c7402d0d2823a8f525d8bc2f24c368ee", "is_reserved": 0}, {"is_disabled": 0, "fusion_lon": 0.0, "fusion_lat": 0.0, "lat": 38.903084166666666, "type": "electric_scooter", "lon": -77.023705, "bike_id": "86a8a3bb71f0ea2c10aafb0b27946e19", "rental_uris": {"android": "https://dc.lft.to/lastmile_qr_scan", "ios": "https://dc.lft.to/lastmile_qr_scan"}, "name": "86a8a3bb71f0ea2c10aafb0b27946e19", "is_reserved": 0}, {"is_disabled": 0, "fusion_lon": 0.0, "fusion_lat": 0.0, "lat": 38.92726, "type": "electric_scooter", "lon": -77.05358983333333, "bike_id": "b715ad4ddc66d4517b8997160e10242b", "rental_uris": {"android": "https://dc.lft.to/lastmile_qr_scan", "ios": "https://dc.lft.to/lastmile_qr_scan"}, "name": "b715ad4ddc66d4517b8997160e10242b", "is_reserved": 0}, {"is_disabled": 0, "fusion_lon": 0.0, "fusion_lat": 0.0, "lat": 38.90079166666666, "type": "electric_scooter", "lon": -77.044444, "bike_id": "d26d3c3646ea9fcc8350bb93ab58a8e4", "rental_uris": {"android": "https://dc.lft.to/lastmile_qr_scan", "ios": "https://dc.lft.to/lastmile_qr_scan"}, "name": "d26d3c3646ea9fcc8350bb93ab58a8e4", "is_reserved": 0}, {"is_disabled": 0, "fusion_lon": 0.0, "fusion_lat": 0.0, "lat": 38.881444, "type": "electric_bike", "lon": -76.99620316666666, "bike_id": "66d18848d02c17947fc7f875cb34e6dc", "rental_uris": {"android": "https://dc.lft.to/lastmile_qr_scan", "ios": "https://dc.lft.to/lastmile_qr_scan"}, "name": "66d18848d02c17947fc7f875cb34e6dc", "is_reserved": 0}, {"is_disabled": 0, "fusion_lon": 0.0, "fusion_lat": 0.0, "lat": 38.900944333333335, "type": "electric_scooter", "lon": -76.94884016666667, "bike_id": "312303b619bf06b40fcca408f04ff851", "rental_uris": {"android": "https://dc.lft.to/lastmile_qr_scan", "ios": "https://dc.lft.to/lastmile_qr_scan"}, "name": "312303b619bf06b40fcca408f04ff851", "is_reserved": 0}, {"is_disabled": 0, "fusion_lon": 0.0, "fusion_lat": 0.0, "lat": 38.934981, "type": "electric_scooter", "lon": -77.024126, "bike_id": "23efcf905b1ec4cfc8619c65f4b03fb5", "rental_uris": {"android": "https://dc.lft.to/lastmile_qr_scan", "ios": "https://dc.lft.to/lastmile_qr_scan"}, "name": "23efcf905b1ec4cfc8619c65f4b03fb5", "is_reserved": 0}, {"is_disabled": 0, "fusion_lon": 0.0, "fusion_lat": 0.0, "lat": 38.957878, "type": "electric_scooter", "lon": -77.0246915, "bike_id": "19701c6635c4f4fd3cc4329aeaa7fbe2", "rental_uris": {"android": "https://dc.lft.to/lastmile_qr_scan", "ios": "https://dc.lft.to/lastmile_qr_scan"}, "name": "19701c6635c4f4fd3cc4329aeaa7fbe2", "is_reserved": 0}, {"is_disabled": 0, "fusion_lon": 0.0, "fusion_lat": 0.0, "lat": 38.899408666666666, "type": "electric_scooter", "lon": -77.03180633333334, "bike_id": "2ec7b3c0a0fa2c7be7c7f855278ba8fd", "rental_uris": {"android": "https://dc.lft.to/lastmile_qr_scan", "ios": "https://dc.lft.to/lastmile_qr_scan"}, "name": "2ec7b3c0a0fa2c7be7c7f855278ba8fd", "is_reserved": 0}, {"is_disabled": 0, "fusion_lon": 0.0, "fusion_lat": 0.0, "lat": 38.88580183333333, "type": "electric_scooter", "lon": -76.91909883333334, "bike_id": "1e7bed545ff257b609055e744ecb0eb6", "rental_uris": {"android": "https://dc.lft.to/lastmile_qr_scan", "ios": "https://dc.lft.to/lastmile_qr_scan"}, "name": "1e7bed545ff257b609055e744ecb0eb6", "is_reserved": 0}, {"is_disabled": 0, "fusion_lon": 0.0, "fusion_lat": 0.0, "lat": 38.992658166666665, "type": "electric_scooter", "lon": -77.03609083333333, "bike_id": "650d01252b2c9fef373406a541b05491", "rental_uris": {"android": "https://dc.lft.to/lastmile_qr_scan", "ios": "https://dc.lft.to/lastmile_qr_scan"}, "name": "650d01252b2c9fef373406a541b05491", "is_reserved": 0}, {"is_disabled": 0, "fusion_lon": 0.0, "fusion_lat": 0.0, "lat": 38.918321, "type": "electric_scooter", "lon": -77.03935783333333, "bike_id": "81d2749dfd5245a7ae64d8d0e4066437", "rental_uris": {"android": "https://dc.lft.to/lastmile_qr_scan", "ios": "https://dc.lft.to/lastmile_qr_scan"}, "name": "81d2749dfd5245a7ae64d8d0e4066437", "is_reserved": 0}, {"is_disabled": 0, "fusion_lon": 0.0, "fusion_lat": 0.0, "lat": 38.93668483333333, "type": "electric_bike", "lon": -76.95208433333333, "bike_id": "584af8f8ffd6560bbe410361510bc854", "rental_uris": {"android": "https://dc.lft.to/lastmile_qr_scan", "ios": "https://dc.lft.to/lastmile_qr_scan"}, "name": "584af8f8ffd6560bbe410361510bc854", "is_reserved": 0}, {"is_disabled": 0, "fusion_lon": 0.0, "fusion_lat": 0.0, "lat": 38.90966816666667, "type": "electric_scooter", "lon": -77.04619983333333, "bike_id": "2b1ebf59ccaacf8a45218e05bc2b5fcd", "rental_uris": {"android": "https://dc.lft.to/lastmile_qr_scan", "ios": "https://dc.lft.to/lastmile_qr_scan"}, "name": "2b1ebf59ccaacf8a45218e05bc2b5fcd", "is_reserved": 0}, {"is_disabled": 0, "fusion_lon": 0.0, "fusion_lat": 0.0, "lat": 38.9584095, "type": "electric_scooter", "lon": -77.07152433333333, "bike_id": "2b62fadb9a9edd4c7caa2136d3c1de4a", "rental_uris": {"android": "https://dc.lft.to/lastmile_qr_scan", "ios": "https://dc.lft.to/lastmile_qr_scan"}, "name": "2b62fadb9a9edd4c7caa2136d3c1de4a", "is_reserved": 0}, {"is_disabled": 0, "fusion_lon": 0.0, "fusion_lat": 0.0, "lat": 38.934834, "type": "electric_scooter", "lon": -77.07270783333334, "bike_id": "cbdc9c79dd0e5855c9bf8d38cbbefce8", "rental_uris": {"android": "https://dc.lft.to/lastmile_qr_scan", "ios": "https://dc.lft.to/lastmile_qr_scan"}, "name": "cbdc9c79dd0e5855c9bf8d38cbbefce8", "is_reserved": 0}, {"is_disabled": 0, "fusion_lon": 0.0, "fusion_lat": 0.0, "lat": 38.885171666666665, "type": "electric_scooter", "lon": -77.01729333333333, "bike_id": "ca5b906925ddfc66247acf8b4e737dd2", "rental_uris": {"android": "https://dc.lft.to/lastmile_qr_scan", "ios": "https://dc.lft.to/lastmile_qr_scan"}, "name": "ca5b906925ddfc66247acf8b4e737dd2", "is_reserved": 0}, {"is_disabled": 0, "fusion_lon": 0.0, "fusion_lat": 0.0, "lat": 38.917882, "type": "electric_scooter", "lon": -77.043312, "bike_id": "3511a05e4fe160679d1e3388dd0c6eed", "rental_uris": {"android": "https://dc.lft.to/lastmile_qr_scan", "ios": "https://dc.lft.to/lastmile_qr_scan"}, "name": "3511a05e4fe160679d1e3388dd0c6eed", "is_reserved": 0}, {"is_disabled": 0, "fusion_lon": 0.0, "fusion_lat": 0.0, "lat": 38.917083833333336, "type": "electric_scooter", "lon": -77.051274, "bike_id": "d4f28f86b51f7715104f0ea6dead684a", "rental_uris": {"android": "https://dc.lft.to/lastmile_qr_scan", "ios": "https://dc.lft.to/lastmile_qr_scan"}, "name": "d4f28f86b51f7715104f0ea6dead684a", "is_reserved": 0}, {"is_disabled": 0, "fusion_lon": 0.0, "fusion_lat": 0.0, "lat": 38.906673166666664, "type": "electric_scooter", "lon": -77.00597466666666, "bike_id": "b06e60646c861a58b568ffef37358bef", "rental_uris": {"android": "https://dc.lft.to/lastmile_qr_scan", "ios": "https://dc.lft.to/lastmile_qr_scan"}, "name": "b06e60646c861a58b568ffef37358bef", "is_reserved": 0}, {"is_disabled": 0, "fusion_lon": 0.0, "fusion_lat": 0.0, "lat": 39.038861833333335, "type": "electric_bike", "lon": -77.1091055, "bike_id": "d59feeeed2d6865105b735b23278ffba", "rental_uris": {"android": "https://dc.lft.to/lastmile_qr_scan", "ios": "https://dc.lft.to/lastmile_qr_scan"}, "name": "d59feeeed2d6865105b735b23278ffba", "is_reserved": 0}, {"is_disabled": 0, "fusion_lon": 0.0, "fusion_lat": 0.0, "lat": 38.91987783333333, "type": "electric_scooter", "lon": -77.03274266666666, "bike_id": "5b23fcbe3e056cb9fd690eb266b9086e", "rental_uris": {"android": "https://dc.lft.to/lastmile_qr_scan", "ios": "https://dc.lft.to/lastmile_qr_scan"}, "name": "5b23fcbe3e056cb9fd690eb266b9086e", "is_reserved": 0}, {"is_disabled": 0, "fusion_lon": 0.0, "fusion_lat": 0.0, "lat": 38.93970616666667, "type": "electric_scooter", "lon": -77.03283733333333, "bike_id": "f940e316864d124ce99d826d415bbb95", "rental_uris": {"android": "https://dc.lft.to/lastmile_qr_scan", "ios": "https://dc.lft.to/lastmile_qr_scan"}, "name": "f940e316864d124ce99d826d415bbb95", "is_reserved": 0}, {"is_disabled": 0, "fusion_lon": 0.0, "fusion_lat": 0.0, "lat": 38.96194366666667, "type": "electric_scooter", "lon": -77.02783516666666, "bike_id": "96698edd0845455e927ad45a1b60ca4d", "rental_uris": {"android": "https://dc.lft.to/lastmile_qr_scan", "ios": "https://dc.lft.to/lastmile_qr_scan"}, "name": "96698edd0845455e927ad45a1b60ca4d", "is_reserved": 0}, {"is_disabled": 0, "fusion_lon": 0.0, "fusion_lat": 0.0, "lat": 38.827866, "type": "electric_bike", "lon": -77.11083166666667, "bike_id": "2bbc5ae7322c440585a9159fb27d0792", "rental_uris": {"android": "https://dc.lft.to/lastmile_qr_scan", "ios": "https://dc.lft.to/lastmile_qr_scan"}, "name": "2bbc5ae7322c440585a9159fb27d0792", "is_reserved": 0}, {"is_disabled": 0, "fusion_lon": 0.0, "fusion_lat": 0.0, "lat": 38.8245055, "type": "electric_bike", "lon": -77.07050566666666, "bike_id": "82d8fbc65d59f9dfaf763f5d52e2963b", "rental_uris": {"android": "https://dc.lft.to/lastmile_qr_scan", "ios": "https://dc.lft.to/lastmile_qr_scan"}, "name": "82d8fbc65d59f9dfaf763f5d52e2963b", "is_reserved": 0}, {"is_disabled": 0, "fusion_lon": 0.0, "fusion_lat": 0.0, "lat": 38.89742066666667, "type": "electric_scooter", "lon": -77.0004535, "bike_id": "8b19d1401c93fa7265ef6212de391aae", "rental_uris": {"android": "https://dc.lft.to/lastmile_qr_scan", "ios": "https://dc.lft.to/lastmile_qr_scan"}, "name": "8b19d1401c93fa7265ef6212de391aae", "is_reserved": 0}, {"is_disabled": 0, "fusion_lon": 0.0, "fusion_lat": 0.0, "lat": 38.91586433333333, "type": "electric_scooter", "lon": -77.04677383333333, "bike_id": "f6138e8ee7840959fbdfb08ed72ce8b0", "rental_uris": {"android": "https://dc.lft.to/lastmile_qr_scan", "ios": "https://dc.lft.to/lastmile_qr_scan"}, "name": "f6138e8ee7840959fbdfb08ed72ce8b0", "is_reserved": 0}, {"is_disabled": 0, "fusion_lon": 0.0, "fusion_lat": 0.0, "lat": 38.89834166666667, "type": "electric_scooter", "lon": -76.9463395, "bike_id": "325f0a720b200e5b647b73c192320b9b", "rental_uris": {"android": "https://dc.lft.to/lastmile_qr_scan", "ios": "https://dc.lft.to/lastmile_qr_scan"}, "name": "325f0a720b200e5b647b73c192320b9b", "is_reserved": 0}, {"is_disabled": 0, "fusion_lon": 0.0, "fusion_lat": 0.0, "lat": 38.93029766666667, "type": "electric_scooter", "lon": -77.03449216666667, "bike_id": "0163cbf4ece2b84e4a5cb42557919c8a", "rental_uris": {"android": "https://dc.lft.to/lastmile_qr_scan", "ios": "https://dc.lft.to/lastmile_qr_scan"}, "name": "0163cbf4ece2b84e4a5cb42557919c8a", "is_reserved": 0}, {"is_disabled": 0, "fusion_lon": 0.0, "fusion_lat": 0.0, "lat": 38.91039816666667, "type": "electric_scooter", "lon": -77.03371716666666, "bike_id": "ed750f535808791c8ef516d1e90baab2", "rental_uris": {"android": "https://dc.lft.to/lastmile_qr_scan", "ios": "https://dc.lft.to/lastmile_qr_scan"}, "name": "ed750f535808791c8ef516d1e90baab2", "is_reserved": 0}, {"is_disabled": 0, "fusion_lon": 0.0, "fusion_lat": 0.0, "lat": 38.89234733333333, "type": "electric_scooter", "lon": -77.0220775, "bike_id": "96d69592d1bda24a9df4eff86f9e85c6", "rental_uris": {"android": "https://dc.lft.to/lastmile_qr_scan", "ios": "https://dc.lft.to/lastmile_qr_scan"}, "name": "96d69592d1bda24a9df4eff86f9e85c6", "is_reserved": 0}, {"is_disabled": 0, "fusion_lon": 0.0, "fusion_lat": 0.0, "lat": 38.92085566666667, "type": "electric_scooter", "lon": -77.018133, "bike_id": "30efc7144653bffb2f91e21316cb536b", "rental_uris": {"android": "https://dc.lft.to/lastmile_qr_scan", "ios": "https://dc.lft.to/lastmile_qr_scan"}, "name": "30efc7144653bffb2f91e21316cb536b", "is_reserved": 0}, {"is_disabled": 0, "fusion_lon": 0.0, "fusion_lat": 0.0, "lat": 38.918386, "type": "electric_scooter", "lon": -77.03941466666667, "bike_id": "88dcd7dbec7c198a14a2b777e258a9a9", "rental_uris": {"android": "https://dc.lft.to/lastmile_qr_scan", "ios": "https://dc.lft.to/lastmile_qr_scan"}, "name": "88dcd7dbec7c198a14a2b777e258a9a9", "is_reserved": 0}, {"is_disabled": 0, "fusion_lon": 0.0, "fusion_lat": 0.0, "lat": 38.901384666666665, "type": "electric_scooter", "lon": -77.0174445, "bike_id": "c573bb5ef332cb94e73f07aa352b8e69", "rental_uris": {"android": "https://dc.lft.to/lastmile_qr_scan", "ios": "https://dc.lft.to/lastmile_qr_scan"}, "name": "c573bb5ef332cb94e73f07aa352b8e69", "is_reserved": 0}, {"is_disabled": 0, "fusion_lon": 0.0, "fusion_lat": 0.0, "lat": 38.889807, "type": "electric_scooter", "lon": -76.98744816666667, "bike_id": "d35ebabd34797243fb3a9e073e60a29f", "rental_uris": {"android": "https://dc.lft.to/lastmile_qr_scan", "ios": "https://dc.lft.to/lastmile_qr_scan"}, "name": "d35ebabd34797243fb3a9e073e60a29f", "is_reserved": 0}, {"is_disabled": 0, "fusion_lon": 0.0, "fusion_lat": 0.0, "lat": 38.90226116666667, "type": "electric_bike", "lon": -77.02266533333334, "bike_id": "91138f86523bcd86c84215c8ffe91a72", "rental_uris": {"android": "https://dc.lft.to/lastmile_qr_scan", "ios": "https://dc.lft.to/lastmile_qr_scan"}, "name": "91138f86523bcd86c84215c8ffe91a72", "is_reserved": 0}, {"is_disabled": 0, "fusion_lon": 0.0, "fusion_lat": 0.0, "lat": 38.8972835, "type": "electric_scooter", "lon": -77.033545, "bike_id": "f274d940bf0d9de51701d8d1f0b66e86", "rental_uris": {"android": "https://dc.lft.to/lastmile_qr_scan", "ios": "https://dc.lft.to/lastmile_qr_scan"}, "name": "f274d940bf0d9de51701d8d1f0b66e86", "is_reserved": 0}, {"is_disabled": 0, "fusion_lon": 0.0, "fusion_lat": 0.0, "lat": 38.89678216666667, "type": "electric_bike", "lon": -77.0322005, "bike_id": "252329ee0e10b54a728854e198f8acf7", "rental_uris": {"android": "https://dc.lft.to/lastmile_qr_scan", "ios": "https://dc.lft.to/lastmile_qr_scan"}, "name": "252329ee0e10b54a728854e198f8acf7", "is_reserved": 0}, {"is_disabled": 0, "fusion_lon": 0.0, "fusion_lat": 0.0, "lat": 38.918642166666665, "type": "electric_bike", "lon": -76.96177433333334, "bike_id": "d93c5f77ad0bf79cf19d9ff8a1229e16", "rental_uris": {"android": "https://dc.lft.to/lastmile_qr_scan", "ios": "https://dc.lft.to/lastmile_qr_scan"}, "name": "d93c5f77ad0bf79cf19d9ff8a1229e16", "is_reserved": 0}, {"is_disabled": 0, "fusion_lon": 0.0, "fusion_lat": 0.0, "lat": 38.90139416666667, "type": "electric_scooter", "lon": -77.04342033333333, "bike_id": "a0591949909ea3b0ff305b6baeaf53c3", "rental_uris": {"android": "https://dc.lft.to/lastmile_qr_scan", "ios": "https://dc.lft.to/lastmile_qr_scan"}, "name": "a0591949909ea3b0ff305b6baeaf53c3", "is_reserved": 0}, {"is_disabled": 0, "fusion_lon": 0.0, "fusion_lat": 0.0, "lat": 38.895674166666666, "type": "electric_bike", "lon": -76.97621016666666, "bike_id": "2691767211b4907bebd445ded2201535", "rental_uris": {"android": "https://dc.lft.to/lastmile_qr_scan", "ios": "https://dc.lft.to/lastmile_qr_scan"}, "name": "2691767211b4907bebd445ded2201535", "is_reserved": 0}, {"is_disabled": 0, "fusion_lon": 0.0, "fusion_lat": 0.0, "lat": 38.898793, "type": "electric_scooter", "lon": -76.93160033333334, "bike_id": "6368f29bb51a89aeb0125697b1435486", "rental_uris": {"android": "https://dc.lft.to/lastmile_qr_scan", "ios": "https://dc.lft.to/lastmile_qr_scan"}, "name": "6368f29bb51a89aeb0125697b1435486", "is_reserved": 0}, {"is_disabled": 0, "fusion_lon": 0.0, "fusion_lat": 0.0, "lat": 38.865766666666666, "type": "electric_scooter", "lon": -76.99046183333333, "bike_id": "cfdb0943fe6d9a536f3e81c5d613bf02", "rental_uris": {"android": "https://dc.lft.to/lastmile_qr_scan", "ios": "https://dc.lft.to/lastmile_qr_scan"}, "name": "cfdb0943fe6d9a536f3e81c5d613bf02", "is_reserved": 0}, {"is_disabled": 0, "fusion_lon": 0.0, "fusion_lat": 0.0, "lat": 38.921602, "type": "electric_scooter", "lon": -77.03384316666667, "bike_id": "51d7c0111bd7b2afd6c8abc737d87a63", "rental_uris": {"android": "https://dc.lft.to/lastmile_qr_scan", "ios": "https://dc.lft.to/lastmile_qr_scan"}, "name": "51d7c0111bd7b2afd6c8abc737d87a63", "is_reserved": 0}, {"is_disabled": 0, "fusion_lon": 0.0, "fusion_lat": 0.0, "lat": 38.90782266666667, "type": "electric_scooter", "lon": -77.034464, "bike_id": "e90bf3dd8f4df22a0dd2b8a88b86d1e9", "rental_uris": {"android": "https://dc.lft.to/lastmile_qr_scan", "ios": "https://dc.lft.to/lastmile_qr_scan"}, "name": "e90bf3dd8f4df22a0dd2b8a88b86d1e9", "is_reserved": 0}, {"is_disabled": 0, "fusion_lon": 0.0, "fusion_lat": 0.0, "lat": 38.834317666666664, "type": "electric_bike", "lon": -77.1036225, "bike_id": "28bf439195d32ee8c8f520a48650ee21", "rental_uris": {"android": "https://dc.lft.to/lastmile_qr_scan", "ios": "https://dc.lft.to/lastmile_qr_scan"}, "name": "28bf439195d32ee8c8f520a48650ee21", "is_reserved": 0}, {"is_disabled": 0, "fusion_lon": 0.0, "fusion_lat": 0.0, "lat": 38.918398333333336, "type": "electric_scooter", "lon": -77.02276166666667, "bike_id": "4ec0ac1ed29bae906a1e3fc24c32114b", "rental_uris": {"android": "https://dc.lft.to/lastmile_qr_scan", "ios": "https://dc.lft.to/lastmile_qr_scan"}, "name": "4ec0ac1ed29bae906a1e3fc24c32114b", "is_reserved": 0}, {"is_disabled": 0, "fusion_lon": 0.0, "fusion_lat": 0.0, "lat": 38.916893333333334, "type": "electric_bike", "lon": -77.09175416666666, "bike_id": "c45cc0ff43b774303b2b1d551dda1540", "rental_uris": {"android": "https://dc.lft.to/lastmile_qr_scan", "ios": "https://dc.lft.to/lastmile_qr_scan"}, "name": "c45cc0ff43b774303b2b1d551dda1540", "is_reserved": 0}, {"is_disabled": 0, "fusion_lon": 0.0, "fusion_lat": 0.0, "lat": 38.91914366666666, "type": "electric_scooter", "lon": -77.036267, "bike_id": "d5e72cc38bb1ab574e732166c2b2b60c", "rental_uris": {"android": "https://dc.lft.to/lastmile_qr_scan", "ios": "https://dc.lft.to/lastmile_qr_scan"}, "name": "d5e72cc38bb1ab574e732166c2b2b60c", "is_reserved": 0}, {"is_disabled": 0, "fusion_lon": 0.0, "fusion_lat": 0.0, "lat": 38.911123, "type": "electric_scooter", "lon": -77.02305333333334, "bike_id": "9ea438036d606e438b42edc65ad74db3", "rental_uris": {"android": "https://dc.lft.to/lastmile_qr_scan", "ios": "https://dc.lft.to/lastmile_qr_scan"}, "name": "9ea438036d606e438b42edc65ad74db3", "is_reserved": 0}, {"is_disabled": 0, "fusion_lon": 0.0, "fusion_lat": 0.0, "lat": 38.94290266666667, "type": "electric_bike", "lon": -77.02804716666667, "bike_id": "390c447c095825a8ac2f8f2dae935594", "rental_uris": {"android": "https://dc.lft.to/lastmile_qr_scan", "ios": "https://dc.lft.to/lastmile_qr_scan"}, "name": "390c447c095825a8ac2f8f2dae935594", "is_reserved": 0}, {"is_disabled": 0, "fusion_lon": 0.0, "fusion_lat": 0.0, "lat": 38.905569166666666, "type": "electric_bike", "lon": -77.04559566666667, "bike_id": "32256e864ed4ef5a57e830d6649f786d", "rental_uris": {"android": "https://dc.lft.to/lastmile_qr_scan", "ios": "https://dc.lft.to/lastmile_qr_scan"}, "name": "32256e864ed4ef5a57e830d6649f786d", "is_reserved": 0}, {"is_disabled": 0, "fusion_lon": 0.0, "fusion_lat": 0.0, "lat": 38.87916516666667, "type": "electric_scooter", "lon": -77.00868316666667, "bike_id": "d25c463ce059aa9b263283b6a86b95f8", "rental_uris": {"android": "https://dc.lft.to/lastmile_qr_scan", "ios": "https://dc.lft.to/lastmile_qr_scan"}, "name": "d25c463ce059aa9b263283b6a86b95f8", "is_reserved": 0}, {"is_disabled": 0, "fusion_lon": 0.0, "fusion_lat": 0.0, "lat": 39.00791733333333, "type": "electric_bike", "lon": -76.99566466666667, "bike_id": "d1a8c631f97288ae89e2f0e3be11bd5b", "rental_uris": {"android": "https://dc.lft.to/lastmile_qr_scan", "ios": "https://dc.lft.to/lastmile_qr_scan"}, "name": "d1a8c631f97288ae89e2f0e3be11bd5b", "is_reserved": 0}, {"is_disabled": 0, "fusion_lon": 0.0, "fusion_lat": 0.0, "lat": 38.90079266666667, "type": "electric_scooter", "lon": -77.00212916666666, "bike_id": "42cf92c4c59d630ced427bfa98f17412", "rental_uris": {"android": "https://dc.lft.to/lastmile_qr_scan", "ios": "https://dc.lft.to/lastmile_qr_scan"}, "name": "42cf92c4c59d630ced427bfa98f17412", "is_reserved": 0}, {"is_disabled": 0, "fusion_lon": 0.0, "fusion_lat": 0.0, "lat": 38.905139, "type": "electric_scooter", "lon": -76.982543, "bike_id": "976987959f1f191c4b3a1b559a851210", "rental_uris": {"android": "https://dc.lft.to/lastmile_qr_scan", "ios": "https://dc.lft.to/lastmile_qr_scan"}, "name": "976987959f1f191c4b3a1b559a851210", "is_reserved": 0}, {"is_disabled": 0, "fusion_lon": 0.0, "fusion_lat": 0.0, "lat": 38.91971733333333, "type": "electric_scooter", "lon": -77.02377433333334, "bike_id": "414936d48c3e266e4fcae37205c29217", "rental_uris": {"android": "https://dc.lft.to/lastmile_qr_scan", "ios": "https://dc.lft.to/lastmile_qr_scan"}, "name": "414936d48c3e266e4fcae37205c29217", "is_reserved": 0}, {"is_disabled": 0, "fusion_lon": 0.0, "fusion_lat": 0.0, "lat": 38.90896733333334, "type": "electric_scooter", "lon": -77.04350183333334, "bike_id": "ddea603f08e351fc304712c453f866fe", "rental_uris": {"android": "https://dc.lft.to/lastmile_qr_scan", "ios": "https://dc.lft.to/lastmile_qr_scan"}, "name": "ddea603f08e351fc304712c453f866fe", "is_reserved": 0}, {"is_disabled": 0, "fusion_lon": 0.0, "fusion_lat": 0.0, "lat": 38.850751833333334, "type": "electric_bike", "lon": -76.973347, "bike_id": "339ec136f82f4cab006a2644be790267", "rental_uris": {"android": "https://dc.lft.to/lastmile_qr_scan", "ios": "https://dc.lft.to/lastmile_qr_scan"}, "name": "339ec136f82f4cab006a2644be790267", "is_reserved": 0}, {"is_disabled": 0, "fusion_lon": 0.0, "fusion_lat": 0.0, "lat": 38.899879, "type": "electric_scooter", "lon": -77.05555083333333, "bike_id": "edbd023136a348446034e955602920bb", "rental_uris": {"android": "https://dc.lft.to/lastmile_qr_scan", "ios": "https://dc.lft.to/lastmile_qr_scan"}, "name": "edbd023136a348446034e955602920bb", "is_reserved": 0}, {"is_disabled": 0, "fusion_lon": 0.0, "fusion_lat": 0.0, "lat": 38.952278, "type": "electric_scooter", "lon": -77.0276155, "bike_id": "141d31b9fcef707b65f897cef446c12c", "rental_uris": {"android": "https://dc.lft.to/lastmile_qr_scan", "ios": "https://dc.lft.to/lastmile_qr_scan"}, "name": "141d31b9fcef707b65f897cef446c12c", "is_reserved": 0}, {"is_disabled": 0, "fusion_lon": 0.0, "fusion_lat": 0.0, "lat": 38.92739066666667, "type": "electric_bike", "lon": -76.99366416666666, "bike_id": "900ec0386e2c575eeffedc31d5e18a98", "rental_uris": {"android": "https://dc.lft.to/lastmile_qr_scan", "ios": "https://dc.lft.to/lastmile_qr_scan"}, "name": "900ec0386e2c575eeffedc31d5e18a98", "is_reserved": 0}, {"is_disabled": 0, "fusion_lon": 0.0, "fusion_lat": 0.0, "lat": 38.90258583333333, "type": "electric_scooter", "lon": -77.03445533333333, "bike_id": "12c453c550d5e75b33ef0d85e552ef57", "rental_uris": {"android": "https://dc.lft.to/lastmile_qr_scan", "ios": "https://dc.lft.to/lastmile_qr_scan"}, "name": "12c453c550d5e75b33ef0d85e552ef57", "is_reserved": 0}, {"is_disabled": 0, "fusion_lon": 0.0, "fusion_lat": 0.0, "lat": 38.908524666666665, "type": "electric_scooter", "lon": -77.04170783333333, "bike_id": "658a415c8c1ea21395f6328553de9d8c", "rental_uris": {"android": "https://dc.lft.to/lastmile_qr_scan", "ios": "https://dc.lft.to/lastmile_qr_scan"}, "name": "658a415c8c1ea21395f6328553de9d8c", "is_reserved": 0}, {"is_disabled": 0, "fusion_lon": 0.0, "fusion_lat": 0.0, "lat": 38.920214333333334, "type": "electric_bike", "lon": -76.97305766666666, "bike_id": "8b8eb5947dbcb80b57f68dc90996fa93", "rental_uris": {"android": "https://dc.lft.to/lastmile_qr_scan", "ios": "https://dc.lft.to/lastmile_qr_scan"}, "name": "8b8eb5947dbcb80b57f68dc90996fa93", "is_reserved": 0}, {"is_disabled": 0, "fusion_lon": 0.0, "fusion_lat": 0.0, "lat": 38.8597985, "type": "electric_scooter", "lon": -76.98414383333333, "bike_id": "c9304a9976904be6005bc37fb2f09c3c", "rental_uris": {"android": "https://dc.lft.to/lastmile_qr_scan", "ios": "https://dc.lft.to/lastmile_qr_scan"}, "name": "c9304a9976904be6005bc37fb2f09c3c", "is_reserved": 0}, {"is_disabled": 0, "fusion_lon": 0.0, "fusion_lat": 0.0, "lat": 38.96726433333333, "type": "electric_scooter", "lon": -77.02732916666666, "bike_id": "2cc5523e78683e7cd6136957287aabb7", "rental_uris": {"android": "https://dc.lft.to/lastmile_qr_scan", "ios": "https://dc.lft.to/lastmile_qr_scan"}, "name": "2cc5523e78683e7cd6136957287aabb7", "is_reserved": 0}, {"is_disabled": 0, "fusion_lon": 0.0, "fusion_lat": 0.0, "lat": 38.99260233333333, "type": "electric_bike", "lon": -77.04999333333333, "bike_id": "62002eb8217a4890e40e0b05186ab02a", "rental_uris": {"android": "https://dc.lft.to/lastmile_qr_scan", "ios": "https://dc.lft.to/lastmile_qr_scan"}, "name": "62002eb8217a4890e40e0b05186ab02a", "is_reserved": 0}, {"is_disabled": 0, "fusion_lon": 0.0, "fusion_lat": 0.0, "lat": 38.85473116666667, "type": "electric_bike", "lon": -76.97096183333333, "bike_id": "670008f541fb61369b7cb1a590b6d08d", "rental_uris": {"android": "https://dc.lft.to/lastmile_qr_scan", "ios": "https://dc.lft.to/lastmile_qr_scan"}, "name": "670008f541fb61369b7cb1a590b6d08d", "is_reserved": 0}, {"is_disabled": 0, "fusion_lon": 0.0, "fusion_lat": 0.0, "lat": 38.930485166666664, "type": "electric_scooter", "lon": -77.00418016666667, "bike_id": "7f3ec0378a923d17dd4806f5dc22a27f", "rental_uris": {"android": "https://dc.lft.to/lastmile_qr_scan", "ios": "https://dc.lft.to/lastmile_qr_scan"}, "name": "7f3ec0378a923d17dd4806f5dc22a27f", "is_reserved": 0}, {"is_disabled": 0, "fusion_lon": 0.0, "fusion_lat": 0.0, "lat": 38.83811216666667, "type": "electric_scooter", "lon": -77.004345, "bike_id": "046bfab14e76aa06e6ac56ed92536b87", "rental_uris": {"android": "https://dc.lft.to/lastmile_qr_scan", "ios": "https://dc.lft.to/lastmile_qr_scan"}, "name": "046bfab14e76aa06e6ac56ed92536b87", "is_reserved": 0}, {"is_disabled": 0, "fusion_lon": 0.0, "fusion_lat": 0.0, "lat": 38.91816266666667, "type": "electric_scooter", "lon": -77.03625766666667, "bike_id": "39743970460fd085eba173e4adecabb9", "rental_uris": {"android": "https://dc.lft.to/lastmile_qr_scan", "ios": "https://dc.lft.to/lastmile_qr_scan"}, "name": "39743970460fd085eba173e4adecabb9", "is_reserved": 0}, {"is_disabled": 0, "fusion_lon": 0.0, "fusion_lat": 0.0, "lat": 38.990842, "type": "electric_bike", "lon": -77.00183683333333, "bike_id": "f96c1801121843597fcfe012357c697a", "rental_uris": {"android": "https://dc.lft.to/lastmile_qr_scan", "ios": "https://dc.lft.to/lastmile_qr_scan"}, "name": "f96c1801121843597fcfe012357c697a", "is_reserved": 0}, {"is_disabled": 0, "fusion_lon": 0.0, "fusion_lat": 0.0, "lat": 38.943012, "type": "electric_scooter", "lon": -77.023535, "bike_id": "861fa4e530a3cb966972b31ba61ad7cc", "rental_uris": {"android": "https://dc.lft.to/lastmile_qr_scan", "ios": "https://dc.lft.to/lastmile_qr_scan"}, "name": "861fa4e530a3cb966972b31ba61ad7cc", "is_reserved": 0}, {"is_disabled": 0, "fusion_lon": 0.0, "fusion_lat": 0.0, "lat": 38.83120133333333, "type": "electric_bike", "lon": -77.04327516666666, "bike_id": "920b3bf758ef555a1d29d17481f1a230", "rental_uris": {"android": "https://dc.lft.to/lastmile_qr_scan", "ios": "https://dc.lft.to/lastmile_qr_scan"}, "name": "920b3bf758ef555a1d29d17481f1a230", "is_reserved": 0}, {"is_disabled": 0, "fusion_lon": 0.0, "fusion_lat": 0.0, "lat": 39.11508466666667, "type": "electric_bike", "lon": -77.19545033333333, "bike_id": "75a907384a245894a2d1881ff32e4ece", "rental_uris": {"android": "https://dc.lft.to/lastmile_qr_scan", "ios": "https://dc.lft.to/lastmile_qr_scan"}, "name": "75a907384a245894a2d1881ff32e4ece", "is_reserved": 0}, {"is_disabled": 0, "fusion_lon": 0.0, "fusion_lat": 0.0, "lat": 38.919273833333335, "type": "electric_scooter", "lon": -77.0323305, "bike_id": "b96d7dc6c7e1a76bf4c171086c977027", "rental_uris": {"android": "https://dc.lft.to/lastmile_qr_scan", "ios": "https://dc.lft.to/lastmile_qr_scan"}, "name": "b96d7dc6c7e1a76bf4c171086c977027", "is_reserved": 0}, {"is_disabled": 0, "fusion_lon": 0.0, "fusion_lat": 0.0, "lat": 38.955566, "type": "electric_scooter", "lon": -77.0699685, "bike_id": "9ab5a1cce50ecf6a6ea64831745835d7", "rental_uris": {"android": "https://dc.lft.to/lastmile_qr_scan", "ios": "https://dc.lft.to/lastmile_qr_scan"}, "name": "9ab5a1cce50ecf6a6ea64831745835d7", "is_reserved": 0}, {"is_disabled": 0, "fusion_lon": 0.0, "fusion_lat": 0.0, "lat": 38.909608666666664, "type": "electric_scooter", "lon": -77.040821, "bike_id": "37df2cf63e4de252c1dc910bea9f7880", "rental_uris": {"android": "https://dc.lft.to/lastmile_qr_scan", "ios": "https://dc.lft.to/lastmile_qr_scan"}, "name": "37df2cf63e4de252c1dc910bea9f7880", "is_reserved": 0}, {"is_disabled": 0, "fusion_lon": 0.0, "fusion_lat": 0.0, "lat": 38.89520983333333, "type": "electric_scooter", "lon": -77.003358, "bike_id": "6c5c97b1e3808fc8948ba880b9c35965", "rental_uris": {"android": "https://dc.lft.to/lastmile_qr_scan", "ios": "https://dc.lft.to/lastmile_qr_scan"}, "name": "6c5c97b1e3808fc8948ba880b9c35965", "is_reserved": 0}, {"is_disabled": 0, "fusion_lon": 0.0, "fusion_lat": 0.0, "lat": 38.900383166666664, "type": "electric_scooter", "lon": -77.00200766666667, "bike_id": "72bd8d1d3a6bb4c557d3b099e018d52c", "rental_uris": {"android": "https://dc.lft.to/lastmile_qr_scan", "ios": "https://dc.lft.to/lastmile_qr_scan"}, "name": "72bd8d1d3a6bb4c557d3b099e018d52c", "is_reserved": 0}, {"is_disabled": 0, "fusion_lon": 0.0, "fusion_lat": 0.0, "lat": 38.94464983333334, "type": "electric_bike", "lon": -77.04343133333333, "bike_id": "f7672a4c181521458ec5197ec6f2cd1a", "rental_uris": {"android": "https://dc.lft.to/lastmile_qr_scan", "ios": "https://dc.lft.to/lastmile_qr_scan"}, "name": "f7672a4c181521458ec5197ec6f2cd1a", "is_reserved": 0}, {"is_disabled": 0, "fusion_lon": 0.0, "fusion_lat": 0.0, "lat": 38.896875666666666, "type": "electric_scooter", "lon": -77.00499316666667, "bike_id": "25f05ff81ed2b579490f764dc461db11", "rental_uris": {"android": "https://dc.lft.to/lastmile_qr_scan", "ios": "https://dc.lft.to/lastmile_qr_scan"}, "name": "25f05ff81ed2b579490f764dc461db11", "is_reserved": 0}, {"is_disabled": 0, "fusion_lon": 0.0, "fusion_lat": 0.0, "lat": 38.93509066666667, "type": "electric_bike", "lon": -76.94953316666667, "bike_id": "347d7f1ae8b89bc0797a327e07aae14a", "rental_uris": {"android": "https://dc.lft.to/lastmile_qr_scan", "ios": "https://dc.lft.to/lastmile_qr_scan"}, "name": "347d7f1ae8b89bc0797a327e07aae14a", "is_reserved": 0}, {"is_disabled": 0, "fusion_lon": 0.0, "fusion_lat": 0.0, "lat": 38.9662205, "type": "electric_bike", "lon": -77.0343645, "bike_id": "26a684f85c206ee8cb890deacf239629", "rental_uris": {"android": "https://dc.lft.to/lastmile_qr_scan", "ios": "https://dc.lft.to/lastmile_qr_scan"}, "name": "26a684f85c206ee8cb890deacf239629", "is_reserved": 0}, {"is_disabled": 0, "fusion_lon": 0.0, "fusion_lat": 0.0, "lat": 38.900598, "type": "electric_bike", "lon": -76.9882365, "bike_id": "8e6142e5f363bbbdc856b15f788d4da2", "rental_uris": {"android": "https://dc.lft.to/lastmile_qr_scan", "ios": "https://dc.lft.to/lastmile_qr_scan"}, "name": "8e6142e5f363bbbdc856b15f788d4da2", "is_reserved": 0}, {"is_disabled": 0, "fusion_lon": 0.0, "fusion_lat": 0.0, "lat": 39.099482333333334, "type": "electric_bike", "lon": -77.18792716666667, "bike_id": "a96f46f28b9066c37c7f9ed0e122ada6", "rental_uris": {"android": "https://dc.lft.to/lastmile_qr_scan", "ios": "https://dc.lft.to/lastmile_qr_scan"}, "name": "a96f46f28b9066c37c7f9ed0e122ada6", "is_reserved": 0}, {"is_disabled": 0, "fusion_lon": 0.0, "fusion_lat": 0.0, "lat": 38.905366, "type": "electric_scooter", "lon": -77.05036616666666, "bike_id": "a9d56b4b818051d8c06aa75a68330da2", "rental_uris": {"android": "https://dc.lft.to/lastmile_qr_scan", "ios": "https://dc.lft.to/lastmile_qr_scan"}, "name": "a9d56b4b818051d8c06aa75a68330da2", "is_reserved": 0}, {"is_disabled": 0, "fusion_lon": 0.0, "fusion_lat": 0.0, "lat": 38.91757883333333, "type": "electric_scooter", "lon": -77.02590066666667, "bike_id": "37d2ff9edf64b05d8688e2ed832a4c1d", "rental_uris": {"android": "https://dc.lft.to/lastmile_qr_scan", "ios": "https://dc.lft.to/lastmile_qr_scan"}, "name": "37d2ff9edf64b05d8688e2ed832a4c1d", "is_reserved": 0}, {"is_disabled": 0, "fusion_lon": 0.0, "fusion_lat": 0.0, "lat": 38.8381685, "type": "electric_scooter", "lon": -77.00433116666666, "bike_id": "1913f6626ac0ae8ddc22ef2748acc4cd", "rental_uris": {"android": "https://dc.lft.to/lastmile_qr_scan", "ios": "https://dc.lft.to/lastmile_qr_scan"}, "name": "1913f6626ac0ae8ddc22ef2748acc4cd", "is_reserved": 0}, {"is_disabled": 0, "fusion_lon": 0.0, "fusion_lat": 0.0, "lat": 38.928082333333336, "type": "electric_scooter", "lon": -77.05426316666667, "bike_id": "eb4997301166d2d76ceb3c48a9bab078", "rental_uris": {"android": "https://dc.lft.to/lastmile_qr_scan", "ios": "https://dc.lft.to/lastmile_qr_scan"}, "name": "eb4997301166d2d76ceb3c48a9bab078", "is_reserved": 0}, {"is_disabled": 0, "fusion_lon": 0.0, "fusion_lat": 0.0, "lat": 38.924790333333334, "type": "electric_scooter", "lon": -77.03484383333333, "bike_id": "3b105bc71e7639810d35a3aee826e1f7", "rental_uris": {"android": "https://dc.lft.to/lastmile_qr_scan", "ios": "https://dc.lft.to/lastmile_qr_scan"}, "name": "3b105bc71e7639810d35a3aee826e1f7", "is_reserved": 0}, {"is_disabled": 0, "fusion_lon": 0.0, "fusion_lat": 0.0, "lat": 38.92155283333334, "type": "electric_scooter", "lon": -77.03387083333334, "bike_id": "2e6d7adf78240d6a099e5c2b6ccc40fb", "rental_uris": {"android": "https://dc.lft.to/lastmile_qr_scan", "ios": "https://dc.lft.to/lastmile_qr_scan"}, "name": "2e6d7adf78240d6a099e5c2b6ccc40fb", "is_reserved": 0}, {"is_disabled": 0, "fusion_lon": 0.0, "fusion_lat": 0.0, "lat": 38.9286085, "type": "electric_scooter", "lon": -77.03155183333334, "bike_id": "d68d336a9df939d62baa943df674fe8b", "rental_uris": {"android": "https://dc.lft.to/lastmile_qr_scan", "ios": "https://dc.lft.to/lastmile_qr_scan"}, "name": "d68d336a9df939d62baa943df674fe8b", "is_reserved": 0}, {"is_disabled": 0, "fusion_lon": 0.0, "fusion_lat": 0.0, "lat": 38.911861333333334, "type": "electric_scooter", "lon": -77.04155066666667, "bike_id": "72d1381c1eaa12b42298082df3fe1bae", "rental_uris": {"android": "https://dc.lft.to/lastmile_qr_scan", "ios": "https://dc.lft.to/lastmile_qr_scan"}, "name": "72d1381c1eaa12b42298082df3fe1bae", "is_reserved": 0}, {"is_disabled": 0, "fusion_lon": 0.0, "fusion_lat": 0.0, "lat": 38.94894883333333, "type": "electric_bike", "lon": -76.96371233333333, "bike_id": "6df7a66a82c21c8f4fad360028597e76", "rental_uris": {"android": "https://dc.lft.to/lastmile_qr_scan", "ios": "https://dc.lft.to/lastmile_qr_scan"}, "name": "6df7a66a82c21c8f4fad360028597e76", "is_reserved": 0}, {"is_disabled": 0, "fusion_lon": 0.0, "fusion_lat": 0.0, "lat": 39.0527435, "type": "electric_bike", "lon": -77.04385383333333, "bike_id": "2e2db4728394b3e9a1fd0a23245ebbdd", "rental_uris": {"android": "https://dc.lft.to/lastmile_qr_scan", "ios": "https://dc.lft.to/lastmile_qr_scan"}, "name": "2e2db4728394b3e9a1fd0a23245ebbdd", "is_reserved": 0}, {"is_disabled": 0, "fusion_lon": 0.0, "fusion_lat": 0.0, "lat": 39.0890585, "type": "electric_bike", "lon": -77.17844333333333, "bike_id": "dd119698c56d58ff948ab3e16f8f1973", "rental_uris": {"android": "https://dc.lft.to/lastmile_qr_scan", "ios": "https://dc.lft.to/lastmile_qr_scan"}, "name": "dd119698c56d58ff948ab3e16f8f1973", "is_reserved": 0}, {"is_disabled": 0, "fusion_lon": 0.0, "fusion_lat": 0.0, "lat": 38.917886333333335, "type": "electric_scooter", "lon": -77.01775216666667, "bike_id": "e2dbaceb78d1c068b199786e52b9b15a", "rental_uris": {"android": "https://dc.lft.to/lastmile_qr_scan", "ios": "https://dc.lft.to/lastmile_qr_scan"}, "name": "e2dbaceb78d1c068b199786e52b9b15a", "is_reserved": 0}, {"is_disabled": 0, "fusion_lon": 0.0, "fusion_lat": 0.0, "lat": 38.996432666666664, "type": "electric_bike", "lon": -77.02801066666666, "bike_id": "8a93fa872f48169988ab0e1b88446af2", "rental_uris": {"android": "https://dc.lft.to/lastmile_qr_scan", "ios": "https://dc.lft.to/lastmile_qr_scan"}, "name": "8a93fa872f48169988ab0e1b88446af2", "is_reserved": 0}, {"is_disabled": 0, "fusion_lon": 0.0, "fusion_lat": 0.0, "lat": 38.88458816666667, "type": "electric_bike", "lon": -76.916397, "bike_id": "a5d3597c4f5aa0e86b38b50e0551489c", "rental_uris": {"android": "https://dc.lft.to/lastmile_qr_scan", "ios": "https://dc.lft.to/lastmile_qr_scan"}, "name": "a5d3597c4f5aa0e86b38b50e0551489c", "is_reserved": 0}, {"is_disabled": 0, "fusion_lon": 0.0, "fusion_lat": 0.0, "lat": 38.900407666666666, "type": "electric_scooter", "lon": -77.01185433333333, "bike_id": "833610594f51d9f1aac82f8c1b1b9bee", "rental_uris": {"android": "https://dc.lft.to/lastmile_qr_scan", "ios": "https://dc.lft.to/lastmile_qr_scan"}, "name": "833610594f51d9f1aac82f8c1b1b9bee", "is_reserved": 0}, {"is_disabled": 0, "fusion_lon": 0.0, "fusion_lat": 0.0, "lat": 38.914066, "type": "electric_scooter", "lon": -77.045373, "bike_id": "ddc78f5899027cbcb358e18e111ff1a3", "rental_uris": {"android": "https://dc.lft.to/lastmile_qr_scan", "ios": "https://dc.lft.to/lastmile_qr_scan"}, "name": "ddc78f5899027cbcb358e18e111ff1a3", "is_reserved": 0}, {"is_disabled": 0, "fusion_lon": 0.0, "fusion_lat": 0.0, "lat": 38.93788133333334, "type": "electric_scooter", "lon": -77.01878883333333, "bike_id": "842d026222dcdc4187cdc0d652ec7e01", "rental_uris": {"android": "https://dc.lft.to/lastmile_qr_scan", "ios": "https://dc.lft.to/lastmile_qr_scan"}, "name": "842d026222dcdc4187cdc0d652ec7e01", "is_reserved": 0}, {"is_disabled": 0, "fusion_lon": 0.0, "fusion_lat": 0.0, "lat": 38.918548666666666, "type": "electric_scooter", "lon": -77.03444, "bike_id": "7804e6ce3e2617105a782aa428a5b146", "rental_uris": {"android": "https://dc.lft.to/lastmile_qr_scan", "ios": "https://dc.lft.to/lastmile_qr_scan"}, "name": "7804e6ce3e2617105a782aa428a5b146", "is_reserved": 0}, {"is_disabled": 0, "fusion_lon": 0.0, "fusion_lat": 0.0, "lat": 38.9127245, "type": "electric_scooter", "lon": -77.02236666666667, "bike_id": "ee312458b1cb7c62e885ce120487a19c", "rental_uris": {"android": "https://dc.lft.to/lastmile_qr_scan", "ios": "https://dc.lft.to/lastmile_qr_scan"}, "name": "ee312458b1cb7c62e885ce120487a19c", "is_reserved": 0}, {"is_disabled": 0, "fusion_lon": 0.0, "fusion_lat": 0.0, "lat": 38.92373283333333, "type": "electric_scooter", "lon": -77.02816666666666, "bike_id": "b44cf0c07108ebac8feeae4753cfbf31", "rental_uris": {"android": "https://dc.lft.to/lastmile_qr_scan", "ios": "https://dc.lft.to/lastmile_qr_scan"}, "name": "b44cf0c07108ebac8feeae4753cfbf31", "is_reserved": 0}, {"is_disabled": 0, "fusion_lon": 0.0, "fusion_lat": 0.0, "lat": 38.895281833333335, "type": "electric_scooter", "lon": -77.043192, "bike_id": "ee2432181b099102774badb1870149f2", "rental_uris": {"android": "https://dc.lft.to/lastmile_qr_scan", "ios": "https://dc.lft.to/lastmile_qr_scan"}, "name": "ee2432181b099102774badb1870149f2", "is_reserved": 0}, {"is_disabled": 0, "fusion_lon": 0.0, "fusion_lat": 0.0, "lat": 38.94963583333333, "type": "electric_scooter", "lon": -77.066988, "bike_id": "dab0eb2d42ab92ae009267677a0c4340", "rental_uris": {"android": "https://dc.lft.to/lastmile_qr_scan", "ios": "https://dc.lft.to/lastmile_qr_scan"}, "name": "dab0eb2d42ab92ae009267677a0c4340", "is_reserved": 0}, {"is_disabled": 0, "fusion_lon": 0.0, "fusion_lat": 0.0, "lat": 38.9630825, "type": "electric_bike", "lon": -77.01119133333333, "bike_id": "d9b66cbd4e798fd26fdd5706642171ce", "rental_uris": {"android": "https://dc.lft.to/lastmile_qr_scan", "ios": "https://dc.lft.to/lastmile_qr_scan"}, "name": "d9b66cbd4e798fd26fdd5706642171ce", "is_reserved": 0}, {"is_disabled": 0, "fusion_lon": 0.0, "fusion_lat": 0.0, "lat": 38.961309666666665, "type": "electric_scooter", "lon": -77.08532383333333, "bike_id": "ad0d3812c1f0c399daa9247798a254af", "rental_uris": {"android": "https://dc.lft.to/lastmile_qr_scan", "ios": "https://dc.lft.to/lastmile_qr_scan"}, "name": "ad0d3812c1f0c399daa9247798a254af", "is_reserved": 0}, {"is_disabled": 0, "fusion_lon": 0.0, "fusion_lat": 0.0, "lat": 38.9226535, "type": "electric_scooter", "lon": -77.04126316666667, "bike_id": "4f220aed8bbbf384803313277dabe164", "rental_uris": {"android": "https://dc.lft.to/lastmile_qr_scan", "ios": "https://dc.lft.to/lastmile_qr_scan"}, "name": "4f220aed8bbbf384803313277dabe164", "is_reserved": 0}, {"is_disabled": 0, "fusion_lon": 0.0, "fusion_lat": 0.0, "lat": 38.93971466666667, "type": "electric_scooter", "lon": -77.03256833333333, "bike_id": "191dec52ff69407f2b87a930b38776cc", "rental_uris": {"android": "https://dc.lft.to/lastmile_qr_scan", "ios": "https://dc.lft.to/lastmile_qr_scan"}, "name": "191dec52ff69407f2b87a930b38776cc", "is_reserved": 0}, {"is_disabled": 0, "fusion_lon": 0.0, "fusion_lat": 0.0, "lat": 38.9166775, "type": "electric_scooter", "lon": -77.0271015, "bike_id": "66f5e161de4334798219693a65f5816e", "rental_uris": {"android": "https://dc.lft.to/lastmile_qr_scan", "ios": "https://dc.lft.to/lastmile_qr_scan"}, "name": "66f5e161de4334798219693a65f5816e", "is_reserved": 0}, {"is_disabled": 0, "fusion_lon": 0.0, "fusion_lat": 0.0, "lat": 38.926057166666666, "type": "electric_scooter", "lon": -77.02309233333334, "bike_id": "28d10ed5c76658f4e61ba00c525329cc", "rental_uris": {"android": "https://dc.lft.to/lastmile_qr_scan", "ios": "https://dc.lft.to/lastmile_qr_scan"}, "name": "28d10ed5c76658f4e61ba00c525329cc", "is_reserved": 0}, {"is_disabled": 0, "fusion_lon": 0.0, "fusion_lat": 0.0, "lat": 38.90754583333333, "type": "electric_scooter", "lon": -77.0012545, "bike_id": "f7e03877cece75b9580ad11431e22312", "rental_uris": {"android": "https://dc.lft.to/lastmile_qr_scan", "ios": "https://dc.lft.to/lastmile_qr_scan"}, "name": "f7e03877cece75b9580ad11431e22312", "is_reserved": 0}, {"is_disabled": 0, "fusion_lon": 0.0, "fusion_lat": 0.0, "lat": 38.9073705, "type": "electric_scooter", "lon": -77.0454, "bike_id": "a94082bb416a1b4600e816858cde5bd8", "rental_uris": {"android": "https://dc.lft.to/lastmile_qr_scan", "ios": "https://dc.lft.to/lastmile_qr_scan"}, "name": "a94082bb416a1b4600e816858cde5bd8", "is_reserved": 0}, {"is_disabled": 0, "fusion_lon": 0.0, "fusion_lat": 0.0, "lat": 38.900786333333336, "type": "electric_scooter", "lon": -77.00216116666667, "bike_id": "33710529936ffb3c3f8b6aa2f4cec304", "rental_uris": {"android": "https://dc.lft.to/lastmile_qr_scan", "ios": "https://dc.lft.to/lastmile_qr_scan"}, "name": "33710529936ffb3c3f8b6aa2f4cec304", "is_reserved": 0}, {"is_disabled": 0, "fusion_lon": 0.0, "fusion_lat": 0.0, "lat": 38.935136166666666, "type": "electric_scooter", "lon": -77.082188, "bike_id": "7afec28c30f08fb3c5e700f95aa072ff", "rental_uris": {"android": "https://dc.lft.to/lastmile_qr_scan", "ios": "https://dc.lft.to/lastmile_qr_scan"}, "name": "7afec28c30f08fb3c5e700f95aa072ff", "is_reserved": 0}, {"is_disabled": 0, "fusion_lon": 0.0, "fusion_lat": 0.0, "lat": 38.935291166666666, "type": "electric_scooter", "lon": -77.02356883333333, "bike_id": "8cb41960fcd3ec3609d3c4cf284c9b63", "rental_uris": {"android": "https://dc.lft.to/lastmile_qr_scan", "ios": "https://dc.lft.to/lastmile_qr_scan"}, "name": "8cb41960fcd3ec3609d3c4cf284c9b63", "is_reserved": 0}, {"is_disabled": 0, "fusion_lon": 0.0, "fusion_lat": 0.0, "lat": 38.9119335, "type": "electric_scooter", "lon": -77.03218383333333, "bike_id": "b9cc7f45472111a0623cd5437cbe1cb6", "rental_uris": {"android": "https://dc.lft.to/lastmile_qr_scan", "ios": "https://dc.lft.to/lastmile_qr_scan"}, "name": "b9cc7f45472111a0623cd5437cbe1cb6", "is_reserved": 0}, {"is_disabled": 0, "fusion_lon": 0.0, "fusion_lat": 0.0, "lat": 38.92309633333333, "type": "electric_scooter", "lon": -77.0474155, "bike_id": "ecbf8d26487d2f76f38f37f13a3a95a7", "rental_uris": {"android": "https://dc.lft.to/lastmile_qr_scan", "ios": "https://dc.lft.to/lastmile_qr_scan"}, "name": "ecbf8d26487d2f76f38f37f13a3a95a7", "is_reserved": 0}, {"is_disabled": 0, "fusion_lon": 0.0, "fusion_lat": 0.0, "lat": 38.844372166666666, "type": "electric_scooter", "lon": -76.99788416666667, "bike_id": "fb1ad061dd17edc3232f0cffee3549b9", "rental_uris": {"android": "https://dc.lft.to/lastmile_qr_scan", "ios": "https://dc.lft.to/lastmile_qr_scan"}, "name": "fb1ad061dd17edc3232f0cffee3549b9", "is_reserved": 0}, {"is_disabled": 0, "fusion_lon": 0.0, "fusion_lat": 0.0, "lat": 38.918166166666666, "type": "electric_scooter", "lon": -77.024785, "bike_id": "9510ea40175ba85ab7276444bd373377", "rental_uris": {"android": "https://dc.lft.to/lastmile_qr_scan", "ios": "https://dc.lft.to/lastmile_qr_scan"}, "name": "9510ea40175ba85ab7276444bd373377", "is_reserved": 0}, {"is_disabled": 0, "fusion_lon": 0.0, "fusion_lat": 0.0, "lat": 38.92855266666667, "type": "electric_scooter", "lon": -77.0141555, "bike_id": "7b7ea007f2f24db5f7839d80f379f7bf", "rental_uris": {"android": "https://dc.lft.to/lastmile_qr_scan", "ios": "https://dc.lft.to/lastmile_qr_scan"}, "name": "7b7ea007f2f24db5f7839d80f379f7bf", "is_reserved": 0}, {"is_disabled": 0, "fusion_lon": 0.0, "fusion_lat": 0.0, "lat": 38.8860205, "type": "electric_scooter", "lon": -76.99780533333333, "bike_id": "8e63405c6b81298053f814b05772385e", "rental_uris": {"android": "https://dc.lft.to/lastmile_qr_scan", "ios": "https://dc.lft.to/lastmile_qr_scan"}, "name": "8e63405c6b81298053f814b05772385e", "is_reserved": 0}, {"is_disabled": 0, "fusion_lon": 0.0, "fusion_lat": 0.0, "lat": 38.90294633333333, "type": "electric_scooter", "lon": -77.03838066666667, "bike_id": "bc8d9d4d416fa6b406d903959db10a47", "rental_uris": {"android": "https://dc.lft.to/lastmile_qr_scan", "ios": "https://dc.lft.to/lastmile_qr_scan"}, "name": "bc8d9d4d416fa6b406d903959db10a47", "is_reserved": 0}, {"is_disabled": 0, "fusion_lon": 0.0, "fusion_lat": 0.0, "lat": 38.9058955, "type": "electric_scooter", "lon": -77.04717366666667, "bike_id": "ff3cc2f666d513298a28fe750e6d6588", "rental_uris": {"android": "https://dc.lft.to/lastmile_qr_scan", "ios": "https://dc.lft.to/lastmile_qr_scan"}, "name": "ff3cc2f666d513298a28fe750e6d6588", "is_reserved": 0}, {"is_disabled": 0, "fusion_lon": 0.0, "fusion_lat": 0.0, "lat": 38.932312, "type": "electric_scooter", "lon": -76.999344, "bike_id": "5366ed7cd46bfc53771aa1d95abe1ea3", "rental_uris": {"android": "https://dc.lft.to/lastmile_qr_scan", "ios": "https://dc.lft.to/lastmile_qr_scan"}, "name": "5366ed7cd46bfc53771aa1d95abe1ea3", "is_reserved": 0}, {"is_disabled": 0, "fusion_lon": 0.0, "fusion_lat": 0.0, "lat": 38.9530095, "type": "electric_scooter", "lon": -77.06975716666666, "bike_id": "ccaa0855d9fa98937bdf84ab72079dc0", "rental_uris": {"android": "https://dc.lft.to/lastmile_qr_scan", "ios": "https://dc.lft.to/lastmile_qr_scan"}, "name": "ccaa0855d9fa98937bdf84ab72079dc0", "is_reserved": 0}, {"is_disabled": 0, "fusion_lon": 0.0, "fusion_lat": 0.0, "lat": 38.93698216666667, "type": "electric_scooter", "lon": -77.05601783333333, "bike_id": "e41f917afec435b90446bf3c5373df45", "rental_uris": {"android": "https://dc.lft.to/lastmile_qr_scan", "ios": "https://dc.lft.to/lastmile_qr_scan"}, "name": "e41f917afec435b90446bf3c5373df45", "is_reserved": 0}, {"is_disabled": 0, "fusion_lon": 0.0, "fusion_lat": 0.0, "lat": 38.9171305, "type": "electric_scooter", "lon": -77.034012, "bike_id": "28df97ee62cb74ac16e8d1c149f3406e", "rental_uris": {"android": "https://dc.lft.to/lastmile_qr_scan", "ios": "https://dc.lft.to/lastmile_qr_scan"}, "name": "28df97ee62cb74ac16e8d1c149f3406e", "is_reserved": 0}, {"is_disabled": 0, "fusion_lon": 0.0, "fusion_lat": 0.0, "lat": 38.88514833333333, "type": "electric_scooter", "lon": -77.02087316666666, "bike_id": "53c1914b8542cf96af2fa25d807aff39", "rental_uris": {"android": "https://dc.lft.to/lastmile_qr_scan", "ios": "https://dc.lft.to/lastmile_qr_scan"}, "name": "53c1914b8542cf96af2fa25d807aff39", "is_reserved": 0}, {"is_disabled": 0, "fusion_lon": 0.0, "fusion_lat": 0.0, "lat": 38.88834833333333, "type": "electric_scooter", "lon": -76.917744, "bike_id": "2ea74d916ff8c50350b49e809d91256b", "rental_uris": {"android": "https://dc.lft.to/lastmile_qr_scan", "ios": "https://dc.lft.to/lastmile_qr_scan"}, "name": "2ea74d916ff8c50350b49e809d91256b", "is_reserved": 0}, {"is_disabled": 0, "fusion_lon": 0.0, "fusion_lat": 0.0, "lat": 38.89719316666667, "type": "electric_scooter", "lon": -77.021795, "bike_id": "1843ea5bad11e8a39bcd505481aefa4d", "rental_uris": {"android": "https://dc.lft.to/lastmile_qr_scan", "ios": "https://dc.lft.to/lastmile_qr_scan"}, "name": "1843ea5bad11e8a39bcd505481aefa4d", "is_reserved": 0}, {"is_disabled": 0, "fusion_lon": 0.0, "fusion_lat": 0.0, "lat": 38.948128833333335, "type": "electric_bike", "lon": -77.02979133333334, "bike_id": "3f06c6224a5bda2eaadadf16484c51fc", "rental_uris": {"android": "https://dc.lft.to/lastmile_qr_scan", "ios": "https://dc.lft.to/lastmile_qr_scan"}, "name": "3f06c6224a5bda2eaadadf16484c51fc", "is_reserved": 0}, {"is_disabled": 0, "fusion_lon": 0.0, "fusion_lat": 0.0, "lat": 38.94896833333333, "type": "electric_bike", "lon": -76.96376516666666, "bike_id": "be375b5744a83d2866977a4ee9082721", "rental_uris": {"android": "https://dc.lft.to/lastmile_qr_scan", "ios": "https://dc.lft.to/lastmile_qr_scan"}, "name": "be375b5744a83d2866977a4ee9082721", "is_reserved": 0}, {"is_disabled": 0, "fusion_lon": 0.0, "fusion_lat": 0.0, "lat": 38.8924055, "type": "electric_scooter", "lon": -77.03346333333333, "bike_id": "fdae4a9a55a664ff72f2396d78d7364e", "rental_uris": {"android": "https://dc.lft.to/lastmile_qr_scan", "ios": "https://dc.lft.to/lastmile_qr_scan"}, "name": "fdae4a9a55a664ff72f2396d78d7364e", "is_reserved": 0}, {"is_disabled": 0, "fusion_lon": 0.0, "fusion_lat": 0.0, "lat": 38.9138405, "type": "electric_scooter", "lon": -77.02972083333333, "bike_id": "87016c37647272a852dafa407acb9941", "rental_uris": {"android": "https://dc.lft.to/lastmile_qr_scan", "ios": "https://dc.lft.to/lastmile_qr_scan"}, "name": "87016c37647272a852dafa407acb9941", "is_reserved": 0}, {"is_disabled": 0, "fusion_lon": 0.0, "fusion_lat": 0.0, "lat": 38.95204416666667, "type": "electric_scooter", "lon": -77.02738333333333, "bike_id": "9bfba5a8df112640499866f3b06f7c68", "rental_uris": {"android": "https://dc.lft.to/lastmile_qr_scan", "ios": "https://dc.lft.to/lastmile_qr_scan"}, "name": "9bfba5a8df112640499866f3b06f7c68", "is_reserved": 0}, {"is_disabled": 0, "fusion_lon": 0.0, "fusion_lat": 0.0, "lat": 38.887550166666664, "type": "electric_scooter", "lon": -77.00225783333333, "bike_id": "6347c43fc99456562d8aff57c78d82f3", "rental_uris": {"android": "https://dc.lft.to/lastmile_qr_scan", "ios": "https://dc.lft.to/lastmile_qr_scan"}, "name": "6347c43fc99456562d8aff57c78d82f3", "is_reserved": 0}, {"is_disabled": 0, "fusion_lon": 0.0, "fusion_lat": 0.0, "lat": 38.893362833333335, "type": "electric_bike", "lon": -77.124071, "bike_id": "e0d1a34d50079267a277fdc2f05d3ca6", "rental_uris": {"android": "https://dc.lft.to/lastmile_qr_scan", "ios": "https://dc.lft.to/lastmile_qr_scan"}, "name": "e0d1a34d50079267a277fdc2f05d3ca6", "is_reserved": 0}, {"is_disabled": 0, "fusion_lon": 0.0, "fusion_lat": 0.0, "lat": 38.90525, "type": "electric_scooter", "lon": -77.06378116666667, "bike_id": "bca4670f54d13d94ebddf53f1716e364", "rental_uris": {"android": "https://dc.lft.to/lastmile_qr_scan", "ios": "https://dc.lft.to/lastmile_qr_scan"}, "name": "bca4670f54d13d94ebddf53f1716e364", "is_reserved": 0}, {"is_disabled": 0, "fusion_lon": 0.0, "fusion_lat": 0.0, "lat": 38.924620833333336, "type": "electric_scooter", "lon": -77.026982, "bike_id": "b1e0b29f83dd296a0fa75b0bd8042d66", "rental_uris": {"android": "https://dc.lft.to/lastmile_qr_scan", "ios": "https://dc.lft.to/lastmile_qr_scan"}, "name": "b1e0b29f83dd296a0fa75b0bd8042d66", "is_reserved": 0}, {"is_disabled": 0, "fusion_lon": 0.0, "fusion_lat": 0.0, "lat": 38.89878916666667, "type": "electric_scooter", "lon": -76.93161466666666, "bike_id": "cf543df4d00a72c87c51cdb6b88fa1fc", "rental_uris": {"android": "https://dc.lft.to/lastmile_qr_scan", "ios": "https://dc.lft.to/lastmile_qr_scan"}, "name": "cf543df4d00a72c87c51cdb6b88fa1fc", "is_reserved": 0}, {"is_disabled": 0, "fusion_lon": 0.0, "fusion_lat": 0.0, "lat": 38.952289, "type": "electric_scooter", "lon": -77.02764433333333, "bike_id": "cc6acd05c369e58a44694f9105422614", "rental_uris": {"android": "https://dc.lft.to/lastmile_qr_scan", "ios": "https://dc.lft.to/lastmile_qr_scan"}, "name": "cc6acd05c369e58a44694f9105422614", "is_reserved": 0}, {"is_disabled": 0, "fusion_lon": 0.0, "fusion_lat": 0.0, "lat": 38.9053375, "type": "electric_scooter", "lon": -77.057638, "bike_id": "de20cc9f0503a9bfd190a0aeec5d10bf", "rental_uris": {"android": "https://dc.lft.to/lastmile_qr_scan", "ios": "https://dc.lft.to/lastmile_qr_scan"}, "name": "de20cc9f0503a9bfd190a0aeec5d10bf", "is_reserved": 0}, {"is_disabled": 0, "fusion_lon": 0.0, "fusion_lat": 0.0, "lat": 38.917983166666666, "type": "electric_scooter", "lon": -77.03553833333334, "bike_id": "4638373131a1c6b08aff4f7596377f1f", "rental_uris": {"android": "https://dc.lft.to/lastmile_qr_scan", "ios": "https://dc.lft.to/lastmile_qr_scan"}, "name": "4638373131a1c6b08aff4f7596377f1f", "is_reserved": 0}, {"is_disabled": 0, "fusion_lon": 0.0, "fusion_lat": 0.0, "lat": 38.917252166666664, "type": "electric_scooter", "lon": -77.03662166666666, "bike_id": "5e79b623e55acb681bddf4c940cfd2fe", "rental_uris": {"android": "https://dc.lft.to/lastmile_qr_scan", "ios": "https://dc.lft.to/lastmile_qr_scan"}, "name": "5e79b623e55acb681bddf4c940cfd2fe", "is_reserved": 0}, {"is_disabled": 0, "fusion_lon": 0.0, "fusion_lat": 0.0, "lat": 38.86062866666666, "type": "electric_scooter", "lon": -76.98513516666667, "bike_id": "cb4eae83b2c1766536b71ed43afd0523", "rental_uris": {"android": "https://dc.lft.to/lastmile_qr_scan", "ios": "https://dc.lft.to/lastmile_qr_scan"}, "name": "cb4eae83b2c1766536b71ed43afd0523", "is_reserved": 0}, {"is_disabled": 0, "fusion_lon": 0.0, "fusion_lat": 0.0, "lat": 38.92883783333333, "type": "electric_scooter", "lon": -77.041314, "bike_id": "feaecf73e9e30a07867a0f0f29eeb2c7", "rental_uris": {"android": "https://dc.lft.to/lastmile_qr_scan", "ios": "https://dc.lft.to/lastmile_qr_scan"}, "name": "feaecf73e9e30a07867a0f0f29eeb2c7", "is_reserved": 0}, {"is_disabled": 0, "fusion_lon": 0.0, "fusion_lat": 0.0, "lat": 38.923708, "type": "electric_scooter", "lon": -77.05032833333334, "bike_id": "82aad9e9c9acf0148ae29e89df1ae9c1", "rental_uris": {"android": "https://dc.lft.to/lastmile_qr_scan", "ios": "https://dc.lft.to/lastmile_qr_scan"}, "name": "82aad9e9c9acf0148ae29e89df1ae9c1", "is_reserved": 0},