{"data": {"bikes": [{"name": "8cac06ddc630ee9a30f6d1955ac14456", "is_reserved": 0, "fusion_lon": 0.0, "bike_id": "8cac06ddc630ee9a30f6d1955ac14456", "lat": 38.92247666666667, "is_disabled": 0, "lon": -76.983139, "fusion_lat": 0.0, "rental_uris": {"ios": "https://dc.lft.to/lastmile_qr_scan", "android": "https://dc.lft.to/lastmile_qr_scan"}, "type": "electric_scooter"}, {"name": "775465309d1dce54331e028066c369a6", "is_reserved": 0, "fusion_lon": 0.0, "bike_id": "775465309d1dce54331e028066c369a6", "lat": 38.9037855, "is_disabled": 0, "lon": -76.99952316666666, "fusion_lat": 0.0, "rental_uris": {"ios": "https://dc.lft.to/lastmile_qr_scan", "android": "https://dc.lft.to/lastmile_qr_scan"}, "type": "electric_scooter"}, {"name": "edd2f74bd78a24a06c1b82a4923fabff", "is_reserved": 0, "fusion_lon": 0.0, "bike_id": "edd2f74bd78a24a06c1b82a4923fabff", "lat": 38.923086833333336, "is_disabled": 0, "lon": -77.0365025, "fusion_lat": 0.0, "rental_uris": {"ios": "https://dc.lft.to/lastmile_qr_scan", "android": "https://dc.lft.to/lastmile_qr_scan"}, "type": "electric_scooter"}, {"name": "2eb20cda98ea80216a6d0319d5114417", "is_reserved": 0, "fusion_lon": 0.0, "bike_id": "2eb20cda98ea80216a6d0319d5114417", "lat": 38.900249333333335, "is_disabled": 0, "lon": -77.04138183333333, "fusion_lat": 0.0, "rental_uris": {"ios": "https://dc.lft.to/lastmile_qr_scan", "android": "https://dc.lft.to/lastmile_qr_scan"}, "type": "electric_scooter"}, {"name": "f7634a6364859255a6086e222fe9173e", "is_reserved": 0, "fusion_lon": 0.0, "bike_id": "f7634a6364859255a6086e222fe9173e", "lat": 38.892262833333334, "is_disabled": 0, "lon": -77.04995416666667, "fusion_lat": 0.0, "rental_uris": {"ios": "https://dc.lft.to/lastmile_qr_scan", "android": "https://dc.lft.to/lastmile_qr_scan"}, "type": "electric_scooter"}, {"name": "3880b1c0cfbcb60f38fa8d76206c799d", "is_reserved": 0, "fusion_lon": 0.0, "bike_id": "3880b1c0cfbcb60f38fa8d76206c799d", "lat": 38.90698483333333, "is_disabled": 0, "lon": -77.03821816666667, "fusion_lat": 0.0, "rental_uris": {"ios": "https://dc.lft.to/lastmile_qr_scan", "android": "https://dc.lft.to/lastmile_qr_scan"}, "type": "electric_scooter"}, {"name": "7e787e9663ed9c394d16a1de3765f6e3", "is_reserved": 0, "fusion_lon": 0.0, "bike_id": "7e787e9663ed9c394d16a1de3765f6e3", "lat": 38.9083775, "is_disabled": 0, "lon": -77.0549015, "fusion_lat": 0.0, "rental_uris": {"ios": "https://dc.lft.to/lastmile_qr_scan", "android": "https://dc.lft.to/lastmile_qr_scan"}, "type": "electric_scooter"}, {"name": "159b311a15c967c36c3fd0796e1ea834", "is_reserved": 0, "fusion_lon": 0.0, "bike_id": "159b311a15c967c36c3fd0796e1ea834", "lat": 38.8842535, "is_disabled": 0, "lon": -76.9959365, "fusion_lat": 0.0, "rental_uris": {"ios": "https://dc.lft.to/lastmile_qr_scan", "android": "https://dc.lft.to/lastmile_qr_scan"}, "type": "electric_scooter"}, {"name": "a1e0c5c591f6f0959cd4f308bb8d94ca", "is_reserved": 0, "fusion_lon": 0.0, "bike_id": "a1e0c5c591f6f0959cd4f308bb8d94ca", "lat": 38.8960795, "is_disabled": 0, "lon": -77.00971216666667, "fusion_lat": 0.0, "rental_uris": {"ios": "https://dc.lft.to/lastmile_qr_scan", "android": "https://dc.lft.to/lastmile_qr_scan"}, "type": "electric_scooter"}, {"name": "780a753b85187bf7b1aa9e003b731a23", "is_reserved": 0, "fusion_lon": 0.0, "bike_id": "780a753b85187bf7b1aa9e003b731a23", "lat": 38.9909705, "is_disabled": 0, "lon": -76.99372333333334, "fusion_lat": 0.0, "rental_uris": {"ios": "https://dc.lft.to/lastmile_qr_scan", "android": "https://dc.lft.to/lastmile_qr_scan"}, "type": "electric_bike"}, {"name": "e669ae89d137267613a98243bccdf885", "is_reserved": 0, "fusion_lon": 0.0, "bike_id": "e669ae89d137267613a98243bccdf885", "lat": 38.939642166666665, "is_disabled": 0, "lon": -77.032519, "fusion_lat": 0.0, "rental_uris": {"ios": "https://dc.lft.to/lastmile_qr_scan", "android": "https://dc.lft.to/lastmile_qr_scan"}, "type": "electric_scooter"}, {"name": "12b881d9ad2a702c01d073bf5e7a04d0", "is_reserved": 0, "fusion_lon": 0.0, "bike_id": "12b881d9ad2a702c01d073bf5e7a04d0", "lat": 38.902645666666665, "is_disabled": 0, "lon": -77.030666, "fusion_lat": 0.0, "rental_uris": {"ios": "https://dc.lft.to/lastmile_qr_scan", "android": "https://dc.lft.to/lastmile_qr_scan"}, "type": "electric_scooter"}, {"name": "a96bf33d531af9b89f404704fe01b932", "is_reserved": 0, "fusion_lon": 0.0, "bike_id": "a96bf33d531af9b89f404704fe01b932", "lat": 38.88345266666666, "is_disabled": 0, "lon": -76.9362695, "fusion_lat": 0.0, "rental_uris": {"ios": "https://dc.lft.to/lastmile_qr_scan", "android": "https://dc.lft.to/lastmile_qr_scan"}, "type": "electric_scooter"}, {"name": "99ff5b99d73d0a38cfc88b2103e770a3", "is_reserved": 0, "fusion_lon": 0.0, "bike_id": "99ff5b99d73d0a38cfc88b2103e770a3", "lat": 38.89951883333333, "is_disabled": 0, "lon": -77.02591316666667, "fusion_lat": 0.0, "rental_uris": {"ios": "https://dc.lft.to/lastmile_qr_scan", "android": "https://dc.lft.to/lastmile_qr_scan"}, "type": "electric_scooter"}, {"name": "f46b7222c4d834325b1e6ace8625a1cd", "is_reserved": 0, "fusion_lon": 0.0, "bike_id": "f46b7222c4d834325b1e6ace8625a1cd", "lat": 38.8983885, "is_disabled": 0, "lon": -76.9428665, "fusion_lat": 0.0, "rental_uris": {"ios": "https://dc.lft.to/lastmile_qr_scan", "android": "https://dc.lft.to/lastmile_qr_scan"}, "type": "electric_scooter"}, {"name": "83d75748b35622474a6651f2dba89c84", "is_reserved": 0, "fusion_lon": 0.0, "bike_id": "83d75748b35622474a6651f2dba89c84", "lat": 38.86630233333333, "is_disabled": 0, "lon": -76.9890565, "fusion_lat": 0.0, "rental_uris": {"ios": "https://dc.lft.to/lastmile_qr_scan", "android": "https://dc.lft.to/lastmile_qr_scan"}, "type": "electric_bike"}, {"name": "4bd0bf9dbd5ed978ecfbfbd1fc8de4bc", "is_reserved": 0, "fusion_lon": 0.0, "bike_id": "4bd0bf9dbd5ed978ecfbfbd1fc8de4bc", "lat": 38.918904, "is_disabled": 0, "lon": -77.04126366666667, "fusion_lat": 0.0, "rental_uris": {"ios": "https://dc.lft.to/lastmile_qr_scan", "android": "https://dc.lft.to/lastmile_qr_scan"}, "type": "electric_scooter"}, {"name": "d388eb5ff9b6519acb3729d13ee0e00d", "is_reserved": 0, "fusion_lon": 0.0, "bike_id": "d388eb5ff9b6519acb3729d13ee0e00d", "lat": 38.921746166666665, "is_disabled": 0, "lon": -77.020427, "fusion_lat": 0.0, "rental_uris": {"ios": "https://dc.lft.to/lastmile_qr_scan", "android": "https://dc.lft.to/lastmile_qr_scan"}, "type": "electric_scooter"}, {"name": "be00063e9136202c0b3ddfe94913a0d3", "is_reserved": 0, "fusion_lon": 0.0, "bike_id": "be00063e9136202c0b3ddfe94913a0d3", "lat": 38.91122933333333, "is_disabled": 0, "lon": -77.02794533333334, "fusion_lat": 0.0, "rental_uris": {"ios": "https://dc.lft.to/lastmile_qr_scan", "android": "https://dc.lft.to/lastmile_qr_scan"}, "type": "electric_scooter"}, {"name": "7e8549561fb23c901abee4b6ae28b6e2", "is_reserved": 0, "fusion_lon": 0.0, "bike_id": "7e8549561fb23c901abee4b6ae28b6e2", "lat": 38.923707666666665, "is_disabled": 0, "lon": -77.01979533333333, "fusion_lat": 0.0, "rental_uris": {"ios": "https://dc.lft.to/lastmile_qr_scan", "android": "https://dc.lft.to/lastmile_qr_scan"}, "type": "electric_scooter"}, {"name": "24facff2e544f385e5c377b6227e0877", "is_reserved": 0, "fusion_lon": 0.0, "bike_id": "24facff2e544f385e5c377b6227e0877", "lat": 38.903245, "is_disabled": 0, "lon": -77.05004933333333, "fusion_lat": 0.0, "rental_uris": {"ios": "https://dc.lft.to/lastmile_qr_scan", "android": "https://dc.lft.to/lastmile_qr_scan"}, "type": "electric_scooter"}, {"name": "cca4a70c81bae3f6ff9392bd448a660c", "is_reserved": 0, "fusion_lon": 0.0, "bike_id": "cca4a70c81bae3f6ff9392bd448a660c", "lat": 38.8996365, "is_disabled": 0, "lon": -77.02977833333334, "fusion_lat": 0.0, "rental_uris": {"ios": "https://dc.lft.to/lastmile_qr_scan", "android": "https://dc.lft.to/lastmile_qr_scan"}, "type": "electric_scooter"}, {"name": "9e7e0bbf28ae52f206e08285a52d8ee3", "is_reserved": 0, "fusion_lon": 0.0, "bike_id": "9e7e0bbf28ae52f206e08285a52d8ee3", "lat": 38.92607533333333, "is_disabled": 0, "lon": -77.0215805, "fusion_lat": 0.0, "rental_uris": {"ios": "https://dc.lft.to/lastmile_qr_scan", "android": "https://dc.lft.to/lastmile_qr_scan"}, "type": "electric_scooter"}, {"name": "5a4efd4af471e9d871ad4f9122dce090", "is_reserved": 0, "fusion_lon": 0.0, "bike_id": "5a4efd4af471e9d871ad4f9122dce090", "lat": 38.91065833333333, "is_disabled": 0, "lon": -77.01605183333334, "fusion_lat": 0.0, "rental_uris": {"ios": "https://dc.lft.to/lastmile_qr_scan", "android": "https://dc.lft.to/lastmile_qr_scan"}, "type": "electric_scooter"}, {"name": "dc5a075567da82d6a337960d1cade67a", "is_reserved": 0, "fusion_lon": 0.0, "bike_id": "dc5a075567da82d6a337960d1cade67a", "lat": 38.820411, "is_disabled": 0, "lon": -77.05361266666667, "fusion_lat": 0.0, "rental_uris": {"ios": "https://dc.lft.to/lastmile_qr_scan", "android": "https://dc.lft.to/lastmile_qr_scan"}, "type": "electric_bike"}, {"name": "a30f73866bbdcbee6b8f6f7b97aa67d3", "is_reserved": 0, "fusion_lon": 0.0, "bike_id": "a30f73866bbdcbee6b8f6f7b97aa67d3", "lat": 38.92480716666667, "is_disabled": 0, "lon": -77.0222595, "fusion_lat": 0.0, "rental_uris": {"ios": "https://dc.lft.to/lastmile_qr_scan", "android": "https://dc.lft.to/lastmile_qr_scan"}, "type": "electric_scooter"}, {"name": "53121d04ee0d9281b2dbe30f077b40a6", "is_reserved": 0, "fusion_lon": 0.0, "bike_id": "53121d04ee0d9281b2dbe30f077b40a6", "lat": 38.8654655, "is_disabled": 0, "lon": -76.9415345, "fusion_lat": 0.0, "rental_uris": {"ios": "https://dc.lft.to/lastmile_qr_scan", "android": "https://dc.lft.to/lastmile_qr_scan"}, "type": "electric_bike"}, {"name": "d8761f387f9c1ffb24d791088c1c775e", "is_reserved": 0, "fusion_lon": 0.0, "bike_id": "d8761f387f9c1ffb24d791088c1c775e", "lat": 38.90780616666667, "is_disabled": 0, "lon": -77.03395616666667, "fusion_lat": 0.0, "rental_uris": {"ios": "https://dc.lft.to/lastmile_qr_scan", "android": "https://dc.lft.to/lastmile_qr_scan"}, "type": "electric_scooter"}, {"name": "11866abc589b415c2166e9adb9e8d4e8", "is_reserved": 0, "fusion_lon": 0.0, "bike_id": "11866abc589b415c2166e9adb9e8d4e8", "lat": 38.89865966666667, "is_disabled": 0, "lon": -76.9466445, "fusion_lat": 0.0, "rental_uris": {"ios": "https://dc.lft.to/lastmile_qr_scan", "android": "https://dc.lft.to/lastmile_qr_scan"}, "type": "electric_scooter"}, {"name": "31339150e8916520484aabde1cb92f4a", "is_reserved": 0, "fusion_lon": 0.0, "bike_id": "31339150e8916520484aabde1cb92f4a", "lat": 38.907090333333336, "is_disabled": 0, "lon": -77.02805683333334, "fusion_lat": 0.0, "rental_uris": {"ios": "https://dc.lft.to/lastmile_qr_scan", "android": "https://dc.lft.to/lastmile_qr_scan"}, "type": "electric_scooter"}, {"name": "94c3714f77501e523924d442bccc6b1b", "is_reserved": 0, "fusion_lon": 0.0, "bike_id": "94c3714f77501e523924d442bccc6b1b", "lat": 38.9320705, "is_disabled": 0, "lon": -77.02674616666667, "fusion_lat": 0.0, "rental_uris": {"ios": "https://dc.lft.to/lastmile_qr_scan", "android": "https://dc.lft.to/lastmile_qr_scan"}, "type": "electric_scooter"}, {"name": "7d03af78851654e18b20bc635aad50ff", "is_reserved": 0, "fusion_lon": 0.0, "bike_id": "7d03af78851654e18b20bc635aad50ff", "lat": 38.920451, "is_disabled": 0, "lon": -77.04188216666667, "fusion_lat": 0.0, "rental_uris": {"ios": "https://dc.lft.to/lastmile_qr_scan", "android": "https://dc.lft.to/lastmile_qr_scan"}, "type": "electric_scooter"}, {"name": "2d98b8f94db9c56ccc1aa990bf9ef2f7", "is_reserved": 0, "fusion_lon": 0.0, "bike_id": "2d98b8f94db9c56ccc1aa990bf9ef2f7", "lat": 38.92408183333333, "is_disabled": 0, "lon": -77.02029983333334, "fusion_lat": 0.0, "rental_uris": {"ios": "https://dc.lft.to/lastmile_qr_scan", "android": "https://dc.lft.to/lastmile_qr_scan"}, "type": "electric_scooter"}, {"name": "2b72a543f76da4b9973b55a2490dd0bd", "is_reserved": 0, "fusion_lon": 0.0, "bike_id": "2b72a543f76da4b9973b55a2490dd0bd", "lat": 38.873137666666665, "is_disabled": 0, "lon": -77.01068233333334, "fusion_lat": 0.0, "rental_uris": {"ios": "https://dc.lft.to/lastmile_qr_scan", "android": "https://dc.lft.to/lastmile_qr_scan"}, "type": "electric_scooter"}, {"name": "152967ae6dd1c51994fa522ee46bc693", "is_reserved": 0, "fusion_lon": 0.0, "bike_id": "152967ae6dd1c51994fa522ee46bc693", "lat": 39.03417066666667, "is_disabled": 0, "lon": -77.04308366666666, "fusion_lat": 0.0, "rental_uris": {"ios": "https://dc.lft.to/lastmile_qr_scan", "android": "https://dc.lft.to/lastmile_qr_scan"}, "type": "electric_bike"}, {"name": "3f5d783321879c12d3fa514018e0b66e", "is_reserved": 0, "fusion_lon": 0.0, "bike_id": "3f5d783321879c12d3fa514018e0b66e", "lat": 38.923605, "is_disabled": 0, "lon": -77.02133983333333, "fusion_lat": 0.0, "rental_uris": {"ios": "https://dc.lft.to/lastmile_qr_scan", "android": "https://dc.lft.to/lastmile_qr_scan"}, "type": "electric_scooter"}, {"name": "50e4be041b13ecc3b097c6e34c84d5ce", "is_reserved": 0, "fusion_lon": 0.0, "bike_id": "50e4be041b13ecc3b097c6e34c84d5ce", "lat": 38.9192035, "is_disabled": 0, "lon": -77.03945116666667, "fusion_lat": 0.0, "rental_uris": {"ios": "https://dc.lft.to/lastmile_qr_scan", "android": "https://dc.lft.to/lastmile_qr_scan"}, "type": "electric_scooter"}, {"name": "12a483c2c92a9556dc6422064a8ff56f", "is_reserved": 0, "fusion_lon": 0.0, "bike_id": "12a483c2c92a9556dc6422064a8ff56f", "lat": 38.8932865, "is_disabled": 0, "lon": -76.93926983333333, "fusion_lat": 0.0, "rental_uris": {"ios": "https://dc.lft.to/lastmile_qr_scan", "android": "https://dc.lft.to/lastmile_qr_scan"}, "type": "electric_scooter"}, {"name": "f55cd56212c3e1625e7d6d2561d4f06c", "is_reserved": 0, "fusion_lon": 0.0, "bike_id": "f55cd56212c3e1625e7d6d2561d4f06c", "lat": 38.9124545, "is_disabled": 0, "lon": -77.04438066666667, "fusion_lat": 0.0, "rental_uris": {"ios": "https://dc.lft.to/lastmile_qr_scan", "android": "https://dc.lft.to/lastmile_qr_scan"}, "type": "electric_scooter"}, {"name": "b7f0722e0320920892ca2ac680b76350", "is_reserved": 0, "fusion_lon": 0.0, "bike_id": "b7f0722e0320920892ca2ac680b76350", "lat": 38.88502, "is_disabled": 0, "lon": -77.0056525, "fusion_lat": 0.0, "rental_uris": {"ios": "https://dc.lft.to/lastmile_qr_scan", "android": "https://dc.lft.to/lastmile_qr_scan"}, "type": "electric_scooter"}, {"name": "9cf67649a450279920496254c52f6b08", "is_reserved": 0, "fusion_lon": 0.0, "bike_id": "9cf67649a450279920496254c52f6b08", "lat": 38.88735283333333, "is_disabled": 0, "lon": -77.02569133333333, "fusion_lat": 0.0, "rental_uris": {"ios": "https://dc.lft.to/lastmile_qr_scan", "android": "https://dc.lft.to/lastmile_qr_scan"}, "type": "electric_scooter"}, {"name": "b9bd68af54a2664f43e722433ea0dca9", "is_reserved": 0, "fusion_lon": 0.0, "bike_id": "b9bd68af54a2664f43e722433ea0dca9", "lat": 38.923926333333334, "is_disabled": 0, "lon": -77.04305433333333, "fusion_lat": 0.0, "rental_uris": {"ios": "https://dc.lft.to/lastmile_qr_scan", "android": "https://dc.lft.to/lastmile_qr_scan"}, "type": "electric_scooter"}, {"name": "6163b81908ac986f12539ff77bc22740", "is_reserved": 0, "fusion_lon": 0.0, "bike_id": "6163b81908ac986f12539ff77bc22740", "lat": 38.921166166666666, "is_disabled": 0, "lon": -77.01826683333333, "fusion_lat": 0.0, "rental_uris": {"ios": "https://dc.lft.to/lastmile_qr_scan", "android": "https://dc.lft.to/lastmile_qr_scan"}, "type": "electric_scooter"}, {"name": "e19d95a610e58fa074ed59e0fa22ac95", "is_reserved": 0, "fusion_lon": 0.0, "bike_id": "e19d95a610e58fa074ed59e0fa22ac95", "lat": 38.90779, "is_disabled": 0, "lon": -77.01075016666667, "fusion_lat": 0.0, "rental_uris": {"ios": "https://dc.lft.to/lastmile_qr_scan", "android": "https://dc.lft.to/lastmile_qr_scan"}, "type": "electric_scooter"}, {"name": "45fded6552b650e2a6340cff7d4a49fb", "is_reserved": 0, "fusion_lon": 0.0, "bike_id": "45fded6552b650e2a6340cff7d4a49fb", "lat": 38.896005833333334, "is_disabled": 0, "lon": -77.02605833333334, "fusion_lat": 0.0, "rental_uris": {"ios": "https://dc.lft.to/lastmile_qr_scan", "android": "https://dc.lft.to/lastmile_qr_scan"}, "type": "electric_scooter"}, {"name": "b2a1fe2e5b07968c9a38c0a1358abdf4", "is_reserved": 0, "fusion_lon": 0.0, "bike_id": "b2a1fe2e5b07968c9a38c0a1358abdf4", "lat": 38.875738166666665, "is_disabled": 0, "lon": -77.23404116666667, "fusion_lat": 0.0, "rental_uris": {"ios": "https://dc.lft.to/lastmile_qr_scan", "android": "https://dc.lft.to/lastmile_qr_scan"}, "type": "electric_bike"}, {"name": "ab5fc07560e792d5900e3b804637df9f", "is_reserved": 0, "fusion_lon": 0.0, "bike_id": "ab5fc07560e792d5900e3b804637df9f", "lat": 38.90225866666667, "is_disabled": 0, "lon": -77.00567766666667, "fusion_lat": 0.0, "rental_uris": {"ios": "https://dc.lft.to/lastmile_qr_scan", "android": "https://dc.lft.to/lastmile_qr_scan"}, "type": "electric_scooter"}, {"name": "77dc74515c64601f986aa088317bef32", "is_reserved": 0, "fusion_lon": 0.0, "bike_id": "77dc74515c64601f986aa088317bef32", "lat": 38.922444166666665, "is_disabled": 0, "lon": -77.07697566666667, "fusion_lat": 0.0, "rental_uris": {"ios": "https://dc.lft.to/lastmile_qr_scan", "android": "https://dc.lft.to/lastmile_qr_scan"}, "type": "electric_scooter"}, {"name": "e5ceda3a2023137b6e5b9500fcc7f40c", "is_reserved": 0, "fusion_lon": 0.0, "bike_id": "e5ceda3a2023137b6e5b9500fcc7f40c", "lat": 38.924207833333334, "is_disabled": 0, "lon": -77.02241283333333, "fusion_lat": 0.0, "rental_uris": {"ios": "https://dc.lft.to/lastmile_qr_scan", "android": "https://dc.lft.to/lastmile_qr_scan"}, "type": "electric_scooter"}, {"name": "273fcc790876d96c7716262ee17d4d1f", "is_reserved": 0, "fusion_lon": 0.0, "bike_id": "273fcc790876d96c7716262ee17d4d1f", "lat": 38.91588433333333, "is_disabled": 0, "lon": -77.02387216666666, "fusion_lat": 0.0, "rental_uris": {"ios": "https://dc.lft.to/lastmile_qr_scan", "android": "https://dc.lft.to/lastmile_qr_scan"}, "type": "electric_scooter"}, {"name": "36112b989fc4b8d0be0fca058ad02d5f", "is_reserved": 0, "fusion_lon": 0.0, "bike_id": "36112b989fc4b8d0be0fca058ad02d5f", "lat": 38.898342666666665, "is_disabled": 0, "lon": -77.02955883333334, "fusion_lat": 0.0, "rental_uris": {"ios": "https://dc.lft.to/lastmile_qr_scan", "android": "https://dc.lft.to/lastmile_qr_scan"}, "type": "electric_scooter"}, {"name": "e321c6c0a11c7d718b6738f642475f72", "is_reserved": 0, "fusion_lon": 0.0, "bike_id": "e321c6c0a11c7d718b6738f642475f72", "lat": 38.95186433333333, "is_disabled": 0, "lon": -76.95123883333333, "fusion_lat": 0.0, "rental_uris": {"ios": "https://dc.lft.to/lastmile_qr_scan", "android": "https://dc.lft.to/lastmile_qr_scan"}, "type": "electric_bike"}, {"name": "c3080827ce1e31636bee5364bfb437b4", "is_reserved": 0, "fusion_lon": 0.0, "bike_id": "c3080827ce1e31636bee5364bfb437b4", "lat": 38.88075666666667, "is_disabled": 0, "lon": -76.98531316666667, "fusion_lat": 0.0, "rental_uris": {"ios": "https://dc.lft.to/lastmile_qr_scan", "android": "https://dc.lft.to/lastmile_qr_scan"}, "type": "electric_bike"}, {"name": "a5263ef423d42d759b1e50071573bb42", "is_reserved": 0, "fusion_lon": 0.0, "bike_id": "a5263ef423d42d759b1e50071573bb42", "lat": 38.9073315, "is_disabled": 0, "lon": -77.02795466666667, "fusion_lat": 0.0, "rental_uris": {"ios": "https://dc.lft.to/lastmile_qr_scan", "android": "https://dc.lft.to/lastmile_qr_scan"}, "type": "electric_scooter"}, {"name": "50983710c77c8d6f5dd90ec9fed84c1f", "is_reserved": 0, "fusion_lon": 0.0, "bike_id": "50983710c77c8d6f5dd90ec9fed84c1f", "lat": 38.91813166666667, "is_disabled": 0, "lon": -77.024998, "fusion_lat": 0.0, "rental_uris": {"ios": "https://dc.lft.to/lastmile_qr_scan", "android": "https://dc.lft.to/lastmile_qr_scan"}, "type": "electric_scooter"}, {"name": "a9ef74c1e48ba293dd56a1f5647c0f9d", "is_reserved": 0, "fusion_lon": 0.0, "bike_id": "a9ef74c1e48ba293dd56a1f5647c0f9d", "lat": 38.838602, "is_disabled": 0, "lon": -76.99706583333334, "fusion_lat": 0.0, "rental_uris": {"ios": "https://dc.lft.to/lastmile_qr_scan", "android": "https://dc.lft.to/lastmile_qr_scan"}, "type": "electric_bike"}, {"name": "8aea3cae407038f7d69b9b7d765470b7", "is_reserved": 0, "fusion_lon": 0.0, "bike_id": "8aea3cae407038f7d69b9b7d765470b7", "lat": 38.90417216666667, "is_disabled": 0, "lon": -77.04888183333334, "fusion_lat": 0.0, "rental_uris": {"ios": "https://dc.lft.to/lastmile_qr_scan", "android": "https://dc.lft.to/lastmile_qr_scan"}, "type": "electric_scooter"}, {"name": "dd99085589f427431ec422c0def33de5", "is_reserved": 0, "fusion_lon": 0.0, "bike_id": "dd99085589f427431ec422c0def33de5", "lat": 38.98007616666666, "is_disabled": 0, "lon": -77.06410266666667, "fusion_lat": 0.0, "rental_uris": {"ios": "https://dc.lft.to/lastmile_qr_scan", "android": "https://dc.lft.to/lastmile_qr_scan"}, "type": "electric_bike"}, {"name": "c22a99fb3f5ff14845b145610af347fe", "is_reserved": 0, "fusion_lon": 0.0, "bike_id": "c22a99fb3f5ff14845b145610af347fe", "lat": 38.919207666666665, "is_disabled": 0, "lon": -77.04165583333334, "fusion_lat": 0.0, "rental_uris": {"ios": "https://dc.lft.to/lastmile_qr_scan", "android": "https://dc.lft.to/lastmile_qr_scan"}, "type": "electric_scooter"}, {"name": "d41051c08db3344f0d1e452ce6048f75", "is_reserved": 0, "fusion_lon": 0.0, "bike_id": "d41051c08db3344f0d1e452ce6048f75", "lat": 38.89609883333333, "is_disabled": 0, "lon": -77.00560566666667, "fusion_lat": 0.0, "rental_uris": {"ios": "https://dc.lft.to/lastmile_qr_scan", "android": "https://dc.lft.to/lastmile_qr_scan"}, "type": "electric_scooter"}, {"name": "04124297a7c660de41036331a8b003b3", "is_reserved": 0, "fusion_lon": 0.0, "bike_id": "04124297a7c660de41036331a8b003b3", "lat": 38.947225333333336, "is_disabled": 0, "lon": -77.09877616666667, "fusion_lat": 0.0, "rental_uris": {"ios": "https://dc.lft.to/lastmile_qr_scan", "android": "https://dc.lft.to/lastmile_qr_scan"}, "type": "electric_bike"}, {"name": "ebb42a8cc2f2d3b7a511f50c6cf53d66", "is_reserved": 0, "fusion_lon": 0.0, "bike_id": "ebb42a8cc2f2d3b7a511f50c6cf53d66", "lat": 38.92457566666667, "is_disabled": 0, "lon": -76.97560883333334, "fusion_lat": 0.0, "rental_uris": {"ios": "https://dc.lft.to/lastmile_qr_scan", "android": "https://dc.lft.to/lastmile_qr_scan"}, "type": "electric_bike"}, {"name": "69528aa425c87829f20ef52239e57af9", "is_reserved": 0, "fusion_lon": 0.0, "bike_id": "69528aa425c87829f20ef52239e57af9", "lat": 38.9183875, "is_disabled": 0, "lon": -77.04172616666666, "fusion_lat": 0.0, "rental_uris": {"ios": "https://dc.lft.to/lastmile_qr_scan", "android": "https://dc.lft.to/lastmile_qr_scan"}, "type": "electric_scooter"}, {"name": "104e4bfcbc3ea2b1d0be56e32aeb76c3", "is_reserved": 0, "fusion_lon": 0.0, "bike_id": "104e4bfcbc3ea2b1d0be56e32aeb76c3", "lat": 38.89744433333333, "is_disabled": 0, "lon": -77.02682933333334, "fusion_lat": 0.0, "rental_uris": {"ios": "https://dc.lft.to/lastmile_qr_scan", "android": "https://dc.lft.to/lastmile_qr_scan"}, "type": "electric_scooter"}, {"name": "07a8a41a17b89e5b4da359ac0b8981e0", "is_reserved": 0, "fusion_lon": 0.0, "bike_id": "07a8a41a17b89e5b4da359ac0b8981e0", "lat": 38.897186833333336, "is_disabled": 0, "lon": -76.92589883333333, "fusion_lat": 0.0, "rental_uris": {"ios": "https://dc.lft.to/lastmile_qr_scan", "android": "https://dc.lft.to/lastmile_qr_scan"}, "type": "electric_scooter"}, {"name": "d093462a50d25523638654dc2d3fe6b9", "is_reserved": 0, "fusion_lon": 0.0, "bike_id": "d093462a50d25523638654dc2d3fe6b9", "lat": 38.87631983333333, "is_disabled": 0, "lon": -77.0036765, "fusion_lat": 0.0, "rental_uris": {"ios": "https://dc.lft.to/lastmile_qr_scan", "android": "https://dc.lft.to/lastmile_qr_scan"}, "type": "electric_bike"}, {"name": "ba0a45495ab04b314a08ead9ce3bd359", "is_reserved": 0, "fusion_lon": 0.0, "bike_id": "ba0a45495ab04b314a08ead9ce3bd359", "lat": 38.9077465, "is_disabled": 0, "lon": -77.07167066666666, "fusion_lat": 0.0, "rental_uris": {"ios": "https://dc.lft.to/lastmile_qr_scan", "android": "https://dc.lft.to/lastmile_qr_scan"}, "type": "electric_scooter"}, {"name": "50f4dfbd8bef64d22a279059866dec5d", "is_reserved": 0, "fusion_lon": 0.0, "bike_id": "50f4dfbd8bef64d22a279059866dec5d", "lat": 38.92329933333333, "is_disabled": 0, "lon": -77.05268183333334, "fusion_lat": 0.0, "rental_uris": {"ios": "https://dc.lft.to/lastmile_qr_scan", "android": "https://dc.lft.to/lastmile_qr_scan"}, "type": "electric_scooter"}, {"name": "b05b2f1447247fe7e1f59a4e6e6e5c1d", "is_reserved": 0, "fusion_lon": 0.0, "bike_id": "b05b2f1447247fe7e1f59a4e6e6e5c1d", "lat": 38.898224666666664, "is_disabled": 0, "lon": -77.04806783333333, "fusion_lat": 0.0, "rental_uris": {"ios": "https://dc.lft.to/lastmile_qr_scan", "android": "https://dc.lft.to/lastmile_qr_scan"}, "type": "electric_scooter"}, {"name": "ac542d6d06046ae071f4ab32c572770d", "is_reserved": 0, "fusion_lon": 0.0, "bike_id": "ac542d6d06046ae071f4ab32c572770d", "lat": 38.925056833333336, "is_disabled": 0, "lon": -77.023545, "fusion_lat": 0.0, "rental_uris": {"ios": "https://dc.lft.to/lastmile_qr_scan", "android": "https://dc.lft.to/lastmile_qr_scan"}, "type": "electric_scooter"}, {"name": "9b88baea74a0471a0a3203e81484eb9a", "is_reserved": 0, "fusion_lon": 0.0, "bike_id": "9b88baea74a0471a0a3203e81484eb9a", "lat": 38.903621666666666, "is_disabled": 0, "lon": -77.01083133333333, "fusion_lat": 0.0, "rental_uris": {"ios": "https://dc.lft.to/lastmile_qr_scan", "android": "https://dc.lft.to/lastmile_qr_scan"}, "type": "electric_scooter"}, {"name": "d55ff88589d5bc0c2a918bd7eb925f7b", "is_reserved": 0, "fusion_lon": 0.0, "bike_id": "d55ff88589d5bc0c2a918bd7eb925f7b", "lat": 38.90061633333333, "is_disabled": 0, "lon": -77.0277315, "fusion_lat": 0.0, "rental_uris": {"ios": "https://dc.lft.to/lastmile_qr_scan", "android": "https://dc.lft.to/lastmile_qr_scan"}, "type": "electric_scooter"}, {"name": "7ba6af5d828bfaae3da16d78abf28122", "is_reserved": 0, "fusion_lon": 0.0, "bike_id": "7ba6af5d828bfaae3da16d78abf28122", "lat": 38.953046666666665, "is_disabled": 0, "lon": -77.0191285, "fusion_lat": 0.0, "rental_uris": {"ios": "https://dc.lft.to/lastmile_qr_scan", "android": "https://dc.lft.to/lastmile_qr_scan"}, "type": "electric_bike"}, {"name": "e96e38ccc4eb85d738fbe2191340dbe1", "is_reserved": 0, "fusion_lon": 0.0, "bike_id": "e96e38ccc4eb85d738fbe2191340dbe1", "lat": 38.88965233333333, "is_disabled": 0, "lon": -76.92729783333333, "fusion_lat": 0.0, "rental_uris": {"ios": "https://dc.lft.to/lastmile_qr_scan", "android": "https://dc.lft.to/lastmile_qr_scan"}, "type": "electric_scooter"}, {"name": "ec34df55b182fb6a281549f3d56608d6", "is_reserved": 0, "fusion_lon": 0.0, "bike_id": "ec34df55b182fb6a281549f3d56608d6", "lat": 38.902604, "is_disabled": 0, "lon": -76.99517083333333, "fusion_lat": 0.0, "rental_uris": {"ios": "https://dc.lft.to/lastmile_qr_scan", "android": "https://dc.lft.to/lastmile_qr_scan"}, "type": "electric_scooter"}, {"name": "445f7e1151bd6c6a0fea0989d4b2d99e", "is_reserved": 0, "fusion_lon": 0.0, "bike_id": "445f7e1151bd6c6a0fea0989d4b2d99e", "lat": 38.915561833333335, "is_disabled": 0, "lon": -77.03214433333333, "fusion_lat": 0.0, "rental_uris": {"ios": "https://dc.lft.to/lastmile_qr_scan", "android": "https://dc.lft.to/lastmile_qr_scan"}, "type": "electric_scooter"}, {"name": "32c8993bdd9e33ecf86317361e9d9a56", "is_reserved": 0, "fusion_lon": 0.0, "bike_id": "32c8993bdd9e33ecf86317361e9d9a56", "lat": 38.83030433333333, "is_disabled": 0, "lon": -77.0083285, "fusion_lat": 0.0, "rental_uris": {"ios": "https://dc.lft.to/lastmile_qr_scan", "android": "https://dc.lft.to/lastmile_qr_scan"}, "type": "electric_bike"}, {"name": "a5d9487419399ff20abe5e02c6adf04a", "is_reserved": 0, "fusion_lon": 0.0, "bike_id": "a5d9487419399ff20abe5e02c6adf04a", "lat": 38.92157, "is_disabled": 0, "lon": -77.0251525, "fusion_lat": 0.0, "rental_uris": {"ios": "https://dc.lft.to/lastmile_qr_scan", "android": "https://dc.lft.to/lastmile_qr_scan"}, "type": "electric_scooter"}, {"name": "6433f140457451a94b9e332915a30b5f", "is_reserved": 0, "fusion_lon": 0.0, "bike_id": "6433f140457451a94b9e332915a30b5f", "lat": 38.89819816666667, "is_disabled": 0, "lon": -77.04803033333333, "fusion_lat": 0.0, "rental_uris": {"ios": "https://dc.lft.to/lastmile_qr_scan", "android": "https://dc.lft.to/lastmile_qr_scan"}, "type": "electric_scooter"}, {"name": "f6ce284ca801348eec0ca2a856048dcf", "is_reserved": 0, "fusion_lon": 0.0, "bike_id": "f6ce284ca801348eec0ca2a856048dcf", "lat": 38.890914333333335, "is_disabled": 0, "lon": -76.98825416666666, "fusion_lat": 0.0, "rental_uris": {"ios": "https://dc.lft.to/lastmile_qr_scan", "android": "https://dc.lft.to/lastmile_qr_scan"}, "type": "electric_scooter"}, {"name": "2aba104089ea54b48a2a5ef235e61025", "is_reserved": 0, "fusion_lon": 0.0, "bike_id": "2aba104089ea54b48a2a5ef235e61025", "lat": 38.92411366666666, "is_disabled": 0, "lon": -77.02130333333334, "fusion_lat": 0.0, "rental_uris": {"ios": "https://dc.lft.to/lastmile_qr_scan", "android": "https://dc.lft.to/lastmile_qr_scan"}, "type": "electric_scooter"}, {"name": "8b59a22bdda19caf113e42ce01f6a125", "is_reserved": 0, "fusion_lon": 0.0, "bike_id": "8b59a22bdda19caf113e42ce01f6a125", "lat": 38.846694166666666, "is_disabled": 0, "lon": -77.13929466666667, "fusion_lat": 0.0, "rental_uris": {"ios": "https://dc.lft.to/lastmile_qr_scan", "android": "https://dc.lft.to/lastmile_qr_scan"}, "type": "electric_bike"}, {"name": "800ae60c846167245b152a3e7c99936c", "is_reserved": 0, "fusion_lon": 0.0, "bike_id": "800ae60c846167245b152a3e7c99936c", "lat": 38.894524833333335, "is_disabled": 0, "lon": -77.04657283333333, "fusion_lat": 0.0, "rental_uris": {"ios": "https://dc.lft.to/lastmile_qr_scan", "android": "https://dc.lft.to/lastmile_qr_scan"}, "type": "electric_scooter"}, {"name": "05eaec3818b7be89cc6c1901507d8975", "is_reserved": 0, "fusion_lon": 0.0, "bike_id": "05eaec3818b7be89cc6c1901507d8975", "lat": 38.91465933333333, "is_disabled": 0, "lon": -76.981099, "fusion_lat": 0.0, "rental_uris": {"ios": "https://dc.lft.to/lastmile_qr_scan", "android": "https://dc.lft.to/lastmile_qr_scan"}, "type": "electric_scooter"}, {"name": "0f1c75e04a52ba8c2b369b434be15e14", "is_reserved": 0, "fusion_lon": 0.0, "bike_id": "0f1c75e04a52ba8c2b369b434be15e14", "lat": 38.893690166666666, "is_disabled": 0, "lon": -77.03955616666667, "fusion_lat": 0.0, "rental_uris": {"ios": "https://dc.lft.to/lastmile_qr_scan", "android": "https://dc.lft.to/lastmile_qr_scan"}, "type": "electric_scooter"}, {"name": "6233663361532dfdd13bb73c196165b8", "is_reserved": 0, "fusion_lon": 0.0, "bike_id": "6233663361532dfdd13bb73c196165b8", "lat": 38.886340833333335, "is_disabled": 0, "lon": -76.98208866666667, "fusion_lat": 0.0, "rental_uris": {"ios": "https://dc.lft.to/lastmile_qr_scan", "android": "https://dc.lft.to/lastmile_qr_scan"}, "type": "electric_scooter"}, {"name": "c82b1df36886fb56f1bcaa8dc8d987f4", "is_reserved": 0, "fusion_lon": 0.0, "bike_id": "c82b1df36886fb56f1bcaa8dc8d987f4", "lat": 38.89370433333333, "is_disabled": 0, "lon": -77.01553066666666, "fusion_lat": 0.0, "rental_uris": {"ios": "https://dc.lft.to/lastmile_qr_scan", "android": "https://dc.lft.to/lastmile_qr_scan"}, "type": "electric_scooter"}, {"name": "2394e31112311cb642e78387017f9d4e", "is_reserved": 0, "fusion_lon": 0.0, "bike_id": "2394e31112311cb642e78387017f9d4e", "lat": 38.910030666666664, "is_disabled": 0, "lon": -76.99392833333333, "fusion_lat": 0.0, "rental_uris": {"ios": "https://dc.lft.to/lastmile_qr_scan", "android": "https://dc.lft.to/lastmile_qr_scan"}, "type": "electric_scooter"}, {"name": "5f036202a4c3c12546c0c59009251a99", "is_reserved": 0, "fusion_lon": 0.0, "bike_id": "5f036202a4c3c12546c0c59009251a99", "lat": 38.902417166666666, "is_disabled": 0, "lon": -77.03949766666666, "fusion_lat": 0.0, "rental_uris": {"ios": "https://dc.lft.to/lastmile_qr_scan", "android": "https://dc.lft.to/lastmile_qr_scan"}, "type": "electric_scooter"}, {"name": "e2359fc125dbd8b984deb46b234b14ec", "is_reserved": 0, "fusion_lon": 0.0, "bike_id": "e2359fc125dbd8b984deb46b234b14ec", "lat": 38.922443333333334, "is_disabled": 0, "lon": -77.021307, "fusion_lat": 0.0, "rental_uris": {"ios": "https://dc.lft.to/lastmile_qr_scan", "android": "https://dc.lft.to/lastmile_qr_scan"}, "type": "electric_scooter"}, {"name": "74c84b246ef0ab099e54926d6d46c15a", "is_reserved": 0, "fusion_lon": 0.0, "bike_id": "74c84b246ef0ab099e54926d6d46c15a", "lat": 38.88655966666666, "is_disabled": 0, "lon": -76.93717283333334, "fusion_lat": 0.0, "rental_uris": {"ios": "https://dc.lft.to/lastmile_qr_scan", "android": "https://dc.lft.to/lastmile_qr_scan"}, "type": "electric_scooter"}, {"name": "ad67341adbdd732e3effec53c9056ca6", "is_reserved": 0, "fusion_lon": 0.0, "bike_id": "ad67341adbdd732e3effec53c9056ca6", "lat": 38.92246433333333, "is_disabled": 0, "lon": -77.01947733333333, "fusion_lat": 0.0, "rental_uris": {"ios": "https://dc.lft.to/lastmile_qr_scan", "android": "https://dc.lft.to/lastmile_qr_scan"}, "type": "electric_scooter"}, {"name": "9e925d01ec32cd0273dbbaa9b2df06c8", "is_reserved": 0, "fusion_lon": 0.0, "bike_id": "9e925d01ec32cd0273dbbaa9b2df06c8", "lat": 38.895526833333335, "is_disabled": 0, "lon": -77.00919133333333, "fusion_lat": 0.0, "rental_uris": {"ios": "https://dc.lft.to/lastmile_qr_scan", "android": "https://dc.lft.to/lastmile_qr_scan"}, "type": "electric_scooter"}, {"name": "fc96a64c1b40c26e942b043b119b4136", "is_reserved": 0, "fusion_lon": 0.0, "bike_id": "fc96a64c1b40c26e942b043b119b4136", "lat": 38.91557566666667, "is_disabled": 0, "lon": -77.0198205, "fusion_lat": 0.0, "rental_uris": {"ios": "https://dc.lft.to/lastmile_qr_scan", "android": "https://dc.lft.to/lastmile_qr_scan"}, "type": "electric_scooter"}, {"name": "a185184dbb0533b18e2d83301c35c38a", "is_reserved": 0, "fusion_lon": 0.0, "bike_id": "a185184dbb0533b18e2d83301c35c38a", "lat": 38.892286, "is_disabled": 0, "lon": -77.04357616666667, "fusion_lat": 0.0, "rental_uris": {"ios": "https://dc.lft.to/lastmile_qr_scan", "android": "https://dc.lft.to/lastmile_qr_scan"}, "type": "electric_scooter"}, {"name": "590bb273cdcf3cb77dd4b4d8bb0a50b3", "is_reserved": 0, "fusion_lon": 0.0, "bike_id": "590bb273cdcf3cb77dd4b4d8bb0a50b3", "lat": 38.91706216666667, "is_disabled": 0, "lon": -77.040874, "fusion_lat": 0.0, "rental_uris": {"ios": "https://dc.lft.to/lastmile_qr_scan", "android": "https://dc.lft.to/lastmile_qr_scan"}, "type": "electric_scooter"}, {"name": "6595484792428c5cc6a0a3849648e68b", "is_reserved": 0, "fusion_lon": 0.0, "bike_id": "6595484792428c5cc6a0a3849648e68b", "lat": 38.96788, "is_disabled": 0, "lon": -77.02432583333334, "fusion_lat": 0.0, "rental_uris": {"ios": "https://dc.lft.to/lastmile_qr_scan", "android": "https://dc.lft.to/lastmile_qr_scan"}, "type": "electric_scooter"}, {"name": "75775204bc94d51b891f9a44c101ab1a", "is_reserved": 0, "fusion_lon": 0.0, "bike_id": "75775204bc94d51b891f9a44c101ab1a", "lat": 38.909638, "is_disabled": 0, "lon": -77.024302, "fusion_lat": 0.0, "rental_uris": {"ios": "https://dc.lft.to/lastmile_qr_scan", "android": "https://dc.lft.to/lastmile_qr_scan"}, "type": "electric_scooter"}, {"name": "71b5688b6da2706b4eab338e5cf3d576", "is_reserved": 0, "fusion_lon": 0.0, "bike_id": "71b5688b6da2706b4eab338e5cf3d576", "lat": 38.921851333333336, "is_disabled": 0, "lon": -77.04230716666666, "fusion_lat": 0.0, "rental_uris": {"ios": "https://dc.lft.to/lastmile_qr_scan", "android": "https://dc.lft.to/lastmile_qr_scan"}, "type": "electric_scooter"}, {"name": "4607bf33501adbf76a1ea2e2ea588f87", "is_reserved": 0, "fusion_lon": 0.0, "bike_id": "4607bf33501adbf76a1ea2e2ea588f87", "lat": 38.899104666666666, "is_disabled": 0, "lon": -77.02171633333333, "fusion_lat": 0.0, "rental_uris": {"ios": "https://dc.lft.to/lastmile_qr_scan", "android": "https://dc.lft.to/lastmile_qr_scan"}, "type": "electric_scooter"}, {"name": "4db7e327c7f8b927ad2aa07e39002943", "is_reserved": 0, "fusion_lon": 0.0, "bike_id": "4db7e327c7f8b927ad2aa07e39002943", "lat": 38.94562833333333, "is_disabled": 0, "lon": -76.98111716666666, "fusion_lat": 0.0, "rental_uris": {"ios": "https://dc.lft.to/lastmile_qr_scan", "android": "https://dc.lft.to/lastmile_qr_scan"}, "type": "electric_bike"}, {"name": "0a153fc6e8834371432d7bb5e01cb1c6", "is_reserved": 0, "fusion_lon": 0.0, "bike_id": "0a153fc6e8834371432d7bb5e01cb1c6", "lat": 38.92040516666667, "is_disabled": 0, "lon": -77.03877466666667, "fusion_lat": 0.0, "rental_uris": {"ios": "https://dc.lft.to/lastmile_qr_scan", "android": "https://dc.lft.to/lastmile_qr_scan"}, "type": "electric_scooter"}, {"name": "38c50e2b22f45c1877b6a7ba109a4fcd", "is_reserved": 0, "fusion_lon": 0.0, "bike_id": "38c50e2b22f45c1877b6a7ba109a4fcd", "lat": 38.944892833333334, "is_disabled": 0, "lon": -77.028426, "fusion_lat": 0.0, "rental_uris": {"ios": "https://dc.lft.to/lastmile_qr_scan", "android": "https://dc.lft.to/lastmile_qr_scan"}, "type": "electric_scooter"}, {"name": "c66357d78121b4d490b3f7e89818f4b3", "is_reserved": 0, "fusion_lon": 0.0, "bike_id": "c66357d78121b4d490b3f7e89818f4b3", "lat": 38.92418166666667, "is_disabled": 0, "lon": -77.01947033333333, "fusion_lat": 0.0, "rental_uris": {"ios": "https://dc.lft.to/lastmile_qr_scan", "android": "https://dc.lft.to/lastmile_qr_scan"}, "type": "electric_scooter"}, {"name": "db4512692a331ea1dc9aa98356e37806", "is_reserved": 0, "fusion_lon": 0.0, "bike_id": "db4512692a331ea1dc9aa98356e37806", "lat": 38.890291, "is_disabled": 0, "lon": -76.94460016666666, "fusion_lat": 0.0, "rental_uris": {"ios": "https://dc.lft.to/lastmile_qr_scan", "android": "https://dc.lft.to/lastmile_qr_scan"}, "type": "electric_scooter"}, {"name": "d18d1dc1e9b6b61b3408d45a7a18c971", "is_reserved": 0, "fusion_lon": 0.0, "bike_id": "d18d1dc1e9b6b61b3408d45a7a18c971", "lat": 38.92609566666667, "is_disabled": 0, "lon": -77.02159883333333, "fusion_lat": 0.0, "rental_uris": {"ios": "https://dc.lft.to/lastmile_qr_scan", "android": "https://dc.lft.to/lastmile_qr_scan"}, "type": "electric_scooter"}, {"name": "233cd22003b5564aac542f31459d3909", "is_reserved": 0, "fusion_lon": 0.0, "bike_id": "233cd22003b5564aac542f31459d3909", "lat": 38.8193755, "is_disabled": 0, "lon": -77.002018, "fusion_lat": 0.0, "rental_uris": {"ios": "https://dc.lft.to/lastmile_qr_scan", "android": "https://dc.lft.to/lastmile_qr_scan"}, "type": "electric_bike"}, {"name": "2db57520c0e97e02617338fc7d0e8ca7", "is_reserved": 0, "fusion_lon": 0.0, "bike_id": "2db57520c0e97e02617338fc7d0e8ca7", "lat": 38.894684, "is_disabled": 0, "lon": -77.01980033333334, "fusion_lat": 0.0, "rental_uris": {"ios": "https://dc.lft.to/lastmile_qr_scan", "android": "https://dc.lft.to/lastmile_qr_scan"}, "type": "electric_scooter"}, {"name": "e4f79420db43e22b9a94c756f3d0e12e", "is_reserved": 0, "fusion_lon": 0.0, "bike_id": "e4f79420db43e22b9a94c756f3d0e12e", "lat": 38.9168815, "is_disabled": 0, "lon": -77.02709, "fusion_lat": 0.0, "rental_uris": {"ios": "https://dc.lft.to/lastmile_qr_scan", "android": "https://dc.lft.to/lastmile_qr_scan"}, "type": "electric_scooter"}, {"name": "6991d6b9d34018442a70f88f16014921", "is_reserved": 0, "fusion_lon": 0.0, "bike_id": "6991d6b9d34018442a70f88f16014921", "lat": 38.90212866666667, "is_disabled": 0, "lon": -77.04805733333333, "fusion_lat": 0.0, "rental_uris": {"ios": "https://dc.lft.to/lastmile_qr_scan", "android": "https://dc.lft.to/lastmile_qr_scan"}, "type": "electric_scooter"}, {"name": "9cb7e74df5d55ba7bfc3959f31a70101", "is_reserved": 0, "fusion_lon": 0.0, "bike_id": "9cb7e74df5d55ba7bfc3959f31a70101", "lat": 38.922054, "is_disabled": 0, "lon": -77.0424955, "fusion_lat": 0.0, "rental_uris": {"ios": "https://dc.lft.to/lastmile_qr_scan", "android": "https://dc.lft.to/lastmile_qr_scan"}, "type": "electric_scooter"}, {"name": "b8f361dca6fd3aa3cdbeb6830910e6ac", "is_reserved": 0, "fusion_lon": 0.0, "bike_id": "b8f361dca6fd3aa3cdbeb6830910e6ac", "lat": 38.89973783333333, "is_disabled": 0, "lon": -77.02645, "fusion_lat": 0.0, "rental_uris": {"ios": "https://dc.lft.to/lastmile_qr_scan", "android": "https://dc.lft.to/lastmile_qr_scan"}, "type": "electric_scooter"}, {"name": "df842f71080c97795fc45005b9daa079", "is_reserved": 0, "fusion_lon": 0.0, "bike_id": "df842f71080c97795fc45005b9daa079", "lat": 38.93198316666667, "is_disabled": 0, "lon": -77.018769, "fusion_lat": 0.0, "rental_uris": {"ios": "https://dc.lft.to/lastmile_qr_scan", "android": "https://dc.lft.to/lastmile_qr_scan"}, "type": "electric_scooter"}, {"name": "15fdaba0dae69ccc0fd01e53ff130c80", "is_reserved": 0, "fusion_lon": 0.0, "bike_id": "15fdaba0dae69ccc0fd01e53ff130c80", "lat": 38.9216655, "is_disabled": 0, "lon": -77.02668083333333, "fusion_lat": 0.0, "rental_uris": {"ios": "https://dc.lft.to/lastmile_qr_scan", "android": "https://dc.lft.to/lastmile_qr_scan"}, "type": "electric_scooter"}, {"name": "6b4dc6e75d5f6bcf83f976040dcf8e91", "is_reserved": 0, "fusion_lon": 0.0, "bike_id": "6b4dc6e75d5f6bcf83f976040dcf8e91", "lat": 38.9248995, "is_disabled": 0, "lon": -77.04335833333333, "fusion_lat": 0.0, "rental_uris": {"ios": "https://dc.lft.to/lastmile_qr_scan", "android": "https://dc.lft.to/lastmile_qr_scan"}, "type": "electric_scooter"}, {"name": "89afcfef109ace6b6e3a54b1aa1587bf", "is_reserved": 0, "fusion_lon": 0.0, "bike_id": "89afcfef109ace6b6e3a54b1aa1587bf", "lat": 38.894607, "is_disabled": 0, "lon": -77.04656583333333, "fusion_lat": 0.0, "rental_uris": {"ios": "https://dc.lft.to/lastmile_qr_scan", "android": "https://dc.lft.to/lastmile_qr_scan"}, "type": "electric_scooter"}, {"name": "2922104b6ca12a9bdfbed64c0db26487", "is_reserved": 0, "fusion_lon": 0.0, "bike_id": "2922104b6ca12a9bdfbed64c0db26487", "lat": 38.901116333333334, "is_disabled": 0, "lon": -77.04984466666667, "fusion_lat": 0.0, "rental_uris": {"ios": "https://dc.lft.to/lastmile_qr_scan", "android": "https://dc.lft.to/lastmile_qr_scan"}, "type": "electric_scooter"}, {"name": "5b28ff33148d6946409698456852f5da", "is_reserved": 0, "fusion_lon": 0.0, "bike_id": "5b28ff33148d6946409698456852f5da", "lat": 38.900425, "is_disabled": 0, "lon": -77.001969, "fusion_lat": 0.0, "rental_uris": {"ios": "https://dc.lft.to/lastmile_qr_scan", "android": "https://dc.lft.to/lastmile_qr_scan"}, "type": "electric_scooter"}, {"name": "ad1c5512317562a427b00b35b0f74d00", "is_reserved": 0, "fusion_lon": 0.0, "bike_id": "ad1c5512317562a427b00b35b0f74d00", "lat": 38.892156666666665, "is_disabled": 0, "lon": -77.02535166666667, "fusion_lat": 0.0, "rental_uris": {"ios": "https://dc.lft.to/lastmile_qr_scan", "android": "https://dc.lft.to/lastmile_qr_scan"}, "type": "electric_scooter"}, {"name": "3b25570949a4beee3f3204710a77efb8", "is_reserved": 0, "fusion_lon": 0.0, "bike_id": "3b25570949a4beee3f3204710a77efb8", "lat": 38.91914216666667, "is_disabled": 0, "lon": -77.031027, "fusion_lat": 0.0, "rental_uris": {"ios": "https://dc.lft.to/lastmile_qr_scan", "android": "https://dc.lft.to/lastmile_qr_scan"}, "type": "electric_scooter"}, {"name": "5925650918297fb649d00433f7a0e909", "is_reserved": 0, "fusion_lon": 0.0, "bike_id": "5925650918297fb649d00433f7a0e909", "lat": 38.92363833333334, "is_disabled": 0, "lon": -77.01957516666667, "fusion_lat": 0.0, "rental_uris": {"ios": "https://dc.lft.to/lastmile_qr_scan", "android": "https://dc.lft.to/lastmile_qr_scan"}, "type": "electric_scooter"}, {"name": "03c8d34f306fdc8ff599e8d23e49e422", "is_reserved": 0, "fusion_lon": 0.0, "bike_id": "03c8d34f306fdc8ff599e8d23e49e422", "lat": 38.894976666666665, "is_disabled": 0, "lon": -77.009472, "fusion_lat": 0.0, "rental_uris": {"ios": "https://dc.lft.to/lastmile_qr_scan", "android": "https://dc.lft.to/lastmile_qr_scan"}, "type": "electric_scooter"}, {"name": "1f53c929cf05df440801d6f720858940", "is_reserved": 0, "fusion_lon": 0.0, "bike_id": "1f53c929cf05df440801d6f720858940", "lat": 38.925019166666665, "is_disabled": 0, "lon": -77.025702, "fusion_lat": 0.0, "rental_uris": {"ios": "https://dc.lft.to/lastmile_qr_scan", "android": "https://dc.lft.to/lastmile_qr_scan"}, "type": "electric_scooter"}, {"name": "9f1811fd0af6293f02bd4761025566ec", "is_reserved": 0, "fusion_lon": 0.0, "bike_id": "9f1811fd0af6293f02bd4761025566ec", "lat": 38.92119233333333, "is_disabled": 0, "lon": -77.0365585, "fusion_lat": 0.0, "rental_uris": {"ios": "https://dc.lft.to/lastmile_qr_scan", "android": "https://dc.lft.to/lastmile_qr_scan"}, "type": "electric_scooter"}, {"name": "87b665dfa2759960bb1528a40b53adc3", "is_reserved": 0, "fusion_lon": 0.0, "bike_id": "87b665dfa2759960bb1528a40b53adc3", "lat": 38.90412, "is_disabled": 0, "lon": -77.040394, "fusion_lat": 0.0, "rental_uris": {"ios": "https://dc.lft.to/lastmile_qr_scan", "android": "https://dc.lft.to/lastmile_qr_scan"}, "type": "electric_scooter"}, {"name": "d5a8b6672a3ed7d237509069bc3dc59a", "is_reserved": 0, "fusion_lon": 0.0, "bike_id": "d5a8b6672a3ed7d237509069bc3dc59a", "lat": 38.913179666666665, "is_disabled": 0, "lon": -77.031858, "fusion_lat": 0.0, "rental_uris": {"ios": "https://dc.lft.to/lastmile_qr_scan", "android": "https://dc.lft.to/lastmile_qr_scan"}, "type": "electric_scooter"}, {"name": "79156c2bc1b97d4ebaebc92f544149cd", "is_reserved": 0, "fusion_lon": 0.0, "bike_id": "79156c2bc1b97d4ebaebc92f544149cd", "lat": 38.90007666666666, "is_disabled": 0, "lon": -77.00677316666666, "fusion_lat": 0.0, "rental_uris": {"ios": "https://dc.lft.to/lastmile_qr_scan", "android": "https://dc.lft.to/lastmile_qr_scan"}, "type": "electric_scooter"}, {"name": "6c2a546b5b31dee41902a6b89fdf6e82", "is_reserved": 0, "fusion_lon": 0.0, "bike_id": "6c2a546b5b31dee41902a6b89fdf6e82", "lat": 38.90206383333334, "is_disabled": 0, "lon": -77.05028733333333, "fusion_lat": 0.0, "rental_uris": {"ios": "https://dc.lft.to/lastmile_qr_scan", "android": "https://dc.lft.to/lastmile_qr_scan"}, "type": "electric_scooter"}, {"name": "a3a9c4970a56e1b3700719bcb915df82", "is_reserved": 0, "fusion_lon": 0.0, "bike_id": "a3a9c4970a56e1b3700719bcb915df82", "lat": 38.89471433333333, "is_disabled": 0, "lon": -77.01382716666667, "fusion_lat": 0.0, "rental_uris": {"ios": "https://dc.lft.to/lastmile_qr_scan", "android": "https://dc.lft.to/lastmile_qr_scan"}, "type": "electric_scooter"}, {"name": "b2f39fb6fe12cab12e872576e85217f6", "is_reserved": 0, "fusion_lon": 0.0, "bike_id": "b2f39fb6fe12cab12e872576e85217f6", "lat": 38.897452, "is_disabled": 0, "lon": -77.0033895, "fusion_lat": 0.0, "rental_uris": {"ios": "https://dc.lft.to/lastmile_qr_scan", "android": "https://dc.lft.to/lastmile_qr_scan"}, "type": "electric_scooter"}, {"name": "d57b189591515d7c39b04bdf7333bad4", "is_reserved": 0, "fusion_lon": 0.0, "bike_id": "d57b189591515d7c39b04bdf7333bad4", "lat": 38.909521833333336, "is_disabled": 0, "lon": -77.04630133333333, "fusion_lat": 0.0, "rental_uris": {"ios": "https://dc.lft.to/lastmile_qr_scan", "android": "https://dc.lft.to/lastmile_qr_scan"}, "type": "electric_scooter"}, {"name": "edbec7f24f513bb35d6c3fd02ce1db15", "is_reserved": 0, "fusion_lon": 0.0, "bike_id": "edbec7f24f513bb35d6c3fd02ce1db15", "lat": 38.89949566666667, "is_disabled": 0, "lon": -77.01603566666667, "fusion_lat": 0.0, "rental_uris": {"ios": "https://dc.lft.to/lastmile_qr_scan", "android": "https://dc.lft.to/lastmile_qr_scan"}, "type": "electric_scooter"}, {"name": "30b2a45834eaf4040616e90f108d89f5", "is_reserved": 0, "fusion_lon": 0.0, "bike_id": "30b2a45834eaf4040616e90f108d89f5", "lat": 38.902643, "is_disabled": 0, "lon": -77.04399883333333, "fusion_lat": 0.0, "rental_uris": {"ios": "https://dc.lft.to/lastmile_qr_scan", "android": "https://dc.lft.to/lastmile_qr_scan"}, "type": "electric_scooter"}, {"name": "725b2f522109ecf1da5ae07df65506db", "is_reserved": 0, "fusion_lon": 0.0, "bike_id": "725b2f522109ecf1da5ae07df65506db", "lat": 38.89553883333333, "is_disabled": 0, "lon": -76.93062383333333, "fusion_lat": 0.0, "rental_uris": {"ios": "https://dc.lft.to/lastmile_qr_scan", "android": "https://dc.lft.to/lastmile_qr_scan"}, "type": "electric_scooter"}, {"name": "d4e54d65002f0d67265d18d7edfb3c63", "is_reserved": 0, "fusion_lon": 0.0, "bike_id": "d4e54d65002f0d67265d18d7edfb3c63", "lat": 38.90356033333333, "is_disabled": 0, "lon": -77.0219425, "fusion_lat": 0.0, "rental_uris": {"ios": "https://dc.lft.to/lastmile_qr_scan", "android": "https://dc.lft.to/lastmile_qr_scan"}, "type": "electric_scooter"}, {"name": "709fb9acaf59a3ff79b1818170718dad", "is_reserved": 0, "fusion_lon": 0.0, "bike_id": "709fb9acaf59a3ff79b1818170718dad", "lat": 38.92266, "is_disabled": 0, "lon": -77.018249, "fusion_lat": 0.0, "rental_uris": {"ios": "https://dc.lft.to/lastmile_qr_scan", "android": "https://dc.lft.to/lastmile_qr_scan"}, "type": "electric_scooter"}, {"name": "05c8f29b77b44d236b0d0ce1be1364b3", "is_reserved": 0, "fusion_lon": 0.0, "bike_id": "05c8f29b77b44d236b0d0ce1be1364b3", "lat": 38.93396466666667, "is_disabled": 0, "lon": -77.05741566666667, "fusion_lat": 0.0, "rental_uris": {"ios": "https://dc.lft.to/lastmile_qr_scan", "android": "https://dc.lft.to/lastmile_qr_scan"}, "type": "electric_scooter"}, {"name": "cb943d1f752ed1010ff93b8d8b11f6e7", "is_reserved": 0, "fusion_lon": 0.0, "bike_id": "cb943d1f752ed1010ff93b8d8b11f6e7", "lat": 38.92897466666667, "is_disabled": 0, "lon": -77.022899, "fusion_lat": 0.0, "rental_uris": {"ios": "https://dc.lft.to/lastmile_qr_scan", "android": "https://dc.lft.to/lastmile_qr_scan"}, "type": "electric_scooter"}, {"name": "7719395c055afc84e04be4fb42c66c47", "is_reserved": 0, "fusion_lon": 0.0, "bike_id": "7719395c055afc84e04be4fb42c66c47", "lat": 38.9234665, "is_disabled": 0, "lon": -77.043942, "fusion_lat": 0.0, "rental_uris": {"ios": "https://dc.lft.to/lastmile_qr_scan", "android": "https://dc.lft.to/lastmile_qr_scan"}, "type": "electric_scooter"}, {"name": "f8945fc93533354efba6c9f7fb30c933", "is_reserved": 0, "fusion_lon": 0.0, "bike_id": "f8945fc93533354efba6c9f7fb30c933", "lat": 38.923269, "is_disabled": 0, "lon": -77.05740716666666, "fusion_lat": 0.0, "rental_uris": {"ios": "https://dc.lft.to/lastmile_qr_scan", "android": "https://dc.lft.to/lastmile_qr_scan"}, "type": "electric_scooter"}, {"name": "3f4282112119a7fad71c633f6eb7423e", "is_reserved": 0, "fusion_lon": 0.0, "bike_id": "3f4282112119a7fad71c633f6eb7423e", "lat": 38.94602966666667, "is_disabled": 0, "lon": -77.03282883333334, "fusion_lat": 0.0, "rental_uris": {"ios": "https://dc.lft.to/lastmile_qr_scan", "android": "https://dc.lft.to/lastmile_qr_scan"}, "type": "electric_scooter"}, {"name": "c362168678169e0943328f6cc6489e6d", "is_reserved": 0, "fusion_lon": 0.0, "bike_id": "c362168678169e0943328f6cc6489e6d", "lat": 38.90567383333333, "is_disabled": 0, "lon": -77.062845, "fusion_lat": 0.0, "rental_uris": {"ios": "https://dc.lft.to/lastmile_qr_scan", "android": "https://dc.lft.to/lastmile_qr_scan"}, "type": "electric_bike"}, {"name": "c41b97062604dedbe58999f35791402e", "is_reserved": 0, "fusion_lon": 0.0, "bike_id": "c41b97062604dedbe58999f35791402e", "lat": 38.81336666666667, "is_disabled": 0, "lon": -77.05084466666666, "fusion_lat": 0.0, "rental_uris": {"ios": "https://dc.lft.to/lastmile_qr_scan", "android": "https://dc.lft.to/lastmile_qr_scan"}, "type": "electric_bike"}, {"name": "86fc4087f2f875448b15d5c64975cddb", "is_reserved": 0, "fusion_lon": 0.0, "bike_id": "86fc4087f2f875448b15d5c64975cddb", "lat": 38.9276465, "is_disabled": 0, "lon": -77.0275795, "fusion_lat": 0.0, "rental_uris": {"ios": "https://dc.lft.to/lastmile_qr_scan", "android": "https://dc.lft.to/lastmile_qr_scan"}, "type": "electric_scooter"}, {"name": "864c5bdf8e1075bfea5490f9024c6752", "is_reserved": 0, "fusion_lon": 0.0, "bike_id": "864c5bdf8e1075bfea5490f9024c6752", "lat": 38.927918166666664, "is_disabled": 0, "lon": -77.22924483333334, "fusion_lat": 0.0, "rental_uris": {"ios": "https://dc.lft.to/lastmile_qr_scan", "android": "https://dc.lft.to/lastmile_qr_scan"}, "type": "electric_bike"}, {"name": "4af13f69c610e401c09258072c11b805", "is_reserved": 0, "fusion_lon": 0.0, "bike_id": "4af13f69c610e401c09258072c11b805", "lat": 38.90032183333334, "is_disabled": 0, "lon": -77.037146, "fusion_lat": 0.0, "rental_uris": {"ios": "https://dc.lft.to/lastmile_qr_scan", "android": "https://dc.lft.to/lastmile_qr_scan"}, "type": "electric_scooter"}, {"name": "86ed5bcd29277d84ff22f4eb8476e3eb", "is_reserved": 0, "fusion_lon": 0.0, "bike_id": "86ed5bcd29277d84ff22f4eb8476e3eb", "lat": 38.92034183333333, "is_disabled": 0, "lon": -77.01672266666667, "fusion_lat": 0.0, "rental_uris": {"ios": "https://dc.lft.to/lastmile_qr_scan", "android": "https://dc.lft.to/lastmile_qr_scan"}, "type": "electric_scooter"}, {"name": "785bd3dd7417e50da2d1ebe5de884f8e", "is_reserved": 0, "fusion_lon": 0.0, "bike_id": "785bd3dd7417e50da2d1ebe5de884f8e", "lat": 38.919621, "is_disabled": 0, "lon": -77.04504466666667, "fusion_lat": 0.0, "rental_uris": {"ios": "https://dc.lft.to/lastmile_qr_scan", "android": "https://dc.lft.to/lastmile_qr_scan"}, "type": "electric_scooter"}, {"name": "20db422507cdd177f94b216c68dc1647", "is_reserved": 0, "fusion_lon": 0.0, "bike_id": "20db422507cdd177f94b216c68dc1647", "lat": 38.9181005, "is_disabled": 0, "lon": -77.03688816666667, "fusion_lat": 0.0, "rental_uris": {"ios": "https://dc.lft.to/lastmile_qr_scan", "android": "https://dc.lft.to/lastmile_qr_scan"}, "type": "electric_scooter"}, {"name": "808302f3afa66e8898f4285353a3ea11", "is_reserved": 0, "fusion_lon": 0.0, "bike_id": "808302f3afa66e8898f4285353a3ea11", "lat": 38.918185, "is_disabled": 0, "lon": -77.03690966666667, "fusion_lat": 0.0, "rental_uris": {"ios": "https://dc.lft.to/lastmile_qr_scan", "android": "https://dc.lft.to/lastmile_qr_scan"}, "type": "electric_scooter"}, {"name": "1879f48c8aa667110680e6406fe9eb95", "is_reserved": 0, "fusion_lon": 0.0, "bike_id": "1879f48c8aa667110680e6406fe9eb95", "lat": 38.89221216666667, "is_disabled": 0, "lon": -77.03169066666666, "fusion_lat": 0.0, "rental_uris": {"ios": "https://dc.lft.to/lastmile_qr_scan", "android": "https://dc.lft.to/lastmile_qr_scan"}, "type": "electric_scooter"}, {"name": "afbb495a7164ebf4f117bff99f0b668c", "is_reserved": 0, "fusion_lon": 0.0, "bike_id": "afbb495a7164ebf4f117bff99f0b668c", "lat": 38.930432833333334, "is_disabled": 0, "lon": -77.032184, "fusion_lat": 0.0, "rental_uris": {"ios": "https://dc.lft.to/lastmile_qr_scan", "android": "https://dc.lft.to/lastmile_qr_scan"}, "type": "electric_scooter"}, {"name": "c8c6cbb8d7529be2be1b6a3b14b71c47", "is_reserved": 0, "fusion_lon": 0.0, "bike_id": "c8c6cbb8d7529be2be1b6a3b14b71c47", "lat": 38.9286155, "is_disabled": 0, "lon": -77.0323835, "fusion_lat": 0.0, "rental_uris": {"ios": "https://dc.lft.to/lastmile_qr_scan", "android": "https://dc.lft.to/lastmile_qr_scan"}, "type": "electric_scooter"}, {"name": "5820584b112e59770969549cd0f998a9", "is_reserved": 0, "fusion_lon": 0.0, "bike_id": "5820584b112e59770969549cd0f998a9", "lat": 38.91687366666667, "is_disabled": 0, "lon": -77.0259145, "fusion_lat": 0.0, "rental_uris": {"ios": "https://dc.lft.to/lastmile_qr_scan", "android": "https://dc.lft.to/lastmile_qr_scan"}, "type": "electric_scooter"}, {"name": "ac731c8bde65101b5676b7ff5262526e", "is_reserved": 0, "fusion_lon": 0.0, "bike_id": "ac731c8bde65101b5676b7ff5262526e", "lat": 38.927425, "is_disabled": 0, "lon": -77.02217816666666, "fusion_lat": 0.0, "rental_uris": {"ios": "https://dc.lft.to/lastmile_qr_scan", "android": "https://dc.lft.to/lastmile_qr_scan"}, "type": "electric_scooter"}, {"name": "ca4897a9a1ad49a0847eec44ccfaf503", "is_reserved": 0, "fusion_lon": 0.0, "bike_id": "ca4897a9a1ad49a0847eec44ccfaf503", "lat": 38.92038183333333, "is_disabled": 0, "lon": -77.01677233333334, "fusion_lat": 0.0, "rental_uris": {"ios": "https://dc.lft.to/lastmile_qr_scan", "android": "https://dc.lft.to/lastmile_qr_scan"}, "type": "electric_scooter"}, {"name": "ace5320803812237676a06ccab9421e6", "is_reserved": 0, "fusion_lon": 0.0, "bike_id": "ace5320803812237676a06ccab9421e6", "lat": 38.92822616666667, "is_disabled": 0, "lon": -77.0314345, "fusion_lat": 0.0, "rental_uris": {"ios": "https://dc.lft.to/lastmile_qr_scan", "android": "https://dc.lft.to/lastmile_qr_scan"}, "type": "electric_scooter"}, {"name": "dc498d968107c3017ae9c2a224f9f01e", "is_reserved": 0, "fusion_lon": 0.0, "bike_id": "dc498d968107c3017ae9c2a224f9f01e", "lat": 38.90707366666667, "is_disabled": 0, "lon": -77.02801233333334, "fusion_lat": 0.0, "rental_uris": {"ios": "https://dc.lft.to/lastmile_qr_scan", "android": "https://dc.lft.to/lastmile_qr_scan"}, "type": "electric_scooter"}, {"name": "e33a801cd329d3cba9223a0313ddb0c5", "is_reserved": 0, "fusion_lon": 0.0, "bike_id": "e33a801cd329d3cba9223a0313ddb0c5", "lat": 38.92455733333333, "is_disabled": 0, "lon": -77.057516, "fusion_lat": 0.0, "rental_uris": {"ios": "https://dc.lft.to/lastmile_qr_scan", "android": "https://dc.lft.to/lastmile_qr_scan"}, "type": "electric_scooter"}, {"name": "62f7819765fcfdc9c881455bc582d5db", "is_reserved": 0, "fusion_lon": 0.0, "bike_id": "62f7819765fcfdc9c881455bc582d5db", "lat": 38.9012945, "is_disabled": 0, "lon": -77.03208666666667, "fusion_lat": 0.0, "rental_uris": {"ios": "https://dc.lft.to/lastmile_qr_scan", "android": "https://dc.lft.to/lastmile_qr_scan"}, "type": "electric_scooter"}, {"name": "b27cb68eed77da8f5b52c855c0d6765b", "is_reserved": 0, "fusion_lon": 0.0, "bike_id": "b27cb68eed77da8f5b52c855c0d6765b", "lat": 38.90087483333333, "is_disabled": 0, "lon": -76.97680133333333, "fusion_lat": 0.0, "rental_uris": {"ios": "https://dc.lft.to/lastmile_qr_scan", "android": "https://dc.lft.to/lastmile_qr_scan"}, "type": "electric_scooter"}, {"name": "decec498fc08c3c5b3b8d65aa7677b18", "is_reserved": 0, "fusion_lon": 0.0, "bike_id": "decec498fc08c3c5b3b8d65aa7677b18", "lat": 38.860007333333336, "is_disabled": 0, "lon": -76.985157, "fusion_lat": 0.0, "rental_uris": {"ios": "https://dc.lft.to/lastmile_qr_scan", "android": "https://dc.lft.to/lastmile_qr_scan"}, "type": "electric_scooter"}, {"name": "11d6f2f1a2a0b8dfb548a18281b51adc", "is_reserved": 0, "fusion_lon": 0.0, "bike_id": "11d6f2f1a2a0b8dfb548a18281b51adc", "lat": 38.916061, "is_disabled": 0, "lon": -77.0319835, "fusion_lat": 0.0, "rental_uris": {"ios": "https://dc.lft.to/lastmile_qr_scan", "android": "https://dc.lft.to/lastmile_qr_scan"}, "type": "electric_scooter"}, {"name": "6318a2a078dd123065f6e0fa3d10385a", "is_reserved": 0, "fusion_lon": 0.0, "bike_id": "6318a2a078dd123065f6e0fa3d10385a", "lat": 38.918156833333335, "is_disabled": 0, "lon": -77.03444966666666, "fusion_lat": 0.0, "rental_uris": {"ios": "https://dc.lft.to/lastmile_qr_scan", "android": "https://dc.lft.to/lastmile_qr_scan"}, "type": "electric_scooter"}, {"name": "24522161ab841c72956ed00e6da197ff", "is_reserved": 0, "fusion_lon": 0.0, "bike_id": "24522161ab841c72956ed00e6da197ff", "lat": 38.9208415, "is_disabled": 0, "lon": -77.032625, "fusion_lat": 0.0, "rental_uris": {"ios": "https://dc.lft.to/lastmile_qr_scan", "android": "https://dc.lft.to/lastmile_qr_scan"}, "type": "electric_scooter"}, {"name": "7eedacc0ea1522beaf5d41bcc7087038", "is_reserved": 0, "fusion_lon": 0.0, "bike_id": "7eedacc0ea1522beaf5d41bcc7087038", "lat": 38.903634333333336, "is_disabled": 0, "lon": -77.0394585, "fusion_lat": 0.0, "rental_uris": {"ios": "https://dc.lft.to/lastmile_qr_scan", "android": "https://dc.lft.to/lastmile_qr_scan"}, "type": "electric_scooter"}, {"name": "60e6bf3063773b8ae0f1e4e85f8354c8", "is_reserved": 0, "fusion_lon": 0.0, "bike_id": "60e6bf3063773b8ae0f1e4e85f8354c8", "lat": 38.937709, "is_disabled": 0, "lon": -77.02677266666667, "fusion_lat": 0.0, "rental_uris": {"ios": "https://dc.lft.to/lastmile_qr_scan", "android": "https://dc.lft.to/lastmile_qr_scan"}, "type": "electric_scooter"}, {"name": "b1befafca735ec9ef66304d4a537b0d0", "is_reserved": 0, "fusion_lon": 0.0, "bike_id": "b1befafca735ec9ef66304d4a537b0d0", "lat": 38.8738305, "is_disabled": 0, "lon": -77.00127916666666, "fusion_lat": 0.0, "rental_uris": {"ios": "https://dc.lft.to/lastmile_qr_scan", "android": "https://dc.lft.to/lastmile_qr_scan"}, "type": "electric_scooter"}, {"name": "15d4bd77b7fb5c2032da12323178762d", "is_reserved": 0, "fusion_lon": 0.0, "bike_id": "15d4bd77b7fb5c2032da12323178762d", "lat": 38.906101666666665, "is_disabled": 0, "lon": -77.12891516666667, "fusion_lat": 0.0, "rental_uris": {"ios": "https://dc.lft.to/lastmile_qr_scan", "android": "https://dc.lft.to/lastmile_qr_scan"}, "type": "electric_bike"}, {"name": "8cd896fb1fd10b1a5830b3c4cd111259", "is_reserved": 0, "fusion_lon": 0.0, "bike_id": "8cd896fb1fd10b1a5830b3c4cd111259", "lat": 38.91690966666667, "is_disabled": 0, "lon": -77.0376065, "fusion_lat": 0.0, "rental_uris": {"ios": "https://dc.lft.to/lastmile_qr_scan", "android": "https://dc.lft.to/lastmile_qr_scan"}, "type": "electric_scooter"}, {"name": "8b6b885451301f15b57aa1ff091ae6c1", "is_reserved": 0, "fusion_lon": 0.0, "bike_id": "8b6b885451301f15b57aa1ff091ae6c1", "lat": 38.920620166666666, "is_disabled": 0, "lon": -76.970698, "fusion_lat": 0.0, "rental_uris": {"ios": "https://dc.lft.to/lastmile_qr_scan", "android": "https://dc.lft.to/lastmile_qr_scan"}, "type": "electric_bike"}, {"name": "e9f3364746c48d6f1527fb61a7a2572e", "is_reserved": 0, "fusion_lon": 0.0, "bike_id": "e9f3364746c48d6f1527fb61a7a2572e", "lat": 38.8970045, "is_disabled": 0, "lon": -77.0197835, "fusion_lat": 0.0, "rental_uris": {"ios": "https://dc.lft.to/lastmile_qr_scan", "android": "https://dc.lft.to/lastmile_qr_scan"}, "type": "electric_scooter"}, {"name": "3892fa0eb4508146a2bc9fbc5d5cc7a1", "is_reserved": 0, "fusion_lon": 0.0, "bike_id": "3892fa0eb4508146a2bc9fbc5d5cc7a1", "lat": 38.924617166666664, "is_disabled": 0, "lon": -77.0522855, "fusion_lat": 0.0, "rental_uris": {"ios": "https://dc.lft.to/lastmile_qr_scan", "android": "https://dc.lft.to/lastmile_qr_scan"}, "type": "electric_scooter"}, {"name": "5e6a12c5f2380b45234ba6564ab566e5", "is_reserved": 0, "fusion_lon": 0.0, "bike_id": "5e6a12c5f2380b45234ba6564ab566e5", "lat": 38.920558, "is_disabled": 0, "lon": -77.0425925, "fusion_lat": 0.0, "rental_uris": {"ios": "https://dc.lft.to/lastmile_qr_scan", "android": "https://dc.lft.to/lastmile_qr_scan"}, "type": "electric_scooter"}, {"name": "e52ffcc592a73f2aae130a7fc9569445", "is_reserved": 0, "fusion_lon": 0.0, "bike_id": "e52ffcc592a73f2aae130a7fc9569445", "lat": 38.92788483333333, "is_disabled": 0, "lon": -77.03148733333333, "fusion_lat": 0.0, "rental_uris": {"ios": "https://dc.lft.to/lastmile_qr_scan", "android": "https://dc.lft.to/lastmile_qr_scan"}, "type": "electric_scooter"}, {"name": "eef033a643db8cae6305fdf9b8c5a3ca", "is_reserved": 0, "fusion_lon": 0.0, "bike_id": "eef033a643db8cae6305fdf9b8c5a3ca", "lat": 38.89184016666667, "is_disabled": 0, "lon": -77.00287083333333, "fusion_lat": 0.0, "rental_uris": {"ios": "https://dc.lft.to/lastmile_qr_scan", "android": "https://dc.lft.to/lastmile_qr_scan"}, "type": "electric_scooter"}, {"name": "11d18f6448ef7ec094a33b6538c11ce2", "is_reserved": 0, "fusion_lon": 0.0, "bike_id": "11d18f6448ef7ec094a33b6538c11ce2", "lat": 38.900692, "is_disabled": 0, "lon": -77.02709966666667, "fusion_lat": 0.0, "rental_uris": {"ios": "https://dc.lft.to/lastmile_qr_scan", "android": "https://dc.lft.to/lastmile_qr_scan"}, "type": "electric_scooter"}, {"name": "803514ac5d996ea7ba705ba6bec9cb4a", "is_reserved": 0, "fusion_lon": 0.0, "bike_id": "803514ac5d996ea7ba705ba6bec9cb4a", "lat": 38.907205833333336, "is_disabled": 0, "lon": -77.01706283333333, "fusion_lat": 0.0, "rental_uris": {"ios": "https://dc.lft.to/lastmile_qr_scan", "android": "https://dc.lft.to/lastmile_qr_scan"}, "type": "electric_scooter"}, {"name": "6af70455805a103150863842bf2d352d", "is_reserved": 0, "fusion_lon": 0.0, "bike_id": "6af70455805a103150863842bf2d352d", "lat": 38.8942515, "is_disabled": 0, "lon": -77.044692, "fusion_lat": 0.0, "rental_uris": {"ios": "https://dc.lft.to/lastmile_qr_scan", "android": "https://dc.lft.to/lastmile_qr_scan"}, "type": "electric_scooter"}, {"name": "c520740a9be399b41ee3ebadce884061", "is_reserved": 0, "fusion_lon": 0.0, "bike_id": "c520740a9be399b41ee3ebadce884061", "lat": 38.94194316666667, "is_disabled": 0, "lon": -77.02847, "fusion_lat": 0.0, "rental_uris": {"ios": "https://dc.lft.to/lastmile_qr_scan", "android": "https://dc.lft.to/lastmile_qr_scan"}, "type": "electric_scooter"}, {"name": "ab980ef4910c1842c99f8bd0bd5903d0", "is_reserved": 0, "fusion_lon": 0.0, "bike_id": "ab980ef4910c1842c99f8bd0bd5903d0", "lat": 38.89611683333333, "is_disabled": 0, "lon": -77.04446266666666, "fusion_lat": 0.0, "rental_uris": {"ios": "https://dc.lft.to/lastmile_qr_scan", "android": "https://dc.lft.to/lastmile_qr_scan"}, "type": "electric_scooter"}, {"name": "f7334bbcf89ddb79664e515d4bb775b1", "is_reserved": 0, "fusion_lon": 0.0, "bike_id": "f7334bbcf89ddb79664e515d4bb775b1", "lat": 38.90506466666667, "is_disabled": 0, "lon": -77.03000266666666, "fusion_lat": 0.0, "rental_uris": {"ios": "https://dc.lft.to/lastmile_qr_scan", "android": "https://dc.lft.to/lastmile_qr_scan"}, "type": "electric_scooter"}, {"name": "f5da667613b6c638a15507c02fbce1c6", "is_reserved": 0, "fusion_lon": 0.0, "bike_id": "f5da667613b6c638a15507c02fbce1c6", "lat": 38.920910166666665, "is_disabled": 0, "lon": -77.04691433333333, "fusion_lat": 0.0, "rental_uris": {"ios": "https://dc.lft.to/lastmile_qr_scan", "android": "https://dc.lft.to/lastmile_qr_scan"}, "type": "electric_scooter"}, {"name": "473052a3d2313a7d93d76a238a80736f", "is_reserved": 0, "fusion_lon": 0.0, "bike_id": "473052a3d2313a7d93d76a238a80736f", "lat": 38.865698333333334, "is_disabled": 0, "lon": -76.97340133333333, "fusion_lat": 0.0, "rental_uris": {"ios": "https://dc.lft.to/lastmile_qr_scan", "android": "https://dc.lft.to/lastmile_qr_scan"}, "type": "electric_bike"}, {"name": "6af0c10b8ad46af9f5d2c0288583f7af", "is_reserved": 0, "fusion_lon": 0.0, "bike_id": "6af0c10b8ad46af9f5d2c0288583f7af", "lat": 38.875395833333336, "is_disabled": 0, "lon": -77.00574366666666, "fusion_lat": 0.0, "rental_uris": {"ios": "https://dc.lft.to/lastmile_qr_scan", "android": "https://dc.lft.to/lastmile_qr_scan"}, "type": "electric_scooter"}, {"name": "c5e6efe2b82fcc5874b4abf2a274fd19", "is_reserved": 0, "fusion_lon": 0.0, "bike_id": "c5e6efe2b82fcc5874b4abf2a274fd19", "lat": 38.83807016666667, "is_disabled": 0, "lon": -77.09521683333334, "fusion_lat": 0.0, "rental_uris": {"ios": "https://dc.lft.to/lastmile_qr_scan", "android": "https://dc.lft.to/lastmile_qr_scan"}, "type": "electric_bike"}, {"name": "9ea48969aede1c2617208abd848a0975", "is_reserved": 0, "fusion_lon": 0.0, "bike_id": "9ea48969aede1c2617208abd848a0975", "lat": 38.91114116666667, "is_disabled": 0, "lon": -77.04475433333333, "fusion_lat": 0.0, "rental_uris": {"ios": "https://dc.lft.to/lastmile_qr_scan", "android": "https://dc.lft.to/lastmile_qr_scan"}, "type": "electric_scooter"}, {"name": "0fc019e8bae2a62e81bcd8acadd5427f", "is_reserved": 0, "fusion_lon": 0.0, "bike_id": "0fc019e8bae2a62e81bcd8acadd5427f", "lat": 38.896105, "is_disabled": 0, "lon": -76.985714, "fusion_lat": 0.0, "rental_uris": {"ios": "https://dc.lft.to/lastmile_qr_scan", "android": "https://dc.lft.to/lastmile_qr_scan"}, "type": "electric_scooter"}, {"name": "57ae50c11738012b4c31ea07ab0e304c", "is_reserved": 0, "fusion_lon": 0.0, "bike_id": "57ae50c11738012b4c31ea07ab0e304c", "lat": 38.89150866666667, "is_disabled": 0, "lon": -76.98363716666667, "fusion_lat": 0.0, "rental_uris": {"ios": "https://dc.lft.to/lastmile_qr_scan", "android": "https://dc.lft.to/lastmile_qr_scan"}, "type": "electric_scooter"}, {"name": "c20385c3ab14503efbc7a6ac2b043062", "is_reserved": 0, "fusion_lon": 0.0, "bike_id": "c20385c3ab14503efbc7a6ac2b043062", "lat": 38.90912616666667, "is_disabled": 0, "lon": -77.04140933333333, "fusion_lat": 0.0, "rental_uris": {"ios": "https://dc.lft.to/lastmile_qr_scan", "android": "https://dc.lft.to/lastmile_qr_scan"}, "type": "electric_scooter"}, {"name": "9f02ef4d6d75371ecd8983ae65642094", "is_reserved": 0, "fusion_lon": 0.0, "bike_id": "9f02ef4d6d75371ecd8983ae65642094", "lat": 38.9051985, "is_disabled": 0, "lon": -77.040882, "fusion_lat": 0.0, "rental_uris": {"ios": "https://dc.lft.to/lastmile_qr_scan", "android": "https://dc.lft.to/lastmile_qr_scan"}, "type": "electric_scooter"}, {"name": "09e22023b6edd802817f61273267203c", "is_reserved": 0, "fusion_lon": 0.0, "bike_id": "09e22023b6edd802817f61273267203c", "lat": 38.8848405, "is_disabled": 0, "lon": -77.00707866666667, "fusion_lat": 0.0, "rental_uris": {"ios": "https://dc.lft.to/lastmile_qr_scan", "android": "https://dc.lft.to/lastmile_qr_scan"}, "type": "electric_scooter"}, {"name": "73e669d9a7730a6804d34460beba1ee6", "is_reserved": 0, "fusion_lon": 0.0, "bike_id": "73e669d9a7730a6804d34460beba1ee6", "lat": 38.9491155, "is_disabled": 0, "lon": -77.018553, "fusion_lat": 0.0, "rental_uris": {"ios": "https://dc.lft.to/lastmile_qr_scan", "android": "https://dc.lft.to/lastmile_qr_scan"}, "type": "electric_scooter"}, {"name": "bd006fd1fcf42677df4319e12538d213", "is_reserved": 0, "fusion_lon": 0.0, "bike_id": "bd006fd1fcf42677df4319e12538d213", "lat": 38.899419, "is_disabled": 0, "lon": -77.02568433333333, "fusion_lat": 0.0, "rental_uris": {"ios": "https://dc.lft.to/lastmile_qr_scan", "android": "https://dc.lft.to/lastmile_qr_scan"}, "type": "electric_scooter"}, {"name": "d99e1193c1d2d38834f1b8e241284d68", "is_reserved": 0, "fusion_lon": 0.0, "bike_id": "d99e1193c1d2d38834f1b8e241284d68", "lat": 38.9095865, "is_disabled": 0, "lon": -77.0143435, "fusion_lat": 0.0, "rental_uris": {"ios": "https://dc.lft.to/lastmile_qr_scan", "android": "https://dc.lft.to/lastmile_qr_scan"}, "type": "electric_scooter"}, {"name": "ec54622ffb1a141890a3ec9f62973f7e", "is_reserved": 0, "fusion_lon": 0.0, "bike_id": "ec54622ffb1a141890a3ec9f62973f7e", "lat": 38.88868316666667, "is_disabled": 0, "lon": -76.9569795, "fusion_lat": 0.0, "rental_uris": {"ios": "https://dc.lft.to/lastmile_qr_scan", "android": "https://dc.lft.to/lastmile_qr_scan"}, "type": "electric_bike"}, {"name": "f9ffce84c415887e9a73515ad210a1b6", "is_reserved": 0, "fusion_lon": 0.0, "bike_id": "f9ffce84c415887e9a73515ad210a1b6", "lat": 38.91237733333333, "is_disabled": 0, "lon": -77.02959283333334, "fusion_lat": 0.0, "rental_uris": {"ios": "https://dc.lft.to/lastmile_qr_scan", "android": "https://dc.lft.to/lastmile_qr_scan"}, "type": "electric_scooter"}, {"name": "d1047d6b9b1295b3c376cb5a2e947123", "is_reserved": 0, "fusion_lon": 0.0, "bike_id": "d1047d6b9b1295b3c376cb5a2e947123", "lat": 38.91783733333333, "is_disabled": 0, "lon": -77.024921, "fusion_lat": 0.0, "rental_uris": {"ios": "https://dc.lft.to/lastmile_qr_scan", "android": "https://dc.lft.to/lastmile_qr_scan"}, "type": "electric_scooter"}, {"name": "071c8cb882012d369dc34cc8f22646b6", "is_reserved": 0, "fusion_lon": 0.0, "bike_id": "071c8cb882012d369dc34cc8f22646b6", "lat": 38.94062816666667, "is_disabled": 0, "lon": -77.02118216666666, "fusion_lat": 0.0, "rental_uris": {"ios": "https://dc.lft.to/lastmile_qr_scan", "android": "https://dc.lft.to/lastmile_qr_scan"}, "type": "electric_scooter"}, {"name": "ccd87fd8bf816786e98b5c9750912950", "is_reserved": 0, "fusion_lon": 0.0, "bike_id": "ccd87fd8bf816786e98b5c9750912950", "lat": 38.895036, "is_disabled": 0, "lon": -77.02416333333333, "fusion_lat": 0.0, "rental_uris": {"ios": "https://dc.lft.to/lastmile_qr_scan", "android": "https://dc.lft.to/lastmile_qr_scan"}, "type": "electric_scooter"}, {"name": "154652a62b0f079d591c3a095248e15d", "is_reserved": 0, "fusion_lon": 0.0, "bike_id": "154652a62b0f079d591c3a095248e15d", "lat": 38.9083805, "is_disabled": 0, "lon": -77.0639105, "fusion_lat": 0.0, "rental_uris": {"ios": "https://dc.lft.to/lastmile_qr_scan", "android": "https://dc.lft.to/lastmile_qr_scan"}, "type": "electric_scooter"}, {"name": "c97887e68d73f35f4c52b0ba971b1845", "is_reserved": 0, "fusion_lon": 0.0, "bike_id": "c97887e68d73f35f4c52b0ba971b1845", "lat": 38.882762666666665, "is_disabled": 0, "lon": -76.9322795, "fusion_lat": 0.0, "rental_uris": {"ios": "https://dc.lft.to/lastmile_qr_scan", "android": "https://dc.lft.to/lastmile_qr_scan"}, "type": "electric_bike"}, {"name": "0c8e8f93905e2ebce7b64be3a26933f5", "is_reserved": 0, "fusion_lon": 0.0, "bike_id": "0c8e8f93905e2ebce7b64be3a26933f5", "lat": 38.9011255, "is_disabled": 0, "lon": -77.03947833333334, "fusion_lat": 0.0, "rental_uris": {"ios": "https://dc.lft.to/lastmile_qr_scan", "android": "https://dc.lft.to/lastmile_qr_scan"}, "type": "electric_scooter"}, {"name": "b03941012542a5c4fa4ed7541164596a", "is_reserved": 0, "fusion_lon": 0.0, "bike_id": "b03941012542a5c4fa4ed7541164596a", "lat": 38.903364833333335, "is_disabled": 0, "lon": -77.0526, "fusion_lat": 0.0, "rental_uris": {"ios": "https://dc.lft.to/lastmile_qr_scan", "android": "https://dc.lft.to/lastmile_qr_scan"}, "type": "electric_scooter"}, {"name": "fe17fa474a3010945dff6761d2f19f8b", "is_reserved": 0, "fusion_lon": 0.0, "bike_id": "fe17fa474a3010945dff6761d2f19f8b", "lat": 38.919044, "is_disabled": 0, "lon": -77.041704, "fusion_lat": 0.0, "rental_uris": {"ios": "https://dc.lft.to/lastmile_qr_scan", "android": "https://dc.lft.to/lastmile_qr_scan"}, "type": "electric_scooter"}, {"name": "14b8bb92f7b0d6cf99afc85db8e8727c", "is_reserved": 0, "fusion_lon": 0.0, "bike_id": "14b8bb92f7b0d6cf99afc85db8e8727c", "lat": 38.9471335, "is_disabled": 0, "lon": -77.02978183333333, "fusion_lat": 0.0, "rental_uris": {"ios": "https://dc.lft.to/lastmile_qr_scan", "android": "https://dc.lft.to/lastmile_qr_scan"}, "type": "electric_scooter"}, {"name": "be18b0f2bd6e1f7ccc2170fc62d3b620", "is_reserved": 0, "fusion_lon": 0.0, "bike_id": "be18b0f2bd6e1f7ccc2170fc62d3b620", "lat": 38.907152833333335, "is_disabled": 0, "lon": -77.028126, "fusion_lat": 0.0, "rental_uris": {"ios": "https://dc.lft.to/lastmile_qr_scan", "android": "https://dc.lft.to/lastmile_qr_scan"}, "type": "electric_scooter"}, {"name": "6463d94e7f8ead40fed1602947e15f35", "is_reserved": 0, "fusion_lon": 0.0, "bike_id": "6463d94e7f8ead40fed1602947e15f35", "lat": 38.91918966666667, "is_disabled": 0, "lon": -77.02508216666666, "fusion_lat": 0.0, "rental_uris": {"ios": "https://dc.lft.to/lastmile_qr_scan", "android": "https://dc.lft.to/lastmile_qr_scan"}, "type": "electric_scooter"}, {"name": "5edaf7f6ac5b58796cda47c5a1a14550", "is_reserved": 0, "fusion_lon": 0.0, "bike_id": "5edaf7f6ac5b58796cda47c5a1a14550", "lat": 38.94746216666667, "is_disabled": 0, "lon": -77.03278966666667, "fusion_lat": 0.0, "rental_uris": {"ios": "https://dc.lft.to/lastmile_qr_scan", "android": "https://dc.lft.to/lastmile_qr_scan"}, "type": "electric_scooter"}, {"name": "69b2e2834dfebcba5c4ad3a2959e2bf3", "is_reserved": 0, "fusion_lon": 0.0, "bike_id": "69b2e2834dfebcba5c4ad3a2959e2bf3", "lat": 38.920217666666666, "is_disabled": 0, "lon": -77.07130916666667, "fusion_lat": 0.0, "rental_uris": {"ios": "https://dc.lft.to/lastmile_qr_scan", "android": "https://dc.lft.to/lastmile_qr_scan"}, "type": "electric_scooter"}, {"name": "4d2eb4d97205b22b757790ac337e70ae", "is_reserved": 0, "fusion_lon": 0.0, "bike_id": "4d2eb4d97205b22b757790ac337e70ae", "lat": 38.99178666666667, "is_disabled": 0, "lon": -77.0956435, "fusion_lat": 0.0, "rental_uris": {"ios": "https://dc.lft.to/lastmile_qr_scan", "android": "https://dc.lft.to/lastmile_qr_scan"}, "type": "electric_bike"}, {"name": "4e225391e86792ab8552e6de271a8b05", "is_reserved": 0, "fusion_lon": 0.0, "bike_id": "4e225391e86792ab8552e6de271a8b05", "lat": 38.908998833333335, "is_disabled": 0, "lon": -77.08992633333334, "fusion_lat": 0.0, "rental_uris": {"ios": "https://dc.lft.to/lastmile_qr_scan", "android": "https://dc.lft.to/lastmile_qr_scan"}, "type": "electric_bike"}, {"name": "26d1a5613d931ac9cfc3b27842b8d40a", "is_reserved": 0, "fusion_lon": 0.0, "bike_id": "26d1a5613d931ac9cfc3b27842b8d40a", "lat": 38.89234833333333, "is_disabled": 0, "lon": -77.032238, "fusion_lat": 0.0, "rental_uris": {"ios": "https://dc.lft.to/lastmile_qr_scan", "android": "https://dc.lft.to/lastmile_qr_scan"}, "type": "electric_scooter"}, {"name": "983616312038c0198256fdaba86da6a9", "is_reserved": 0, "fusion_lon": 0.0, "bike_id": "983616312038c0198256fdaba86da6a9", "lat": 38.87679216666667, "is_disabled": 0, "lon": -77.01786533333333, "fusion_lat": 0.0, "rental_uris": {"ios": "https://dc.lft.to/lastmile_qr_scan", "android": "https://dc.lft.to/lastmile_qr_scan"}, "type": "electric_scooter"}, {"name": "730ee35957545b9b1bdaa6ce9e11520b", "is_reserved": 0, "fusion_lon": 0.0, "bike_id": "730ee35957545b9b1bdaa6ce9e11520b", "lat": 38.9165615, "is_disabled": 0, "lon": -77.02407683333334, "fusion_lat": 0.0, "rental_uris": {"ios": "https://dc.lft.to/lastmile_qr_scan", "android": "https://dc.lft.to/lastmile_qr_scan"}, "type": "electric_scooter"}, {"name": "f351be2371432c152cafaaf3a787fb72", "is_reserved": 0, "fusion_lon": 0.0, "bike_id": "f351be2371432c152cafaaf3a787fb72", "lat": 38.90738733333333, "is_disabled": 0, "lon": -77.00360233333333, "fusion_lat": 0.0, "rental_uris": {"ios": "https://dc.lft.to/lastmile_qr_scan", "android": "https://dc.lft.to/lastmile_qr_scan"}, "type": "electric_scooter"}, {"name": "aa97cdebc11a8c8c8b93cc8971155a9f", "is_reserved": 0, "fusion_lon": 0.0, "bike_id": "aa97cdebc11a8c8c8b93cc8971155a9f", "lat": 38.8923735, "is_disabled": 0, "lon": -77.033566, "fusion_lat": 0.0, "rental_uris": {"ios": "https://dc.lft.to/lastmile_qr_scan", "android": "https://dc.lft.to/lastmile_qr_scan"}, "type": "electric_scooter"}, {"name": "cf8a5b07a36b175d4e4f1137f59e28b6", "is_reserved": 0, "fusion_lon": 0.0, "bike_id": "cf8a5b07a36b175d4e4f1137f59e28b6", "lat": 38.924774666666664, "is_disabled": 0, "lon": -77.02136666666667, "fusion_lat": 0.0, "rental_uris": {"ios": "https://dc.lft.to/lastmile_qr_scan", "android": "https://dc.lft.to/lastmile_qr_scan"}, "type": "electric_scooter"}, {"name": "e03cf12178764a586762398ae002deba", "is_reserved": 0, "fusion_lon": 0.0, "bike_id": "e03cf12178764a586762398ae002deba", "lat": 38.89217133333333, "is_disabled": 0, "lon": -77.0468665, "fusion_lat": 0.0, "rental_uris": {"ios": "https://dc.lft.to/lastmile_qr_scan", "android": "https://dc.lft.to/lastmile_qr_scan"}, "type": "electric_scooter"}, {"name": "0ddccf9b232225c29cc3b470e4842f65", "is_reserved": 0, "fusion_lon": 0.0, "bike_id": "0ddccf9b232225c29cc3b470e4842f65", "lat": 38.906982666666664, "is_disabled": 0, "lon": -77.07183966666666, "fusion_lat": 0.0, "rental_uris": {"ios": "https://dc.lft.to/lastmile_qr_scan", "android": "https://dc.lft.to/lastmile_qr_scan"}, "type": "electric_scooter"}, {"name": "bd4048a68be0b39ea8549eca236cd2ef", "is_reserved": 0, "fusion_lon": 0.0, "bike_id": "bd4048a68be0b39ea8549eca236cd2ef", "lat": 38.898414833333334, "is_disabled": 0, "lon": -77.04654233333333, "fusion_lat": 0.0, "rental_uris": {"ios": "https://dc.lft.to/lastmile_qr_scan", "android": "https://dc.lft.to/lastmile_qr_scan"}, "type": "electric_scooter"}, {"name": "fbe37f84f958eacce24940e090b2f464", "is_reserved": 0, "fusion_lon": 0.0, "bike_id": "fbe37f84f958eacce24940e090b2f464", "lat": 38.864421166666666, "is_disabled": 0, "lon": -77.08446733333334, "fusion_lat": 0.0, "rental_uris": {"ios": "https://dc.lft.to/lastmile_qr_scan", "android": "https://dc.lft.to/lastmile_qr_scan"}, "type": "electric_bike"}, {"name": "b5da1d18c8194a85916a6cbd0fe0ce1f", "is_reserved": 0, "fusion_lon": 0.0, "bike_id": "b5da1d18c8194a85916a6cbd0fe0ce1f", "lat": 38.9326295, "is_disabled": 0, "lon": -77.01923433333333, "fusion_lat": 0.0, "rental_uris": {"ios": "https://dc.lft.to/lastmile_qr_scan", "android": "https://dc.lft.to/lastmile_qr_scan"}, "type": "electric_scooter"}, {"name": "dd7c799e8e61c08b8a9d7c10b924e08a", "is_reserved": 0, "fusion_lon": 0.0, "bike_id": "dd7c799e8e61c08b8a9d7c10b924e08a", "lat": 38.92241383333333, "is_disabled": 0, "lon": -77.07467883333334, "fusion_lat": 0.0, "rental_uris": {"ios": "https://dc.lft.to/lastmile_qr_scan", "android": "https://dc.lft.to/lastmile_qr_scan"}, "type": "electric_scooter"}, {"name": "16e17e10779b43e132752e2ea754a74a", "is_reserved": 0, "fusion_lon": 0.0, "bike_id": "16e17e10779b43e132752e2ea754a74a", "lat": 38.904028, "is_disabled": 0, "lon": -76.973311, "fusion_lat": 0.0, "rental_uris": {"ios": "https://dc.lft.to/lastmile_qr_scan", "android": "https://dc.lft.to/lastmile_qr_scan"}, "type": "electric_scooter"}, {"name": "dafc6f6ccbbaa9fac7b572ab88d824d3", "is_reserved": 0, "fusion_lon": 0.0, "bike_id": "dafc6f6ccbbaa9fac7b572ab88d824d3", "lat": 38.9096195, "is_disabled": 0, "lon": -77.02432016666667, "fusion_lat": 0.0, "rental_uris": {"ios": "https://dc.lft.to/lastmile_qr_scan", "android": "https://dc.lft.to/lastmile_qr_scan"}, "type": "electric_scooter"}, {"name": "22571ad75620a359c34b1e34e5b88741", "is_reserved": 0, "fusion_lon": 0.0, "bike_id": "22571ad75620a359c34b1e34e5b88741", "lat": 38.9159105, "is_disabled": 0, "lon": -77.03209133333333, "fusion_lat": 0.0, "rental_uris": {"ios": "https://dc.lft.to/lastmile_qr_scan", "android": "https://dc.lft.to/lastmile_qr_scan"}, "type": "electric_scooter"}, {"name": "34143bde5e259b96b867692e6650207f", "is_reserved": 0, "fusion_lon": 0.0, "bike_id": "34143bde5e259b96b867692e6650207f", "lat": 38.941131166666665, "is_disabled": 0, "lon": -77.0262675, "fusion_lat": 0.0, "rental_uris": {"ios": "https://dc.lft.to/lastmile_qr_scan", "android": "https://dc.lft.to/lastmile_qr_scan"}, "type": "electric_scooter"}, {"name": "cd4b222fb37e178d51e93f3fca3df494", "is_reserved": 0, "fusion_lon": 0.0, "bike_id": "cd4b222fb37e178d51e93f3fca3df494", "lat": 38.9035165, "is_disabled": 0, "lon": -77.03991133333334, "fusion_lat": 0.0, "rental_uris": {"ios": "https://dc.lft.to/lastmile_qr_scan", "android": "https://dc.lft.to/lastmile_qr_scan"}, "type": "electric_bike"}, {"name": "8624875acb7139877ef28ac93632755e", "is_reserved": 0, "fusion_lon": 0.0, "bike_id": "8624875acb7139877ef28ac93632755e", "lat": 38.916867333333336, "is_disabled": 0, "lon": -77.02706083333334, "fusion_lat": 0.0, "rental_uris": {"ios": "https://dc.lft.to/lastmile_qr_scan", "android": "https://dc.lft.to/lastmile_qr_scan"}, "type": "electric_scooter"}, {"name": "41944b0391178d95ec4a686914465416", "is_reserved": 0, "fusion_lon": 0.0, "bike_id": "41944b0391178d95ec4a686914465416", "lat": 38.89618933333333, "is_disabled": 0, "lon": -77.0459775, "fusion_lat": 0.0, "rental_uris": {"ios": "https://dc.lft.to/lastmile_qr_scan", "android": "https://dc.lft.to/lastmile_qr_scan"}, "type": "electric_scooter"}, {"name": "56fd045389b1d34fb58244fce68ccde1", "is_reserved": 0, "fusion_lon": 0.0, "bike_id": "56fd045389b1d34fb58244fce68ccde1", "lat": 38.929291166666665, "is_disabled": 0, "lon": -77.0324545, "fusion_lat": 0.0, "rental_uris": {"ios": "https://dc.lft.to/lastmile_qr_scan", "android": "https://dc.lft.to/lastmile_qr_scan"}, "type": "electric_scooter"}, {"name": "200309801f2e5a651461a74cb58a02f8", "is_reserved": 0, "fusion_lon": 0.0, "bike_id": "200309801f2e5a651461a74cb58a02f8", "lat": 38.87087866666667, "is_disabled": 0, "lon": -77.01207033333333, "fusion_lat": 0.0, "rental_uris": {"ios": "https://dc.lft.to/lastmile_qr_scan", "android": "https://dc.lft.to/lastmile_qr_scan"}, "type": "electric_bike"}, {"name": "aa00804abd745ad3fc7d7ef9d6be0933", "is_reserved": 0, "fusion_lon": 0.0, "bike_id": "aa00804abd745ad3fc7d7ef9d6be0933", "lat": 38.91695683333333, "is_disabled": 0, "lon": -77.03998233333333, "fusion_lat": 0.0, "rental_uris": {"ios": "https://dc.lft.to/lastmile_qr_scan", "android": "https://dc.lft.to/lastmile_qr_scan"}, "type": "electric_scooter"}, {"name": "6282b27ccc545240effcc7d682666289", "is_reserved": 0, "fusion_lon": 0.0, "bike_id": "6282b27ccc545240effcc7d682666289", "lat": 38.898086, "is_disabled": 0, "lon": -77.0020625, "fusion_lat": 0.0, "rental_uris": {"ios": "https://dc.lft.to/lastmile_qr_scan", "android": "https://dc.lft.to/lastmile_qr_scan"}, "type": "electric_scooter"}, {"name": "aa8ae8934ce2773081e61376cf9dd956", "is_reserved": 0, "fusion_lon": 0.0, "bike_id": "aa8ae8934ce2773081e61376cf9dd956", "lat": 38.89231383333333, "is_disabled": 0, "lon": -77.00287816666666, "fusion_lat": 0.0, "rental_uris": {"ios": "https://dc.lft.to/lastmile_qr_scan", "android": "https://dc.lft.to/lastmile_qr_scan"}, "type": "electric_scooter"}, {"name": "02f4dd44b1246cb0584a11c984eb0e67", "is_reserved": 0, "fusion_lon": 0.0, "bike_id": "02f4dd44b1246cb0584a11c984eb0e67", "lat": 38.89973033333333, "is_disabled": 0, "lon": -77.047155, "fusion_lat": 0.0, "rental_uris": {"ios": "https://dc.lft.to/lastmile_qr_scan", "android": "https://dc.lft.to/lastmile_qr_scan"}, "type": "electric_scooter"}, {"name": "56f094a7a0b168aea2cf8f6eea2134a1", "is_reserved": 0, "fusion_lon": 0.0, "bike_id": "56f094a7a0b168aea2cf8f6eea2134a1", "lat": 38.918108, "is_disabled": 0, "lon": -77.024842, "fusion_lat": 0.0, "rental_uris": {"ios": "https://dc.lft.to/lastmile_qr_scan", "android": "https://dc.lft.to/lastmile_qr_scan"}, "type": "electric_scooter"}, {"name": "63e3d69405e42f81e02701ff1e82e7e9", "is_reserved": 0, "fusion_lon": 0.0, "bike_id": "63e3d69405e42f81e02701ff1e82e7e9", "lat": 38.9288275, "is_disabled": 0, "lon": -77.032516, "fusion_lat": 0.0, "rental_uris": {"ios": "https://dc.lft.to/lastmile_qr_scan", "android": "https://dc.lft.to/lastmile_qr_scan"}, "type": "electric_scooter"}, {"name": "a859063951dabb0c5246639b8a7e0a9f", "is_reserved": 0, "fusion_lon": 0.0, "bike_id": "a859063951dabb0c5246639b8a7e0a9f", "lat": 38.917719, "is_disabled": 0, "lon": -77.02709133333333, "fusion_lat": 0.0, "rental_uris": {"ios": "https://dc.lft.to/lastmile_qr_scan", "android": "https://dc.lft.to/lastmile_qr_scan"}, "type": "electric_scooter"}, {"name": "36203e656f28ee313018b519185495f9", "is_reserved": 0, "fusion_lon": 0.0, "bike_id": "36203e656f28ee313018b519185495f9", "lat": 38.943547333333335, "is_disabled": 0, "lon": -77.02970433333333, "fusion_lat": 0.0, "rental_uris": {"ios": "https://dc.lft.to/lastmile_qr_scan", "android": "https://dc.lft.to/lastmile_qr_scan"}, "type": "electric_scooter"}, {"name": "71df82f5d325cdb6fc99e524ebf0da93", "is_reserved": 0, "fusion_lon": 0.0, "bike_id": "71df82f5d325cdb6fc99e524ebf0da93", "lat": 38.913302333333334, "is_disabled": 0, "lon": -77.01359816666667, "fusion_lat": 0.0, "rental_uris": {"ios": "https://dc.lft.to/lastmile_qr_scan", "android": "https://dc.lft.to/lastmile_qr_scan"}, "type": "electric_scooter"}, {"name": "5a75f3d6d6554e0b763fe2d52b0b9e83", "is_reserved": 0, "fusion_lon": 0.0, "bike_id": "5a75f3d6d6554e0b763fe2d52b0b9e83", "lat": 38.9067835, "is_disabled": 0, "lon": -77.06397116666666, "fusion_lat": 0.0, "rental_uris": {"ios": "https://dc.lft.to/lastmile_qr_scan", "android": "https://dc.lft.to/lastmile_qr_scan"}, "type": "electric_scooter"}, {"name": "b99fb6d207275d3e5b29e1c6ee6ffd07", "is_reserved": 0, "fusion_lon": 0.0, "bike_id": "b99fb6d207275d3e5b29e1c6ee6ffd07", "lat": 38.90152766666667, "is_disabled": 0, "lon": -77.0351875, "fusion_lat": 0.0, "rental_uris": {"ios": "https://dc.lft.to/lastmile_qr_scan", "android": "https://dc.lft.to/lastmile_qr_scan"}, "type": "electric_scooter"}, {"name": "04b503b34ceb0dd34d8b2581ac176f09", "is_reserved": 0, "fusion_lon": 0.0, "bike_id": "04b503b34ceb0dd34d8b2581ac176f09", "lat": 38.920307, "is_disabled": 0, "lon": -76.984868, "fusion_lat": 0.0, "rental_uris": {"ios": "https://dc.lft.to/lastmile_qr_scan", "android": "https://dc.lft.to/lastmile_qr_scan"}, "type": "electric_scooter"}, {"name": "de2e6ce00b74bed01dd3731297317ccf", "is_reserved": 0, "fusion_lon": 0.0, "bike_id": "de2e6ce00b74bed01dd3731297317ccf", "lat": 38.902548333333336, "is_disabled": 0, "lon": -77.0168675, "fusion_lat": 0.0, "rental_uris": {"ios": "https://dc.lft.to/lastmile_qr_scan", "android": "https://dc.lft.to/lastmile_qr_scan"}, "type": "electric_scooter"}, {"name": "03bb26aa4f63d41338a6a5b1b617466d", "is_reserved": 0, "fusion_lon": 0.0, "bike_id": "03bb26aa4f63d41338a6a5b1b617466d", "lat": 38.94228483333333, "is_disabled": 0, "lon": -77.014954, "fusion_lat": 0.0, "rental_uris": {"ios": "https://dc.lft.to/lastmile_qr_scan", "android": "https://dc.lft.to/lastmile_qr_scan"}, "type": "electric_scooter"}, {"name": "2bd13923f0abc7170ad22acaf38c0899", "is_reserved": 0, "fusion_lon": 0.0, "bike_id": "2bd13923f0abc7170ad22acaf38c0899", "lat": 38.893524166666666, "is_disabled": 0, "lon": -77.04477266666666, "fusion_lat": 0.0, "rental_uris": {"ios": "https://dc.lft.to/lastmile_qr_scan", "android": "https://dc.lft.to/lastmile_qr_scan"}, "type": "electric_scooter"}, {"name": "feff859e9a2badb800ae59ef044d83b5", "is_reserved": 0, "fusion_lon": 0.0, "bike_id": "feff859e9a2badb800ae59ef044d83b5", "lat": 38.91903816666667, "is_disabled": 0, "lon": -77.02048833333333, "fusion_lat": 0.0, "rental_uris": {"ios": "https://dc.lft.to/lastmile_qr_scan", "android": "https://dc.lft.to/lastmile_qr_scan"}, "type": "electric_scooter"}, {"name": "344beec5cce57ff3d3fc9d4252aa8931", "is_reserved": 0, "fusion_lon": 0.0, "bike_id": "344beec5cce57ff3d3fc9d4252aa8931", "lat": 38.9182625, "is_disabled": 0, "lon": -77.03201833333334, "fusion_lat": 0.0, "rental_uris": {"ios": "https://dc.lft.to/lastmile_qr_scan", "android": "https://dc.lft.to/lastmile_qr_scan"}, "type": "electric_scooter"}, {"name": "9d007c6ac134f41b1579078aedc6221d", "is_reserved": 0, "fusion_lon": 0.0, "bike_id": "9d007c6ac134f41b1579078aedc6221d", "lat": 38.85600683333333, "is_disabled": 0, "lon": -76.97261983333334, "fusion_lat": 0.0, "rental_uris": {"ios": "https://dc.lft.to/lastmile_qr_scan", "android": "https://dc.lft.to/lastmile_qr_scan"}, "type": "electric_bike"}, {"name": "4c6ad334cac46aca3a2445fe2ce0e0bf", "is_reserved": 0, "fusion_lon": 0.0, "bike_id": "4c6ad334cac46aca3a2445fe2ce0e0bf", "lat": 38.91922366666667, "is_disabled": 0, "lon": -77.0321185, "fusion_lat": 0.0, "rental_uris": {"ios": "https://dc.lft.to/lastmile_qr_scan", "android": "https://dc.lft.to/lastmile_qr_scan"}, "type": "electric_scooter"}, {"name": "8d7b9f5790871bf258b805805faa6750", "is_reserved": 0, "fusion_lon": 0.0, "bike_id": "8d7b9f5790871bf258b805805faa6750", "lat": 38.88117233333333, "is_disabled": 0, "lon": -77.01869116666667, "fusion_lat": 0.0, "rental_uris": {"ios": "https://dc.lft.to/lastmile_qr_scan", "android": "https://dc.lft.to/lastmile_qr_scan"}, "type": "electric_scooter"}, {"name": "74c8a31d228a2a511967aa3fa969f21e", "is_reserved": 0, "fusion_lon": 0.0, "bike_id": "74c8a31d228a2a511967aa3fa969f21e", "lat": 38.89900266666667, "is_disabled": 0, "lon": -77.03917333333334, "fusion_lat": 0.0, "rental_uris": {"ios": "https://dc.lft.to/lastmile_qr_scan", "android": "https://dc.lft.to/lastmile_qr_scan"}, "type": "electric_scooter"}, {"name": "f721ad3c42ee9b33211c9f828ec8c4d8", "is_reserved": 0, "fusion_lon": 0.0, "bike_id": "f721ad3c42ee9b33211c9f828ec8c4d8", "lat": 38.90726516666667, "is_disabled": 0, "lon": -77.01833366666666, "fusion_lat": 0.0, "rental_uris": {"ios": "https://dc.lft.to/lastmile_qr_scan", "android": "https://dc.lft.to/lastmile_qr_scan"}, "type": "electric_scooter"}, {"name": "208b89c566ca379523e04530b721f73e", "is_reserved": 0, "fusion_lon": 0.0, "bike_id": "208b89c566ca379523e04530b721f73e", "lat": 38.902394, "is_disabled": 0, "lon": -77.0069825, "fusion_lat": 0.0, "rental_uris": {"ios": "https://dc.lft.to/lastmile_qr_scan", "android": "https://dc.lft.to/lastmile_qr_scan"}, "type": "electric_scooter"}, {"name": "b8d641871b157d91d2da02901c7a84fd", "is_reserved": 0, "fusion_lon": 0.0, "bike_id": "b8d641871b157d91d2da02901c7a84fd", "lat": 38.924576333333334, "is_disabled": 0, "lon": -77.02150716666667, "fusion_lat": 0.0, "rental_uris": {"ios": "https://dc.lft.to/lastmile_qr_scan", "android": "https://dc.lft.to/lastmile_qr_scan"}, "type": "electric_scooter"}, {"name": "ec15309e276195ae287719c8f76bb864", "is_reserved": 0, "fusion_lon": 0.0, "bike_id": "ec15309e276195ae287719c8f76bb864", "lat": 38.9101, "is_disabled": 0, "lon": -77.03433783333334, "fusion_lat": 0.0, "rental_uris": {"ios": "https://dc.lft.to/lastmile_qr_scan", "android": "https://dc.lft.to/lastmile_qr_scan"}, "type": "electric_scooter"}, {"name": "d89d55de45ecd7a4e51940b7440c1ac9", "is_reserved": 0, "fusion_lon": 0.0, "bike_id": "d89d55de45ecd7a4e51940b7440c1ac9", "lat": 38.877351833333336, "is_disabled": 0, "lon": -77.01058733333333, "fusion_lat": 0.0, "rental_uris": {"ios": "https://dc.lft.to/lastmile_qr_scan", "android": "https://dc.lft.to/lastmile_qr_scan"}, "type": "electric_scooter"}, {"name": "14f11541ae8475caa87421c2cde85da0", "is_reserved": 0, "fusion_lon": 0.0, "bike_id": "14f11541ae8475caa87421c2cde85da0", "lat": 38.9205285, "is_disabled": 0, "lon": -77.03405733333334, "fusion_lat": 0.0, "rental_uris": {"ios": "https://dc.lft.to/lastmile_qr_scan", "android": "https://dc.lft.to/lastmile_qr_scan"}, "type": "electric_scooter"}, {"name": "17738738ffcab7b3a29c2482a97ddaf2", "is_reserved": 0, "fusion_lon": 0.0, "bike_id": "17738738ffcab7b3a29c2482a97ddaf2", "lat": 38.9118505, "is_disabled": 0, "lon": -77.01837633333334, "fusion_lat": 0.0, "rental_uris": {"ios": "https://dc.lft.to/lastmile_qr_scan", "android": "https://dc.lft.to/lastmile_qr_scan"}, "type": "electric_scooter"}, {"name": "a929dda8c84cd0f74ed8768d244bd490", "is_reserved": 0, "fusion_lon": 0.0, "bike_id": "a929dda8c84cd0f74ed8768d244bd490", "lat": 38.885458166666666, "is_disabled": 0, "lon": -77.0200225, "fusion_lat": 0.0, "rental_uris": {"ios": "https://dc.lft.to/lastmile_qr_scan", "android": "https://dc.lft.to/lastmile_qr_scan"}, "type": "electric_scooter"}, {"name": "b359e9e8dfcd2e372f5c775aac60258d", "is_reserved": 0, "fusion_lon": 0.0, "bike_id": "b359e9e8dfcd2e372f5c775aac60258d", "lat": 38.89220233333333, "is_disabled": 0, "lon": -77.0486475, "fusion_lat": 0.0, "rental_uris": {"ios": "https://dc.lft.to/lastmile_qr_scan", "android": "https://dc.lft.to/lastmile_qr_scan"}, "type": "electric_scooter"}, {"name": "fc2d353c18657bb941395a69222f4b66", "is_reserved": 0, "fusion_lon": 0.0, "bike_id": "fc2d353c18657bb941395a69222f4b66", "lat": 38.929759833333335, "is_disabled": 0, "lon": -77.22598616666667, "fusion_lat": 0.0, "rental_uris": {"ios": "https://dc.lft.to/lastmile_qr_scan", "android": "https://dc.lft.to/lastmile_qr_scan"}, "type": "electric_bike"}, {"name": "0534d720463bea84da98bc51200c7003", "is_reserved": 0, "fusion_lon": 0.0, "bike_id": "0534d720463bea84da98bc51200c7003", "lat": 38.90167916666667, "is_disabled": 0, "lon": -76.9294155, "fusion_lat": 0.0, "rental_uris": {"ios": "https://dc.lft.to/lastmile_qr_scan", "android": "https://dc.lft.to/lastmile_qr_scan"}, "type": "electric_scooter"}, {"name": "ad25affed894cbf3a53f626f701be2c8", "is_reserved": 0, "fusion_lon": 0.0, "bike_id": "ad25affed894cbf3a53f626f701be2c8", "lat": 38.9246215, "is_disabled": 0, "lon": -77.02212366666667, "fusion_lat": 0.0, "rental_uris": {"ios": "https://dc.lft.to/lastmile_qr_scan", "android": "https://dc.lft.to/lastmile_qr_scan"}, "type": "electric_scooter"}, {"name": "d40a77a042e58bf430af8a11ee2ceb80", "is_reserved": 0, "fusion_lon": 0.0, "bike_id": "d40a77a042e58bf430af8a11ee2ceb80", "lat": 38.895629166666666, "is_disabled": 0, "lon": -77.0300545, "fusion_lat": 0.0, "rental_uris": {"ios": "https://dc.lft.to/lastmile_qr_scan", "android": "https://dc.lft.to/lastmile_qr_scan"}, "type": "electric_scooter"}, {"name": "792e6aca6aaa389937eb136eb690a4e0", "is_reserved": 0, "fusion_lon": 0.0, "bike_id": "792e6aca6aaa389937eb136eb690a4e0", "lat": 38.9023485, "is_disabled": 0, "lon": -77.0265585, "fusion_lat": 0.0, "rental_uris": {"ios": "https://dc.lft.to/lastmile_qr_scan", "android": "https://dc.lft.to/lastmile_qr_scan"}, "type": "electric_scooter"}, {"name": "0fdf998739a5691e3505e4cc3b245ed3", "is_reserved": 0, "fusion_lon": 0.0, "bike_id": "0fdf998739a5691e3505e4cc3b245ed3", "lat": 38.897125333333335, "is_disabled": 0, "lon": -76.97863366666667, "fusion_lat": 0.0, "rental_uris": {"ios": "https://dc.lft.to/lastmile_qr_scan", "android": "https://dc.lft.to/lastmile_qr_scan"}, "type": "electric_scooter"}, {"name": "9d50a506b7d6fe3b1131211d71807fe2", "is_reserved": 0, "fusion_lon": 0.0, "bike_id": "9d50a506b7d6fe3b1131211d71807fe2", "lat": 38.895413, "is_disabled": 0, "lon": -76.98334883333334, "fusion_lat": 0.0, "rental_uris": {"ios": "https://dc.lft.to/lastmile_qr_scan", "android": "https://dc.lft.to/lastmile_qr_scan"}, "type": "electric_scooter"}, {"name": "a6ecef2f9039d042c53111a0c39eb3fe", "is_reserved": 0, "fusion_lon": 0.0, "bike_id": "a6ecef2f9039d042c53111a0c39eb3fe", "lat": 38.9203405, "is_disabled": 0, "lon": -77.01721716666667, "fusion_lat": 0.0, "rental_uris": {"ios": "https://dc.lft.to/lastmile_qr_scan", "android": "https://dc.lft.to/lastmile_qr_scan"}, "type": "electric_scooter"}, {"name": "083f82709a5a2a0a10522960242609b1", "is_reserved": 0, "fusion_lon": 0.0, "bike_id": "083f82709a5a2a0a10522960242609b1", "lat": 38.914753833333336, "is_disabled": 0, "lon": -77.01142133333333, "fusion_lat": 0.0, "rental_uris": {"ios": "https://dc.lft.to/lastmile_qr_scan", "android": "https://dc.lft.to/lastmile_qr_scan"}, "type": "electric_scooter"}, {"name": "49cb7bbb7ac4bb682d565c9730edbf14", "is_reserved": 0, "fusion_lon": 0.0, "bike_id": "49cb7bbb7ac4bb682d565c9730edbf14", "lat": 38.8937105, "is_disabled": 0, "lon": -77.04676483333333, "fusion_lat": 0.0, "rental_uris": {"ios": "https://dc.lft.to/lastmile_qr_scan", "android": "https://dc.lft.to/lastmile_qr_scan"}, "type": "electric_scooter"}, {"name": "25dcf7388eaf1c529ebb6c326f7e106f", "is_reserved": 0, "fusion_lon": 0.0, "bike_id": "25dcf7388eaf1c529ebb6c326f7e106f", "lat": 38.8644195, "is_disabled": 0, "lon": -77.01261183333334, "fusion_lat": 0.0, "rental_uris": {"ios": "https://dc.lft.to/lastmile_qr_scan", "android": "https://dc.lft.to/lastmile_qr_scan"}, "type": "electric_bike"}, {"name": "53b7d49356bf27750653925c6d102c3d", "is_reserved": 0, "fusion_lon": 0.0, "bike_id": "53b7d49356bf27750653925c6d102c3d", "lat": 38.9310945, "is_disabled": 0, "lon": -77.0213735, "fusion_lat": 0.0, "rental_uris": {"ios": "https://dc.lft.to/lastmile_qr_scan", "android": "https://dc.lft.to/lastmile_qr_scan"}, "type": "electric_scooter"}, {"name": "e0ab78e1908206f6575f4cb2b4b45faf", "is_reserved": 0, "fusion_lon": 0.0, "bike_id": "e0ab78e1908206f6575f4cb2b4b45faf", "lat": 38.9002725, "is_disabled": 0, "lon": -76.98594233333333, "fusion_lat": 0.0, "rental_uris": {"ios": "https://dc.lft.to/lastmile_qr_scan", "android": "https://dc.lft.to/lastmile_qr_scan"}, "type": "electric_scooter"}, {"name": "0ba65ca7e4aef0207beab6c4088809e1", "is_reserved": 0, "fusion_lon": 0.0, "bike_id": "0ba65ca7e4aef0207beab6c4088809e1", "lat": 38.920983166666666, "is_disabled": 0, "lon": -77.0364965, "fusion_lat": 0.0, "rental_uris": {"ios": "https://dc.lft.to/lastmile_qr_scan", "android": "https://dc.lft.to/lastmile_qr_scan"}, "type": "electric_scooter"}, {"name": "dd7cf5e90caad08a5287b78d8c5c03e6", "is_reserved": 0, "fusion_lon": 0.0, "bike_id": "dd7cf5e90caad08a5287b78d8c5c03e6", "lat": 38.89875083333333, "is_disabled": 0, "lon": -77.01002516666667, "fusion_lat": 0.0, "rental_uris": {"ios": "https://dc.lft.to/lastmile_qr_scan", "android": "https://dc.lft.to/lastmile_qr_scan"}, "type": "electric_scooter"}, {"name": "2552af0549b1ad696f829e7bbc4875d7", "is_reserved": 0, "fusion_lon": 0.0, "bike_id": "2552af0549b1ad696f829e7bbc4875d7", "lat": 38.936681666666665, "is_disabled": 0, "lon": -77.03272916666667, "fusion_lat": 0.0, "rental_uris": {"ios": "https://dc.lft.to/lastmile_qr_scan", "android": "https://dc.lft.to/lastmile_qr_scan"}, "type": "electric_scooter"}, {"name": "2b27dda0fd747ea6d0abb227555a3884", "is_reserved": 0, "fusion_lon": 0.0, "bike_id": "2b27dda0fd747ea6d0abb227555a3884", "lat": 38.89232633333334, "is_disabled": 0, "lon": -77.03193416666667, "fusion_lat": 0.0, "rental_uris": {"ios": "https://dc.lft.to/lastmile_qr_scan", "android": "https://dc.lft.to/lastmile_qr_scan"}, "type": "electric_scooter"}, {"name": "1c91ead45e77a3d511a5e40b76c5ad4c", "is_reserved": 0, "fusion_lon": 0.0, "bike_id": "1c91ead45e77a3d511a5e40b76c5ad4c", "lat": 38.93115866666667, "is_disabled": 0, "lon": -77.021235, "fusion_lat": 0.0, "rental_uris": {"ios": "https://dc.lft.to/lastmile_qr_scan", "android": "https://dc.lft.to/lastmile_qr_scan"}, "type": "electric_scooter"}, {"name": "d38e086c9194497c5fcfd135b4d3dbe9", "is_reserved": 0, "fusion_lon": 0.0, "bike_id": "d38e086c9194497c5fcfd135b4d3dbe9", "lat": 38.897215333333335, "is_disabled": 0, "lon": -77.0552075, "fusion_lat": 0.0, "rental_uris": {"ios": "https://dc.lft.to/lastmile_qr_scan", "android": "https://dc.lft.to/lastmile_qr_scan"}, "type": "electric_scooter"},