{"data": {"bikes": [{"bike_id": "18dd7287e2f1b84ef08938bf167c6bcf", "is_reserved": 0, "fusion_lon": 0.0, "lat": 38.90245916666667, "is_disabled": 0, "name": "18dd7287e2f1b84ef08938bf167c6bcf", "fusion_lat": 0.0, "rental_uris": {"ios": "https://dc.lft.to/lastmile_qr_scan", "android": "https://dc.lft.to/lastmile_qr_scan"}, "lon": -77.04351833333334, "type": "electric_scooter"}, {"bike_id": "28c0edca9b0813e2260f0f8dd0e9b80f", "is_reserved": 0, "fusion_lon": 0.0, "lat": 38.91260483333333, "is_disabled": 0, "name": "28c0edca9b0813e2260f0f8dd0e9b80f", "fusion_lat": 0.0, "rental_uris": {"ios": "https://dc.lft.to/lastmile_qr_scan", "android": "https://dc.lft.to/lastmile_qr_scan"}, "lon": -77.04439566666667, "type": "electric_scooter"}, {"bike_id": "9b14396a0eea98c55475152aafbbb81b", "is_reserved": 0, "fusion_lon": 0.0, "lat": 38.916483666666664, "is_disabled": 0, "name": "9b14396a0eea98c55475152aafbbb81b", "fusion_lat": 0.0, "rental_uris": {"ios": "https://dc.lft.to/lastmile_qr_scan", "android": "https://dc.lft.to/lastmile_qr_scan"}, "lon": -77.03195716666667, "type": "electric_scooter"}, {"bike_id": "e53858afab36ac5fbcc544bcc2284d48", "is_reserved": 0, "fusion_lon": 0.0, "lat": 38.91663483333333, "is_disabled": 0, "name": "e53858afab36ac5fbcc544bcc2284d48", "fusion_lat": 0.0, "rental_uris": {"ios": "https://dc.lft.to/lastmile_qr_scan", "android": "https://dc.lft.to/lastmile_qr_scan"}, "lon": -77.00503283333333, "type": "electric_scooter"}, {"bike_id": "8261e63e297f821ff1a387f3206535b9", "is_reserved": 0, "fusion_lon": 0.0, "lat": 38.90364116666667, "is_disabled": 0, "name": "8261e63e297f821ff1a387f3206535b9", "fusion_lat": 0.0, "rental_uris": {"ios": "https://dc.lft.to/lastmile_qr_scan", "android": "https://dc.lft.to/lastmile_qr_scan"}, "lon": -77.0298905, "type": "electric_scooter"}, {"bike_id": "982e00c45146711853e2e6fed11e040b", "is_reserved": 0, "fusion_lon": 0.0, "lat": 38.90550733333333, "is_disabled": 0, "name": "982e00c45146711853e2e6fed11e040b", "fusion_lat": 0.0, "rental_uris": {"ios": "https://dc.lft.to/lastmile_qr_scan", "android": "https://dc.lft.to/lastmile_qr_scan"}, "lon": -77.04001083333333, "type": "electric_scooter"}, {"bike_id": "a9da35738e0aea4239f3ad978339e45b", "is_reserved": 0, "fusion_lon": 0.0, "lat": 38.900817333333336, "is_disabled": 0, "name": "a9da35738e0aea4239f3ad978339e45b", "fusion_lat": 0.0, "rental_uris": {"ios": "https://dc.lft.to/lastmile_qr_scan", "android": "https://dc.lft.to/lastmile_qr_scan"}, "lon": -77.04771, "type": "electric_scooter"}, {"bike_id": "dcf8db5e8ceb842ae0421a637bd6b7c4", "is_reserved": 0, "fusion_lon": 0.0, "lat": 38.92862, "is_disabled": 0, "name": "dcf8db5e8ceb842ae0421a637bd6b7c4", "fusion_lat": 0.0, "rental_uris": {"ios": "https://dc.lft.to/lastmile_qr_scan", "android": "https://dc.lft.to/lastmile_qr_scan"}, "lon": -77.034274, "type": "electric_scooter"}, {"bike_id": "e8498e8d37ba3efb7f1cd9e098cdcc90", "is_reserved": 0, "fusion_lon": 0.0, "lat": 38.902968333333334, "is_disabled": 0, "name": "e8498e8d37ba3efb7f1cd9e098cdcc90", "fusion_lat": 0.0, "rental_uris": {"ios": "https://dc.lft.to/lastmile_qr_scan", "android": "https://dc.lft.to/lastmile_qr_scan"}, "lon": -76.94437933333333, "type": "electric_bike"}, {"bike_id": "87bd143de34f22d513e8b9604a49e892", "is_reserved": 0, "fusion_lon": 0.0, "lat": 38.83801233333333, "is_disabled": 0, "name": "87bd143de34f22d513e8b9604a49e892", "fusion_lat": 0.0, "rental_uris": {"ios": "https://dc.lft.to/lastmile_qr_scan", "android": "https://dc.lft.to/lastmile_qr_scan"}, "lon": -76.99834583333333, "type": "electric_bike"}, {"bike_id": "0971b272f665f918b74d2f5514e5f325", "is_reserved": 0, "fusion_lon": 0.0, "lat": 38.9058675, "is_disabled": 0, "name": "0971b272f665f918b74d2f5514e5f325", "fusion_lat": 0.0, "rental_uris": {"ios": "https://dc.lft.to/lastmile_qr_scan", "android": "https://dc.lft.to/lastmile_qr_scan"}, "lon": -77.03998433333334, "type": "electric_scooter"}, {"bike_id": "0f4e8445ba56ddd55e53ac2045e4f47b", "is_reserved": 0, "fusion_lon": 0.0, "lat": 38.901571833333335, "is_disabled": 0, "name": "0f4e8445ba56ddd55e53ac2045e4f47b", "fusion_lat": 0.0, "rental_uris": {"ios": "https://dc.lft.to/lastmile_qr_scan", "android": "https://dc.lft.to/lastmile_qr_scan"}, "lon": -76.9750995, "type": "electric_scooter"}, {"bike_id": "4b4530a302b6892f255801ecaacd263b", "is_reserved": 0, "fusion_lon": 0.0, "lat": 38.90119466666667, "is_disabled": 0, "name": "4b4530a302b6892f255801ecaacd263b", "fusion_lat": 0.0, "rental_uris": {"ios": "https://dc.lft.to/lastmile_qr_scan", "android": "https://dc.lft.to/lastmile_qr_scan"}, "lon": -77.0498005, "type": "electric_scooter"}, {"bike_id": "99e7aa28c43ff4338716a5262f2c5180", "is_reserved": 0, "fusion_lon": 0.0, "lat": 38.93342616666666, "is_disabled": 0, "name": "99e7aa28c43ff4338716a5262f2c5180", "fusion_lat": 0.0, "rental_uris": {"ios": "https://dc.lft.to/lastmile_qr_scan", "android": "https://dc.lft.to/lastmile_qr_scan"}, "lon": -77.0327895, "type": "electric_scooter"}, {"bike_id": "04055ca9c88b74b37944bcaab25dbeb2", "is_reserved": 0, "fusion_lon": 0.0, "lat": 39.01594016666667, "is_disabled": 0, "name": "04055ca9c88b74b37944bcaab25dbeb2", "fusion_lat": 0.0, "rental_uris": {"ios": "https://dc.lft.to/lastmile_qr_scan", "android": "https://dc.lft.to/lastmile_qr_scan"}, "lon": -77.04422633333333, "type": "electric_bike"}, {"bike_id": "0b344636d08e9339e41c5ed4c8393657", "is_reserved": 0, "fusion_lon": 0.0, "lat": 38.8987865, "is_disabled": 0, "name": "0b344636d08e9339e41c5ed4c8393657", "fusion_lat": 0.0, "rental_uris": {"ios": "https://dc.lft.to/lastmile_qr_scan", "android": "https://dc.lft.to/lastmile_qr_scan"}, "lon": -76.9315745, "type": "electric_scooter"}, {"bike_id": "fdb39ff0952b3a32d4ddf40f11997fda", "is_reserved": 0, "fusion_lon": 0.0, "lat": 38.903718, "is_disabled": 0, "name": "fdb39ff0952b3a32d4ddf40f11997fda", "fusion_lat": 0.0, "rental_uris": {"ios": "https://dc.lft.to/lastmile_qr_scan", "android": "https://dc.lft.to/lastmile_qr_scan"}, "lon": -77.03851, "type": "electric_scooter"}, {"bike_id": "d8e040e0b8c88e29bc58a816747b0280", "is_reserved": 0, "fusion_lon": 0.0, "lat": 38.9169745, "is_disabled": 0, "name": "d8e040e0b8c88e29bc58a816747b0280", "fusion_lat": 0.0, "rental_uris": {"ios": "https://dc.lft.to/lastmile_qr_scan", "android": "https://dc.lft.to/lastmile_qr_scan"}, "lon": -77.04106666666667, "type": "electric_scooter"}, {"bike_id": "0c1c8a1753b665acb7c39d20a259cffd", "is_reserved": 0, "fusion_lon": 0.0, "lat": 38.91574416666667, "is_disabled": 0, "name": "0c1c8a1753b665acb7c39d20a259cffd", "fusion_lat": 0.0, "rental_uris": {"ios": "https://dc.lft.to/lastmile_qr_scan", "android": "https://dc.lft.to/lastmile_qr_scan"}, "lon": -77.0464545, "type": "electric_scooter"}, {"bike_id": "3a7a7a04a09a30c6644937520afbe12b", "is_reserved": 0, "fusion_lon": 0.0, "lat": 38.89665166666666, "is_disabled": 0, "name": "3a7a7a04a09a30c6644937520afbe12b", "fusion_lat": 0.0, "rental_uris": {"ios": "https://dc.lft.to/lastmile_qr_scan", "android": "https://dc.lft.to/lastmile_qr_scan"}, "lon": -77.00578666666667, "type": "electric_bike"}, {"bike_id": "1aa25db4d7c51e2407b9c505f764cd35", "is_reserved": 0, "fusion_lon": 0.0, "lat": 38.9495425, "is_disabled": 0, "name": "1aa25db4d7c51e2407b9c505f764cd35", "fusion_lat": 0.0, "rental_uris": {"ios": "https://dc.lft.to/lastmile_qr_scan", "android": "https://dc.lft.to/lastmile_qr_scan"}, "lon": -77.01611083333333, "type": "electric_scooter"}, {"bike_id": "de981a15c004fe5f2980e5deec19c623", "is_reserved": 0, "fusion_lon": 0.0, "lat": 38.91963066666667, "is_disabled": 0, "name": "de981a15c004fe5f2980e5deec19c623", "fusion_lat": 0.0, "rental_uris": {"ios": "https://dc.lft.to/lastmile_qr_scan", "android": "https://dc.lft.to/lastmile_qr_scan"}, "lon": -76.97271216666667, "type": "electric_bike"}, {"bike_id": "caf746f5e5ab51239e3091b9b38f2278", "is_reserved": 0, "fusion_lon": 0.0, "lat": 38.9909205, "is_disabled": 0, "name": "caf746f5e5ab51239e3091b9b38f2278", "fusion_lat": 0.0, "rental_uris": {"ios": "https://dc.lft.to/lastmile_qr_scan", "android": "https://dc.lft.to/lastmile_qr_scan"}, "lon": -76.874943, "type": "electric_bike"}, {"bike_id": "53cf665bf3fa76670b741dda7383d04e", "is_reserved": 0, "fusion_lon": 0.0, "lat": 38.90000083333334, "is_disabled": 0, "name": "53cf665bf3fa76670b741dda7383d04e", "fusion_lat": 0.0, "rental_uris": {"ios": "https://dc.lft.to/lastmile_qr_scan", "android": "https://dc.lft.to/lastmile_qr_scan"}, "lon": -77.0400825, "type": "electric_scooter"}, {"bike_id": "5fd7c4d6910a0a3ffb798ac4c136f35e", "is_reserved": 0, "fusion_lon": 0.0, "lat": 38.905113666666665, "is_disabled": 0, "name": "5fd7c4d6910a0a3ffb798ac4c136f35e", "fusion_lat": 0.0, "rental_uris": {"ios": "https://dc.lft.to/lastmile_qr_scan", "android": "https://dc.lft.to/lastmile_qr_scan"}, "lon": -77.06158866666667, "type": "electric_scooter"}, {"bike_id": "869a8ef7091d5d2e26fcbde9d0edd87a", "is_reserved": 0, "fusion_lon": 0.0, "lat": 38.91093883333333, "is_disabled": 0, "name": "869a8ef7091d5d2e26fcbde9d0edd87a", "fusion_lat": 0.0, "rental_uris": {"ios": "https://dc.lft.to/lastmile_qr_scan", "android": "https://dc.lft.to/lastmile_qr_scan"}, "lon": -77.034441, "type": "electric_scooter"}, {"bike_id": "369272291cb88e0baff4d6c8c34d4255", "is_reserved": 0, "fusion_lon": 0.0, "lat": 38.916814333333335, "is_disabled": 0, "name": "369272291cb88e0baff4d6c8c34d4255", "fusion_lat": 0.0, "rental_uris": {"ios": "https://dc.lft.to/lastmile_qr_scan", "android": "https://dc.lft.to/lastmile_qr_scan"}, "lon": -77.0363125, "type": "electric_scooter"}, {"bike_id": "980d21e8fb87592f8f7d4b483a1ad104", "is_reserved": 0, "fusion_lon": 0.0, "lat": 38.82868066666666, "is_disabled": 0, "name": "980d21e8fb87592f8f7d4b483a1ad104", "fusion_lat": 0.0, "rental_uris": {"ios": "https://dc.lft.to/lastmile_qr_scan", "android": "https://dc.lft.to/lastmile_qr_scan"}, "lon": -77.11222383333333, "type": "electric_bike"}, {"bike_id": "4d29fee9a8122ba2a00c5c234767d0ad", "is_reserved": 0, "fusion_lon": 0.0, "lat": 38.93606416666667, "is_disabled": 0, "name": "4d29fee9a8122ba2a00c5c234767d0ad", "fusion_lat": 0.0, "rental_uris": {"ios": "https://dc.lft.to/lastmile_qr_scan", "android": "https://dc.lft.to/lastmile_qr_scan"}, "lon": -77.05856066666666, "type": "electric_scooter"}, {"bike_id": "216d3a54fa0da42cb8ab6b4947cef608", "is_reserved": 0, "fusion_lon": 0.0, "lat": 38.884058833333334, "is_disabled": 0, "name": "216d3a54fa0da42cb8ab6b4947cef608", "fusion_lat": 0.0, "rental_uris": {"ios": "https://dc.lft.to/lastmile_qr_scan", "android": "https://dc.lft.to/lastmile_qr_scan"}, "lon": -77.015133, "type": "electric_scooter"}, {"bike_id": "4b9f5696f736e0c08e59add87c3c937d", "is_reserved": 0, "fusion_lon": 0.0, "lat": 38.91801266666667, "is_disabled": 0, "name": "4b9f5696f736e0c08e59add87c3c937d", "fusion_lat": 0.0, "rental_uris": {"ios": "https://dc.lft.to/lastmile_qr_scan", "android": "https://dc.lft.to/lastmile_qr_scan"}, "lon": -77.03442583333333, "type": "electric_scooter"}, {"bike_id": "89a5b0dbd6050fcdbdfbd17e64f872e0", "is_reserved": 0, "fusion_lon": 0.0, "lat": 38.901345166666665, "is_disabled": 0, "name": "89a5b0dbd6050fcdbdfbd17e64f872e0", "fusion_lat": 0.0, "rental_uris": {"ios": "https://dc.lft.to/lastmile_qr_scan", "android": "https://dc.lft.to/lastmile_qr_scan"}, "lon": -77.04401516666667, "type": "electric_scooter"}, {"bike_id": "6b2c1432ef91dfc7d3b7a480a23f007b", "is_reserved": 0, "fusion_lon": 0.0, "lat": 38.878417, "is_disabled": 0, "name": "6b2c1432ef91dfc7d3b7a480a23f007b", "fusion_lat": 0.0, "rental_uris": {"ios": "https://dc.lft.to/lastmile_qr_scan", "android": "https://dc.lft.to/lastmile_qr_scan"}, "lon": -77.02278783333334, "type": "electric_scooter"}, {"bike_id": "0db09ba3d5abc12aa756180f1813db8b", "is_reserved": 0, "fusion_lon": 0.0, "lat": 38.93205566666666, "is_disabled": 0, "name": "0db09ba3d5abc12aa756180f1813db8b", "fusion_lat": 0.0, "rental_uris": {"ios": "https://dc.lft.to/lastmile_qr_scan", "android": "https://dc.lft.to/lastmile_qr_scan"}, "lon": -77.0385245, "type": "electric_scooter"}, {"bike_id": "26f2a2937d09700a3ef242543b835661", "is_reserved": 0, "fusion_lon": 0.0, "lat": 38.97235933333333, "is_disabled": 0, "name": "26f2a2937d09700a3ef242543b835661", "fusion_lat": 0.0, "rental_uris": {"ios": "https://dc.lft.to/lastmile_qr_scan", "android": "https://dc.lft.to/lastmile_qr_scan"}, "lon": -77.02714566666667, "type": "electric_scooter"}, {"bike_id": "3fd0c10b21fad42e810b12ca6fee71bf", "is_reserved": 0, "fusion_lon": 0.0, "lat": 38.9079615, "is_disabled": 0, "name": "3fd0c10b21fad42e810b12ca6fee71bf", "fusion_lat": 0.0, "rental_uris": {"ios": "https://dc.lft.to/lastmile_qr_scan", "android": "https://dc.lft.to/lastmile_qr_scan"}, "lon": -77.04869416666666, "type": "electric_scooter"}, {"bike_id": "261d931d37ffd7dbab14646d1b88e5f6", "is_reserved": 0, "fusion_lon": 0.0, "lat": 38.894027666666666, "is_disabled": 0, "name": "261d931d37ffd7dbab14646d1b88e5f6", "fusion_lat": 0.0, "rental_uris": {"ios": "https://dc.lft.to/lastmile_qr_scan", "android": "https://dc.lft.to/lastmile_qr_scan"}, "lon": -76.94810783333334, "type": "electric_scooter"}, {"bike_id": "5ecac85051b32bdead17e5825a059f93", "is_reserved": 0, "fusion_lon": 0.0, "lat": 38.8999735, "is_disabled": 0, "name": "5ecac85051b32bdead17e5825a059f93", "fusion_lat": 0.0, "rental_uris": {"ios": "https://dc.lft.to/lastmile_qr_scan", "android": "https://dc.lft.to/lastmile_qr_scan"}, "lon": -76.99490083333333, "type": "electric_scooter"}, {"bike_id": "b4efa50e70f49b5f88e202d5f8713479", "is_reserved": 0, "fusion_lon": 0.0, "lat": 38.899617, "is_disabled": 0, "name": "b4efa50e70f49b5f88e202d5f8713479", "fusion_lat": 0.0, "rental_uris": {"ios": "https://dc.lft.to/lastmile_qr_scan", "android": "https://dc.lft.to/lastmile_qr_scan"}, "lon": -76.98678333333334, "type": "electric_bike"}, {"bike_id": "82fc0d19a97bf75d39af550c46d4d56b", "is_reserved": 0, "fusion_lon": 0.0, "lat": 38.909601, "is_disabled": 0, "name": "82fc0d19a97bf75d39af550c46d4d56b", "fusion_lat": 0.0, "rental_uris": {"ios": "https://dc.lft.to/lastmile_qr_scan", "android": "https://dc.lft.to/lastmile_qr_scan"}, "lon": -77.03366816666667, "type": "electric_scooter"}, {"bike_id": "e4ab2bb17f50cdf501d36d610a72bbf1", "is_reserved": 0, "fusion_lon": 0.0, "lat": 38.919532, "is_disabled": 0, "name": "e4ab2bb17f50cdf501d36d610a72bbf1", "fusion_lat": 0.0, "rental_uris": {"ios": "https://dc.lft.to/lastmile_qr_scan", "android": "https://dc.lft.to/lastmile_qr_scan"}, "lon": -77.03187133333333, "type": "electric_scooter"}, {"bike_id": "14559f383a03c752dc2f48f4549f2d2b", "is_reserved": 0, "fusion_lon": 0.0, "lat": 38.919157166666665, "is_disabled": 0, "name": "14559f383a03c752dc2f48f4549f2d2b", "fusion_lat": 0.0, "rental_uris": {"ios": "https://dc.lft.to/lastmile_qr_scan", "android": "https://dc.lft.to/lastmile_qr_scan"}, "lon": -77.026167, "type": "electric_scooter"}, {"bike_id": "b5c443888349a0be3a267d4b08025097", "is_reserved": 0, "fusion_lon": 0.0, "lat": 38.89534583333333, "is_disabled": 0, "name": "b5c443888349a0be3a267d4b08025097", "fusion_lat": 0.0, "rental_uris": {"ios": "https://dc.lft.to/lastmile_qr_scan", "android": "https://dc.lft.to/lastmile_qr_scan"}, "lon": -77.0335065, "type": "electric_scooter"}, {"bike_id": "38fc592f27a997c44ee89172990d2f6c", "is_reserved": 0, "fusion_lon": 0.0, "lat": 38.94096416666667, "is_disabled": 0, "name": "38fc592f27a997c44ee89172990d2f6c", "fusion_lat": 0.0, "rental_uris": {"ios": "https://dc.lft.to/lastmile_qr_scan", "android": "https://dc.lft.to/lastmile_qr_scan"}, "lon": -77.03282266666666, "type": "electric_scooter"}, {"bike_id": "89d383ce53bc060a8a8a825e5af8239e", "is_reserved": 0, "fusion_lon": 0.0, "lat": 38.864249, "is_disabled": 0, "name": "89d383ce53bc060a8a8a825e5af8239e", "fusion_lat": 0.0, "rental_uris": {"ios": "https://dc.lft.to/lastmile_qr_scan", "android": "https://dc.lft.to/lastmile_qr_scan"}, "lon": -76.974281, "type": "electric_scooter"}, {"bike_id": "ffeeb5999c03ae251bd007a5126af851", "is_reserved": 0, "fusion_lon": 0.0, "lat": 38.92446133333333, "is_disabled": 0, "name": "ffeeb5999c03ae251bd007a5126af851", "fusion_lat": 0.0, "rental_uris": {"ios": "https://dc.lft.to/lastmile_qr_scan", "android": "https://dc.lft.to/lastmile_qr_scan"}, "lon": -77.033737, "type": "electric_scooter"}, {"bike_id": "f7db957242e8db5588e61dc015c47cf8", "is_reserved": 0, "fusion_lon": 0.0, "lat": 38.9065535, "is_disabled": 0, "name": "f7db957242e8db5588e61dc015c47cf8", "fusion_lat": 0.0, "rental_uris": {"ios": "https://dc.lft.to/lastmile_qr_scan", "android": "https://dc.lft.to/lastmile_qr_scan"}, "lon": -77.03804583333333, "type": "electric_scooter"}, {"bike_id": "41ad6184e0b470942b61a41574019e75", "is_reserved": 0, "fusion_lon": 0.0, "lat": 38.92445766666667, "is_disabled": 0, "name": "41ad6184e0b470942b61a41574019e75", "fusion_lat": 0.0, "rental_uris": {"ios": "https://dc.lft.to/lastmile_qr_scan", "android": "https://dc.lft.to/lastmile_qr_scan"}, "lon": -77.02036383333333, "type": "electric_scooter"}, {"bike_id": "29d2736e77996b5b3119484cac3ea790", "is_reserved": 0, "fusion_lon": 0.0, "lat": 38.91407366666667, "is_disabled": 0, "name": "29d2736e77996b5b3119484cac3ea790", "fusion_lat": 0.0, "rental_uris": {"ios": "https://dc.lft.to/lastmile_qr_scan", "android": "https://dc.lft.to/lastmile_qr_scan"}, "lon": -77.0456855, "type": "electric_scooter"}, {"bike_id": "66df5d0e51129a4cb99b40888541d26a", "is_reserved": 0, "fusion_lon": 0.0, "lat": 38.970622166666665, "is_disabled": 0, "name": "66df5d0e51129a4cb99b40888541d26a", "fusion_lat": 0.0, "rental_uris": {"ios": "https://dc.lft.to/lastmile_qr_scan", "android": "https://dc.lft.to/lastmile_qr_scan"}, "lon": -76.93615283333334, "type": "electric_bike"}, {"bike_id": "480c1f99b1b67ce267810a25e0c14a79", "is_reserved": 0, "fusion_lon": 0.0, "lat": 38.9002845, "is_disabled": 0, "name": "480c1f99b1b67ce267810a25e0c14a79", "fusion_lat": 0.0, "rental_uris": {"ios": "https://dc.lft.to/lastmile_qr_scan", "android": "https://dc.lft.to/lastmile_qr_scan"}, "lon": -76.987563, "type": "electric_scooter"}, {"bike_id": "0ba3ee96c4e5c8814342c4c223dd32de", "is_reserved": 0, "fusion_lon": 0.0, "lat": 38.90490283333333, "is_disabled": 0, "name": "0ba3ee96c4e5c8814342c4c223dd32de", "fusion_lat": 0.0, "rental_uris": {"ios": "https://dc.lft.to/lastmile_qr_scan", "android": "https://dc.lft.to/lastmile_qr_scan"}, "lon": -77.06010966666666, "type": "electric_scooter"}, {"bike_id": "6212c11473a7a5db5c834ef65a1981f6", "is_reserved": 0, "fusion_lon": 0.0, "lat": 38.90138233333333, "is_disabled": 0, "name": "6212c11473a7a5db5c834ef65a1981f6", "fusion_lat": 0.0, "rental_uris": {"ios": "https://dc.lft.to/lastmile_qr_scan", "android": "https://dc.lft.to/lastmile_qr_scan"}, "lon": -76.9979545, "type": "electric_scooter"}, {"bike_id": "4ec5e3f2107a4743998299b90f34bafc", "is_reserved": 0, "fusion_lon": 0.0, "lat": 38.90769183333333, "is_disabled": 0, "name": "4ec5e3f2107a4743998299b90f34bafc", "fusion_lat": 0.0, "rental_uris": {"ios": "https://dc.lft.to/lastmile_qr_scan", "android": "https://dc.lft.to/lastmile_qr_scan"}, "lon": -77.06913166666666, "type": "electric_scooter"}, {"bike_id": "a84ec546d93bb12e6552572dd06f0d36", "is_reserved": 0, "fusion_lon": 0.0, "lat": 38.921110666666664, "is_disabled": 0, "name": "a84ec546d93bb12e6552572dd06f0d36", "fusion_lat": 0.0, "rental_uris": {"ios": "https://dc.lft.to/lastmile_qr_scan", "android": "https://dc.lft.to/lastmile_qr_scan"}, "lon": -77.04198216666667, "type": "electric_scooter"}, {"bike_id": "cbf1eaaf241a660b887cfe5c7174e364", "is_reserved": 0, "fusion_lon": 0.0, "lat": 39.030445666666665, "is_disabled": 0, "name": "cbf1eaaf241a660b887cfe5c7174e364", "fusion_lat": 0.0, "rental_uris": {"ios": "https://dc.lft.to/lastmile_qr_scan", "android": "https://dc.lft.to/lastmile_qr_scan"}, "lon": -77.09470216666666, "type": "electric_bike"}, {"bike_id": "d0aa8daf8d80483acc440ae36f9a5df8", "is_reserved": 0, "fusion_lon": 0.0, "lat": 38.93113266666667, "is_disabled": 0, "name": "d0aa8daf8d80483acc440ae36f9a5df8", "fusion_lat": 0.0, "rental_uris": {"ios": "https://dc.lft.to/lastmile_qr_scan", "android": "https://dc.lft.to/lastmile_qr_scan"}, "lon": -77.03840966666667, "type": "electric_scooter"}, {"bike_id": "a38a36aa66300a8539192b5416da8e9b", "is_reserved": 0, "fusion_lon": 0.0, "lat": 38.91650383333333, "is_disabled": 0, "name": "a38a36aa66300a8539192b5416da8e9b", "fusion_lat": 0.0, "rental_uris": {"ios": "https://dc.lft.to/lastmile_qr_scan", "android": "https://dc.lft.to/lastmile_qr_scan"}, "lon": -77.03219433333334, "type": "electric_scooter"}, {"bike_id": "f413d760eb922751e8af1053c8ba8d88", "is_reserved": 0, "fusion_lon": 0.0, "lat": 38.90029083333334, "is_disabled": 0, "name": "f413d760eb922751e8af1053c8ba8d88", "fusion_lat": 0.0, "rental_uris": {"ios": "https://dc.lft.to/lastmile_qr_scan", "android": "https://dc.lft.to/lastmile_qr_scan"}, "lon": -76.98764183333333, "type": "electric_scooter"}, {"bike_id": "a27641d8a7c8a0e11930b0698ec9457d", "is_reserved": 0, "fusion_lon": 0.0, "lat": 38.918090666666664, "is_disabled": 0, "name": "a27641d8a7c8a0e11930b0698ec9457d", "fusion_lat": 0.0, "rental_uris": {"ios": "https://dc.lft.to/lastmile_qr_scan", "android": "https://dc.lft.to/lastmile_qr_scan"}, "lon": -77.03558383333333, "type": "electric_scooter"}, {"bike_id": "4503ab163f4cdb6e9ac6d9a83f7d67a8", "is_reserved": 0, "fusion_lon": 0.0, "lat": 38.870907, "is_disabled": 0, "name": "4503ab163f4cdb6e9ac6d9a83f7d67a8", "fusion_lat": 0.0, "rental_uris": {"ios": "https://dc.lft.to/lastmile_qr_scan", "android": "https://dc.lft.to/lastmile_qr_scan"}, "lon": -77.01202983333333, "type": "electric_bike"}, {"bike_id": "58cd7e9dc7a66d0fff2f26a195576a4d", "is_reserved": 0, "fusion_lon": 0.0, "lat": 38.904402166666664, "is_disabled": 0, "name": "58cd7e9dc7a66d0fff2f26a195576a4d", "fusion_lat": 0.0, "rental_uris": {"ios": "https://dc.lft.to/lastmile_qr_scan", "android": "https://dc.lft.to/lastmile_qr_scan"}, "lon": -76.98208833333334, "type": "electric_scooter"}, {"bike_id": "632341256d7098442dac453118c3a7f3", "is_reserved": 0, "fusion_lon": 0.0, "lat": 38.8969055, "is_disabled": 0, "name": "632341256d7098442dac453118c3a7f3", "fusion_lat": 0.0, "rental_uris": {"ios": "https://dc.lft.to/lastmile_qr_scan", "android": "https://dc.lft.to/lastmile_qr_scan"}, "lon": -76.9961695, "type": "electric_scooter"}, {"bike_id": "80d02a85bb46bca9a04dcd0212aa7955", "is_reserved": 0, "fusion_lon": 0.0, "lat": 38.891037833333336, "is_disabled": 0, "name": "80d02a85bb46bca9a04dcd0212aa7955", "fusion_lat": 0.0, "rental_uris": {"ios": "https://dc.lft.to/lastmile_qr_scan", "android": "https://dc.lft.to/lastmile_qr_scan"}, "lon": -76.9870275, "type": "electric_scooter"}, {"bike_id": "28d8c59d14b93cb5c85e712de3395217", "is_reserved": 0, "fusion_lon": 0.0, "lat": 38.86210366666667, "is_disabled": 0, "name": "28d8c59d14b93cb5c85e712de3395217", "fusion_lat": 0.0, "rental_uris": {"ios": "https://dc.lft.to/lastmile_qr_scan", "android": "https://dc.lft.to/lastmile_qr_scan"}, "lon": -76.99470783333334, "type": "electric_scooter"}, {"bike_id": "c9158ebc5196d29782046e7bf8a7dbb1", "is_reserved": 0, "fusion_lon": 0.0, "lat": 38.902805666666666, "is_disabled": 0, "name": "c9158ebc5196d29782046e7bf8a7dbb1", "fusion_lat": 0.0, "rental_uris": {"ios": "https://dc.lft.to/lastmile_qr_scan", "android": "https://dc.lft.to/lastmile_qr_scan"}, "lon": -77.03641733333333, "type": "electric_scooter"}, {"bike_id": "a66ddc0257ae76b98a2ae1dcb956906e", "is_reserved": 0, "fusion_lon": 0.0, "lat": 38.915707833333336, "is_disabled": 0, "name": "a66ddc0257ae76b98a2ae1dcb956906e", "fusion_lat": 0.0, "rental_uris": {"ios": "https://dc.lft.to/lastmile_qr_scan", "android": "https://dc.lft.to/lastmile_qr_scan"}, "lon": -77.04639283333333, "type": "electric_scooter"}, {"bike_id": "6109ca7d3b74607d889287faca57779c", "is_reserved": 0, "fusion_lon": 0.0, "lat": 38.90549933333333, "is_disabled": 0, "name": "6109ca7d3b74607d889287faca57779c", "fusion_lat": 0.0, "rental_uris": {"ios": "https://dc.lft.to/lastmile_qr_scan", "android": "https://dc.lft.to/lastmile_qr_scan"}, "lon": -77.02697983333333, "type": "electric_scooter"}, {"bike_id": "98e803dbbb02fe0f49939e0e5060c419", "is_reserved": 0, "fusion_lon": 0.0, "lat": 38.903866, "is_disabled": 0, "name": "98e803dbbb02fe0f49939e0e5060c419", "fusion_lat": 0.0, "rental_uris": {"ios": "https://dc.lft.to/lastmile_qr_scan", "android": "https://dc.lft.to/lastmile_qr_scan"}, "lon": -77.038413, "type": "electric_scooter"}, {"bike_id": "b682235b084ac0a2f02258568696b2a9", "is_reserved": 0, "fusion_lon": 0.0, "lat": 38.95923366666667, "is_disabled": 0, "name": "b682235b084ac0a2f02258568696b2a9", "fusion_lat": 0.0, "rental_uris": {"ios": "https://dc.lft.to/lastmile_qr_scan", "android": "https://dc.lft.to/lastmile_qr_scan"}, "lon": -77.03320783333334, "type": "electric_scooter"}, {"bike_id": "2727c1a9072946e23cca6d4e7e74c232", "is_reserved": 0, "fusion_lon": 0.0, "lat": 38.9032745, "is_disabled": 0, "name": "2727c1a9072946e23cca6d4e7e74c232", "fusion_lat": 0.0, "rental_uris": {"ios": "https://dc.lft.to/lastmile_qr_scan", "android": "https://dc.lft.to/lastmile_qr_scan"}, "lon": -77.06646566666667, "type": "electric_scooter"}, {"bike_id": "6d9d536c02e2115443eeb71122503d69", "is_reserved": 0, "fusion_lon": 0.0, "lat": 38.910225, "is_disabled": 0, "name": "6d9d536c02e2115443eeb71122503d69", "fusion_lat": 0.0, "rental_uris": {"ios": "https://dc.lft.to/lastmile_qr_scan", "android": "https://dc.lft.to/lastmile_qr_scan"}, "lon": -77.0479875, "type": "electric_scooter"}, {"bike_id": "e1d6342602ff0947035134028391a52a", "is_reserved": 0, "fusion_lon": 0.0, "lat": 38.89876133333333, "is_disabled": 0, "name": "e1d6342602ff0947035134028391a52a", "fusion_lat": 0.0, "rental_uris": {"ios": "https://dc.lft.to/lastmile_qr_scan", "android": "https://dc.lft.to/lastmile_qr_scan"}, "lon": -76.93159816666666, "type": "electric_scooter"}, {"bike_id": "a89c66d30701489c1ff470a69b8d1829", "is_reserved": 0, "fusion_lon": 0.0, "lat": 38.92143683333333, "is_disabled": 0, "name": "a89c66d30701489c1ff470a69b8d1829", "fusion_lat": 0.0, "rental_uris": {"ios": "https://dc.lft.to/lastmile_qr_scan", "android": "https://dc.lft.to/lastmile_qr_scan"}, "lon": -77.03487783333334, "type": "electric_scooter"}, {"bike_id": "ed3ecf572a761c9b1ceb289c3977c613", "is_reserved": 0, "fusion_lon": 0.0, "lat": 38.85630116666667, "is_disabled": 0, "name": "ed3ecf572a761c9b1ceb289c3977c613", "fusion_lat": 0.0, "rental_uris": {"ios": "https://dc.lft.to/lastmile_qr_scan", "android": "https://dc.lft.to/lastmile_qr_scan"}, "lon": -76.97452, "type": "electric_scooter"}, {"bike_id": "97057a745bf14896750f3e68d22f3062", "is_reserved": 0, "fusion_lon": 0.0, "lat": 38.929016, "is_disabled": 0, "name": "97057a745bf14896750f3e68d22f3062", "fusion_lat": 0.0, "rental_uris": {"ios": "https://dc.lft.to/lastmile_qr_scan", "android": "https://dc.lft.to/lastmile_qr_scan"}, "lon": -77.05451033333334, "type": "electric_scooter"}, {"bike_id": "ea2aa78b1642254ba90e97926dfd4137", "is_reserved": 0, "fusion_lon": 0.0, "lat": 38.90368316666667, "is_disabled": 0, "name": "ea2aa78b1642254ba90e97926dfd4137", "fusion_lat": 0.0, "rental_uris": {"ios": "https://dc.lft.to/lastmile_qr_scan", "android": "https://dc.lft.to/lastmile_qr_scan"}, "lon": -77.01097333333334, "type": "electric_scooter"}, {"bike_id": "4fdd562623a1b55fd4b9b6e6af72b189", "is_reserved": 0, "fusion_lon": 0.0, "lat": 38.94174116666667, "is_disabled": 0, "name": "4fdd562623a1b55fd4b9b6e6af72b189", "fusion_lat": 0.0, "rental_uris": {"ios": "https://dc.lft.to/lastmile_qr_scan", "android": "https://dc.lft.to/lastmile_qr_scan"}, "lon": -77.0413295, "type": "electric_scooter"}, {"bike_id": "32f7292ab1839c96c375555f2200836f", "is_reserved": 0, "fusion_lon": 0.0, "lat": 38.956306, "is_disabled": 0, "name": "32f7292ab1839c96c375555f2200836f", "fusion_lat": 0.0, "rental_uris": {"ios": "https://dc.lft.to/lastmile_qr_scan", "android": "https://dc.lft.to/lastmile_qr_scan"}, "lon": -76.966612, "type": "electric_bike"}, {"bike_id": "bc1bc63b47447e6b860a7a062da41d0e", "is_reserved": 0, "fusion_lon": 0.0, "lat": 38.9072155, "is_disabled": 0, "name": "bc1bc63b47447e6b860a7a062da41d0e", "fusion_lat": 0.0, "rental_uris": {"ios": "https://dc.lft.to/lastmile_qr_scan", "android": "https://dc.lft.to/lastmile_qr_scan"}, "lon": -77.04342316666667, "type": "electric_scooter"}, {"bike_id": "1df5d361e15d2005bd09a148ecf06a3e", "is_reserved": 0, "fusion_lon": 0.0, "lat": 38.953434333333334, "is_disabled": 0, "name": "1df5d361e15d2005bd09a148ecf06a3e", "fusion_lat": 0.0, "rental_uris": {"ios": "https://dc.lft.to/lastmile_qr_scan", "android": "https://dc.lft.to/lastmile_qr_scan"}, "lon": -77.00953516666667, "type": "electric_bike"}, {"bike_id": "17e4c6f5cd26f870634c787d89ef6d71", "is_reserved": 0, "fusion_lon": 0.0, "lat": 38.90522766666667, "is_disabled": 0, "name": "17e4c6f5cd26f870634c787d89ef6d71", "fusion_lat": 0.0, "rental_uris": {"ios": "https://dc.lft.to/lastmile_qr_scan", "android": "https://dc.lft.to/lastmile_qr_scan"}, "lon": -77.05156, "type": "electric_scooter"}, {"bike_id": "5728db8d13aab7be0ddc2fdf1415ecfb", "is_reserved": 0, "fusion_lon": 0.0, "lat": 38.93534833333333, "is_disabled": 0, "name": "5728db8d13aab7be0ddc2fdf1415ecfb", "fusion_lat": 0.0, "rental_uris": {"ios": "https://dc.lft.to/lastmile_qr_scan", "android": "https://dc.lft.to/lastmile_qr_scan"}, "lon": -77.03420166666666, "type": "electric_scooter"}, {"bike_id": "78925197fe355389e3791ee67cc13c51", "is_reserved": 0, "fusion_lon": 0.0, "lat": 38.86536433333333, "is_disabled": 0, "name": "78925197fe355389e3791ee67cc13c51", "fusion_lat": 0.0, "rental_uris": {"ios": "https://dc.lft.to/lastmile_qr_scan", "android": "https://dc.lft.to/lastmile_qr_scan"}, "lon": -76.98702783333333, "type": "electric_scooter"}, {"bike_id": "073067f62c8ed4588901e06f5d587773", "is_reserved": 0, "fusion_lon": 0.0, "lat": 38.95750566666667, "is_disabled": 0, "name": "073067f62c8ed4588901e06f5d587773", "fusion_lat": 0.0, "rental_uris": {"ios": "https://dc.lft.to/lastmile_qr_scan", "android": "https://dc.lft.to/lastmile_qr_scan"}, "lon": -77.0241575, "type": "electric_scooter"}, {"bike_id": "02d49e2283a4b9d550174d2084d6e652", "is_reserved": 0, "fusion_lon": 0.0, "lat": 38.9285575, "is_disabled": 0, "name": "02d49e2283a4b9d550174d2084d6e652", "fusion_lat": 0.0, "rental_uris": {"ios": "https://dc.lft.to/lastmile_qr_scan", "android": "https://dc.lft.to/lastmile_qr_scan"}, "lon": -77.22225533333334, "type": "electric_bike"}, {"bike_id": "c703812886f744f6dfa5debacef0d685", "is_reserved": 0, "fusion_lon": 0.0, "lat": 38.88739983333333, "is_disabled": 0, "name": "c703812886f744f6dfa5debacef0d685", "fusion_lat": 0.0, "rental_uris": {"ios": "https://dc.lft.to/lastmile_qr_scan", "android": "https://dc.lft.to/lastmile_qr_scan"}, "lon": -77.02261816666666, "type": "electric_bike"}, {"bike_id": "a633502dfcc28a331629d5dc8e55f9c1", "is_reserved": 0, "fusion_lon": 0.0, "lat": 39.088575666666664, "is_disabled": 0, "name": "a633502dfcc28a331629d5dc8e55f9c1", "fusion_lat": 0.0, "rental_uris": {"ios": "https://dc.lft.to/lastmile_qr_scan", "android": "https://dc.lft.to/lastmile_qr_scan"}, "lon": -77.1784135, "type": "electric_bike"}, {"bike_id": "fc6f4f392c04dbdcc75d316483f09f79", "is_reserved": 0, "fusion_lon": 0.0, "lat": 38.95651133333333, "is_disabled": 0, "name": "fc6f4f392c04dbdcc75d316483f09f79", "fusion_lat": 0.0, "rental_uris": {"ios": "https://dc.lft.to/lastmile_qr_scan", "android": "https://dc.lft.to/lastmile_qr_scan"}, "lon": -77.03285666666666, "type": "electric_scooter"}, {"bike_id": "c1b6358e671dc6b49ddae96c05610b9f", "is_reserved": 0, "fusion_lon": 0.0, "lat": 38.93296516666667, "is_disabled": 0, "name": "c1b6358e671dc6b49ddae96c05610b9f", "fusion_lat": 0.0, "rental_uris": {"ios": "https://dc.lft.to/lastmile_qr_scan", "android": "https://dc.lft.to/lastmile_qr_scan"}, "lon": -77.02800083333334, "type": "electric_scooter"}, {"bike_id": "5f6167751a582c9e51569135430633bf", "is_reserved": 0, "fusion_lon": 0.0, "lat": 38.90382233333333, "is_disabled": 0, "name": "5f6167751a582c9e51569135430633bf", "fusion_lat": 0.0, "rental_uris": {"ios": "https://dc.lft.to/lastmile_qr_scan", "android": "https://dc.lft.to/lastmile_qr_scan"}, "lon": -77.04204383333334, "type": "electric_scooter"}, {"bike_id": "69ef93110dfa8722f67a57a5d77a2828", "is_reserved": 0, "fusion_lon": 0.0, "lat": 38.917107666666666, "is_disabled": 0, "name": "69ef93110dfa8722f67a57a5d77a2828", "fusion_lat": 0.0, "rental_uris": {"ios": "https://dc.lft.to/lastmile_qr_scan", "android": "https://dc.lft.to/lastmile_qr_scan"}, "lon": -77.03226516666666, "type": "electric_scooter"}, {"bike_id": "7a05ac57181cc0abdc85f244b4ac5adb", "is_reserved": 0, "fusion_lon": 0.0, "lat": 38.96112883333333, "is_disabled": 0, "name": "7a05ac57181cc0abdc85f244b4ac5adb", "fusion_lat": 0.0, "rental_uris": {"ios": "https://dc.lft.to/lastmile_qr_scan", "android": "https://dc.lft.to/lastmile_qr_scan"}, "lon": -77.02802233333334, "type": "electric_scooter"}, {"bike_id": "836d8bc511a7b86ce6ea124f201c1941", "is_reserved": 0, "fusion_lon": 0.0, "lat": 38.85802283333334, "is_disabled": 0, "name": "836d8bc511a7b86ce6ea124f201c1941", "fusion_lat": 0.0, "rental_uris": {"ios": "https://dc.lft.to/lastmile_qr_scan", "android": "https://dc.lft.to/lastmile_qr_scan"}, "lon": -76.98751066666667, "type": "electric_bike"}, {"bike_id": "9e7505e5d93870af4c1a343c61e16df8", "is_reserved": 0, "fusion_lon": 0.0, "lat": 38.91055433333333, "is_disabled": 0, "name": "9e7505e5d93870af4c1a343c61e16df8", "fusion_lat": 0.0, "rental_uris": {"ios": "https://dc.lft.to/lastmile_qr_scan", "android": "https://dc.lft.to/lastmile_qr_scan"}, "lon": -77.01686933333333, "type": "electric_scooter"}, {"bike_id": "79ee8ccfe2984d697b5b79512fa54731", "is_reserved": 0, "fusion_lon": 0.0, "lat": 38.9222695, "is_disabled": 0, "name": "79ee8ccfe2984d697b5b79512fa54731", "fusion_lat": 0.0, "rental_uris": {"ios": "https://dc.lft.to/lastmile_qr_scan", "android": "https://dc.lft.to/lastmile_qr_scan"}, "lon": -77.0389325, "type": "electric_scooter"}, {"bike_id": "f431e7388846c3c87667e0a5e9e4263b", "is_reserved": 0, "fusion_lon": 0.0, "lat": 38.92029733333333, "is_disabled": 0, "name": "f431e7388846c3c87667e0a5e9e4263b", "fusion_lat": 0.0, "rental_uris": {"ios": "https://dc.lft.to/lastmile_qr_scan", "android": "https://dc.lft.to/lastmile_qr_scan"}, "lon": -77.0111525, "type": "electric_scooter"}, {"bike_id": "b023e5b365a9c79eb4324fcd90a6c0c6", "is_reserved": 0, "fusion_lon": 0.0, "lat": 38.84296283333333, "is_disabled": 0, "name": "b023e5b365a9c79eb4324fcd90a6c0c6", "fusion_lat": 0.0, "rental_uris": {"ios": "https://dc.lft.to/lastmile_qr_scan", "android": "https://dc.lft.to/lastmile_qr_scan"}, "lon": -76.99945166666667, "type": "electric_scooter"}, {"bike_id": "2f95cac4ea6227d6383b5a24aa43331c", "is_reserved": 0, "fusion_lon": 0.0, "lat": 38.89232883333333, "is_disabled": 0, "name": "2f95cac4ea6227d6383b5a24aa43331c", "fusion_lat": 0.0, "rental_uris": {"ios": "https://dc.lft.to/lastmile_qr_scan", "android": "https://dc.lft.to/lastmile_qr_scan"}, "lon": -77.02830783333333, "type": "electric_scooter"}, {"bike_id": "a8f1fe9f58500c2342a573d90706e81a", "is_reserved": 0, "fusion_lon": 0.0, "lat": 38.88363966666667, "is_disabled": 0, "name": "a8f1fe9f58500c2342a573d90706e81a", "fusion_lat": 0.0, "rental_uris": {"ios": "https://dc.lft.to/lastmile_qr_scan", "android": "https://dc.lft.to/lastmile_qr_scan"}, "lon": -77.031716, "type": "electric_scooter"}, {"bike_id": "dd312298051ce8d65203a6541419f66d", "is_reserved": 0, "fusion_lon": 0.0, "lat": 38.906978, "is_disabled": 0, "name": "dd312298051ce8d65203a6541419f66d", "fusion_lat": 0.0, "rental_uris": {"ios": "https://dc.lft.to/lastmile_qr_scan", "android": "https://dc.lft.to/lastmile_qr_scan"}, "lon": -77.07542616666667, "type": "electric_scooter"}, {"bike_id": "ce7684e9da0a6d95fae8e6efe6d71f34", "is_reserved": 0, "fusion_lon": 0.0, "lat": 38.89833933333333, "is_disabled": 0, "name": "ce7684e9da0a6d95fae8e6efe6d71f34", "fusion_lat": 0.0, "rental_uris": {"ios": "https://dc.lft.to/lastmile_qr_scan", "android": "https://dc.lft.to/lastmile_qr_scan"}, "lon": -76.9463605, "type": "electric_scooter"}, {"bike_id": "fe87cd4404bdc1688f9374f14c4abcc3", "is_reserved": 0, "fusion_lon": 0.0, "lat": 38.9259645, "is_disabled": 0, "name": "fe87cd4404bdc1688f9374f14c4abcc3", "fusion_lat": 0.0, "rental_uris": {"ios": "https://dc.lft.to/lastmile_qr_scan", "android": "https://dc.lft.to/lastmile_qr_scan"}, "lon": -77.004785, "type": "electric_scooter"}, {"bike_id": "2c4d49e4e3b424089d1e2da61df204a9", "is_reserved": 0, "fusion_lon": 0.0, "lat": 38.9093125, "is_disabled": 0, "name": "2c4d49e4e3b424089d1e2da61df204a9", "fusion_lat": 0.0, "rental_uris": {"ios": "https://dc.lft.to/lastmile_qr_scan", "android": "https://dc.lft.to/lastmile_qr_scan"}, "lon": -76.999654, "type": "electric_scooter"}, {"bike_id": "f61976bb030647e71d2d5f77d399a543", "is_reserved": 0, "fusion_lon": 0.0, "lat": 38.91543166666666, "is_disabled": 0, "name": "f61976bb030647e71d2d5f77d399a543", "fusion_lat": 0.0, "rental_uris": {"ios": "https://dc.lft.to/lastmile_qr_scan", "android": "https://dc.lft.to/lastmile_qr_scan"}, "lon": -77.0379155, "type": "electric_scooter"}, {"bike_id": "10ef67aff4a6c58dc45234e1aed4e65a", "is_reserved": 0, "fusion_lon": 0.0, "lat": 38.892327, "is_disabled": 0, "name": "10ef67aff4a6c58dc45234e1aed4e65a", "fusion_lat": 0.0, "rental_uris": {"ios": "https://dc.lft.to/lastmile_qr_scan", "android": "https://dc.lft.to/lastmile_qr_scan"}, "lon": -77.04998683333334, "type": "electric_scooter"}, {"bike_id": "249f18f37b5cb351559a0f6e7c7f4c3c", "is_reserved": 0, "fusion_lon": 0.0, "lat": 38.9035225, "is_disabled": 0, "name": "249f18f37b5cb351559a0f6e7c7f4c3c", "fusion_lat": 0.0, "rental_uris": {"ios": "https://dc.lft.to/lastmile_qr_scan", "android": "https://dc.lft.to/lastmile_qr_scan"}, "lon": -77.03167, "type": "electric_scooter"}, {"bike_id": "e653544e0e485dbd5271da01971f2794", "is_reserved": 0, "fusion_lon": 0.0, "lat": 38.93534266666666, "is_disabled": 0, "name": "e653544e0e485dbd5271da01971f2794", "fusion_lat": 0.0, "rental_uris": {"ios": "https://dc.lft.to/lastmile_qr_scan", "android": "https://dc.lft.to/lastmile_qr_scan"}, "lon": -77.02846483333333, "type": "electric_scooter"}, {"bike_id": "01e4cad68d0e82ebb5431dae6c3178a1", "is_reserved": 0, "fusion_lon": 0.0, "lat": 38.9226795, "is_disabled": 0, "name": "01e4cad68d0e82ebb5431dae6c3178a1", "fusion_lat": 0.0, "rental_uris": {"ios": "https://dc.lft.to/lastmile_qr_scan", "android": "https://dc.lft.to/lastmile_qr_scan"}, "lon": -77.018243, "type": "electric_scooter"}, {"bike_id": "76721b0847ce49118b612b4ed6f9d515", "is_reserved": 0, "fusion_lon": 0.0, "lat": 38.906714666666666, "is_disabled": 0, "name": "76721b0847ce49118b612b4ed6f9d515", "fusion_lat": 0.0, "rental_uris": {"ios": "https://dc.lft.to/lastmile_qr_scan", "android": "https://dc.lft.to/lastmile_qr_scan"}, "lon": -77.00623433333334, "type": "electric_scooter"}, {"bike_id": "b0969952bd2355bedaa406bd67b39bbe", "is_reserved": 0, "fusion_lon": 0.0, "lat": 38.927172666666664, "is_disabled": 0, "name": "b0969952bd2355bedaa406bd67b39bbe", "fusion_lat": 0.0, "rental_uris": {"ios": "https://dc.lft.to/lastmile_qr_scan", "android": "https://dc.lft.to/lastmile_qr_scan"}, "lon": -77.0404335, "type": "electric_scooter"}, {"bike_id": "ac1f19f67ac5416906b804cf56abc82a", "is_reserved": 0, "fusion_lon": 0.0, "lat": 38.9052875, "is_disabled": 0, "name": "ac1f19f67ac5416906b804cf56abc82a", "fusion_lat": 0.0, "rental_uris": {"ios": "https://dc.lft.to/lastmile_qr_scan", "android": "https://dc.lft.to/lastmile_qr_scan"}, "lon": -77.06529183333333, "type": "electric_scooter"}, {"bike_id": "78da8f30b0152c9edd3ef1ee35d83df6", "is_reserved": 0, "fusion_lon": 0.0, "lat": 38.903723666666664, "is_disabled": 0, "name": "78da8f30b0152c9edd3ef1ee35d83df6", "fusion_lat": 0.0, "rental_uris": {"ios": "https://dc.lft.to/lastmile_qr_scan", "android": "https://dc.lft.to/lastmile_qr_scan"}, "lon": -77.04490616666666, "type": "electric_scooter"}, {"bike_id": "e07cf4de0c76ae2193597d36fc82dcb7", "is_reserved": 0, "fusion_lon": 0.0, "lat": 38.899586166666666, "is_disabled": 0, "name": "e07cf4de0c76ae2193597d36fc82dcb7", "fusion_lat": 0.0, "rental_uris": {"ios": "https://dc.lft.to/lastmile_qr_scan", "android": "https://dc.lft.to/lastmile_qr_scan"}, "lon": -77.05279666666667, "type": "electric_scooter"}, {"bike_id": "5f62ff1538a384143e1042caa1876902", "is_reserved": 0, "fusion_lon": 0.0, "lat": 38.90130383333333, "is_disabled": 0, "name": "5f62ff1538a384143e1042caa1876902", "fusion_lat": 0.0, "rental_uris": {"ios": "https://dc.lft.to/lastmile_qr_scan", "android": "https://dc.lft.to/lastmile_qr_scan"}, "lon": -76.99705016666667, "type": "electric_scooter"}, {"bike_id": "4886fb5f89d6308efc24d8bb47273f74", "is_reserved": 0, "fusion_lon": 0.0, "lat": 38.9023285, "is_disabled": 0, "name": "4886fb5f89d6308efc24d8bb47273f74", "fusion_lat": 0.0, "rental_uris": {"ios": "https://dc.lft.to/lastmile_qr_scan", "android": "https://dc.lft.to/lastmile_qr_scan"}, "lon": -77.02336333333334, "type": "electric_scooter"}, {"bike_id": "59f3519173a29df8ac50247a927eefec", "is_reserved": 0, "fusion_lon": 0.0, "lat": 38.898561666666666, "is_disabled": 0, "name": "59f3519173a29df8ac50247a927eefec", "fusion_lat": 0.0, "rental_uris": {"ios": "https://dc.lft.to/lastmile_qr_scan", "android": "https://dc.lft.to/lastmile_qr_scan"}, "lon": -76.9817315, "type": "electric_scooter"}, {"bike_id": "f48920e26e76c4b5db6591707aee922c", "is_reserved": 0, "fusion_lon": 0.0, "lat": 38.932841, "is_disabled": 0, "name": "f48920e26e76c4b5db6591707aee922c", "fusion_lat": 0.0, "rental_uris": {"ios": "https://dc.lft.to/lastmile_qr_scan", "android": "https://dc.lft.to/lastmile_qr_scan"}, "lon": -77.0296535, "type": "electric_scooter"}, {"bike_id": "a3107fff34dd23371c2c77c7fa0c3ec9", "is_reserved": 0, "fusion_lon": 0.0, "lat": 39.05636883333333, "is_disabled": 0, "name": "a3107fff34dd23371c2c77c7fa0c3ec9", "fusion_lat": 0.0, "rental_uris": {"ios": "https://dc.lft.to/lastmile_qr_scan", "android": "https://dc.lft.to/lastmile_qr_scan"}, "lon": -77.1252115, "type": "electric_bike"}, {"bike_id": "e7446de529967e6f6353aeef9abe0af4", "is_reserved": 0, "fusion_lon": 0.0, "lat": 38.902682666666664, "is_disabled": 0, "name": "e7446de529967e6f6353aeef9abe0af4", "fusion_lat": 0.0, "rental_uris": {"ios": "https://dc.lft.to/lastmile_qr_scan", "android": "https://dc.lft.to/lastmile_qr_scan"}, "lon": -77.01762383333333, "type": "electric_scooter"}, {"bike_id": "59ce3d958b1cef2dd9a946efa4c0f402", "is_reserved": 0, "fusion_lon": 0.0, "lat": 38.868277166666665, "is_disabled": 0, "name": "59ce3d958b1cef2dd9a946efa4c0f402", "fusion_lat": 0.0, "rental_uris": {"ios": "https://dc.lft.to/lastmile_qr_scan", "android": "https://dc.lft.to/lastmile_qr_scan"}, "lon": -76.98611716666667, "type": "electric_scooter"}, {"bike_id": "98c63f7adc78d3f54269600d440d91b1", "is_reserved": 0, "fusion_lon": 0.0, "lat": 38.8853255, "is_disabled": 0, "name": "98c63f7adc78d3f54269600d440d91b1", "fusion_lat": 0.0, "rental_uris": {"ios": "https://dc.lft.to/lastmile_qr_scan", "android": "https://dc.lft.to/lastmile_qr_scan"}, "lon": -77.005805, "type": "electric_scooter"}, {"bike_id": "b8690e7b4c45810272c907c155f2e8e0", "is_reserved": 0, "fusion_lon": 0.0, "lat": 38.927078, "is_disabled": 0, "name": "b8690e7b4c45810272c907c155f2e8e0", "fusion_lat": 0.0, "rental_uris": {"ios": "https://dc.lft.to/lastmile_qr_scan", "android": "https://dc.lft.to/lastmile_qr_scan"}, "lon": -77.02099416666667, "type": "electric_scooter"}, {"bike_id": "da85b097503b0c82dd4aeabe3334e26b", "is_reserved": 0, "fusion_lon": 0.0, "lat": 38.908560333333334, "is_disabled": 0, "name": "da85b097503b0c82dd4aeabe3334e26b", "fusion_lat": 0.0, "rental_uris": {"ios": "https://dc.lft.to/lastmile_qr_scan", "android": "https://dc.lft.to/lastmile_qr_scan"}, "lon": -77.03192033333333, "type": "electric_scooter"}, {"bike_id": "404d83d9feb650b144e94880ec952456", "is_reserved": 0, "fusion_lon": 0.0, "lat": 38.90576866666667, "is_disabled": 0, "name": "404d83d9feb650b144e94880ec952456", "fusion_lat": 0.0, "rental_uris": {"ios": "https://dc.lft.to/lastmile_qr_scan", "android": "https://dc.lft.to/lastmile_qr_scan"}, "lon": -77.044403, "type": "electric_scooter"}, {"bike_id": "e2ac06aac31123841d0bac04a2e1566b", "is_reserved": 0, "fusion_lon": 0.0, "lat": 38.91730283333333, "is_disabled": 0, "name": "e2ac06aac31123841d0bac04a2e1566b", "fusion_lat": 0.0, "rental_uris": {"ios": "https://dc.lft.to/lastmile_qr_scan", "android": "https://dc.lft.to/lastmile_qr_scan"}, "lon": -77.03655233333333, "type": "electric_scooter"}, {"bike_id": "e854ac1c10e0cd36354f3ccc755995f3", "is_reserved": 0, "fusion_lon": 0.0, "lat": 38.9349835, "is_disabled": 0, "name": "e854ac1c10e0cd36354f3ccc755995f3", "fusion_lat": 0.0, "rental_uris": {"ios": "https://dc.lft.to/lastmile_qr_scan", "android": "https://dc.lft.to/lastmile_qr_scan"}, "lon": -77.02840733333333, "type": "electric_scooter"}, {"bike_id": "c2298bbf107885c2478b448851a1e216", "is_reserved": 0, "fusion_lon": 0.0, "lat": 38.8808495, "is_disabled": 0, "name": "c2298bbf107885c2478b448851a1e216", "fusion_lat": 0.0, "rental_uris": {"ios": "https://dc.lft.to/lastmile_qr_scan", "android": "https://dc.lft.to/lastmile_qr_scan"}, "lon": -76.9853455, "type": "electric_scooter"}, {"bike_id": "ccfb72eb94ad6c72771794b7ee6becba", "is_reserved": 0, "fusion_lon": 0.0, "lat": 38.900244, "is_disabled": 0, "name": "ccfb72eb94ad6c72771794b7ee6becba", "fusion_lat": 0.0, "rental_uris": {"ios": "https://dc.lft.to/lastmile_qr_scan", "android": "https://dc.lft.to/lastmile_qr_scan"}, "lon": -76.98700666666667, "type": "electric_scooter"}, {"bike_id": "8f7deb49acbd19f5826e24f4632ac817", "is_reserved": 0, "fusion_lon": 0.0, "lat": 38.9031595, "is_disabled": 0, "name": "8f7deb49acbd19f5826e24f4632ac817", "fusion_lat": 0.0, "rental_uris": {"ios": "https://dc.lft.to/lastmile_qr_scan", "android": "https://dc.lft.to/lastmile_qr_scan"}, "lon": -77.03306833333333, "type": "electric_scooter"}, {"bike_id": "ddc65b1d0382c431d5365461b4705000", "is_reserved": 0, "fusion_lon": 0.0, "lat": 38.91187083333333, "is_disabled": 0, "name": "ddc65b1d0382c431d5365461b4705000", "fusion_lat": 0.0, "rental_uris": {"ios": "https://dc.lft.to/lastmile_qr_scan", "android": "https://dc.lft.to/lastmile_qr_scan"}, "lon": -77.04544766666666, "type": "electric_scooter"}, {"bike_id": "8b61a7bf6b8f51fb4ff02c29ccc301eb", "is_reserved": 0, "fusion_lon": 0.0, "lat": 38.854249333333335, "is_disabled": 0, "name": "8b61a7bf6b8f51fb4ff02c29ccc301eb", "fusion_lat": 0.0, "rental_uris": {"ios": "https://dc.lft.to/lastmile_qr_scan", "android": "https://dc.lft.to/lastmile_qr_scan"}, "lon": -76.909592, "type": "electric_bike"}, {"bike_id": "3558db04a4206995437928975ab4d6a3", "is_reserved": 0, "fusion_lon": 0.0, "lat": 38.88599216666667, "is_disabled": 0, "name": "3558db04a4206995437928975ab4d6a3", "fusion_lat": 0.0, "rental_uris": {"ios": "https://dc.lft.to/lastmile_qr_scan", "android": "https://dc.lft.to/lastmile_qr_scan"}, "lon": -77.005698, "type": "electric_scooter"}, {"bike_id": "040ef14c1e2e78ce29e41b2b1926ee64", "is_reserved": 0, "fusion_lon": 0.0, "lat": 38.844252, "is_disabled": 0, "name": "040ef14c1e2e78ce29e41b2b1926ee64", "fusion_lat": 0.0, "rental_uris": {"ios": "https://dc.lft.to/lastmile_qr_scan", "android": "https://dc.lft.to/lastmile_qr_scan"}, "lon": -76.9977475, "type": "electric_scooter"}, {"bike_id": "8acde541bd7928c7eeb4bf10d61244e6", "is_reserved": 0, "fusion_lon": 0.0, "lat": 38.8105895, "is_disabled": 0, "name": "8acde541bd7928c7eeb4bf10d61244e6", "fusion_lat": 0.0, "rental_uris": {"ios": "https://dc.lft.to/lastmile_qr_scan", "android": "https://dc.lft.to/lastmile_qr_scan"}, "lon": -77.085101, "type": "electric_bike"}, {"bike_id": "22ebde7d3c127e665d1508072bbc8822", "is_reserved": 0, "fusion_lon": 0.0, "lat": 38.9290745, "is_disabled": 0, "name": "22ebde7d3c127e665d1508072bbc8822", "fusion_lat": 0.0, "rental_uris": {"ios": "https://dc.lft.to/lastmile_qr_scan", "android": "https://dc.lft.to/lastmile_qr_scan"}, "lon": -77.0216165, "type": "electric_scooter"}, {"bike_id": "30b9e38c79464dc27af707de88146778", "is_reserved": 0, "fusion_lon": 0.0, "lat": 38.91159183333333, "is_disabled": 0, "name": "30b9e38c79464dc27af707de88146778", "fusion_lat": 0.0, "rental_uris": {"ios": "https://dc.lft.to/lastmile_qr_scan", "android": "https://dc.lft.to/lastmile_qr_scan"}, "lon": -77.002851, "type": "electric_bike"}, {"bike_id": "9f3342684f64b4f5a626f76f283d4f05", "is_reserved": 0, "fusion_lon": 0.0, "lat": 38.91198516666667, "is_disabled": 0, "name": "9f3342684f64b4f5a626f76f283d4f05", "fusion_lat": 0.0, "rental_uris": {"ios": "https://dc.lft.to/lastmile_qr_scan", "android": "https://dc.lft.to/lastmile_qr_scan"}, "lon": -77.0609365, "type": "electric_scooter"}, {"bike_id": "942a0794b8e740b7644d9af699b03f65", "is_reserved": 0, "fusion_lon": 0.0, "lat": 38.900184, "is_disabled": 0, "name": "942a0794b8e740b7644d9af699b03f65", "fusion_lat": 0.0, "rental_uris": {"ios": "https://dc.lft.to/lastmile_qr_scan", "android": "https://dc.lft.to/lastmile_qr_scan"}, "lon": -76.995433, "type": "electric_scooter"}, {"bike_id": "ff78130ac14cf4f4451e4c723944ad48", "is_reserved": 0, "fusion_lon": 0.0, "lat": 38.931555833333334, "is_disabled": 0, "name": "ff78130ac14cf4f4451e4c723944ad48", "fusion_lat": 0.0, "rental_uris": {"ios": "https://dc.lft.to/lastmile_qr_scan", "android": "https://dc.lft.to/lastmile_qr_scan"}, "lon": -77.04360033333333, "type": "electric_scooter"}, {"bike_id": "f027416a0533af90f2889e029c998c41", "is_reserved": 0, "fusion_lon": 0.0, "lat": 38.892238666666664, "is_disabled": 0, "name": "f027416a0533af90f2889e029c998c41", "fusion_lat": 0.0, "rental_uris": {"ios": "https://dc.lft.to/lastmile_qr_scan", "android": "https://dc.lft.to/lastmile_qr_scan"}, "lon": -77.04859966666666, "type": "electric_scooter"}, {"bike_id": "6e2d2c9197081b15670c3728b3b3b3f0", "is_reserved": 0, "fusion_lon": 0.0, "lat": 38.910509166666664, "is_disabled": 0, "name": "6e2d2c9197081b15670c3728b3b3b3f0", "fusion_lat": 0.0, "rental_uris": {"ios": "https://dc.lft.to/lastmile_qr_scan", "android": "https://dc.lft.to/lastmile_qr_scan"}, "lon": -77.04383066666666, "type": "electric_scooter"}, {"bike_id": "c935fe2e41d36e002221ef3eeb1bc3aa", "is_reserved": 0, "fusion_lon": 0.0, "lat": 38.90421716666667, "is_disabled": 0, "name": "c935fe2e41d36e002221ef3eeb1bc3aa", "fusion_lat": 0.0, "rental_uris": {"ios": "https://dc.lft.to/lastmile_qr_scan", "android": "https://dc.lft.to/lastmile_qr_scan"}, "lon": -77.02950133333333, "type": "electric_scooter"}, {"bike_id": "7b2647384bcc14f088ddd62524f06f94", "is_reserved": 0, "fusion_lon": 0.0, "lat": 38.917128166666664, "is_disabled": 0, "name": "7b2647384bcc14f088ddd62524f06f94", "fusion_lat": 0.0, "rental_uris": {"ios": "https://dc.lft.to/lastmile_qr_scan", "android": "https://dc.lft.to/lastmile_qr_scan"}, "lon": -77.03228916666667, "type": "electric_scooter"}, {"bike_id": "0bacfb6241977f7a51275b3719a73789", "is_reserved": 0, "fusion_lon": 0.0, "lat": 38.97328066666667, "is_disabled": 0, "name": "0bacfb6241977f7a51275b3719a73789", "fusion_lat": 0.0, "rental_uris": {"ios": "https://dc.lft.to/lastmile_qr_scan", "android": "https://dc.lft.to/lastmile_qr_scan"}, "lon": -77.02142083333334, "type": "electric_bike"}, {"bike_id": "883b6c946d01eb0f244b588ae899586c", "is_reserved": 0, "fusion_lon": 0.0, "lat": 38.9110765, "is_disabled": 0, "name": "883b6c946d01eb0f244b588ae899586c", "fusion_lat": 0.0, "rental_uris": {"ios": "https://dc.lft.to/lastmile_qr_scan", "android": "https://dc.lft.to/lastmile_qr_scan"}, "lon": -77.00215233333333, "type": "electric_scooter"}, {"bike_id": "5847c2db88b09efff4936369b58561df", "is_reserved": 0, "fusion_lon": 0.0, "lat": 38.90353266666666, "is_disabled": 0, "name": "5847c2db88b09efff4936369b58561df", "fusion_lat": 0.0, "rental_uris": {"ios": "https://dc.lft.to/lastmile_qr_scan", "android": "https://dc.lft.to/lastmile_qr_scan"}, "lon": -77.0386185, "type": "electric_scooter"}, {"bike_id": "f82e8be786fb7c69659d5ea84db153f7", "is_reserved": 0, "fusion_lon": 0.0, "lat": 38.838602, "is_disabled": 0, "name": "f82e8be786fb7c69659d5ea84db153f7", "fusion_lat": 0.0, "rental_uris": {"ios": "https://dc.lft.to/lastmile_qr_scan", "android": "https://dc.lft.to/lastmile_qr_scan"}, "lon": -77.08863583333333, "type": "electric_bike"}, {"bike_id": "73af87b4838d97b0ff4006945a15ada4", "is_reserved": 0, "fusion_lon": 0.0, "lat": 38.900286666666666, "is_disabled": 0, "name": "73af87b4838d97b0ff4006945a15ada4", "fusion_lat": 0.0, "rental_uris": {"ios": "https://dc.lft.to/lastmile_qr_scan", "android": "https://dc.lft.to/lastmile_qr_scan"}, "lon": -76.99443933333333, "type": "electric_scooter"}, {"bike_id": "abb7c79e23b0bef4b835c1235521267e", "is_reserved": 0, "fusion_lon": 0.0, "lat": 38.92298666666667, "is_disabled": 0, "name": "abb7c79e23b0bef4b835c1235521267e", "fusion_lat": 0.0, "rental_uris": {"ios": "https://dc.lft.to/lastmile_qr_scan", "android": "https://dc.lft.to/lastmile_qr_scan"}, "lon": -77.04144, "type": "electric_scooter"}, {"bike_id": "48ee993d4a0e16d0ed4869873176b8d8", "is_reserved": 0, "fusion_lon": 0.0, "lat": 38.918443, "is_disabled": 0, "name": "48ee993d4a0e16d0ed4869873176b8d8", "fusion_lat": 0.0, "rental_uris": {"ios": "https://dc.lft.to/lastmile_qr_scan", "android": "https://dc.lft.to/lastmile_qr_scan"}, "lon": -77.03897166666667, "type": "electric_scooter"}, {"bike_id": "a87c055ab78d2de98d51fd8422e024c4", "is_reserved": 0, "fusion_lon": 0.0, "lat": 38.90021016666667, "is_disabled": 0, "name": "a87c055ab78d2de98d51fd8422e024c4", "fusion_lat": 0.0, "rental_uris": {"ios": "https://dc.lft.to/lastmile_qr_scan", "android": "https://dc.lft.to/lastmile_qr_scan"}, "lon": -76.99737966666666, "type": "electric_scooter"}, {"bike_id": "876588c564df889a216238593dc65320", "is_reserved": 0, "fusion_lon": 0.0, "lat": 38.91926983333333, "is_disabled": 0, "name": "876588c564df889a216238593dc65320", "fusion_lat": 0.0, "rental_uris": {"ios": "https://dc.lft.to/lastmile_qr_scan", "android": "https://dc.lft.to/lastmile_qr_scan"}, "lon": -77.02497633333333, "type": "electric_scooter"}, {"bike_id": "b651b96eeb00d8a8f0bafb2152fa9add", "is_reserved": 0, "fusion_lon": 0.0, "lat": 38.89949216666667, "is_disabled": 0, "name": "b651b96eeb00d8a8f0bafb2152fa9add", "fusion_lat": 0.0, "rental_uris": {"ios": "https://dc.lft.to/lastmile_qr_scan", "android": "https://dc.lft.to/lastmile_qr_scan"}, "lon": -77.03166833333333, "type": "electric_scooter"}, {"bike_id": "75a9bf81886d8128a74d7dee22886e4a", "is_reserved": 0, "fusion_lon": 0.0, "lat": 38.915656, "is_disabled": 0, "name": "75a9bf81886d8128a74d7dee22886e4a", "fusion_lat": 0.0, "rental_uris": {"ios": "https://dc.lft.to/lastmile_qr_scan", "android": "https://dc.lft.to/lastmile_qr_scan"}, "lon": -77.0319115, "type": "electric_scooter"}, {"bike_id": "5e958cd027bdcb6564d345ef37824c89", "is_reserved": 0, "fusion_lon": 0.0, "lat": 38.898023, "is_disabled": 0, "name": "5e958cd027bdcb6564d345ef37824c89", "fusion_lat": 0.0, "rental_uris": {"ios": "https://dc.lft.to/lastmile_qr_scan", "android": "https://dc.lft.to/lastmile_qr_scan"}, "lon": -76.99160966666666, "type": "electric_scooter"}, {"bike_id": "e8423181b4f52ede29e8b4e5bbbe6aa2", "is_reserved": 0, "fusion_lon": 0.0, "lat": 38.897693, "is_disabled": 0, "name": "e8423181b4f52ede29e8b4e5bbbe6aa2", "fusion_lat": 0.0, "rental_uris": {"ios": "https://dc.lft.to/lastmile_qr_scan", "android": "https://dc.lft.to/lastmile_qr_scan"}, "lon": -77.026926, "type": "electric_scooter"}, {"bike_id": "0e7b75400b9dc3fe1c061e082b896aa7", "is_reserved": 0, "fusion_lon": 0.0, "lat": 38.8670115, "is_disabled": 0, "name": "0e7b75400b9dc3fe1c061e082b896aa7", "fusion_lat": 0.0, "rental_uris": {"ios": "https://dc.lft.to/lastmile_qr_scan", "android": "https://dc.lft.to/lastmile_qr_scan"}, "lon": -76.987076, "type": "electric_scooter"}, {"bike_id": "71b67582432ef9b054a8e567e9f98bd3", "is_reserved": 0, "fusion_lon": 0.0, "lat": 38.931104833333336, "is_disabled": 0, "name": "71b67582432ef9b054a8e567e9f98bd3", "fusion_lat": 0.0, "rental_uris": {"ios": "https://dc.lft.to/lastmile_qr_scan", "android": "https://dc.lft.to/lastmile_qr_scan"}, "lon": -77.03458616666667, "type": "electric_scooter"}, {"bike_id": "50f6df98c5a951fa6865dce451bf85ed", "is_reserved": 0, "fusion_lon": 0.0, "lat": 38.92349633333333, "is_disabled": 0, "name": "50f6df98c5a951fa6865dce451bf85ed", "fusion_lat": 0.0, "rental_uris": {"ios": "https://dc.lft.to/lastmile_qr_scan", "android": "https://dc.lft.to/lastmile_qr_scan"}, "lon": -77.04341016666666, "type": "electric_scooter"}, {"bike_id": "542012553df9a1bf98d345c67da62e09", "is_reserved": 0, "fusion_lon": 0.0, "lat": 38.95633016666667, "is_disabled": 0, "name": "542012553df9a1bf98d345c67da62e09", "fusion_lat": 0.0, "rental_uris": {"ios": "https://dc.lft.to/lastmile_qr_scan", "android": "https://dc.lft.to/lastmile_qr_scan"}, "lon": -76.93882116666667, "type": "electric_bike"}, {"bike_id": "9e039e0d09e50a614733d807251383ae", "is_reserved": 0, "fusion_lon": 0.0, "lat": 38.93448933333333, "is_disabled": 0, "name": "9e039e0d09e50a614733d807251383ae", "fusion_lat": 0.0, "rental_uris": {"ios": "https://dc.lft.to/lastmile_qr_scan", "android": "https://dc.lft.to/lastmile_qr_scan"}, "lon": -77.0284265, "type": "electric_scooter"}, {"bike_id": "295ba5c98b28aaba389c5cf8b4f36b73", "is_reserved": 0, "fusion_lon": 0.0, "lat": 38.88326166666667, "is_disabled": 0, "name": "295ba5c98b28aaba389c5cf8b4f36b73", "fusion_lat": 0.0, "rental_uris": {"ios": "https://dc.lft.to/lastmile_qr_scan", "android": "https://dc.lft.to/lastmile_qr_scan"}, "lon": -77.017416, "type": "electric_scooter"}, {"bike_id": "ea83cdba94ff7e4e7e7ecf12fabe8da7", "is_reserved": 0, "fusion_lon": 0.0, "lat": 38.900245166666664, "is_disabled": 0, "name": "ea83cdba94ff7e4e7e7ecf12fabe8da7", "fusion_lat": 0.0, "rental_uris": {"ios": "https://dc.lft.to/lastmile_qr_scan", "android": "https://dc.lft.to/lastmile_qr_scan"}, "lon": -76.99552516666667, "type": "electric_scooter"}, {"bike_id": "032bdb725daae4cd2eea62c052a4c2ae", "is_reserved": 0, "fusion_lon": 0.0, "lat": 38.9248145, "is_disabled": 0, "name": "032bdb725daae4cd2eea62c052a4c2ae", "fusion_lat": 0.0, "rental_uris": {"ios": "https://dc.lft.to/lastmile_qr_scan", "android": "https://dc.lft.to/lastmile_qr_scan"}, "lon": -77.037696, "type": "electric_scooter"}, {"bike_id": "7e933e9ad3fb99950ff656e6711210c5", "is_reserved": 0, "fusion_lon": 0.0, "lat": 38.8978145, "is_disabled": 0, "name": "7e933e9ad3fb99950ff656e6711210c5", "fusion_lat": 0.0, "rental_uris": {"ios": "https://dc.lft.to/lastmile_qr_scan", "android": "https://dc.lft.to/lastmile_qr_scan"}, "lon": -76.90440683333334, "type": "electric_bike"}, {"bike_id": "600fe867ed142634b63860860b854413", "is_reserved": 0, "fusion_lon": 0.0, "lat": 38.931301166666664, "is_disabled": 0, "name": "600fe867ed142634b63860860b854413", "fusion_lat": 0.0, "rental_uris": {"ios": "https://dc.lft.to/lastmile_qr_scan", "android": "https://dc.lft.to/lastmile_qr_scan"}, "lon": -77.036, "type": "electric_scooter"}, {"bike_id": "fae1d85eaa501587ad06a2f0297ab913", "is_reserved": 0, "fusion_lon": 0.0, "lat": 38.91337716666666, "is_disabled": 0, "name": "fae1d85eaa501587ad06a2f0297ab913", "fusion_lat": 0.0, "rental_uris": {"ios": "https://dc.lft.to/lastmile_qr_scan", "android": "https://dc.lft.to/lastmile_qr_scan"}, "lon": -77.04836766666666, "type": "electric_scooter"}, {"bike_id": "41dc78a029d6a049e4377f12b7452e30", "is_reserved": 0, "fusion_lon": 0.0, "lat": 38.890922, "is_disabled": 0, "name": "41dc78a029d6a049e4377f12b7452e30", "fusion_lat": 0.0, "rental_uris": {"ios": "https://dc.lft.to/lastmile_qr_scan", "android": "https://dc.lft.to/lastmile_qr_scan"}, "lon": -76.98743483333334, "type": "electric_scooter"}, {"bike_id": "c09a0e0802383f81561608713a740dad", "is_reserved": 0, "fusion_lon": 0.0, "lat": 38.91659716666667, "is_disabled": 0, "name": "c09a0e0802383f81561608713a740dad", "fusion_lat": 0.0, "rental_uris": {"ios": "https://dc.lft.to/lastmile_qr_scan", "android": "https://dc.lft.to/lastmile_qr_scan"}, "lon": -77.0227285, "type": "electric_scooter"}, {"bike_id": "ff859cb7cf1bf0bc2a508d7990ae219a", "is_reserved": 0, "fusion_lon": 0.0, "lat": 38.876620833333334, "is_disabled": 0, "name": "ff859cb7cf1bf0bc2a508d7990ae219a", "fusion_lat": 0.0, "rental_uris": {"ios": "https://dc.lft.to/lastmile_qr_scan", "android": "https://dc.lft.to/lastmile_qr_scan"}, "lon": -77.00441766666667, "type": "electric_scooter"}, {"bike_id": "edb27bf6eb461b71bbe82c8663bf9ee9", "is_reserved": 0, "fusion_lon": 0.0, "lat": 38.942080833333335, "is_disabled": 0, "name": "edb27bf6eb461b71bbe82c8663bf9ee9", "fusion_lat": 0.0, "rental_uris": {"ios": "https://dc.lft.to/lastmile_qr_scan", "android": "https://dc.lft.to/lastmile_qr_scan"}, "lon": -77.03584216666667, "type": "electric_scooter"}, {"bike_id": "16c3174d6f697e3f726c183812c918d4", "is_reserved": 0, "fusion_lon": 0.0, "lat": 38.92122483333333, "is_disabled": 0, "name": "16c3174d6f697e3f726c183812c918d4", "fusion_lat": 0.0, "rental_uris": {"ios": "https://dc.lft.to/lastmile_qr_scan", "android": "https://dc.lft.to/lastmile_qr_scan"}, "lon": -77.0365065, "type": "electric_scooter"}, {"bike_id": "91b3f1e062413aa533175d7f08ddf990", "is_reserved": 0, "fusion_lon": 0.0, "lat": 38.9018905, "is_disabled": 0, "name": "91b3f1e062413aa533175d7f08ddf990", "fusion_lat": 0.0, "rental_uris": {"ios": "https://dc.lft.to/lastmile_qr_scan", "android": "https://dc.lft.to/lastmile_qr_scan"}, "lon": -76.92997983333333, "type": "electric_scooter"}, {"bike_id": "33f9a99d2256e9813add7bcea46d6025", "is_reserved": 0, "fusion_lon": 0.0, "lat": 38.88427333333333, "is_disabled": 0, "name": "33f9a99d2256e9813add7bcea46d6025", "fusion_lat": 0.0, "rental_uris": {"ios": "https://dc.lft.to/lastmile_qr_scan", "android": "https://dc.lft.to/lastmile_qr_scan"}, "lon": -77.025668, "type": "electric_scooter"}, {"bike_id": "37eb2168c36e7de2bafd76e0eae2717b", "is_reserved": 0, "fusion_lon": 0.0, "lat": 38.906732166666664, "is_disabled": 0, "name": "37eb2168c36e7de2bafd76e0eae2717b", "fusion_lat": 0.0, "rental_uris": {"ios": "https://dc.lft.to/lastmile_qr_scan", "android": "https://dc.lft.to/lastmile_qr_scan"}, "lon": -77.03439066666667, "type": "electric_scooter"}, {"bike_id": "beb940985e0b1dd4263a32d7ee7fd1e6", "is_reserved": 0, "fusion_lon": 0.0, "lat": 38.917087333333335, "is_disabled": 0, "name": "beb940985e0b1dd4263a32d7ee7fd1e6", "fusion_lat": 0.0, "rental_uris": {"ios": "https://dc.lft.to/lastmile_qr_scan", "android": "https://dc.lft.to/lastmile_qr_scan"}, "lon": -77.02411566666666, "type": "electric_scooter"}, {"bike_id": "7799b0d8726f735a8bf573339f1a2fb8", "is_reserved": 0, "fusion_lon": 0.0, "lat": 38.878537, "is_disabled": 0, "name": "7799b0d8726f735a8bf573339f1a2fb8", "fusion_lat": 0.0, "rental_uris": {"ios": "https://dc.lft.to/lastmile_qr_scan", "android": "https://dc.lft.to/lastmile_qr_scan"}, "lon": -76.9884205, "type": "electric_scooter"}, {"bike_id": "d95efc787f7b4f48ead40b2ea8ed2fc4", "is_reserved": 0, "fusion_lon": 0.0, "lat": 38.9148295, "is_disabled": 0, "name": "d95efc787f7b4f48ead40b2ea8ed2fc4", "fusion_lat": 0.0, "rental_uris": {"ios": "https://dc.lft.to/lastmile_qr_scan", "android": "https://dc.lft.to/lastmile_qr_scan"}, "lon": -77.04087466666667, "type": "electric_scooter"}, {"bike_id": "2f94b689cfbf0de008fe82524391ca77", "is_reserved": 0, "fusion_lon": 0.0, "lat": 38.911078833333335, "is_disabled": 0, "name": "2f94b689cfbf0de008fe82524391ca77", "fusion_lat": 0.0, "rental_uris": {"ios": "https://dc.lft.to/lastmile_qr_scan", "android": "https://dc.lft.to/lastmile_qr_scan"}, "lon": -77.036038, "type": "electric_scooter"}, {"bike_id": "b6981033a490ab5d7643eba25d8b3c64", "is_reserved": 0, "fusion_lon": 0.0, "lat": 38.920964166666664, "is_disabled": 0, "name": "b6981033a490ab5d7643eba25d8b3c64", "fusion_lat": 0.0, "rental_uris": {"ios": "https://dc.lft.to/lastmile_qr_scan", "android": "https://dc.lft.to/lastmile_qr_scan"}, "lon": -77.0258855, "type": "electric_scooter"}, {"bike_id": "33ab07bc60288b8f552e6105b797fe08", "is_reserved": 0, "fusion_lon": 0.0, "lat": 38.92597266666667, "is_disabled": 0, "name": "33ab07bc60288b8f552e6105b797fe08", "fusion_lat": 0.0, "rental_uris": {"ios": "https://dc.lft.to/lastmile_qr_scan", "android": "https://dc.lft.to/lastmile_qr_scan"}, "lon": -77.00484816666666, "type": "electric_scooter"}, {"bike_id": "826bf33714143634d8a612b5c9b96b68", "is_reserved": 0, "fusion_lon": 0.0, "lat": 38.91333433333333, "is_disabled": 0, "name": "826bf33714143634d8a612b5c9b96b68", "fusion_lat": 0.0, "rental_uris": {"ios": "https://dc.lft.to/lastmile_qr_scan", "android": "https://dc.lft.to/lastmile_qr_scan"}, "lon": -77.00220066666667, "type": "electric_scooter"}, {"bike_id": "299e8a570da722ef2d3e62452dd37bd0", "is_reserved": 0, "fusion_lon": 0.0, "lat": 38.88431716666667, "is_disabled": 0, "name": "299e8a570da722ef2d3e62452dd37bd0", "fusion_lat": 0.0, "rental_uris": {"ios": "https://dc.lft.to/lastmile_qr_scan", "android": "https://dc.lft.to/lastmile_qr_scan"}, "lon": -76.957552, "type": "electric_scooter"}, {"bike_id": "ec467d62615369e01514d0f0ee30be95", "is_reserved": 0, "fusion_lon": 0.0, "lat": 38.916801, "is_disabled": 0, "name": "ec467d62615369e01514d0f0ee30be95", "fusion_lat": 0.0, "rental_uris": {"ios": "https://dc.lft.to/lastmile_qr_scan", "android": "https://dc.lft.to/lastmile_qr_scan"}, "lon": -77.02710566666667, "type": "electric_scooter"}, {"bike_id": "6b9364ae731adf046d01c95ae1f4de93", "is_reserved": 0, "fusion_lon": 0.0, "lat": 38.92059316666667, "is_disabled": 0, "name": "6b9364ae731adf046d01c95ae1f4de93", "fusion_lat": 0.0, "rental_uris": {"ios": "https://dc.lft.to/lastmile_qr_scan", "android": "https://dc.lft.to/lastmile_qr_scan"}, "lon": -77.04253416666667, "type": "electric_scooter"}, {"bike_id": "54e6851a2539dd3d59f8cc3856a77f8c", "is_reserved": 0, "fusion_lon": 0.0, "lat": 38.92062266666667, "is_disabled": 0, "name": "54e6851a2539dd3d59f8cc3856a77f8c", "fusion_lat": 0.0, "rental_uris": {"ios": "https://dc.lft.to/lastmile_qr_scan", "android": "https://dc.lft.to/lastmile_qr_scan"}, "lon": -77.04252083333333, "type": "electric_scooter"}, {"bike_id": "bf921697c0c41d89a9a70459b0ee429c", "is_reserved": 0, "fusion_lon": 0.0, "lat": 38.89760833333333, "is_disabled": 0, "name": "bf921697c0c41d89a9a70459b0ee429c", "fusion_lat": 0.0, "rental_uris": {"ios": "https://dc.lft.to/lastmile_qr_scan", "android": "https://dc.lft.to/lastmile_qr_scan"}, "lon": -76.94184383333334, "type": "electric_scooter"}, {"bike_id": "4f5878d01e064c185dc0731bde0493b8", "is_reserved": 0, "fusion_lon": 0.0, "lat": 38.922540833333336, "is_disabled": 0, "name": "4f5878d01e064c185dc0731bde0493b8", "fusion_lat": 0.0, "rental_uris": {"ios": "https://dc.lft.to/lastmile_qr_scan", "android": "https://dc.lft.to/lastmile_qr_scan"}, "lon": -77.0351845, "type": "electric_scooter"}, {"bike_id": "61817da93360d556f78553c813d3875c", "is_reserved": 0, "fusion_lon": 0.0, "lat": 38.9548575, "is_disabled": 0, "name": "61817da93360d556f78553c813d3875c", "fusion_lat": 0.0, "rental_uris": {"ios": "https://dc.lft.to/lastmile_qr_scan", "android": "https://dc.lft.to/lastmile_qr_scan"}, "lon": -77.08239866666666, "type": "electric_bike"}, {"bike_id": "9d8185833caefb25399746d7a3dbc642", "is_reserved": 0, "fusion_lon": 0.0, "lat": 38.863552, "is_disabled": 0, "name": "9d8185833caefb25399746d7a3dbc642", "fusion_lat": 0.0, "rental_uris": {"ios": "https://dc.lft.to/lastmile_qr_scan", "android": "https://dc.lft.to/lastmile_qr_scan"}, "lon": -76.99063583333333, "type": "electric_scooter"}, {"bike_id": "cb1ce79dbac94ec37873dc6ee98d3f33", "is_reserved": 0, "fusion_lon": 0.0, "lat": 38.928248333333336, "is_disabled": 0, "name": "cb1ce79dbac94ec37873dc6ee98d3f33", "fusion_lat": 0.0, "rental_uris": {"ios": "https://dc.lft.to/lastmile_qr_scan", "android": "https://dc.lft.to/lastmile_qr_scan"}, "lon": -77.02296933333334, "type": "electric_scooter"}, {"bike_id": "02891054280667462bdfeaf2a04935b3", "is_reserved": 0, "fusion_lon": 0.0, "lat": 38.90452416666667, "is_disabled": 0, "name": "02891054280667462bdfeaf2a04935b3", "fusion_lat": 0.0, "rental_uris": {"ios": "https://dc.lft.to/lastmile_qr_scan", "android": "https://dc.lft.to/lastmile_qr_scan"}, "lon": -77.04879416666667, "type": "electric_scooter"}, {"bike_id": "73c0d49e61462721b34719226ce3c946", "is_reserved": 0, "fusion_lon": 0.0, "lat": 38.92475066666667, "is_disabled": 0, "name": "73c0d49e61462721b34719226ce3c946", "fusion_lat": 0.0, "rental_uris": {"ios": "https://dc.lft.to/lastmile_qr_scan", "android": "https://dc.lft.to/lastmile_qr_scan"}, "lon": -77.03543083333334, "type": "electric_scooter"}, {"bike_id": "2a214933d61dbb3b261e5b0c9faf96db", "is_reserved": 0, "fusion_lon": 0.0, "lat": 38.909762666666666, "is_disabled": 0, "name": "2a214933d61dbb3b261e5b0c9faf96db", "fusion_lat": 0.0, "rental_uris": {"ios": "https://dc.lft.to/lastmile_qr_scan", "android": "https://dc.lft.to/lastmile_qr_scan"}, "lon": -77.022973, "type": "electric_scooter"}, {"bike_id": "91aeb32fc423c8663a74e2c683183ce2", "is_reserved": 0, "fusion_lon": 0.0, "lat": 38.894738833333335, "is_disabled": 0, "name": "91aeb32fc423c8663a74e2c683183ce2", "fusion_lat": 0.0, "rental_uris": {"ios": "https://dc.lft.to/lastmile_qr_scan", "android": "https://dc.lft.to/lastmile_qr_scan"}, "lon": -77.02747566666666, "type": "electric_scooter"}, {"bike_id": "ca1c7f694c416312a10f01bc36222fa1", "is_reserved": 0, "fusion_lon": 0.0, "lat": 39.0388375, "is_disabled": 0, "name": "ca1c7f694c416312a10f01bc36222fa1", "fusion_lat": 0.0, "rental_uris": {"ios": "https://dc.lft.to/lastmile_qr_scan", "android": "https://dc.lft.to/lastmile_qr_scan"}, "lon": -76.990397, "type": "electric_bike"}, {"bike_id": "8dbb4c1ddb241a44e6b976b14b0cec0e", "is_reserved": 0, "fusion_lon": 0.0, "lat": 38.89603416666667, "is_disabled": 0, "name": "8dbb4c1ddb241a44e6b976b14b0cec0e", "fusion_lat": 0.0, "rental_uris": {"ios": "https://dc.lft.to/lastmile_qr_scan", "android": "https://dc.lft.to/lastmile_qr_scan"}, "lon": -77.04237383333333, "type": "electric_scooter"}, {"bike_id": "de6fd27da63236675849dc7743683f06", "is_reserved": 0, "fusion_lon": 0.0, "lat": 38.904123166666665, "is_disabled": 0, "name": "de6fd27da63236675849dc7743683f06", "fusion_lat": 0.0, "rental_uris": {"ios": "https://dc.lft.to/lastmile_qr_scan", "android": "https://dc.lft.to/lastmile_qr_scan"}, "lon": -77.04666616666667, "type": "electric_scooter"}, {"bike_id": "e29c41c47b6a5162c95bbe3ba4a1ee2e", "is_reserved": 0, "fusion_lon": 0.0, "lat": 38.90829316666667, "is_disabled": 0, "name": "e29c41c47b6a5162c95bbe3ba4a1ee2e", "fusion_lat": 0.0, "rental_uris": {"ios": "https://dc.lft.to/lastmile_qr_scan", "android": "https://dc.lft.to/lastmile_qr_scan"}, "lon": -77.04347883333334, "type": "electric_scooter"}, {"bike_id": "7d8d5f52f61d0aaecae4075b2edd7099", "is_reserved": 0, "fusion_lon": 0.0, "lat": 38.914259666666666, "is_disabled": 0, "name": "7d8d5f52f61d0aaecae4075b2edd7099", "fusion_lat": 0.0, "rental_uris": {"ios": "https://dc.lft.to/lastmile_qr_scan", "android": "https://dc.lft.to/lastmile_qr_scan"}, "lon": -77.04487016666667, "type": "electric_scooter"}, {"bike_id": "cef0bffbbfcf15793d25fd7cd629d5fc", "is_reserved": 0, "fusion_lon": 0.0, "lat": 38.89222633333333, "is_disabled": 0, "name": "cef0bffbbfcf15793d25fd7cd629d5fc", "fusion_lat": 0.0, "rental_uris": {"ios": "https://dc.lft.to/lastmile_qr_scan", "android": "https://dc.lft.to/lastmile_qr_scan"}, "lon": -77.024432, "type": "electric_scooter"}, {"bike_id": "fdd2de4760740aa279b83d46993ce72b", "is_reserved": 0, "fusion_lon": 0.0, "lat": 38.939549166666666, "is_disabled": 0, "name": "fdd2de4760740aa279b83d46993ce72b", "fusion_lat": 0.0, "rental_uris": {"ios": "https://dc.lft.to/lastmile_qr_scan", "android": "https://dc.lft.to/lastmile_qr_scan"}, "lon": -77.072409, "type": "electric_scooter"}, {"bike_id": "30b56a00c28a1506d5ea05aaa533495f", "is_reserved": 0, "fusion_lon": 0.0, "lat": 38.906094333333336, "is_disabled": 0, "name": "30b56a00c28a1506d5ea05aaa533495f", "fusion_lat": 0.0, "rental_uris": {"ios": "https://dc.lft.to/lastmile_qr_scan", "android": "https://dc.lft.to/lastmile_qr_scan"}, "lon": -77.07488466666666, "type": "electric_scooter"}, {"bike_id": "4a12800bf26e48cfec3578620a7f48d0", "is_reserved": 0, "fusion_lon": 0.0, "lat": 38.902393833333335, "is_disabled": 0, "name": "4a12800bf26e48cfec3578620a7f48d0", "fusion_lat": 0.0, "rental_uris": {"ios": "https://dc.lft.to/lastmile_qr_scan", "android": "https://dc.lft.to/lastmile_qr_scan"}, "lon": -77.02973533333333, "type": "electric_scooter"}, {"bike_id": "ec957aa6062ccaddcddc6e1190330a30", "is_reserved": 0, "fusion_lon": 0.0, "lat": 38.91673733333333, "is_disabled": 0, "name": "ec957aa6062ccaddcddc6e1190330a30", "fusion_lat": 0.0, "rental_uris": {"ios": "https://dc.lft.to/lastmile_qr_scan", "android": "https://dc.lft.to/lastmile_qr_scan"}, "lon": -77.03213166666667, "type": "electric_scooter"}, {"bike_id": "d030aa39cf91b36be36fceffdbaa9206", "is_reserved": 0, "fusion_lon": 0.0, "lat": 38.9047305, "is_disabled": 0, "name": "d030aa39cf91b36be36fceffdbaa9206", "fusion_lat": 0.0, "rental_uris": {"ios": "https://dc.lft.to/lastmile_qr_scan", "android": "https://dc.lft.to/lastmile_qr_scan"}, "lon": -77.04035816666666, "type": "electric_scooter"}, {"bike_id": "cffaafe4a6c28174d5a9e2c6168e4f66", "is_reserved": 0, "fusion_lon": 0.0, "lat": 38.83141633333334, "is_disabled": 0, "name": "cffaafe4a6c28174d5a9e2c6168e4f66", "fusion_lat": 0.0, "rental_uris": {"ios": "https://dc.lft.to/lastmile_qr_scan", "android": "https://dc.lft.to/lastmile_qr_scan"}, "lon": -77.11311133333334, "type": "electric_bike"}, {"bike_id": "561f4ebb8ba6b5c563e7c2e4385059c7", "is_reserved": 0, "fusion_lon": 0.0, "lat": 38.8970685, "is_disabled": 0, "name": "561f4ebb8ba6b5c563e7c2e4385059c7", "fusion_lat": 0.0, "rental_uris": {"ios": "https://dc.lft.to/lastmile_qr_scan", "android": "https://dc.lft.to/lastmile_qr_scan"}, "lon": -77.0326625, "type": "electric_scooter"}, {"bike_id": "a5fb7787582163f72d26791a2666d1f8", "is_reserved": 0, "fusion_lon": 0.0, "lat": 38.88514216666667, "is_disabled": 0, "name": "a5fb7787582163f72d26791a2666d1f8", "fusion_lat": 0.0, "rental_uris": {"ios": "https://dc.lft.to/lastmile_qr_scan", "android": "https://dc.lft.to/lastmile_qr_scan"}, "lon": -77.00567633333333, "type": "electric_scooter"}, {"bike_id": "a597cae5eec2915d28495b89192a9df6", "is_reserved": 0, "fusion_lon": 0.0, "lat": 38.901017, "is_disabled": 0, "name": "a597cae5eec2915d28495b89192a9df6", "fusion_lat": 0.0, "rental_uris": {"ios": "https://dc.lft.to/lastmile_qr_scan", "android": "https://dc.lft.to/lastmile_qr_scan"}, "lon": -77.01929433333333, "type": "electric_scooter"}, {"bike_id": "117afb497b120f29b307e9c15fb1685e", "is_reserved": 0, "fusion_lon": 0.0, "lat": 38.8981565, "is_disabled": 0, "name": "117afb497b120f29b307e9c15fb1685e", "fusion_lat": 0.0, "rental_uris": {"ios": "https://dc.lft.to/lastmile_qr_scan", "android": "https://dc.lft.to/lastmile_qr_scan"}, "lon": -77.01095933333333, "type": "electric_scooter"}, {"bike_id": "6f39ae00388b0527dc3643981eba79ec", "is_reserved": 0, "fusion_lon": 0.0, "lat": 38.905924666666664, "is_disabled": 0, "name": "6f39ae00388b0527dc3643981eba79ec", "fusion_lat": 0.0, "rental_uris": {"ios": "https://dc.lft.to/lastmile_qr_scan", "android": "https://dc.lft.to/lastmile_qr_scan"}, "lon": -77.05095566666667, "type": "electric_scooter"}, {"bike_id": "300a17d12ea6551aeec37aaba13b2f34", "is_reserved": 0, "fusion_lon": 0.0, "lat": 38.900504, "is_disabled": 0, "name": "300a17d12ea6551aeec37aaba13b2f34", "fusion_lat": 0.0, "rental_uris": {"ios": "https://dc.lft.to/lastmile_qr_scan", "android": "https://dc.lft.to/lastmile_qr_scan"}, "lon": -77.00204266666667, "type": "electric_scooter"}, {"bike_id": "f4187272fbf31be8a3bbef79bee9be63", "is_reserved": 0, "fusion_lon": 0.0, "lat": 38.9370675, "is_disabled": 0, "name": "f4187272fbf31be8a3bbef79bee9be63", "fusion_lat": 0.0, "rental_uris": {"ios": "https://dc.lft.to/lastmile_qr_scan", "android": "https://dc.lft.to/lastmile_qr_scan"}, "lon": -77.029316, "type": "electric_scooter"}, {"bike_id": "c4141226436b13c3b81c7b4ab6f0623f", "is_reserved": 0, "fusion_lon": 0.0, "lat": 38.91697, "is_disabled": 0, "name": "c4141226436b13c3b81c7b4ab6f0623f", "fusion_lat": 0.0, "rental_uris": {"ios": "https://dc.lft.to/lastmile_qr_scan", "android": "https://dc.lft.to/lastmile_qr_scan"}, "lon": -77.0312525, "type": "electric_scooter"}, {"bike_id": "3a5a47ae2b3874411ee03c4b57eaeb21", "is_reserved": 0, "fusion_lon": 0.0, "lat": 38.898264166666664, "is_disabled": 0, "name": "3a5a47ae2b3874411ee03c4b57eaeb21", "fusion_lat": 0.0, "rental_uris": {"ios": "https://dc.lft.to/lastmile_qr_scan", "android": "https://dc.lft.to/lastmile_qr_scan"}, "lon": -77.00736683333334, "type": "electric_scooter"}, {"bike_id": "2584b5cd85fdce952e0ed759d6ea7ae7", "is_reserved": 0, "fusion_lon": 0.0, "lat": 38.93971116666667, "is_disabled": 0, "name": "2584b5cd85fdce952e0ed759d6ea7ae7", "fusion_lat": 0.0, "rental_uris": {"ios": "https://dc.lft.to/lastmile_qr_scan", "android": "https://dc.lft.to/lastmile_qr_scan"}, "lon": -77.03256666666667, "type": "electric_scooter"}, {"bike_id": "f576632c2e0b0f071980e73ab339471e", "is_reserved": 0, "fusion_lon": 0.0, "lat": 38.92854633333334, "is_disabled": 0, "name": "f576632c2e0b0f071980e73ab339471e", "fusion_lat": 0.0, "rental_uris": {"ios": "https://dc.lft.to/lastmile_qr_scan", "android": "https://dc.lft.to/lastmile_qr_scan"}, "lon": -77.013503, "type": "electric_scooter"}, {"bike_id": "9867001944458b49cd67d1d3e432006f", "is_reserved": 0, "fusion_lon": 0.0, "lat": 38.837276833333334, "is_disabled": 0, "name": "9867001944458b49cd67d1d3e432006f", "fusion_lat": 0.0, "rental_uris": {"ios": "https://dc.lft.to/lastmile_qr_scan", "android": "https://dc.lft.to/lastmile_qr_scan"}, "lon": -76.99757566666666, "type": "electric_bike"}, {"bike_id": "53d5109499c66bf19ee3ae772d8c86a2", "is_reserved": 0, "fusion_lon": 0.0, "lat": 38.92358333333333, "is_disabled": 0, "name": "53d5109499c66bf19ee3ae772d8c86a2", "fusion_lat": 0.0, "rental_uris": {"ios": "https://dc.lft.to/lastmile_qr_scan", "android": "https://dc.lft.to/lastmile_qr_scan"}, "lon": -77.052382, "type": "electric_scooter"}, {"bike_id": "f3504daa661880b0fcda2592a5a8baeb", "is_reserved": 0, "fusion_lon": 0.0, "lat": 38.9343765, "is_disabled": 0, "name": "f3504daa661880b0fcda2592a5a8baeb", "fusion_lat": 0.0, "rental_uris": {"ios": "https://dc.lft.to/lastmile_qr_scan", "android": "https://dc.lft.to/lastmile_qr_scan"}, "lon": -77.03996833333333, "type": "electric_scooter"}, {"bike_id": "c75ca07974b45d0b995efc5de1c416fa", "is_reserved": 0, "fusion_lon": 0.0, "lat": 38.924785, "is_disabled": 0, "name": "c75ca07974b45d0b995efc5de1c416fa", "fusion_lat": 0.0, "rental_uris": {"ios": "https://dc.lft.to/lastmile_qr_scan", "android": "https://dc.lft.to/lastmile_qr_scan"}, "lon": -77.02647316666666, "type": "electric_scooter"}, {"bike_id": "5fd928269282c837520fee2068ba5aeb", "is_reserved": 0, "fusion_lon": 0.0, "lat": 38.95077333333333, "is_disabled": 0, "name": "5fd928269282c837520fee2068ba5aeb", "fusion_lat": 0.0, "rental_uris": {"ios": "https://dc.lft.to/lastmile_qr_scan", "android": "https://dc.lft.to/lastmile_qr_scan"}, "lon": -77.01191733333333, "type": "electric_bike"}, {"bike_id": "23d7fee6009ab8a79357ed5b939d219f", "is_reserved": 0, "fusion_lon": 0.0, "lat": 38.894858166666666, "is_disabled": 0, "name": "23d7fee6009ab8a79357ed5b939d219f", "fusion_lat": 0.0, "rental_uris": {"ios": "https://dc.lft.to/lastmile_qr_scan", "android": "https://dc.lft.to/lastmile_qr_scan"}, "lon": -76.94869683333333, "type": "electric_scooter"}, {"bike_id": "3b2b4c2cb7388ca590428aa59f4ad77c", "is_reserved": 0, "fusion_lon": 0.0, "lat": 38.86662166666667, "is_disabled": 0, "name": "3b2b4c2cb7388ca590428aa59f4ad77c", "fusion_lat": 0.0, "rental_uris": {"ios": "https://dc.lft.to/lastmile_qr_scan", "android": "https://dc.lft.to/lastmile_qr_scan"}, "lon": -76.99012416666666, "type": "electric_scooter"}, {"bike_id": "d6adad12a24a1d252eb5eb1928d9b013", "is_reserved": 0, "fusion_lon": 0.0, "lat": 38.905349666666666, "is_disabled": 0, "name": "d6adad12a24a1d252eb5eb1928d9b013", "fusion_lat": 0.0, "rental_uris": {"ios": "https://dc.lft.to/lastmile_qr_scan", "android": "https://dc.lft.to/lastmile_qr_scan"}, "lon": -77.048885, "type": "electric_scooter"}, {"bike_id": "78194a3b4083c9079679513832c6160f", "is_reserved": 0, "fusion_lon": 0.0, "lat": 38.89822566666667, "is_disabled": 0, "name": "78194a3b4083c9079679513832c6160f", "fusion_lat": 0.0, "rental_uris": {"ios": "https://dc.lft.to/lastmile_qr_scan", "android": "https://dc.lft.to/lastmile_qr_scan"}, "lon": -76.9465325, "type": "electric_scooter"}, {"bike_id": "7f1f6d36882e77cbb237ba390135e78f", "is_reserved": 0, "fusion_lon": 0.0, "lat": 38.919934166666664, "is_disabled": 0, "name": "7f1f6d36882e77cbb237ba390135e78f", "fusion_lat": 0.0, "rental_uris": {"ios": "https://dc.lft.to/lastmile_qr_scan", "android": "https://dc.lft.to/lastmile_qr_scan"}, "lon": -77.034771, "type": "electric_scooter"}, {"bike_id": "82ef111a2bfc0c03481da02b644de8a2", "is_reserved": 0, "fusion_lon": 0.0, "lat": 38.901442333333335, "is_disabled": 0, "name": "82ef111a2bfc0c03481da02b644de8a2", "fusion_lat": 0.0, "rental_uris": {"ios": "https://dc.lft.to/lastmile_qr_scan", "android": "https://dc.lft.to/lastmile_qr_scan"}, "lon": -77.02908583333334, "type": "electric_scooter"}, {"bike_id": "a9668c4b77c29199dda3284608e8f597", "is_reserved": 0, "fusion_lon": 0.0, "lat": 38.93766266666667, "is_disabled": 0, "name": "a9668c4b77c29199dda3284608e8f597", "fusion_lat": 0.0, "rental_uris": {"ios": "https://dc.lft.to/lastmile_qr_scan", "android": "https://dc.lft.to/lastmile_qr_scan"}, "lon": -77.02267133333334, "type": "electric_scooter"}, {"bike_id": "c41cc313c21f0a9c517230dba4518464", "is_reserved": 0, "fusion_lon": 0.0, "lat": 38.839847, "is_disabled": 0, "name": "c41cc313c21f0a9c517230dba4518464", "fusion_lat": 0.0, "rental_uris": {"ios": "https://dc.lft.to/lastmile_qr_scan", "android": "https://dc.lft.to/lastmile_qr_scan"}, "lon": -77.00564716666666, "type": "electric_bike"}, {"bike_id": "08db769515d931a3a02552b72d13eeab", "is_reserved": 0, "fusion_lon": 0.0, "lat": 38.914172666666666, "is_disabled": 0, "name": "08db769515d931a3a02552b72d13eeab", "fusion_lat": 0.0, "rental_uris": {"ios": "https://dc.lft.to/lastmile_qr_scan", "android": "https://dc.lft.to/lastmile_qr_scan"}, "lon": -77.03809883333334, "type": "electric_scooter"}, {"bike_id": "dd00cb95784037800f69ba0071b8baa0", "is_reserved": 0, "fusion_lon": 0.0, "lat": 38.9005405, "is_disabled": 0, "name": "dd00cb95784037800f69ba0071b8baa0", "fusion_lat": 0.0, "rental_uris": {"ios": "https://dc.lft.to/lastmile_qr_scan", "android": "https://dc.lft.to/lastmile_qr_scan"}, "lon": -77.0512075, "type": "electric_scooter"}, {"bike_id": "8e7b04ab484aaab2263ad117dfed0ab0", "is_reserved": 0, "fusion_lon": 0.0, "lat": 38.930832833333334, "is_disabled": 0, "name": "8e7b04ab484aaab2263ad117dfed0ab0", "fusion_lat": 0.0, "rental_uris": {"ios": "https://dc.lft.to/lastmile_qr_scan", "android": "https://dc.lft.to/lastmile_qr_scan"}, "lon": -77.02795266666666, "type": "electric_scooter"}, {"bike_id": "7246d51d9f93fac064181398ed9b816a", "is_reserved": 0, "fusion_lon": 0.0, "lat": 38.90057683333333, "is_disabled": 0, "name": "7246d51d9f93fac064181398ed9b816a", "fusion_lat": 0.0, "rental_uris": {"ios": "https://dc.lft.to/lastmile_qr_scan", "android": "https://dc.lft.to/lastmile_qr_scan"}, "lon": -77.05009983333333, "type": "electric_scooter"}, {"bike_id": "32b78c45e3cb5322e15c6847c8ae0bf1", "is_reserved": 0, "fusion_lon": 0.0, "lat": 38.898072666666664, "is_disabled": 0, "name": "32b78c45e3cb5322e15c6847c8ae0bf1", "fusion_lat": 0.0, "rental_uris": {"ios": "https://dc.lft.to/lastmile_qr_scan", "android": "https://dc.lft.to/lastmile_qr_scan"}, "lon": -77.00596716666666, "type": "electric_bike"}, {"bike_id": "857b039150ec9526b69c711e5e8d1d15", "is_reserved": 0, "fusion_lon": 0.0, "lat": 38.9026245, "is_disabled": 0, "name": "857b039150ec9526b69c711e5e8d1d15", "fusion_lat": 0.0, "rental_uris": {"ios": "https://dc.lft.to/lastmile_qr_scan", "android": "https://dc.lft.to/lastmile_qr_scan"}, "lon": -77.0346365, "type": "electric_scooter"}, {"bike_id": "5192a2fd5465c2c7e1e717c98efdaf9c", "is_reserved": 0, "fusion_lon": 0.0, "lat": 38.941856666666666, "is_disabled": 0, "name": "5192a2fd5465c2c7e1e717c98efdaf9c", "fusion_lat": 0.0, "rental_uris": {"ios": "https://dc.lft.to/lastmile_qr_scan", "android": "https://dc.lft.to/lastmile_qr_scan"}, "lon": -77.01700816666667, "type": "electric_scooter"}, {"bike_id": "902efb1f2f53e2e3428c70bf26dcbc49", "is_reserved": 0, "fusion_lon": 0.0, "lat": 38.9676355, "is_disabled": 0, "name": "902efb1f2f53e2e3428c70bf26dcbc49", "fusion_lat": 0.0, "rental_uris": {"ios": "https://dc.lft.to/lastmile_qr_scan", "android": "https://dc.lft.to/lastmile_qr_scan"}, "lon": -77.09161216666666, "type": "electric_bike"}, {"bike_id": "61db7b8fcc0e231b034041a7048dd1b9", "is_reserved": 0, "fusion_lon": 0.0, "lat": 38.900210333333334, "is_disabled": 0, "name": "61db7b8fcc0e231b034041a7048dd1b9", "fusion_lat": 0.0, "rental_uris": {"ios": "https://dc.lft.to/lastmile_qr_scan", "android": "https://dc.lft.to/lastmile_qr_scan"}, "lon": -77.04406383333334, "type": "electric_scooter"}, {"bike_id": "dcf5bdcf7962b481a1082addb583b88a", "is_reserved": 0, "fusion_lon": 0.0, "lat": 38.905721166666666, "is_disabled": 0, "name": "dcf5bdcf7962b481a1082addb583b88a", "fusion_lat": 0.0, "rental_uris": {"ios": "https://dc.lft.to/lastmile_qr_scan", "android": "https://dc.lft.to/lastmile_qr_scan"}, "lon": -77.0150585, "type": "electric_scooter"}, {"bike_id": "cc8e69199d71c59d74c244db790b903a", "is_reserved": 0, "fusion_lon": 0.0, "lat": 38.934929333333336, "is_disabled": 0, "name": "cc8e69199d71c59d74c244db790b903a", "fusion_lat": 0.0, "rental_uris": {"ios": "https://dc.lft.to/lastmile_qr_scan", "android": "https://dc.lft.to/lastmile_qr_scan"}, "lon": -77.03272283333334, "type": "electric_scooter"}, {"bike_id": "1127703455fe8797cb5e78297d55d697", "is_reserved": 0, "fusion_lon": 0.0, "lat": 38.90241916666667, "is_disabled": 0, "name": "1127703455fe8797cb5e78297d55d697", "fusion_lat": 0.0, "rental_uris": {"ios": "https://dc.lft.to/lastmile_qr_scan", "android": "https://dc.lft.to/lastmile_qr_scan"}, "lon": -76.97411516666666, "type": "electric_scooter"}, {"bike_id": "6d1acd9abce3a459613748e6aabd3fe0", "is_reserved": 0, "fusion_lon": 0.0, "lat": 38.915955833333335, "is_disabled": 0, "name": "6d1acd9abce3a459613748e6aabd3fe0", "fusion_lat": 0.0, "rental_uris": {"ios": "https://dc.lft.to/lastmile_qr_scan", "android": "https://dc.lft.to/lastmile_qr_scan"}, "lon": -77.04173133333333, "type": "electric_scooter"}, {"bike_id": "c0bfd0eea39691b248d590538ff9bd8d", "is_reserved": 0, "fusion_lon": 0.0, "lat": 38.861634, "is_disabled": 0, "name": "c0bfd0eea39691b248d590538ff9bd8d", "fusion_lat": 0.0, "rental_uris": {"ios": "https://dc.lft.to/lastmile_qr_scan", "android": "https://dc.lft.to/lastmile_qr_scan"}, "lon": -77.1309335, "type": "electric_bike"}, {"bike_id": "2eb80d925287d9912f3ccc04bdb8cf75", "is_reserved": 0, "fusion_lon": 0.0, "lat": 38.9095365, "is_disabled": 0, "name": "2eb80d925287d9912f3ccc04bdb8cf75", "fusion_lat": 0.0, "rental_uris": {"ios": "https://dc.lft.to/lastmile_qr_scan", "android": "https://dc.lft.to/lastmile_qr_scan"}, "lon": -76.984783, "type": "electric_scooter"}, {"bike_id": "8728fcc81f711ec39aee340d0378482c", "is_reserved": 0, "fusion_lon": 0.0, "lat": 38.891865, "is_disabled": 0, "name": "8728fcc81f711ec39aee340d0378482c", "fusion_lat": 0.0, "rental_uris": {"ios": "https://dc.lft.to/lastmile_qr_scan", "android": "https://dc.lft.to/lastmile_qr_scan"}, "lon": -77.015304, "type": "electric_scooter"}, {"bike_id": "471b68d84dae3fb799dd897bca4b8d01", "is_reserved": 0, "fusion_lon": 0.0, "lat": 38.9172745, "is_disabled": 0, "name": "471b68d84dae3fb799dd897bca4b8d01", "fusion_lat": 0.0, "rental_uris": {"ios": "https://dc.lft.to/lastmile_qr_scan", "android": "https://dc.lft.to/lastmile_qr_scan"}, "lon": -77.03653866666667, "type": "electric_scooter"}, {"bike_id": "5ae48083718f6d02e31a76f2079ca6ce", "is_reserved": 0, "fusion_lon": 0.0, "lat": 38.89485716666667, "is_disabled": 0, "name": "5ae48083718f6d02e31a76f2079ca6ce", "fusion_lat": 0.0, "rental_uris": {"ios": "https://dc.lft.to/lastmile_qr_scan", "android": "https://dc.lft.to/lastmile_qr_scan"}, "lon": -77.01206933333333, "type": "electric_scooter"}, {"bike_id": "a4065ed0bf77bbcf78e4ca3856dc2e25", "is_reserved": 0, "fusion_lon": 0.0, "lat": 38.92813233333333, "is_disabled": 0, "name": "a4065ed0bf77bbcf78e4ca3856dc2e25", "fusion_lat": 0.0, "rental_uris": {"ios": "https://dc.lft.to/lastmile_qr_scan", "android": "https://dc.lft.to/lastmile_qr_scan"}, "lon": -77.01414783333334, "type": "electric_scooter"}, {"bike_id": "424751683ff5db9bb0b9884d3a3050ba", "is_reserved": 0, "fusion_lon": 0.0, "lat": 38.91061966666667, "is_disabled": 0, "name": "424751683ff5db9bb0b9884d3a3050ba", "fusion_lat": 0.0, "rental_uris": {"ios": "https://dc.lft.to/lastmile_qr_scan", "android": "https://dc.lft.to/lastmile_qr_scan"}, "lon": -77.029736, "type": "electric_scooter"}, {"bike_id": "3bd5e5173ff59154b4182ae5203fa5bd", "is_reserved": 0, "fusion_lon": 0.0, "lat": 38.88383816666666, "is_disabled": 0, "name": "3bd5e5173ff59154b4182ae5203fa5bd", "fusion_lat": 0.0, "rental_uris": {"ios": "https://dc.lft.to/lastmile_qr_scan", "android": "https://dc.lft.to/lastmile_qr_scan"}, "lon": -76.93047966666667, "type": "electric_scooter"}, {"bike_id": "e509443e635d181914d25cbea57095cc", "is_reserved": 0, "fusion_lon": 0.0, "lat": 38.89831783333333, "is_disabled": 0, "name": "e509443e635d181914d25cbea57095cc", "fusion_lat": 0.0, "rental_uris": {"ios": "https://dc.lft.to/lastmile_qr_scan", "android": "https://dc.lft.to/lastmile_qr_scan"}, "lon": -76.94634866666667, "type": "electric_scooter"}, {"bike_id": "320d2c0fb27e5f9285700ad9851753f3", "is_reserved": 0, "fusion_lon": 0.0, "lat": 38.9171145, "is_disabled": 0, "name": "320d2c0fb27e5f9285700ad9851753f3", "fusion_lat": 0.0, "rental_uris": {"ios": "https://dc.lft.to/lastmile_qr_scan", "android": "https://dc.lft.to/lastmile_qr_scan"}, "lon": -77.022421, "type": "electric_scooter"}, {"bike_id": "f84c61c9a6423241db1eb3b79ac73732", "is_reserved": 0, "fusion_lon": 0.0, "lat": 38.93344733333333, "is_disabled": 0, "name": "f84c61c9a6423241db1eb3b79ac73732", "fusion_lat": 0.0, "rental_uris": {"ios": "https://dc.lft.to/lastmile_qr_scan", "android": "https://dc.lft.to/lastmile_qr_scan"}, "lon": -77.03276616666666, "type": "electric_scooter"}, {"bike_id": "8df86f6526b1bcb975ce95afcdcda5d9", "is_reserved": 0, "fusion_lon": 0.0, "lat": 38.90119966666666, "is_disabled": 0, "name": "8df86f6526b1bcb975ce95afcdcda5d9", "fusion_lat": 0.0, "rental_uris": {"ios": "https://dc.lft.to/lastmile_qr_scan", "android": "https://dc.lft.to/lastmile_qr_scan"}, "lon": -77.04994966666666, "type": "electric_scooter"}, {"bike_id": "0a37c6a914f9b3a33431b34899224174", "is_reserved": 0, "fusion_lon": 0.0, "lat": 38.86400183333333, "is_disabled": 0, "name": "0a37c6a914f9b3a33431b34899224174", "fusion_lat": 0.0, "rental_uris": {"ios": "https://dc.lft.to/lastmile_qr_scan", "android": "https://dc.lft.to/lastmile_qr_scan"}, "lon": -76.97424616666666, "type": "electric_scooter"}, {"bike_id": "a3cfc30dfac243d61df521d9103b9866", "is_reserved": 0, "fusion_lon": 0.0, "lat": 38.901284, "is_disabled": 0, "name": "a3cfc30dfac243d61df521d9103b9866", "fusion_lat": 0.0, "rental_uris": {"ios": "https://dc.lft.to/lastmile_qr_scan", "android": "https://dc.lft.to/lastmile_qr_scan"}, "lon": -77.01968916666667, "type": "electric_scooter"}, {"bike_id": "d555ac9095c5991a81d506d6474440bb", "is_reserved": 0, "fusion_lon": 0.0, "lat": 38.973285, "is_disabled": 0, "name": "d555ac9095c5991a81d506d6474440bb", "fusion_lat": 0.0, "rental_uris": {"ios": "https://dc.lft.to/lastmile_qr_scan", "android": "https://dc.lft.to/lastmile_qr_scan"}, "lon": -77.02142716666667, "type": "electric_bike"}, {"bike_id": "b6481e20089e97123084522fc92240b0", "is_reserved": 0, "fusion_lon": 0.0, "lat": 38.9155545, "is_disabled": 0, "name": "b6481e20089e97123084522fc92240b0", "fusion_lat": 0.0, "rental_uris": {"ios": "https://dc.lft.to/lastmile_qr_scan", "android": "https://dc.lft.to/lastmile_qr_scan"}, "lon": -77.03177083333334, "type": "electric_scooter"}, {"bike_id": "14351f884ad21a2b5b203454fd3a8a65", "is_reserved": 0, "fusion_lon": 0.0, "lat": 38.945537, "is_disabled": 0, "name": "14351f884ad21a2b5b203454fd3a8a65", "fusion_lat": 0.0, "rental_uris": {"ios": "https://dc.lft.to/lastmile_qr_scan", "android": "https://dc.lft.to/lastmile_qr_scan"}, "lon": -76.89533516666667, "type": "electric_bike"}, {"bike_id": "9bb58296fe8bab73fbaf029181342b3a", "is_reserved": 0, "fusion_lon": 0.0, "lat": 38.94373566666667, "is_disabled": 0, "name": "9bb58296fe8bab73fbaf029181342b3a", "fusion_lat": 0.0, "rental_uris": {"ios": "https://dc.lft.to/lastmile_qr_scan", "android": "https://dc.lft.to/lastmile_qr_scan"}, "lon": -77.07744616666666, "type": "electric_scooter"}, {"bike_id": "5e464768633f74670e633f172474d449", "is_reserved": 0, "fusion_lon": 0.0, "lat": 38.9000975, "is_disabled": 0, "name": "5e464768633f74670e633f172474d449", "fusion_lat": 0.0, "rental_uris": {"ios": "https://dc.lft.to/lastmile_qr_scan", "android": "https://dc.lft.to/lastmile_qr_scan"}, "lon": -77.046575, "type": "electric_scooter"}, {"bike_id": "707aaeaee846dbd6b0c1f08aa929f1f4", "is_reserved": 0, "fusion_lon": 0.0, "lat": 38.84429033333333, "is_disabled": 0, "name": "707aaeaee846dbd6b0c1f08aa929f1f4", "fusion_lat": 0.0, "rental_uris": {"ios": "https://dc.lft.to/lastmile_qr_scan", "android": "https://dc.lft.to/lastmile_qr_scan"}, "lon": -76.99778383333333, "type": "electric_scooter"}, {"bike_id": "1b46618ac8b6a04f31e223cddbc3b313", "is_reserved": 0, "fusion_lon": 0.0, "lat": 38.9101385, "is_disabled": 0, "name": "1b46618ac8b6a04f31e223cddbc3b313", "fusion_lat": 0.0, "rental_uris": {"ios": "https://dc.lft.to/lastmile_qr_scan", "android": "https://dc.lft.to/lastmile_qr_scan"}, "lon": -76.993888, "type": "electric_scooter"}, {"bike_id": "374ebd4831547e39bfcba4fb88326ed1", "is_reserved": 0, "fusion_lon": 0.0, "lat": 38.933302833333336, "is_disabled": 0, "name": "374ebd4831547e39bfcba4fb88326ed1", "fusion_lat": 0.0, "rental_uris": {"ios": "https://dc.lft.to/lastmile_qr_scan", "android": "https://dc.lft.to/lastmile_qr_scan"}, "lon": -77.03268766666666, "type": "electric_scooter"}, {"bike_id": "67f995926971b9cf863ae9989e958774", "is_reserved": 0, "fusion_lon": 0.0, "lat": 38.873617, "is_disabled": 0, "name": "67f995926971b9cf863ae9989e958774", "fusion_lat": 0.0, "rental_uris": {"ios": "https://dc.lft.to/lastmile_qr_scan", "android": "https://dc.lft.to/lastmile_qr_scan"}, "lon": -76.971662, "type": "electric_scooter"}, {"bike_id": "12334765989b9e3d760babbf0e27a8ea", "is_reserved": 0, "fusion_lon": 0.0, "lat": 38.905689833333334, "is_disabled": 0, "name": "12334765989b9e3d760babbf0e27a8ea", "fusion_lat": 0.0, "rental_uris": {"ios": "https://dc.lft.to/lastmile_qr_scan", "android": "https://dc.lft.to/lastmile_qr_scan"}, "lon": -77.02180216666666, "type": "electric_scooter"}, {"bike_id": "fb8466fcc1f18d99ce4f3b2ad2db7988", "is_reserved": 0, "fusion_lon": 0.0, "lat": 38.915662, "is_disabled": 0, "name": "fb8466fcc1f18d99ce4f3b2ad2db7988", "fusion_lat": 0.0, "rental_uris": {"ios": "https://dc.lft.to/lastmile_qr_scan", "android": "https://dc.lft.to/lastmile_qr_scan"}, "lon": -77.0390515, "type": "electric_scooter"}, {"bike_id": "e77805e9aa90d19da45396f180213c0d", "is_reserved": 0, "fusion_lon": 0.0, "lat": 38.935323333333336, "is_disabled": 0, "name": "e77805e9aa90d19da45396f180213c0d", "fusion_lat": 0.0, "rental_uris": {"ios": "https://dc.lft.to/lastmile_qr_scan", "android": "https://dc.lft.to/lastmile_qr_scan"}, "lon": -77.03404716666667, "type": "electric_scooter"}, {"bike_id": "b0b8575b272a8faa53b08ad535c5b6cc", "is_reserved": 0, "fusion_lon": 0.0, "lat": 38.92576866666667, "is_disabled": 0, "name": "b0b8575b272a8faa53b08ad535c5b6cc", "fusion_lat": 0.0, "rental_uris": {"ios": "https://dc.lft.to/lastmile_qr_scan", "android": "https://dc.lft.to/lastmile_qr_scan"}, "lon": -77.07306366666667, "type": "electric_scooter"}, {"bike_id": "c8a0c60aaeacd677daac9f4aa4ef2bc7", "is_reserved": 0, "fusion_lon": 0.0, "lat": 38.907240333333334, "is_disabled": 0, "name": "c8a0c60aaeacd677daac9f4aa4ef2bc7", "fusion_lat": 0.0, "rental_uris": {"ios": "https://dc.lft.to/lastmile_qr_scan", "android": "https://dc.lft.to/lastmile_qr_scan"}, "lon": -77.02653366666667, "type": "electric_scooter"}, {"bike_id": "a456a68e67ddf922ada3fcc58bcc963d", "is_reserved": 0, "fusion_lon": 0.0, "lat": 38.921875666666665, "is_disabled": 0, "name": "a456a68e67ddf922ada3fcc58bcc963d", "fusion_lat": 0.0, "rental_uris": {"ios": "https://dc.lft.to/lastmile_qr_scan", "android": "https://dc.lft.to/lastmile_qr_scan"}, "lon": -77.04280266666666, "type": "electric_scooter"}, {"bike_id": "3adee1832cd4c86f58dba5d814050c3a", "is_reserved": 0, "fusion_lon": 0.0, "lat": 38.921537, "is_disabled": 0, "name": "3adee1832cd4c86f58dba5d814050c3a", "fusion_lat": 0.0, "rental_uris": {"ios": "https://dc.lft.to/lastmile_qr_scan", "android": "https://dc.lft.to/lastmile_qr_scan"}, "lon": -77.036557, "type": "electric_scooter"}, {"bike_id": "d003abfdb63d6b0d3d585ab803f19295", "is_reserved": 0, "fusion_lon": 0.0, "lat": 38.92272583333333, "is_disabled": 0, "name": "d003abfdb63d6b0d3d585ab803f19295", "fusion_lat": 0.0, "rental_uris": {"ios": "https://dc.lft.to/lastmile_qr_scan", "android": "https://dc.lft.to/lastmile_qr_scan"}, "lon": -77.03665583333333, "type": "electric_scooter"}, {"bike_id": "2777267d7e732cfb8ed67cc6372907ac", "is_reserved": 0, "fusion_lon": 0.0, "lat": 38.90553333333333, "is_disabled": 0, "name": "2777267d7e732cfb8ed67cc6372907ac", "fusion_lat": 0.0, "rental_uris": {"ios": "https://dc.lft.to/lastmile_qr_scan", "android": "https://dc.lft.to/lastmile_qr_scan"}, "lon": -77.040056, "type": "electric_scooter"}, {"bike_id": "da18f0b5e1c4531374a275f9fe8b3b48", "is_reserved": 0, "fusion_lon": 0.0, "lat": 38.92197216666667, "is_disabled": 0, "name": "da18f0b5e1c4531374a275f9fe8b3b48", "fusion_lat": 0.0, "rental_uris": {"ios": "https://dc.lft.to/lastmile_qr_scan", "android": "https://dc.lft.to/lastmile_qr_scan"}, "lon": -77.04235283333334, "type": "electric_scooter"}, {"bike_id": "5de59dc72250c3fccb1dd4ceb3c860c8", "is_reserved": 0, "fusion_lon": 0.0, "lat": 38.89903116666667, "is_disabled": 0, "name": "5de59dc72250c3fccb1dd4ceb3c860c8", "fusion_lat": 0.0, "rental_uris": {"ios": "https://dc.lft.to/lastmile_qr_scan", "android": "https://dc.lft.to/lastmile_qr_scan"}, "lon": -77.04481733333333, "type": "electric_scooter"}, {"bike_id": "bfb75951932073a2cd6b9bb740f2aea2", "is_reserved": 0, "fusion_lon": 0.0, "lat": 38.91051783333333, "is_disabled": 0, "name": "bfb75951932073a2cd6b9bb740f2aea2", "fusion_lat": 0.0, "rental_uris": {"ios": "https://dc.lft.to/lastmile_qr_scan", "android": "https://dc.lft.to/lastmile_qr_scan"}, "lon": -77.02806066666666, "type": "electric_scooter"}, {"bike_id": "50cb99d442ebc5af9b820a643c3943cb", "is_reserved": 0, "fusion_lon": 0.0, "lat": 38.8948425, "is_disabled": 0, "name": "50cb99d442ebc5af9b820a643c3943cb", "fusion_lat": 0.0, "rental_uris": {"ios": "https://dc.lft.to/lastmile_qr_scan", "android": "https://dc.lft.to/lastmile_qr_scan"}, "lon": -76.94868533333333, "type": "electric_scooter"}, {"bike_id": "acfe01376c35f7800875be96731d1703", "is_reserved": 0, "fusion_lon": 0.0, "lat": 38.89533266666667, "is_disabled": 0, "name": "acfe01376c35f7800875be96731d1703", "fusion_lat": 0.0, "rental_uris": {"ios": "https://dc.lft.to/lastmile_qr_scan", "android": "https://dc.lft.to/lastmile_qr_scan"}, "lon": -77.04833316666667, "type": "electric_scooter"},