{"data": {"bikes": [{"lat": 38.9186655, "is_disabled": 0, "type": "electric_scooter", "lon": -77.04094083333334, "bike_id": "8e9cdaf7a88362a20043117992e701db", "fusion_lat": 0.0, "name": "8e9cdaf7a88362a20043117992e701db", "is_reserved": 0, "rental_uris": {"android": "https://dc.lft.to/lastmile_qr_scan", "ios": "https://dc.lft.to/lastmile_qr_scan"}, "fusion_lon": 0.0}, {"lat": 38.892998666666664, "is_disabled": 0, "type": "electric_scooter", "lon": -77.046485, "bike_id": "e9fbb2a6033376be3767c0eb85d928e2", "fusion_lat": 0.0, "name": "e9fbb2a6033376be3767c0eb85d928e2", "is_reserved": 0, "rental_uris": {"android": "https://dc.lft.to/lastmile_qr_scan", "ios": "https://dc.lft.to/lastmile_qr_scan"}, "fusion_lon": 0.0}, {"lat": 38.91225516666667, "is_disabled": 0, "type": "electric_scooter", "lon": -77.03196516666667, "bike_id": "f6e5b69ef43cdee5f21f694dff617a65", "fusion_lat": 0.0, "name": "f6e5b69ef43cdee5f21f694dff617a65", "is_reserved": 0, "rental_uris": {"android": "https://dc.lft.to/lastmile_qr_scan", "ios": "https://dc.lft.to/lastmile_qr_scan"}, "fusion_lon": 0.0}, {"lat": 38.93611033333333, "is_disabled": 0, "type": "electric_scooter", "lon": -77.05893983333333, "bike_id": "181b0e32dba109c554a8543e61643fc0", "fusion_lat": 0.0, "name": "181b0e32dba109c554a8543e61643fc0", "is_reserved": 0, "rental_uris": {"android": "https://dc.lft.to/lastmile_qr_scan", "ios": "https://dc.lft.to/lastmile_qr_scan"}, "fusion_lon": 0.0}, {"lat": 38.89886883333333, "is_disabled": 0, "type": "electric_scooter", "lon": -76.93176383333333, "bike_id": "a6c8c5a7c229bc2618be8c2a1170b61c", "fusion_lat": 0.0, "name": "a6c8c5a7c229bc2618be8c2a1170b61c", "is_reserved": 0, "rental_uris": {"android": "https://dc.lft.to/lastmile_qr_scan", "ios": "https://dc.lft.to/lastmile_qr_scan"}, "fusion_lon": 0.0}, {"lat": 38.9004905, "is_disabled": 0, "type": "electric_scooter", "lon": -77.02613383333333, "bike_id": "d9844a1d581a561cf7020cd4e0980f6b", "fusion_lat": 0.0, "name": "d9844a1d581a561cf7020cd4e0980f6b", "is_reserved": 0, "rental_uris": {"android": "https://dc.lft.to/lastmile_qr_scan", "ios": "https://dc.lft.to/lastmile_qr_scan"}, "fusion_lon": 0.0}, {"lat": 38.923160333333335, "is_disabled": 0, "type": "electric_scooter", "lon": -77.0364275, "bike_id": "e5cf6a37c39eba7949e2bd67dbb50500", "fusion_lat": 0.0, "name": "e5cf6a37c39eba7949e2bd67dbb50500", "is_reserved": 0, "rental_uris": {"android": "https://dc.lft.to/lastmile_qr_scan", "ios": "https://dc.lft.to/lastmile_qr_scan"}, "fusion_lon": 0.0}, {"lat": 38.922418666666665, "is_disabled": 0, "type": "electric_scooter", "lon": -77.0457425, "bike_id": "72a206b526c1393b074d033d7c8f2e9c", "fusion_lat": 0.0, "name": "72a206b526c1393b074d033d7c8f2e9c", "is_reserved": 0, "rental_uris": {"android": "https://dc.lft.to/lastmile_qr_scan", "ios": "https://dc.lft.to/lastmile_qr_scan"}, "fusion_lon": 0.0}, {"lat": 38.908290666666666, "is_disabled": 0, "type": "electric_scooter", "lon": -77.0639175, "bike_id": "859782e0e34e69408e407cf8414936f8", "fusion_lat": 0.0, "name": "859782e0e34e69408e407cf8414936f8", "is_reserved": 0, "rental_uris": {"android": "https://dc.lft.to/lastmile_qr_scan", "ios": "https://dc.lft.to/lastmile_qr_scan"}, "fusion_lon": 0.0}, {"lat": 38.897413666666665, "is_disabled": 0, "type": "electric_scooter", "lon": -77.04770283333333, "bike_id": "f1517ec70257c835a24c458f339cf0ed", "fusion_lat": 0.0, "name": "f1517ec70257c835a24c458f339cf0ed", "is_reserved": 0, "rental_uris": {"android": "https://dc.lft.to/lastmile_qr_scan", "ios": "https://dc.lft.to/lastmile_qr_scan"}, "fusion_lon": 0.0}, {"lat": 38.850594666666666, "is_disabled": 0, "type": "electric_bike", "lon": -76.97315316666666, "bike_id": "26beac32c6f41a706e51c8d312e133a3", "fusion_lat": 0.0, "name": "26beac32c6f41a706e51c8d312e133a3", "is_reserved": 0, "rental_uris": {"android": "https://dc.lft.to/lastmile_qr_scan", "ios": "https://dc.lft.to/lastmile_qr_scan"}, "fusion_lon": 0.0}, {"lat": 38.9127105, "is_disabled": 0, "type": "electric_scooter", "lon": -77.02272166666667, "bike_id": "627ee9156590f79e2a7128d458c5130e", "fusion_lat": 0.0, "name": "627ee9156590f79e2a7128d458c5130e", "is_reserved": 0, "rental_uris": {"android": "https://dc.lft.to/lastmile_qr_scan", "ios": "https://dc.lft.to/lastmile_qr_scan"}, "fusion_lon": 0.0}, {"lat": 38.919278166666665, "is_disabled": 0, "type": "electric_scooter", "lon": -77.03130366666667, "bike_id": "24ceb751aba425740517971f2d881fc6", "fusion_lat": 0.0, "name": "24ceb751aba425740517971f2d881fc6", "is_reserved": 0, "rental_uris": {"android": "https://dc.lft.to/lastmile_qr_scan", "ios": "https://dc.lft.to/lastmile_qr_scan"}, "fusion_lon": 0.0}, {"lat": 38.906775833333334, "is_disabled": 0, "type": "electric_scooter", "lon": -77.03759933333333, "bike_id": "9ff3db0953e3e6241b6c1c81c5d28357", "fusion_lat": 0.0, "name": "9ff3db0953e3e6241b6c1c81c5d28357", "is_reserved": 0, "rental_uris": {"android": "https://dc.lft.to/lastmile_qr_scan", "ios": "https://dc.lft.to/lastmile_qr_scan"}, "fusion_lon": 0.0}, {"lat": 38.9353855, "is_disabled": 0, "type": "electric_scooter", "lon": -77.03412916666667, "bike_id": "f13ba5721d24c40d6db5c7f8c669b4a0", "fusion_lat": 0.0, "name": "f13ba5721d24c40d6db5c7f8c669b4a0", "is_reserved": 0, "rental_uris": {"android": "https://dc.lft.to/lastmile_qr_scan", "ios": "https://dc.lft.to/lastmile_qr_scan"}, "fusion_lon": 0.0}, {"lat": 38.891239166666665, "is_disabled": 0, "type": "electric_scooter", "lon": -76.94093633333334, "bike_id": "7fce085106ed3c15b5c8295a7119999b", "fusion_lat": 0.0, "name": "7fce085106ed3c15b5c8295a7119999b", "is_reserved": 0, "rental_uris": {"android": "https://dc.lft.to/lastmile_qr_scan", "ios": "https://dc.lft.to/lastmile_qr_scan"}, "fusion_lon": 0.0}, {"lat": 38.904748, "is_disabled": 0, "type": "electric_scooter", "lon": -77.03272366666667, "bike_id": "a59d5ac25f9cf277447d948b98f4aee0", "fusion_lat": 0.0, "name": "a59d5ac25f9cf277447d948b98f4aee0", "is_reserved": 0, "rental_uris": {"android": "https://dc.lft.to/lastmile_qr_scan", "ios": "https://dc.lft.to/lastmile_qr_scan"}, "fusion_lon": 0.0}, {"lat": 38.93329833333333, "is_disabled": 0, "type": "electric_scooter", "lon": -77.057067, "bike_id": "fda6dd31e4cad95efafa88ff31d8a879", "fusion_lat": 0.0, "name": "fda6dd31e4cad95efafa88ff31d8a879", "is_reserved": 0, "rental_uris": {"android": "https://dc.lft.to/lastmile_qr_scan", "ios": "https://dc.lft.to/lastmile_qr_scan"}, "fusion_lon": 0.0}, {"lat": 38.9000375, "is_disabled": 0, "type": "electric_scooter", "lon": -77.03998483333334, "bike_id": "31c5c2e209da1dc167d806bf4e5588c8", "fusion_lat": 0.0, "name": "31c5c2e209da1dc167d806bf4e5588c8", "is_reserved": 0, "rental_uris": {"android": "https://dc.lft.to/lastmile_qr_scan", "ios": "https://dc.lft.to/lastmile_qr_scan"}, "fusion_lon": 0.0}, {"lat": 38.898258166666665, "is_disabled": 0, "type": "electric_scooter", "lon": -77.04012166666666, "bike_id": "0171df5c9ab83110506b1400e69c778b", "fusion_lat": 0.0, "name": "0171df5c9ab83110506b1400e69c778b", "is_reserved": 0, "rental_uris": {"android": "https://dc.lft.to/lastmile_qr_scan", "ios": "https://dc.lft.to/lastmile_qr_scan"}, "fusion_lon": 0.0}, {"lat": 38.917005, "is_disabled": 0, "type": "electric_scooter", "lon": -77.034829, "bike_id": "cdd850516f520e7263a25745b28b133b", "fusion_lat": 0.0, "name": "cdd850516f520e7263a25745b28b133b", "is_reserved": 0, "rental_uris": {"android": "https://dc.lft.to/lastmile_qr_scan", "ios": "https://dc.lft.to/lastmile_qr_scan"}, "fusion_lon": 0.0}, {"lat": 38.9001095, "is_disabled": 0, "type": "electric_scooter", "lon": -76.99852, "bike_id": "7e55873adee9aec1bb21a5604bf39a71", "fusion_lat": 0.0, "name": "7e55873adee9aec1bb21a5604bf39a71", "is_reserved": 0, "rental_uris": {"android": "https://dc.lft.to/lastmile_qr_scan", "ios": "https://dc.lft.to/lastmile_qr_scan"}, "fusion_lon": 0.0}, {"lat": 39.01595366666667, "is_disabled": 0, "type": "electric_bike", "lon": -77.04428366666667, "bike_id": "fa1aa8fecfef3b6c4158c8290a275e00", "fusion_lat": 0.0, "name": "fa1aa8fecfef3b6c4158c8290a275e00", "is_reserved": 0, "rental_uris": {"android": "https://dc.lft.to/lastmile_qr_scan", "ios": "https://dc.lft.to/lastmile_qr_scan"}, "fusion_lon": 0.0}, {"lat": 38.8842745, "is_disabled": 0, "type": "electric_scooter", "lon": -77.03049633333333, "bike_id": "e6347a4e3bb448de2aeaba582be2c397", "fusion_lat": 0.0, "name": "e6347a4e3bb448de2aeaba582be2c397", "is_reserved": 0, "rental_uris": {"android": "https://dc.lft.to/lastmile_qr_scan", "ios": "https://dc.lft.to/lastmile_qr_scan"}, "fusion_lon": 0.0}, {"lat": 38.948062, "is_disabled": 0, "type": "electric_scooter", "lon": -77.07909866666667, "bike_id": "00e6b087009745031d3ee0c5d2d5f12f", "fusion_lat": 0.0, "name": "00e6b087009745031d3ee0c5d2d5f12f", "is_reserved": 0, "rental_uris": {"android": "https://dc.lft.to/lastmile_qr_scan", "ios": "https://dc.lft.to/lastmile_qr_scan"}, "fusion_lon": 0.0}, {"lat": 38.910833, "is_disabled": 0, "type": "electric_scooter", "lon": -77.0764375, "bike_id": "d56658223315039108db130af80a8f4a", "fusion_lat": 0.0, "name": "d56658223315039108db130af80a8f4a", "is_reserved": 0, "rental_uris": {"android": "https://dc.lft.to/lastmile_qr_scan", "ios": "https://dc.lft.to/lastmile_qr_scan"}, "fusion_lon": 0.0}, {"lat": 38.90049633333334, "is_disabled": 0, "type": "electric_scooter", "lon": -76.99501466666666, "bike_id": "83a829096fbc5f13cfb33e28d57212eb", "fusion_lat": 0.0, "name": "83a829096fbc5f13cfb33e28d57212eb", "is_reserved": 0, "rental_uris": {"android": "https://dc.lft.to/lastmile_qr_scan", "ios": "https://dc.lft.to/lastmile_qr_scan"}, "fusion_lon": 0.0}, {"lat": 38.97478516666666, "is_disabled": 0, "type": "electric_scooter", "lon": -77.01991966666667, "bike_id": "da9971484102f5ceb5eb3c81e0fcf5cf", "fusion_lat": 0.0, "name": "da9971484102f5ceb5eb3c81e0fcf5cf", "is_reserved": 0, "rental_uris": {"android": "https://dc.lft.to/lastmile_qr_scan", "ios": "https://dc.lft.to/lastmile_qr_scan"}, "fusion_lon": 0.0}, {"lat": 38.908273, "is_disabled": 0, "type": "electric_scooter", "lon": -76.94146933333333, "bike_id": "84925dbd15eab7b0f62ebd5420b655b3", "fusion_lat": 0.0, "name": "84925dbd15eab7b0f62ebd5420b655b3", "is_reserved": 0, "rental_uris": {"android": "https://dc.lft.to/lastmile_qr_scan", "ios": "https://dc.lft.to/lastmile_qr_scan"}, "fusion_lon": 0.0}, {"lat": 38.874975166666665, "is_disabled": 0, "type": "electric_scooter", "lon": -77.000791, "bike_id": "cce3b5b8829a4e3769e7e045172d488f", "fusion_lat": 0.0, "name": "cce3b5b8829a4e3769e7e045172d488f", "is_reserved": 0, "rental_uris": {"android": "https://dc.lft.to/lastmile_qr_scan", "ios": "https://dc.lft.to/lastmile_qr_scan"}, "fusion_lon": 0.0}, {"lat": 38.91583283333333, "is_disabled": 0, "type": "electric_scooter", "lon": -77.032014, "bike_id": "2398c776321247c4006fefb29f531924", "fusion_lat": 0.0, "name": "2398c776321247c4006fefb29f531924", "is_reserved": 0, "rental_uris": {"android": "https://dc.lft.to/lastmile_qr_scan", "ios": "https://dc.lft.to/lastmile_qr_scan"}, "fusion_lon": 0.0}, {"lat": 38.884016833333334, "is_disabled": 0, "type": "electric_bike", "lon": -76.96060616666666, "bike_id": "ea0c2c6870023e9ef4499a756bd78cdb", "fusion_lat": 0.0, "name": "ea0c2c6870023e9ef4499a756bd78cdb", "is_reserved": 0, "rental_uris": {"android": "https://dc.lft.to/lastmile_qr_scan", "ios": "https://dc.lft.to/lastmile_qr_scan"}, "fusion_lon": 0.0}, {"lat": 38.924815, "is_disabled": 0, "type": "electric_scooter", "lon": -77.02722516666667, "bike_id": "4f96143721cc7ff57e5406b619fbedaa", "fusion_lat": 0.0, "name": "4f96143721cc7ff57e5406b619fbedaa", "is_reserved": 0, "rental_uris": {"android": "https://dc.lft.to/lastmile_qr_scan", "ios": "https://dc.lft.to/lastmile_qr_scan"}, "fusion_lon": 0.0}, {"lat": 38.83979133333333, "is_disabled": 0, "type": "electric_bike", "lon": -77.00568516666667, "bike_id": "080d78d3a6febfc6ce24122bc9d5eada", "fusion_lat": 0.0, "name": "080d78d3a6febfc6ce24122bc9d5eada", "is_reserved": 0, "rental_uris": {"android": "https://dc.lft.to/lastmile_qr_scan", "ios": "https://dc.lft.to/lastmile_qr_scan"}, "fusion_lon": 0.0}, {"lat": 38.9173075, "is_disabled": 0, "type": "electric_scooter", "lon": -77.04102183333333, "bike_id": "07f8b66d697c90f2a366effdf1042026", "fusion_lat": 0.0, "name": "07f8b66d697c90f2a366effdf1042026", "is_reserved": 0, "rental_uris": {"android": "https://dc.lft.to/lastmile_qr_scan", "ios": "https://dc.lft.to/lastmile_qr_scan"}, "fusion_lon": 0.0}, {"lat": 38.86664183333333, "is_disabled": 0, "type": "electric_scooter", "lon": -76.99011383333334, "bike_id": "1ce8fc3f97bc1ec92225f84f55960956", "fusion_lat": 0.0, "name": "1ce8fc3f97bc1ec92225f84f55960956", "is_reserved": 0, "rental_uris": {"android": "https://dc.lft.to/lastmile_qr_scan", "ios": "https://dc.lft.to/lastmile_qr_scan"}, "fusion_lon": 0.0}, {"lat": 38.892945, "is_disabled": 0, "type": "electric_scooter", "lon": -77.03200666666666, "bike_id": "c8314ff9cc8d70b6ede1602597375176", "fusion_lat": 0.0, "name": "c8314ff9cc8d70b6ede1602597375176", "is_reserved": 0, "rental_uris": {"android": "https://dc.lft.to/lastmile_qr_scan", "ios": "https://dc.lft.to/lastmile_qr_scan"}, "fusion_lon": 0.0}, {"lat": 38.91752733333333, "is_disabled": 0, "type": "electric_scooter", "lon": -77.032004, "bike_id": "da00bb59ed31200f2b4347341bc089ce", "fusion_lat": 0.0, "name": "da00bb59ed31200f2b4347341bc089ce", "is_reserved": 0, "rental_uris": {"android": "https://dc.lft.to/lastmile_qr_scan", "ios": "https://dc.lft.to/lastmile_qr_scan"}, "fusion_lon": 0.0}, {"lat": 38.908647333333334, "is_disabled": 0, "type": "electric_bike", "lon": -76.940067, "bike_id": "106b128078019034fc14453cb1da347d", "fusion_lat": 0.0, "name": "106b128078019034fc14453cb1da347d", "is_reserved": 0, "rental_uris": {"android": "https://dc.lft.to/lastmile_qr_scan", "ios": "https://dc.lft.to/lastmile_qr_scan"}, "fusion_lon": 0.0}, {"lat": 38.92363366666667, "is_disabled": 0, "type": "electric_scooter", "lon": -77.05100383333334, "bike_id": "1bf00d7dd3f79807acad9da764ba0f2d", "fusion_lat": 0.0, "name": "1bf00d7dd3f79807acad9da764ba0f2d", "is_reserved": 0, "rental_uris": {"android": "https://dc.lft.to/lastmile_qr_scan", "ios": "https://dc.lft.to/lastmile_qr_scan"}, "fusion_lon": 0.0}, {"lat": 38.93918216666667, "is_disabled": 0, "type": "electric_scooter", "lon": -77.0667765, "bike_id": "1c639380c7246af9c156adad6fff1537", "fusion_lat": 0.0, "name": "1c639380c7246af9c156adad6fff1537", "is_reserved": 0, "rental_uris": {"android": "https://dc.lft.to/lastmile_qr_scan", "ios": "https://dc.lft.to/lastmile_qr_scan"}, "fusion_lon": 0.0}, {"lat": 38.92131933333334, "is_disabled": 0, "type": "electric_scooter", "lon": -77.04579266666667, "bike_id": "69fd7f70737e62a1e889736b570a26dc", "fusion_lat": 0.0, "name": "69fd7f70737e62a1e889736b570a26dc", "is_reserved": 0, "rental_uris": {"android": "https://dc.lft.to/lastmile_qr_scan", "ios": "https://dc.lft.to/lastmile_qr_scan"}, "fusion_lon": 0.0}, {"lat": 38.893751333333334, "is_disabled": 0, "type": "electric_scooter", "lon": -77.02823416666666, "bike_id": "4b2e8158d4318aa5d70262c0e1271c4a", "fusion_lat": 0.0, "name": "4b2e8158d4318aa5d70262c0e1271c4a", "is_reserved": 0, "rental_uris": {"android": "https://dc.lft.to/lastmile_qr_scan", "ios": "https://dc.lft.to/lastmile_qr_scan"}, "fusion_lon": 0.0}, {"lat": 38.921593666666666, "is_disabled": 0, "type": "electric_scooter", "lon": -77.03362016666667, "bike_id": "5dd73b228d051d29cc5a617dc75744ff", "fusion_lat": 0.0, "name": "5dd73b228d051d29cc5a617dc75744ff", "is_reserved": 0, "rental_uris": {"android": "https://dc.lft.to/lastmile_qr_scan", "ios": "https://dc.lft.to/lastmile_qr_scan"}, "fusion_lon": 0.0}, {"lat": 38.8671265, "is_disabled": 0, "type": "electric_scooter", "lon": -76.98726916666666, "bike_id": "401336c304d947201bcf1f965a4eb925", "fusion_lat": 0.0, "name": "401336c304d947201bcf1f965a4eb925", "is_reserved": 0, "rental_uris": {"android": "https://dc.lft.to/lastmile_qr_scan", "ios": "https://dc.lft.to/lastmile_qr_scan"}, "fusion_lon": 0.0}, {"lat": 38.902681, "is_disabled": 0, "type": "electric_scooter", "lon": -77.03963833333333, "bike_id": "b774d5d08acebec3ec2f2f08cf79eaa2", "fusion_lat": 0.0, "name": "b774d5d08acebec3ec2f2f08cf79eaa2", "is_reserved": 0, "rental_uris": {"android": "https://dc.lft.to/lastmile_qr_scan", "ios": "https://dc.lft.to/lastmile_qr_scan"}, "fusion_lon": 0.0}, {"lat": 38.9037395, "is_disabled": 0, "type": "electric_scooter", "lon": -77.03571633333334, "bike_id": "a66221db134eb415c7fdcb738437be55", "fusion_lat": 0.0, "name": "a66221db134eb415c7fdcb738437be55", "is_reserved": 0, "rental_uris": {"android": "https://dc.lft.to/lastmile_qr_scan", "ios": "https://dc.lft.to/lastmile_qr_scan"}, "fusion_lon": 0.0}, {"lat": 38.905875333333334, "is_disabled": 0, "type": "electric_scooter", "lon": -76.9861715, "bike_id": "2d8dfdbb865ab65d499b6af45070836a", "fusion_lat": 0.0, "name": "2d8dfdbb865ab65d499b6af45070836a", "is_reserved": 0, "rental_uris": {"android": "https://dc.lft.to/lastmile_qr_scan", "ios": "https://dc.lft.to/lastmile_qr_scan"}, "fusion_lon": 0.0}, {"lat": 38.919953166666666, "is_disabled": 0, "type": "electric_scooter", "lon": -77.03208166666667, "bike_id": "74559e9251c09ebcfb35e69ff366d41a", "fusion_lat": 0.0, "name": "74559e9251c09ebcfb35e69ff366d41a", "is_reserved": 0, "rental_uris": {"android": "https://dc.lft.to/lastmile_qr_scan", "ios": "https://dc.lft.to/lastmile_qr_scan"}, "fusion_lon": 0.0}, {"lat": 38.8710105, "is_disabled": 0, "type": "electric_scooter", "lon": -77.01209416666667, "bike_id": "6d4dd22a1b8d65ca7794b0d495b960e2", "fusion_lat": 0.0, "name": "6d4dd22a1b8d65ca7794b0d495b960e2", "is_reserved": 0, "rental_uris": {"android": "https://dc.lft.to/lastmile_qr_scan", "ios": "https://dc.lft.to/lastmile_qr_scan"}, "fusion_lon": 0.0}, {"lat": 38.9370105, "is_disabled": 0, "type": "electric_scooter", "lon": -77.02398966666667, "bike_id": "32f5df575a3de5e219b213735a13fed3", "fusion_lat": 0.0, "name": "32f5df575a3de5e219b213735a13fed3", "is_reserved": 0, "rental_uris": {"android": "https://dc.lft.to/lastmile_qr_scan", "ios": "https://dc.lft.to/lastmile_qr_scan"}, "fusion_lon": 0.0}, {"lat": 38.915592333333336, "is_disabled": 0, "type": "electric_scooter", "lon": -77.03831683333334, "bike_id": "59bc59842135169fd65b4feb3ff7f0bf", "fusion_lat": 0.0, "name": "59bc59842135169fd65b4feb3ff7f0bf", "is_reserved": 0, "rental_uris": {"android": "https://dc.lft.to/lastmile_qr_scan", "ios": "https://dc.lft.to/lastmile_qr_scan"}, "fusion_lon": 0.0}, {"lat": 38.92473316666667, "is_disabled": 0, "type": "electric_scooter", "lon": -77.03974366666667, "bike_id": "1467f44f59905289f703062ae953ab5b", "fusion_lat": 0.0, "name": "1467f44f59905289f703062ae953ab5b", "is_reserved": 0, "rental_uris": {"android": "https://dc.lft.to/lastmile_qr_scan", "ios": "https://dc.lft.to/lastmile_qr_scan"}, "fusion_lon": 0.0}, {"lat": 38.921511, "is_disabled": 0, "type": "electric_scooter", "lon": -77.04240766666666, "bike_id": "e57a955bea5f8ade4a5983bd0a994c4b", "fusion_lat": 0.0, "name": "e57a955bea5f8ade4a5983bd0a994c4b", "is_reserved": 0, "rental_uris": {"android": "https://dc.lft.to/lastmile_qr_scan", "ios": "https://dc.lft.to/lastmile_qr_scan"}, "fusion_lon": 0.0}, {"lat": 38.9573375, "is_disabled": 0, "type": "electric_scooter", "lon": -77.02401766666667, "bike_id": "44c2dd4d2d9abcf9d3928f2f660be3f3", "fusion_lat": 0.0, "name": "44c2dd4d2d9abcf9d3928f2f660be3f3", "is_reserved": 0, "rental_uris": {"android": "https://dc.lft.to/lastmile_qr_scan", "ios": "https://dc.lft.to/lastmile_qr_scan"}, "fusion_lon": 0.0}, {"lat": 38.9399155, "is_disabled": 0, "type": "electric_scooter", "lon": -77.01931116666667, "bike_id": "c1fee5b715ee760dca30820895005619", "fusion_lat": 0.0, "name": "c1fee5b715ee760dca30820895005619", "is_reserved": 0, "rental_uris": {"android": "https://dc.lft.to/lastmile_qr_scan", "ios": "https://dc.lft.to/lastmile_qr_scan"}, "fusion_lon": 0.0}, {"lat": 38.902605, "is_disabled": 0, "type": "electric_scooter", "lon": -77.02682233333333, "bike_id": "304785e837a02ba3e373888623b0874d", "fusion_lat": 0.0, "name": "304785e837a02ba3e373888623b0874d", "is_reserved": 0, "rental_uris": {"android": "https://dc.lft.to/lastmile_qr_scan", "ios": "https://dc.lft.to/lastmile_qr_scan"}, "fusion_lon": 0.0}, {"lat": 38.908582333333335, "is_disabled": 0, "type": "electric_scooter", "lon": -77.04480883333333, "bike_id": "757522eba0886de4b3237b03be80d915", "fusion_lat": 0.0, "name": "757522eba0886de4b3237b03be80d915", "is_reserved": 0, "rental_uris": {"android": "https://dc.lft.to/lastmile_qr_scan", "ios": "https://dc.lft.to/lastmile_qr_scan"}, "fusion_lon": 0.0}, {"lat": 38.946334, "is_disabled": 0, "type": "electric_scooter", "lon": -77.02521766666666, "bike_id": "b0fc691d6bd6a618b179adc7f3d95dc6", "fusion_lat": 0.0, "name": "b0fc691d6bd6a618b179adc7f3d95dc6", "is_reserved": 0, "rental_uris": {"android": "https://dc.lft.to/lastmile_qr_scan", "ios": "https://dc.lft.to/lastmile_qr_scan"}, "fusion_lon": 0.0}, {"lat": 38.9206155, "is_disabled": 0, "type": "electric_scooter", "lon": -77.04263616666667, "bike_id": "e8be60cbfce0762830ce683442c9f0e9", "fusion_lat": 0.0, "name": "e8be60cbfce0762830ce683442c9f0e9", "is_reserved": 0, "rental_uris": {"android": "https://dc.lft.to/lastmile_qr_scan", "ios": "https://dc.lft.to/lastmile_qr_scan"}, "fusion_lon": 0.0}, {"lat": 38.892221, "is_disabled": 0, "type": "electric_scooter", "lon": -77.0216405, "bike_id": "bbaf926027c3346ab87e88ea15da4b5c", "fusion_lat": 0.0, "name": "bbaf926027c3346ab87e88ea15da4b5c", "is_reserved": 0, "rental_uris": {"android": "https://dc.lft.to/lastmile_qr_scan", "ios": "https://dc.lft.to/lastmile_qr_scan"}, "fusion_lon": 0.0}, {"lat": 38.90689666666667, "is_disabled": 0, "type": "electric_scooter", "lon": -77.0579665, "bike_id": "852eb7a747dc5ac821c79a1bbc7b4791", "fusion_lat": 0.0, "name": "852eb7a747dc5ac821c79a1bbc7b4791", "is_reserved": 0, "rental_uris": {"android": "https://dc.lft.to/lastmile_qr_scan", "ios": "https://dc.lft.to/lastmile_qr_scan"}, "fusion_lon": 0.0}, {"lat": 38.90004833333333, "is_disabled": 0, "type": "electric_scooter", "lon": -77.04032533333333, "bike_id": "21ee27a8602eded4ac79d2aa79a3508c", "fusion_lat": 0.0, "name": "21ee27a8602eded4ac79d2aa79a3508c", "is_reserved": 0, "rental_uris": {"android": "https://dc.lft.to/lastmile_qr_scan", "ios": "https://dc.lft.to/lastmile_qr_scan"}, "fusion_lon": 0.0}, {"lat": 38.924115666666665, "is_disabled": 0, "type": "electric_scooter", "lon": -77.05042866666666, "bike_id": "058129f5e2880610e31977a8e03beb3b", "fusion_lat": 0.0, "name": "058129f5e2880610e31977a8e03beb3b", "is_reserved": 0, "rental_uris": {"android": "https://dc.lft.to/lastmile_qr_scan", "ios": "https://dc.lft.to/lastmile_qr_scan"}, "fusion_lon": 0.0}, {"lat": 38.91750583333334, "is_disabled": 0, "type": "electric_scooter", "lon": -77.03200566666666, "bike_id": "7e9c538a4b9457aacf6d232943017fb7", "fusion_lat": 0.0, "name": "7e9c538a4b9457aacf6d232943017fb7", "is_reserved": 0, "rental_uris": {"android": "https://dc.lft.to/lastmile_qr_scan", "ios": "https://dc.lft.to/lastmile_qr_scan"}, "fusion_lon": 0.0}, {"lat": 38.92372983333333, "is_disabled": 0, "type": "electric_scooter", "lon": -77.04138316666666, "bike_id": "79a75800960540f01be1645642650b85", "fusion_lat": 0.0, "name": "79a75800960540f01be1645642650b85", "is_reserved": 0, "rental_uris": {"android": "https://dc.lft.to/lastmile_qr_scan", "ios": "https://dc.lft.to/lastmile_qr_scan"}, "fusion_lon": 0.0}, {"lat": 38.90602966666667, "is_disabled": 0, "type": "electric_scooter", "lon": -77.0396045, "bike_id": "418807685e804923ddfe591f90a67de5", "fusion_lat": 0.0, "name": "418807685e804923ddfe591f90a67de5", "is_reserved": 0, "rental_uris": {"android": "https://dc.lft.to/lastmile_qr_scan", "ios": "https://dc.lft.to/lastmile_qr_scan"}, "fusion_lon": 0.0}, {"lat": 38.917327, "is_disabled": 0, "type": "electric_scooter", "lon": -77.02714316666666, "bike_id": "853075f13617c0bcfca75041392c842b", "fusion_lat": 0.0, "name": "853075f13617c0bcfca75041392c842b", "is_reserved": 0, "rental_uris": {"android": "https://dc.lft.to/lastmile_qr_scan", "ios": "https://dc.lft.to/lastmile_qr_scan"}, "fusion_lon": 0.0}, {"lat": 38.91478633333333, "is_disabled": 0, "type": "electric_scooter", "lon": -77.00946283333333, "bike_id": "79447b508797e45070c89d14c03d46fe", "fusion_lat": 0.0, "name": "79447b508797e45070c89d14c03d46fe", "is_reserved": 0, "rental_uris": {"android": "https://dc.lft.to/lastmile_qr_scan", "ios": "https://dc.lft.to/lastmile_qr_scan"}, "fusion_lon": 0.0}, {"lat": 38.886397333333335, "is_disabled": 0, "type": "electric_bike", "lon": -76.954757, "bike_id": "61cd4ad7407c02eb5cc6c59532a40e81", "fusion_lat": 0.0, "name": "61cd4ad7407c02eb5cc6c59532a40e81", "is_reserved": 0, "rental_uris": {"android": "https://dc.lft.to/lastmile_qr_scan", "ios": "https://dc.lft.to/lastmile_qr_scan"}, "fusion_lon": 0.0}, {"lat": 38.862318333333334, "is_disabled": 0, "type": "electric_scooter", "lon": -76.9954845, "bike_id": "cf2678715cbdf4fcca71bee42e05eb1a", "fusion_lat": 0.0, "name": "cf2678715cbdf4fcca71bee42e05eb1a", "is_reserved": 0, "rental_uris": {"android": "https://dc.lft.to/lastmile_qr_scan", "ios": "https://dc.lft.to/lastmile_qr_scan"}, "fusion_lon": 0.0}, {"lat": 38.92761483333334, "is_disabled": 0, "type": "electric_scooter", "lon": -77.03222033333333, "bike_id": "b1ad3afe17c1082eb2e835c11d894dee", "fusion_lat": 0.0, "name": "b1ad3afe17c1082eb2e835c11d894dee", "is_reserved": 0, "rental_uris": {"android": "https://dc.lft.to/lastmile_qr_scan", "ios": "https://dc.lft.to/lastmile_qr_scan"}, "fusion_lon": 0.0}, {"lat": 38.96150983333333, "is_disabled": 0, "type": "electric_scooter", "lon": -77.02799066666667, "bike_id": "b4e8ce4295b738f73a7848439a56358c", "fusion_lat": 0.0, "name": "b4e8ce4295b738f73a7848439a56358c", "is_reserved": 0, "rental_uris": {"android": "https://dc.lft.to/lastmile_qr_scan", "ios": "https://dc.lft.to/lastmile_qr_scan"}, "fusion_lon": 0.0}, {"lat": 39.056361, "is_disabled": 0, "type": "electric_bike", "lon": -77.12527366666667, "bike_id": "02adce9e01dffc802aafd17e6a036db2", "fusion_lat": 0.0, "name": "02adce9e01dffc802aafd17e6a036db2", "is_reserved": 0, "rental_uris": {"android": "https://dc.lft.to/lastmile_qr_scan", "ios": "https://dc.lft.to/lastmile_qr_scan"}, "fusion_lon": 0.0}, {"lat": 38.92478833333333, "is_disabled": 0, "type": "electric_scooter", "lon": -77.02841533333333, "bike_id": "ef12d6e9be16a99fe9ffc99d030cf1cd", "fusion_lat": 0.0, "name": "ef12d6e9be16a99fe9ffc99d030cf1cd", "is_reserved": 0, "rental_uris": {"android": "https://dc.lft.to/lastmile_qr_scan", "ios": "https://dc.lft.to/lastmile_qr_scan"}, "fusion_lon": 0.0}, {"lat": 38.898174166666664, "is_disabled": 0, "type": "electric_scooter", "lon": -76.99693533333334, "bike_id": "bf3bdebfce1083b173f971561eee02eb", "fusion_lat": 0.0, "name": "bf3bdebfce1083b173f971561eee02eb", "is_reserved": 0, "rental_uris": {"android": "https://dc.lft.to/lastmile_qr_scan", "ios": "https://dc.lft.to/lastmile_qr_scan"}, "fusion_lon": 0.0}, {"lat": 38.885775333333335, "is_disabled": 0, "type": "electric_scooter", "lon": -76.91910383333334, "bike_id": "3bb33cc467cc74d75753e7119039741b", "fusion_lat": 0.0, "name": "3bb33cc467cc74d75753e7119039741b", "is_reserved": 0, "rental_uris": {"android": "https://dc.lft.to/lastmile_qr_scan", "ios": "https://dc.lft.to/lastmile_qr_scan"}, "fusion_lon": 0.0}, {"lat": 38.9444025, "is_disabled": 0, "type": "electric_scooter", "lon": -77.02342266666666, "bike_id": "aa4bb9ac8e293743f927f21a7d843c58", "fusion_lat": 0.0, "name": "aa4bb9ac8e293743f927f21a7d843c58", "is_reserved": 0, "rental_uris": {"android": "https://dc.lft.to/lastmile_qr_scan", "ios": "https://dc.lft.to/lastmile_qr_scan"}, "fusion_lon": 0.0}, {"lat": 38.8573595, "is_disabled": 0, "type": "electric_scooter", "lon": -76.994346, "bike_id": "a402ea78cb0f9dac903b370a9e74f11f", "fusion_lat": 0.0, "name": "a402ea78cb0f9dac903b370a9e74f11f", "is_reserved": 0, "rental_uris": {"android": "https://dc.lft.to/lastmile_qr_scan", "ios": "https://dc.lft.to/lastmile_qr_scan"}, "fusion_lon": 0.0}, {"lat": 38.909588666666664, "is_disabled": 0, "type": "electric_scooter", "lon": -77.047928, "bike_id": "6ad1f4a3a7469020ffe53aadfd33110d", "fusion_lat": 0.0, "name": "6ad1f4a3a7469020ffe53aadfd33110d", "is_reserved": 0, "rental_uris": {"android": "https://dc.lft.to/lastmile_qr_scan", "ios": "https://dc.lft.to/lastmile_qr_scan"}, "fusion_lon": 0.0}, {"lat": 38.9097215, "is_disabled": 0, "type": "electric_scooter", "lon": -77.0238805, "bike_id": "8693359f20186c88ba629e39a3010af8", "fusion_lat": 0.0, "name": "8693359f20186c88ba629e39a3010af8", "is_reserved": 0, "rental_uris": {"android": "https://dc.lft.to/lastmile_qr_scan", "ios": "https://dc.lft.to/lastmile_qr_scan"}, "fusion_lon": 0.0}, {"lat": 38.9169675, "is_disabled": 0, "type": "electric_scooter", "lon": -77.03733416666667, "bike_id": "d7a8ec455fb81245a5d48808a1dda783", "fusion_lat": 0.0, "name": "d7a8ec455fb81245a5d48808a1dda783", "is_reserved": 0, "rental_uris": {"android": "https://dc.lft.to/lastmile_qr_scan", "ios": "https://dc.lft.to/lastmile_qr_scan"}, "fusion_lon": 0.0}, {"lat": 38.90223566666667, "is_disabled": 0, "type": "electric_scooter", "lon": -77.02976716666667, "bike_id": "d7c935474f67bec6ccc74085dcf04070", "fusion_lat": 0.0, "name": "d7c935474f67bec6ccc74085dcf04070", "is_reserved": 0, "rental_uris": {"android": "https://dc.lft.to/lastmile_qr_scan", "ios": "https://dc.lft.to/lastmile_qr_scan"}, "fusion_lon": 0.0}, {"lat": 38.901422, "is_disabled": 0, "type": "electric_scooter", "lon": -77.04141266666667, "bike_id": "1e84523bbb6e5e99e8079889ebc460a9", "fusion_lat": 0.0, "name": "1e84523bbb6e5e99e8079889ebc460a9", "is_reserved": 0, "rental_uris": {"android": "https://dc.lft.to/lastmile_qr_scan", "ios": "https://dc.lft.to/lastmile_qr_scan"}, "fusion_lon": 0.0}, {"lat": 38.941882166666666, "is_disabled": 0, "type": "electric_bike", "lon": -77.02491416666666, "bike_id": "3a6ec0434368e6833365343e258d87b6", "fusion_lat": 0.0, "name": "3a6ec0434368e6833365343e258d87b6", "is_reserved": 0, "rental_uris": {"android": "https://dc.lft.to/lastmile_qr_scan", "ios": "https://dc.lft.to/lastmile_qr_scan"}, "fusion_lon": 0.0}, {"lat": 38.9613805, "is_disabled": 0, "type": "electric_scooter", "lon": -77.02782883333333, "bike_id": "47c8604c19a0eefbcdbe80aac0c6fe20", "fusion_lat": 0.0, "name": "47c8604c19a0eefbcdbe80aac0c6fe20", "is_reserved": 0, "rental_uris": {"android": "https://dc.lft.to/lastmile_qr_scan", "ios": "https://dc.lft.to/lastmile_qr_scan"}, "fusion_lon": 0.0}, {"lat": 38.9173035, "is_disabled": 0, "type": "electric_scooter", "lon": -77.02714916666666, "bike_id": "f277054d5824f172f53375cf610770dc", "fusion_lat": 0.0, "name": "f277054d5824f172f53375cf610770dc", "is_reserved": 0, "rental_uris": {"android": "https://dc.lft.to/lastmile_qr_scan", "ios": "https://dc.lft.to/lastmile_qr_scan"}, "fusion_lon": 0.0}, {"lat": 38.90559433333333, "is_disabled": 0, "type": "electric_scooter", "lon": -77.05700833333333, "bike_id": "bd348875296a792756e28b373ff5ff2b", "fusion_lat": 0.0, "name": "bd348875296a792756e28b373ff5ff2b", "is_reserved": 0, "rental_uris": {"android": "https://dc.lft.to/lastmile_qr_scan", "ios": "https://dc.lft.to/lastmile_qr_scan"}, "fusion_lon": 0.0}, {"lat": 38.8622425, "is_disabled": 0, "type": "electric_scooter", "lon": -76.98366, "bike_id": "6f177efff7b4ddd7cbfa9481a8703b5a", "fusion_lat": 0.0, "name": "6f177efff7b4ddd7cbfa9481a8703b5a", "is_reserved": 0, "rental_uris": {"android": "https://dc.lft.to/lastmile_qr_scan", "ios": "https://dc.lft.to/lastmile_qr_scan"}, "fusion_lon": 0.0}, {"lat": 38.88282483333333, "is_disabled": 0, "type": "electric_bike", "lon": -76.93242816666667, "bike_id": "3537e096e397d0af903e3a7e3cf84e58", "fusion_lat": 0.0, "name": "3537e096e397d0af903e3a7e3cf84e58", "is_reserved": 0, "rental_uris": {"android": "https://dc.lft.to/lastmile_qr_scan", "ios": "https://dc.lft.to/lastmile_qr_scan"}, "fusion_lon": 0.0}, {"lat": 38.9212115, "is_disabled": 0, "type": "electric_scooter", "lon": -77.01800883333334, "bike_id": "28fa14bdf32d9aaba5ab3b230128d284", "fusion_lat": 0.0, "name": "28fa14bdf32d9aaba5ab3b230128d284", "is_reserved": 0, "rental_uris": {"android": "https://dc.lft.to/lastmile_qr_scan", "ios": "https://dc.lft.to/lastmile_qr_scan"}, "fusion_lon": 0.0}, {"lat": 38.9184265, "is_disabled": 0, "type": "electric_scooter", "lon": -77.023019, "bike_id": "77b15cdd3f9ede39936b1b1fcb64e5b8", "fusion_lat": 0.0, "name": "77b15cdd3f9ede39936b1b1fcb64e5b8", "is_reserved": 0, "rental_uris": {"android": "https://dc.lft.to/lastmile_qr_scan", "ios": "https://dc.lft.to/lastmile_qr_scan"}, "fusion_lon": 0.0}, {"lat": 38.95077833333333, "is_disabled": 0, "type": "electric_bike", "lon": -77.0119715, "bike_id": "913dc29c18eeea509637a71274a3792e", "fusion_lat": 0.0, "name": "913dc29c18eeea509637a71274a3792e", "is_reserved": 0, "rental_uris": {"android": "https://dc.lft.to/lastmile_qr_scan", "ios": "https://dc.lft.to/lastmile_qr_scan"}, "fusion_lon": 0.0}, {"lat": 38.908860833333335, "is_disabled": 0, "type": "electric_scooter", "lon": -77.03666183333333, "bike_id": "9a21abc5b5eeaa9b6d6e52b581d29062", "fusion_lat": 0.0, "name": "9a21abc5b5eeaa9b6d6e52b581d29062", "is_reserved": 0, "rental_uris": {"android": "https://dc.lft.to/lastmile_qr_scan", "ios": "https://dc.lft.to/lastmile_qr_scan"}, "fusion_lon": 0.0}, {"lat": 38.9033315, "is_disabled": 0, "type": "electric_scooter", "lon": -76.9705795, "bike_id": "048bfe3efc5da531b036a3bbe12d3183", "fusion_lat": 0.0, "name": "048bfe3efc5da531b036a3bbe12d3183", "is_reserved": 0, "rental_uris": {"android": "https://dc.lft.to/lastmile_qr_scan", "ios": "https://dc.lft.to/lastmile_qr_scan"}, "fusion_lon": 0.0}, {"lat": 38.924493, "is_disabled": 0, "type": "electric_scooter", "lon": -77.04026866666666, "bike_id": "09d1c5e5c5db67fc2e0f3a4932bc32af", "fusion_lat": 0.0, "name": "09d1c5e5c5db67fc2e0f3a4932bc32af", "is_reserved": 0, "rental_uris": {"android": "https://dc.lft.to/lastmile_qr_scan", "ios": "https://dc.lft.to/lastmile_qr_scan"}, "fusion_lon": 0.0}, {"lat": 38.89890466666667, "is_disabled": 0, "type": "electric_scooter", "lon": -77.0294485, "bike_id": "1a91706ff4b55ba54a8e7b4c4fb6c968", "fusion_lat": 0.0, "name": "1a91706ff4b55ba54a8e7b4c4fb6c968", "is_reserved": 0, "rental_uris": {"android": "https://dc.lft.to/lastmile_qr_scan", "ios": "https://dc.lft.to/lastmile_qr_scan"}, "fusion_lon": 0.0}, {"lat": 38.89792666666666, "is_disabled": 0, "type": "electric_bike", "lon": -76.99061616666667, "bike_id": "94fe8a35eaef0fecc6f4239196f83c2b", "fusion_lat": 0.0, "name": "94fe8a35eaef0fecc6f4239196f83c2b", "is_reserved": 0, "rental_uris": {"android": "https://dc.lft.to/lastmile_qr_scan", "ios": "https://dc.lft.to/lastmile_qr_scan"}, "fusion_lon": 0.0}, {"lat": 38.9169445, "is_disabled": 0, "type": "electric_scooter", "lon": -77.0296115, "bike_id": "20f7be9248e0787324b98810ab65fbaa", "fusion_lat": 0.0, "name": "20f7be9248e0787324b98810ab65fbaa", "is_reserved": 0, "rental_uris": {"android": "https://dc.lft.to/lastmile_qr_scan", "ios": "https://dc.lft.to/lastmile_qr_scan"}, "fusion_lon": 0.0}, {"lat": 38.892212666666666, "is_disabled": 0, "type": "electric_scooter", "lon": -77.04865233333334, "bike_id": "139f131c47d913dfcdb5367730486f8a", "fusion_lat": 0.0, "name": "139f131c47d913dfcdb5367730486f8a", "is_reserved": 0, "rental_uris": {"android": "https://dc.lft.to/lastmile_qr_scan", "ios": "https://dc.lft.to/lastmile_qr_scan"}, "fusion_lon": 0.0}, {"lat": 38.9156045, "is_disabled": 0, "type": "electric_scooter", "lon": -77.0098105, "bike_id": "c63d2e2527a606e25aa8c068d8afeb1e", "fusion_lat": 0.0, "name": "c63d2e2527a606e25aa8c068d8afeb1e", "is_reserved": 0, "rental_uris": {"android": "https://dc.lft.to/lastmile_qr_scan", "ios": "https://dc.lft.to/lastmile_qr_scan"}, "fusion_lon": 0.0}, {"lat": 38.86619966666667, "is_disabled": 0, "type": "electric_scooter", "lon": -76.98664166666667, "bike_id": "2655c8b49379998a6651aef032621240", "fusion_lat": 0.0, "name": "2655c8b49379998a6651aef032621240", "is_reserved": 0, "rental_uris": {"android": "https://dc.lft.to/lastmile_qr_scan", "ios": "https://dc.lft.to/lastmile_qr_scan"}, "fusion_lon": 0.0}, {"lat": 38.9223905, "is_disabled": 0, "type": "electric_scooter", "lon": -77.0291075, "bike_id": "6d5f34abcf4a95c4a2c0566554129263", "fusion_lat": 0.0, "name": "6d5f34abcf4a95c4a2c0566554129263", "is_reserved": 0, "rental_uris": {"android": "https://dc.lft.to/lastmile_qr_scan", "ios": "https://dc.lft.to/lastmile_qr_scan"}, "fusion_lon": 0.0}, {"lat": 38.9357745, "is_disabled": 0, "type": "electric_scooter", "lon": -77.03731516666667, "bike_id": "63e1881f9845e56e2ed38f7fbb249749", "fusion_lat": 0.0, "name": "63e1881f9845e56e2ed38f7fbb249749", "is_reserved": 0, "rental_uris": {"android": "https://dc.lft.to/lastmile_qr_scan", "ios": "https://dc.lft.to/lastmile_qr_scan"}, "fusion_lon": 0.0}, {"lat": 38.89742016666667, "is_disabled": 0, "type": "electric_scooter", "lon": -77.04534816666667, "bike_id": "014186d364ce9226dd502f93dcd58355", "fusion_lat": 0.0, "name": "014186d364ce9226dd502f93dcd58355", "is_reserved": 0, "rental_uris": {"android": "https://dc.lft.to/lastmile_qr_scan", "ios": "https://dc.lft.to/lastmile_qr_scan"}, "fusion_lon": 0.0}, {"lat": 38.904313333333334, "is_disabled": 0, "type": "electric_scooter", "lon": -77.05345616666666, "bike_id": "6b6d12fe4d00dfe1dc6322bdcd98e64a", "fusion_lat": 0.0, "name": "6b6d12fe4d00dfe1dc6322bdcd98e64a", "is_reserved": 0, "rental_uris": {"android": "https://dc.lft.to/lastmile_qr_scan", "ios": "https://dc.lft.to/lastmile_qr_scan"}, "fusion_lon": 0.0}, {"lat": 38.899047833333334, "is_disabled": 0, "type": "electric_scooter", "lon": -76.9335685, "bike_id": "3cbcd1cce060e37eaa9654f2057cd0d7", "fusion_lat": 0.0, "name": "3cbcd1cce060e37eaa9654f2057cd0d7", "is_reserved": 0, "rental_uris": {"android": "https://dc.lft.to/lastmile_qr_scan", "ios": "https://dc.lft.to/lastmile_qr_scan"}, "fusion_lon": 0.0}, {"lat": 38.91681466666667, "is_disabled": 0, "type": "electric_scooter", "lon": -77.029685, "bike_id": "435fdac8e0454b99457923cf9383bc75", "fusion_lat": 0.0, "name": "435fdac8e0454b99457923cf9383bc75", "is_reserved": 0, "rental_uris": {"android": "https://dc.lft.to/lastmile_qr_scan", "ios": "https://dc.lft.to/lastmile_qr_scan"}, "fusion_lon": 0.0}, {"lat": 38.8800225, "is_disabled": 0, "type": "electric_scooter", "lon": -76.9854985, "bike_id": "beab4ba44ee7d09772b70ba446846677", "fusion_lat": 0.0, "name": "beab4ba44ee7d09772b70ba446846677", "is_reserved": 0, "rental_uris": {"android": "https://dc.lft.to/lastmile_qr_scan", "ios": "https://dc.lft.to/lastmile_qr_scan"}, "fusion_lon": 0.0}, {"lat": 38.939896833333336, "is_disabled": 0, "type": "electric_scooter", "lon": -77.07174516666667, "bike_id": "1683b86fa8ec5cd685a44b938af639f6", "fusion_lat": 0.0, "name": "1683b86fa8ec5cd685a44b938af639f6", "is_reserved": 0, "rental_uris": {"android": "https://dc.lft.to/lastmile_qr_scan", "ios": "https://dc.lft.to/lastmile_qr_scan"}, "fusion_lon": 0.0}, {"lat": 38.892622, "is_disabled": 0, "type": "electric_scooter", "lon": -76.9415865, "bike_id": "1d3f3ac7d59060ee7c9b403c1c436467", "fusion_lat": 0.0, "name": "1d3f3ac7d59060ee7c9b403c1c436467", "is_reserved": 0, "rental_uris": {"android": "https://dc.lft.to/lastmile_qr_scan", "ios": "https://dc.lft.to/lastmile_qr_scan"}, "fusion_lon": 0.0}, {"lat": 38.897809333333335, "is_disabled": 0, "type": "electric_scooter", "lon": -77.03213016666666, "bike_id": "dcfdbc4391fd545ddda76b17108bb8e4", "fusion_lat": 0.0, "name": "dcfdbc4391fd545ddda76b17108bb8e4", "is_reserved": 0, "rental_uris": {"android": "https://dc.lft.to/lastmile_qr_scan", "ios": "https://dc.lft.to/lastmile_qr_scan"}, "fusion_lon": 0.0}, {"lat": 38.90414533333333, "is_disabled": 0, "type": "electric_scooter", "lon": -77.02079, "bike_id": "4d954ec4f8e326110e2eb69fab1900b1", "fusion_lat": 0.0, "name": "4d954ec4f8e326110e2eb69fab1900b1", "is_reserved": 0, "rental_uris": {"android": "https://dc.lft.to/lastmile_qr_scan", "ios": "https://dc.lft.to/lastmile_qr_scan"}, "fusion_lon": 0.0}, {"lat": 38.925389333333335, "is_disabled": 0, "type": "electric_scooter", "lon": -77.02583733333333, "bike_id": "c7290a6bb9bd852af9a50b31b8106792", "fusion_lat": 0.0, "name": "c7290a6bb9bd852af9a50b31b8106792", "is_reserved": 0, "rental_uris": {"android": "https://dc.lft.to/lastmile_qr_scan", "ios": "https://dc.lft.to/lastmile_qr_scan"}, "fusion_lon": 0.0}, {"lat": 38.858036166666665, "is_disabled": 0, "type": "electric_scooter", "lon": -76.98989, "bike_id": "e7f5a2012b8e731956e2d29404b46a31", "fusion_lat": 0.0, "name": "e7f5a2012b8e731956e2d29404b46a31", "is_reserved": 0, "rental_uris": {"android": "https://dc.lft.to/lastmile_qr_scan", "ios": "https://dc.lft.to/lastmile_qr_scan"}, "fusion_lon": 0.0}, {"lat": 38.805662166666664, "is_disabled": 0, "type": "electric_bike", "lon": -77.132377, "bike_id": "9db78da44319868436430c6524b14872", "fusion_lat": 0.0, "name": "9db78da44319868436430c6524b14872", "is_reserved": 0, "rental_uris": {"android": "https://dc.lft.to/lastmile_qr_scan", "ios": "https://dc.lft.to/lastmile_qr_scan"}, "fusion_lon": 0.0}, {"lat": 38.89735916666667, "is_disabled": 0, "type": "electric_scooter", "lon": -77.03258633333333, "bike_id": "b207062efd38b3748004688eae1d8f4c", "fusion_lat": 0.0, "name": "b207062efd38b3748004688eae1d8f4c", "is_reserved": 0, "rental_uris": {"android": "https://dc.lft.to/lastmile_qr_scan", "ios": "https://dc.lft.to/lastmile_qr_scan"}, "fusion_lon": 0.0}, {"lat": 38.929035, "is_disabled": 0, "type": "electric_scooter", "lon": -77.0545745, "bike_id": "4990551b212ce15cf8fe911de3b7e35d", "fusion_lat": 0.0, "name": "4990551b212ce15cf8fe911de3b7e35d", "is_reserved": 0, "rental_uris": {"android": "https://dc.lft.to/lastmile_qr_scan", "ios": "https://dc.lft.to/lastmile_qr_scan"}, "fusion_lon": 0.0}, {"lat": 38.908751333333335, "is_disabled": 0, "type": "electric_scooter", "lon": -77.031854, "bike_id": "617353439e3e118695e92fdcf47d46ab", "fusion_lat": 0.0, "name": "617353439e3e118695e92fdcf47d46ab", "is_reserved": 0, "rental_uris": {"android": "https://dc.lft.to/lastmile_qr_scan", "ios": "https://dc.lft.to/lastmile_qr_scan"}, "fusion_lon": 0.0}, {"lat": 38.91547466666667, "is_disabled": 0, "type": "electric_scooter", "lon": -77.031858, "bike_id": "8417c357f3efc7044aee46131a2deeb1", "fusion_lat": 0.0, "name": "8417c357f3efc7044aee46131a2deeb1", "is_reserved": 0, "rental_uris": {"android": "https://dc.lft.to/lastmile_qr_scan", "ios": "https://dc.lft.to/lastmile_qr_scan"}, "fusion_lon": 0.0}, {"lat": 38.873448833333335, "is_disabled": 0, "type": "electric_scooter", "lon": -76.99164433333334, "bike_id": "93f21db695eaa0058218484c628d9f27", "fusion_lat": 0.0, "name": "93f21db695eaa0058218484c628d9f27", "is_reserved": 0, "rental_uris": {"android": "https://dc.lft.to/lastmile_qr_scan", "ios": "https://dc.lft.to/lastmile_qr_scan"}, "fusion_lon": 0.0}, {"lat": 38.928034833333335, "is_disabled": 0, "type": "electric_scooter", "lon": -77.04315783333334, "bike_id": "5770a67637710c1844aa8740f8b7b140", "fusion_lat": 0.0, "name": "5770a67637710c1844aa8740f8b7b140", "is_reserved": 0, "rental_uris": {"android": "https://dc.lft.to/lastmile_qr_scan", "ios": "https://dc.lft.to/lastmile_qr_scan"}, "fusion_lon": 0.0}, {"lat": 38.91701366666667, "is_disabled": 0, "type": "electric_scooter", "lon": -77.0373415, "bike_id": "214075d27dd1b978b1aa4e58a8583269", "fusion_lat": 0.0, "name": "214075d27dd1b978b1aa4e58a8583269", "is_reserved": 0, "rental_uris": {"android": "https://dc.lft.to/lastmile_qr_scan", "ios": "https://dc.lft.to/lastmile_qr_scan"}, "fusion_lon": 0.0}, {"lat": 38.917046666666664, "is_disabled": 0, "type": "electric_scooter", "lon": -77.0433545, "bike_id": "50a5eba6294110ff41ee360cfe62772e", "fusion_lat": 0.0, "name": "50a5eba6294110ff41ee360cfe62772e", "is_reserved": 0, "rental_uris": {"android": "https://dc.lft.to/lastmile_qr_scan", "ios": "https://dc.lft.to/lastmile_qr_scan"}, "fusion_lon": 0.0}, {"lat": 38.90688183333333, "is_disabled": 0, "type": "electric_scooter", "lon": -76.9982445, "bike_id": "67833c7d573805931007d7d278dd1a98", "fusion_lat": 0.0, "name": "67833c7d573805931007d7d278dd1a98", "is_reserved": 0, "rental_uris": {"android": "https://dc.lft.to/lastmile_qr_scan", "ios": "https://dc.lft.to/lastmile_qr_scan"}, "fusion_lon": 0.0}, {"lat": 38.87234, "is_disabled": 0, "type": "electric_bike", "lon": -77.01179983333333, "bike_id": "c2c593567812f264ab4910a05e731613", "fusion_lat": 0.0, "name": "c2c593567812f264ab4910a05e731613", "is_reserved": 0, "rental_uris": {"android": "https://dc.lft.to/lastmile_qr_scan", "ios": "https://dc.lft.to/lastmile_qr_scan"}, "fusion_lon": 0.0}, {"lat": 38.861696, "is_disabled": 0, "type": "electric_bike", "lon": -77.131439, "bike_id": "2c9446d61b7c99986ae2275b1bb04580", "fusion_lat": 0.0, "name": "2c9446d61b7c99986ae2275b1bb04580", "is_reserved": 0, "rental_uris": {"android": "https://dc.lft.to/lastmile_qr_scan", "ios": "https://dc.lft.to/lastmile_qr_scan"}, "fusion_lon": 0.0}, {"lat": 38.902549666666665, "is_disabled": 0, "type": "electric_scooter", "lon": -77.02698133333334, "bike_id": "feec9e506703dcf211f6e1a79720be83", "fusion_lat": 0.0, "name": "feec9e506703dcf211f6e1a79720be83", "is_reserved": 0, "rental_uris": {"android": "https://dc.lft.to/lastmile_qr_scan", "ios": "https://dc.lft.to/lastmile_qr_scan"}, "fusion_lon": 0.0}, {"lat": 38.93702666666667, "is_disabled": 0, "type": "electric_bike", "lon": -77.02979333333333, "bike_id": "5aa75ff3a9145656acb8c520b7ca0b23", "fusion_lat": 0.0, "name": "5aa75ff3a9145656acb8c520b7ca0b23", "is_reserved": 0, "rental_uris": {"android": "https://dc.lft.to/lastmile_qr_scan", "ios": "https://dc.lft.to/lastmile_qr_scan"}, "fusion_lon": 0.0}, {"lat": 38.950961, "is_disabled": 0, "type": "electric_scooter", "lon": -77.02337566666667, "bike_id": "e473b010b27e62e3e8352b65cc5ee1c5", "fusion_lat": 0.0, "name": "e473b010b27e62e3e8352b65cc5ee1c5", "is_reserved": 0, "rental_uris": {"android": "https://dc.lft.to/lastmile_qr_scan", "ios": "https://dc.lft.to/lastmile_qr_scan"}, "fusion_lon": 0.0}, {"lat": 38.921529, "is_disabled": 0, "type": "electric_scooter", "lon": -77.03386833333333, "bike_id": "42378662f7e19378bbd85c9738a1512f", "fusion_lat": 0.0, "name": "42378662f7e19378bbd85c9738a1512f", "is_reserved": 0, "rental_uris": {"android": "https://dc.lft.to/lastmile_qr_scan", "ios": "https://dc.lft.to/lastmile_qr_scan"}, "fusion_lon": 0.0}, {"lat": 38.91014166666667, "is_disabled": 0, "type": "electric_scooter", "lon": -77.08898983333333, "bike_id": "35370c5b5f1d3a735a85c69d5cf5b2d8", "fusion_lat": 0.0, "name": "35370c5b5f1d3a735a85c69d5cf5b2d8", "is_reserved": 0, "rental_uris": {"android": "https://dc.lft.to/lastmile_qr_scan", "ios": "https://dc.lft.to/lastmile_qr_scan"}, "fusion_lon": 0.0}, {"lat": 38.90089233333333, "is_disabled": 0, "type": "electric_scooter", "lon": -77.00357833333334, "bike_id": "954c9548da76d08e4e3acc5c26d974f2", "fusion_lat": 0.0, "name": "954c9548da76d08e4e3acc5c26d974f2", "is_reserved": 0, "rental_uris": {"android": "https://dc.lft.to/lastmile_qr_scan", "ios": "https://dc.lft.to/lastmile_qr_scan"}, "fusion_lon": 0.0}, {"lat": 38.917901666666666, "is_disabled": 0, "type": "electric_bike", "lon": -76.97182833333333, "bike_id": "609cec9cc99387de260ec8418dc9cd04", "fusion_lat": 0.0, "name": "609cec9cc99387de260ec8418dc9cd04", "is_reserved": 0, "rental_uris": {"android": "https://dc.lft.to/lastmile_qr_scan", "ios": "https://dc.lft.to/lastmile_qr_scan"}, "fusion_lon": 0.0}, {"lat": 39.03435666666667, "is_disabled": 0, "type": "electric_bike", "lon": -77.043057, "bike_id": "f45971b9b9fa7ff919b9e6e709f530a3", "fusion_lat": 0.0, "name": "f45971b9b9fa7ff919b9e6e709f530a3", "is_reserved": 0, "rental_uris": {"android": "https://dc.lft.to/lastmile_qr_scan", "ios": "https://dc.lft.to/lastmile_qr_scan"}, "fusion_lon": 0.0}, {"lat": 38.900337666666665, "is_disabled": 0, "type": "electric_scooter", "lon": -76.9962225, "bike_id": "8206649f54c1e321feda313976d2e8f9", "fusion_lat": 0.0, "name": "8206649f54c1e321feda313976d2e8f9", "is_reserved": 0, "rental_uris": {"android": "https://dc.lft.to/lastmile_qr_scan", "ios": "https://dc.lft.to/lastmile_qr_scan"}, "fusion_lon": 0.0}, {"lat": 38.919065833333335, "is_disabled": 0, "type": "electric_scooter", "lon": -77.039258, "bike_id": "00879a23e42764dc7e1a2b199e7fe4a2", "fusion_lat": 0.0, "name": "00879a23e42764dc7e1a2b199e7fe4a2", "is_reserved": 0, "rental_uris": {"android": "https://dc.lft.to/lastmile_qr_scan", "ios": "https://dc.lft.to/lastmile_qr_scan"}, "fusion_lon": 0.0}, {"lat": 38.844271166666665, "is_disabled": 0, "type": "electric_scooter", "lon": -76.997785, "bike_id": "6dbd9f5895f9204bfe9c174315a66c13", "fusion_lat": 0.0, "name": "6dbd9f5895f9204bfe9c174315a66c13", "is_reserved": 0, "rental_uris": {"android": "https://dc.lft.to/lastmile_qr_scan", "ios": "https://dc.lft.to/lastmile_qr_scan"}, "fusion_lon": 0.0}, {"lat": 38.905956, "is_disabled": 0, "type": "electric_scooter", "lon": -77.04879983333333, "bike_id": "a1ebc7e96a2f099569df7dbf993e6896", "fusion_lat": 0.0, "name": "a1ebc7e96a2f099569df7dbf993e6896", "is_reserved": 0, "rental_uris": {"android": "https://dc.lft.to/lastmile_qr_scan", "ios": "https://dc.lft.to/lastmile_qr_scan"}, "fusion_lon": 0.0}, {"lat": 38.902704166666666, "is_disabled": 0, "type": "electric_scooter", "lon": -77.0337385, "bike_id": "2137dfeaaf73213cbd3329a11680b98b", "fusion_lat": 0.0, "name": "2137dfeaaf73213cbd3329a11680b98b", "is_reserved": 0, "rental_uris": {"android": "https://dc.lft.to/lastmile_qr_scan", "ios": "https://dc.lft.to/lastmile_qr_scan"}, "fusion_lon": 0.0}, {"lat": 38.91120816666667, "is_disabled": 0, "type": "electric_scooter", "lon": -77.0025375, "bike_id": "1b75322d3971363ccc2b782e01e85947", "fusion_lat": 0.0, "name": "1b75322d3971363ccc2b782e01e85947", "is_reserved": 0, "rental_uris": {"android": "https://dc.lft.to/lastmile_qr_scan", "ios": "https://dc.lft.to/lastmile_qr_scan"}, "fusion_lon": 0.0}, {"lat": 38.91547383333333, "is_disabled": 0, "type": "electric_scooter", "lon": -77.02203383333334, "bike_id": "6a4f57af23d03a2a663ba232fbbd5c01", "fusion_lat": 0.0, "name": "6a4f57af23d03a2a663ba232fbbd5c01", "is_reserved": 0, "rental_uris": {"android": "https://dc.lft.to/lastmile_qr_scan", "ios": "https://dc.lft.to/lastmile_qr_scan"}, "fusion_lon": 0.0}, {"lat": 38.934776, "is_disabled": 0, "type": "electric_scooter", "lon": -77.03604666666666, "bike_id": "f94988ad28c2efe315c4c90559c9d1bc", "fusion_lat": 0.0, "name": "f94988ad28c2efe315c4c90559c9d1bc", "is_reserved": 0, "rental_uris": {"android": "https://dc.lft.to/lastmile_qr_scan", "ios": "https://dc.lft.to/lastmile_qr_scan"}, "fusion_lon": 0.0}, {"lat": 38.929467, "is_disabled": 0, "type": "electric_scooter", "lon": -77.03285183333334, "bike_id": "f5bc6ab941982e3976a2092682892a89", "fusion_lat": 0.0, "name": "f5bc6ab941982e3976a2092682892a89", "is_reserved": 0, "rental_uris": {"android": "https://dc.lft.to/lastmile_qr_scan", "ios": "https://dc.lft.to/lastmile_qr_scan"}, "fusion_lon": 0.0}, {"lat": 38.87365333333333, "is_disabled": 0, "type": "electric_scooter", "lon": -77.00881733333334, "bike_id": "2cf37845863449d39e99c1c3adb51ef2", "fusion_lat": 0.0, "name": "2cf37845863449d39e99c1c3adb51ef2", "is_reserved": 0, "rental_uris": {"android": "https://dc.lft.to/lastmile_qr_scan", "ios": "https://dc.lft.to/lastmile_qr_scan"}, "fusion_lon": 0.0}, {"lat": 38.91113166666667, "is_disabled": 0, "type": "electric_scooter", "lon": -77.045031, "bike_id": "933b59b1157926b2896e643f665e8b40", "fusion_lat": 0.0, "name": "933b59b1157926b2896e643f665e8b40", "is_reserved": 0, "rental_uris": {"android": "https://dc.lft.to/lastmile_qr_scan", "ios": "https://dc.lft.to/lastmile_qr_scan"}, "fusion_lon": 0.0}, {"lat": 38.85187333333333, "is_disabled": 0, "type": "electric_scooter", "lon": -76.976193, "bike_id": "3d777e23839a5f629981eb74d9b6a148", "fusion_lat": 0.0, "name": "3d777e23839a5f629981eb74d9b6a148", "is_reserved": 0, "rental_uris": {"android": "https://dc.lft.to/lastmile_qr_scan", "ios": "https://dc.lft.to/lastmile_qr_scan"}, "fusion_lon": 0.0}, {"lat": 38.9733, "is_disabled": 0, "type": "electric_bike", "lon": -77.02148666666666, "bike_id": "f504a40b68edc3c30af7124dd8794ec5", "fusion_lat": 0.0, "name": "f504a40b68edc3c30af7124dd8794ec5", "is_reserved": 0, "rental_uris": {"android": "https://dc.lft.to/lastmile_qr_scan", "ios": "https://dc.lft.to/lastmile_qr_scan"}, "fusion_lon": 0.0}, {"lat": 38.91983883333333, "is_disabled": 0, "type": "electric_scooter", "lon": -77.0237925, "bike_id": "ea5404198143238a0c17fda5246f8a69", "fusion_lat": 0.0, "name": "ea5404198143238a0c17fda5246f8a69", "is_reserved": 0, "rental_uris": {"android": "https://dc.lft.to/lastmile_qr_scan", "ios": "https://dc.lft.to/lastmile_qr_scan"}, "fusion_lon": 0.0}, {"lat": 38.9097185, "is_disabled": 0, "type": "electric_scooter", "lon": -77.04024383333334, "bike_id": "dfbfd50af1b5926e8a491d73eff0024b", "fusion_lat": 0.0, "name": "dfbfd50af1b5926e8a491d73eff0024b", "is_reserved": 0, "rental_uris": {"android": "https://dc.lft.to/lastmile_qr_scan", "ios": "https://dc.lft.to/lastmile_qr_scan"}, "fusion_lon": 0.0}, {"lat": 38.916616166666664, "is_disabled": 0, "type": "electric_scooter", "lon": -76.98236566666667, "bike_id": "e7d8558394cdd49684bdc9fc48682183", "fusion_lat": 0.0, "name": "e7d8558394cdd49684bdc9fc48682183", "is_reserved": 0, "rental_uris": {"android": "https://dc.lft.to/lastmile_qr_scan", "ios": "https://dc.lft.to/lastmile_qr_scan"}, "fusion_lon": 0.0}, {"lat": 38.87389733333333, "is_disabled": 0, "type": "electric_scooter", "lon": -77.00032216666666, "bike_id": "e9d50948ed6ba37992814b863412579a", "fusion_lat": 0.0, "name": "e9d50948ed6ba37992814b863412579a", "is_reserved": 0, "rental_uris": {"android": "https://dc.lft.to/lastmile_qr_scan", "ios": "https://dc.lft.to/lastmile_qr_scan"}, "fusion_lon": 0.0}, {"lat": 38.93662483333333, "is_disabled": 0, "type": "electric_bike", "lon": -76.95215816666666, "bike_id": "3fc12c7a9f9165224eb37678f07f044b", "fusion_lat": 0.0, "name": "3fc12c7a9f9165224eb37678f07f044b", "is_reserved": 0, "rental_uris": {"android": "https://dc.lft.to/lastmile_qr_scan", "ios": "https://dc.lft.to/lastmile_qr_scan"}, "fusion_lon": 0.0}, {"lat": 38.9126105, "is_disabled": 0, "type": "electric_scooter", "lon": -77.032359, "bike_id": "b4b80a1b45aa1a76c4ff81923434fe25", "fusion_lat": 0.0, "name": "b4b80a1b45aa1a76c4ff81923434fe25", "is_reserved": 0, "rental_uris": {"android": "https://dc.lft.to/lastmile_qr_scan", "ios": "https://dc.lft.to/lastmile_qr_scan"}, "fusion_lon": 0.0}, {"lat": 38.90415733333333, "is_disabled": 0, "type": "electric_scooter", "lon": -77.0186, "bike_id": "6d46b8cd7b9aaf8bc26e4e43d51bc039", "fusion_lat": 0.0, "name": "6d46b8cd7b9aaf8bc26e4e43d51bc039", "is_reserved": 0, "rental_uris": {"android": "https://dc.lft.to/lastmile_qr_scan", "ios": "https://dc.lft.to/lastmile_qr_scan"}, "fusion_lon": 0.0}, {"lat": 38.923496, "is_disabled": 0, "type": "electric_scooter", "lon": -77.01906, "bike_id": "41e5ea23bfcfa6c78b1b9df9979e2a17", "fusion_lat": 0.0, "name": "41e5ea23bfcfa6c78b1b9df9979e2a17", "is_reserved": 0, "rental_uris": {"android": "https://dc.lft.to/lastmile_qr_scan", "ios": "https://dc.lft.to/lastmile_qr_scan"}, "fusion_lon": 0.0}, {"lat": 38.883425, "is_disabled": 0, "type": "electric_scooter", "lon": -77.03143983333334, "bike_id": "c49d24cc000acb44541a50214a4b4b40", "fusion_lat": 0.0, "name": "c49d24cc000acb44541a50214a4b4b40", "is_reserved": 0, "rental_uris": {"android": "https://dc.lft.to/lastmile_qr_scan", "ios": "https://dc.lft.to/lastmile_qr_scan"}, "fusion_lon": 0.0}, {"lat": 38.861089, "is_disabled": 0, "type": "electric_scooter", "lon": -76.98359816666667, "bike_id": "8f875bbbd80dc131f6d8a2505b0b9c07", "fusion_lat": 0.0, "name": "8f875bbbd80dc131f6d8a2505b0b9c07", "is_reserved": 0, "rental_uris": {"android": "https://dc.lft.to/lastmile_qr_scan", "ios": "https://dc.lft.to/lastmile_qr_scan"}, "fusion_lon": 0.0}, {"lat": 38.915614166666664, "is_disabled": 0, "type": "electric_scooter", "lon": -77.0383575, "bike_id": "347dfdf8cec48d6a43ffd674ec78fcb0", "fusion_lat": 0.0, "name": "347dfdf8cec48d6a43ffd674ec78fcb0", "is_reserved": 0, "rental_uris": {"android": "https://dc.lft.to/lastmile_qr_scan", "ios": "https://dc.lft.to/lastmile_qr_scan"}, "fusion_lon": 0.0}, {"lat": 38.920993, "is_disabled": 0, "type": "electric_scooter", "lon": -77.02565883333334, "bike_id": "bca5c9ffaced23d6d6795f872d061fee", "fusion_lat": 0.0, "name": "bca5c9ffaced23d6d6795f872d061fee", "is_reserved": 0, "rental_uris": {"android": "https://dc.lft.to/lastmile_qr_scan", "ios": "https://dc.lft.to/lastmile_qr_scan"}, "fusion_lon": 0.0}, {"lat": 38.897300666666666, "is_disabled": 0, "type": "electric_scooter", "lon": -77.0552735, "bike_id": "e659c92c710816a5422c7d33078038d7", "fusion_lat": 0.0, "name": "e659c92c710816a5422c7d33078038d7", "is_reserved": 0, "rental_uris": {"android": "https://dc.lft.to/lastmile_qr_scan", "ios": "https://dc.lft.to/lastmile_qr_scan"}, "fusion_lon": 0.0}, {"lat": 38.908308166666664, "is_disabled": 0, "type": "electric_scooter", "lon": -76.9969745, "bike_id": "3c601f305f71cf8dddf00941d131ec38", "fusion_lat": 0.0, "name": "3c601f305f71cf8dddf00941d131ec38", "is_reserved": 0, "rental_uris": {"android": "https://dc.lft.to/lastmile_qr_scan", "ios": "https://dc.lft.to/lastmile_qr_scan"}, "fusion_lon": 0.0}, {"lat": 38.91343583333333, "is_disabled": 0, "type": "electric_scooter", "lon": -77.00226366666666, "bike_id": "6de9a38ab90aaf6df3edcf931c52e90c", "fusion_lat": 0.0, "name": "6de9a38ab90aaf6df3edcf931c52e90c", "is_reserved": 0, "rental_uris": {"android": "https://dc.lft.to/lastmile_qr_scan", "ios": "https://dc.lft.to/lastmile_qr_scan"}, "fusion_lon": 0.0}, {"lat": 38.898163833333335, "is_disabled": 0, "type": "electric_scooter", "lon": -77.03003883333334, "bike_id": "f9c1edac7f35b9340a943163fabeb0a5", "fusion_lat": 0.0, "name": "f9c1edac7f35b9340a943163fabeb0a5", "is_reserved": 0, "rental_uris": {"android": "https://dc.lft.to/lastmile_qr_scan", "ios": "https://dc.lft.to/lastmile_qr_scan"}, "fusion_lon": 0.0}, {"lat": 38.900867833333336, "is_disabled": 0, "type": "electric_scooter", "lon": -77.0499115, "bike_id": "c295832e1527a606289808f905db8c29", "fusion_lat": 0.0, "name": "c295832e1527a606289808f905db8c29", "is_reserved": 0, "rental_uris": {"android": "https://dc.lft.to/lastmile_qr_scan", "ios": "https://dc.lft.to/lastmile_qr_scan"}, "fusion_lon": 0.0}, {"lat": 38.923915666666666, "is_disabled": 0, "type": "electric_scooter", "lon": -77.00065783333334, "bike_id": "59b804728b43fd612c4c15eafd74f998", "fusion_lat": 0.0, "name": "59b804728b43fd612c4c15eafd74f998", "is_reserved": 0, "rental_uris": {"android": "https://dc.lft.to/lastmile_qr_scan", "ios": "https://dc.lft.to/lastmile_qr_scan"}, "fusion_lon": 0.0}, {"lat": 38.910155, "is_disabled": 0, "type": "electric_scooter", "lon": -76.99388533333334, "bike_id": "2b4dd4d6c6721f7018aede263f2c3780", "fusion_lat": 0.0, "name": "2b4dd4d6c6721f7018aede263f2c3780", "is_reserved": 0, "rental_uris": {"android": "https://dc.lft.to/lastmile_qr_scan", "ios": "https://dc.lft.to/lastmile_qr_scan"}, "fusion_lon": 0.0}, {"lat": 38.918259666666664, "is_disabled": 0, "type": "electric_scooter", "lon": -77.034459, "bike_id": "58ef514d3ea445c03db2141807928893", "fusion_lat": 0.0, "name": "58ef514d3ea445c03db2141807928893", "is_reserved": 0, "rental_uris": {"android": "https://dc.lft.to/lastmile_qr_scan", "ios": "https://dc.lft.to/lastmile_qr_scan"}, "fusion_lon": 0.0}, {"lat": 38.904188, "is_disabled": 0, "type": "electric_scooter", "lon": -77.02507033333333, "bike_id": "5a2bd12f3bc05f7c2d652c3f0e50febd", "fusion_lat": 0.0, "name": "5a2bd12f3bc05f7c2d652c3f0e50febd", "is_reserved": 0, "rental_uris": {"android": "https://dc.lft.to/lastmile_qr_scan", "ios": "https://dc.lft.to/lastmile_qr_scan"}, "fusion_lon": 0.0}, {"lat": 38.90321216666667, "is_disabled": 0, "type": "electric_scooter", "lon": -77.0207755, "bike_id": "23c1e1434f5d7a53fac7501fe33fa1b6", "fusion_lat": 0.0, "name": "23c1e1434f5d7a53fac7501fe33fa1b6", "is_reserved": 0, "rental_uris": {"android": "https://dc.lft.to/lastmile_qr_scan", "ios": "https://dc.lft.to/lastmile_qr_scan"}, "fusion_lon": 0.0}, {"lat": 38.907731, "is_disabled": 0, "type": "electric_scooter", "lon": -77.00388066666666, "bike_id": "04dd35294ae2ed25b74f3557ab8c932f", "fusion_lat": 0.0, "name": "04dd35294ae2ed25b74f3557ab8c932f", "is_reserved": 0, "rental_uris": {"android": "https://dc.lft.to/lastmile_qr_scan", "ios": "https://dc.lft.to/lastmile_qr_scan"}, "fusion_lon": 0.0}, {"lat": 38.90389366666667, "is_disabled": 0, "type": "electric_scooter", "lon": -77.04458516666666, "bike_id": "8e116b138aebe6105b3fdeefee400c0c", "fusion_lat": 0.0, "name": "8e116b138aebe6105b3fdeefee400c0c", "is_reserved": 0, "rental_uris": {"android": "https://dc.lft.to/lastmile_qr_scan", "ios": "https://dc.lft.to/lastmile_qr_scan"}, "fusion_lon": 0.0}, {"lat": 38.887572, "is_disabled": 0, "type": "electric_scooter", "lon": -77.02845416666666, "bike_id": "cc4d7f506d94478a6fb67b9bb80e758a", "fusion_lat": 0.0, "name": "cc4d7f506d94478a6fb67b9bb80e758a", "is_reserved": 0, "rental_uris": {"android": "https://dc.lft.to/lastmile_qr_scan", "ios": "https://dc.lft.to/lastmile_qr_scan"}, "fusion_lon": 0.0}, {"lat": 38.898180833333335, "is_disabled": 0, "type": "electric_scooter", "lon": -77.03000616666667, "bike_id": "3a97a91d2e29c413d501dd2fc2bd687b", "fusion_lat": 0.0, "name": "3a97a91d2e29c413d501dd2fc2bd687b", "is_reserved": 0, "rental_uris": {"android": "https://dc.lft.to/lastmile_qr_scan", "ios": "https://dc.lft.to/lastmile_qr_scan"}, "fusion_lon": 0.0}, {"lat": 39.034084166666666, "is_disabled": 0, "type": "electric_bike", "lon": -77.04227683333333, "bike_id": "1617a4c7260e2cf98c76394d7426b1ef", "fusion_lat": 0.0, "name": "1617a4c7260e2cf98c76394d7426b1ef", "is_reserved": 0, "rental_uris": {"android": "https://dc.lft.to/lastmile_qr_scan", "ios": "https://dc.lft.to/lastmile_qr_scan"}, "fusion_lon": 0.0}, {"lat": 38.917111, "is_disabled": 0, "type": "electric_scooter", "lon": -77.03497783333333, "bike_id": "45ef07653bb0904c6f172a87a2ab6e76", "fusion_lat": 0.0, "name": "45ef07653bb0904c6f172a87a2ab6e76", "is_reserved": 0, "rental_uris": {"android": "https://dc.lft.to/lastmile_qr_scan", "ios": "https://dc.lft.to/lastmile_qr_scan"}, "fusion_lon": 0.0}, {"lat": 38.89332266666667, "is_disabled": 0, "type": "electric_scooter", "lon": -76.92988066666666, "bike_id": "293baad65bc28286f550298d60147864", "fusion_lat": 0.0, "name": "293baad65bc28286f550298d60147864", "is_reserved": 0, "rental_uris": {"android": "https://dc.lft.to/lastmile_qr_scan", "ios": "https://dc.lft.to/lastmile_qr_scan"}, "fusion_lon": 0.0}, {"lat": 38.89858683333333, "is_disabled": 0, "type": "electric_scooter", "lon": -77.043487, "bike_id": "892bf02e55d12a6eed7a0f77b0612016", "fusion_lat": 0.0, "name": "892bf02e55d12a6eed7a0f77b0612016", "is_reserved": 0, "rental_uris": {"android": "https://dc.lft.to/lastmile_qr_scan", "ios": "https://dc.lft.to/lastmile_qr_scan"}, "fusion_lon": 0.0}, {"lat": 38.8963205, "is_disabled": 0, "type": "electric_scooter", "lon": -76.9985865, "bike_id": "46a5d9e920e1160127ead5f19754dfcf", "fusion_lat": 0.0, "name": "46a5d9e920e1160127ead5f19754dfcf", "is_reserved": 0, "rental_uris": {"android": "https://dc.lft.to/lastmile_qr_scan", "ios": "https://dc.lft.to/lastmile_qr_scan"}, "fusion_lon": 0.0}, {"lat": 38.87632583333333, "is_disabled": 0, "type": "electric_scooter", "lon": -76.96525183333333, "bike_id": "f751a1c797627b69c697fef6645c19f2", "fusion_lat": 0.0, "name": "f751a1c797627b69c697fef6645c19f2", "is_reserved": 0, "rental_uris": {"android": "https://dc.lft.to/lastmile_qr_scan", "ios": "https://dc.lft.to/lastmile_qr_scan"}, "fusion_lon": 0.0}, {"lat": 38.9010475, "is_disabled": 0, "type": "electric_scooter", "lon": -77.013736, "bike_id": "b93a4022c61f56055f12358fcb8ca8d4", "fusion_lat": 0.0, "name": "b93a4022c61f56055f12358fcb8ca8d4", "is_reserved": 0, "rental_uris": {"android": "https://dc.lft.to/lastmile_qr_scan", "ios": "https://dc.lft.to/lastmile_qr_scan"}, "fusion_lon": 0.0}, {"lat": 38.90636416666667, "is_disabled": 0, "type": "electric_scooter", "lon": -77.04153916666667, "bike_id": "5c84fddf280941b67e39e540778a3cfe", "fusion_lat": 0.0, "name": "5c84fddf280941b67e39e540778a3cfe", "is_reserved": 0, "rental_uris": {"android": "https://dc.lft.to/lastmile_qr_scan", "ios": "https://dc.lft.to/lastmile_qr_scan"}, "fusion_lon": 0.0}, {"lat": 38.914243, "is_disabled": 0, "type": "electric_scooter", "lon": -77.03174883333334, "bike_id": "f76b075a966ccde92ab015f8dc9d0387", "fusion_lat": 0.0, "name": "f76b075a966ccde92ab015f8dc9d0387", "is_reserved": 0, "rental_uris": {"android": "https://dc.lft.to/lastmile_qr_scan", "ios": "https://dc.lft.to/lastmile_qr_scan"}, "fusion_lon": 0.0}, {"lat": 38.905258333333336, "is_disabled": 0, "type": "electric_scooter", "lon": -77.04483533333334, "bike_id": "ab56b0e2b8652a246bf7165b25eb179c", "fusion_lat": 0.0, "name": "ab56b0e2b8652a246bf7165b25eb179c", "is_reserved": 0, "rental_uris": {"android": "https://dc.lft.to/lastmile_qr_scan", "ios": "https://dc.lft.to/lastmile_qr_scan"}, "fusion_lon": 0.0}, {"lat": 38.9170585, "is_disabled": 0, "type": "electric_scooter", "lon": -77.0402985, "bike_id": "7dc087e0bb66d78a9785440b94564690", "fusion_lat": 0.0, "name": "7dc087e0bb66d78a9785440b94564690", "is_reserved": 0, "rental_uris": {"android": "https://dc.lft.to/lastmile_qr_scan", "ios": "https://dc.lft.to/lastmile_qr_scan"}, "fusion_lon": 0.0}, {"lat": 38.9261775, "is_disabled": 0, "type": "electric_scooter", "lon": -77.02163166666666, "bike_id": "f0116c7f583228a88199b295147a7d9e", "fusion_lat": 0.0, "name": "f0116c7f583228a88199b295147a7d9e", "is_reserved": 0, "rental_uris": {"android": "https://dc.lft.to/lastmile_qr_scan", "ios": "https://dc.lft.to/lastmile_qr_scan"}, "fusion_lon": 0.0}, {"lat": 38.9360205, "is_disabled": 0, "type": "electric_scooter", "lon": -77.05634733333333, "bike_id": "6c4426f276ca9dc8d0cfcdbd30406b3d", "fusion_lat": 0.0, "name": "6c4426f276ca9dc8d0cfcdbd30406b3d", "is_reserved": 0, "rental_uris": {"android": "https://dc.lft.to/lastmile_qr_scan", "ios": "https://dc.lft.to/lastmile_qr_scan"}, "fusion_lon": 0.0}, {"lat": 38.917336166666665, "is_disabled": 0, "type": "electric_scooter", "lon": -77.04175733333334, "bike_id": "ce934b0e76fff6567b3cf0df543fe200", "fusion_lat": 0.0, "name": "ce934b0e76fff6567b3cf0df543fe200", "is_reserved": 0, "rental_uris": {"android": "https://dc.lft.to/lastmile_qr_scan", "ios": "https://dc.lft.to/lastmile_qr_scan"}, "fusion_lon": 0.0}, {"lat": 38.929383, "is_disabled": 0, "type": "electric_scooter", "lon": -77.02004216666667, "bike_id": "2d2cf4034fca592d7d70a050f19da158", "fusion_lat": 0.0, "name": "2d2cf4034fca592d7d70a050f19da158", "is_reserved": 0, "rental_uris": {"android": "https://dc.lft.to/lastmile_qr_scan", "ios": "https://dc.lft.to/lastmile_qr_scan"}, "fusion_lon": 0.0}, {"lat": 38.91177066666667, "is_disabled": 0, "type": "electric_scooter", "lon": -77.038546, "bike_id": "6a45c8a50f04b1f0fd93d530bcc77491", "fusion_lat": 0.0, "name": "6a45c8a50f04b1f0fd93d530bcc77491", "is_reserved": 0, "rental_uris": {"android": "https://dc.lft.to/lastmile_qr_scan", "ios": "https://dc.lft.to/lastmile_qr_scan"}, "fusion_lon": 0.0}, {"lat": 38.88271983333333, "is_disabled": 0, "type": "electric_scooter", "lon": -76.988295, "bike_id": "4b7f0177fde9f064686d0040ad7c11ef", "fusion_lat": 0.0, "name": "4b7f0177fde9f064686d0040ad7c11ef", "is_reserved": 0, "rental_uris": {"android": "https://dc.lft.to/lastmile_qr_scan", "ios": "https://dc.lft.to/lastmile_qr_scan"}, "fusion_lon": 0.0}, {"lat": 38.91913983333333, "is_disabled": 0, "type": "electric_scooter", "lon": -77.03185, "bike_id": "a4afd569740216912f48dc55804ad363", "fusion_lat": 0.0, "name": "a4afd569740216912f48dc55804ad363", "is_reserved": 0, "rental_uris": {"android": "https://dc.lft.to/lastmile_qr_scan", "ios": "https://dc.lft.to/lastmile_qr_scan"}, "fusion_lon": 0.0}, {"lat": 38.910642333333335, "is_disabled": 0, "type": "electric_scooter", "lon": -77.02925666666667, "bike_id": "b420a51ee9dd0450ad36b03f11a22f13", "fusion_lat": 0.0, "name": "b420a51ee9dd0450ad36b03f11a22f13", "is_reserved": 0, "rental_uris": {"android": "https://dc.lft.to/lastmile_qr_scan", "ios": "https://dc.lft.to/lastmile_qr_scan"}, "fusion_lon": 0.0}, {"lat": 38.929805333333334, "is_disabled": 0, "type": "electric_scooter", "lon": -77.038304, "bike_id": "643172a73613d9c19059359f4ca42d5a", "fusion_lat": 0.0, "name": "643172a73613d9c19059359f4ca42d5a", "is_reserved": 0, "rental_uris": {"android": "https://dc.lft.to/lastmile_qr_scan", "ios": "https://dc.lft.to/lastmile_qr_scan"}, "fusion_lon": 0.0}, {"lat": 38.894970666666666, "is_disabled": 0, "type": "electric_scooter", "lon": -77.0021355, "bike_id": "d3ab1387cbf97e6f56e7e7674ed392e9", "fusion_lat": 0.0, "name": "d3ab1387cbf97e6f56e7e7674ed392e9", "is_reserved": 0, "rental_uris": {"android": "https://dc.lft.to/lastmile_qr_scan", "ios": "https://dc.lft.to/lastmile_qr_scan"}, "fusion_lon": 0.0}, {"lat": 38.88412066666667, "is_disabled": 0, "type": "electric_scooter", "lon": -77.025072, "bike_id": "e5a9541828325c4c97d052d7e4613136", "fusion_lat": 0.0, "name": "e5a9541828325c4c97d052d7e4613136", "is_reserved": 0, "rental_uris": {"android": "https://dc.lft.to/lastmile_qr_scan", "ios": "https://dc.lft.to/lastmile_qr_scan"}, "fusion_lon": 0.0}, {"lat": 38.9036095, "is_disabled": 0, "type": "electric_scooter", "lon": -77.04117633333334, "bike_id": "fbf04d8a9d0db338c1478ae02452ea43", "fusion_lat": 0.0, "name": "fbf04d8a9d0db338c1478ae02452ea43", "is_reserved": 0, "rental_uris": {"android": "https://dc.lft.to/lastmile_qr_scan", "ios": "https://dc.lft.to/lastmile_qr_scan"}, "fusion_lon": 0.0}, {"lat": 38.876757, "is_disabled": 0, "type": "electric_scooter", "lon": -77.017912, "bike_id": "bb4060628edab61cbcd5b1950c8f55ad", "fusion_lat": 0.0, "name": "bb4060628edab61cbcd5b1950c8f55ad", "is_reserved": 0, "rental_uris": {"android": "https://dc.lft.to/lastmile_qr_scan", "ios": "https://dc.lft.to/lastmile_qr_scan"}, "fusion_lon": 0.0}, {"lat": 38.90377766666667, "is_disabled": 0, "type": "electric_scooter", "lon": -77.04834516666666, "bike_id": "bbd576d3c85cc436d37f91c03667dccb", "fusion_lat": 0.0, "name": "bbd576d3c85cc436d37f91c03667dccb", "is_reserved": 0, "rental_uris": {"android": "https://dc.lft.to/lastmile_qr_scan", "ios": "https://dc.lft.to/lastmile_qr_scan"}, "fusion_lon": 0.0}, {"lat": 38.910547, "is_disabled": 0, "type": "electric_scooter", "lon": -77.01527966666667, "bike_id": "28b5690a8aa2483f53eb728403bc7467", "fusion_lat": 0.0, "name": "28b5690a8aa2483f53eb728403bc7467", "is_reserved": 0, "rental_uris": {"android": "https://dc.lft.to/lastmile_qr_scan", "ios": "https://dc.lft.to/lastmile_qr_scan"}, "fusion_lon": 0.0}, {"lat": 38.907845, "is_disabled": 0, "type": "electric_scooter", "lon": -77.004005, "bike_id": "8b99663b4f90448394743d47a694a316", "fusion_lat": 0.0, "name": "8b99663b4f90448394743d47a694a316", "is_reserved": 0, "rental_uris": {"android": "https://dc.lft.to/lastmile_qr_scan", "ios": "https://dc.lft.to/lastmile_qr_scan"}, "fusion_lon": 0.0}, {"lat": 38.926373166666664, "is_disabled": 0, "type": "electric_scooter", "lon": -77.03794816666667, "bike_id": "990c6e7377613d8a4521491b730b23d0", "fusion_lat": 0.0, "name": "990c6e7377613d8a4521491b730b23d0", "is_reserved": 0, "rental_uris": {"android": "https://dc.lft.to/lastmile_qr_scan", "ios": "https://dc.lft.to/lastmile_qr_scan"}, "fusion_lon": 0.0}, {"lat": 38.87733433333333, "is_disabled": 0, "type": "electric_bike", "lon": -76.9810835, "bike_id": "d7f61f45d66921642e4fc2d16cb12443", "fusion_lat": 0.0, "name": "d7f61f45d66921642e4fc2d16cb12443", "is_reserved": 0, "rental_uris": {"android": "https://dc.lft.to/lastmile_qr_scan", "ios": "https://dc.lft.to/lastmile_qr_scan"}, "fusion_lon": 0.0}, {"lat": 38.892743, "is_disabled": 0, "type": "electric_scooter", "lon": -77.02619966666667, "bike_id": "a9fae655d1a7243bf66b5e8598934818", "fusion_lat": 0.0, "name": "a9fae655d1a7243bf66b5e8598934818", "is_reserved": 0, "rental_uris": {"android": "https://dc.lft.to/lastmile_qr_scan", "ios": "https://dc.lft.to/lastmile_qr_scan"}, "fusion_lon": 0.0}, {"lat": 38.915647166666666, "is_disabled": 0, "type": "electric_scooter", "lon": -77.03318466666667, "bike_id": "05e30ed13fbc35542e00f267b1c876bd", "fusion_lat": 0.0, "name": "05e30ed13fbc35542e00f267b1c876bd", "is_reserved": 0, "rental_uris": {"android": "https://dc.lft.to/lastmile_qr_scan", "ios": "https://dc.lft.to/lastmile_qr_scan"}, "fusion_lon": 0.0}, {"lat": 38.874778666666664, "is_disabled": 0, "type": "electric_scooter", "lon": -77.0106855, "bike_id": "c3386338b240962a8419bda21a531e13", "fusion_lat": 0.0, "name": "c3386338b240962a8419bda21a531e13", "is_reserved": 0, "rental_uris": {"android": "https://dc.lft.to/lastmile_qr_scan", "ios": "https://dc.lft.to/lastmile_qr_scan"}, "fusion_lon": 0.0}, {"lat": 38.8995215, "is_disabled": 0, "type": "electric_scooter", "lon": -77.051659, "bike_id": "6dacedb759e9c28315ec5e683c4c4595", "fusion_lat": 0.0, "name": "6dacedb759e9c28315ec5e683c4c4595", "is_reserved": 0, "rental_uris": {"android": "https://dc.lft.to/lastmile_qr_scan", "ios": "https://dc.lft.to/lastmile_qr_scan"}, "fusion_lon": 0.0}, {"lat": 38.9245915, "is_disabled": 0, "type": "electric_scooter", "lon": -77.04208483333333, "bike_id": "6b1a5f68322e72141bad76de2e46b080", "fusion_lat": 0.0, "name": "6b1a5f68322e72141bad76de2e46b080", "is_reserved": 0, "rental_uris": {"android": "https://dc.lft.to/lastmile_qr_scan", "ios": "https://dc.lft.to/lastmile_qr_scan"}, "fusion_lon": 0.0}, {"lat": 38.902700333333335, "is_disabled": 0, "type": "electric_scooter", "lon": -77.0282635, "bike_id": "94256907542f70141425d2b724d1b832", "fusion_lat": 0.0, "name": "94256907542f70141425d2b724d1b832", "is_reserved": 0, "rental_uris": {"android": "https://dc.lft.to/lastmile_qr_scan", "ios": "https://dc.lft.to/lastmile_qr_scan"}, "fusion_lon": 0.0}, {"lat": 38.892252666666664, "is_disabled": 0, "type": "electric_scooter", "lon": -77.0265285, "bike_id": "f1fb59f655029e07a4f3f6cb8cdc40c5", "fusion_lat": 0.0, "name": "f1fb59f655029e07a4f3f6cb8cdc40c5", "is_reserved": 0, "rental_uris": {"android": "https://dc.lft.to/lastmile_qr_scan", "ios": "https://dc.lft.to/lastmile_qr_scan"}, "fusion_lon": 0.0}, {"lat": 38.917032, "is_disabled": 0, "type": "electric_scooter", "lon": -77.03090833333333, "bike_id": "cd756ad910997ad5f6e9cd1a9b6a8d47", "fusion_lat": 0.0, "name": "cd756ad910997ad5f6e9cd1a9b6a8d47", "is_reserved": 0, "rental_uris": {"android": "https://dc.lft.to/lastmile_qr_scan", "ios": "https://dc.lft.to/lastmile_qr_scan"}, "fusion_lon": 0.0}, {"lat": 38.83675616666667, "is_disabled": 0, "type": "electric_scooter", "lon": -77.0057005, "bike_id": "a0645d9180833728a9a288de263cd8ed", "fusion_lat": 0.0, "name": "a0645d9180833728a9a288de263cd8ed", "is_reserved": 0, "rental_uris": {"android": "https://dc.lft.to/lastmile_qr_scan", "ios": "https://dc.lft.to/lastmile_qr_scan"}, "fusion_lon": 0.0}, {"lat": 38.919154, "is_disabled": 0, "type": "electric_scooter", "lon": -77.0134105, "bike_id": "dbc19056389ed9e0c7913dc27c32ca88", "fusion_lat": 0.0, "name": "dbc19056389ed9e0c7913dc27c32ca88", "is_reserved": 0, "rental_uris": {"android": "https://dc.lft.to/lastmile_qr_scan", "ios": "https://dc.lft.to/lastmile_qr_scan"}, "fusion_lon": 0.0}, {"lat": 38.90607333333333, "is_disabled": 0, "type": "electric_scooter", "lon": -77.062952, "bike_id": "4304580bd0f24efee50b968557ed2400", "fusion_lat": 0.0, "name": "4304580bd0f24efee50b968557ed2400", "is_reserved": 0, "rental_uris": {"android": "https://dc.lft.to/lastmile_qr_scan", "ios": "https://dc.lft.to/lastmile_qr_scan"}, "fusion_lon": 0.0}, {"lat": 38.93497716666667, "is_disabled": 0, "type": "electric_scooter", "lon": -77.05802766666666, "bike_id": "2a4a703ec2c2384831fed9c60893397b", "fusion_lat": 0.0, "name": "2a4a703ec2c2384831fed9c60893397b", "is_reserved": 0, "rental_uris": {"android": "https://dc.lft.to/lastmile_qr_scan", "ios": "https://dc.lft.to/lastmile_qr_scan"}, "fusion_lon": 0.0}, {"lat": 38.87013866666667, "is_disabled": 0, "type": "electric_bike", "lon": -76.9602475, "bike_id": "2fc354dee6bb305cf8a0c4d29d83f518", "fusion_lat": 0.0, "name": "2fc354dee6bb305cf8a0c4d29d83f518", "is_reserved": 0, "rental_uris": {"android": "https://dc.lft.to/lastmile_qr_scan", "ios": "https://dc.lft.to/lastmile_qr_scan"}, "fusion_lon": 0.0}, {"lat": 38.908692, "is_disabled": 0, "type": "electric_scooter", "lon": -77.045907, "bike_id": "640351570022b0dd4cd759a622606349", "fusion_lat": 0.0, "name": "640351570022b0dd4cd759a622606349", "is_reserved": 0, "rental_uris": {"android": "https://dc.lft.to/lastmile_qr_scan", "ios": "https://dc.lft.to/lastmile_qr_scan"}, "fusion_lon": 0.0}, {"lat": 38.9303565, "is_disabled": 0, "type": "electric_scooter", "lon": -77.03630766666667, "bike_id": "971c476d64fe911620840000417e51dc", "fusion_lat": 0.0, "name": "971c476d64fe911620840000417e51dc", "is_reserved": 0, "rental_uris": {"android": "https://dc.lft.to/lastmile_qr_scan", "ios": "https://dc.lft.to/lastmile_qr_scan"}, "fusion_lon": 0.0}, {"lat": 38.885682833333334, "is_disabled": 0, "type": "electric_scooter", "lon": -77.02005533333333, "bike_id": "67827efd99f42563ae52520839fa2f27", "fusion_lat": 0.0, "name": "67827efd99f42563ae52520839fa2f27", "is_reserved": 0, "rental_uris": {"android": "https://dc.lft.to/lastmile_qr_scan", "ios": "https://dc.lft.to/lastmile_qr_scan"}, "fusion_lon": 0.0}, {"lat": 38.9334925, "is_disabled": 0, "type": "electric_scooter", "lon": -77.05705733333333, "bike_id": "1fc768f78b41ee7f0e91c63255c4ff42", "fusion_lat": 0.0, "name": "1fc768f78b41ee7f0e91c63255c4ff42", "is_reserved": 0, "rental_uris": {"android": "https://dc.lft.to/lastmile_qr_scan", "ios": "https://dc.lft.to/lastmile_qr_scan"}, "fusion_lon": 0.0}, {"lat": 38.901290333333336, "is_disabled": 0, "type": "electric_scooter", "lon": -77.03981683333333, "bike_id": "7791ce17435823ba18e33b6a44118576", "fusion_lat": 0.0, "name": "7791ce17435823ba18e33b6a44118576", "is_reserved": 0, "rental_uris": {"android": "https://dc.lft.to/lastmile_qr_scan", "ios": "https://dc.lft.to/lastmile_qr_scan"}, "fusion_lon": 0.0}, {"lat": 38.89521466666667, "is_disabled": 0, "type": "electric_scooter", "lon": -76.977315, "bike_id": "0ec81fcf8f291a8e5519f0d665ed161f", "fusion_lat": 0.0, "name": "0ec81fcf8f291a8e5519f0d665ed161f", "is_reserved": 0, "rental_uris": {"android": "https://dc.lft.to/lastmile_qr_scan", "ios": "https://dc.lft.to/lastmile_qr_scan"}, "fusion_lon": 0.0}, {"lat": 38.89220916666667, "is_disabled": 0, "type": "electric_scooter", "lon": -77.021631, "bike_id": "d806e1d3dcb993c5e2ed6777f88b5beb", "fusion_lat": 0.0, "name": "d806e1d3dcb993c5e2ed6777f88b5beb", "is_reserved": 0, "rental_uris": {"android": "https://dc.lft.to/lastmile_qr_scan", "ios": "https://dc.lft.to/lastmile_qr_scan"}, "fusion_lon": 0.0}, {"lat": 38.917737, "is_disabled": 0, "type": "electric_scooter", "lon": -77.0145345, "bike_id": "de60b804016d053acab46b4f2c0d17ca", "fusion_lat": 0.0, "name": "de60b804016d053acab46b4f2c0d17ca", "is_reserved": 0, "rental_uris": {"android": "https://dc.lft.to/lastmile_qr_scan", "ios": "https://dc.lft.to/lastmile_qr_scan"}, "fusion_lon": 0.0}, {"lat": 38.912997833333336, "is_disabled": 0, "type": "electric_scooter", "lon": -77.04516033333333, "bike_id": "35b2cc83a6787be620cf65641bd50246", "fusion_lat": 0.0, "name": "35b2cc83a6787be620cf65641bd50246", "is_reserved": 0, "rental_uris": {"android": "https://dc.lft.to/lastmile_qr_scan", "ios": "https://dc.lft.to/lastmile_qr_scan"}, "fusion_lon": 0.0}, {"lat": 38.900494, "is_disabled": 0, "type": "electric_scooter", "lon": -77.02909016666666, "bike_id": "ca1c32d1a4c3e1e64e0da719a7d30759", "fusion_lat": 0.0, "name": "ca1c32d1a4c3e1e64e0da719a7d30759", "is_reserved": 0, "rental_uris": {"android": "https://dc.lft.to/lastmile_qr_scan", "ios": "https://dc.lft.to/lastmile_qr_scan"}, "fusion_lon": 0.0}, {"lat": 38.9229025, "is_disabled": 0, "type": "electric_scooter", "lon": -77.02248383333334, "bike_id": "a91debc1dc38308b662e89c2caebf2ff", "fusion_lat": 0.0, "name": "a91debc1dc38308b662e89c2caebf2ff", "is_reserved": 0, "rental_uris": {"android": "https://dc.lft.to/lastmile_qr_scan", "ios": "https://dc.lft.to/lastmile_qr_scan"}, "fusion_lon": 0.0}, {"lat": 38.954922333333336, "is_disabled": 0, "type": "electric_scooter", "lon": -77.06564516666667, "bike_id": "96124579bbd4414b0dec93c0c7a7098c", "fusion_lat": 0.0, "name": "96124579bbd4414b0dec93c0c7a7098c", "is_reserved": 0, "rental_uris": {"android": "https://dc.lft.to/lastmile_qr_scan", "ios": "https://dc.lft.to/lastmile_qr_scan"}, "fusion_lon": 0.0}, {"lat": 38.9111815, "is_disabled": 0, "type": "electric_scooter", "lon": -77.02178366666666, "bike_id": "61f69c3ae581ef018cc99695aa18ca57", "fusion_lat": 0.0, "name": "61f69c3ae581ef018cc99695aa18ca57", "is_reserved": 0, "rental_uris": {"android": "https://dc.lft.to/lastmile_qr_scan", "ios": "https://dc.lft.to/lastmile_qr_scan"}, "fusion_lon": 0.0}, {"lat": 38.921231666666664, "is_disabled": 0, "type": "electric_scooter", "lon": -77.0366095, "bike_id": "59a4352c27a3ff17fd20da46602adcd9", "fusion_lat": 0.0, "name": "59a4352c27a3ff17fd20da46602adcd9", "is_reserved": 0, "rental_uris": {"android": "https://dc.lft.to/lastmile_qr_scan", "ios": "https://dc.lft.to/lastmile_qr_scan"}, "fusion_lon": 0.0}, {"lat": 38.90337783333333, "is_disabled": 0, "type": "electric_scooter", "lon": -77.02095416666667, "bike_id": "b77fcc28fbef02c9c25a0e9e95ce4ef7", "fusion_lat": 0.0, "name": "b77fcc28fbef02c9c25a0e9e95ce4ef7", "is_reserved": 0, "rental_uris": {"android": "https://dc.lft.to/lastmile_qr_scan", "ios": "https://dc.lft.to/lastmile_qr_scan"}, "fusion_lon": 0.0}, {"lat": 38.925903166666664, "is_disabled": 0, "type": "electric_scooter", "lon": -77.05762383333334, "bike_id": "e06192644241f33261b91bb28ceda4cc", "fusion_lat": 0.0, "name": "e06192644241f33261b91bb28ceda4cc", "is_reserved": 0, "rental_uris": {"android": "https://dc.lft.to/lastmile_qr_scan", "ios": "https://dc.lft.to/lastmile_qr_scan"}, "fusion_lon": 0.0}, {"lat": 38.912186, "is_disabled": 0, "type": "electric_scooter", "lon": -77.04144633333334, "bike_id": "09ed95652974bff7ab414aaa187045fc", "fusion_lat": 0.0, "name": "09ed95652974bff7ab414aaa187045fc", "is_reserved": 0, "rental_uris": {"android": "https://dc.lft.to/lastmile_qr_scan", "ios": "https://dc.lft.to/lastmile_qr_scan"}, "fusion_lon": 0.0}, {"lat": 38.92902733333333, "is_disabled": 0, "type": "electric_scooter", "lon": -77.07448966666666, "bike_id": "6bc543b5ff4b677f0d37e364f25f55cd", "fusion_lat": 0.0, "name": "6bc543b5ff4b677f0d37e364f25f55cd", "is_reserved": 0, "rental_uris": {"android": "https://dc.lft.to/lastmile_qr_scan", "ios": "https://dc.lft.to/lastmile_qr_scan"}, "fusion_lon": 0.0}, {"lat": 38.923450833333334, "is_disabled": 0, "type": "electric_scooter", "lon": -77.0412705, "bike_id": "05affa08b9a4fe08140cd4ad2ac8dbfc", "fusion_lat": 0.0, "name": "05affa08b9a4fe08140cd4ad2ac8dbfc", "is_reserved": 0, "rental_uris": {"android": "https://dc.lft.to/lastmile_qr_scan", "ios": "https://dc.lft.to/lastmile_qr_scan"}, "fusion_lon": 0.0}, {"lat": 38.9247095, "is_disabled": 0, "type": "electric_scooter", "lon": -77.0397135, "bike_id": "37fb42a26e0d2c394920bb8da89d034b", "fusion_lat": 0.0, "name": "37fb42a26e0d2c394920bb8da89d034b", "is_reserved": 0, "rental_uris": {"android": "https://dc.lft.to/lastmile_qr_scan", "ios": "https://dc.lft.to/lastmile_qr_scan"}, "fusion_lon": 0.0}, {"lat": 38.998204666666666, "is_disabled": 0, "type": "electric_bike", "lon": -76.88376833333334, "bike_id": "bc03b0b5f54c1acf3011b644bf235aed", "fusion_lat": 0.0, "name": "bc03b0b5f54c1acf3011b644bf235aed", "is_reserved": 0, "rental_uris": {"android": "https://dc.lft.to/lastmile_qr_scan", "ios": "https://dc.lft.to/lastmile_qr_scan"}, "fusion_lon": 0.0}, {"lat": 38.90279433333333, "is_disabled": 0, "type": "electric_scooter", "lon": -77.034443, "bike_id": "2c2953dd3632427f027386aa314c771d", "fusion_lat": 0.0, "name": "2c2953dd3632427f027386aa314c771d", "is_reserved": 0, "rental_uris": {"android": "https://dc.lft.to/lastmile_qr_scan", "ios": "https://dc.lft.to/lastmile_qr_scan"}, "fusion_lon": 0.0}, {"lat": 38.94524216666667, "is_disabled": 0, "type": "electric_scooter", "lon": -77.0639835, "bike_id": "b41be171782ca43a7f0fd02f1c1dba66", "fusion_lat": 0.0, "name": "b41be171782ca43a7f0fd02f1c1dba66", "is_reserved": 0, "rental_uris": {"android": "https://dc.lft.to/lastmile_qr_scan", "ios": "https://dc.lft.to/lastmile_qr_scan"}, "fusion_lon": 0.0}, {"lat": 38.8858685, "is_disabled": 0, "type": "electric_scooter", "lon": -77.01230266666667, "bike_id": "52c23fb21b98bbcc550fcfa5699d65c7", "fusion_lat": 0.0, "name": "52c23fb21b98bbcc550fcfa5699d65c7", "is_reserved": 0, "rental_uris": {"android": "https://dc.lft.to/lastmile_qr_scan", "ios": "https://dc.lft.to/lastmile_qr_scan"}, "fusion_lon": 0.0}, {"lat": 39.024296166666666, "is_disabled": 0, "type": "electric_bike", "lon": -77.1310725, "bike_id": "e9e440b36d857cc778020816a5843a4a", "fusion_lat": 0.0, "name": "e9e440b36d857cc778020816a5843a4a", "is_reserved": 0, "rental_uris": {"android": "https://dc.lft.to/lastmile_qr_scan", "ios": "https://dc.lft.to/lastmile_qr_scan"}, "fusion_lon": 0.0}, {"lat": 38.91715083333333, "is_disabled": 0, "type": "electric_scooter", "lon": -77.03871933333333, "bike_id": "846a75f10a89e0028f63e0dbb612e10a", "fusion_lat": 0.0, "name": "846a75f10a89e0028f63e0dbb612e10a", "is_reserved": 0, "rental_uris": {"android": "https://dc.lft.to/lastmile_qr_scan", "ios": "https://dc.lft.to/lastmile_qr_scan"}, "fusion_lon": 0.0}, {"lat": 38.86230716666667, "is_disabled": 0, "type": "electric_scooter", "lon": -76.9954935, "bike_id": "a18b0308b53a8c05f1acc4be32071fbb", "fusion_lat": 0.0, "name": "a18b0308b53a8c05f1acc4be32071fbb", "is_reserved": 0, "rental_uris": {"android": "https://dc.lft.to/lastmile_qr_scan", "ios": "https://dc.lft.to/lastmile_qr_scan"}, "fusion_lon": 0.0}, {"lat": 38.93615333333333, "is_disabled": 0, "type": "electric_scooter", "lon": -77.032161, "bike_id": "9656eb84ed32579ad87c31ef95d071c4", "fusion_lat": 0.0, "name": "9656eb84ed32579ad87c31ef95d071c4", "is_reserved": 0, "rental_uris": {"android": "https://dc.lft.to/lastmile_qr_scan", "ios": "https://dc.lft.to/lastmile_qr_scan"}, "fusion_lon": 0.0}, {"lat": 38.8901275, "is_disabled": 0, "type": "electric_scooter", "lon": -77.03324216666667, "bike_id": "84ec9a33059e738894881e1235f74717", "fusion_lat": 0.0, "name": "84ec9a33059e738894881e1235f74717", "is_reserved": 0, "rental_uris": {"android": "https://dc.lft.to/lastmile_qr_scan", "ios": "https://dc.lft.to/lastmile_qr_scan"}, "fusion_lon": 0.0}, {"lat": 38.907809, "is_disabled": 0, "type": "electric_scooter", "lon": -77.03847383333333, "bike_id": "cbaee19f66f75155bb246310d20528b1", "fusion_lat": 0.0, "name": "cbaee19f66f75155bb246310d20528b1", "is_reserved": 0, "rental_uris": {"android": "https://dc.lft.to/lastmile_qr_scan", "ios": "https://dc.lft.to/lastmile_qr_scan"}, "fusion_lon": 0.0}, {"lat": 38.87216266666667, "is_disabled": 0, "type": "electric_scooter", "lon": -77.01763283333334, "bike_id": "dd9ac2e726853827bc0083105b9489c0", "fusion_lat": 0.0, "name": "dd9ac2e726853827bc0083105b9489c0", "is_reserved": 0, "rental_uris": {"android": "https://dc.lft.to/lastmile_qr_scan", "ios": "https://dc.lft.to/lastmile_qr_scan"}, "fusion_lon": 0.0}, {"lat": 38.916949833333334, "is_disabled": 0, "type": "electric_scooter", "lon": -77.0295915, "bike_id": "146767321b90fdc56b934301731e056c", "fusion_lat": 0.0, "name": "146767321b90fdc56b934301731e056c", "is_reserved": 0, "rental_uris": {"android": "https://dc.lft.to/lastmile_qr_scan", "ios": "https://dc.lft.to/lastmile_qr_scan"}, "fusion_lon": 0.0}, {"lat": 39.030476666666665, "is_disabled": 0, "type": "electric_bike", "lon": -77.094769, "bike_id": "c76990dadeb2239f77fa0f86b0e92ead", "fusion_lat": 0.0, "name": "c76990dadeb2239f77fa0f86b0e92ead", "is_reserved": 0, "rental_uris": {"android": "https://dc.lft.to/lastmile_qr_scan", "ios": "https://dc.lft.to/lastmile_qr_scan"}, "fusion_lon": 0.0}, {"lat": 38.84422983333333, "is_disabled": 0, "type": "electric_scooter", "lon": -76.99779583333333, "bike_id": "fc8d83bdfccb8e37daf26b639e616d6c", "fusion_lat": 0.0, "name": "fc8d83bdfccb8e37daf26b639e616d6c", "is_reserved": 0, "rental_uris": {"android": "https://dc.lft.to/lastmile_qr_scan", "ios": "https://dc.lft.to/lastmile_qr_scan"}, "fusion_lon": 0.0}, {"lat": 38.98652416666667, "is_disabled": 0, "type": "electric_bike", "lon": -77.05643266666667, "bike_id": "dbf09737a7da0659afc831e726f09a0c", "fusion_lat": 0.0, "name": "dbf09737a7da0659afc831e726f09a0c", "is_reserved": 0, "rental_uris": {"android": "https://dc.lft.to/lastmile_qr_scan", "ios": "https://dc.lft.to/lastmile_qr_scan"}, "fusion_lon": 0.0}, {"lat": 38.90686083333333, "is_disabled": 0, "type": "electric_scooter", "lon": -77.06271316666667, "bike_id": "eb930211f00d96cb42422c3197ddbf16", "fusion_lat": 0.0, "name": "eb930211f00d96cb42422c3197ddbf16", "is_reserved": 0, "rental_uris": {"android": "https://dc.lft.to/lastmile_qr_scan", "ios": "https://dc.lft.to/lastmile_qr_scan"}, "fusion_lon": 0.0}, {"lat": 38.91838383333333, "is_disabled": 0, "type": "electric_scooter", "lon": -77.03897133333334, "bike_id": "b90142133a0f1a8ce5982918f5e59124", "fusion_lat": 0.0, "name": "b90142133a0f1a8ce5982918f5e59124", "is_reserved": 0, "rental_uris": {"android": "https://dc.lft.to/lastmile_qr_scan", "ios": "https://dc.lft.to/lastmile_qr_scan"}, "fusion_lon": 0.0}, {"lat": 38.9066535, "is_disabled": 0, "type": "electric_scooter", "lon": -77.02964016666667, "bike_id": "9cd2654ba6bbafa79a6db124ef6b90f6", "fusion_lat": 0.0, "name": "9cd2654ba6bbafa79a6db124ef6b90f6", "is_reserved": 0, "rental_uris": {"android": "https://dc.lft.to/lastmile_qr_scan", "ios": "https://dc.lft.to/lastmile_qr_scan"}, "fusion_lon": 0.0}, {"lat": 38.918557, "is_disabled": 0, "type": "electric_scooter", "lon": -77.032164, "bike_id": "85425ac32f9c6003e57384da720280e6", "fusion_lat": 0.0, "name": "85425ac32f9c6003e57384da720280e6", "is_reserved": 0, "rental_uris": {"android": "https://dc.lft.to/lastmile_qr_scan", "ios": "https://dc.lft.to/lastmile_qr_scan"}, "fusion_lon": 0.0}, {"lat": 38.873807666666664, "is_disabled": 0, "type": "electric_bike", "lon": -76.9365805, "bike_id": "729f8fd311b173c4285e26d63eb07071", "fusion_lat": 0.0, "name": "729f8fd311b173c4285e26d63eb07071", "is_reserved": 0, "rental_uris": {"android": "https://dc.lft.to/lastmile_qr_scan", "ios": "https://dc.lft.to/lastmile_qr_scan"}, "fusion_lon": 0.0}, {"lat": 38.8692395, "is_disabled": 0, "type": "electric_scooter", "lon": -76.983074, "bike_id": "50d6cf16ce670fa3596a54365bb01337", "fusion_lat": 0.0, "name": "50d6cf16ce670fa3596a54365bb01337", "is_reserved": 0, "rental_uris": {"android": "https://dc.lft.to/lastmile_qr_scan", "ios": "https://dc.lft.to/lastmile_qr_scan"}, "fusion_lon": 0.0}, {"lat": 38.908439666666666, "is_disabled": 0, "type": "electric_scooter", "lon": -77.02712383333333, "bike_id": "6287b4c11d02ecefed88701941ead88b", "fusion_lat": 0.0, "name": "6287b4c11d02ecefed88701941ead88b", "is_reserved": 0, "rental_uris": {"android": "https://dc.lft.to/lastmile_qr_scan", "ios": "https://dc.lft.to/lastmile_qr_scan"}, "fusion_lon": 0.0}, {"lat": 38.929208333333335, "is_disabled": 0, "type": "electric_scooter", "lon": -77.03759233333334, "bike_id": "4338b5f4ede3786590d6a7e10ca29274", "fusion_lat": 0.0, "name": "4338b5f4ede3786590d6a7e10ca29274", "is_reserved": 0, "rental_uris": {"android": "https://dc.lft.to/lastmile_qr_scan", "ios": "https://dc.lft.to/lastmile_qr_scan"}, "fusion_lon": 0.0}, {"lat": 38.903005666666665, "is_disabled": 0, "type": "electric_scooter", "lon": -77.00044633333333, "bike_id": "dd45a211ee64b945a03ecab4068d3fa2", "fusion_lat": 0.0, "name": "dd45a211ee64b945a03ecab4068d3fa2", "is_reserved": 0, "rental_uris": {"android": "https://dc.lft.to/lastmile_qr_scan", "ios": "https://dc.lft.to/lastmile_qr_scan"}, "fusion_lon": 0.0}, {"lat": 38.913414333333336, "is_disabled": 0, "type": "electric_scooter", "lon": -77.0312055, "bike_id": "cb3664fb1df477086631234ea6286d2b", "fusion_lat": 0.0, "name": "cb3664fb1df477086631234ea6286d2b", "is_reserved": 0, "rental_uris": {"android": "https://dc.lft.to/lastmile_qr_scan", "ios": "https://dc.lft.to/lastmile_qr_scan"}, "fusion_lon": 0.0}, {"lat": 38.98509166666667, "is_disabled": 0, "type": "electric_bike", "lon": -76.982063, "bike_id": "04d6f990707f9844ca02deb3c18333a6", "fusion_lat": 0.0, "name": "04d6f990707f9844ca02deb3c18333a6", "is_reserved": 0, "rental_uris": {"android": "https://dc.lft.to/lastmile_qr_scan", "ios": "https://dc.lft.to/lastmile_qr_scan"}, "fusion_lon": 0.0}, {"lat": 38.91094866666667, "is_disabled": 0, "type": "electric_scooter", "lon": -77.03844, "bike_id": "2b1aebd28a35b09102be37aa48a9f95f", "fusion_lat": 0.0, "name": "2b1aebd28a35b09102be37aa48a9f95f", "is_reserved": 0, "rental_uris": {"android": "https://dc.lft.to/lastmile_qr_scan", "ios": "https://dc.lft.to/lastmile_qr_scan"}, "fusion_lon": 0.0}, {"lat": 38.9200475, "is_disabled": 0, "type": "electric_scooter", "lon": -77.032338, "bike_id": "29ef6b5bd2fa59d3e77de9d029c1c249", "fusion_lat": 0.0, "name": "29ef6b5bd2fa59d3e77de9d029c1c249", "is_reserved": 0, "rental_uris": {"android": "https://dc.lft.to/lastmile_qr_scan", "ios": "https://dc.lft.to/lastmile_qr_scan"}, "fusion_lon": 0.0}, {"lat": 38.869881666666664, "is_disabled": 0, "type": "electric_bike", "lon": -76.95986366666666, "bike_id": "8de380f92521127255d1d26359a4e9aa", "fusion_lat": 0.0, "name": "8de380f92521127255d1d26359a4e9aa", "is_reserved": 0, "rental_uris": {"android": "https://dc.lft.to/lastmile_qr_scan", "ios": "https://dc.lft.to/lastmile_qr_scan"}, "fusion_lon": 0.0}, {"lat": 38.80577366666667, "is_disabled": 0, "type": "electric_bike", "lon": -77.06861933333333, "bike_id": "687c34828e609977943332f53a627ae9", "fusion_lat": 0.0, "name": "687c34828e609977943332f53a627ae9", "is_reserved": 0, "rental_uris": {"android": "https://dc.lft.to/lastmile_qr_scan", "ios": "https://dc.lft.to/lastmile_qr_scan"}, "fusion_lon": 0.0}, {"lat": 38.890109, "is_disabled": 0, "type": "electric_scooter", "lon": -77.033224, "bike_id": "d716291e3605ef55a51222cba61ff761", "fusion_lat": 0.0, "name": "d716291e3605ef55a51222cba61ff761", "is_reserved": 0, "rental_uris": {"android": "https://dc.lft.to/lastmile_qr_scan", "ios": "https://dc.lft.to/lastmile_qr_scan"}, "fusion_lon": 0.0}, {"lat": 38.898193666666664, "is_disabled": 0, "type": "electric_scooter", "lon": -77.03161733333333, "bike_id": "e7ce406a0d97b1edf3a9fec95855ab46", "fusion_lat": 0.0, "name": "e7ce406a0d97b1edf3a9fec95855ab46", "is_reserved": 0, "rental_uris": {"android": "https://dc.lft.to/lastmile_qr_scan", "ios": "https://dc.lft.to/lastmile_qr_scan"}, "fusion_lon": 0.0}, {"lat": 38.965037833333334, "is_disabled": 0, "type": "electric_scooter", "lon": -77.02788966666667, "bike_id": "97d6793b9207f10ad819b6167923a5d9", "fusion_lat": 0.0, "name": "97d6793b9207f10ad819b6167923a5d9", "is_reserved": 0, "rental_uris": {"android": "https://dc.lft.to/lastmile_qr_scan", "ios": "https://dc.lft.to/lastmile_qr_scan"}, "fusion_lon": 0.0}, {"lat": 38.92142366666667, "is_disabled": 0, "type": "electric_scooter", "lon": -77.01835433333333, "bike_id": "3e24ed486f8ca8729ebfe7d9c9699917", "fusion_lat": 0.0, "name": "3e24ed486f8ca8729ebfe7d9c9699917", "is_reserved": 0, "rental_uris": {"android": "https://dc.lft.to/lastmile_qr_scan", "ios": "https://dc.lft.to/lastmile_qr_scan"}, "fusion_lon": 0.0}, {"lat": 38.908057, "is_disabled": 0, "type": "electric_scooter", "lon": -77.0366095, "bike_id": "896396689552dfd84793ebddbe59946c", "fusion_lat": 0.0, "name": "896396689552dfd84793ebddbe59946c", "is_reserved": 0, "rental_uris": {"android": "https://dc.lft.to/lastmile_qr_scan", "ios": "https://dc.lft.to/lastmile_qr_scan"}, "fusion_lon": 0.0}, {"lat": 38.88019633333333, "is_disabled": 0, "type": "electric_scooter", "lon": -77.0248415, "bike_id": "e61423160e93eb6cec7e1a807e5e4e32", "fusion_lat": 0.0, "name": "e61423160e93eb6cec7e1a807e5e4e32", "is_reserved": 0, "rental_uris": {"android": "https://dc.lft.to/lastmile_qr_scan", "ios": "https://dc.lft.to/lastmile_qr_scan"}, "fusion_lon": 0.0}, {"lat": 38.9025695, "is_disabled": 0, "type": "electric_scooter", "lon": -77.018317, "bike_id": "cfd592bbc6181124fd754e47300361a2", "fusion_lat": 0.0, "name": "cfd592bbc6181124fd754e47300361a2", "is_reserved": 0, "rental_uris": {"android": "https://dc.lft.to/lastmile_qr_scan", "ios": "https://dc.lft.to/lastmile_qr_scan"}, "fusion_lon": 0.0}, {"lat": 38.910951, "is_disabled": 0, "type": "electric_scooter", "lon": -77.03842316666666, "bike_id": "c4e75c80eafad8438151d944fa04a12b", "fusion_lat": 0.0, "name": "c4e75c80eafad8438151d944fa04a12b", "is_reserved": 0, "rental_uris": {"android": "https://dc.lft.to/lastmile_qr_scan", "ios": "https://dc.lft.to/lastmile_qr_scan"}, "fusion_lon": 0.0}, {"lat": 38.92833016666667, "is_disabled": 0, "type": "electric_scooter", "lon": -77.02192, "bike_id": "74b0a573374243a979a209f64ec5ff38", "fusion_lat": 0.0, "name": "74b0a573374243a979a209f64ec5ff38", "is_reserved": 0, "rental_uris": {"android": "https://dc.lft.to/lastmile_qr_scan", "ios": "https://dc.lft.to/lastmile_qr_scan"}, "fusion_lon": 0.0}, {"lat": 38.914306333333336, "is_disabled": 0, "type": "electric_scooter", "lon": -77.0318655, "bike_id": "74e7e1b719ff9190a271754d9d60706c", "fusion_lat": 0.0, "name": "74e7e1b719ff9190a271754d9d60706c", "is_reserved": 0, "rental_uris": {"android": "https://dc.lft.to/lastmile_qr_scan", "ios": "https://dc.lft.to/lastmile_qr_scan"}, "fusion_lon": 0.0}, {"lat": 38.82273216666667, "is_disabled": 0, "type": "electric_bike", "lon": -77.0581335, "bike_id": "15328377a4d2edb25084e579f7870efc", "fusion_lat": 0.0, "name": "15328377a4d2edb25084e579f7870efc", "is_reserved": 0, "rental_uris": {"android": "https://dc.lft.to/lastmile_qr_scan", "ios": "https://dc.lft.to/lastmile_qr_scan"}, "fusion_lon": 0.0}, {"lat": 38.908602333333334, "is_disabled": 0, "type": "electric_scooter", "lon": -76.99969183333333, "bike_id": "564579e857fe1468227174c47415ba9c", "fusion_lat": 0.0, "name": "564579e857fe1468227174c47415ba9c", "is_reserved": 0, "rental_uris": {"android": "https://dc.lft.to/lastmile_qr_scan", "ios": "https://dc.lft.to/lastmile_qr_scan"}, "fusion_lon": 0.0}, {"lat": 38.937597, "is_disabled": 0, "type": "electric_scooter", "lon": -77.03142033333333, "bike_id": "bbd6bd9cfddb1dcedf428661dff0de8e", "fusion_lat": 0.0, "name": "bbd6bd9cfddb1dcedf428661dff0de8e", "is_reserved": 0, "rental_uris": {"android": "https://dc.lft.to/lastmile_qr_scan", "ios": "https://dc.lft.to/lastmile_qr_scan"}, "fusion_lon": 0.0}, {"lat": 38.9088345, "is_disabled": 0, "type": "electric_scooter", "lon": -77.06437383333333, "bike_id": "6ea92995286c3d8af396536f740a91bb", "fusion_lat": 0.0, "name": "6ea92995286c3d8af396536f740a91bb", "is_reserved": 0, "rental_uris": {"android": "https://dc.lft.to/lastmile_qr_scan", "ios": "https://dc.lft.to/lastmile_qr_scan"}, "fusion_lon": 0.0}, {"lat": 38.91394316666667, "is_disabled": 0, "type": "electric_scooter", "lon": -77.03658433333334, "bike_id": "bbdf7c5d428468613b94fbded3586a55", "fusion_lat": 0.0, "name": "bbdf7c5d428468613b94fbded3586a55", "is_reserved": 0, "rental_uris": {"android": "https://dc.lft.to/lastmile_qr_scan", "ios": "https://dc.lft.to/lastmile_qr_scan"}, "fusion_lon": 0.0}, {"lat": 38.9187035, "is_disabled": 0, "type": "electric_scooter", "lon": -76.97121483333333, "bike_id": "e418e738323b25b2f61045edb4e8aa2d", "fusion_lat": 0.0, "name": "e418e738323b25b2f61045edb4e8aa2d", "is_reserved": 0, "rental_uris": {"android": "https://dc.lft.to/lastmile_qr_scan", "ios": "https://dc.lft.to/lastmile_qr_scan"}, "fusion_lon": 0.0}, {"lat": 38.9029215, "is_disabled": 0, "type": "electric_scooter", "lon": -77.0398995, "bike_id": "4232b1e2a610bbe1efa8572ad80d2063", "fusion_lat": 0.0, "name": "4232b1e2a610bbe1efa8572ad80d2063", "is_reserved": 0, "rental_uris": {"android": "https://dc.lft.to/lastmile_qr_scan", "ios": "https://dc.lft.to/lastmile_qr_scan"}, "fusion_lon": 0.0},