{"data": {"bikes": [{"lat": 38.892209333333334, "is_disabled": 0, "type": "electric_scooter", "fusion_lon": 0.0, "rental_uris": {"android": "https://dc.lft.to/lastmile_qr_scan", "ios": "https://dc.lft.to/lastmile_qr_scan"}, "fusion_lat": 0.0, "is_reserved": 0, "bike_id": "2263555ca14422ced32976ae72996e34", "name": "2263555ca14422ced32976ae72996e34", "lon": -77.0234855}, {"lat": 38.91872883333333, "is_disabled": 0, "type": "electric_scooter", "fusion_lon": 0.0, "rental_uris": {"android": "https://dc.lft.to/lastmile_qr_scan", "ios": "https://dc.lft.to/lastmile_qr_scan"}, "fusion_lat": 0.0, "is_reserved": 0, "bike_id": "7ced879631eda56f9e843f8f1b4d5cbc", "name": "7ced879631eda56f9e843f8f1b4d5cbc", "lon": -77.03766116666667}, {"lat": 38.874749333333334, "is_disabled": 0, "type": "electric_scooter", "fusion_lon": 0.0, "rental_uris": {"android": "https://dc.lft.to/lastmile_qr_scan", "ios": "https://dc.lft.to/lastmile_qr_scan"}, "fusion_lat": 0.0, "is_reserved": 0, "bike_id": "84617fbfc19d91196dda13b5c02172dd", "name": "84617fbfc19d91196dda13b5c02172dd", "lon": -77.01129916666666}, {"lat": 38.857262166666665, "is_disabled": 0, "type": "electric_scooter", "fusion_lon": 0.0, "rental_uris": {"android": "https://dc.lft.to/lastmile_qr_scan", "ios": "https://dc.lft.to/lastmile_qr_scan"}, "fusion_lat": 0.0, "is_reserved": 0, "bike_id": "960611e9a6cf26781ff9cf41eeaf5ae3", "name": "960611e9a6cf26781ff9cf41eeaf5ae3", "lon": -76.98956216666667}, {"lat": 38.90766816666667, "is_disabled": 0, "type": "electric_scooter", "fusion_lon": 0.0, "rental_uris": {"android": "https://dc.lft.to/lastmile_qr_scan", "ios": "https://dc.lft.to/lastmile_qr_scan"}, "fusion_lat": 0.0, "is_reserved": 0, "bike_id": "4c38c4176c86d6d833ee4fe920c34d03", "name": "4c38c4176c86d6d833ee4fe920c34d03", "lon": -76.993038}, {"lat": 38.90122683333333, "is_disabled": 0, "type": "electric_scooter", "fusion_lon": 0.0, "rental_uris": {"android": "https://dc.lft.to/lastmile_qr_scan", "ios": "https://dc.lft.to/lastmile_qr_scan"}, "fusion_lat": 0.0, "is_reserved": 0, "bike_id": "dd6edaf35538c96708e93b8a6af49b0a", "name": "dd6edaf35538c96708e93b8a6af49b0a", "lon": -77.01742816666666}, {"lat": 38.92218783333333, "is_disabled": 0, "type": "electric_bike", "fusion_lon": 0.0, "rental_uris": {"android": "https://dc.lft.to/lastmile_qr_scan", "ios": "https://dc.lft.to/lastmile_qr_scan"}, "fusion_lat": 0.0, "is_reserved": 0, "bike_id": "81e5bf03e6adb5ec710fdb138407a712", "name": "81e5bf03e6adb5ec710fdb138407a712", "lon": -77.08184933333334}, {"lat": 38.921434833333336, "is_disabled": 0, "type": "electric_scooter", "fusion_lon": 0.0, "rental_uris": {"android": "https://dc.lft.to/lastmile_qr_scan", "ios": "https://dc.lft.to/lastmile_qr_scan"}, "fusion_lat": 0.0, "is_reserved": 0, "bike_id": "e8e60150fc1f60b2d0016a3e74a92958", "name": "e8e60150fc1f60b2d0016a3e74a92958", "lon": -77.04360016666666}, {"lat": 38.92276116666667, "is_disabled": 0, "type": "electric_scooter", "fusion_lon": 0.0, "rental_uris": {"android": "https://dc.lft.to/lastmile_qr_scan", "ios": "https://dc.lft.to/lastmile_qr_scan"}, "fusion_lat": 0.0, "is_reserved": 0, "bike_id": "dcffcb0603053107c127599c86247fe5", "name": "dcffcb0603053107c127599c86247fe5", "lon": -77.03898666666667}, {"lat": 38.91568983333333, "is_disabled": 0, "type": "electric_scooter", "fusion_lon": 0.0, "rental_uris": {"android": "https://dc.lft.to/lastmile_qr_scan", "ios": "https://dc.lft.to/lastmile_qr_scan"}, "fusion_lat": 0.0, "is_reserved": 0, "bike_id": "d8036321266dcfee8d1e698c1ecdbb14", "name": "d8036321266dcfee8d1e698c1ecdbb14", "lon": -77.06717383333333}, {"lat": 38.8874315, "is_disabled": 0, "type": "electric_scooter", "fusion_lon": 0.0, "rental_uris": {"android": "https://dc.lft.to/lastmile_qr_scan", "ios": "https://dc.lft.to/lastmile_qr_scan"}, "fusion_lat": 0.0, "is_reserved": 0, "bike_id": "cec405c3375449ca4893448ddb9d5be4", "name": "cec405c3375449ca4893448ddb9d5be4", "lon": -77.02741066666667}, {"lat": 38.87637016666667, "is_disabled": 0, "type": "electric_scooter", "fusion_lon": 0.0, "rental_uris": {"android": "https://dc.lft.to/lastmile_qr_scan", "ios": "https://dc.lft.to/lastmile_qr_scan"}, "fusion_lat": 0.0, "is_reserved": 0, "bike_id": "1af49d34e55391fee899357bd7410489", "name": "1af49d34e55391fee899357bd7410489", "lon": -77.00378366666666}, {"lat": 38.90474, "is_disabled": 0, "type": "electric_scooter", "fusion_lon": 0.0, "rental_uris": {"android": "https://dc.lft.to/lastmile_qr_scan", "ios": "https://dc.lft.to/lastmile_qr_scan"}, "fusion_lat": 0.0, "is_reserved": 0, "bike_id": "f4940d19ba6d711a8af55b587fdb22da", "name": "f4940d19ba6d711a8af55b587fdb22da", "lon": -77.00723383333333}, {"lat": 38.8778585, "is_disabled": 0, "type": "electric_scooter", "fusion_lon": 0.0, "rental_uris": {"android": "https://dc.lft.to/lastmile_qr_scan", "ios": "https://dc.lft.to/lastmile_qr_scan"}, "fusion_lat": 0.0, "is_reserved": 0, "bike_id": "371353bf8c8848cab9e0a85c43692ae2", "name": "371353bf8c8848cab9e0a85c43692ae2", "lon": -76.993598}, {"lat": 38.91036966666667, "is_disabled": 0, "type": "electric_scooter", "fusion_lon": 0.0, "rental_uris": {"android": "https://dc.lft.to/lastmile_qr_scan", "ios": "https://dc.lft.to/lastmile_qr_scan"}, "fusion_lat": 0.0, "is_reserved": 0, "bike_id": "e432cd51246178d3cc17f6f39a2479d9", "name": "e432cd51246178d3cc17f6f39a2479d9", "lon": -77.03440183333333}, {"lat": 38.898162166666665, "is_disabled": 0, "type": "electric_scooter", "fusion_lon": 0.0, "rental_uris": {"android": "https://dc.lft.to/lastmile_qr_scan", "ios": "https://dc.lft.to/lastmile_qr_scan"}, "fusion_lat": 0.0, "is_reserved": 0, "bike_id": "90c83600beb22ca73af50895ebb462b5", "name": "90c83600beb22ca73af50895ebb462b5", "lon": -77.033106}, {"lat": 38.86704316666667, "is_disabled": 0, "type": "electric_scooter", "fusion_lon": 0.0, "rental_uris": {"android": "https://dc.lft.to/lastmile_qr_scan", "ios": "https://dc.lft.to/lastmile_qr_scan"}, "fusion_lat": 0.0, "is_reserved": 0, "bike_id": "096379c883ce157d5805f6b13c162bde", "name": "096379c883ce157d5805f6b13c162bde", "lon": -76.98713}, {"lat": 38.92745466666667, "is_disabled": 0, "type": "electric_scooter", "fusion_lon": 0.0, "rental_uris": {"android": "https://dc.lft.to/lastmile_qr_scan", "ios": "https://dc.lft.to/lastmile_qr_scan"}, "fusion_lat": 0.0, "is_reserved": 0, "bike_id": "ecb8bc0e6b297d4334e346cae56ff2c5", "name": "ecb8bc0e6b297d4334e346cae56ff2c5", "lon": -77.02492916666667}, {"lat": 38.93090216666667, "is_disabled": 0, "type": "electric_scooter", "fusion_lon": 0.0, "rental_uris": {"android": "https://dc.lft.to/lastmile_qr_scan", "ios": "https://dc.lft.to/lastmile_qr_scan"}, "fusion_lat": 0.0, "is_reserved": 0, "bike_id": "739848b42c1dee4b3487051edabbfc43", "name": "739848b42c1dee4b3487051edabbfc43", "lon": -77.00410416666666}, {"lat": 38.923621, "is_disabled": 0, "type": "electric_scooter", "fusion_lon": 0.0, "rental_uris": {"android": "https://dc.lft.to/lastmile_qr_scan", "ios": "https://dc.lft.to/lastmile_qr_scan"}, "fusion_lat": 0.0, "is_reserved": 0, "bike_id": "33704582ab602702b5f468105022ca6e", "name": "33704582ab602702b5f468105022ca6e", "lon": -77.05133716666667}, {"lat": 38.89220533333334, "is_disabled": 0, "type": "electric_scooter", "fusion_lon": 0.0, "rental_uris": {"android": "https://dc.lft.to/lastmile_qr_scan", "ios": "https://dc.lft.to/lastmile_qr_scan"}, "fusion_lat": 0.0, "is_reserved": 0, "bike_id": "aa1870a8475be4d700298c987ed9925c", "name": "aa1870a8475be4d700298c987ed9925c", "lon": -77.04378066666666}, {"lat": 38.9288435, "is_disabled": 0, "type": "electric_scooter", "fusion_lon": 0.0, "rental_uris": {"android": "https://dc.lft.to/lastmile_qr_scan", "ios": "https://dc.lft.to/lastmile_qr_scan"}, "fusion_lat": 0.0, "is_reserved": 0, "bike_id": "779bd1003d8ad2cc80e5c986101a074c", "name": "779bd1003d8ad2cc80e5c986101a074c", "lon": -77.01429716666667}, {"lat": 38.869004, "is_disabled": 0, "type": "electric_scooter", "fusion_lon": 0.0, "rental_uris": {"android": "https://dc.lft.to/lastmile_qr_scan", "ios": "https://dc.lft.to/lastmile_qr_scan"}, "fusion_lat": 0.0, "is_reserved": 0, "bike_id": "56d22719ec3c0d4854379086ca53d278", "name": "56d22719ec3c0d4854379086ca53d278", "lon": -76.98235}, {"lat": 38.892198666666665, "is_disabled": 0, "type": "electric_scooter", "fusion_lon": 0.0, "rental_uris": {"android": "https://dc.lft.to/lastmile_qr_scan", "ios": "https://dc.lft.to/lastmile_qr_scan"}, "fusion_lat": 0.0, "is_reserved": 0, "bike_id": "40314eaef672dd4e4b995d49743887f5", "name": "40314eaef672dd4e4b995d49743887f5", "lon": -77.04381566666666}, {"lat": 38.90726466666667, "is_disabled": 0, "type": "electric_scooter", "fusion_lon": 0.0, "rental_uris": {"android": "https://dc.lft.to/lastmile_qr_scan", "ios": "https://dc.lft.to/lastmile_qr_scan"}, "fusion_lat": 0.0, "is_reserved": 0, "bike_id": "433f8bae707e4dc08fb70a82fd2da2b3", "name": "433f8bae707e4dc08fb70a82fd2da2b3", "lon": -77.04877116666667}, {"lat": 38.918129666666665, "is_disabled": 0, "type": "electric_scooter", "fusion_lon": 0.0, "rental_uris": {"android": "https://dc.lft.to/lastmile_qr_scan", "ios": "https://dc.lft.to/lastmile_qr_scan"}, "fusion_lat": 0.0, "is_reserved": 0, "bike_id": "ba4043d710b99c5f26b072c0e9d4f43c", "name": "ba4043d710b99c5f26b072c0e9d4f43c", "lon": -77.03438766666666}, {"lat": 38.8955755, "is_disabled": 0, "type": "electric_scooter", "fusion_lon": 0.0, "rental_uris": {"android": "https://dc.lft.to/lastmile_qr_scan", "ios": "https://dc.lft.to/lastmile_qr_scan"}, "fusion_lat": 0.0, "is_reserved": 0, "bike_id": "c1dff5fbba5263c86482c72ae0d522de", "name": "c1dff5fbba5263c86482c72ae0d522de", "lon": -77.04676933333333}, {"lat": 38.96737483333333, "is_disabled": 0, "type": "electric_bike", "fusion_lon": 0.0, "rental_uris": {"android": "https://dc.lft.to/lastmile_qr_scan", "ios": "https://dc.lft.to/lastmile_qr_scan"}, "fusion_lat": 0.0, "is_reserved": 0, "bike_id": "2553b2dc1b568897e5d6b7a9e1e7a55b", "name": "2553b2dc1b568897e5d6b7a9e1e7a55b", "lon": -76.9558165}, {"lat": 38.9603295, "is_disabled": 0, "type": "electric_scooter", "fusion_lon": 0.0, "rental_uris": {"android": "https://dc.lft.to/lastmile_qr_scan", "ios": "https://dc.lft.to/lastmile_qr_scan"}, "fusion_lat": 0.0, "is_reserved": 0, "bike_id": "16685c81d5ec84b6d76838a493662406", "name": "16685c81d5ec84b6d76838a493662406", "lon": -77.01980966666666}, {"lat": 38.893729666666665, "is_disabled": 0, "type": "electric_scooter", "fusion_lon": 0.0, "rental_uris": {"android": "https://dc.lft.to/lastmile_qr_scan", "ios": "https://dc.lft.to/lastmile_qr_scan"}, "fusion_lat": 0.0, "is_reserved": 0, "bike_id": "d8a92fd7b9eb2c72c9f2e1f7f136c7e4", "name": "d8a92fd7b9eb2c72c9f2e1f7f136c7e4", "lon": -76.94996633333334}, {"lat": 38.894858, "is_disabled": 0, "type": "electric_scooter", "fusion_lon": 0.0, "rental_uris": {"android": "https://dc.lft.to/lastmile_qr_scan", "ios": "https://dc.lft.to/lastmile_qr_scan"}, "fusion_lat": 0.0, "is_reserved": 0, "bike_id": "132375fde6e4fbf1fa19f18781c12087", "name": "132375fde6e4fbf1fa19f18781c12087", "lon": -77.02145016666667}, {"lat": 38.91203983333333, "is_disabled": 0, "type": "electric_scooter", "fusion_lon": 0.0, "rental_uris": {"android": "https://dc.lft.to/lastmile_qr_scan", "ios": "https://dc.lft.to/lastmile_qr_scan"}, "fusion_lat": 0.0, "is_reserved": 0, "bike_id": "8551b349e68d2c913a1021df8201489a", "name": "8551b349e68d2c913a1021df8201489a", "lon": -77.03012316666667}, {"lat": 38.92270116666667, "is_disabled": 0, "type": "electric_scooter", "fusion_lon": 0.0, "rental_uris": {"android": "https://dc.lft.to/lastmile_qr_scan", "ios": "https://dc.lft.to/lastmile_qr_scan"}, "fusion_lat": 0.0, "is_reserved": 0, "bike_id": "cae23fa8ad670097a33a746ef2112ea2", "name": "cae23fa8ad670097a33a746ef2112ea2", "lon": -77.03405716666667}, {"lat": 38.91717583333333, "is_disabled": 0, "type": "electric_scooter", "fusion_lon": 0.0, "rental_uris": {"android": "https://dc.lft.to/lastmile_qr_scan", "ios": "https://dc.lft.to/lastmile_qr_scan"}, "fusion_lat": 0.0, "is_reserved": 0, "bike_id": "0b5f9bacbd638a7fcc50dd3b1f19103e", "name": "0b5f9bacbd638a7fcc50dd3b1f19103e", "lon": -77.0334065}, {"lat": 38.93551866666667, "is_disabled": 0, "type": "electric_scooter", "fusion_lon": 0.0, "rental_uris": {"android": "https://dc.lft.to/lastmile_qr_scan", "ios": "https://dc.lft.to/lastmile_qr_scan"}, "fusion_lat": 0.0, "is_reserved": 0, "bike_id": "241d2585650c5fc044ab3b018fc78bf6", "name": "241d2585650c5fc044ab3b018fc78bf6", "lon": -77.02223816666667}, {"lat": 38.92270966666667, "is_disabled": 0, "type": "electric_scooter", "fusion_lon": 0.0, "rental_uris": {"android": "https://dc.lft.to/lastmile_qr_scan", "ios": "https://dc.lft.to/lastmile_qr_scan"}, "fusion_lat": 0.0, "is_reserved": 0, "bike_id": "c92a2aa7bd042c41e7072c3e9a4f7e27", "name": "c92a2aa7bd042c41e7072c3e9a4f7e27", "lon": -77.01904333333333}, {"lat": 38.900946166666664, "is_disabled": 0, "type": "electric_scooter", "fusion_lon": 0.0, "rental_uris": {"android": "https://dc.lft.to/lastmile_qr_scan", "ios": "https://dc.lft.to/lastmile_qr_scan"}, "fusion_lat": 0.0, "is_reserved": 0, "bike_id": "6af8139160863e73a3456e7866ff3376", "name": "6af8139160863e73a3456e7866ff3376", "lon": -76.93023383333333}, {"lat": 38.87212616666667, "is_disabled": 0, "type": "electric_scooter", "fusion_lon": 0.0, "rental_uris": {"android": "https://dc.lft.to/lastmile_qr_scan", "ios": "https://dc.lft.to/lastmile_qr_scan"}, "fusion_lat": 0.0, "is_reserved": 0, "bike_id": "4d9cc6d9d94889a908309d3fdecb2828", "name": "4d9cc6d9d94889a908309d3fdecb2828", "lon": -76.97836583333333}, {"lat": 38.95065266666667, "is_disabled": 0, "type": "electric_scooter", "fusion_lon": 0.0, "rental_uris": {"android": "https://dc.lft.to/lastmile_qr_scan", "ios": "https://dc.lft.to/lastmile_qr_scan"}, "fusion_lat": 0.0, "is_reserved": 0, "bike_id": "a0cecb72bcba8cc4d3679e4be71bbc3f", "name": "a0cecb72bcba8cc4d3679e4be71bbc3f", "lon": -77.08012783333334}, {"lat": 38.855398, "is_disabled": 0, "type": "electric_scooter", "fusion_lon": 0.0, "rental_uris": {"android": "https://dc.lft.to/lastmile_qr_scan", "ios": "https://dc.lft.to/lastmile_qr_scan"}, "fusion_lat": 0.0, "is_reserved": 0, "bike_id": "bb0e67477377979d6dfc75b834450b49", "name": "bb0e67477377979d6dfc75b834450b49", "lon": -76.984172}, {"lat": 38.90246366666667, "is_disabled": 0, "type": "electric_scooter", "fusion_lon": 0.0, "rental_uris": {"android": "https://dc.lft.to/lastmile_qr_scan", "ios": "https://dc.lft.to/lastmile_qr_scan"}, "fusion_lat": 0.0, "is_reserved": 0, "bike_id": "df9b6ac7a23753fdd10b0764fb525be9", "name": "df9b6ac7a23753fdd10b0764fb525be9", "lon": -77.0173575}, {"lat": 38.8927565, "is_disabled": 0, "type": "electric_scooter", "fusion_lon": 0.0, "rental_uris": {"android": "https://dc.lft.to/lastmile_qr_scan", "ios": "https://dc.lft.to/lastmile_qr_scan"}, "fusion_lat": 0.0, "is_reserved": 0, "bike_id": "caa01242aeb04124f1acce1a67d468a0", "name": "caa01242aeb04124f1acce1a67d468a0", "lon": -77.04877883333333}, {"lat": 38.93583566666667, "is_disabled": 0, "type": "electric_scooter", "fusion_lon": 0.0, "rental_uris": {"android": "https://dc.lft.to/lastmile_qr_scan", "ios": "https://dc.lft.to/lastmile_qr_scan"}, "fusion_lat": 0.0, "is_reserved": 0, "bike_id": "92a65089df30c1f8a303cd81c24c0013", "name": "92a65089df30c1f8a303cd81c24c0013", "lon": -77.08123233333333}, {"lat": 38.91645416666667, "is_disabled": 0, "type": "electric_bike", "fusion_lon": 0.0, "rental_uris": {"android": "https://dc.lft.to/lastmile_qr_scan", "ios": "https://dc.lft.to/lastmile_qr_scan"}, "fusion_lat": 0.0, "is_reserved": 0, "bike_id": "7431afebaec4837294c343dc579f0674", "name": "7431afebaec4837294c343dc579f0674", "lon": -76.973046}, {"lat": 38.884874333333336, "is_disabled": 0, "type": "electric_scooter", "fusion_lon": 0.0, "rental_uris": {"android": "https://dc.lft.to/lastmile_qr_scan", "ios": "https://dc.lft.to/lastmile_qr_scan"}, "fusion_lat": 0.0, "is_reserved": 0, "bike_id": "0b6338c321ee7f4dfdce3583104e0f10", "name": "0b6338c321ee7f4dfdce3583104e0f10", "lon": -76.92622866666666}, {"lat": 38.905661, "is_disabled": 0, "type": "electric_scooter", "fusion_lon": 0.0, "rental_uris": {"android": "https://dc.lft.to/lastmile_qr_scan", "ios": "https://dc.lft.to/lastmile_qr_scan"}, "fusion_lat": 0.0, "is_reserved": 0, "bike_id": "ec760ebcae95dd7ec54e3d38b1586d85", "name": "ec760ebcae95dd7ec54e3d38b1586d85", "lon": -77.00616933333333}, {"lat": 38.92102916666666, "is_disabled": 0, "type": "electric_scooter", "fusion_lon": 0.0, "rental_uris": {"android": "https://dc.lft.to/lastmile_qr_scan", "ios": "https://dc.lft.to/lastmile_qr_scan"}, "fusion_lat": 0.0, "is_reserved": 0, "bike_id": "4ad1930b765a738d3f03057d1c849e11", "name": "4ad1930b765a738d3f03057d1c849e11", "lon": -77.02211}, {"lat": 38.944162166666665, "is_disabled": 0, "type": "electric_scooter", "fusion_lon": 0.0, "rental_uris": {"android": "https://dc.lft.to/lastmile_qr_scan", "ios": "https://dc.lft.to/lastmile_qr_scan"}, "fusion_lat": 0.0, "is_reserved": 0, "bike_id": "25de2760bc796b5d2af8757401bea35e", "name": "25de2760bc796b5d2af8757401bea35e", "lon": -77.02595866666667}, {"lat": 38.931732, "is_disabled": 0, "type": "electric_scooter", "fusion_lon": 0.0, "rental_uris": {"android": "https://dc.lft.to/lastmile_qr_scan", "ios": "https://dc.lft.to/lastmile_qr_scan"}, "fusion_lat": 0.0, "is_reserved": 0, "bike_id": "dfc0b0214a7948bbd932535c0c995321", "name": "dfc0b0214a7948bbd932535c0c995321", "lon": -77.07107416666666}, {"lat": 38.90140266666667, "is_disabled": 0, "type": "electric_scooter", "fusion_lon": 0.0, "rental_uris": {"android": "https://dc.lft.to/lastmile_qr_scan", "ios": "https://dc.lft.to/lastmile_qr_scan"}, "fusion_lat": 0.0, "is_reserved": 0, "bike_id": "ad4efc7190d4e1e93df7669634308240", "name": "ad4efc7190d4e1e93df7669634308240", "lon": -77.01793116666667}, {"lat": 38.92415716666667, "is_disabled": 0, "type": "electric_scooter", "fusion_lon": 0.0, "rental_uris": {"android": "https://dc.lft.to/lastmile_qr_scan", "ios": "https://dc.lft.to/lastmile_qr_scan"}, "fusion_lat": 0.0, "is_reserved": 0, "bike_id": "f3c102800cec444b2d108151c545cfd8", "name": "f3c102800cec444b2d108151c545cfd8", "lon": -77.029732}, {"lat": 38.93581266666666, "is_disabled": 0, "type": "electric_scooter", "fusion_lon": 0.0, "rental_uris": {"android": "https://dc.lft.to/lastmile_qr_scan", "ios": "https://dc.lft.to/lastmile_qr_scan"}, "fusion_lat": 0.0, "is_reserved": 0, "bike_id": "ba3c1e8ca0617e3300301e0013ec686b", "name": "ba3c1e8ca0617e3300301e0013ec686b", "lon": -77.03531533333333}, {"lat": 38.87470733333333, "is_disabled": 0, "type": "electric_scooter", "fusion_lon": 0.0, "rental_uris": {"android": "https://dc.lft.to/lastmile_qr_scan", "ios": "https://dc.lft.to/lastmile_qr_scan"}, "fusion_lat": 0.0, "is_reserved": 0, "bike_id": "5b79c271f8d7a8d50987186e40982e79", "name": "5b79c271f8d7a8d50987186e40982e79", "lon": -77.01893133333333}, {"lat": 38.9204415, "is_disabled": 0, "type": "electric_scooter", "fusion_lon": 0.0, "rental_uris": {"android": "https://dc.lft.to/lastmile_qr_scan", "ios": "https://dc.lft.to/lastmile_qr_scan"}, "fusion_lat": 0.0, "is_reserved": 0, "bike_id": "93b2cca04c3fab19c5b5d13c141b0631", "name": "93b2cca04c3fab19c5b5d13c141b0631", "lon": -77.023635}, {"lat": 38.94327333333333, "is_disabled": 0, "type": "electric_scooter", "fusion_lon": 0.0, "rental_uris": {"android": "https://dc.lft.to/lastmile_qr_scan", "ios": "https://dc.lft.to/lastmile_qr_scan"}, "fusion_lat": 0.0, "is_reserved": 0, "bike_id": "4471a28ebed0cd8ce539f7c07936bd37", "name": "4471a28ebed0cd8ce539f7c07936bd37", "lon": -77.02682116666666}, {"lat": 38.9205405, "is_disabled": 0, "type": "electric_scooter", "fusion_lon": 0.0, "rental_uris": {"android": "https://dc.lft.to/lastmile_qr_scan", "ios": "https://dc.lft.to/lastmile_qr_scan"}, "fusion_lat": 0.0, "is_reserved": 0, "bike_id": "9c12a2c6a58e74d13f24417de727c022", "name": "9c12a2c6a58e74d13f24417de727c022", "lon": -77.03476633333334}, {"lat": 38.87304, "is_disabled": 0, "type": "electric_scooter", "fusion_lon": 0.0, "rental_uris": {"android": "https://dc.lft.to/lastmile_qr_scan", "ios": "https://dc.lft.to/lastmile_qr_scan"}, "fusion_lat": 0.0, "is_reserved": 0, "bike_id": "177ebaa68ca5b9f713f506cc683ca1c6", "name": "177ebaa68ca5b9f713f506cc683ca1c6", "lon": -77.009144}, {"lat": 38.88085483333333, "is_disabled": 0, "type": "electric_scooter", "fusion_lon": 0.0, "rental_uris": {"android": "https://dc.lft.to/lastmile_qr_scan", "ios": "https://dc.lft.to/lastmile_qr_scan"}, "fusion_lat": 0.0, "is_reserved": 0, "bike_id": "b6e0444f72ecda2daf9a3f4b116d798a", "name": "b6e0444f72ecda2daf9a3f4b116d798a", "lon": -76.99838966666667}, {"lat": 38.90328066666667, "is_disabled": 0, "type": "electric_scooter", "fusion_lon": 0.0, "rental_uris": {"android": "https://dc.lft.to/lastmile_qr_scan", "ios": "https://dc.lft.to/lastmile_qr_scan"}, "fusion_lat": 0.0, "is_reserved": 0, "bike_id": "3dffa933f15e2cf1ec306ed5b7d9701b", "name": "3dffa933f15e2cf1ec306ed5b7d9701b", "lon": -76.9911055}, {"lat": 38.95279983333333, "is_disabled": 0, "type": "electric_scooter", "fusion_lon": 0.0, "rental_uris": {"android": "https://dc.lft.to/lastmile_qr_scan", "ios": "https://dc.lft.to/lastmile_qr_scan"}, "fusion_lat": 0.0, "is_reserved": 0, "bike_id": "9a0b9dad43b0811e444f1814d17e1105", "name": "9a0b9dad43b0811e444f1814d17e1105", "lon": -77.069791}, {"lat": 38.902681, "is_disabled": 0, "type": "electric_scooter", "fusion_lon": 0.0, "rental_uris": {"android": "https://dc.lft.to/lastmile_qr_scan", "ios": "https://dc.lft.to/lastmile_qr_scan"}, "fusion_lat": 0.0, "is_reserved": 0, "bike_id": "fedfdb34d5c3682cd3275e133b0b146b", "name": "fedfdb34d5c3682cd3275e133b0b146b", "lon": -77.00331066666666}, {"lat": 38.924865833333335, "is_disabled": 0, "type": "electric_scooter", "fusion_lon": 0.0, "rental_uris": {"android": "https://dc.lft.to/lastmile_qr_scan", "ios": "https://dc.lft.to/lastmile_qr_scan"}, "fusion_lat": 0.0, "is_reserved": 0, "bike_id": "6be9f5386818ac19c8457c2699a6dcc3", "name": "6be9f5386818ac19c8457c2699a6dcc3", "lon": -77.04152166666667}, {"lat": 38.860056, "is_disabled": 0, "type": "electric_scooter", "fusion_lon": 0.0, "rental_uris": {"android": "https://dc.lft.to/lastmile_qr_scan", "ios": "https://dc.lft.to/lastmile_qr_scan"}, "fusion_lat": 0.0, "is_reserved": 0, "bike_id": "9b828b262e1417e3c0df981c3fb4bf68", "name": "9b828b262e1417e3c0df981c3fb4bf68", "lon": -76.98520483333333}, {"lat": 38.92326333333333, "is_disabled": 0, "type": "electric_scooter", "fusion_lon": 0.0, "rental_uris": {"android": "https://dc.lft.to/lastmile_qr_scan", "ios": "https://dc.lft.to/lastmile_qr_scan"}, "fusion_lat": 0.0, "is_reserved": 0, "bike_id": "55d35ac87ae027d63c53bbf7edae0441", "name": "55d35ac87ae027d63c53bbf7edae0441", "lon": -77.0296515}, {"lat": 38.8922635, "is_disabled": 0, "type": "electric_scooter", "fusion_lon": 0.0, "rental_uris": {"android": "https://dc.lft.to/lastmile_qr_scan", "ios": "https://dc.lft.to/lastmile_qr_scan"}, "fusion_lat": 0.0, "is_reserved": 0, "bike_id": "dc209791249b15b22ca6b815af6af3ab", "name": "dc209791249b15b22ca6b815af6af3ab", "lon": -77.04309733333334}, {"lat": 38.8861095, "is_disabled": 0, "type": "electric_scooter", "fusion_lon": 0.0, "rental_uris": {"android": "https://dc.lft.to/lastmile_qr_scan", "ios": "https://dc.lft.to/lastmile_qr_scan"}, "fusion_lat": 0.0, "is_reserved": 0, "bike_id": "b662007a96be222667dfa5d2e3b92aee", "name": "b662007a96be222667dfa5d2e3b92aee", "lon": -76.99482683333333}, {"lat": 38.88770183333333, "is_disabled": 0, "type": "electric_scooter", "fusion_lon": 0.0, "rental_uris": {"android": "https://dc.lft.to/lastmile_qr_scan", "ios": "https://dc.lft.to/lastmile_qr_scan"}, "fusion_lat": 0.0, "is_reserved": 0, "bike_id": "81878dc679339040112269cfda9e327d", "name": "81878dc679339040112269cfda9e327d", "lon": -77.02470516666666}, {"lat": 38.8238055, "is_disabled": 0, "type": "electric_bike", "fusion_lon": 0.0, "rental_uris": {"android": "https://dc.lft.to/lastmile_qr_scan", "ios": "https://dc.lft.to/lastmile_qr_scan"}, "fusion_lat": 0.0, "is_reserved": 0, "bike_id": "f5da6fddf0ada3784dba609987efefb6", "name": "f5da6fddf0ada3784dba609987efefb6", "lon": -77.0023085}, {"lat": 38.92601883333333, "is_disabled": 0, "type": "electric_scooter", "fusion_lon": 0.0, "rental_uris": {"android": "https://dc.lft.to/lastmile_qr_scan", "ios": "https://dc.lft.to/lastmile_qr_scan"}, "fusion_lat": 0.0, "is_reserved": 0, "bike_id": "ff4a016a306f191bbc418c448c3b5901", "name": "ff4a016a306f191bbc418c448c3b5901", "lon": -77.02497816666667}, {"lat": 38.92700133333334, "is_disabled": 0, "type": "electric_scooter", "fusion_lon": 0.0, "rental_uris": {"android": "https://dc.lft.to/lastmile_qr_scan", "ios": "https://dc.lft.to/lastmile_qr_scan"}, "fusion_lat": 0.0, "is_reserved": 0, "bike_id": "54bce7f966669100ab4aff464ceb437f", "name": "54bce7f966669100ab4aff464ceb437f", "lon": -77.03637883333333}, {"lat": 38.90033533333333, "is_disabled": 0, "type": "electric_scooter", "fusion_lon": 0.0, "rental_uris": {"android": "https://dc.lft.to/lastmile_qr_scan", "ios": "https://dc.lft.to/lastmile_qr_scan"}, "fusion_lat": 0.0, "is_reserved": 0, "bike_id": "9967e991e5660066138b56f10dbbb1b7", "name": "9967e991e5660066138b56f10dbbb1b7", "lon": -77.0122915}, {"lat": 38.952102333333336, "is_disabled": 0, "type": "electric_bike", "fusion_lon": 0.0, "rental_uris": {"android": "https://dc.lft.to/lastmile_qr_scan", "ios": "https://dc.lft.to/lastmile_qr_scan"}, "fusion_lat": 0.0, "is_reserved": 0, "bike_id": "954fed6a15ff21a943189ab6ff5a6d3b", "name": "954fed6a15ff21a943189ab6ff5a6d3b", "lon": -77.01137266666667}, {"lat": 38.88519433333333, "is_disabled": 0, "type": "electric_scooter", "fusion_lon": 0.0, "rental_uris": {"android": "https://dc.lft.to/lastmile_qr_scan", "ios": "https://dc.lft.to/lastmile_qr_scan"}, "fusion_lat": 0.0, "is_reserved": 0, "bike_id": "1db4250e58b40950d92c37eb99a9ae56", "name": "1db4250e58b40950d92c37eb99a9ae56", "lon": -77.0161185}, {"lat": 38.928276833333335, "is_disabled": 0, "type": "electric_scooter", "fusion_lon": 0.0, "rental_uris": {"android": "https://dc.lft.to/lastmile_qr_scan", "ios": "https://dc.lft.to/lastmile_qr_scan"}, "fusion_lat": 0.0, "is_reserved": 0, "bike_id": "aefbd4df950c9e4f3dbe67d5e9ed476e", "name": "aefbd4df950c9e4f3dbe67d5e9ed476e", "lon": -77.02748983333333}, {"lat": 38.89548966666667, "is_disabled": 0, "type": "electric_scooter", "fusion_lon": 0.0, "rental_uris": {"android": "https://dc.lft.to/lastmile_qr_scan", "ios": "https://dc.lft.to/lastmile_qr_scan"}, "fusion_lat": 0.0, "is_reserved": 0, "bike_id": "0b7f70712777f465b3fe30cf8d8617a0", "name": "0b7f70712777f465b3fe30cf8d8617a0", "lon": -77.056645}, {"lat": 38.924678166666666, "is_disabled": 0, "type": "electric_scooter", "fusion_lon": 0.0, "rental_uris": {"android": "https://dc.lft.to/lastmile_qr_scan", "ios": "https://dc.lft.to/lastmile_qr_scan"}, "fusion_lat": 0.0, "is_reserved": 0, "bike_id": "3a9f998b325674c685f0abdece21bfd3", "name": "3a9f998b325674c685f0abdece21bfd3", "lon": -77.05237383333333}, {"lat": 38.8921645, "is_disabled": 0, "type": "electric_scooter", "fusion_lon": 0.0, "rental_uris": {"android": "https://dc.lft.to/lastmile_qr_scan", "ios": "https://dc.lft.to/lastmile_qr_scan"}, "fusion_lat": 0.0, "is_reserved": 0, "bike_id": "3687153f022662aa96f7b5ceb713dc18", "name": "3687153f022662aa96f7b5ceb713dc18", "lon": -77.03192383333334}, {"lat": 38.904527333333334, "is_disabled": 0, "type": "electric_scooter", "fusion_lon": 0.0, "rental_uris": {"android": "https://dc.lft.to/lastmile_qr_scan", "ios": "https://dc.lft.to/lastmile_qr_scan"}, "fusion_lat": 0.0, "is_reserved": 0, "bike_id": "ea0465169dee8e4f0151bcd25362d421", "name": "ea0465169dee8e4f0151bcd25362d421", "lon": -77.0390315}, {"lat": 38.8901735, "is_disabled": 0, "type": "electric_scooter", "fusion_lon": 0.0, "rental_uris": {"android": "https://dc.lft.to/lastmile_qr_scan", "ios": "https://dc.lft.to/lastmile_qr_scan"}, "fusion_lat": 0.0, "is_reserved": 0, "bike_id": "b8d513667c1e699525a66de0da73dc05", "name": "b8d513667c1e699525a66de0da73dc05", "lon": -76.93724683333333}, {"lat": 38.89653633333333, "is_disabled": 0, "type": "electric_scooter", "fusion_lon": 0.0, "rental_uris": {"android": "https://dc.lft.to/lastmile_qr_scan", "ios": "https://dc.lft.to/lastmile_qr_scan"}, "fusion_lat": 0.0, "is_reserved": 0, "bike_id": "b989e1e079e4579eb85ad3c87b3ead75", "name": "b989e1e079e4579eb85ad3c87b3ead75", "lon": -77.00924366666666}, {"lat": 38.92250933333333, "is_disabled": 0, "type": "electric_scooter", "fusion_lon": 0.0, "rental_uris": {"android": "https://dc.lft.to/lastmile_qr_scan", "ios": "https://dc.lft.to/lastmile_qr_scan"}, "fusion_lat": 0.0, "is_reserved": 0, "bike_id": "9f85a9bb9fdba20e3c2c4670bf446726", "name": "9f85a9bb9fdba20e3c2c4670bf446726", "lon": -77.01948533333334}, {"lat": 38.86707716666667, "is_disabled": 0, "type": "electric_scooter", "fusion_lon": 0.0, "rental_uris": {"android": "https://dc.lft.to/lastmile_qr_scan", "ios": "https://dc.lft.to/lastmile_qr_scan"}, "fusion_lat": 0.0, "is_reserved": 0, "bike_id": "06a4033f37fc55cdd3e1bb09418273ec", "name": "06a4033f37fc55cdd3e1bb09418273ec", "lon": -76.9871445}, {"lat": 38.862466166666664, "is_disabled": 0, "type": "electric_scooter", "fusion_lon": 0.0, "rental_uris": {"android": "https://dc.lft.to/lastmile_qr_scan", "ios": "https://dc.lft.to/lastmile_qr_scan"}, "fusion_lat": 0.0, "is_reserved": 0, "bike_id": "a6d47222e6277e49494e4d1c92f25560", "name": "a6d47222e6277e49494e4d1c92f25560", "lon": -76.9949875}, {"lat": 38.880484333333335, "is_disabled": 0, "type": "electric_bike", "fusion_lon": 0.0, "rental_uris": {"android": "https://dc.lft.to/lastmile_qr_scan", "ios": "https://dc.lft.to/lastmile_qr_scan"}, "fusion_lat": 0.0, "is_reserved": 0, "bike_id": "19abca8a7824457bd2a19fcf92834758", "name": "19abca8a7824457bd2a19fcf92834758", "lon": -77.01137266666667}, {"lat": 38.922563333333336, "is_disabled": 0, "type": "electric_scooter", "fusion_lon": 0.0, "rental_uris": {"android": "https://dc.lft.to/lastmile_qr_scan", "ios": "https://dc.lft.to/lastmile_qr_scan"}, "fusion_lat": 0.0, "is_reserved": 0, "bike_id": "8a6b552117911a188af02fb0a8251363", "name": "8a6b552117911a188af02fb0a8251363", "lon": -77.02965016666667}, {"lat": 38.93181366666666, "is_disabled": 0, "type": "electric_scooter", "fusion_lon": 0.0, "rental_uris": {"android": "https://dc.lft.to/lastmile_qr_scan", "ios": "https://dc.lft.to/lastmile_qr_scan"}, "fusion_lat": 0.0, "is_reserved": 0, "bike_id": "1ceb8dc96ddf7b946feb428143325b74", "name": "1ceb8dc96ddf7b946feb428143325b74", "lon": -77.038515}, {"lat": 38.927299, "is_disabled": 0, "type": "electric_scooter", "fusion_lon": 0.0, "rental_uris": {"android": "https://dc.lft.to/lastmile_qr_scan", "ios": "https://dc.lft.to/lastmile_qr_scan"}, "fusion_lat": 0.0, "is_reserved": 0, "bike_id": "e5821e0cccc05ed01dbcde478722e14b", "name": "e5821e0cccc05ed01dbcde478722e14b", "lon": -77.07347433333334}, {"lat": 38.89561783333333, "is_disabled": 0, "type": "electric_scooter", "fusion_lon": 0.0, "rental_uris": {"android": "https://dc.lft.to/lastmile_qr_scan", "ios": "https://dc.lft.to/lastmile_qr_scan"}, "fusion_lat": 0.0, "is_reserved": 0, "bike_id": "f112907a73025b3d7898510cddb6b1fe", "name": "f112907a73025b3d7898510cddb6b1fe", "lon": -77.0467815}, {"lat": 38.91569883333333, "is_disabled": 0, "type": "electric_scooter", "fusion_lon": 0.0, "rental_uris": {"android": "https://dc.lft.to/lastmile_qr_scan", "ios": "https://dc.lft.to/lastmile_qr_scan"}, "fusion_lat": 0.0, "is_reserved": 0, "bike_id": "3b64dae6192bb4474a75e0d0572e0eee", "name": "3b64dae6192bb4474a75e0d0572e0eee", "lon": -77.02582283333334}, {"lat": 38.922473, "is_disabled": 0, "type": "electric_scooter", "fusion_lon": 0.0, "rental_uris": {"android": "https://dc.lft.to/lastmile_qr_scan", "ios": "https://dc.lft.to/lastmile_qr_scan"}, "fusion_lat": 0.0, "is_reserved": 0, "bike_id": "5fad214e1ef0a12d4ec33ac18061c61c", "name": "5fad214e1ef0a12d4ec33ac18061c61c", "lon": -77.00922966666667}, {"lat": 38.87332116666666, "is_disabled": 0, "type": "electric_scooter", "fusion_lon": 0.0, "rental_uris": {"android": "https://dc.lft.to/lastmile_qr_scan", "ios": "https://dc.lft.to/lastmile_qr_scan"}, "fusion_lat": 0.0, "is_reserved": 0, "bike_id": "d53c635cfdda207c96969b0281c49a6b", "name": "d53c635cfdda207c96969b0281c49a6b", "lon": -77.0059445}, {"lat": 38.91360866666667, "is_disabled": 0, "type": "electric_scooter", "fusion_lon": 0.0, "rental_uris": {"android": "https://dc.lft.to/lastmile_qr_scan", "ios": "https://dc.lft.to/lastmile_qr_scan"}, "fusion_lat": 0.0, "is_reserved": 0, "bike_id": "fc5203d329fb8ce833830479cb970358", "name": "fc5203d329fb8ce833830479cb970358", "lon": -77.06924283333333}, {"lat": 38.90601266666667, "is_disabled": 0, "type": "electric_scooter", "fusion_lon": 0.0, "rental_uris": {"android": "https://dc.lft.to/lastmile_qr_scan", "ios": "https://dc.lft.to/lastmile_qr_scan"}, "fusion_lat": 0.0, "is_reserved": 0, "bike_id": "bd1bb0d0236c50aff11f1b0f3cdf30b6", "name": "bd1bb0d0236c50aff11f1b0f3cdf30b6", "lon": -77.0162905}, {"lat": 38.9646355, "is_disabled": 0, "type": "electric_bike", "fusion_lon": 0.0, "rental_uris": {"android": "https://dc.lft.to/lastmile_qr_scan", "ios": "https://dc.lft.to/lastmile_qr_scan"}, "fusion_lat": 0.0, "is_reserved": 0, "bike_id": "b5c43c8c8eba098c6ddf27dc70300076", "name": "b5c43c8c8eba098c6ddf27dc70300076", "lon": -77.03558016666666}, {"lat": 38.80018483333333, "is_disabled": 0, "type": "electric_bike", "fusion_lon": 0.0, "rental_uris": {"android": "https://dc.lft.to/lastmile_qr_scan", "ios": "https://dc.lft.to/lastmile_qr_scan"}, "fusion_lat": 0.0, "is_reserved": 0, "bike_id": "d002c761d20134213811999190560270", "name": "d002c761d20134213811999190560270", "lon": -77.05481516666667}, {"lat": 38.8718735, "is_disabled": 0, "type": "electric_scooter", "fusion_lon": 0.0, "rental_uris": {"android": "https://dc.lft.to/lastmile_qr_scan", "ios": "https://dc.lft.to/lastmile_qr_scan"}, "fusion_lat": 0.0, "is_reserved": 0, "bike_id": "b7820bc9c411b2b22318fd83bd294d55", "name": "b7820bc9c411b2b22318fd83bd294d55", "lon": -77.00601166666667}, {"lat": 38.9837095, "is_disabled": 0, "type": "electric_bike", "fusion_lon": 0.0, "rental_uris": {"android": "https://dc.lft.to/lastmile_qr_scan", "ios": "https://dc.lft.to/lastmile_qr_scan"}, "fusion_lat": 0.0, "is_reserved": 0, "bike_id": "3aa8ec47481f911b9442e66f68fa133e", "name": "3aa8ec47481f911b9442e66f68fa133e", "lon": -76.9723965}, {"lat": 38.891774833333336, "is_disabled": 0, "type": "electric_scooter", "fusion_lon": 0.0, "rental_uris": {"android": "https://dc.lft.to/lastmile_qr_scan", "ios": "https://dc.lft.to/lastmile_qr_scan"}, "fusion_lat": 0.0, "is_reserved": 0, "bike_id": "e815b25cfad45b2f5857e6f29716f4ac", "name": "e815b25cfad45b2f5857e6f29716f4ac", "lon": -77.0155835}, {"lat": 38.902700833333334, "is_disabled": 0, "type": "electric_scooter", "fusion_lon": 0.0, "rental_uris": {"android": "https://dc.lft.to/lastmile_qr_scan", "ios": "https://dc.lft.to/lastmile_qr_scan"}, "fusion_lat": 0.0, "is_reserved": 0, "bike_id": "e6a8deeb8101308e301ece3b356b727b", "name": "e6a8deeb8101308e301ece3b356b727b", "lon": -77.03969216666667}, {"lat": 38.928347333333335, "is_disabled": 0, "type": "electric_scooter", "fusion_lon": 0.0, "rental_uris": {"android": "https://dc.lft.to/lastmile_qr_scan", "ios": "https://dc.lft.to/lastmile_qr_scan"}, "fusion_lat": 0.0, "is_reserved": 0, "bike_id": "a3cf113d01c18219c75d466bd940b458", "name": "a3cf113d01c18219c75d466bd940b458", "lon": -77.0369915}, {"lat": 38.915014, "is_disabled": 0, "type": "electric_scooter", "fusion_lon": 0.0, "rental_uris": {"android": "https://dc.lft.to/lastmile_qr_scan", "ios": "https://dc.lft.to/lastmile_qr_scan"}, "fusion_lat": 0.0, "is_reserved": 0, "bike_id": "80fb728d9dbd76c5b8b803cfa1977e6c", "name": "80fb728d9dbd76c5b8b803cfa1977e6c", "lon": -77.007766}, {"lat": 38.891946, "is_disabled": 0, "type": "electric_scooter", "fusion_lon": 0.0, "rental_uris": {"android": "https://dc.lft.to/lastmile_qr_scan", "ios": "https://dc.lft.to/lastmile_qr_scan"}, "fusion_lat": 0.0, "is_reserved": 0, "bike_id": "38ef2eec27983a78bba6409fcf93ea59", "name": "38ef2eec27983a78bba6409fcf93ea59", "lon": -76.9886095}, {"lat": 38.906540666666665, "is_disabled": 0, "type": "electric_scooter", "fusion_lon": 0.0, "rental_uris": {"android": "https://dc.lft.to/lastmile_qr_scan", "ios": "https://dc.lft.to/lastmile_qr_scan"}, "fusion_lat": 0.0, "is_reserved": 0, "bike_id": "f8563bb1b054a863951dfb2e95f1646a", "name": "f8563bb1b054a863951dfb2e95f1646a", "lon": -77.048739}, {"lat": 38.951606, "is_disabled": 0, "type": "electric_bike", "fusion_lon": 0.0, "rental_uris": {"android": "https://dc.lft.to/lastmile_qr_scan", "ios": "https://dc.lft.to/lastmile_qr_scan"}, "fusion_lat": 0.0, "is_reserved": 0, "bike_id": "c2419c0d48f9da1000f4e74c9789c27f", "name": "c2419c0d48f9da1000f4e74c9789c27f", "lon": -77.01285483333334}, {"lat": 38.91042683333333, "is_disabled": 0, "type": "electric_scooter", "fusion_lon": 0.0, "rental_uris": {"android": "https://dc.lft.to/lastmile_qr_scan", "ios": "https://dc.lft.to/lastmile_qr_scan"}, "fusion_lat": 0.0, "is_reserved": 0, "bike_id": "94e27e5d69b04ada6c87727a57986354", "name": "94e27e5d69b04ada6c87727a57986354", "lon": -77.03501533333333}, {"lat": 38.876697, "is_disabled": 0, "type": "electric_scooter", "fusion_lon": 0.0, "rental_uris": {"android": "https://dc.lft.to/lastmile_qr_scan", "ios": "https://dc.lft.to/lastmile_qr_scan"}, "fusion_lat": 0.0, "is_reserved": 0, "bike_id": "5f56beba78cdcf8dac6efa79487a4bd9", "name": "5f56beba78cdcf8dac6efa79487a4bd9", "lon": -77.00567566666666}, {"lat": 38.9320935, "is_disabled": 0, "type": "electric_bike", "fusion_lon": 0.0, "rental_uris": {"android": "https://dc.lft.to/lastmile_qr_scan", "ios": "https://dc.lft.to/lastmile_qr_scan"}, "fusion_lat": 0.0, "is_reserved": 0, "bike_id": "00fd96eff1e76d18f94008a19c576f12", "name": "00fd96eff1e76d18f94008a19c576f12", "lon": -77.01879133333334}, {"lat": 38.92340933333333, "is_disabled": 0, "type": "electric_bike", "fusion_lon": 0.0, "rental_uris": {"android": "https://dc.lft.to/lastmile_qr_scan", "ios": "https://dc.lft.to/lastmile_qr_scan"}, "fusion_lat": 0.0, "is_reserved": 0, "bike_id": "e64e9b66c16d0ce44cde20343efcbf5e", "name": "e64e9b66c16d0ce44cde20343efcbf5e", "lon": -76.9714655}, {"lat": 38.936761833333335, "is_disabled": 0, "type": "electric_scooter", "fusion_lon": 0.0, "rental_uris": {"android": "https://dc.lft.to/lastmile_qr_scan", "ios": "https://dc.lft.to/lastmile_qr_scan"}, "fusion_lat": 0.0, "is_reserved": 0, "bike_id": "01aac739d5e3290d790eedb41eb70dae", "name": "01aac739d5e3290d790eedb41eb70dae", "lon": -77.03593766666667}, {"lat": 38.9306865, "is_disabled": 0, "type": "electric_scooter", "fusion_lon": 0.0, "rental_uris": {"android": "https://dc.lft.to/lastmile_qr_scan", "ios": "https://dc.lft.to/lastmile_qr_scan"}, "fusion_lat": 0.0, "is_reserved": 0, "bike_id": "377538e408b5bb35641e379ebfef4f21", "name": "377538e408b5bb35641e379ebfef4f21", "lon": -77.03817033333333}, {"lat": 38.914060166666665, "is_disabled": 0, "type": "electric_scooter", "fusion_lon": 0.0, "rental_uris": {"android": "https://dc.lft.to/lastmile_qr_scan", "ios": "https://dc.lft.to/lastmile_qr_scan"}, "fusion_lat": 0.0, "is_reserved": 0, "bike_id": "69910e6b7b319b0e960bdabb9aca933c", "name": "69910e6b7b319b0e960bdabb9aca933c", "lon": -77.02021566666667}, {"lat": 38.90067233333333, "is_disabled": 0, "type": "electric_scooter", "fusion_lon": 0.0, "rental_uris": {"android": "https://dc.lft.to/lastmile_qr_scan", "ios": "https://dc.lft.to/lastmile_qr_scan"}, "fusion_lat": 0.0, "is_reserved": 0, "bike_id": "29de6da8adf832ebef573a1036db29b8", "name": "29de6da8adf832ebef573a1036db29b8", "lon": -77.04536466666667}, {"lat": 38.99225083333333, "is_disabled": 0, "type": "electric_scooter", "fusion_lon": 0.0, "rental_uris": {"android": "https://dc.lft.to/lastmile_qr_scan", "ios": "https://dc.lft.to/lastmile_qr_scan"}, "fusion_lat": 0.0, "is_reserved": 0, "bike_id": "cf982c4b7bdfcf01d6be2847779d29ef", "name": "cf982c4b7bdfcf01d6be2847779d29ef", "lon": -77.03582566666667}, {"lat": 38.909727333333336, "is_disabled": 0, "type": "electric_scooter", "fusion_lon": 0.0, "rental_uris": {"android": "https://dc.lft.to/lastmile_qr_scan", "ios": "https://dc.lft.to/lastmile_qr_scan"}, "fusion_lat": 0.0, "is_reserved": 0, "bike_id": "f347229d0d69eb6ea09dca6d75b31c09", "name": "f347229d0d69eb6ea09dca6d75b31c09", "lon": -77.045193}, {"lat": 38.902071, "is_disabled": 0, "type": "electric_scooter", "fusion_lon": 0.0, "rental_uris": {"android": "https://dc.lft.to/lastmile_qr_scan", "ios": "https://dc.lft.to/lastmile_qr_scan"}, "fusion_lat": 0.0, "is_reserved": 0, "bike_id": "a6c793244eaed284365d76cc0f8a104b", "name": "a6c793244eaed284365d76cc0f8a104b", "lon": -77.04705966666667}, {"lat": 38.9216055, "is_disabled": 0, "type": "electric_scooter", "fusion_lon": 0.0, "rental_uris": {"android": "https://dc.lft.to/lastmile_qr_scan", "ios": "https://dc.lft.to/lastmile_qr_scan"}, "fusion_lat": 0.0, "is_reserved": 0, "bike_id": "84c0be8e70cedca37125d0e6584c1ff3", "name": "84c0be8e70cedca37125d0e6584c1ff3", "lon": -77.03282083333333}, {"lat": 38.854405, "is_disabled": 0, "type": "electric_bike", "fusion_lon": 0.0, "rental_uris": {"android": "https://dc.lft.to/lastmile_qr_scan", "ios": "https://dc.lft.to/lastmile_qr_scan"}, "fusion_lat": 0.0, "is_reserved": 0, "bike_id": "55cd65e6190735a28c0a9b54e139b4b3", "name": "55cd65e6190735a28c0a9b54e139b4b3", "lon": -77.08336483333333}, {"lat": 38.9162265, "is_disabled": 0, "type": "electric_scooter", "fusion_lon": 0.0, "rental_uris": {"android": "https://dc.lft.to/lastmile_qr_scan", "ios": "https://dc.lft.to/lastmile_qr_scan"}, "fusion_lat": 0.0, "is_reserved": 0, "bike_id": "e8a7e3f9448a141ff8db5c8698be9185", "name": "e8a7e3f9448a141ff8db5c8698be9185", "lon": -77.0320525}, {"lat": 38.92796466666667, "is_disabled": 0, "type": "electric_scooter", "fusion_lon": 0.0, "rental_uris": {"android": "https://dc.lft.to/lastmile_qr_scan", "ios": "https://dc.lft.to/lastmile_qr_scan"}, "fusion_lat": 0.0, "is_reserved": 0, "bike_id": "49cd6a7bcb3bccdc8537b61ddc909113", "name": "49cd6a7bcb3bccdc8537b61ddc909113", "lon": -77.02124016666667}, {"lat": 38.8925155, "is_disabled": 0, "type": "electric_scooter", "fusion_lon": 0.0, "rental_uris": {"android": "https://dc.lft.to/lastmile_qr_scan", "ios": "https://dc.lft.to/lastmile_qr_scan"}, "fusion_lat": 0.0, "is_reserved": 0, "bike_id": "e6641ad31e7b72128a1713fd4949873c", "name": "e6641ad31e7b72128a1713fd4949873c", "lon": -77.046616}, {"lat": 38.9412565, "is_disabled": 0, "type": "electric_scooter", "fusion_lon": 0.0, "rental_uris": {"android": "https://dc.lft.to/lastmile_qr_scan", "ios": "https://dc.lft.to/lastmile_qr_scan"}, "fusion_lat": 0.0, "is_reserved": 0, "bike_id": "47c1fcfc85ecaf1118382a2109050695", "name": "47c1fcfc85ecaf1118382a2109050695", "lon": -77.015426}, {"lat": 38.901500166666665, "is_disabled": 0, "type": "electric_scooter", "fusion_lon": 0.0, "rental_uris": {"android": "https://dc.lft.to/lastmile_qr_scan", "ios": "https://dc.lft.to/lastmile_qr_scan"}, "fusion_lat": 0.0, "is_reserved": 0, "bike_id": "2e330197f568a678b740d7325912d1df", "name": "2e330197f568a678b740d7325912d1df", "lon": -77.04358016666667}, {"lat": 38.926433333333335, "is_disabled": 0, "type": "electric_scooter", "fusion_lon": 0.0, "rental_uris": {"android": "https://dc.lft.to/lastmile_qr_scan", "ios": "https://dc.lft.to/lastmile_qr_scan"}, "fusion_lat": 0.0, "is_reserved": 0, "bike_id": "3a79cdf836a438b0a4fca9b27fbcc000", "name": "3a79cdf836a438b0a4fca9b27fbcc000", "lon": -77.0347325}, {"lat": 38.923154833333335, "is_disabled": 0, "type": "electric_scooter", "fusion_lon": 0.0, "rental_uris": {"android": "https://dc.lft.to/lastmile_qr_scan", "ios": "https://dc.lft.to/lastmile_qr_scan"}, "fusion_lat": 0.0, "is_reserved": 0, "bike_id": "9ac068539e6de24c74adb247377f29dc", "name": "9ac068539e6de24c74adb247377f29dc", "lon": -77.01953466666667}, {"lat": 38.874441, "is_disabled": 0, "type": "electric_bike", "fusion_lon": 0.0, "rental_uris": {"android": "https://dc.lft.to/lastmile_qr_scan", "ios": "https://dc.lft.to/lastmile_qr_scan"}, "fusion_lat": 0.0, "is_reserved": 0, "bike_id": "7c656d9925de239453ac39d0eac7e9a3", "name": "7c656d9925de239453ac39d0eac7e9a3", "lon": -77.0006975}, {"lat": 38.93080483333333, "is_disabled": 0, "type": "electric_scooter", "fusion_lon": 0.0, "rental_uris": {"android": "https://dc.lft.to/lastmile_qr_scan", "ios": "https://dc.lft.to/lastmile_qr_scan"}, "fusion_lat": 0.0, "is_reserved": 0, "bike_id": "3d4e1835a5dd4be3456a1419864e4824", "name": "3d4e1835a5dd4be3456a1419864e4824", "lon": -77.0375925}, {"lat": 38.892320833333336, "is_disabled": 0, "type": "electric_scooter", "fusion_lon": 0.0, "rental_uris": {"android": "https://dc.lft.to/lastmile_qr_scan", "ios": "https://dc.lft.to/lastmile_qr_scan"}, "fusion_lat": 0.0, "is_reserved": 0, "bike_id": "6e807383318681d848445567d6477639", "name": "6e807383318681d848445567d6477639", "lon": -77.03134416666667}, {"lat": 38.887418833333335, "is_disabled": 0, "type": "electric_scooter", "fusion_lon": 0.0, "rental_uris": {"android": "https://dc.lft.to/lastmile_qr_scan", "ios": "https://dc.lft.to/lastmile_qr_scan"}, "fusion_lat": 0.0, "is_reserved": 0, "bike_id": "98666d53038b861dbb367b37633f76b4", "name": "98666d53038b861dbb367b37633f76b4", "lon": -77.02736333333333}, {"lat": 38.88689016666667, "is_disabled": 0, "type": "electric_scooter", "fusion_lon": 0.0, "rental_uris": {"android": "https://dc.lft.to/lastmile_qr_scan", "ios": "https://dc.lft.to/lastmile_qr_scan"}, "fusion_lat": 0.0, "is_reserved": 0, "bike_id": "acbe387ef58eb61fe4334e5b24bdfc59", "name": "acbe387ef58eb61fe4334e5b24bdfc59", "lon": -76.95469816666666}, {"lat": 38.936409, "is_disabled": 0, "type": "electric_scooter", "fusion_lon": 0.0, "rental_uris": {"android": "https://dc.lft.to/lastmile_qr_scan", "ios": "https://dc.lft.to/lastmile_qr_scan"}, "fusion_lat": 0.0, "is_reserved": 0, "bike_id": "3d5050339511452da89a06afb26c6c79", "name": "3d5050339511452da89a06afb26c6c79", "lon": -77.036558}, {"lat": 38.86510083333334, "is_disabled": 0, "type": "electric_scooter", "fusion_lon": 0.0, "rental_uris": {"android": "https://dc.lft.to/lastmile_qr_scan", "ios": "https://dc.lft.to/lastmile_qr_scan"}, "fusion_lat": 0.0, "is_reserved": 0, "bike_id": "f38e394c24d6b1964bb846c5055048f2", "name": "f38e394c24d6b1964bb846c5055048f2", "lon": -76.990037}, {"lat": 38.905620166666665, "is_disabled": 0, "type": "electric_scooter", "fusion_lon": 0.0, "rental_uris": {"android": "https://dc.lft.to/lastmile_qr_scan", "ios": "https://dc.lft.to/lastmile_qr_scan"}, "fusion_lat": 0.0, "is_reserved": 0, "bike_id": "d46ff602b9496aedd163dd9248eb79e7", "name": "d46ff602b9496aedd163dd9248eb79e7", "lon": -76.99115733333333}, {"lat": 38.930892166666666, "is_disabled": 0, "type": "electric_scooter", "fusion_lon": 0.0, "rental_uris": {"android": "https://dc.lft.to/lastmile_qr_scan", "ios": "https://dc.lft.to/lastmile_qr_scan"}, "fusion_lat": 0.0, "is_reserved": 0, "bike_id": "fd27908b20470ea0d35b60ebbf3c7f52", "name": "fd27908b20470ea0d35b60ebbf3c7f52", "lon": -77.02807616666666}, {"lat": 38.90538933333333, "is_disabled": 0, "type": "electric_scooter", "fusion_lon": 0.0, "rental_uris": {"android": "https://dc.lft.to/lastmile_qr_scan", "ios": "https://dc.lft.to/lastmile_qr_scan"}, "fusion_lat": 0.0, "is_reserved": 0, "bike_id": "71af6191807b310b1ef94b402c9ffb49", "name": "71af6191807b310b1ef94b402c9ffb49", "lon": -77.05914}, {"lat": 38.80710083333334, "is_disabled": 0, "type": "electric_bike", "fusion_lon": 0.0, "rental_uris": {"android": "https://dc.lft.to/lastmile_qr_scan", "ios": "https://dc.lft.to/lastmile_qr_scan"}, "fusion_lat": 0.0, "is_reserved": 0, "bike_id": "fe0094597550f187471a3f5dc5bf338f", "name": "fe0094597550f187471a3f5dc5bf338f", "lon": -77.06176366666666}, {"lat": 38.925740833333336, "is_disabled": 0, "type": "electric_scooter", "fusion_lon": 0.0, "rental_uris": {"android": "https://dc.lft.to/lastmile_qr_scan", "ios": "https://dc.lft.to/lastmile_qr_scan"}, "fusion_lat": 0.0, "is_reserved": 0, "bike_id": "f318421662dea6b64b9925307d5eeb5b", "name": "f318421662dea6b64b9925307d5eeb5b", "lon": -77.02564283333334}, {"lat": 38.912321666666664, "is_disabled": 0, "type": "electric_scooter", "fusion_lon": 0.0, "rental_uris": {"android": "https://dc.lft.to/lastmile_qr_scan", "ios": "https://dc.lft.to/lastmile_qr_scan"}, "fusion_lat": 0.0, "is_reserved": 0, "bike_id": "e73b1f849a53e214120e4d979fce68c7", "name": "e73b1f849a53e214120e4d979fce68c7", "lon": -77.03868016666667}, {"lat": 38.9994965, "is_disabled": 0, "type": "electric_bike", "fusion_lon": 0.0, "rental_uris": {"android": "https://dc.lft.to/lastmile_qr_scan", "ios": "https://dc.lft.to/lastmile_qr_scan"}, "fusion_lat": 0.0, "is_reserved": 0, "bike_id": "6afa7c403e06298f87b3cf8bc0aa0128", "name": "6afa7c403e06298f87b3cf8bc0aa0128", "lon": -77.074341}, {"lat": 38.92421866666667, "is_disabled": 0, "type": "electric_scooter", "fusion_lon": 0.0, "rental_uris": {"android": "https://dc.lft.to/lastmile_qr_scan", "ios": "https://dc.lft.to/lastmile_qr_scan"}, "fusion_lat": 0.0, "is_reserved": 0, "bike_id": "55e86758940e908e192cc65f689ff872", "name": "55e86758940e908e192cc65f689ff872", "lon": -77.05179633333333}, {"lat": 38.888419999999996, "is_disabled": 0, "type": "electric_scooter", "fusion_lon": 0.0, "rental_uris": {"android": "https://dc.lft.to/lastmile_qr_scan", "ios": "https://dc.lft.to/lastmile_qr_scan"}, "fusion_lat": 0.0, "is_reserved": 0, "bike_id": "9f580966726fdd5f244b56a053df4f71", "name": "9f580966726fdd5f244b56a053df4f71", "lon": -77.0490305}, {"lat": 38.920695, "is_disabled": 0, "type": "electric_scooter", "fusion_lon": 0.0, "rental_uris": {"android": "https://dc.lft.to/lastmile_qr_scan", "ios": "https://dc.lft.to/lastmile_qr_scan"}, "fusion_lat": 0.0, "is_reserved": 0, "bike_id": "e7a95a809821e30001b8453460ee520c", "name": "e7a95a809821e30001b8453460ee520c", "lon": -77.04196983333334}, {"lat": 38.8995375, "is_disabled": 0, "type": "electric_scooter", "fusion_lon": 0.0, "rental_uris": {"android": "https://dc.lft.to/lastmile_qr_scan", "ios": "https://dc.lft.to/lastmile_qr_scan"}, "fusion_lat": 0.0, "is_reserved": 0, "bike_id": "724543f7c3cf9973dbe692321b3eb5c4", "name": "724543f7c3cf9973dbe692321b3eb5c4", "lon": -77.048898}, {"lat": 38.893559, "is_disabled": 0, "type": "electric_scooter", "fusion_lon": 0.0, "rental_uris": {"android": "https://dc.lft.to/lastmile_qr_scan", "ios": "https://dc.lft.to/lastmile_qr_scan"}, "fusion_lat": 0.0, "is_reserved": 0, "bike_id": "f895871ad887f4df696d8d970b9a3055", "name": "f895871ad887f4df696d8d970b9a3055", "lon": -76.94927983333334}, {"lat": 38.9317135, "is_disabled": 0, "type": "electric_scooter", "fusion_lon": 0.0, "rental_uris": {"android": "https://dc.lft.to/lastmile_qr_scan", "ios": "https://dc.lft.to/lastmile_qr_scan"}, "fusion_lat": 0.0, "is_reserved": 0, "bike_id": "f185e8db502da741069673b6f46dcf03", "name": "f185e8db502da741069673b6f46dcf03", "lon": -77.034155}, {"lat": 38.936290166666666, "is_disabled": 0, "type": "electric_scooter", "fusion_lon": 0.0, "rental_uris": {"android": "https://dc.lft.to/lastmile_qr_scan", "ios": "https://dc.lft.to/lastmile_qr_scan"}, "fusion_lat": 0.0, "is_reserved": 0, "bike_id": "fb584303cc47675e6fe2fdbac0a8d89e", "name": "fb584303cc47675e6fe2fdbac0a8d89e", "lon": -77.03652783333334}, {"lat": 38.9174465, "is_disabled": 0, "type": "electric_scooter", "fusion_lon": 0.0, "rental_uris": {"android": "https://dc.lft.to/lastmile_qr_scan", "ios": "https://dc.lft.to/lastmile_qr_scan"}, "fusion_lat": 0.0, "is_reserved": 0, "bike_id": "c0f0432599705f20b62471728fe1a63a", "name": "c0f0432599705f20b62471728fe1a63a", "lon": -77.03183816666666}, {"lat": 38.901457666666666, "is_disabled": 0, "type": "electric_scooter", "fusion_lon": 0.0, "rental_uris": {"android": "https://dc.lft.to/lastmile_qr_scan", "ios": "https://dc.lft.to/lastmile_qr_scan"}, "fusion_lat": 0.0, "is_reserved": 0, "bike_id": "7cda676c2a482479aa4976d8d1a7f35b", "name": "7cda676c2a482479aa4976d8d1a7f35b", "lon": -77.01606883333334}, {"lat": 38.866315, "is_disabled": 0, "type": "electric_scooter", "fusion_lon": 0.0, "rental_uris": {"android": "https://dc.lft.to/lastmile_qr_scan", "ios": "https://dc.lft.to/lastmile_qr_scan"}, "fusion_lat": 0.0, "is_reserved": 0, "bike_id": "f10760f0595576c6728dd022acd36f46", "name": "f10760f0595576c6728dd022acd36f46", "lon": -76.98717983333333}, {"lat": 38.923437666666665, "is_disabled": 0, "type": "electric_scooter", "fusion_lon": 0.0, "rental_uris": {"android": "https://dc.lft.to/lastmile_qr_scan", "ios": "https://dc.lft.to/lastmile_qr_scan"}, "fusion_lat": 0.0, "is_reserved": 0, "bike_id": "d697446d9082606df8b68c03dcbfb938", "name": "d697446d9082606df8b68c03dcbfb938", "lon": -77.01905216666667}, {"lat": 38.91965166666667, "is_disabled": 0, "type": "electric_scooter", "fusion_lon": 0.0, "rental_uris": {"android": "https://dc.lft.to/lastmile_qr_scan", "ios": "https://dc.lft.to/lastmile_qr_scan"}, "fusion_lat": 0.0, "is_reserved": 0, "bike_id": "aab1801cfc061a2b5f176bd06d18a3e1", "name": "aab1801cfc061a2b5f176bd06d18a3e1", "lon": -77.044854}, {"lat": 38.84997283333333, "is_disabled": 0, "type": "electric_scooter", "fusion_lon": 0.0, "rental_uris": {"android": "https://dc.lft.to/lastmile_qr_scan", "ios": "https://dc.lft.to/lastmile_qr_scan"}, "fusion_lat": 0.0, "is_reserved": 0, "bike_id": "5ed2bf645f3930f54041980f597f997e", "name": "5ed2bf645f3930f54041980f597f997e", "lon": -76.98348766666666}, {"lat": 38.867043333333335, "is_disabled": 0, "type": "electric_bike", "fusion_lon": 0.0, "rental_uris": {"android": "https://dc.lft.to/lastmile_qr_scan", "ios": "https://dc.lft.to/lastmile_qr_scan"}, "fusion_lat": 0.0, "is_reserved": 0, "bike_id": "5d71eb79dd886f5d56eb195322173a98", "name": "5d71eb79dd886f5d56eb195322173a98", "lon": -76.98943066666666}, {"lat": 38.91309583333334, "is_disabled": 0, "type": "electric_scooter", "fusion_lon": 0.0, "rental_uris": {"android": "https://dc.lft.to/lastmile_qr_scan", "ios": "https://dc.lft.to/lastmile_qr_scan"}, "fusion_lat": 0.0, "is_reserved": 0, "bike_id": "763bff834d57750d1bb54a0c42abc424", "name": "763bff834d57750d1bb54a0c42abc424", "lon": -77.03863866666667}, {"lat": 38.892305, "is_disabled": 0, "type": "electric_scooter", "fusion_lon": 0.0, "rental_uris": {"android": "https://dc.lft.to/lastmile_qr_scan", "ios": "https://dc.lft.to/lastmile_qr_scan"}, "fusion_lat": 0.0, "is_reserved": 0, "bike_id": "07be94f240d7097fdfa668e7781538e1", "name": "07be94f240d7097fdfa668e7781538e1", "lon": -77.04896783333334}, {"lat": 38.921331333333335, "is_disabled": 0, "type": "electric_scooter", "fusion_lon": 0.0, "rental_uris": {"android": "https://dc.lft.to/lastmile_qr_scan", "ios": "https://dc.lft.to/lastmile_qr_scan"}, "fusion_lat": 0.0, "is_reserved": 0, "bike_id": "1eb67360b2e780d893985097aebac071", "name": "1eb67360b2e780d893985097aebac071", "lon": -77.01872316666666}, {"lat": 38.92678166666666, "is_disabled": 0, "type": "electric_scooter", "fusion_lon": 0.0, "rental_uris": {"android": "https://dc.lft.to/lastmile_qr_scan", "ios": "https://dc.lft.to/lastmile_qr_scan"}, "fusion_lat": 0.0, "is_reserved": 0, "bike_id": "09a2649097b309274ba02bd08ffe53cc", "name": "09a2649097b309274ba02bd08ffe53cc", "lon": -77.02248816666666}, {"lat": 38.90769316666667, "is_disabled": 0, "type": "electric_scooter", "fusion_lon": 0.0, "rental_uris": {"android": "https://dc.lft.to/lastmile_qr_scan", "ios": "https://dc.lft.to/lastmile_qr_scan"}, "fusion_lat": 0.0, "is_reserved": 0, "bike_id": "d29cac9fc411ce6d86940d3be5376059", "name": "d29cac9fc411ce6d86940d3be5376059", "lon": -77.073135}, {"lat": 38.890465666666664, "is_disabled": 0, "type": "electric_scooter", "fusion_lon": 0.0, "rental_uris": {"android": "https://dc.lft.to/lastmile_qr_scan", "ios": "https://dc.lft.to/lastmile_qr_scan"}, "fusion_lat": 0.0, "is_reserved": 0, "bike_id": "ee8743560cc618b7a0859f95fa35ffc0", "name": "ee8743560cc618b7a0859f95fa35ffc0", "lon": -76.93757033333333}, {"lat": 38.866891, "is_disabled": 0, "type": "electric_scooter", "fusion_lon": 0.0, "rental_uris": {"android": "https://dc.lft.to/lastmile_qr_scan", "ios": "https://dc.lft.to/lastmile_qr_scan"}, "fusion_lat": 0.0, "is_reserved": 0, "bike_id": "2396cf3a850c0f1d57630e73771cbc65", "name": "2396cf3a850c0f1d57630e73771cbc65", "lon": -76.98599383333334}, {"lat": 38.88715666666667, "is_disabled": 0, "type": "electric_scooter", "fusion_lon": 0.0, "rental_uris": {"android": "https://dc.lft.to/lastmile_qr_scan", "ios": "https://dc.lft.to/lastmile_qr_scan"}, "fusion_lat": 0.0, "is_reserved": 0, "bike_id": "30509e2a402fe645bde319c57c4e3087", "name": "30509e2a402fe645bde319c57c4e3087", "lon": -76.98352183333333}, {"lat": 38.91807466666667, "is_disabled": 0, "type": "electric_scooter", "fusion_lon": 0.0, "rental_uris": {"android": "https://dc.lft.to/lastmile_qr_scan", "ios": "https://dc.lft.to/lastmile_qr_scan"}, "fusion_lat": 0.0, "is_reserved": 0, "bike_id": "5c5d9ee8cb493cf5d3110fa025c87958", "name": "5c5d9ee8cb493cf5d3110fa025c87958", "lon": -77.03177366666667}, {"lat": 38.910754, "is_disabled": 0, "type": "electric_scooter", "fusion_lon": 0.0, "rental_uris": {"android": "https://dc.lft.to/lastmile_qr_scan", "ios": "https://dc.lft.to/lastmile_qr_scan"}, "fusion_lat": 0.0, "is_reserved": 0, "bike_id": "a6a6c7364ba97edeaa264700352a0a8a", "name": "a6a6c7364ba97edeaa264700352a0a8a", "lon": -77.0347155}, {"lat": 38.88413716666667, "is_disabled": 0, "type": "electric_scooter", "fusion_lon": 0.0, "rental_uris": {"android": "https://dc.lft.to/lastmile_qr_scan", "ios": "https://dc.lft.to/lastmile_qr_scan"}, "fusion_lat": 0.0, "is_reserved": 0, "bike_id": "79057be3fcfd757913f7f3fa3c8778f0", "name": "79057be3fcfd757913f7f3fa3c8778f0", "lon": -77.025766}, {"lat": 38.86419583333333, "is_disabled": 0, "type": "electric_scooter", "fusion_lon": 0.0, "rental_uris": {"android": "https://dc.lft.to/lastmile_qr_scan", "ios": "https://dc.lft.to/lastmile_qr_scan"}, "fusion_lat": 0.0, "is_reserved": 0, "bike_id": "19b65aa2622317c0a2ef843f52a24939", "name": "19b65aa2622317c0a2ef843f52a24939", "lon": -76.97439616666666}, {"lat": 38.92949266666667, "is_disabled": 0, "type": "electric_scooter", "fusion_lon": 0.0, "rental_uris": {"android": "https://dc.lft.to/lastmile_qr_scan", "ios": "https://dc.lft.to/lastmile_qr_scan"}, "fusion_lat": 0.0, "is_reserved": 0, "bike_id": "2b41b7ee0c76ebd91ccae81fbd99083d", "name": "2b41b7ee0c76ebd91ccae81fbd99083d", "lon": -77.01641283333333}, {"lat": 38.8923395, "is_disabled": 0, "type": "electric_scooter", "fusion_lon": 0.0, "rental_uris": {"android": "https://dc.lft.to/lastmile_qr_scan", "ios": "https://dc.lft.to/lastmile_qr_scan"}, "fusion_lat": 0.0, "is_reserved": 0, "bike_id": "4252c48c57a362f28bb73b3564cc92a5", "name": "4252c48c57a362f28bb73b3564cc92a5", "lon": -77.01276816666666}, {"lat": 38.9227275, "is_disabled": 0, "type": "electric_scooter", "fusion_lon": 0.0, "rental_uris": {"android": "https://dc.lft.to/lastmile_qr_scan", "ios": "https://dc.lft.to/lastmile_qr_scan"}, "fusion_lat": 0.0, "is_reserved": 0, "bike_id": "3238c4bae77cf7fc5011595d0fbee7ca", "name": "3238c4bae77cf7fc5011595d0fbee7ca", "lon": -77.03415183333334}, {"lat": 38.908323833333334, "is_disabled": 0, "type": "electric_scooter", "fusion_lon": 0.0, "rental_uris": {"android": "https://dc.lft.to/lastmile_qr_scan", "ios": "https://dc.lft.to/lastmile_qr_scan"}, "fusion_lat": 0.0, "is_reserved": 0, "bike_id": "2bf893d20caea703be774036c34338b6", "name": "2bf893d20caea703be774036c34338b6", "lon": -77.03191366666667}, {"lat": 38.8922405, "is_disabled": 0, "type": "electric_scooter", "fusion_lon": 0.0, "rental_uris": {"android": "https://dc.lft.to/lastmile_qr_scan", "ios": "https://dc.lft.to/lastmile_qr_scan"}, "fusion_lat": 0.0, "is_reserved": 0, "bike_id": "40276f867abbe044294d55e87e868297", "name": "40276f867abbe044294d55e87e868297", "lon": -77.04378283333334}, {"lat": 38.900738833333335, "is_disabled": 0, "type": "electric_scooter", "fusion_lon": 0.0, "rental_uris": {"android": "https://dc.lft.to/lastmile_qr_scan", "ios": "https://dc.lft.to/lastmile_qr_scan"}, "fusion_lat": 0.0, "is_reserved": 0, "bike_id": "60b0c52fd4c8e4300a21345a052f53d7", "name": "60b0c52fd4c8e4300a21345a052f53d7", "lon": -77.04932416666666}, {"lat": 38.899229166666665, "is_disabled": 0, "type": "electric_scooter", "fusion_lon": 0.0, "rental_uris": {"android": "https://dc.lft.to/lastmile_qr_scan", "ios": "https://dc.lft.to/lastmile_qr_scan"}, "fusion_lat": 0.0, "is_reserved": 0, "bike_id": "0b3f6ba1b7dd29e9fd577b94385489c8", "name": "0b3f6ba1b7dd29e9fd577b94385489c8", "lon": -76.98273133333333}, {"lat": 38.887607333333335, "is_disabled": 0, "type": "electric_scooter", "fusion_lon": 0.0, "rental_uris": {"android": "https://dc.lft.to/lastmile_qr_scan", "ios": "https://dc.lft.to/lastmile_qr_scan"}, "fusion_lat": 0.0, "is_reserved": 0, "bike_id": "3eec6458beeb0fdcdea653fc4a50cb6b", "name": "3eec6458beeb0fdcdea653fc4a50cb6b", "lon": -76.97933033333334}, {"lat": 38.8076275, "is_disabled": 0, "type": "electric_bike", "fusion_lon": 0.0, "rental_uris": {"android": "https://dc.lft.to/lastmile_qr_scan", "ios": "https://dc.lft.to/lastmile_qr_scan"}, "fusion_lat": 0.0, "is_reserved": 0, "bike_id": "6b69af1bc114fd9f0e55b18d270017a6", "name": "6b69af1bc114fd9f0e55b18d270017a6", "lon": -77.094721}, {"lat": 38.93232716666667, "is_disabled": 0, "type": "electric_scooter", "fusion_lon": 0.0, "rental_uris": {"android": "https://dc.lft.to/lastmile_qr_scan", "ios": "https://dc.lft.to/lastmile_qr_scan"}, "fusion_lat": 0.0, "is_reserved": 0, "bike_id": "aade288055768e298c2b60b8bda2b263", "name": "aade288055768e298c2b60b8bda2b263", "lon": -77.02850766666667}, {"lat": 38.9355355, "is_disabled": 0, "type": "electric_scooter", "fusion_lon": 0.0, "rental_uris": {"android": "https://dc.lft.to/lastmile_qr_scan", "ios": "https://dc.lft.to/lastmile_qr_scan"}, "fusion_lat": 0.0, "is_reserved": 0, "bike_id": "8d4478545032273002fc279aa1be4f7b", "name": "8d4478545032273002fc279aa1be4f7b", "lon": -77.02222383333333}, {"lat": 38.91410916666667, "is_disabled": 0, "type": "electric_scooter", "fusion_lon": 0.0, "rental_uris": {"android": "https://dc.lft.to/lastmile_qr_scan", "ios": "https://dc.lft.to/lastmile_qr_scan"}, "fusion_lat": 0.0, "is_reserved": 0, "bike_id": "0be683dae0d67f585000ee0c0d429e41", "name": "0be683dae0d67f585000ee0c0d429e41", "lon": -77.03262833333334}, {"lat": 38.9182575, "is_disabled": 0, "type": "electric_scooter", "fusion_lon": 0.0, "rental_uris": {"android": "https://dc.lft.to/lastmile_qr_scan", "ios": "https://dc.lft.to/lastmile_qr_scan"}, "fusion_lat": 0.0, "is_reserved": 0, "bike_id": "24162eca6026ae89caf5601d0dcca005", "name": "24162eca6026ae89caf5601d0dcca005", "lon": -77.03440066666667}, {"lat": 38.92355283333333, "is_disabled": 0, "type": "electric_scooter", "fusion_lon": 0.0, "rental_uris": {"android": "https://dc.lft.to/lastmile_qr_scan", "ios": "https://dc.lft.to/lastmile_qr_scan"}, "fusion_lat": 0.0, "is_reserved": 0, "bike_id": "d0334463730e6aba749322c38582fb4b", "name": "d0334463730e6aba749322c38582fb4b", "lon": -77.03290983333333}, {"lat": 38.924217166666665, "is_disabled": 0, "type": "electric_scooter", "fusion_lon": 0.0, "rental_uris": {"android": "https://dc.lft.to/lastmile_qr_scan", "ios": "https://dc.lft.to/lastmile_qr_scan"}, "fusion_lat": 0.0, "is_reserved": 0, "bike_id": "8d645ec9eb9e6ead587d05cf1332c9ef", "name": "8d645ec9eb9e6ead587d05cf1332c9ef", "lon": -77.03547133333333}, {"lat": 38.91504616666667, "is_disabled": 0, "type": "electric_scooter", "fusion_lon": 0.0, "rental_uris": {"android": "https://dc.lft.to/lastmile_qr_scan", "ios": "https://dc.lft.to/lastmile_qr_scan"}, "fusion_lat": 0.0, "is_reserved": 0, "bike_id": "9788437a850b4b992f3f329174d6edc1", "name": "9788437a850b4b992f3f329174d6edc1", "lon": -77.01224633333334}, {"lat": 38.9129185, "is_disabled": 0, "type": "electric_scooter", "fusion_lon": 0.0, "rental_uris": {"android": "https://dc.lft.to/lastmile_qr_scan", "ios": "https://dc.lft.to/lastmile_qr_scan"}, "fusion_lat": 0.0, "is_reserved": 0, "bike_id": "500b1abbd63159fab96190c7be4f5f73", "name": "500b1abbd63159fab96190c7be4f5f73", "lon": -77.03838583333334}, {"lat": 38.9091855, "is_disabled": 0, "type": "electric_scooter", "fusion_lon": 0.0, "rental_uris": {"android": "https://dc.lft.to/lastmile_qr_scan", "ios": "https://dc.lft.to/lastmile_qr_scan"}, "fusion_lat": 0.0, "is_reserved": 0, "bike_id": "3613c28ea2b40db858e4c9083329029d", "name": "3613c28ea2b40db858e4c9083329029d", "lon": -77.0271005}, {"lat": 38.89404583333334, "is_disabled": 0, "type": "electric_scooter", "fusion_lon": 0.0, "rental_uris": {"android": "https://dc.lft.to/lastmile_qr_scan", "ios": "https://dc.lft.to/lastmile_qr_scan"}, "fusion_lat": 0.0, "is_reserved": 0, "bike_id": "3447863323a35f6dd27764b5c7885409", "name": "3447863323a35f6dd27764b5c7885409", "lon": -77.04423033333333}, {"lat": 38.89353283333333, "is_disabled": 0, "type": "electric_scooter", "fusion_lon": 0.0, "rental_uris": {"android": "https://dc.lft.to/lastmile_qr_scan", "ios": "https://dc.lft.to/lastmile_qr_scan"}, "fusion_lat": 0.0, "is_reserved": 0, "bike_id": "fb5d355f98ea8195ce0d95f4081405a4", "name": "fb5d355f98ea8195ce0d95f4081405a4", "lon": -77.02229766666666}, {"lat": 38.91395166666667, "is_disabled": 0, "type": "electric_scooter", "fusion_lon": 0.0, "rental_uris": {"android": "https://dc.lft.to/lastmile_qr_scan", "ios": "https://dc.lft.to/lastmile_qr_scan"}, "fusion_lat": 0.0, "is_reserved": 0, "bike_id": "88cb7023dbbf0eb71da410d5c312dfa3", "name": "88cb7023dbbf0eb71da410d5c312dfa3", "lon": -77.01893583333333}, {"lat": 38.904824166666664, "is_disabled": 0, "type": "electric_scooter", "fusion_lon": 0.0, "rental_uris": {"android": "https://dc.lft.to/lastmile_qr_scan", "ios": "https://dc.lft.to/lastmile_qr_scan"}, "fusion_lat": 0.0, "is_reserved": 0, "bike_id": "ec024da937c9fedc998682ab90c8c3e9", "name": "ec024da937c9fedc998682ab90c8c3e9", "lon": -77.034775}, {"lat": 38.928113, "is_disabled": 0, "type": "electric_scooter", "fusion_lon": 0.0, "rental_uris": {"android": "https://dc.lft.to/lastmile_qr_scan", "ios": "https://dc.lft.to/lastmile_qr_scan"}, "fusion_lat": 0.0, "is_reserved": 0, "bike_id": "2e1a175c63d277f9c6ad15ee59cfa5a5", "name": "2e1a175c63d277f9c6ad15ee59cfa5a5", "lon": -77.026646}, {"lat": 38.87380433333333, "is_disabled": 0, "type": "electric_scooter", "fusion_lon": 0.0, "rental_uris": {"android": "https://dc.lft.to/lastmile_qr_scan", "ios": "https://dc.lft.to/lastmile_qr_scan"}, "fusion_lat": 0.0, "is_reserved": 0, "bike_id": "22c1f610fb64eccedc683dd0c6fe685f", "name": "22c1f610fb64eccedc683dd0c6fe685f", "lon": -77.00128983333333}, {"lat": 38.962553, "is_disabled": 0, "type": "electric_scooter", "fusion_lon": 0.0, "rental_uris": {"android": "https://dc.lft.to/lastmile_qr_scan", "ios": "https://dc.lft.to/lastmile_qr_scan"}, "fusion_lat": 0.0, "is_reserved": 0, "bike_id": "0811a2ef24bd49b0f4f18a81fbf324cd", "name": "0811a2ef24bd49b0f4f18a81fbf324cd", "lon": -77.0277855}, {"lat": 38.938635166666664, "is_disabled": 0, "type": "electric_scooter", "fusion_lon": 0.0, "rental_uris": {"android": "https://dc.lft.to/lastmile_qr_scan", "ios": "https://dc.lft.to/lastmile_qr_scan"}, "fusion_lat": 0.0, "is_reserved": 0, "bike_id": "83627445d1d15478f8a2e1ce95454f4e", "name": "83627445d1d15478f8a2e1ce95454f4e", "lon": -77.02652783333333}, {"lat": 38.960324666666665, "is_disabled": 0, "type": "electric_bike", "fusion_lon": 0.0, "rental_uris": {"android": "https://dc.lft.to/lastmile_qr_scan", "ios": "https://dc.lft.to/lastmile_qr_scan"}, "fusion_lat": 0.0, "is_reserved": 0, "bike_id": "1eacd20a51a3dab08fcfe1aabf52f279", "name": "1eacd20a51a3dab08fcfe1aabf52f279", "lon": -77.03408533333334}, {"lat": 38.85585866666667, "is_disabled": 0, "type": "electric_bike", "fusion_lon": 0.0, "rental_uris": {"android": "https://dc.lft.to/lastmile_qr_scan", "ios": "https://dc.lft.to/lastmile_qr_scan"}, "fusion_lat": 0.0, "is_reserved": 0, "bike_id": "33b2556246030e495dd9f9c827ec9d2f", "name": "33b2556246030e495dd9f9c827ec9d2f", "lon": -77.117701}, {"lat": 38.84509466666667, "is_disabled": 0, "type": "electric_bike", "fusion_lon": 0.0, "rental_uris": {"android": "https://dc.lft.to/lastmile_qr_scan", "ios": "https://dc.lft.to/lastmile_qr_scan"}, "fusion_lat": 0.0, "is_reserved": 0, "bike_id": "f9fa4e5e1e99bd276c5672be810e7082", "name": "f9fa4e5e1e99bd276c5672be810e7082", "lon": -76.993575}, {"lat": 38.91718183333333, "is_disabled": 0, "type": "electric_scooter", "fusion_lon": 0.0, "rental_uris": {"android": "https://dc.lft.to/lastmile_qr_scan", "ios": "https://dc.lft.to/lastmile_qr_scan"}, "fusion_lat": 0.0, "is_reserved": 0, "bike_id": "45b71a384585f811e5ce273e8684da38", "name": "45b71a384585f811e5ce273e8684da38", "lon": -77.04107116666667}, {"lat": 38.915506, "is_disabled": 0, "type": "electric_scooter", "fusion_lon": 0.0, "rental_uris": {"android": "https://dc.lft.to/lastmile_qr_scan", "ios": "https://dc.lft.to/lastmile_qr_scan"}, "fusion_lat": 0.0, "is_reserved": 0, "bike_id": "74a5c931fb7c2b9d498b1a5f3cb6ed79", "name": "74a5c931fb7c2b9d498b1a5f3cb6ed79", "lon": -76.98368616666667}, {"lat": 38.91416866666667, "is_disabled": 0, "type": "electric_scooter", "fusion_lon": 0.0, "rental_uris": {"android": "https://dc.lft.to/lastmile_qr_scan", "ios": "https://dc.lft.to/lastmile_qr_scan"}, "fusion_lat": 0.0, "is_reserved": 0, "bike_id": "d2f6de8221112263ffed508aa9de0525", "name": "d2f6de8221112263ffed508aa9de0525", "lon": -77.0415995}, {"lat": 38.90043266666667, "is_disabled": 0, "type": "electric_scooter", "fusion_lon": 0.0, "rental_uris": {"android": "https://dc.lft.to/lastmile_qr_scan", "ios": "https://dc.lft.to/lastmile_qr_scan"}, "fusion_lat": 0.0, "is_reserved": 0, "bike_id": "6633c7028af724cb3555239fac52eaa1", "name": "6633c7028af724cb3555239fac52eaa1", "lon": -77.039159}, {"lat": 38.8769765, "is_disabled": 0, "type": "electric_bike", "fusion_lon": 0.0, "rental_uris": {"android": "https://dc.lft.to/lastmile_qr_scan", "ios": "https://dc.lft.to/lastmile_qr_scan"}, "fusion_lat": 0.0, "is_reserved": 0, "bike_id": "49a9175dc150e8cc6a0cdeee7adf81d3", "name": "49a9175dc150e8cc6a0cdeee7adf81d3", "lon": -77.00733416666667}, {"lat": 38.897332666666664, "is_disabled": 0, "type": "electric_scooter", "fusion_lon": 0.0, "rental_uris": {"android": "https://dc.lft.to/lastmile_qr_scan", "ios": "https://dc.lft.to/lastmile_qr_scan"}, "fusion_lat": 0.0, "is_reserved": 0, "bike_id": "929b27bed3887ccc4e047db4cf0624fd", "name": "929b27bed3887ccc4e047db4cf0624fd", "lon": -77.043908}, {"lat": 38.9016965, "is_disabled": 0, "type": "electric_scooter", "fusion_lon": 0.0, "rental_uris": {"android": "https://dc.lft.to/lastmile_qr_scan", "ios": "https://dc.lft.to/lastmile_qr_scan"}, "fusion_lat": 0.0, "is_reserved": 0, "bike_id": "4d279176dea11eadf959e1690a249678", "name": "4d279176dea11eadf959e1690a249678", "lon": -77.06015883333333}, {"lat": 38.89228216666667, "is_disabled": 0, "type": "electric_scooter", "fusion_lon": 0.0, "rental_uris": {"android": "https://dc.lft.to/lastmile_qr_scan", "ios": "https://dc.lft.to/lastmile_qr_scan"}, "fusion_lat": 0.0, "is_reserved": 0, "bike_id": "526b0d666583d9e60ce00633a47f155d", "name": "526b0d666583d9e60ce00633a47f155d", "lon": -77.04470466666666}, {"lat": 38.922536666666666, "is_disabled": 0, "type": "electric_scooter", "fusion_lon": 0.0, "rental_uris": {"android": "https://dc.lft.to/lastmile_qr_scan", "ios": "https://dc.lft.to/lastmile_qr_scan"}, "fusion_lat": 0.0, "is_reserved": 0, "bike_id": "6f97fd1067754248fbe70de95acddf37", "name": "6f97fd1067754248fbe70de95acddf37", "lon": -77.019488}, {"lat": 38.9103645, "is_disabled": 0, "type": "electric_scooter", "fusion_lon": 0.0, "rental_uris": {"android": "https://dc.lft.to/lastmile_qr_scan", "ios": "https://dc.lft.to/lastmile_qr_scan"}, "fusion_lat": 0.0, "is_reserved": 0, "bike_id": "bd732195ff4ba0bfffe9f14398958b65", "name": "bd732195ff4ba0bfffe9f14398958b65", "lon": -77.02301733333333}, {"lat": 38.87281316666667, "is_disabled": 0, "type": "electric_bike", "fusion_lon": 0.0, "rental_uris": {"android": "https://dc.lft.to/lastmile_qr_scan", "ios": "https://dc.lft.to/lastmile_qr_scan"}, "fusion_lat": 0.0, "is_reserved": 0, "bike_id": "f60a6fce16742d3b9cab9bd8c8936821", "name": "f60a6fce16742d3b9cab9bd8c8936821", "lon": -77.23329616666666}, {"lat": 38.955259, "is_disabled": 0, "type": "electric_scooter", "fusion_lon": 0.0, "rental_uris": {"android": "https://dc.lft.to/lastmile_qr_scan", "ios": "https://dc.lft.to/lastmile_qr_scan"}, "fusion_lat": 0.0, "is_reserved": 0, "bike_id": "a54d8110b6b1248fabee4ac32ece92cc", "name": "a54d8110b6b1248fabee4ac32ece92cc", "lon": -77.02471966666667}, {"lat": 38.9268005, "is_disabled": 0, "type": "electric_scooter", "fusion_lon": 0.0, "rental_uris": {"android": "https://dc.lft.to/lastmile_qr_scan", "ios": "https://dc.lft.to/lastmile_qr_scan"}, "fusion_lat": 0.0, "is_reserved": 0, "bike_id": "75e648188bfed765bfded9857a77f250", "name": "75e648188bfed765bfded9857a77f250", "lon": -77.02968433333334}, {"lat": 38.872035333333336, "is_disabled": 0, "type": "electric_scooter", "fusion_lon": 0.0, "rental_uris": {"android": "https://dc.lft.to/lastmile_qr_scan", "ios": "https://dc.lft.to/lastmile_qr_scan"}, "fusion_lat": 0.0, "is_reserved": 0, "bike_id": "ee5c80bb023cb6c963787a908240ad0a", "name": "ee5c80bb023cb6c963787a908240ad0a", "lon": -77.00574966666667}, {"lat": 38.892297166666665, "is_disabled": 0, "type": "electric_scooter", "fusion_lon": 0.0, "rental_uris": {"android": "https://dc.lft.to/lastmile_qr_scan", "ios": "https://dc.lft.to/lastmile_qr_scan"}, "fusion_lat": 0.0, "is_reserved": 0, "bike_id": "bdc50649debf99799871298960870272", "name": "bdc50649debf99799871298960870272", "lon": -77.0500315}, {"lat": 38.9051745, "is_disabled": 0, "type": "electric_scooter", "fusion_lon": 0.0, "rental_uris": {"android": "https://dc.lft.to/lastmile_qr_scan", "ios": "https://dc.lft.to/lastmile_qr_scan"}, "fusion_lat": 0.0, "is_reserved": 0, "bike_id": "7ba2bb985ba489dcb30eac58a7d3380d", "name": "7ba2bb985ba489dcb30eac58a7d3380d", "lon": -77.068902}, {"lat": 38.919612, "is_disabled": 0, "type": "electric_scooter", "fusion_lon": 0.0, "rental_uris": {"android": "https://dc.lft.to/lastmile_qr_scan", "ios": "https://dc.lft.to/lastmile_qr_scan"}, "fusion_lat": 0.0, "is_reserved": 0, "bike_id": "75c713359c0397f72a2c46ad2017d9be", "name": "75c713359c0397f72a2c46ad2017d9be", "lon": -77.014359}, {"lat": 38.893693666666664, "is_disabled": 0, "type": "electric_scooter", "fusion_lon": 0.0, "rental_uris": {"android": "https://dc.lft.to/lastmile_qr_scan", "ios": "https://dc.lft.to/lastmile_qr_scan"}, "fusion_lat": 0.0, "is_reserved": 0, "bike_id": "caf3acc80134da90c0bb199dbd7960a8", "name": "caf3acc80134da90c0bb199dbd7960a8", "lon": -76.9482455}, {"lat": 38.9127765, "is_disabled": 0, "type": "electric_scooter", "fusion_lon": 0.0, "rental_uris": {"android": "https://dc.lft.to/lastmile_qr_scan", "ios": "https://dc.lft.to/lastmile_qr_scan"}, "fusion_lat": 0.0, "is_reserved": 0, "bike_id": "3622209a63f014bbbb265ce6c79afac6", "name": "3622209a63f014bbbb265ce6c79afac6", "lon": -77.03854816666667}, {"lat": 38.921508333333335, "is_disabled": 0, "type": "electric_scooter", "fusion_lon": 0.0, "rental_uris": {"android": "https://dc.lft.to/lastmile_qr_scan", "ios": "https://dc.lft.to/lastmile_qr_scan"}, "fusion_lat": 0.0, "is_reserved": 0, "bike_id": "3cb85cb1ea4d6bd9f24cfd157191a3dd", "name": "3cb85cb1ea4d6bd9f24cfd157191a3dd", "lon": -77.042299}, {"lat": 38.924202333333334, "is_disabled": 0, "type": "electric_scooter", "fusion_lon": 0.0, "rental_uris": {"android": "https://dc.lft.to/lastmile_qr_scan", "ios": "https://dc.lft.to/lastmile_qr_scan"}, "fusion_lat": 0.0, "is_reserved": 0, "bike_id": "6f92d3107ad4c5d685d514f777627e94", "name": "6f92d3107ad4c5d685d514f777627e94", "lon": -77.02407683333334}, {"lat": 38.910199, "is_disabled": 0, "type": "electric_bike", "fusion_lon": 0.0, "rental_uris": {"android": "https://dc.lft.to/lastmile_qr_scan", "ios": "https://dc.lft.to/lastmile_qr_scan"}, "fusion_lat": 0.0, "is_reserved": 0, "bike_id": "a08bd1e58f076c18a662343c6d522417", "name": "a08bd1e58f076c18a662343c6d522417", "lon": -77.2279785}, {"lat": 38.92041666666667, "is_disabled": 0, "type": "electric_scooter", "fusion_lon": 0.0, "rental_uris": {"android": "https://dc.lft.to/lastmile_qr_scan", "ios": "https://dc.lft.to/lastmile_qr_scan"}, "fusion_lat": 0.0, "is_reserved": 0, "bike_id": "9d90f3167b7b0c879338ceb8b73c2167", "name": "9d90f3167b7b0c879338ceb8b73c2167", "lon": -77.02355783333333}, {"lat": 38.8922645, "is_disabled": 0, "type": "electric_scooter", "fusion_lon": 0.0, "rental_uris": {"android": "https://dc.lft.to/lastmile_qr_scan", "ios": "https://dc.lft.to/lastmile_qr_scan"}, "fusion_lat": 0.0, "is_reserved": 0, "bike_id": "4f6f7185cc25367df37eaa217b7c804c", "name": "4f6f7185cc25367df37eaa217b7c804c", "lon": -77.0447065}, {"lat": 38.87637566666667, "is_disabled": 0, "type": "electric_scooter", "fusion_lon": 0.0, "rental_uris": {"android": "https://dc.lft.to/lastmile_qr_scan", "ios": "https://dc.lft.to/lastmile_qr_scan"}, "fusion_lat": 0.0, "is_reserved": 0, "bike_id": "96e71d963309f74c49f87a0235df0722", "name": "96e71d963309f74c49f87a0235df0722", "lon": -77.01082416666667}, {"lat": 38.91854166666667, "is_disabled": 0, "type": "electric_scooter", "fusion_lon": 0.0, "rental_uris": {"android": "https://dc.lft.to/lastmile_qr_scan", "ios": "https://dc.lft.to/lastmile_qr_scan"}, "fusion_lat": 0.0, "is_reserved": 0, "bike_id": "8f940276f974dc97d43bc6bc3af4df02", "name": "8f940276f974dc97d43bc6bc3af4df02", "lon": -77.016701}, {"lat": 38.89732733333334, "is_disabled": 0, "type": "electric_scooter", "fusion_lon": 0.0, "rental_uris": {"android": "https://dc.lft.to/lastmile_qr_scan", "ios": "https://dc.lft.to/lastmile_qr_scan"}, "fusion_lat": 0.0, "is_reserved": 0, "bike_id": "2f98ef1ef5d01153498cfa7ce2846f19", "name": "2f98ef1ef5d01153498cfa7ce2846f19", "lon": -77.0272725}, {"lat": 38.8669825, "is_disabled": 0, "type": "electric_scooter", "fusion_lon": 0.0, "rental_uris": {"android": "https://dc.lft.to/lastmile_qr_scan", "ios": "https://dc.lft.to/lastmile_qr_scan"}, "fusion_lat": 0.0, "is_reserved": 0, "bike_id": "adc43b601df9bea662f97bbcef4e6323", "name": "adc43b601df9bea662f97bbcef4e6323", "lon": -76.98593933333333}, {"lat": 38.904593, "is_disabled": 0, "type": "electric_scooter", "fusion_lon": 0.0, "rental_uris": {"android": "https://dc.lft.to/lastmile_qr_scan", "ios": "https://dc.lft.to/lastmile_qr_scan"}, "fusion_lat": 0.0, "is_reserved": 0, "bike_id": "6ac6010e509ca27d65b771cc365afebf", "name": "6ac6010e509ca27d65b771cc365afebf", "lon": -77.03447816666667}, {"lat": 38.898125666666665, "is_disabled": 0, "type": "electric_scooter", "fusion_lon": 0.0, "rental_uris": {"android": "https://dc.lft.to/lastmile_qr_scan", "ios": "https://dc.lft.to/lastmile_qr_scan"}, "fusion_lat": 0.0, "is_reserved": 0, "bike_id": "f28ceeba81768e21b6cea320fccf42bb", "name": "f28ceeba81768e21b6cea320fccf42bb", "lon": -77.033499}, {"lat": 38.892245, "is_disabled": 0, "type": "electric_scooter", "fusion_lon": 0.0, "rental_uris": {"android": "https://dc.lft.to/lastmile_qr_scan", "ios": "https://dc.lft.to/lastmile_qr_scan"}, "fusion_lat": 0.0, "is_reserved": 0, "bike_id": "106ace80d3bbbbcb65327b1b5954326d", "name": "106ace80d3bbbbcb65327b1b5954326d", "lon": -77.02236233333333}, {"lat": 38.892276833333334, "is_disabled": 0, "type": "electric_scooter", "fusion_lon": 0.0, "rental_uris": {"android": "https://dc.lft.to/lastmile_qr_scan", "ios": "https://dc.lft.to/lastmile_qr_scan"}, "fusion_lat": 0.0, "is_reserved": 0, "bike_id": "da89f92648a7fbaa5b5c93d7ea02e531", "name": "da89f92648a7fbaa5b5c93d7ea02e531", "lon": -77.05003066666667}, {"lat": 38.897494, "is_disabled": 0, "type": "electric_scooter", "fusion_lon": 0.0, "rental_uris": {"android": "https://dc.lft.to/lastmile_qr_scan", "ios": "https://dc.lft.to/lastmile_qr_scan"}, "fusion_lat": 0.0, "is_reserved": 0, "bike_id": "13d3600ef60925769d5f2c11b3bb59f1", "name": "13d3600ef60925769d5f2c11b3bb59f1", "lon": -77.013603}, {"lat": 38.87284833333333, "is_disabled": 0, "type": "electric_bike", "fusion_lon": 0.0, "rental_uris": {"android": "https://dc.lft.to/lastmile_qr_scan", "ios": "https://dc.lft.to/lastmile_qr_scan"}, "fusion_lat": 0.0, "is_reserved": 0, "bike_id": "73b65d1fc4a1c448b810793a2c17b38e", "name": "73b65d1fc4a1c448b810793a2c17b38e", "lon": -77.23317016666667}, {"lat": 38.865391, "is_disabled": 0, "type": "electric_scooter", "fusion_lon": 0.0, "rental_uris": {"android": "https://dc.lft.to/lastmile_qr_scan", "ios": "https://dc.lft.to/lastmile_qr_scan"}, "fusion_lat": 0.0, "is_reserved": 0, "bike_id": "2598ebacd0dd1942c36bed1a91cc77d3", "name": "2598ebacd0dd1942c36bed1a91cc77d3", "lon": -76.98706083333333}, {"lat": 38.927506, "is_disabled": 0, "type": "electric_scooter", "fusion_lon": 0.0, "rental_uris": {"android": "https://dc.lft.to/lastmile_qr_scan", "ios": "https://dc.lft.to/lastmile_qr_scan"}, "fusion_lat": 0.0, "is_reserved": 0, "bike_id": "28f6ce39f3e9b584885dcb81a6559cef", "name": "28f6ce39f3e9b584885dcb81a6559cef", "lon": -77.03560783333333}, {"lat": 38.887287, "is_disabled": 0, "type": "electric_scooter", "fusion_lon": 0.0, "rental_uris": {"android": "https://dc.lft.to/lastmile_qr_scan", "ios": "https://dc.lft.to/lastmile_qr_scan"}, "fusion_lat": 0.0, "is_reserved": 0, "bike_id": "87910b655843b6e39f7dfd21979c2b08", "name": "87910b655843b6e39f7dfd21979c2b08", "lon": -77.02845333333333}, {"lat": 38.942226833333336, "is_disabled": 0, "type": "electric_bike", "fusion_lon": 0.0, "rental_uris": {"android": "https://dc.lft.to/lastmile_qr_scan", "ios": "https://dc.lft.to/lastmile_qr_scan"}, "fusion_lat": 0.0, "is_reserved": 0, "bike_id": "e598e101a40417173a585fd53f7ec852", "name": "e598e101a40417173a585fd53f7ec852", "lon": -76.96618366666667}, {"lat": 38.91671816666667, "is_disabled": 0, "type": "electric_scooter", "fusion_lon": 0.0, "rental_uris": {"android": "https://dc.lft.to/lastmile_qr_scan", "ios": "https://dc.lft.to/lastmile_qr_scan"}, "fusion_lat": 0.0, "is_reserved": 0, "bike_id": "6362ba5fb6479dc95a2422a5fb48b054", "name": "6362ba5fb6479dc95a2422a5fb48b054", "lon": -77.02947116666667}, {"lat": 38.922248333333336, "is_disabled": 0, "type": "electric_scooter", "fusion_lon": 0.0, "rental_uris": {"android": "https://dc.lft.to/lastmile_qr_scan", "ios": "https://dc.lft.to/lastmile_qr_scan"}, "fusion_lat": 0.0, "is_reserved": 0, "bike_id": "7cbfaa39ddc5939ec3bdfe3fd0c67c5f", "name": "7cbfaa39ddc5939ec3bdfe3fd0c67c5f", "lon": -77.0424295}, {"lat": 38.93067466666667, "is_disabled": 0, "type": "electric_scooter", "fusion_lon": 0.0, "rental_uris": {"android": "https://dc.lft.to/lastmile_qr_scan", "ios": "https://dc.lft.to/lastmile_qr_scan"}, "fusion_lat": 0.0, "is_reserved": 0, "bike_id": "b3e0e61be055126ab7c4e048385bc6b9", "name": "b3e0e61be055126ab7c4e048385bc6b9", "lon": -77.05847183333333}, {"lat": 38.96221466666667, "is_disabled": 0, "type": "electric_bike", "fusion_lon": 0.0, "rental_uris": {"android": "https://dc.lft.to/lastmile_qr_scan", "ios": "https://dc.lft.to/lastmile_qr_scan"}, "fusion_lat": 0.0, "is_reserved": 0, "bike_id": "78931d00c862b651b93aa83d0ddfeaad", "name": "78931d00c862b651b93aa83d0ddfeaad", "lon": -77.02626216666667}, {"lat": 38.8668715, "is_disabled": 0, "type": "electric_scooter", "fusion_lon": 0.0, "rental_uris": {"android": "https://dc.lft.to/lastmile_qr_scan", "ios": "https://dc.lft.to/lastmile_qr_scan"}, "fusion_lat": 0.0, "is_reserved": 0, "bike_id": "731e3f13b9bbb510cc75d136dfc86e4d", "name": "731e3f13b9bbb510cc75d136dfc86e4d", "lon": -76.98595716666667}, {"lat": 38.910521833333334, "is_disabled": 0, "type": "electric_scooter", "fusion_lon": 0.0, "rental_uris": {"android": "https://dc.lft.to/lastmile_qr_scan", "ios": "https://dc.lft.to/lastmile_qr_scan"}, "fusion_lat": 0.0, "is_reserved": 0, "bike_id": "5219943dc2877cc939292411d5fed23f", "name": "5219943dc2877cc939292411d5fed23f", "lon": -77.04397716666666}, {"lat": 38.888391166666665, "is_disabled": 0, "type": "electric_scooter", "fusion_lon": 0.0, "rental_uris": {"android": "https://dc.lft.to/lastmile_qr_scan", "ios": "https://dc.lft.to/lastmile_qr_scan"}, "fusion_lat": 0.0, "is_reserved": 0, "bike_id": "65f58fd40e7650c0d8f7ff83e50ec58e", "name": "65f58fd40e7650c0d8f7ff83e50ec58e", "lon": -76.99368533333333}, {"lat": 38.8860575, "is_disabled": 0, "type": "electric_scooter", "fusion_lon": 0.0, "rental_uris": {"android": "https://dc.lft.to/lastmile_qr_scan", "ios": "https://dc.lft.to/lastmile_qr_scan"}, "fusion_lat": 0.0, "is_reserved": 0, "bike_id": "9f7401084fe6e473473970d59cbc72ba", "name": "9f7401084fe6e473473970d59cbc72ba", "lon": -76.99482083333334}, {"lat": 38.8974385, "is_disabled": 0, "type": "electric_scooter", "fusion_lon": 0.0, "rental_uris": {"android": "https://dc.lft.to/lastmile_qr_scan", "ios": "https://dc.lft.to/lastmile_qr_scan"}, "fusion_lat": 0.0, "is_reserved": 0, "bike_id": "2810fc5dda040603d1a340baf80089b6", "name": "2810fc5dda040603d1a340baf80089b6", "lon": -77.01318}, {"lat": 38.92743333333333, "is_disabled": 0, "type": "electric_scooter", "fusion_lon": 0.0, "rental_uris": {"android": "https://dc.lft.to/lastmile_qr_scan", "ios": "https://dc.lft.to/lastmile_qr_scan"}, "fusion_lat": 0.0, "is_reserved": 0, "bike_id": "e44764f82aa1709b3bc31d89940fd256", "name": "e44764f82aa1709b3bc31d89940fd256", "lon": -77.0253605}, {"lat": 38.9197095, "is_disabled": 0, "type": "electric_bike", "fusion_lon": 0.0, "rental_uris": {"android": "https://dc.lft.to/lastmile_qr_scan", "ios": "https://dc.lft.to/lastmile_qr_scan"}, "fusion_lat": 0.0, "is_reserved": 0, "bike_id": "4460fdcf0fc6afb74230dcc25a6748f3", "name": "4460fdcf0fc6afb74230dcc25a6748f3", "lon": -77.04380516666667}, {"lat": 38.87656883333333, "is_disabled": 0, "type": "electric_scooter", "fusion_lon": 0.0, "rental_uris": {"android": "https://dc.lft.to/lastmile_qr_scan", "ios": "https://dc.lft.to/lastmile_qr_scan"}, "fusion_lat": 0.0, "is_reserved": 0, "bike_id": "aca02c45ce709596b787c20da0430d88", "name": "aca02c45ce709596b787c20da0430d88", "lon": -77.00731983333333}, {"lat": 38.8655525, "is_disabled": 0, "type": "electric_scooter", "fusion_lon": 0.0, "rental_uris": {"android": "https://dc.lft.to/lastmile_qr_scan", "ios": "https://dc.lft.to/lastmile_qr_scan"}, "fusion_lat": 0.0, "is_reserved": 0, "bike_id": "519f143bd2db62cea2bfedb597499b00", "name": "519f143bd2db62cea2bfedb597499b00", "lon": -76.9892395}, {"lat": 38.92138533333333, "is_disabled": 0, "type": "electric_scooter", "fusion_lon": 0.0, "rental_uris": {"android": "https://dc.lft.to/lastmile_qr_scan", "ios": "https://dc.lft.to/lastmile_qr_scan"}, "fusion_lat": 0.0, "is_reserved": 0, "bike_id": "7e997213acb2363654de57ef4f45bfd4", "name": "7e997213acb2363654de57ef4f45bfd4", "lon": -77.02875583333334}, {"lat": 38.923632, "is_disabled": 0, "type": "electric_scooter", "fusion_lon": 0.0, "rental_uris": {"android": "https://dc.lft.to/lastmile_qr_scan", "ios": "https://dc.lft.to/lastmile_qr_scan"}, "fusion_lat": 0.0, "is_reserved": 0, "bike_id": "43dc5a8a92d45db815fe5a50451b23a3", "name": "43dc5a8a92d45db815fe5a50451b23a3", "lon": -77.05048433333333}, {"lat": 38.812043, "is_disabled": 0, "type": "electric_bike", "fusion_lon": 0.0, "rental_uris": {"android": "https://dc.lft.to/lastmile_qr_scan", "ios": "https://dc.lft.to/lastmile_qr_scan"}, "fusion_lat": 0.0, "is_reserved": 0, "bike_id": "7c1e62af90f7fce199e954c28dbd3e78", "name": "7c1e62af90f7fce199e954c28dbd3e78", "lon": -77.10834433333333}, {"lat": 38.938578666666665, "is_disabled": 0, "type": "electric_scooter", "fusion_lon": 0.0, "rental_uris": {"android": "https://dc.lft.to/lastmile_qr_scan", "ios": "https://dc.lft.to/lastmile_qr_scan"}, "fusion_lat": 0.0, "is_reserved": 0, "bike_id": "8836452f4f6b1c9aa19cc527658a701a", "name": "8836452f4f6b1c9aa19cc527658a701a", "lon": -77.02459633333333}, {"lat": 38.83161483333333, "is_disabled": 0, "type": "electric_bike", "fusion_lon": 0.0, "rental_uris": {"android": "https://dc.lft.to/lastmile_qr_scan", "ios": "https://dc.lft.to/lastmile_qr_scan"}, "fusion_lat": 0.0, "is_reserved": 0, "bike_id": "f24c5c64b0a795019da4bad9393dd8c4", "name": "f24c5c64b0a795019da4bad9393dd8c4", "lon": -76.995423}, {"lat": 38.89175783333334, "is_disabled": 0, "type": "electric_scooter", "fusion_lon": 0.0, "rental_uris": {"android": "https://dc.lft.to/lastmile_qr_scan", "ios": "https://dc.lft.to/lastmile_qr_scan"}, "fusion_lat": 0.0, "is_reserved": 0, "bike_id": "cc78aea0283cc98f4b998ecb560af74c", "name": "cc78aea0283cc98f4b998ecb560af74c", "lon": -76.99025466666667}, {"lat": 38.923029, "is_disabled": 0, "type": "electric_scooter", "fusion_lon": 0.0, "rental_uris": {"android": "https://dc.lft.to/lastmile_qr_scan", "ios": "https://dc.lft.to/lastmile_qr_scan"}, "fusion_lat": 0.0, "is_reserved": 0, "bike_id": "2c6c4084883ab3acfd0fedbfaf13990c", "name": "2c6c4084883ab3acfd0fedbfaf13990c", "lon": -77.04271166666666}, {"lat": 38.935085, "is_disabled": 0, "type": "electric_scooter", "fusion_lon": 0.0, "rental_uris": {"android": "https://dc.lft.to/lastmile_qr_scan", "ios": "https://dc.lft.to/lastmile_qr_scan"}, "fusion_lat": 0.0, "is_reserved": 0, "bike_id": "acd9ca6fe652fc67154bce221dce0559", "name": "acd9ca6fe652fc67154bce221dce0559", "lon": -77.05807633333333}, {"lat": 38.959619, "is_disabled": 0, "type": "electric_bike", "fusion_lon": 0.0, "rental_uris": {"android": "https://dc.lft.to/lastmile_qr_scan", "ios": "https://dc.lft.to/lastmile_qr_scan"}, "fusion_lat": 0.0, "is_reserved": 0, "bike_id": "506492134d2ec7d82102db96aa226b2d", "name": "506492134d2ec7d82102db96aa226b2d", "lon": -77.100894}, {"lat": 38.9036725, "is_disabled": 0, "type": "electric_scooter", "fusion_lon": 0.0, "rental_uris": {"android": "https://dc.lft.to/lastmile_qr_scan", "ios": "https://dc.lft.to/lastmile_qr_scan"}, "fusion_lat": 0.0, "is_reserved": 0, "bike_id": "80d2b55f6ceb75052907c7087cb549ed", "name": "80d2b55f6ceb75052907c7087cb549ed", "lon": -77.01848466666667}, {"lat": 38.897346166666665, "is_disabled": 0, "type": "electric_scooter", "fusion_lon": 0.0, "rental_uris": {"android": "https://dc.lft.to/lastmile_qr_scan", "ios": "https://dc.lft.to/lastmile_qr_scan"}, "fusion_lat": 0.0, "is_reserved": 0, "bike_id": "43c2f0e1e0a6b314ea45866405a8b4ba", "name": "43c2f0e1e0a6b314ea45866405a8b4ba", "lon": -77.04365166666666}, {"lat": 38.962234, "is_disabled": 0, "type": "electric_bike", "fusion_lon": 0.0, "rental_uris": {"android": "https://dc.lft.to/lastmile_qr_scan", "ios": "https://dc.lft.to/lastmile_qr_scan"}, "fusion_lat": 0.0, "is_reserved": 0, "bike_id": "59f59db75c9c8e78eccb76d07168104a", "name": "59f59db75c9c8e78eccb76d07168104a", "lon": -77.0262445}, {"lat": 38.88461083333333, "is_disabled": 0, "type": "electric_scooter", "fusion_lon": 0.0, "rental_uris": {"android": "https://dc.lft.to/lastmile_qr_scan", "ios": "https://dc.lft.to/lastmile_qr_scan"}, "fusion_lat": 0.0, "is_reserved": 0, "bike_id": "475ed69e11e89e76d54ab792c0ee09c0", "name": "475ed69e11e89e76d54ab792c0ee09c0", "lon": -76.92623766666667}, {"lat": 38.923379, "is_disabled": 0, "type": "electric_scooter", "fusion_lon": 0.0, "rental_uris": {"android": "https://dc.lft.to/lastmile_qr_scan", "ios": "https://dc.lft.to/lastmile_qr_scan"}, "fusion_lat": 0.0, "is_reserved": 0, "bike_id": "f8b2e9400936806c1d927a13571799b3", "name": "f8b2e9400936806c1d927a13571799b3", "lon": -77.02117783333334}, {"lat": 38.93869466666666, "is_disabled": 0, "type": "electric_bike", "fusion_lon": 0.0, "rental_uris": {"android": "https://dc.lft.to/lastmile_qr_scan", "ios": "https://dc.lft.to/lastmile_qr_scan"}, "fusion_lat": 0.0, "is_reserved": 0, "bike_id": "fd03472bda1c9857f49eb1b4276e7780", "name": "fd03472bda1c9857f49eb1b4276e7780", "lon": -76.942935}, {"lat": 38.929686833333335, "is_disabled": 0, "type": "electric_bike", "fusion_lon": 0.0, "rental_uris": {"android": "https://dc.lft.to/lastmile_qr_scan", "ios": "https://dc.lft.to/lastmile_qr_scan"}, "fusion_lat": 0.0, "is_reserved": 0, "bike_id": "f7ba9dff52977ef9d2f7ed6ef974f039", "name": "f7ba9dff52977ef9d2f7ed6ef974f039", "lon": -77.18563416666667}, {"lat": 38.896302666666664, "is_disabled": 0, "type": "electric_scooter", "fusion_lon": 0.0, "rental_uris": {"android": "https://dc.lft.to/lastmile_qr_scan", "ios": "https://dc.lft.to/lastmile_qr_scan"}, "fusion_lat": 0.0, "is_reserved": 0, "bike_id": "400fdb92b839f99855ea2a1984784d81", "name": "400fdb92b839f99855ea2a1984784d81", "lon": -77.03956966666667}, {"lat": 38.95332283333333, "is_disabled": 0, "type": "electric_bike", "fusion_lon": 0.0, "rental_uris": {"android": "https://dc.lft.to/lastmile_qr_scan", "ios": "https://dc.lft.to/lastmile_qr_scan"}, "fusion_lat": 0.0, "is_reserved": 0, "bike_id": "d30657075018815ba95734332c1e91db", "name": "d30657075018815ba95734332c1e91db", "lon": -76.982398}, {"lat": 38.954413, "is_disabled": 0, "type": "electric_bike", "fusion_lon": 0.0, "rental_uris": {"android": "https://dc.lft.to/lastmile_qr_scan", "ios": "https://dc.lft.to/lastmile_qr_scan"}, "fusion_lat": 0.0, "is_reserved": 0, "bike_id": "eb98ba0250ead9e518f33bd7e5df1caa", "name": "eb98ba0250ead9e518f33bd7e5df1caa", "lon": -76.98916733333333}, {"lat": 38.93169866666667, "is_disabled": 0, "type": "electric_bike", "fusion_lon": 0.0, "rental_uris": {"android": "https://dc.lft.to/lastmile_qr_scan", "ios": "https://dc.lft.to/lastmile_qr_scan"}, "fusion_lat": 0.0, "is_reserved": 0, "bike_id": "e6acd1c67b7c9d94b95f1e57ef274910", "name": "e6acd1c67b7c9d94b95f1e57ef274910", "lon": -76.88401683333333}, {"lat": 39.0550205, "is_disabled": 0, "type": "electric_bike", "fusion_lon": 0.0, "rental_uris": {"android": "https://dc.lft.to/lastmile_qr_scan", "ios": "https://dc.lft.to/lastmile_qr_scan"}, "fusion_lat": 0.0, "is_reserved": 0, "bike_id": "c7f86c39baf3d62e1bb903da161e281c", "name": "c7f86c39baf3d62e1bb903da161e281c", "lon": -77.046494}, {"lat": 38.952968, "is_disabled": 0, "type": "electric_scooter", "fusion_lon": 0.0, "rental_uris": {"android": "https://dc.lft.to/lastmile_qr_scan", "ios": "https://dc.lft.to/lastmile_qr_scan"}, "fusion_lat": 0.0, "is_reserved": 0, "bike_id": "4701425040ec1ec93d5687c2ecf9bec7", "name": "4701425040ec1ec93d5687c2ecf9bec7", "lon": -77.00296866666666}, {"lat": 38.89226566666667, "is_disabled": 0, "type": "electric_scooter", "fusion_lon": 0.0, "rental_uris": {"android": "https://dc.lft.to/lastmile_qr_scan", "ios": "https://dc.lft.to/lastmile_qr_scan"}, "fusion_lat": 0.0, "is_reserved": 0, "bike_id": "a60f1ceb66aace31a6d38ca55c2074da", "name": "a60f1ceb66aace31a6d38ca55c2074da", "lon": -77.0278395}, {"lat": 38.901086666666664, "is_disabled": 0, "type": "electric_scooter", "fusion_lon": 0.0, "rental_uris": {"android": "https://dc.lft.to/lastmile_qr_scan", "ios": "https://dc.lft.to/lastmile_qr_scan"}, "fusion_lat": 0.0, "is_reserved": 0, "bike_id": "a15d52f4095750741b0b2cde738cf998", "name": "a15d52f4095750741b0b2cde738cf998", "lon": -77.04477033333333}, {"lat": 38.9105165, "is_disabled": 0, "type": "electric_scooter", "fusion_lon": 0.0, "rental_uris": {"android": "https://dc.lft.to/lastmile_qr_scan", "ios": "https://dc.lft.to/lastmile_qr_scan"}, "fusion_lat": 0.0, "is_reserved": 0, "bike_id": "e9bde842d0600501fcc9614318caaf1e", "name": "e9bde842d0600501fcc9614318caaf1e", "lon": -77.03188433333334}, {"lat": 38.93342466666667, "is_disabled": 0, "type": "electric_scooter", "fusion_lon": 0.0, "rental_uris": {"android": "https://dc.lft.to/lastmile_qr_scan", "ios": "https://dc.lft.to/lastmile_qr_scan"}, "fusion_lat": 0.0, "is_reserved": 0, "bike_id": "5edae741ddc9e1248b02d7fe08aea01c", "name": "5edae741ddc9e1248b02d7fe08aea01c", "lon": -77.02624283333333}, {"lat": 38.9447915, "is_disabled": 0, "type": "electric_bike", "fusion_lon": 0.0, "rental_uris": {"android": "https://dc.lft.to/lastmile_qr_scan", "ios": "https://dc.lft.to/lastmile_qr_scan"}, "fusion_lat": 0.0, "is_reserved": 0, "bike_id": "607fd954cf20388154b6046ede1554ec", "name": "607fd954cf20388154b6046ede1554ec", "lon": -77.023038}, {"lat": 38.92576433333333, "is_disabled": 0, "type": "electric_scooter", "fusion_lon": 0.0, "rental_uris": {"android": "https://dc.lft.to/lastmile_qr_scan", "ios": "https://dc.lft.to/lastmile_qr_scan"}, "fusion_lat": 0.0, "is_reserved": 0, "bike_id": "66a7456986709d2cc3d3de16bde44d29", "name": "66a7456986709d2cc3d3de16bde44d29", "lon": -77.03804933333333}, {"lat": 38.89221166666667, "is_disabled": 0, "type": "electric_scooter", "fusion_lon": 0.0, "rental_uris": {"android": "https://dc.lft.to/lastmile_qr_scan", "ios": "https://dc.lft.to/lastmile_qr_scan"}, "fusion_lat": 0.0, "is_reserved": 0, "bike_id": "8e87abead271fbb052e7bf7ea9467d8e", "name": "8e87abead271fbb052e7bf7ea9467d8e", "lon": -77.03184916666666}, {"lat": 38.891718166666664, "is_disabled": 0, "type": "electric_scooter", "fusion_lon": 0.0, "rental_uris": {"android": "https://dc.lft.to/lastmile_qr_scan", "ios": "https://dc.lft.to/lastmile_qr_scan"}, "fusion_lat": 0.0, "is_reserved": 0, "bike_id": "7f4097143703ef34d272e7c3cca68029", "name": "7f4097143703ef34d272e7c3cca68029", "lon": -76.95189883333333}, {"lat": 38.918294333333336, "is_disabled": 0, "type": "electric_scooter", "fusion_lon": 0.0, "rental_uris": {"android": "https://dc.lft.to/lastmile_qr_scan", "ios": "https://dc.lft.to/lastmile_qr_scan"}, "fusion_lat": 0.0, "is_reserved": 0, "bike_id": "e34691f74eeca836e86c6f433f10390c", "name": "e34691f74eeca836e86c6f433f10390c", "lon": -77.03945366666666}, {"lat": 38.933666833333334, "is_disabled": 0, "type": "electric_scooter", "fusion_lon": 0.0, "rental_uris": {"android": "https://dc.lft.to/lastmile_qr_scan", "ios": "https://dc.lft.to/lastmile_qr_scan"}, "fusion_lat": 0.0, "is_reserved": 0, "bike_id": "bdfaedd031f02999f936d9962754e521", "name": "bdfaedd031f02999f936d9962754e521", "lon": -77.05731283333333}, {"lat": 38.90018933333333, "is_disabled": 0, "type": "electric_scooter", "fusion_lon": 0.0, "rental_uris": {"android": "https://dc.lft.to/lastmile_qr_scan", "ios": "https://dc.lft.to/lastmile_qr_scan"}, "fusion_lat": 0.0, "is_reserved": 0, "bike_id": "ade9450039856111ef3382fbe742acd6", "name": "ade9450039856111ef3382fbe742acd6", "lon": -77.01193066666667}, {"lat": 38.92249233333333, "is_disabled": 0, "type": "electric_scooter", "fusion_lon": 0.0, "rental_uris": {"android": "https://dc.lft.to/lastmile_qr_scan", "ios": "https://dc.lft.to/lastmile_qr_scan"}, "fusion_lat": 0.0, "is_reserved": 0, "bike_id": "18ba8a89d1bc1c9bac00ba1915b5992a", "name": "18ba8a89d1bc1c9bac00ba1915b5992a", "lon": -77.03074}, {"lat": 38.95334483333333, "is_disabled": 0, "type": "electric_scooter", "fusion_lon": 0.0, "rental_uris": {"android": "https://dc.lft.to/lastmile_qr_scan", "ios": "https://dc.lft.to/lastmile_qr_scan"}, "fusion_lat": 0.0, "is_reserved": 0, "bike_id": "3070357b27221b930c3cb520abee7aef", "name": "3070357b27221b930c3cb520abee7aef", "lon": -76.999744}, {"lat": 38.888543, "is_disabled": 0, "type": "electric_bike", "fusion_lon": 0.0, "rental_uris": {"android": "https://dc.lft.to/lastmile_qr_scan", "ios": "https://dc.lft.to/lastmile_qr_scan"}, "fusion_lat": 0.0, "is_reserved": 0, "bike_id": "c512d50d00d0ce5edd5d82304c106fce", "name": "c512d50d00d0ce5edd5d82304c106fce", "lon": -77.08159483333333}, {"lat": 38.93019866666667, "is_disabled": 0, "type": "electric_scooter", "fusion_lon": 0.0, "rental_uris": {"android": "https://dc.lft.to/lastmile_qr_scan", "ios": "https://dc.lft.to/lastmile_qr_scan"}, "fusion_lat": 0.0, "is_reserved": 0, "bike_id": "89f655e7c67f8006d4156afc9bf70f92", "name": "89f655e7c67f8006d4156afc9bf70f92", "lon": -77.0378565}, {"lat": 38.88039933333334, "is_disabled": 0, "type": "electric_scooter", "fusion_lon": 0.0, "rental_uris": {"android": "https://dc.lft.to/lastmile_qr_scan", "ios": "https://dc.lft.to/lastmile_qr_scan"}, "fusion_lat": 0.0, "is_reserved": 0, "bike_id": "bd203d759d9b7a6cdba917e576d9c15d", "name": "bd203d759d9b7a6cdba917e576d9c15d", "lon": -77.03078033333334}, {"lat": 38.8788145, "is_disabled": 0, "type": "electric_scooter", "fusion_lon": 0.0, "rental_uris": {"android": "https://dc.lft.to/lastmile_qr_scan", "ios": "https://dc.lft.to/lastmile_qr_scan"},