{"data": {"bikes": [{"rental_uris": {"ios": "https://dc.lft.to/lastmile_qr_scan", "android": "https://dc.lft.to/lastmile_qr_scan"}, "lon": -77.04290333333333, "type": "electric_scooter", "fusion_lat": 0.0, "lat": 38.895344333333334, "name": "d3fa287a2baddc105f91d8017bae4820", "fusion_lon": 0.0, "bike_id": "d3fa287a2baddc105f91d8017bae4820", "is_disabled": 0, "is_reserved": 0}, {"rental_uris": {"ios": "https://dc.lft.to/lastmile_qr_scan", "android": "https://dc.lft.to/lastmile_qr_scan"}, "lon": -77.05276033333334, "type": "electric_scooter", "fusion_lat": 0.0, "lat": 38.934362166666666, "name": "186c865d64864e57822fdefc14a703fb", "fusion_lon": 0.0, "bike_id": "186c865d64864e57822fdefc14a703fb", "is_disabled": 0, "is_reserved": 0}, {"rental_uris": {"ios": "https://dc.lft.to/lastmile_qr_scan", "android": "https://dc.lft.to/lastmile_qr_scan"}, "lon": -77.03454783333333, "type": "electric_scooter", "fusion_lat": 0.0, "lat": 38.91001633333333, "name": "771910b7d16a4a9bbd6f716e5f0146ea", "fusion_lon": 0.0, "bike_id": "771910b7d16a4a9bbd6f716e5f0146ea", "is_disabled": 0, "is_reserved": 0}, {"rental_uris": {"ios": "https://dc.lft.to/lastmile_qr_scan", "android": "https://dc.lft.to/lastmile_qr_scan"}, "lon": -77.04416566666667, "type": "electric_scooter", "fusion_lat": 0.0, "lat": 38.91315433333333, "name": "993225d800183ffaf9f1a34e0f03d64e", "fusion_lon": 0.0, "bike_id": "993225d800183ffaf9f1a34e0f03d64e", "is_disabled": 0, "is_reserved": 0}, {"rental_uris": {"ios": "https://dc.lft.to/lastmile_qr_scan", "android": "https://dc.lft.to/lastmile_qr_scan"}, "lon": -77.023328, "type": "electric_scooter", "fusion_lat": 0.0, "lat": 38.92890716666667, "name": "267539f1f4451856cb85fbbd2be96d12", "fusion_lon": 0.0, "bike_id": "267539f1f4451856cb85fbbd2be96d12", "is_disabled": 0, "is_reserved": 0}, {"rental_uris": {"ios": "https://dc.lft.to/lastmile_qr_scan", "android": "https://dc.lft.to/lastmile_qr_scan"}, "lon": -77.013136, "type": "electric_scooter", "fusion_lat": 0.0, "lat": 38.89744116666667, "name": "889df670fde1ddcfb9968e899bcff6e1", "fusion_lon": 0.0, "bike_id": "889df670fde1ddcfb9968e899bcff6e1", "is_disabled": 0, "is_reserved": 0}, {"rental_uris": {"ios": "https://dc.lft.to/lastmile_qr_scan", "android": "https://dc.lft.to/lastmile_qr_scan"}, "lon": -77.02469283333333, "type": "electric_scooter", "fusion_lat": 0.0, "lat": 38.936338666666664, "name": "a0a83eeaeacdbc5993768f10d037eb03", "fusion_lon": 0.0, "bike_id": "a0a83eeaeacdbc5993768f10d037eb03", "is_disabled": 0, "is_reserved": 0}, {"rental_uris": {"ios": "https://dc.lft.to/lastmile_qr_scan", "android": "https://dc.lft.to/lastmile_qr_scan"}, "lon": -76.98000366666666, "type": "electric_bike", "fusion_lat": 0.0, "lat": 38.90019916666667, "name": "40c881ea4b26884e66dcece265a0a711", "fusion_lon": 0.0, "bike_id": "40c881ea4b26884e66dcece265a0a711", "is_disabled": 0, "is_reserved": 0}, {"rental_uris": {"ios": "https://dc.lft.to/lastmile_qr_scan", "android": "https://dc.lft.to/lastmile_qr_scan"}, "lon": -76.95189516666667, "type": "electric_bike", "fusion_lat": 0.0, "lat": 38.906867166666665, "name": "02e4279ea4fd31dd825046f1ec061e7d", "fusion_lon": 0.0, "bike_id": "02e4279ea4fd31dd825046f1ec061e7d", "is_disabled": 0, "is_reserved": 0}, {"rental_uris": {"ios": "https://dc.lft.to/lastmile_qr_scan", "android": "https://dc.lft.to/lastmile_qr_scan"}, "lon": -77.03247766666667, "type": "electric_scooter", "fusion_lat": 0.0, "lat": 38.93381983333333, "name": "0f35a34959155f6ab81c9e33ea55e61d", "fusion_lon": 0.0, "bike_id": "0f35a34959155f6ab81c9e33ea55e61d", "is_disabled": 0, "is_reserved": 0}, {"rental_uris": {"ios": "https://dc.lft.to/lastmile_qr_scan", "android": "https://dc.lft.to/lastmile_qr_scan"}, "lon": -76.95905516666667, "type": "electric_scooter", "fusion_lat": 0.0, "lat": 38.9269525, "name": "826750cb38e986050e377ee424862b23", "fusion_lon": 0.0, "bike_id": "826750cb38e986050e377ee424862b23", "is_disabled": 0, "is_reserved": 0}, {"rental_uris": {"ios": "https://dc.lft.to/lastmile_qr_scan", "android": "https://dc.lft.to/lastmile_qr_scan"}, "lon": -77.03301733333333, "type": "electric_scooter", "fusion_lat": 0.0, "lat": 38.9084405, "name": "d365ba0dedb23ca1a5aece7fd76d7e19", "fusion_lon": 0.0, "bike_id": "d365ba0dedb23ca1a5aece7fd76d7e19", "is_disabled": 0, "is_reserved": 0}, {"rental_uris": {"ios": "https://dc.lft.to/lastmile_qr_scan", "android": "https://dc.lft.to/lastmile_qr_scan"}, "lon": -77.01385033333334, "type": "electric_scooter", "fusion_lat": 0.0, "lat": 38.88657383333333, "name": "e80d541c4327623b132aea15e3132e68", "fusion_lon": 0.0, "bike_id": "e80d541c4327623b132aea15e3132e68", "is_disabled": 0, "is_reserved": 0}, {"rental_uris": {"ios": "https://dc.lft.to/lastmile_qr_scan", "android": "https://dc.lft.to/lastmile_qr_scan"}, "lon": -76.93176433333333, "type": "electric_scooter", "fusion_lat": 0.0, "lat": 38.8988605, "name": "a395a0f1a802873870c0492fba582b6a", "fusion_lon": 0.0, "bike_id": "a395a0f1a802873870c0492fba582b6a", "is_disabled": 0, "is_reserved": 0}, {"rental_uris": {"ios": "https://dc.lft.to/lastmile_qr_scan", "android": "https://dc.lft.to/lastmile_qr_scan"}, "lon": -77.03074233333334, "type": "electric_scooter", "fusion_lat": 0.0, "lat": 38.89976983333333, "name": "92aee1c095bac47ac108099fd076cee7", "fusion_lon": 0.0, "bike_id": "92aee1c095bac47ac108099fd076cee7", "is_disabled": 0, "is_reserved": 0}, {"rental_uris": {"ios": "https://dc.lft.to/lastmile_qr_scan", "android": "https://dc.lft.to/lastmile_qr_scan"}, "lon": -77.02692, "type": "electric_bike", "fusion_lat": 0.0, "lat": 38.91140933333333, "name": "f16a2fe538d1d5edeef1b435d1e679ba", "fusion_lon": 0.0, "bike_id": "f16a2fe538d1d5edeef1b435d1e679ba", "is_disabled": 0, "is_reserved": 0}, {"rental_uris": {"ios": "https://dc.lft.to/lastmile_qr_scan", "android": "https://dc.lft.to/lastmile_qr_scan"}, "lon": -77.03747033333333, "type": "electric_scooter", "fusion_lat": 0.0, "lat": 38.91706116666667, "name": "6cd0efd411ed6037303443c50f94bbdf", "fusion_lon": 0.0, "bike_id": "6cd0efd411ed6037303443c50f94bbdf", "is_disabled": 0, "is_reserved": 0}, {"rental_uris": {"ios": "https://dc.lft.to/lastmile_qr_scan", "android": "https://dc.lft.to/lastmile_qr_scan"}, "lon": -77.03192083333333, "type": "electric_scooter", "fusion_lat": 0.0, "lat": 38.91531916666667, "name": "96930b3b66c1b7bb840bba550b368f2b", "fusion_lon": 0.0, "bike_id": "96930b3b66c1b7bb840bba550b368f2b", "is_disabled": 0, "is_reserved": 0}, {"rental_uris": {"ios": "https://dc.lft.to/lastmile_qr_scan", "android": "https://dc.lft.to/lastmile_qr_scan"}, "lon": -77.071718, "type": "electric_scooter", "fusion_lat": 0.0, "lat": 38.914540333333335, "name": "df8f5c14eb528f3940db735e3c114bb3", "fusion_lon": 0.0, "bike_id": "df8f5c14eb528f3940db735e3c114bb3", "is_disabled": 0, "is_reserved": 0}, {"rental_uris": {"ios": "https://dc.lft.to/lastmile_qr_scan", "android": "https://dc.lft.to/lastmile_qr_scan"}, "lon": -77.009331, "type": "electric_scooter", "fusion_lat": 0.0, "lat": 38.87458383333333, "name": "527e38935779d811a564104a411a6d00", "fusion_lon": 0.0, "bike_id": "527e38935779d811a564104a411a6d00", "is_disabled": 0, "is_reserved": 0}, {"rental_uris": {"ios": "https://dc.lft.to/lastmile_qr_scan", "android": "https://dc.lft.to/lastmile_qr_scan"}, "lon": -77.03167883333333, "type": "electric_scooter", "fusion_lat": 0.0, "lat": 38.915673, "name": "2461f72c57ffb096a2758a95c04f34ed", "fusion_lon": 0.0, "bike_id": "2461f72c57ffb096a2758a95c04f34ed", "is_disabled": 0, "is_reserved": 0}, {"rental_uris": {"ios": "https://dc.lft.to/lastmile_qr_scan", "android": "https://dc.lft.to/lastmile_qr_scan"}, "lon": -77.04019133333334, "type": "electric_scooter", "fusion_lat": 0.0, "lat": 38.903884833333336, "name": "eaf792aa22432e53d3bfdbc71bf97946", "fusion_lon": 0.0, "bike_id": "eaf792aa22432e53d3bfdbc71bf97946", "is_disabled": 0, "is_reserved": 0}, {"rental_uris": {"ios": "https://dc.lft.to/lastmile_qr_scan", "android": "https://dc.lft.to/lastmile_qr_scan"}, "lon": -77.00801666666666, "type": "electric_scooter", "fusion_lat": 0.0, "lat": 38.906443833333334, "name": "a06167f1ec217936550291805343841f", "fusion_lon": 0.0, "bike_id": "a06167f1ec217936550291805343841f", "is_disabled": 0, "is_reserved": 0}, {"rental_uris": {"ios": "https://dc.lft.to/lastmile_qr_scan", "android": "https://dc.lft.to/lastmile_qr_scan"}, "lon": -77.029074, "type": "electric_scooter", "fusion_lat": 0.0, "lat": 38.8861035, "name": "988cf27243ea4bc0442c3ede918b1763", "fusion_lon": 0.0, "bike_id": "988cf27243ea4bc0442c3ede918b1763", "is_disabled": 0, "is_reserved": 0}, {"rental_uris": {"ios": "https://dc.lft.to/lastmile_qr_scan", "android": "https://dc.lft.to/lastmile_qr_scan"}, "lon": -77.0296845, "type": "electric_scooter", "fusion_lat": 0.0, "lat": 38.9106315, "name": "54dc231c2bde3d5a82410caaf82afdaf", "fusion_lon": 0.0, "bike_id": "54dc231c2bde3d5a82410caaf82afdaf", "is_disabled": 0, "is_reserved": 0}, {"rental_uris": {"ios": "https://dc.lft.to/lastmile_qr_scan", "android": "https://dc.lft.to/lastmile_qr_scan"}, "lon": -77.06944533333333, "type": "electric_scooter", "fusion_lat": 0.0, "lat": 38.905222333333334, "name": "3c05f645340f0df061111116394bbf0f", "fusion_lon": 0.0, "bike_id": "3c05f645340f0df061111116394bbf0f", "is_disabled": 0, "is_reserved": 0}, {"rental_uris": {"ios": "https://dc.lft.to/lastmile_qr_scan", "android": "https://dc.lft.to/lastmile_qr_scan"}, "lon": -77.027912, "type": "electric_scooter", "fusion_lat": 0.0, "lat": 38.93087366666666, "name": "572162aec1a3d9654e17dfcc0a8cbd29", "fusion_lon": 0.0, "bike_id": "572162aec1a3d9654e17dfcc0a8cbd29", "is_disabled": 0, "is_reserved": 0}, {"rental_uris": {"ios": "https://dc.lft.to/lastmile_qr_scan", "android": "https://dc.lft.to/lastmile_qr_scan"}, "lon": -77.03064083333334, "type": "electric_scooter", "fusion_lat": 0.0, "lat": 38.894752, "name": "e66f81b4c17a4960d4a0a87522dbbd78", "fusion_lon": 0.0, "bike_id": "e66f81b4c17a4960d4a0a87522dbbd78", "is_disabled": 0, "is_reserved": 0}, {"rental_uris": {"ios": "https://dc.lft.to/lastmile_qr_scan", "android": "https://dc.lft.to/lastmile_qr_scan"}, "lon": -77.01106433333334, "type": "electric_scooter", "fusion_lat": 0.0, "lat": 38.907804166666665, "name": "a0e2bc32b589ddcc971ef1616023ff29", "fusion_lon": 0.0, "bike_id": "a0e2bc32b589ddcc971ef1616023ff29", "is_disabled": 0, "is_reserved": 0}, {"rental_uris": {"ios": "https://dc.lft.to/lastmile_qr_scan", "android": "https://dc.lft.to/lastmile_qr_scan"}, "lon": -77.02366333333333, "type": "electric_scooter", "fusion_lat": 0.0, "lat": 38.90310066666667, "name": "b09caa49178ac0e94da38391541b7c9e", "fusion_lon": 0.0, "bike_id": "b09caa49178ac0e94da38391541b7c9e", "is_disabled": 0, "is_reserved": 0}, {"rental_uris": {"ios": "https://dc.lft.to/lastmile_qr_scan", "android": "https://dc.lft.to/lastmile_qr_scan"}, "lon": -77.00630866666667, "type": "electric_scooter", "fusion_lat": 0.0, "lat": 38.82930366666667, "name": "7c5af3b1bc9b304d8f895b7511fc2653", "fusion_lon": 0.0, "bike_id": "7c5af3b1bc9b304d8f895b7511fc2653", "is_disabled": 0, "is_reserved": 0}, {"rental_uris": {"ios": "https://dc.lft.to/lastmile_qr_scan", "android": "https://dc.lft.to/lastmile_qr_scan"}, "lon": -77.01929033333333, "type": "electric_scooter", "fusion_lat": 0.0, "lat": 38.956892833333335, "name": "2e204f0527b8bcd3f19d2f05703958d4", "fusion_lon": 0.0, "bike_id": "2e204f0527b8bcd3f19d2f05703958d4", "is_disabled": 0, "is_reserved": 0}, {"rental_uris": {"ios": "https://dc.lft.to/lastmile_qr_scan", "android": "https://dc.lft.to/lastmile_qr_scan"}, "lon": -76.99000733333334, "type": "electric_scooter", "fusion_lat": 0.0, "lat": 38.865041833333336, "name": "b29fc592dc7cf2b219e78bed229beb45", "fusion_lon": 0.0, "bike_id": "b29fc592dc7cf2b219e78bed229beb45", "is_disabled": 0, "is_reserved": 0}, {"rental_uris": {"ios": "https://dc.lft.to/lastmile_qr_scan", "android": "https://dc.lft.to/lastmile_qr_scan"}, "lon": -77.02384466666666, "type": "electric_scooter", "fusion_lat": 0.0, "lat": 38.90599783333333, "name": "6a915798031e1d6adee7aef21936567f", "fusion_lon": 0.0, "bike_id": "6a915798031e1d6adee7aef21936567f", "is_disabled": 0, "is_reserved": 0}, {"rental_uris": {"ios": "https://dc.lft.to/lastmile_qr_scan", "android": "https://dc.lft.to/lastmile_qr_scan"}, "lon": -76.99740966666667, "type": "electric_scooter", "fusion_lat": 0.0, "lat": 38.900498166666665, "name": "9ce0bc7de642b54bf71ba425561c303e", "fusion_lon": 0.0, "bike_id": "9ce0bc7de642b54bf71ba425561c303e", "is_disabled": 0, "is_reserved": 0}, {"rental_uris": {"ios": "https://dc.lft.to/lastmile_qr_scan", "android": "https://dc.lft.to/lastmile_qr_scan"}, "lon": -77.06387733333334, "type": "electric_scooter", "fusion_lat": 0.0, "lat": 38.905214, "name": "c2e57fd3eebd6bd5d2f2e8f3f898a8ef", "fusion_lon": 0.0, "bike_id": "c2e57fd3eebd6bd5d2f2e8f3f898a8ef", "is_disabled": 0, "is_reserved": 0}, {"rental_uris": {"ios": "https://dc.lft.to/lastmile_qr_scan", "android": "https://dc.lft.to/lastmile_qr_scan"}, "lon": -77.0418165, "type": "electric_scooter", "fusion_lat": 0.0, "lat": 38.90603383333333, "name": "a04ee9fdb6404c91cd7af9f432f56f1d", "fusion_lon": 0.0, "bike_id": "a04ee9fdb6404c91cd7af9f432f56f1d", "is_disabled": 0, "is_reserved": 0}, {"rental_uris": {"ios": "https://dc.lft.to/lastmile_qr_scan", "android": "https://dc.lft.to/lastmile_qr_scan"}, "lon": -77.03653216666666, "type": "electric_scooter", "fusion_lat": 0.0, "lat": 38.90798066666667, "name": "baf2bead07c9d65122e88d7d86e83101", "fusion_lon": 0.0, "bike_id": "baf2bead07c9d65122e88d7d86e83101", "is_disabled": 0, "is_reserved": 0}, {"rental_uris": {"ios": "https://dc.lft.to/lastmile_qr_scan", "android": "https://dc.lft.to/lastmile_qr_scan"}, "lon": -76.95414333333333, "type": "electric_scooter", "fusion_lat": 0.0, "lat": 38.890041833333335, "name": "1b921b243939998408adf6371736f8ed", "fusion_lon": 0.0, "bike_id": "1b921b243939998408adf6371736f8ed", "is_disabled": 0, "is_reserved": 0}, {"rental_uris": {"ios": "https://dc.lft.to/lastmile_qr_scan", "android": "https://dc.lft.to/lastmile_qr_scan"}, "lon": -77.06587116666667, "type": "electric_bike", "fusion_lat": 0.0, "lat": 38.91137616666666, "name": "05d18ec64649318c7c7f44e4fbcc7c63", "fusion_lon": 0.0, "bike_id": "05d18ec64649318c7c7f44e4fbcc7c63", "is_disabled": 0, "is_reserved": 0}, {"rental_uris": {"ios": "https://dc.lft.to/lastmile_qr_scan", "android": "https://dc.lft.to/lastmile_qr_scan"}, "lon": -77.10717833333334, "type": "electric_bike", "fusion_lat": 0.0, "lat": 38.855336333333334, "name": "4437b50eb231c87973b871f3c87e96b4", "fusion_lon": 0.0, "bike_id": "4437b50eb231c87973b871f3c87e96b4", "is_disabled": 0, "is_reserved": 0}, {"rental_uris": {"ios": "https://dc.lft.to/lastmile_qr_scan", "android": "https://dc.lft.to/lastmile_qr_scan"}, "lon": -77.02360516666667, "type": "electric_scooter", "fusion_lat": 0.0, "lat": 38.931636166666664, "name": "63a098fa2febf5703a929b5ab647e2be", "fusion_lon": 0.0, "bike_id": "63a098fa2febf5703a929b5ab647e2be", "is_disabled": 0, "is_reserved": 0}, {"rental_uris": {"ios": "https://dc.lft.to/lastmile_qr_scan", "android": "https://dc.lft.to/lastmile_qr_scan"}, "lon": -77.04265216666667, "type": "electric_scooter", "fusion_lat": 0.0, "lat": 38.914114, "name": "1fa3d54a919857789df89edd6b719a8e", "fusion_lon": 0.0, "bike_id": "1fa3d54a919857789df89edd6b719a8e", "is_disabled": 0, "is_reserved": 0}, {"rental_uris": {"ios": "https://dc.lft.to/lastmile_qr_scan", "android": "https://dc.lft.to/lastmile_qr_scan"}, "lon": -77.0314005, "type": "electric_scooter", "fusion_lat": 0.0, "lat": 38.914053833333334, "name": "4de8fb8db39f75a1c212cc71eb8fe409", "fusion_lon": 0.0, "bike_id": "4de8fb8db39f75a1c212cc71eb8fe409", "is_disabled": 0, "is_reserved": 0}, {"rental_uris": {"ios": "https://dc.lft.to/lastmile_qr_scan", "android": "https://dc.lft.to/lastmile_qr_scan"}, "lon": -77.042644, "type": "electric_scooter", "fusion_lat": 0.0, "lat": 38.9221655, "name": "f80b71e9125bc3b7464d2e98391193bb", "fusion_lon": 0.0, "bike_id": "f80b71e9125bc3b7464d2e98391193bb", "is_disabled": 0, "is_reserved": 0}, {"rental_uris": {"ios": "https://dc.lft.to/lastmile_qr_scan", "android": "https://dc.lft.to/lastmile_qr_scan"}, "lon": -77.08199266666666, "type": "electric_scooter", "fusion_lat": 0.0, "lat": 38.94929033333333, "name": "5ad9f90291d4f7737344be1421fa0565", "fusion_lon": 0.0, "bike_id": "5ad9f90291d4f7737344be1421fa0565", "is_disabled": 0, "is_reserved": 0}, {"rental_uris": {"ios": "https://dc.lft.to/lastmile_qr_scan", "android": "https://dc.lft.to/lastmile_qr_scan"}, "lon": -77.01113, "type": "electric_scooter", "fusion_lat": 0.0, "lat": 38.89544133333333, "name": "358ae8c13ffe8ffb457a1d3e810497c1", "fusion_lon": 0.0, "bike_id": "358ae8c13ffe8ffb457a1d3e810497c1", "is_disabled": 0, "is_reserved": 0}, {"rental_uris": {"ios": "https://dc.lft.to/lastmile_qr_scan", "android": "https://dc.lft.to/lastmile_qr_scan"}, "lon": -77.04818183333333, "type": "electric_scooter", "fusion_lat": 0.0, "lat": 38.913320666666664, "name": "044bb2e603ec65f97ad738e5792b525f", "fusion_lon": 0.0, "bike_id": "044bb2e603ec65f97ad738e5792b525f", "is_disabled": 0, "is_reserved": 0}, {"rental_uris": {"ios": "https://dc.lft.to/lastmile_qr_scan", "android": "https://dc.lft.to/lastmile_qr_scan"}, "lon": -76.96058616666667, "type": "electric_bike", "fusion_lat": 0.0, "lat": 38.884020666666665, "name": "9a75ed6b771ab9be3ca39dc063c2de51", "fusion_lon": 0.0, "bike_id": "9a75ed6b771ab9be3ca39dc063c2de51", "is_disabled": 0, "is_reserved": 0}, {"rental_uris": {"ios": "https://dc.lft.to/lastmile_qr_scan", "android": "https://dc.lft.to/lastmile_qr_scan"}, "lon": -77.06298583333333, "type": "electric_scooter", "fusion_lat": 0.0, "lat": 38.9039885, "name": "4b5b75a69eadc999dd351c0e6404a275", "fusion_lon": 0.0, "bike_id": "4b5b75a69eadc999dd351c0e6404a275", "is_disabled": 0, "is_reserved": 0}, {"rental_uris": {"ios": "https://dc.lft.to/lastmile_qr_scan", "android": "https://dc.lft.to/lastmile_qr_scan"}, "lon": -76.90816916666667, "type": "electric_bike", "fusion_lat": 0.0, "lat": 38.994560166666666, "name": "0d7753b0244d8bca9f0f652dfc380744", "fusion_lon": 0.0, "bike_id": "0d7753b0244d8bca9f0f652dfc380744", "is_disabled": 0, "is_reserved": 0}, {"rental_uris": {"ios": "https://dc.lft.to/lastmile_qr_scan", "android": "https://dc.lft.to/lastmile_qr_scan"}, "lon": -77.02739083333333, "type": "electric_scooter", "fusion_lat": 0.0, "lat": 38.93375183333333, "name": "617192c76ac2cafc108546c8399fcc94", "fusion_lon": 0.0, "bike_id": "617192c76ac2cafc108546c8399fcc94", "is_disabled": 0, "is_reserved": 0}, {"rental_uris": {"ios": "https://dc.lft.to/lastmile_qr_scan", "android": "https://dc.lft.to/lastmile_qr_scan"}, "lon": -77.0247445, "type": "electric_scooter", "fusion_lat": 0.0, "lat": 38.931028833333336, "name": "dee02aa00e3a57500be60da330873045", "fusion_lon": 0.0, "bike_id": "dee02aa00e3a57500be60da330873045", "is_disabled": 0, "is_reserved": 0}, {"rental_uris": {"ios": "https://dc.lft.to/lastmile_qr_scan", "android": "https://dc.lft.to/lastmile_qr_scan"}, "lon": -77.02837066666666, "type": "electric_scooter", "fusion_lat": 0.0, "lat": 38.93191783333333, "name": "316c6dda504ea7be13bbac62d77f255b", "fusion_lon": 0.0, "bike_id": "316c6dda504ea7be13bbac62d77f255b", "is_disabled": 0, "is_reserved": 0}, {"rental_uris": {"ios": "https://dc.lft.to/lastmile_qr_scan", "android": "https://dc.lft.to/lastmile_qr_scan"}, "lon": -77.04548033333333, "type": "electric_bike", "fusion_lat": 0.0, "lat": 38.9194335, "name": "ed66b68eb3c00aa26aa37ebad57b9edf", "fusion_lon": 0.0, "bike_id": "ed66b68eb3c00aa26aa37ebad57b9edf", "is_disabled": 0, "is_reserved": 0}, {"rental_uris": {"ios": "https://dc.lft.to/lastmile_qr_scan", "android": "https://dc.lft.to/lastmile_qr_scan"}, "lon": -77.04176533333333, "type": "electric_scooter", "fusion_lat": 0.0, "lat": 38.91398083333333, "name": "9a2a33521fc79719593d192f55ab2322", "fusion_lon": 0.0, "bike_id": "9a2a33521fc79719593d192f55ab2322", "is_disabled": 0, "is_reserved": 0}, {"rental_uris": {"ios": "https://dc.lft.to/lastmile_qr_scan", "android": "https://dc.lft.to/lastmile_qr_scan"}, "lon": -77.03861166666667, "type": "electric_scooter", "fusion_lat": 0.0, "lat": 38.9154545, "name": "862f95e4732dadf7c3cd380e4137cd8f", "fusion_lon": 0.0, "bike_id": "862f95e4732dadf7c3cd380e4137cd8f", "is_disabled": 0, "is_reserved": 0}, {"rental_uris": {"ios": "https://dc.lft.to/lastmile_qr_scan", "android": "https://dc.lft.to/lastmile_qr_scan"}, "lon": -77.05516066666667, "type": "electric_scooter", "fusion_lat": 0.0, "lat": 38.910642833333334, "name": "5a4268703298bcf605814be96331ffef", "fusion_lon": 0.0, "bike_id": "5a4268703298bcf605814be96331ffef", "is_disabled": 0, "is_reserved": 0}, {"rental_uris": {"ios": "https://dc.lft.to/lastmile_qr_scan", "android": "https://dc.lft.to/lastmile_qr_scan"}, "lon": -77.00877016666666, "type": "electric_scooter", "fusion_lat": 0.0, "lat": 38.905738, "name": "f6edaae681a2e42fd23371b23d9fba48", "fusion_lon": 0.0, "bike_id": "f6edaae681a2e42fd23371b23d9fba48", "is_disabled": 0, "is_reserved": 0}, {"rental_uris": {"ios": "https://dc.lft.to/lastmile_qr_scan", "android": "https://dc.lft.to/lastmile_qr_scan"}, "lon": -77.02709233333333, "type": "electric_scooter", "fusion_lat": 0.0, "lat": 38.91867666666667, "name": "0726642a787c25318a1917f75bef5770", "fusion_lon": 0.0, "bike_id": "0726642a787c25318a1917f75bef5770", "is_disabled": 0, "is_reserved": 0}, {"rental_uris": {"ios": "https://dc.lft.to/lastmile_qr_scan", "android": "https://dc.lft.to/lastmile_qr_scan"}, "lon": -76.98438816666666, "type": "electric_scooter", "fusion_lat": 0.0, "lat": 38.914574, "name": "3d22ff3deceb1c93d2555875506a2288", "fusion_lon": 0.0, "bike_id": "3d22ff3deceb1c93d2555875506a2288", "is_disabled": 0, "is_reserved": 0}, {"rental_uris": {"ios": "https://dc.lft.to/lastmile_qr_scan", "android": "https://dc.lft.to/lastmile_qr_scan"}, "lon": -77.05972733333333, "type": "electric_scooter", "fusion_lat": 0.0, "lat": 38.905315333333334, "name": "b05fddd4b1bce0e14d13108a56c360a9", "fusion_lon": 0.0, "bike_id": "b05fddd4b1bce0e14d13108a56c360a9", "is_disabled": 0, "is_reserved": 0}, {"rental_uris": {"ios": "https://dc.lft.to/lastmile_qr_scan", "android": "https://dc.lft.to/lastmile_qr_scan"}, "lon": -77.0575695, "type": "electric_scooter", "fusion_lat": 0.0, "lat": 38.924610333333334, "name": "68321e3fb2392cfecfa2f8b750629d1a", "fusion_lon": 0.0, "bike_id": "68321e3fb2392cfecfa2f8b750629d1a", "is_disabled": 0, "is_reserved": 0}, {"rental_uris": {"ios": "https://dc.lft.to/lastmile_qr_scan", "android": "https://dc.lft.to/lastmile_qr_scan"}, "lon": -77.02980083333334, "type": "electric_scooter", "fusion_lat": 0.0, "lat": 38.9162475, "name": "85ee1c3929a3213955ee1d5a1c3b968b", "fusion_lon": 0.0, "bike_id": "85ee1c3929a3213955ee1d5a1c3b968b", "is_disabled": 0, "is_reserved": 0}, {"rental_uris": {"ios": "https://dc.lft.to/lastmile_qr_scan", "android": "https://dc.lft.to/lastmile_qr_scan"}, "lon": -77.01577783333333, "type": "electric_scooter", "fusion_lat": 0.0, "lat": 38.88751166666667, "name": "7c6b8e58b50d48298e050a78d6551fc1", "fusion_lon": 0.0, "bike_id": "7c6b8e58b50d48298e050a78d6551fc1", "is_disabled": 0, "is_reserved": 0}, {"rental_uris": {"ios": "https://dc.lft.to/lastmile_qr_scan", "android": "https://dc.lft.to/lastmile_qr_scan"}, "lon": -77.0275795, "type": "electric_scooter", "fusion_lat": 0.0, "lat": 38.91695716666667, "name": "1e1d401679152ef05651416bb577859c", "fusion_lon": 0.0, "bike_id": "1e1d401679152ef05651416bb577859c", "is_disabled": 0, "is_reserved": 0}, {"rental_uris": {"ios": "https://dc.lft.to/lastmile_qr_scan", "android": "https://dc.lft.to/lastmile_qr_scan"}, "lon": -77.0629715, "type": "electric_scooter", "fusion_lat": 0.0, "lat": 38.903934, "name": "ac893bb3c771938acdfab4d218723dc0", "fusion_lon": 0.0, "bike_id": "ac893bb3c771938acdfab4d218723dc0", "is_disabled": 0, "is_reserved": 0}, {"rental_uris": {"ios": "https://dc.lft.to/lastmile_qr_scan", "android": "https://dc.lft.to/lastmile_qr_scan"}, "lon": -76.9981405, "type": "electric_scooter", "fusion_lat": 0.0, "lat": 38.900239, "name": "c0dc654271cf1f91f71571feb7a735e5", "fusion_lon": 0.0, "bike_id": "c0dc654271cf1f91f71571feb7a735e5", "is_disabled": 0, "is_reserved": 0}, {"rental_uris": {"ios": "https://dc.lft.to/lastmile_qr_scan", "android": "https://dc.lft.to/lastmile_qr_scan"}, "lon": -77.02964183333333, "type": "electric_scooter", "fusion_lat": 0.0, "lat": 38.9252495, "name": "3239e74f72fc27ab8cc875c426ccdad1", "fusion_lon": 0.0, "bike_id": "3239e74f72fc27ab8cc875c426ccdad1", "is_disabled": 0, "is_reserved": 0}, {"rental_uris": {"ios": "https://dc.lft.to/lastmile_qr_scan", "android": "https://dc.lft.to/lastmile_qr_scan"}, "lon": -76.99165583333334, "type": "electric_scooter", "fusion_lat": 0.0, "lat": 38.89349166666667, "name": "dcf66e5b88eec9c15265382ef577312f", "fusion_lon": 0.0, "bike_id": "dcf66e5b88eec9c15265382ef577312f", "is_disabled": 0, "is_reserved": 0}, {"rental_uris": {"ios": "https://dc.lft.to/lastmile_qr_scan", "android": "https://dc.lft.to/lastmile_qr_scan"}, "lon": -77.06284966666666, "type": "electric_scooter", "fusion_lat": 0.0, "lat": 38.902772666666664, "name": "2eafbc7346780b6015421b9c70ba4a0b", "fusion_lon": 0.0, "bike_id": "2eafbc7346780b6015421b9c70ba4a0b", "is_disabled": 0, "is_reserved": 0}, {"rental_uris": {"ios": "https://dc.lft.to/lastmile_qr_scan", "android": "https://dc.lft.to/lastmile_qr_scan"}, "lon": -76.89541866666667, "type": "electric_bike", "fusion_lat": 0.0, "lat": 38.94554933333333, "name": "bafec9dfa27133ef521193ab4a52cb7c", "fusion_lon": 0.0, "bike_id": "bafec9dfa27133ef521193ab4a52cb7c", "is_disabled": 0, "is_reserved": 0}, {"rental_uris": {"ios": "https://dc.lft.to/lastmile_qr_scan", "android": "https://dc.lft.to/lastmile_qr_scan"}, "lon": -77.01218483333334, "type": "electric_scooter", "fusion_lat": 0.0, "lat": 38.9204265, "name": "cce67217f7b036574925f01a2e7359b6", "fusion_lon": 0.0, "bike_id": "cce67217f7b036574925f01a2e7359b6", "is_disabled": 0, "is_reserved": 0}, {"rental_uris": {"ios": "https://dc.lft.to/lastmile_qr_scan", "android": "https://dc.lft.to/lastmile_qr_scan"}, "lon": -77.03599116666666, "type": "electric_bike", "fusion_lat": 0.0, "lat": 38.906932166666664, "name": "c48fdd2fd17e51ad5b9a9859971a2d7f", "fusion_lon": 0.0, "bike_id": "c48fdd2fd17e51ad5b9a9859971a2d7f", "is_disabled": 0, "is_reserved": 0}, {"rental_uris": {"ios": "https://dc.lft.to/lastmile_qr_scan", "android": "https://dc.lft.to/lastmile_qr_scan"}, "lon": -77.02979366666666, "type": "electric_scooter", "fusion_lat": 0.0, "lat": 38.96228, "name": "947826d05259180c4f92c36a0f0d24a3", "fusion_lon": 0.0, "bike_id": "947826d05259180c4f92c36a0f0d24a3", "is_disabled": 0, "is_reserved": 0}, {"rental_uris": {"ios": "https://dc.lft.to/lastmile_qr_scan", "android": "https://dc.lft.to/lastmile_qr_scan"}, "lon": -77.02237916666667, "type": "electric_scooter", "fusion_lat": 0.0, "lat": 38.915543666666665, "name": "a73cc92d9e3d02800be18b4cdb06cec9", "fusion_lon": 0.0, "bike_id": "a73cc92d9e3d02800be18b4cdb06cec9", "is_disabled": 0, "is_reserved": 0}, {"rental_uris": {"ios": "https://dc.lft.to/lastmile_qr_scan", "android": "https://dc.lft.to/lastmile_qr_scan"}, "lon": -76.98887866666666, "type": "electric_scooter", "fusion_lat": 0.0, "lat": 38.866577, "name": "3e77702db1ad676a249b81c51a783cb4", "fusion_lon": 0.0, "bike_id": "3e77702db1ad676a249b81c51a783cb4", "is_disabled": 0, "is_reserved": 0}, {"rental_uris": {"ios": "https://dc.lft.to/lastmile_qr_scan", "android": "https://dc.lft.to/lastmile_qr_scan"}, "lon": -77.04104233333334, "type": "electric_scooter", "fusion_lat": 0.0, "lat": 38.91858233333333, "name": "880d15084f9b6cf6c662413eb22e4819", "fusion_lon": 0.0, "bike_id": "880d15084f9b6cf6c662413eb22e4819", "is_disabled": 0, "is_reserved": 0}, {"rental_uris": {"ios": "https://dc.lft.to/lastmile_qr_scan", "android": "https://dc.lft.to/lastmile_qr_scan"}, "lon": -77.04156083333334, "type": "electric_scooter", "fusion_lat": 0.0, "lat": 38.91424216666667, "name": "25461e92093f15f1bba2b2745fdb6709", "fusion_lon": 0.0, "bike_id": "25461e92093f15f1bba2b2745fdb6709", "is_disabled": 0, "is_reserved": 0}, {"rental_uris": {"ios": "https://dc.lft.to/lastmile_qr_scan", "android": "https://dc.lft.to/lastmile_qr_scan"}, "lon": -77.01160283333333, "type": "electric_scooter", "fusion_lat": 0.0, "lat": 38.900415333333335, "name": "ff4d093c0286326812ec6c9ef4357bf5", "fusion_lon": 0.0, "bike_id": "ff4d093c0286326812ec6c9ef4357bf5", "is_disabled": 0, "is_reserved": 0}, {"rental_uris": {"ios": "https://dc.lft.to/lastmile_qr_scan", "android": "https://dc.lft.to/lastmile_qr_scan"}, "lon": -77.02230066666667, "type": "electric_scooter", "fusion_lat": 0.0, "lat": 38.892235166666666, "name": "f03d355481b470d8dd7e389b26ca45cc", "fusion_lon": 0.0, "bike_id": "f03d355481b470d8dd7e389b26ca45cc", "is_disabled": 0, "is_reserved": 0}, {"rental_uris": {"ios": "https://dc.lft.to/lastmile_qr_scan", "android": "https://dc.lft.to/lastmile_qr_scan"}, "lon": -77.00677633333333, "type": "electric_scooter", "fusion_lat": 0.0, "lat": 38.874744, "name": "0ae389e49ab0c475d32d3933746fc864", "fusion_lon": 0.0, "bike_id": "0ae389e49ab0c475d32d3933746fc864", "is_disabled": 0, "is_reserved": 0}, {"rental_uris": {"ios": "https://dc.lft.to/lastmile_qr_scan", "android": "https://dc.lft.to/lastmile_qr_scan"}, "lon": -77.0854515, "type": "electric_bike", "fusion_lat": 0.0, "lat": 38.85621583333333, "name": "8a86d080c76deaea0f225c7262281bea", "fusion_lon": 0.0, "bike_id": "8a86d080c76deaea0f225c7262281bea", "is_disabled": 0, "is_reserved": 0}, {"rental_uris": {"ios": "https://dc.lft.to/lastmile_qr_scan", "android": "https://dc.lft.to/lastmile_qr_scan"}, "lon": -76.9793775, "type": "electric_scooter", "fusion_lat": 0.0, "lat": 38.9067465, "name": "6ba63ed3183597e1d27aff06de44403f", "fusion_lon": 0.0, "bike_id": "6ba63ed3183597e1d27aff06de44403f", "is_disabled": 0, "is_reserved": 0}, {"rental_uris": {"ios": "https://dc.lft.to/lastmile_qr_scan", "android": "https://dc.lft.to/lastmile_qr_scan"}, "lon": -77.00098933333334, "type": "electric_scooter", "fusion_lat": 0.0, "lat": 38.90830733333333, "name": "e47544bf0339bec79e27a671111d466f", "fusion_lon": 0.0, "bike_id": "e47544bf0339bec79e27a671111d466f", "is_disabled": 0, "is_reserved": 0}, {"rental_uris": {"ios": "https://dc.lft.to/lastmile_qr_scan", "android": "https://dc.lft.to/lastmile_qr_scan"}, "lon": -77.031692, "type": "electric_scooter", "fusion_lat": 0.0, "lat": 38.913203, "name": "6b8b04b614fb99c5e47156240e934a17", "fusion_lon": 0.0, "bike_id": "6b8b04b614fb99c5e47156240e934a17", "is_disabled": 0, "is_reserved": 0}, {"rental_uris": {"ios": "https://dc.lft.to/lastmile_qr_scan", "android": "https://dc.lft.to/lastmile_qr_scan"}, "lon": -77.01216066666667, "type": "electric_scooter", "fusion_lat": 0.0, "lat": 38.917154333333336, "name": "cd1669d9a6a8d27c256a96be6d3e4198", "fusion_lon": 0.0, "bike_id": "cd1669d9a6a8d27c256a96be6d3e4198", "is_disabled": 0, "is_reserved": 0}, {"rental_uris": {"ios": "https://dc.lft.to/lastmile_qr_scan", "android": "https://dc.lft.to/lastmile_qr_scan"}, "lon": -77.02707016666666, "type": "electric_scooter", "fusion_lat": 0.0, "lat": 38.95000483333333, "name": "f7fe009fa84168d7ac35c35162eef70b", "fusion_lon": 0.0, "bike_id": "f7fe009fa84168d7ac35c35162eef70b", "is_disabled": 0, "is_reserved": 0}, {"rental_uris": {"ios": "https://dc.lft.to/lastmile_qr_scan", "android": "https://dc.lft.to/lastmile_qr_scan"}, "lon": -77.03290416666667, "type": "electric_scooter", "fusion_lat": 0.0, "lat": 38.9235015, "name": "81d133903bc141d39d4547498569a464", "fusion_lon": 0.0, "bike_id": "81d133903bc141d39d4547498569a464", "is_disabled": 0, "is_reserved": 0}, {"rental_uris": {"ios": "https://dc.lft.to/lastmile_qr_scan", "android": "https://dc.lft.to/lastmile_qr_scan"}, "lon": -77.02590533333333, "type": "electric_scooter", "fusion_lat": 0.0, "lat": 38.92989383333333, "name": "ede58b486a7e421fbbc53122ac35f526", "fusion_lon": 0.0, "bike_id": "ede58b486a7e421fbbc53122ac35f526", "is_disabled": 0, "is_reserved": 0}, {"rental_uris": {"ios": "https://dc.lft.to/lastmile_qr_scan", "android": "https://dc.lft.to/lastmile_qr_scan"}, "lon": -77.045439, "type": "electric_scooter", "fusion_lat": 0.0, "lat": 38.93406133333333, "name": "bce7d95040aa883f58ab05f878bbbb7f", "fusion_lon": 0.0, "bike_id": "bce7d95040aa883f58ab05f878bbbb7f", "is_disabled": 0, "is_reserved": 0}, {"rental_uris": {"ios": "https://dc.lft.to/lastmile_qr_scan", "android": "https://dc.lft.to/lastmile_qr_scan"}, "lon": -77.10461016666666, "type": "electric_bike", "fusion_lat": 0.0, "lat": 38.896402333333334, "name": "103059f991e5b821d038d5bb4789b356", "fusion_lon": 0.0, "bike_id": "103059f991e5b821d038d5bb4789b356", "is_disabled": 0, "is_reserved": 0}, {"rental_uris": {"ios": "https://dc.lft.to/lastmile_qr_scan", "android": "https://dc.lft.to/lastmile_qr_scan"}, "lon": -76.94637416666667, "type": "electric_scooter", "fusion_lat": 0.0, "lat": 38.898337, "name": "29545c9a70a4fee84b92014064b1dd46", "fusion_lon": 0.0, "bike_id": "29545c9a70a4fee84b92014064b1dd46", "is_disabled": 0, "is_reserved": 0}, {"rental_uris": {"ios": "https://dc.lft.to/lastmile_qr_scan", "android": "https://dc.lft.to/lastmile_qr_scan"}, "lon": -77.0220165, "type": "electric_scooter", "fusion_lat": 0.0, "lat": 38.910453333333336, "name": "f422551eb69b5c20c9ae014512b831e2", "fusion_lon": 0.0, "bike_id": "f422551eb69b5c20c9ae014512b831e2", "is_disabled": 0, "is_reserved": 0}, {"rental_uris": {"ios": "https://dc.lft.to/lastmile_qr_scan", "android": "https://dc.lft.to/lastmile_qr_scan"}, "lon": -77.02980116666667, "type": "electric_scooter", "fusion_lat": 0.0, "lat": 38.96233016666667, "name": "a802b21f2a6658ec5f3e9d155bbcd82e", "fusion_lon": 0.0, "bike_id": "a802b21f2a6658ec5f3e9d155bbcd82e", "is_disabled": 0, "is_reserved": 0}, {"rental_uris": {"ios": "https://dc.lft.to/lastmile_qr_scan", "android": "https://dc.lft.to/lastmile_qr_scan"}, "lon": -77.03212833333333, "type": "electric_scooter", "fusion_lat": 0.0, "lat": 38.914767166666664, "name": "ab863ee4ed60d0c6ca1c9cf24500fcd7", "fusion_lon": 0.0, "bike_id": "ab863ee4ed60d0c6ca1c9cf24500fcd7", "is_disabled": 0, "is_reserved": 0}, {"rental_uris": {"ios": "https://dc.lft.to/lastmile_qr_scan", "android": "https://dc.lft.to/lastmile_qr_scan"}, "lon": -76.9272215, "type": "electric_scooter", "fusion_lat": 0.0, "lat": 38.88040566666667, "name": "cc0112e4bf2a5fde17b10672a0d5abfb", "fusion_lon": 0.0, "bike_id": "cc0112e4bf2a5fde17b10672a0d5abfb", "is_disabled": 0, "is_reserved": 0}, {"rental_uris": {"ios": "https://dc.lft.to/lastmile_qr_scan", "android": "https://dc.lft.to/lastmile_qr_scan"}, "lon": -77.00878033333333, "type": "electric_scooter", "fusion_lat": 0.0, "lat": 38.914042333333335, "name": "19996c734fc1bdca6541a15aad85212c", "fusion_lon": 0.0, "bike_id": "19996c734fc1bdca6541a15aad85212c", "is_disabled": 0, "is_reserved": 0}, {"rental_uris": {"ios": "https://dc.lft.to/lastmile_qr_scan", "android": "https://dc.lft.to/lastmile_qr_scan"}, "lon": -77.001358, "type": "electric_scooter", "fusion_lat": 0.0, "lat": 38.90409733333333, "name": "bf515845b1a1d8b532d9021524248513", "fusion_lon": 0.0, "bike_id": "bf515845b1a1d8b532d9021524248513", "is_disabled": 0, "is_reserved": 0}, {"rental_uris": {"ios": "https://dc.lft.to/lastmile_qr_scan", "android": "https://dc.lft.to/lastmile_qr_scan"}, "lon": -77.00513916666667, "type": "electric_scooter", "fusion_lat": 0.0, "lat": 38.8786485, "name": "b44d4d12cedde0ea6eb4940ae0d97277", "fusion_lon": 0.0, "bike_id": "b44d4d12cedde0ea6eb4940ae0d97277", "is_disabled": 0, "is_reserved": 0}, {"rental_uris": {"ios": "https://dc.lft.to/lastmile_qr_scan", "android": "https://dc.lft.to/lastmile_qr_scan"}, "lon": -77.03211633333333, "type": "electric_scooter", "fusion_lat": 0.0, "lat": 38.90740666666667, "name": "b222f02d53147908e9aefb9c02470433", "fusion_lon": 0.0, "bike_id": "b222f02d53147908e9aefb9c02470433", "is_disabled": 0, "is_reserved": 0}, {"rental_uris": {"ios": "https://dc.lft.to/lastmile_qr_scan", "android": "https://dc.lft.to/lastmile_qr_scan"}, "lon": -77.01285366666667, "type": "electric_bike", "fusion_lat": 0.0, "lat": 38.88127183333334, "name": "5dffe2eb9ea462ebf2b96de0fcee8487", "fusion_lon": 0.0, "bike_id": "5dffe2eb9ea462ebf2b96de0fcee8487", "is_disabled": 0, "is_reserved": 0}, {"rental_uris": {"ios": "https://dc.lft.to/lastmile_qr_scan", "android": "https://dc.lft.to/lastmile_qr_scan"}, "lon": -77.10341533333333, "type": "electric_bike", "fusion_lat": 0.0, "lat": 38.85228383333333, "name": "cfdf4b8295eab21487753f8abc973f5b", "fusion_lon": 0.0, "bike_id": "cfdf4b8295eab21487753f8abc973f5b", "is_disabled": 0, "is_reserved": 0}, {"rental_uris": {"ios": "https://dc.lft.to/lastmile_qr_scan", "android": "https://dc.lft.to/lastmile_qr_scan"}, "lon": -77.0274545, "type": "electric_scooter", "fusion_lat": 0.0, "lat": 38.88144283333333, "name": "61831cbaa6f7cad5e4107fb7e1aa68a4", "fusion_lon": 0.0, "bike_id": "61831cbaa6f7cad5e4107fb7e1aa68a4", "is_disabled": 0, "is_reserved": 0}, {"rental_uris": {"ios": "https://dc.lft.to/lastmile_qr_scan", "android": "https://dc.lft.to/lastmile_qr_scan"}, "lon": -76.99976083333334, "type": "electric_scooter", "fusion_lat": 0.0, "lat": 38.838409166666665, "name": "a404124188b635e2ecd4f3cf51916bb5", "fusion_lon": 0.0, "bike_id": "a404124188b635e2ecd4f3cf51916bb5", "is_disabled": 0, "is_reserved": 0}, {"rental_uris": {"ios": "https://dc.lft.to/lastmile_qr_scan", "android": "https://dc.lft.to/lastmile_qr_scan"}, "lon": -77.01233816666667, "type": "electric_scooter", "fusion_lat": 0.0, "lat": 38.915517666666666, "name": "689342c7edd05b103ea0e0268dc993cc", "fusion_lon": 0.0, "bike_id": "689342c7edd05b103ea0e0268dc993cc", "is_disabled": 0, "is_reserved": 0}, {"rental_uris": {"ios": "https://dc.lft.to/lastmile_qr_scan", "android": "https://dc.lft.to/lastmile_qr_scan"}, "lon": -77.04145766666667, "type": "electric_scooter", "fusion_lat": 0.0, "lat": 38.91706716666667, "name": "627767e1ec861997f3539f69756296c3", "fusion_lon": 0.0, "bike_id": "627767e1ec861997f3539f69756296c3", "is_disabled": 0, "is_reserved": 0}, {"rental_uris": {"ios": "https://dc.lft.to/lastmile_qr_scan", "android": "https://dc.lft.to/lastmile_qr_scan"}, "lon": -77.00510916666667, "type": "electric_scooter", "fusion_lat": 0.0, "lat": 38.917171833333335, "name": "80e3784577f987fe0150598f4b11abc6", "fusion_lon": 0.0, "bike_id": "80e3784577f987fe0150598f4b11abc6", "is_disabled": 0, "is_reserved": 0}, {"rental_uris": {"ios": "https://dc.lft.to/lastmile_qr_scan", "android": "https://dc.lft.to/lastmile_qr_scan"}, "lon": -77.053345, "type": "electric_scooter", "fusion_lat": 0.0, "lat": 38.905949666666665, "name": "ba212a51f58a2becf67a9c9130afd6c3", "fusion_lon": 0.0, "bike_id": "ba212a51f58a2becf67a9c9130afd6c3", "is_disabled": 0, "is_reserved": 0}, {"rental_uris": {"ios": "https://dc.lft.to/lastmile_qr_scan", "android": "https://dc.lft.to/lastmile_qr_scan"}, "lon": -77.0698685, "type": "electric_scooter", "fusion_lat": 0.0, "lat": 38.954849, "name": "b91943da7c328f423459478564280236", "fusion_lon": 0.0, "bike_id": "b91943da7c328f423459478564280236", "is_disabled": 0, "is_reserved": 0}, {"rental_uris": {"ios": "https://dc.lft.to/lastmile_qr_scan", "android": "https://dc.lft.to/lastmile_qr_scan"}, "lon": -77.02625733333333, "type": "electric_scooter", "fusion_lat": 0.0, "lat": 38.93406316666667, "name": "b1b9ef037caffaa27b9ec6d79e2031f0", "fusion_lon": 0.0, "bike_id": "b1b9ef037caffaa27b9ec6d79e2031f0", "is_disabled": 0, "is_reserved": 0}, {"rental_uris": {"ios": "https://dc.lft.to/lastmile_qr_scan", "android": "https://dc.lft.to/lastmile_qr_scan"}, "lon": -77.0326165, "type": "electric_scooter", "fusion_lat": 0.0, "lat": 38.91414016666667, "name": "85e6ae5cda26c8e5feb4fd8861d691d4", "fusion_lon": 0.0, "bike_id": "85e6ae5cda26c8e5feb4fd8861d691d4", "is_disabled": 0, "is_reserved": 0}, {"rental_uris": {"ios": "https://dc.lft.to/lastmile_qr_scan", "android": "https://dc.lft.to/lastmile_qr_scan"}, "lon": -76.997915, "type": "electric_scooter", "fusion_lat": 0.0, "lat": 38.9218065, "name": "21f6034cb6697c5ee3617cbc29496eae", "fusion_lon": 0.0, "bike_id": "21f6034cb6697c5ee3617cbc29496eae", "is_disabled": 0, "is_reserved": 0}, {"rental_uris": {"ios": "https://dc.lft.to/lastmile_qr_scan", "android": "https://dc.lft.to/lastmile_qr_scan"}, "lon": -77.017046, "type": "electric_scooter", "fusion_lat": 0.0, "lat": 38.91388166666667, "name": "13a0423bbb25a4519fb271c266b423cf", "fusion_lon": 0.0, "bike_id": "13a0423bbb25a4519fb271c266b423cf", "is_disabled": 0, "is_reserved": 0}, {"rental_uris": {"ios": "https://dc.lft.to/lastmile_qr_scan", "android": "https://dc.lft.to/lastmile_qr_scan"}, "lon": -76.99505516666666, "type": "electric_bike", "fusion_lat": 0.0, "lat": 39.0000345, "name": "b8b8f785aa4f4fed513bb6d7a822be5e", "fusion_lon": 0.0, "bike_id": "b8b8f785aa4f4fed513bb6d7a822be5e", "is_disabled": 0, "is_reserved": 0}, {"rental_uris": {"ios": "https://dc.lft.to/lastmile_qr_scan", "android": "https://dc.lft.to/lastmile_qr_scan"}, "lon": -77.03179833333333, "type": "electric_scooter", "fusion_lat": 0.0, "lat": 38.912585666666665, "name": "8eb39b303a9f4226ee08f389236761aa", "fusion_lon": 0.0, "bike_id": "8eb39b303a9f4226ee08f389236761aa", "is_disabled": 0, "is_reserved": 0}, {"rental_uris": {"ios": "https://dc.lft.to/lastmile_qr_scan", "android": "https://dc.lft.to/lastmile_qr_scan"}, "lon": -77.04292183333334, "type": "electric_scooter", "fusion_lat": 0.0, "lat": 38.908631166666666, "name": "a9514741971125bf34fcd63181fcb388", "fusion_lon": 0.0, "bike_id": "a9514741971125bf34fcd63181fcb388", "is_disabled": 0, "is_reserved": 0}, {"rental_uris": {"ios": "https://dc.lft.to/lastmile_qr_scan", "android": "https://dc.lft.to/lastmile_qr_scan"}, "lon": -77.05591516666667, "type": "electric_scooter", "fusion_lat": 0.0, "lat": 38.9278645, "name": "6f2e9496ab59eeed11ecc5b9cfb01531", "fusion_lon": 0.0, "bike_id": "6f2e9496ab59eeed11ecc5b9cfb01531", "is_disabled": 0, "is_reserved": 0}, {"rental_uris": {"ios": "https://dc.lft.to/lastmile_qr_scan", "android": "https://dc.lft.to/lastmile_qr_scan"}, "lon": -77.03258616666666, "type": "electric_scooter", "fusion_lat": 0.0, "lat": 38.918211, "name": "75df1f1666301bbf0cd8926aa5fd291c", "fusion_lon": 0.0, "bike_id": "75df1f1666301bbf0cd8926aa5fd291c", "is_disabled": 0, "is_reserved": 0}, {"rental_uris": {"ios": "https://dc.lft.to/lastmile_qr_scan", "android": "https://dc.lft.to/lastmile_qr_scan"}, "lon": -77.033431, "type": "electric_scooter", "fusion_lat": 0.0, "lat": 38.91920066666667, "name": "41cb2e3addbce6e1a629d548202262f6", "fusion_lon": 0.0, "bike_id": "41cb2e3addbce6e1a629d548202262f6", "is_disabled": 0, "is_reserved": 0}, {"rental_uris": {"ios": "https://dc.lft.to/lastmile_qr_scan", "android": "https://dc.lft.to/lastmile_qr_scan"}, "lon": -77.058256, "type": "electric_scooter", "fusion_lat": 0.0, "lat": 38.93422866666667, "name": "2c1e98bed7dc67017503301473b6e876", "fusion_lon": 0.0, "bike_id": "2c1e98bed7dc67017503301473b6e876", "is_disabled": 0, "is_reserved": 0}, {"rental_uris": {"ios": "https://dc.lft.to/lastmile_qr_scan", "android": "https://dc.lft.to/lastmile_qr_scan"}, "lon": -77.04123383333334, "type": "electric_scooter", "fusion_lat": 0.0, "lat": 38.9215705, "name": "10a50f59f2f14d3b896946df5fa7fe1e", "fusion_lon": 0.0, "bike_id": "10a50f59f2f14d3b896946df5fa7fe1e", "is_disabled": 0, "is_reserved": 0}, {"rental_uris": {"ios": "https://dc.lft.to/lastmile_qr_scan", "android": "https://dc.lft.to/lastmile_qr_scan"}, "lon": -76.95819033333333, "type": "electric_scooter", "fusion_lat": 0.0, "lat": 38.89059133333333, "name": "77a9bb558f3258a2c530d4daf0a1e722", "fusion_lon": 0.0, "bike_id": "77a9bb558f3258a2c530d4daf0a1e722", "is_disabled": 0, "is_reserved": 0}, {"rental_uris": {"ios": "https://dc.lft.to/lastmile_qr_scan", "android": "https://dc.lft.to/lastmile_qr_scan"}, "lon": -77.0952195, "type": "electric_bike", "fusion_lat": 0.0, "lat": 38.83810916666667, "name": "2f989207072fe863970c7e6ca5693a81", "fusion_lon": 0.0, "bike_id": "2f989207072fe863970c7e6ca5693a81", "is_disabled": 0, "is_reserved": 0}, {"rental_uris": {"ios": "https://dc.lft.to/lastmile_qr_scan", "android": "https://dc.lft.to/lastmile_qr_scan"}, "lon": -77.017231, "type": "electric_scooter", "fusion_lat": 0.0, "lat": 38.9038415, "name": "81c67b3e89a2ae018b09949677d78b71", "fusion_lon": 0.0, "bike_id": "81c67b3e89a2ae018b09949677d78b71", "is_disabled": 0, "is_reserved": 0}, {"rental_uris": {"ios": "https://dc.lft.to/lastmile_qr_scan", "android": "https://dc.lft.to/lastmile_qr_scan"}, "lon": -77.027889, "type": "electric_scooter", "fusion_lat": 0.0, "lat": 38.92782783333333, "name": "b2554e1fd41954f8cfd0f5a6a6b74f75", "fusion_lon": 0.0, "bike_id": "b2554e1fd41954f8cfd0f5a6a6b74f75", "is_disabled": 0, "is_reserved": 0}, {"rental_uris": {"ios": "https://dc.lft.to/lastmile_qr_scan", "android": "https://dc.lft.to/lastmile_qr_scan"}, "lon": -77.03103916666667, "type": "electric_scooter", "fusion_lat": 0.0, "lat": 38.918067, "name": "b5c108f64b04658f69f8845c34cfc404", "fusion_lon": 0.0, "bike_id": "b5c108f64b04658f69f8845c34cfc404", "is_disabled": 0, "is_reserved": 0}, {"rental_uris": {"ios": "https://dc.lft.to/lastmile_qr_scan", "android": "https://dc.lft.to/lastmile_qr_scan"}, "lon": -76.98620216666667, "type": "electric_scooter", "fusion_lat": 0.0, "lat": 38.868180333333335, "name": "13ee9726b21b17522c29d964bd730aa5", "fusion_lon": 0.0, "bike_id": "13ee9726b21b17522c29d964bd730aa5", "is_disabled": 0, "is_reserved": 0}, {"rental_uris": {"ios": "https://dc.lft.to/lastmile_qr_scan", "android": "https://dc.lft.to/lastmile_qr_scan"}, "lon": -77.02133716666667, "type": "electric_scooter", "fusion_lat": 0.0, "lat": 38.915569, "name": "3d3037f0eb352cf5c7cc5222f8a11d50", "fusion_lon": 0.0, "bike_id": "3d3037f0eb352cf5c7cc5222f8a11d50", "is_disabled": 0, "is_reserved": 0}, {"rental_uris": {"ios": "https://dc.lft.to/lastmile_qr_scan", "android": "https://dc.lft.to/lastmile_qr_scan"}, "lon": -77.08365583333334, "type": "electric_scooter", "fusion_lat": 0.0, "lat": 38.930416, "name": "caa87223fa1ee770496307b6b9159b37", "fusion_lon": 0.0, "bike_id": "caa87223fa1ee770496307b6b9159b37", "is_disabled": 0, "is_reserved": 0}, {"rental_uris": {"ios": "https://dc.lft.to/lastmile_qr_scan", "android": "https://dc.lft.to/lastmile_qr_scan"}, "lon": -77.12746683333333, "type": "electric_bike", "fusion_lat": 0.0, "lat": 38.88823633333333, "name": "ce198f4c51db0d68015bc3d2d0176add", "fusion_lon": 0.0, "bike_id": "ce198f4c51db0d68015bc3d2d0176add", "is_disabled": 0, "is_reserved": 0}, {"rental_uris": {"ios": "https://dc.lft.to/lastmile_qr_scan", "android": "https://dc.lft.to/lastmile_qr_scan"}, "lon": -77.03084666666666, "type": "electric_scooter", "fusion_lat": 0.0, "lat": 38.93473566666667, "name": "6a874f9cd708229ec2075f95e6f2766e", "fusion_lon": 0.0, "bike_id": "6a874f9cd708229ec2075f95e6f2766e", "is_disabled": 0, "is_reserved": 0}, {"rental_uris": {"ios": "https://dc.lft.to/lastmile_qr_scan", "android": "https://dc.lft.to/lastmile_qr_scan"}, "lon": -77.02888416666667, "type": "electric_scooter", "fusion_lat": 0.0, "lat": 38.9037205, "name": "edcfc327169b4f7dba667986ee2d0943", "fusion_lon": 0.0, "bike_id": "edcfc327169b4f7dba667986ee2d0943", "is_disabled": 0, "is_reserved": 0}, {"rental_uris": {"ios": "https://dc.lft.to/lastmile_qr_scan", "android": "https://dc.lft.to/lastmile_qr_scan"}, "lon": -76.98771183333334, "type": "electric_scooter", "fusion_lat": 0.0, "lat": 38.911768333333335, "name": "3f211c447350038d6fde57bdf498ada0", "fusion_lon": 0.0, "bike_id": "3f211c447350038d6fde57bdf498ada0", "is_disabled": 0, "is_reserved": 0}, {"rental_uris": {"ios": "https://dc.lft.to/lastmile_qr_scan", "android": "https://dc.lft.to/lastmile_qr_scan"}, "lon": -77.04821883333334, "type": "electric_scooter", "fusion_lat": 0.0, "lat": 38.89622583333333, "name": "c9b64fefff67c9c1321dfa8fa675e5ba", "fusion_lon": 0.0, "bike_id": "c9b64fefff67c9c1321dfa8fa675e5ba", "is_disabled": 0, "is_reserved": 0}, {"rental_uris": {"ios": "https://dc.lft.to/lastmile_qr_scan", "android": "https://dc.lft.to/lastmile_qr_scan"}, "lon": -76.97888383333333, "type": "electric_scooter", "fusion_lat": 0.0, "lat": 38.91672716666667, "name": "49cb47c52bbcbdfc5e57e85a35bb3b02", "fusion_lon": 0.0, "bike_id": "49cb47c52bbcbdfc5e57e85a35bb3b02", "is_disabled": 0, "is_reserved": 0}, {"rental_uris": {"ios": "https://dc.lft.to/lastmile_qr_scan", "android": "https://dc.lft.to/lastmile_qr_scan"}, "lon": -76.93803166666666, "type": "electric_scooter", "fusion_lat": 0.0, "lat": 38.9128375, "name": "15802721bd21ac3f148eac3268bd4d21", "fusion_lon": 0.0, "bike_id": "15802721bd21ac3f148eac3268bd4d21", "is_disabled": 0, "is_reserved": 0}, {"rental_uris": {"ios": "https://dc.lft.to/lastmile_qr_scan", "android": "https://dc.lft.to/lastmile_qr_scan"}, "lon": -77.04318666666667, "type": "electric_scooter", "fusion_lat": 0.0, "lat": 38.89591516666667, "name": "a7bdfb74dd1534ca7172da4a40c7c9dd", "fusion_lon": 0.0, "bike_id": "a7bdfb74dd1534ca7172da4a40c7c9dd", "is_disabled": 0, "is_reserved": 0}, {"rental_uris": {"ios": "https://dc.lft.to/lastmile_qr_scan", "android": "https://dc.lft.to/lastmile_qr_scan"}, "lon": -77.02973283333333, "type": "electric_scooter", "fusion_lat": 0.0, "lat": 38.912335166666665, "name": "22115ac4a25ce6795f47e69d6270e323", "fusion_lon": 0.0, "bike_id": "22115ac4a25ce6795f47e69d6270e323", "is_disabled": 0, "is_reserved": 0}, {"rental_uris": {"ios": "https://dc.lft.to/lastmile_qr_scan", "android": "https://dc.lft.to/lastmile_qr_scan"}, "lon": -77.041349, "type": "electric_scooter", "fusion_lat": 0.0, "lat": 38.9168245, "name": "b577be14710c7cee139ce7147c3dff5b", "fusion_lon": 0.0, "bike_id": "b577be14710c7cee139ce7147c3dff5b", "is_disabled": 0, "is_reserved": 0}, {"rental_uris": {"ios": "https://dc.lft.to/lastmile_qr_scan", "android": "https://dc.lft.to/lastmile_qr_scan"}, "lon": -77.017597, "type": "electric_scooter", "fusion_lat": 0.0, "lat": 38.938949666666666, "name": "b77650e1ee35924f72ce76d0be5c580c", "fusion_lon": 0.0, "bike_id": "b77650e1ee35924f72ce76d0be5c580c", "is_disabled": 0, "is_reserved": 0}, {"rental_uris": {"ios": "https://dc.lft.to/lastmile_qr_scan", "android": "https://dc.lft.to/lastmile_qr_scan"}, "lon": -77.04925333333334, "type": "electric_scooter", "fusion_lat": 0.0, "lat": 38.89684166666667, "name": "439da17113095d820784905cfe6751d3", "fusion_lon": 0.0, "bike_id": "439da17113095d820784905cfe6751d3", "is_disabled": 0, "is_reserved": 0}, {"rental_uris": {"ios": "https://dc.lft.to/lastmile_qr_scan", "android": "https://dc.lft.to/lastmile_qr_scan"}, "lon": -77.0326025, "type": "electric_scooter", "fusion_lat": 0.0, "lat": 38.93743516666667, "name": "79472cd3ff89ed15074bb7911e9df762", "fusion_lon": 0.0, "bike_id": "79472cd3ff89ed15074bb7911e9df762", "is_disabled": 0, "is_reserved": 0}, {"rental_uris": {"ios": "https://dc.lft.to/lastmile_qr_scan", "android": "https://dc.lft.to/lastmile_qr_scan"}, "lon": -76.93791883333333, "type": "electric_scooter", "fusion_lat": 0.0, "lat": 38.89089366666666, "name": "c990b3a68d6b2a743f0fc5655430fe0f", "fusion_lon": 0.0, "bike_id": "c990b3a68d6b2a743f0fc5655430fe0f", "is_disabled": 0, "is_reserved": 0}, {"rental_uris": {"ios": "https://dc.lft.to/lastmile_qr_scan", "android": "https://dc.lft.to/lastmile_qr_scan"}, "lon": -77.0345495, "type": "electric_scooter", "fusion_lat": 0.0, "lat": 38.9174, "name": "b65ef138c4a5f2a948ec888f64d9fda9", "fusion_lon": 0.0, "bike_id": "b65ef138c4a5f2a948ec888f64d9fda9", "is_disabled": 0, "is_reserved": 0}, {"rental_uris": {"ios": "https://dc.lft.to/lastmile_qr_scan", "android": "https://dc.lft.to/lastmile_qr_scan"}, "lon": -76.99620266666666, "type": "electric_scooter", "fusion_lat": 0.0, "lat": 38.88446666666667, "name": "5b0c32df863f1122207d64629641da2b", "fusion_lon": 0.0, "bike_id": "5b0c32df863f1122207d64629641da2b", "is_disabled": 0, "is_reserved": 0}, {"rental_uris": {"ios": "https://dc.lft.to/lastmile_qr_scan", "android": "https://dc.lft.to/lastmile_qr_scan"}, "lon": -76.9317915, "type": "electric_scooter", "fusion_lat": 0.0, "lat": 38.8988395, "name": "e3fafdd66c2bb3d3dc09be23dfbaa33b", "fusion_lon": 0.0, "bike_id": "e3fafdd66c2bb3d3dc09be23dfbaa33b", "is_disabled": 0, "is_reserved": 0}, {"rental_uris": {"ios": "https://dc.lft.to/lastmile_qr_scan", "android": "https://dc.lft.to/lastmile_qr_scan"}, "lon": -77.040485, "type": "electric_scooter", "fusion_lat": 0.0, "lat": 38.92640466666667, "name": "aeb9862606edeedcc35981cb52a5da83", "fusion_lon": 0.0, "bike_id": "aeb9862606edeedcc35981cb52a5da83", "is_disabled": 0, "is_reserved": 0}, {"rental_uris": {"ios": "https://dc.lft.to/lastmile_qr_scan", "android": "https://dc.lft.to/lastmile_qr_scan"}, "lon": -77.15269133333334, "type": "electric_bike", "fusion_lat": 0.0, "lat": 39.10567066666667, "name": "5cbe28ccb90a410b681bf46c0ebb47cf", "fusion_lon": 0.0, "bike_id": "5cbe28ccb90a410b681bf46c0ebb47cf", "is_disabled": 0, "is_reserved": 0}, {"rental_uris": {"ios": "https://dc.lft.to/lastmile_qr_scan", "android": "https://dc.lft.to/lastmile_qr_scan"}, "lon": -76.95757333333333, "type": "electric_scooter", "fusion_lat": 0.0, "lat": 38.884334, "name": "aaf020234dddae3fdb0ebca5c0998136", "fusion_lon": 0.0, "bike_id": "aaf020234dddae3fdb0ebca5c0998136", "is_disabled": 0, "is_reserved": 0}, {"rental_uris": {"ios": "https://dc.lft.to/lastmile_qr_scan", "android": "https://dc.lft.to/lastmile_qr_scan"}, "lon": -77.0108355, "type": "electric_scooter", "fusion_lat": 0.0, "lat": 38.8949805, "name": "2ec46d1c2678a744c01686ec1d0a449a", "fusion_lon": 0.0, "bike_id": "2ec46d1c2678a744c01686ec1d0a449a", "is_disabled": 0, "is_reserved": 0}, {"rental_uris": {"ios": "https://dc.lft.to/lastmile_qr_scan", "android": "https://dc.lft.to/lastmile_qr_scan"}, "lon": -77.03080766666666, "type": "electric_scooter", "fusion_lat": 0.0, "lat": 38.880343333333336, "name": "b61754635d25c32fe1139e4b67e55a4d", "fusion_lon": 0.0, "bike_id": "b61754635d25c32fe1139e4b67e55a4d", "is_disabled": 0, "is_reserved": 0}, {"rental_uris": {"ios": "https://dc.lft.to/lastmile_qr_scan", "android": "https://dc.lft.to/lastmile_qr_scan"}, "lon": -76.96505883333333, "type": "electric_scooter", "fusion_lat": 0.0, "lat": 38.8764805, "name": "a410dff21f682ce30797e6f154adee1b", "fusion_lon": 0.0, "bike_id": "a410dff21f682ce30797e6f154adee1b", "is_disabled": 0, "is_reserved": 0}, {"rental_uris": {"ios": "https://dc.lft.to/lastmile_qr_scan", "android": "https://dc.lft.to/lastmile_qr_scan"}, "lon": -77.02723883333333, "type": "electric_scooter", "fusion_lat": 0.0, "lat": 38.909126666666666, "name": "db69aa3e19f9497c6d944f0aa1e560aa", "fusion_lon": 0.0, "bike_id": "db69aa3e19f9497c6d944f0aa1e560aa", "is_disabled": 0, "is_reserved": 0}, {"rental_uris": {"ios": "https://dc.lft.to/lastmile_qr_scan", "android": "https://dc.lft.to/lastmile_qr_scan"}, "lon": -77.127318, "type": "electric_bike", "fusion_lat": 0.0, "lat": 38.895603, "name": "dc430e5bd0709c67616c239f17037d37", "fusion_lon": 0.0, "bike_id": "dc430e5bd0709c67616c239f17037d37", "is_disabled": 0, "is_reserved": 0}, {"rental_uris": {"ios": "https://dc.lft.to/lastmile_qr_scan", "android": "https://dc.lft.to/lastmile_qr_scan"}, "lon": -77.0107185, "type": "electric_scooter", "fusion_lat": 0.0, "lat": 38.87478616666667, "name": "50f562e8efb860738850ce4168acdbba", "fusion_lon": 0.0, "bike_id": "50f562e8efb860738850ce4168acdbba", "is_disabled": 0, "is_reserved": 0}, {"rental_uris": {"ios": "https://dc.lft.to/lastmile_qr_scan", "android": "https://dc.lft.to/lastmile_qr_scan"}, "lon": -77.0097425, "type": "electric_scooter", "fusion_lat": 0.0, "lat": 38.914155, "name": "9b479e454a182719a89b909cf107ac35", "fusion_lon": 0.0, "bike_id": "9b479e454a182719a89b909cf107ac35", "is_disabled": 0, "is_reserved": 0}, {"rental_uris": {"ios": "https://dc.lft.to/lastmile_qr_scan", "android": "https://dc.lft.to/lastmile_qr_scan"}, "lon": -77.0280115, "type": "electric_scooter", "fusion_lat": 0.0, "lat": 38.9027125, "name": "ae38d437fbaf76fdf90b39f6d4baa700", "fusion_lon": 0.0, "bike_id": "ae38d437fbaf76fdf90b39f6d4baa700", "is_disabled": 0, "is_reserved": 0}, {"rental_uris": {"ios": "https://dc.lft.to/lastmile_qr_scan", "android": "https://dc.lft.to/lastmile_qr_scan"}, "lon": -76.94863966666666, "type": "electric_scooter", "fusion_lat": 0.0, "lat": 38.89598483333333, "name": "2168f97b9def2b1d6fbbc4210f893f4e", "fusion_lon": 0.0, "bike_id": "2168f97b9def2b1d6fbbc4210f893f4e", "is_disabled": 0, "is_reserved": 0}, {"rental_uris": {"ios": "https://dc.lft.to/lastmile_qr_scan", "android": "https://dc.lft.to/lastmile_qr_scan"}, "lon": -77.01070633333333, "type": "electric_bike", "fusion_lat": 0.0, "lat": 38.91912383333333, "name": "1a34231b03e8095bd4c78c8ffc4251d3", "fusion_lon": 0.0, "bike_id": "1a34231b03e8095bd4c78c8ffc4251d3", "is_disabled": 0, "is_reserved": 0}, {"rental_uris": {"ios": "https://dc.lft.to/lastmile_qr_scan", "android": "https://dc.lft.to/lastmile_qr_scan"}, "lon": -77.05924133333333, "type": "electric_scooter", "fusion_lat": 0.0, "lat": 38.906223, "name": "127cc46c9fe38e855b9f6c950fe41267", "fusion_lon": 0.0, "bike_id": "127cc46c9fe38e855b9f6c950fe41267", "is_disabled": 0, "is_reserved": 0}, {"rental_uris": {"ios": "https://dc.lft.to/lastmile_qr_scan", "android": "https://dc.lft.to/lastmile_qr_scan"}, "lon": -77.02803683333333, "type": "electric_scooter", "fusion_lat": 0.0, "lat": 38.9106965, "name": "e3cbd645306ea2374b977bd646c9cbd5", "fusion_lon": 0.0, "bike_id": "e3cbd645306ea2374b977bd646c9cbd5", "is_disabled": 0, "is_reserved": 0}, {"rental_uris": {"ios": "https://dc.lft.to/lastmile_qr_scan", "android": "https://dc.lft.to/lastmile_qr_scan"}, "lon": -76.91651316666666, "type": "electric_bike", "fusion_lat": 0.0, "lat": 38.86863, "name": "a1fc67db22cb640d3c5e76aa63069aef", "fusion_lon": 0.0, "bike_id": "a1fc67db22cb640d3c5e76aa63069aef", "is_disabled": 0, "is_reserved": 0}, {"rental_uris": {"ios": "https://dc.lft.to/lastmile_qr_scan", "android": "https://dc.lft.to/lastmile_qr_scan"}, "lon": -77.04305283333333, "type": "electric_bike", "fusion_lat": 0.0, "lat": 39.054458, "name": "424c1ff271b7f27629f0f89ca489a2f6", "fusion_lon": 0.0, "bike_id": "424c1ff271b7f27629f0f89ca489a2f6", "is_disabled": 0, "is_reserved": 0}, {"rental_uris": {"ios": "https://dc.lft.to/lastmile_qr_scan", "android": "https://dc.lft.to/lastmile_qr_scan"}, "lon": -76.95359133333334, "type": "electric_bike", "fusion_lat": 0.0, "lat": 38.93955066666667, "name": "5f2e9ba85c49c68385509ea55b8e9bcf", "fusion_lon": 0.0, "bike_id": "5f2e9ba85c49c68385509ea55b8e9bcf", "is_disabled": 0, "is_reserved": 0}, {"rental_uris": {"ios": "https://dc.lft.to/lastmile_qr_scan", "android": "https://dc.lft.to/lastmile_qr_scan"}, "lon": -76.98902816666667, "type": "electric_scooter", "fusion_lat": 0.0, "lat": 38.86698583333333, "name": "5dd8324d5cf43646763fb562a3fc079a", "fusion_lon": 0.0, "bike_id": "5dd8324d5cf43646763fb562a3fc079a", "is_disabled": 0, "is_reserved": 0}, {"rental_uris": {"ios": "https://dc.lft.to/lastmile_qr_scan", "android": "https://dc.lft.to/lastmile_qr_scan"}, "lon": -77.178424, "type": "electric_bike", "fusion_lat": 0.0, "lat": 39.08857616666667, "name": "74c6d06ca6e6a95ef2d7de89fdcf2f33", "fusion_lon": 0.0, "bike_id": "74c6d06ca6e6a95ef2d7de89fdcf2f33", "is_disabled": 0, "is_reserved": 0}, {"rental_uris": {"ios": "https://dc.lft.to/lastmile_qr_scan", "android": "https://dc.lft.to/lastmile_qr_scan"}, "lon": -77.033291, "type": "electric_scooter", "fusion_lat": 0.0, "lat": 38.9027765, "name": "b477a7d3550aeb0c5c7c256818f747cd", "fusion_lon": 0.0, "bike_id": "b477a7d3550aeb0c5c7c256818f747cd", "is_disabled": 0, "is_reserved": 0}, {"rental_uris": {"ios": "https://dc.lft.to/lastmile_qr_scan", "android": "https://dc.lft.to/lastmile_qr_scan"}, "lon": -77.0570155, "type": "electric_scooter", "fusion_lat": 0.0, "lat": 38.905563666666666, "name": "f5907c78940834e3bf5fcca8d3f2c7cc", "fusion_lon": 0.0, "bike_id": "f5907c78940834e3bf5fcca8d3f2c7cc", "is_disabled": 0, "is_reserved": 0}, {"rental_uris": {"ios": "https://dc.lft.to/lastmile_qr_scan", "android": "https://dc.lft.to/lastmile_qr_scan"}, "lon": -77.03215416666667, "type": "electric_scooter", "fusion_lat": 0.0, "lat": 38.912836666666664, "name": "b2bb0f096ed53f4acdeb8fd166fd3199", "fusion_lon": 0.0, "bike_id": "b2bb0f096ed53f4acdeb8fd166fd3199", "is_disabled": 0, "is_reserved": 0}, {"rental_uris": {"ios": "https://dc.lft.to/lastmile_qr_scan", "android": "https://dc.lft.to/lastmile_qr_scan"}, "lon": -76.98717816666667, "type": "electric_scooter", "fusion_lat": 0.0, "lat": 38.86704433333333, "name": "243a01a807c89ac6fafb4f097bce70f3", "fusion_lon": 0.0, "bike_id": "243a01a807c89ac6fafb4f097bce70f3", "is_disabled": 0, "is_reserved": 0}, {"rental_uris": {"ios": "https://dc.lft.to/lastmile_qr_scan", "android": "https://dc.lft.to/lastmile_qr_scan"}, "lon": -77.04130683333334, "type": "electric_scooter", "fusion_lat": 0.0, "lat": 38.9234805, "name": "216f6c004b445c6924e18132d8b93fe4", "fusion_lon": 0.0, "bike_id": "216f6c004b445c6924e18132d8b93fe4", "is_disabled": 0, "is_reserved": 0}, {"rental_uris": {"ios": "https://dc.lft.to/lastmile_qr_scan", "android": "https://dc.lft.to/lastmile_qr_scan"}, "lon": -77.00227583333333, "type": "electric_scooter", "fusion_lat": 0.0, "lat": 38.90070983333333, "name": "d7e45880caa200613de400e61cbb1541", "fusion_lon": 0.0, "bike_id": "d7e45880caa200613de400e61cbb1541", "is_disabled": 0, "is_reserved": 0}, {"rental_uris": {"ios": "https://dc.lft.to/lastmile_qr_scan", "android": "https://dc.lft.to/lastmile_qr_scan"}, "lon": -77.03305083333333, "type": "electric_scooter", "fusion_lat": 0.0, "lat": 38.925566833333335, "name": "53671baf06c6382dcf162e9b6d31b315", "fusion_lon": 0.0, "bike_id": "53671baf06c6382dcf162e9b6d31b315", "is_disabled": 0, "is_reserved": 0}, {"rental_uris": {"ios": "https://dc.lft.to/lastmile_qr_scan", "android": "https://dc.lft.to/lastmile_qr_scan"}, "lon": -77.0437295, "type": "electric_scooter", "fusion_lat": 0.0, "lat": 38.920695333333335, "name": "719787dab22f7d917817ee3906405abc", "fusion_lon": 0.0, "bike_id": "719787dab22f7d917817ee3906405abc", "is_disabled": 0, "is_reserved": 0}, {"rental_uris": {"ios": "https://dc.lft.to/lastmile_qr_scan", "android": "https://dc.lft.to/lastmile_qr_scan"}, "lon": -77.0251285, "type": "electric_bike", "fusion_lat": 0.0, "lat": 38.93414333333333, "name": "d4263efee0f98cd026e8dde813c3b39a", "fusion_lon": 0.0, "bike_id": "d4263efee0f98cd026e8dde813c3b39a", "is_disabled": 0, "is_reserved": 0}, {"rental_uris": {"ios": "https://dc.lft.to/lastmile_qr_scan", "android": "https://dc.lft.to/lastmile_qr_scan"}, "lon": -77.038561, "type": "electric_scooter", "fusion_lat": 0.0, "lat": 38.91023333333333, "name": "668b87c1e1d57b5bf0ea75714dec1eaa", "fusion_lon": 0.0, "bike_id": "668b87c1e1d57b5bf0ea75714dec1eaa", "is_disabled": 0, "is_reserved": 0}, {"rental_uris": {"ios": "https://dc.lft.to/lastmile_qr_scan", "android": "https://dc.lft.to/lastmile_qr_scan"}, "lon": -77.0231365, "type": "electric_scooter", "fusion_lat": 0.0, "lat": 38.88357333333333, "name": "15356da3aeeb1d8398b96bb5130e9e12", "fusion_lon": 0.0, "bike_id": "15356da3aeeb1d8398b96bb5130e9e12", "is_disabled": 0, "is_reserved": 0}, {"rental_uris": {"ios": "https://dc.lft.to/lastmile_qr_scan", "android": "https://dc.lft.to/lastmile_qr_scan"}, "lon": -76.996062, "type": "electric_scooter", "fusion_lat": 0.0, "lat": 38.903681, "name": "1c0ebcab608b58f59de9eefe324fae0a", "fusion_lon": 0.0, "bike_id": "1c0ebcab608b58f59de9eefe324fae0a", "is_disabled": 0, "is_reserved": 0}, {"rental_uris": {"ios": "https://dc.lft.to/lastmile_qr_scan", "android": "https://dc.lft.to/lastmile_qr_scan"}, "lon": -77.03447183333333, "type": "electric_scooter", "fusion_lat": 0.0, "lat": 38.911584500000004, "name": "c68f479be27b384263ad2e8f1baf436c", "fusion_lon": 0.0, "bike_id": "c68f479be27b384263ad2e8f1baf436c", "is_disabled": 0, "is_reserved": 0}, {"rental_uris": {"ios": "https://dc.lft.to/lastmile_qr_scan", "android": "https://dc.lft.to/lastmile_qr_scan"}, "lon": -77.0406, "type": "electric_scooter", "fusion_lat": 0.0, "lat": 38.9174465, "name": "503ca54981371e7a465075f031fff498", "fusion_lon": 0.0, "bike_id": "503ca54981371e7a465075f031fff498", "is_disabled": 0, "is_reserved": 0}, {"rental_uris": {"ios": "https://dc.lft.to/lastmile_qr_scan", "android": "https://dc.lft.to/lastmile_qr_scan"}, "lon": -77.0916415, "type": "electric_bike", "fusion_lat": 0.0, "lat": 38.967652, "name": "151a3fb319a3ca955d05cc4110b79525", "fusion_lon": 0.0, "bike_id": "151a3fb319a3ca955d05cc4110b79525", "is_disabled": 0, "is_reserved": 0}, {"rental_uris": {"ios": "https://dc.lft.to/lastmile_qr_scan", "android": "https://dc.lft.to/lastmile_qr_scan"}, "lon": -77.029682, "type": "electric_scooter", "fusion_lat": 0.0, "lat": 38.91277916666667, "name": "3b30a6a40539436afd2ef023232aae90", "fusion_lon": 0.0, "bike_id": "3b30a6a40539436afd2ef023232aae90", "is_disabled": 0, "is_reserved": 0}, {"rental_uris": {"ios": "https://dc.lft.to/lastmile_qr_scan", "android": "https://dc.lft.to/lastmile_qr_scan"}, "lon": -77.130934, "type": "electric_bike", "fusion_lat": 0.0, "lat": 38.861650833333336, "name": "8c97f5f0b74978915d8d4544ac1d5a2b", "fusion_lon": 0.0, "bike_id": "8c97f5f0b74978915d8d4544ac1d5a2b", "is_disabled": 0, "is_reserved": 0}, {"rental_uris": {"ios": "https://dc.lft.to/lastmile_qr_scan", "android": "https://dc.lft.to/lastmile_qr_scan"}, "lon": -76.99948516666667, "type": "electric_scooter", "fusion_lat": 0.0, "lat": 38.84293233333333, "name": "bfc8ae885c8a3cdb105a63c0e7ca4c54", "fusion_lon": 0.0, "bike_id": "bfc8ae885c8a3cdb105a63c0e7ca4c54", "is_disabled": 0, "is_reserved": 0}, {"rental_uris": {"ios": "https://dc.lft.to/lastmile_qr_scan", "android": "https://dc.lft.to/lastmile_qr_scan"}, "lon": -77.06894733333333, "type": "electric_scooter", "fusion_lat": 0.0, "lat": 38.940271, "name": "ce28a3d6f80e5c1aead3bf242d1b898f", "fusion_lon": 0.0, "bike_id": "ce28a3d6f80e5c1aead3bf242d1b898f", "is_disabled": 0, "is_reserved": 0}, {"rental_uris": {"ios": "https://dc.lft.to/lastmile_qr_scan", "android": "https://dc.lft.to/lastmile_qr_scan"}, "lon": -76.916006, "type": "electric_bike", "fusion_lat": 0.0, "lat": 38.8798185, "name": "78ef7cf380e812b62ed145a979fa21ab", "fusion_lon": 0.0, "bike_id": "78ef7cf380e812b62ed145a979fa21ab", "is_disabled": 0, "is_reserved": 0}, {"rental_uris": {"ios": "https://dc.lft.to/lastmile_qr_scan", "android": "https://dc.lft.to/lastmile_qr_scan"}, "lon": -77.04055466666667, "type": "electric_scooter", "fusion_lat": 0.0, "lat": 38.926522, "name": "7c862e4a55363c13a15ea4e216040a10", "fusion_lon": 0.0, "bike_id": "7c862e4a55363c13a15ea4e216040a10", "is_disabled": 0, "is_reserved": 0}, {"rental_uris": {"ios": "https://dc.lft.to/lastmile_qr_scan", "android": "https://dc.lft.to/lastmile_qr_scan"}, "lon": -77.024073, "type": "electric_bike", "fusion_lat": 0.0, "lat": 38.994338166666665, "name": "820206bc4760f9eedd40076f85f41af6", "fusion_lon": 0.0, "bike_id": "820206bc4760f9eedd40076f85f41af6", "is_disabled": 0, "is_reserved": 0}, {"rental_uris": {"ios": "https://dc.lft.to/lastmile_qr_scan", "android": "https://dc.lft.to/lastmile_qr_scan"}, "lon": -77.016394, "type": "electric_scooter", "fusion_lat": 0.0, "lat": 38.90379, "name": "e7f7363488b0ce0a2a3938d1fdb13985", "fusion_lon": 0.0, "bike_id": "e7f7363488b0ce0a2a3938d1fdb13985", "is_disabled": 0, "is_reserved": 0}, {"rental_uris": {"ios": "https://dc.lft.to/lastmile_qr_scan", "android": "https://dc.lft.to/lastmile_qr_scan"}, "lon": -77.009284, "type": "electric_scooter", "fusion_lat": 0.0, "lat": 38.87200583333333, "name": "f09913d5e04baecba67daaad550f32a3", "fusion_lon": 0.0, "bike_id": "f09913d5e04baecba67daaad550f32a3", "is_disabled": 0, "is_reserved": 0}, {"rental_uris": {"ios": "https://dc.lft.to/lastmile_qr_scan", "android": "https://dc.lft.to/lastmile_qr_scan"}, "lon": -77.04129616666667, "type": "electric_scooter", "fusion_lat": 0.0, "lat": 38.92207233333333, "name": "cb53fbd411837a1f77b00f7f7159f33d", "fusion_lon": 0.0, "bike_id": "cb53fbd411837a1f77b00f7f7159f33d", "is_disabled": 0, "is_reserved": 0}, {"rental_uris": {"ios": "https://dc.lft.to/lastmile_qr_scan", "android": "https://dc.lft.to/lastmile_qr_scan"}, "lon": -77.07047616666667, "type": "electric_bike", "fusion_lat": 0.0, "lat": 38.824458666666665, "name": "cecca94d056e77b6b910cb1879c1951e", "fusion_lon": 0.0, "bike_id": "cecca94d056e77b6b910cb1879c1951e", "is_disabled": 0, "is_reserved": 0}, {"rental_uris": {"ios": "https://dc.lft.to/lastmile_qr_scan", "android": "https://dc.lft.to/lastmile_qr_scan"}, "lon": -77.039597, "type": "electric_scooter", "fusion_lat": 0.0, "lat": 38.90269133333334, "name": "8a070b19d573371962238fd32c10c640", "fusion_lon": 0.0, "bike_id": "8a070b19d573371962238fd32c10c640", "is_disabled": 0, "is_reserved": 0}, {"rental_uris": {"ios": "https://dc.lft.to/lastmile_qr_scan", "android": "https://dc.lft.to/lastmile_qr_scan"}, "lon": -77.02246283333334, "type": "electric_scooter", "fusion_lat": 0.0, "lat": 38.91640816666666, "name": "23ad903f1cbefa00e24a1bab6d8e273e", "fusion_lon": 0.0, "bike_id": "23ad903f1cbefa00e24a1bab6d8e273e", "is_disabled": 0, "is_reserved": 0}, {"rental_uris": {"ios": "https://dc.lft.to/lastmile_qr_scan", "android": "https://dc.lft.to/lastmile_qr_scan"}, "lon": -77.06367866666666, "type": "electric_scooter", "fusion_lat": 0.0, "lat": 38.90934633333333, "name": "971a7c2868bc422fb4d1ab536b78d96f", "fusion_lon": 0.0, "bike_id": "971a7c2868bc422fb4d1ab536b78d96f", "is_disabled": 0, "is_reserved": 0}, {"rental_uris": {"ios": "https://dc.lft.to/lastmile_qr_scan", "android": "https://dc.lft.to/lastmile_qr_scan"}, "lon": -77.04822383333334, "type": "electric_scooter", "fusion_lat": 0.0, "lat": 38.907962, "name": "d9b7852921b84f858d331caa71781a3a", "fusion_lon": 0.0, "bike_id": "d9b7852921b84f858d331caa71781a3a", "is_disabled": 0, "is_reserved": 0}, {"rental_uris": {"ios": "https://dc.lft.to/lastmile_qr_scan", "android": "https://dc.lft.to/lastmile_qr_scan"}, "lon": -77.05662216666667, "type": "electric_scooter", "fusion_lat": 0.0, "lat": 38.895461833333336, "name": "e7fda0f471f39cbcf0eb54440aecbecb", "fusion_lon": 0.0, "bike_id": "e7fda0f471f39cbcf0eb54440aecbecb", "is_disabled": 0, "is_reserved": 0}, {"rental_uris": {"ios": "https://dc.lft.to/lastmile_qr_scan", "android": "https://dc.lft.to/lastmile_qr_scan"}, "lon": -77.06332316666666, "type": "electric_bike", "fusion_lat": 0.0, "lat": 38.921105, "name": "9494289c3422203755b271f8e93f6d99", "fusion_lon": 0.0, "bike_id": "9494289c3422203755b271f8e93f6d99", "is_disabled": 0, "is_reserved": 0}, {"rental_uris": {"ios": "https://dc.lft.to/lastmile_qr_scan", "android": "https://dc.lft.to/lastmile_qr_scan"}, "lon": -76.946291, "type": "electric_scooter", "fusion_lat": 0.0, "lat": 38.8984585, "name": "d0e733069a7b9e2395e59dbf37e21a5a", "fusion_lon": 0.0, "bike_id": "d0e733069a7b9e2395e59dbf37e21a5a", "is_disabled": 0, "is_reserved": 0}, {"rental_uris": {"ios": "https://dc.lft.to/lastmile_qr_scan", "android": "https://dc.lft.to/lastmile_qr_scan"}, "lon": -77.08867666666667, "type": "electric_scooter", "fusion_lat": 0.0, "lat": 38.909896333333336, "name": "bb3d3914855e05a297f1c7492f8359c1", "fusion_lon": 0.0, "bike_id": "bb3d3914855e05a297f1c7492f8359c1", "is_disabled": 0, "is_reserved": 0}, {"rental_uris": {"ios": "https://dc.lft.to/lastmile_qr_scan", "android": "https://dc.lft.to/lastmile_qr_scan"}, "lon": -77.03476916666666, "type": "electric_scooter", "fusion_lat": 0.0, "lat": 38.9096135, "name": "150d8e03583626314c6d255ffafd06b3", "fusion_lon": 0.0, "bike_id": "150d8e03583626314c6d255ffafd06b3", "is_disabled": 0, "is_reserved": 0}, {"rental_uris": {"ios": "https://dc.lft.to/lastmile_qr_scan", "android": "https://dc.lft.to/lastmile_qr_scan"}, "lon": -77.04197966666666, "type": "electric_scooter", "fusion_lat": 0.0, "lat": 38.91992233333333, "name": "97435d51166aefc80eda996e17341836", "fusion_lon": 0.0, "bike_id": "97435d51166aefc80eda996e17341836", "is_disabled": 0, "is_reserved": 0}, {"rental_uris": {"ios": "https://dc.lft.to/lastmile_qr_scan", "android": "https://dc.lft.to/lastmile_qr_scan"}, "lon": -77.05859916666667, "type": "electric_scooter", "fusion_lat": 0.0, "lat": 38.93612316666667, "name": "e051271c24ffd65c9a1e65651d6c8dbc", "fusion_lon": 0.0, "bike_id": "e051271c24ffd65c9a1e65651d6c8dbc", "is_disabled": 0, "is_reserved": 0}, {"rental_uris": {"ios": "https://dc.lft.to/lastmile_qr_scan", "android": "https://dc.lft.to/lastmile_qr_scan"}, "lon": -77.04127116666666, "type": "electric_scooter", "fusion_lat": 0.0, "lat": 38.923465666666665, "name": "d051c6c511c85182cc0cf375796aaeb3", "fusion_lon": 0.0, "bike_id": "d051c6c511c85182cc0cf375796aaeb3", "is_disabled": 0, "is_reserved": 0}, {"rental_uris": {"ios": "https://dc.lft.to/lastmile_qr_scan", "android": "https://dc.lft.to/lastmile_qr_scan"}, "lon": -77.03016566666666, "type": "electric_scooter", "fusion_lat": 0.0, "lat": 38.910106999999996, "name": "48d7938b8ae12f1cf591c4b69f7673ab", "fusion_lon": 0.0, "bike_id": "48d7938b8ae12f1cf591c4b69f7673ab", "is_disabled": 0, "is_reserved": 0}, {"rental_uris": {"ios": "https://dc.lft.to/lastmile_qr_scan", "android": "https://dc.lft.to/lastmile_qr_scan"}, "lon": -77.04615983333333, "type": "electric_scooter", "fusion_lat": 0.0, "lat": 38.902621333333336, "name": "2cb3a79f9a286bdb10b79b6a79f24a43", "fusion_lon": 0.0, "bike_id": "2cb3a79f9a286bdb10b79b6a79f24a43", "is_disabled": 0, "is_reserved": 0}, {"rental_uris": {"ios": "https://dc.lft.to/lastmile_qr_scan", "android": "https://dc.lft.to/lastmile_qr_scan"}, "lon": -77.0526575, "type": "electric_scooter", "fusion_lat": 0.0, "lat": 38.91022916666667, "name": "d5fb456d51c2b4cfe4cdcc273dcc14c6", "fusion_lon": 0.0, "bike_id": "d5fb456d51c2b4cfe4cdcc273dcc14c6", "is_disabled": 0, "is_reserved": 0}, {"rental_uris": {"ios": "https://dc.lft.to/lastmile_qr_scan", "android": "https://dc.lft.to/lastmile_qr_scan"}, "lon": -77.03804416666667, "type": "electric_scooter", "fusion_lat": 0.0, "lat": 38.92192716666667, "name": "c80c264c7a53c8d6dbf8ac521b0998a8", "fusion_lon": 0.0, "bike_id": "c80c264c7a53c8d6dbf8ac521b0998a8", "is_disabled": 0, "is_reserved": 0}, {"rental_uris": {"ios": "https://dc.lft.to/lastmile_qr_scan", "android": "https://dc.lft.to/lastmile_qr_scan"}, "lon": -77.0258235, "type": "electric_scooter", "fusion_lat": 0.0, "lat": 38.918189166666664, "name": "f0022873a981bf2244b30fd2392875f5", "fusion_lon": 0.0, "bike_id": "f0022873a981bf2244b30fd2392875f5", "is_disabled": 0, "is_reserved": 0}, {"rental_uris": {"ios": "https://dc.lft.to/lastmile_qr_scan", "android": "https://dc.lft.to/lastmile_qr_scan"}, "lon": -77.03976866666666, "type": "electric_scooter", "fusion_lat": 0.0, "lat": 38.902803, "name": "93429e639a20d8a3cfa358da13d43833", "fusion_lon": 0.0, "bike_id": "93429e639a20d8a3cfa358da13d43833", "is_disabled": 0, "is_reserved": 0}, {"rental_uris": {"ios": "https://dc.lft.to/lastmile_qr_scan", "android": "https://dc.lft.to/lastmile_qr_scan"}, "lon": -77.0246465, "type": "electric_scooter", "fusion_lat": 0.0, "lat": 38.979358833333336, "name": "60cf8a9e7c724131f050d8b8d6f45b47", "fusion_lon": 0.0, "bike_id": "60cf8a9e7c724131f050d8b8d6f45b47", "is_disabled": 0, "is_reserved": 0}, {"rental_uris": {"ios": "https://dc.lft.to/lastmile_qr_scan", "android": "https://dc.lft.to/lastmile_qr_scan"}, "lon": -77.036662, "type": "electric_scooter", "fusion_lat": 0.0, "lat": 38.92994733333333, "name": "16e7f7f1e220b2a0c7597156193ab429", "fusion_lon": 0.0, "bike_id": "16e7f7f1e220b2a0c7597156193ab429", "is_disabled": 0, "is_reserved": 0}, {"rental_uris": {"ios": "https://dc.lft.to/lastmile_qr_scan", "android": "https://dc.lft.to/lastmile_qr_scan"}, "lon": -76.9732845, "type": "electric_bike", "fusion_lat": 0.0, "lat": 38.850661333333335, "name": "79c87118ef5670907479750aa7665603", "fusion_lon": 0.0, "bike_id": "79c87118ef5670907479750aa7665603", "is_disabled": 0, "is_reserved": 0}, {"rental_uris": {"ios": "https://dc.lft.to/lastmile_qr_scan", "android": "https://dc.lft.to/lastmile_qr_scan"}, "lon": -77.0226875, "type": "electric_scooter", "fusion_lat": 0.0, "lat": 38.91675733333334, "name": "c5bf561d5558ecb99a036161e0cab0c9", "fusion_lon": 0.0, "bike_id": "c5bf561d5558ecb99a036161e0cab0c9", "is_disabled": 0, "is_reserved": 0}, {"rental_uris": {"ios": "https://dc.lft.to/lastmile_qr_scan", "android": "https://dc.lft.to/lastmile_qr_scan"}, "lon": -76.99487033333334, "type": "electric_scooter", "fusion_lat": 0.0, "lat": 38.9023555, "name": "5e2189b068d0fb59a2b613343d9dd8e8", "fusion_lon": 0.0, "bike_id": "5e2189b068d0fb59a2b613343d9dd8e8", "is_disabled": 0, "is_reserved": 0}, {"rental_uris": {"ios": "https://dc.lft.to/lastmile_qr_scan", "android": "https://dc.lft.to/lastmile_qr_scan"}, "lon": -77.03519333333334, "type": "electric_scooter", "fusion_lat": 0.0, "lat": 38.906817833333335, "name": "aa717cda80de3dedbb89ea9ac5cf8676", "fusion_lon": 0.0, "bike_id": "aa717cda80de3dedbb89ea9ac5cf8676", "is_disabled": 0, "is_reserved": 0}, {"rental_uris": {"ios": "https://dc.lft.to/lastmile_qr_scan", "android": "https://dc.lft.to/lastmile_qr_scan"}, "lon": -77.0426125, "type": "electric_scooter", "fusion_lat": 0.0, "lat": 38.9221075, "name": "1b91280d8250a8c6e48679e8f560348d", "fusion_lon": 0.0, "bike_id": "1b91280d8250a8c6e48679e8f560348d", "is_disabled": 0, "is_reserved": 0}, {"rental_uris": {"ios": "https://dc.lft.to/lastmile_qr_scan", "android": "https://dc.lft.to/lastmile_qr_scan"}, "lon": -77.03530883333333, "type": "electric_bike", "fusion_lat": 0.0, "lat": 38.924215333333336, "name": "818c85d5b7c1873970c07965ef4aa05e", "fusion_lon": 0.0, "bike_id": "818c85d5b7c1873970c07965ef4aa05e", "is_disabled": 0, "is_reserved": 0}, {"rental_uris": {"ios": "https://dc.lft.to/lastmile_qr_scan", "android": "https://dc.lft.to/lastmile_qr_scan"}, "lon": -77.06936016666667, "type": "electric_scooter", "fusion_lat": 0.0, "lat": 38.905182333333336, "name": "dd861f72d15e6752cc977ab47aef10fe", "fusion_lon": 0.0, "bike_id": "dd861f72d15e6752cc977ab47aef10fe", "is_disabled": 0, "is_reserved": 0}, {"rental_uris": {"ios": "https://dc.lft.to/lastmile_qr_scan", "android": "https://dc.lft.to/lastmile_qr_scan"}, "lon": -77.016414, "type": "electric_scooter", "fusion_lat": 0.0, "lat": 38.92932783333333, "name": "b9f66e7a512f909eb9c46fe0b9aebb89", "fusion_lon": 0.0, "bike_id": "b9f66e7a512f909eb9c46fe0b9aebb89", "is_disabled": 0, "is_reserved": 0}, {"rental_uris": {"ios": "https://dc.lft.to/lastmile_qr_scan", "android": "https://dc.lft.to/lastmile_qr_scan"}, "lon": -77.06004816666666, "type": "electric_scooter", "fusion_lat": 0.0, "lat": 38.9052685, "name": "3c64396c78b6f9051c03b0e09594c5e8", "fusion_lon": 0.0, "bike_id": "3c64396c78b6f9051c03b0e09594c5e8", "is_disabled": 0, "is_reserved": 0}, {"rental_uris": {"ios": "https://dc.lft.to/lastmile_qr_scan", "android": "https://dc.lft.to/lastmile_qr_scan"}, "lon": -77.03979083333333, "type": "electric_scooter", "fusion_lat": 0.0, "lat": 38.923200333333334, "name": "57a87ff5ea60fb413986fae0a7ae1c00", "fusion_lon": 0.0, "bike_id": "57a87ff5ea60fb413986fae0a7ae1c00", "is_disabled": 0, "is_reserved": 0}, {"rental_uris": {"ios": "https://dc.lft.to/lastmile_qr_scan", "android": "https://dc.lft.to/lastmile_qr_scan"}, "lon": -77.02548933333334, "type": "electric_scooter", "fusion_lat": 0.0, "lat": 38.914853, "name": "6ed8efa85dc420562a3ac33ee4233630", "fusion_lon": 0.0, "bike_id": "6ed8efa85dc420562a3ac33ee4233630", "is_disabled": 0, "is_reserved": 0}, {"rental_uris": {"ios": "https://dc.lft.to/lastmile_qr_scan", "android": "https://dc.lft.to/lastmile_qr_scan"}, "lon": -76.982619, "type": "electric_scooter", "fusion_lat": 0.0, "lat": 38.86356033333333, "name": "352c6df826e0b798730a43583c79d32f", "fusion_lon": 0.0, "bike_id": "352c6df826e0b798730a43583c79d32f", "is_disabled": 0, "is_reserved": 0}, {"rental_uris": {"ios": "https://dc.lft.to/lastmile_qr_scan", "android": "https://dc.lft.to/lastmile_qr_scan"}, "lon": -76.993805, "type": "electric_scooter", "fusion_lat": 0.0, "lat": 38.89746516666666, "name": "48aa99ecab5da8550ab52c5381f9322e", "fusion_lon": 0.0, "bike_id": "48aa99ecab5da8550ab52c5381f9322e", "is_disabled": 0, "is_reserved": 0}, {"rental_uris": {"ios": "https://dc.lft.to/lastmile_qr_scan", "android": "https://dc.lft.to/lastmile_qr_scan"}, "lon": -77.05441083333334, "type": "electric_scooter", "fusion_lat": 0.0, "lat": 38.896098, "name": "31277fce5ed02da09de82b9fcfcb2289", "fusion_lon": 0.0, "bike_id": "31277fce5ed02da09de82b9fcfcb2289", "is_disabled": 0, "is_reserved": 0}, {"rental_uris": {"ios": "https://dc.lft.to/lastmile_qr_scan", "android": "https://dc.lft.to/lastmile_qr_scan"}, "lon": -77.01120533333334, "type": "electric_scooter", "fusion_lat": 0.0, "lat": 38.900312, "name": "d193ebc97b9d1c440121852806ca9c5d", "fusion_lon": 0.0, "bike_id": "d193ebc97b9d1c440121852806ca9c5d", "is_disabled": 0, "is_reserved": 0}, {"rental_uris": {"ios": "https://dc.lft.to/lastmile_qr_scan", "android": "https://dc.lft.to/lastmile_qr_scan"}, "lon": -77.0442995, "type": "electric_scooter", "fusion_lat": 0.0, "lat": 38.90581383333333, "name": "f524c444d7a492928f198dba631044db", "fusion_lon": 0.0, "bike_id": "f524c444d7a492928f198dba631044db", "is_disabled": 0, "is_reserved": 0}, {"rental_uris": {"ios": "https://dc.lft.to/lastmile_qr_scan", "android": "https://dc.lft.to/lastmile_qr_scan"}, "lon": -77.03483816666666, "type": "electric_scooter", "fusion_lat": 0.0, "lat": 38.9198615, "name": "575ebcbb11a36df460553b8b87e08397", "fusion_lon": 0.0, "bike_id": "575ebcbb11a36df460553b8b87e08397", "is_disabled": 0, "is_reserved": 0}, {"rental_uris": {"ios": "https://dc.lft.to/lastmile_qr_scan", "android": "https://dc.lft.to/lastmile_qr_scan"}, "lon": -77.01657166666666, "type": "electric_scooter", "fusion_lat": 0.0, "lat": 38.953335, "name": "2c0b4b976608e2961553a7ff31dbfded", "fusion_lon": 0.0, "bike_id": "2c0b4b976608e2961553a7ff31dbfded", "is_disabled": 0, "is_reserved": 0}, {"rental_uris": {"ios": "https://dc.lft.to/lastmile_qr_scan", "android": "https://dc.lft.to/lastmile_qr_scan"}, "lon": -77.04799016666666, "type": "electric_scooter", "fusion_lat": 0.0, "lat": 38.893613333333334, "name": "b49776871c1234189daeee5459f7ac2c", "fusion_lon": 0.0, "bike_id": "b49776871c1234189daeee5459f7ac2c", "is_disabled": 0, "is_reserved": 0}, {"rental_uris": {"ios": "https://dc.lft.to/lastmile_qr_scan", "android": "https://dc.lft.to/lastmile_qr_scan"}, "lon": -76.9893985, "type": "electric_bike", "fusion_lat": 0.0, "lat": 38.92861716666667, "name": "3dd1143055b456fcea7da3c272865037", "fusion_lon": 0.0, "bike_id": "3dd1143055b456fcea7da3c272865037", "is_disabled": 0, "is_reserved": 0}, {"rental_uris": {"ios": "https://dc.lft.to/lastmile_qr_scan", "android": "https://dc.lft.to/lastmile_qr_scan"}, "lon": -77.0320845, "type": "electric_scooter", "fusion_lat": 0.0, "lat": 38.91799683333333, "name": "bba89ef8c8d911ced222a58f1cf23162", "fusion_lon": 0.0, "bike_id": "bba89ef8c8d911ced222a58f1cf23162", "is_disabled": 0, "is_reserved": 0}, {"rental_uris": {"ios": "https://dc.lft.to/lastmile_qr_scan", "android": "https://dc.lft.to/lastmile_qr_scan"}, "lon": -77.02020883333333, "type": "electric_scooter", "fusion_lat": 0.0, "lat": 38.91651233333333, "name": "26071dea409174354624b3d77fa37dd2", "fusion_lon": 0.0, "bike_id": "26071dea409174354624b3d77fa37dd2", "is_disabled": 0, "is_reserved": 0}, {"rental_uris": {"ios": "https://dc.lft.to/lastmile_qr_scan", "android": "https://dc.lft.to/lastmile_qr_scan"}, "lon": -77.01335566666667, "type": "electric_scooter", "fusion_lat": 0.0, "lat": 38.927331833333334, "name": "f967a74257456cfc29e64927b4b315a5", "fusion_lon": 0.0, "bike_id": "f967a74257456cfc29e64927b4b315a5", "is_disabled": 0, "is_reserved": 0}, {"rental_uris": {"ios": "https://dc.lft.to/lastmile_qr_scan", "android": "https://dc.lft.to/lastmile_qr_scan"}, "lon": -77.033136, "type": "electric_scooter", "fusion_lat": 0.0, "lat": 38.90836316666667, "name": "0c19f4c0abf5b66a44c5284b0d8ba2bf", "fusion_lon": 0.0, "bike_id": "0c19f4c0abf5b66a44c5284b0d8ba2bf", "is_disabled": 0, "is_reserved": 0}, {"rental_uris": {"ios": "https://dc.lft.to/lastmile_qr_scan", "android": "https://dc.lft.to/lastmile_qr_scan"}, "lon": -77.02617716666667, "type": "electric_scooter", "fusion_lat": 0.0, "lat": 38.917108999999996, "name": "8f29fe004130b960b5b4294b38d506d9", "fusion_lon": 0.0, "bike_id": "8f29fe004130b960b5b4294b38d506d9", "is_disabled": 0, "is_reserved": 0}, {"rental_uris": {"ios": "https://dc.lft.to/lastmile_qr_scan", "android": "https://dc.lft.to/lastmile_qr_scan"}, "lon": -77.01435116666667, "type": "electric_scooter", "fusion_lat": 0.0, "lat": 38.9299115, "name": "8ba3e4f6c8ff8c34a83736943d088ada", "fusion_lon": 0.0, "bike_id": "8ba3e4f6c8ff8c34a83736943d088ada", "is_disabled": 0, "is_reserved": 0}, {"rental_uris": {"ios": "https://dc.lft.to/lastmile_qr_scan", "android": "https://dc.lft.to/lastmile_qr_scan"}, "lon": -77.05519366666667, "type": "electric_scooter", "fusion_lat": 0.0, "lat": 38.89916916666667, "name": "0d29607415e07a60884023b442259692", "fusion_lon": 0.0, "bike_id": "0d29607415e07a60884023b442259692", "is_disabled": 0, "is_reserved": 0}, {"rental_uris": {"ios": "https://dc.lft.to/lastmile_qr_scan", "android": "https://dc.lft.to/lastmile_qr_scan"}, "lon": -77.034717, "type": "electric_scooter", "fusion_lat": 0.0, "lat": 38.9084985, "name": "35d5ef778f27d8271cc64ad45586337a", "fusion_lon": 0.0, "bike_id": "35d5ef778f27d8271cc64ad45586337a", "is_disabled": 0, "is_reserved": 0}, {"rental_uris": {"ios": "https://dc.lft.to/lastmile_qr_scan", "android": "https://dc.lft.to/lastmile_qr_scan"}, "lon": -77.00187866666667, "type": "electric_scooter", "fusion_lat": 0.0, "lat": 38.8998315, "name": "67f66d215f62bc5ab380a251b6e92144", "fusion_lon": 0.0, "bike_id": "67f66d215f62bc5ab380a251b6e92144", "is_disabled": 0, "is_reserved": 0}, {"rental_uris": {"ios": "https://dc.lft.to/lastmile_qr_scan", "android": "https://dc.lft.to/lastmile_qr_scan"}, "lon": -77.03858233333334, "type": "electric_scooter", "fusion_lat": 0.0, "lat": 38.903824166666666, "name": "f93c36933f11955f94d63a369ea78731", "fusion_lon": 0.0, "bike_id": "f93c36933f11955f94d63a369ea78731", "is_disabled": 0, "is_reserved": 0}, {"rental_uris": {"ios": "https://dc.lft.to/lastmile_qr_scan", "android": "https://dc.lft.to/lastmile_qr_scan"}, "lon": -76.98090283333333, "type": "electric_bike", "fusion_lat": 0.0, "lat": 38.902916833333336, "name": "163990f8fbb70cd67584d294eb3f59e1", "fusion_lon": 0.0, "bike_id": "163990f8fbb70cd67584d294eb3f59e1", "is_disabled": 0, "is_reserved": 0}, {"rental_uris": {"ios": "https://dc.lft.to/lastmile_qr_scan", "android": "https://dc.lft.to/lastmile_qr_scan"}, "lon": -77.07906933333334, "type": "electric_bike", "fusion_lat": 0.0, "lat": 38.839317333333334, "name": "cb4321aaee601c5907e256be44cc9ee3", "fusion_lon": 0.0, "bike_id": "cb4321aaee601c5907e256be44cc9ee3", "is_disabled": 0, "is_reserved": 0}, {"rental_uris": {"ios": "https://dc.lft.to/lastmile_qr_scan", "android": "https://dc.lft.to/lastmile_qr_scan"}, "lon": -77.02370066666667, "type": "electric_scooter", "fusion_lat": 0.0, "lat": 38.90869933333333, "name": "0b3774e027f9a1226f38019d769b9ef3", "fusion_lon": 0.0, "bike_id": "0b3774e027f9a1226f38019d769b9ef3", "is_disabled": 0, "is_reserved": 0}, {"rental_uris": {"ios": "https://dc.lft.to/lastmile_qr_scan", "android": "https://dc.lft.to/lastmile_qr_scan"}, "lon": -76.93620116666666, "type": "electric_bike", "fusion_lat": 0.0, "lat": 38.9706865, "name": "f6daf7aec8961ab55aec088171172692", "fusion_lon": 0.0, "bike_id": "f6daf7aec8961ab55aec088171172692", "is_disabled": 0, "is_reserved": 0}, {"rental_uris": {"ios": "https://dc.lft.to/lastmile_qr_scan", "android": "https://dc.lft.to/lastmile_qr_scan"}, "lon": -77.00620566666667, "type": "electric_scooter", "fusion_lat": 0.0, "lat": 38.9156585, "name": "44b62187dd0c28fbed0354005bb96955", "fusion_lon": 0.0, "bike_id": "44b62187dd0c28fbed0354005bb96955", "is_disabled": 0, "is_reserved": 0}, {"rental_uris": {"ios": "https://dc.lft.to/lastmile_qr_scan", "android": "https://dc.lft.to/lastmile_qr_scan"}, "lon": -77.00544983333333, "type": "electric_scooter", "fusion_lat": 0.0, "lat": 38.87462716666667, "name": "4b9100445863d0c5d7615c554db789fd", "fusion_lon": 0.0, "bike_id": "4b9100445863d0c5d7615c554db789fd", "is_disabled": 0, "is_reserved": 0}, {"rental_uris": {"ios": "https://dc.lft.to/lastmile_qr_scan", "android": "https://dc.lft.to/lastmile_qr_scan"}, "lon": -77.0235035, "type": "electric_scooter", "fusion_lat": 0.0, "lat": 38.93386733333333, "name": "fa2e8b7dedb8750d136124b902d6ef2f", "fusion_lon": 0.0, "bike_id": "fa2e8b7dedb8750d136124b902d6ef2f", "is_disabled": 0, "is_reserved": 0}, {"rental_uris": {"ios": "https://dc.lft.to/lastmile_qr_scan", "android": "https://dc.lft.to/lastmile_qr_scan"}, "lon": -77.0271615, "type": "electric_scooter", "fusion_lat": 0.0, "lat": 38.90848066666667, "name": "fa7e31efebc176c9623f638445ac0cda", "fusion_lon": 0.0, "bike_id": "fa7e31efebc176c9623f638445ac0cda", "is_disabled": 0, "is_reserved": 0}, {"rental_uris": {"ios": "https://dc.lft.to/lastmile_qr_scan", "android": "https://dc.lft.to/lastmile_qr_scan"}, "lon": -77.02698633333333, "type": "electric_scooter", "fusion_lat": 0.0, "lat": 38.901639333333335, "name": "a0b656cfc4f4e3caa9cd566fe1ef8fca", "fusion_lon": 0.0, "bike_id": "a0b656cfc4f4e3caa9cd566fe1ef8fca", "is_disabled": 0, "is_reserved": 0}, {"rental_uris": {"ios": "https://dc.lft.to/lastmile_qr_scan", "android": "https://dc.lft.to/lastmile_qr_scan"}, "lon": -77.042228, "type": "electric_scooter", "fusion_lat": 0.0, "lat": 38.907200333333336, "name": "4a4f7bcbfacce19e89ca8f4d0be77173", "fusion_lon": 0.0, "bike_id": "4a4f7bcbfacce19e89ca8f4d0be77173", "is_disabled": 0, "is_reserved": 0}, {"rental_uris": {"ios": "https://dc.lft.to/lastmile_qr_scan", "android": "https://dc.lft.to/lastmile_qr_scan"}, "lon": -77.03185533333334, "type": "electric_scooter", "fusion_lat": 0.0, "lat": 38.9132825, "name": "187b77bcabb7aafb891bf7e428d36358", "fusion_lon": 0.0, "bike_id": "187b77bcabb7aafb891bf7e428d36358", "is_disabled": 0, "is_reserved": 0}, {"rental_uris": {"ios": "https://dc.lft.to/lastmile_qr_scan", "android": "https://dc.lft.to/lastmile_qr_scan"}, "lon": -76.96973233333334, "type": "electric_scooter", "fusion_lat": 0.0, "lat": 38.8616185, "name": "9dd66a0347c65adb352c5c061ddb2956", "fusion_lon": 0.0, "bike_id": "9dd66a0347c65adb352c5c061ddb2956", "is_disabled": 0, "is_reserved": 0}, {"rental_uris": {"ios": "https://dc.lft.to/lastmile_qr_scan", "android": "https://dc.lft.to/lastmile_qr_scan"}, "lon": -76.9984805, "type": "electric_scooter", "fusion_lat": 0.0, "lat": 38.900432333333335, "name": "50d5e544e7ae7ba8429db851e633d229", "fusion_lon": 0.0, "bike_id": "50d5e544e7ae7ba8429db851e633d229", "is_disabled": 0, "is_reserved": 0}, {"rental_uris": {"ios": "https://dc.lft.to/lastmile_qr_scan", "android": "https://dc.lft.to/lastmile_qr_scan"}, "lon": -77.02854283333333, "type": "electric_bike", "fusion_lat": 0.0, "lat": 38.93180816666667, "name": "e724746829d3b45a612c800b5f550da9", "fusion_lon": 0.0, "bike_id": "e724746829d3b45a612c800b5f550da9", "is_disabled": 0, "is_reserved": 0}, {"rental_uris": {"ios": "https://dc.lft.to/lastmile_qr_scan", "android": "https://dc.lft.to/lastmile_qr_scan"}, "lon": -77.02426066666666, "type": "electric_scooter", "fusion_lat": 0.0, "lat": 38.90187683333333, "name": "d612d4daa4dfd628d5f08a2f7d6d4d70", "fusion_lon": 0.0, "bike_id": "d612d4daa4dfd628d5f08a2f7d6d4d70", "is_disabled": 0, "is_reserved": 0}, {"rental_uris": {"ios": "https://dc.lft.to/lastmile_qr_scan", "android": "https://dc.lft.to/lastmile_qr_scan"}, "lon": -77.01539133333333, "type": "electric_scooter", "fusion_lat": 0.0, "lat": 38.88741983333333, "name": "20f75ecf71a4b452a284bdc32747bbcb", "fusion_lon": 0.0, "bike_id": "20f75ecf71a4b452a284bdc32747bbcb", "is_disabled": 0, "is_reserved": 0}, {"rental_uris": {"ios": "https://dc.lft.to/lastmile_qr_scan", "android": "https://dc.lft.to/lastmile_qr_scan"}, "lon": -77.04129716666667, "type": "electric_scooter", "fusion_lat": 0.0, "lat": 38.92434566666667, "name": "7cd40111c9d36abacaeedc515fd4f846", "fusion_lon": 0.0, "bike_id": "7cd40111c9d36abacaeedc515fd4f846", "is_disabled": 0, "is_reserved": 0}, {"rental_uris": {"ios": "https://dc.lft.to/lastmile_qr_scan", "android": "https://dc.lft.to/lastmile_qr_scan"}, "lon": -77.05351166666667, "type": "electric_scooter", "fusion_lat": 0.0, "lat": 38.927193833333334, "name": "ae67583d84330c0166ddc496b5863e3d", "fusion_lon": 0.0, "bike_id": "ae67583d84330c0166ddc496b5863e3d", "is_disabled": 0, "is_reserved": 0}, {"rental_uris": {"ios": "https://dc.lft.to/lastmile_qr_scan", "android": "https://dc.lft.to/lastmile_qr_scan"}, "lon": -77.06005816666666, "type": "electric_scooter", "fusion_lat": 0.0, "lat": 38.905285, "name": "0f3b9468edc8d65289bb9dd86e7e17d4", "fusion_lon": 0.0, "bike_id": "0f3b9468edc8d65289bb9dd86e7e17d4", "is_disabled": 0, "is_reserved": 0}, {"rental_uris": {"ios": "https://dc.lft.to/lastmile_qr_scan", "android": "https://dc.lft.to/lastmile_qr_scan"}, "lon": -77.03065633333334, "type": "electric_scooter", "fusion_lat": 0.0, "lat": 38.89463466666667, "name": "7471734f0774329537235fe147b5ef3f", "fusion_lon": 0.0, "bike_id": "7471734f0774329537235fe147b5ef3f", "is_disabled": 0, "is_reserved": 0}, {"rental_uris": {"ios": "https://dc.lft.to/lastmile_qr_scan", "android": "https://dc.lft.to/lastmile_qr_scan"}, "lon": -77.105108, "type": "electric_bike", "fusion_lat": 0.0, "lat": 38.928513333333335, "name": "8270b5e28901d3b23f5102449ee621e4", "fusion_lon": 0.0, "bike_id": "8270b5e28901d3b23f5102449ee621e4", "is_disabled": 0, "is_reserved": 0}, {"rental_uris": {"ios": "https://dc.lft.to/lastmile_qr_scan", "android": "https://dc.lft.to/lastmile_qr_scan"}, "lon": -77.14999616666667, "type": "electric_bike", "fusion_lat": 0.0, "lat": 39.09462116666667, "name": "660ec6ef1054acbde243371861f53f83", "fusion_lon": 0.0, "bike_id": "660ec6ef1054acbde243371861f53f83", "is_disabled": 0, "is_reserved": 0}, {"rental_uris": {"ios": "https://dc.lft.to/lastmile_qr_scan", "android": "https://dc.lft.to/lastmile_qr_scan"}, "lon": -76.93365533333333, "type": "electric_scooter", "fusion_lat": 0.0, "lat": 38.899170833333336, "name": "dc8424426973f384202487dcb9242c39", "fusion_lon": 0.0, "bike_id": "dc8424426973f384202487dcb9242c39", "is_disabled": 0, "is_reserved": 0}, {"rental_uris": {"ios": "https://dc.lft.to/lastmile_qr_scan", "android": "https://dc.lft.to/lastmile_qr_scan"}, "lon": -77.19910383333334, "type": "electric_bike", "fusion_lat": 0.0, "lat": 38.87530666666667, "name": "358f04f5a3d5b0db148929b68dc73324", "fusion_lon": 0.0, "bike_id": "358f04f5a3d5b0db148929b68dc73324", "is_disabled": 0, "is_reserved": 0}, {"rental_uris": {"ios": "https://dc.lft.to/lastmile_qr_scan", "android": "https://dc.lft.to/lastmile_qr_scan"}, "lon": -76.99599716666667, "type": "electric_scooter", "fusion_lat": 0.0, "lat": 38.884284, "name": "765e0dca581ce400c266695a14661470", "fusion_lon": 0.0, "bike_id": "765e0dca581ce400c266695a14661470", "is_disabled": 0, "is_reserved": 0}, {"rental_uris": {"ios": "https://dc.lft.to/lastmile_qr_scan", "android": "https://dc.lft.to/lastmile_qr_scan"}, "lon": -77.03173383333333, "type": "electric_scooter", "fusion_lat": 0.0, "lat": 38.904429, "name": "c44c7cb910a8d381c65c4346fbbab061", "fusion_lon": 0.0, "bike_id": "c44c7cb910a8d381c65c4346fbbab061", "is_disabled": 0, "is_reserved": 0}, {"rental_uris": {"ios": "https://dc.lft.to/lastmile_qr_scan", "android": "https://dc.lft.to/lastmile_qr_scan"}, "lon": -77.02354666666666, "type": "electric_scooter", "fusion_lat": 0.0, "lat": 38.935344666666666, "name": "71190a14f036dd5720a09a8b1cf35e50", "fusion_lon": 0.0, "bike_id": "71190a14f036dd5720a09a8b1cf35e50", "is_disabled": 0, "is_reserved": 0}, {"rental_uris": {"ios": "https://dc.lft.to/lastmile_qr_scan", "android": "https://dc.lft.to/lastmile_qr_scan"}, "lon": -77.044163, "type": "electric_scooter", "fusion_lat": 0.0, "lat": 38.90397466666667, "name": "6b721615589d41b5430b4fce8e8c1ee4", "fusion_lon": 0.0, "bike_id": "6b721615589d41b5430b4fce8e8c1ee4", "is_disabled": 0, "is_reserved": 0}, {"rental_uris": {"ios": "https://dc.lft.to/lastmile_qr_scan", "android": "https://dc.lft.to/lastmile_qr_scan"}, "lon": -76.93803266666667, "type": "electric_scooter", "fusion_lat": 0.0, "lat": 38.88234166666667, "name": "e63e180aa8070234581bebaffa2c82e1", "fusion_lon": 0.0, "bike_id": "e63e180aa8070234581bebaffa2c82e1", "is_disabled": 0, "is_reserved": 0}, {"rental_uris": {"ios": "https://dc.lft.to/lastmile_qr_scan", "android": "https://dc.lft.to/lastmile_qr_scan"}, "lon": -77.0098185, "type": "electric_scooter", "fusion_lat": 0.0, "lat": 38.914896166666665, "name": "907e4cfb0e4df752c32ae55e6dc3c74b", "fusion_lon": 0.0, "bike_id": "907e4cfb0e4df752c32ae55e6dc3c74b", "is_disabled": 0, "is_reserved": 0}, {"rental_uris": {"ios": "https://dc.lft.to/lastmile_qr_scan", "android": "https://dc.lft.to/lastmile_qr_scan"}, "lon": -77.0105325, "type": "electric_scooter", "fusion_lat": 0.0, "lat": 38.879406, "name": "4c945393248a89b3b12a5ffe5b4c2b5d", "fusion_lon": 0.0, "bike_id": "4c945393248a89b3b12a5ffe5b4c2b5d", "is_disabled": 0, "is_reserved": 0}, {"rental_uris": {"ios": "https://dc.lft.to/lastmile_qr_scan", "android": "https://dc.lft.to/lastmile_qr_scan"}, "lon": -77.0269885, "type": "electric_scooter", "fusion_lat": 0.0, "lat": 38.94981466666667, "name": "ddeb89200de3d1396967566ab6715a27", "fusion_lon": 0.0, "bike_id": "ddeb89200de3d1396967566ab6715a27", "is_disabled": 0, "is_reserved": 0}, {"rental_uris": {"ios": "https://dc.lft.to/lastmile_qr_scan", "android": "https://dc.lft.to/lastmile_qr_scan"}, "lon": -76.96633366666667, "type": "electric_bike", "fusion_lat": 0.0, "lat": 38.942023666666664, "name": "b17052ada453ced21c89b9b963d03e4b", "fusion_lon": 0.0, "bike_id": "b17052ada453ced21c89b9b963d03e4b", "is_disabled": 0, "is_reserved": 0}, {"rental_uris": {"ios": "https://dc.lft.to/lastmile_qr_scan", "android": "https://dc.lft.to/lastmile_qr_scan"}, "lon": -77.031686, "type": "electric_scooter", "fusion_lat": 0.0, "lat": 38.91565933333333, "name": "8dc22294af088ac2fc42fccb3e0c2c14", "fusion_lon": 0.0, "bike_id": "8dc22294af088ac2fc42fccb3e0c2c14", "is_disabled": 0, "is_reserved": 0}, {"rental_uris": {"ios": "https://dc.lft.to/lastmile_qr_scan", "android": "https://dc.lft.to/lastmile_qr_scan"}, "lon": -77.04133066666667, "type": "electric_scooter", "fusion_lat": 0.0, "lat": 38.9265295, "name": "344fe323aa11a14c5b3c52e563ae9130", "fusion_lon": 0.0, "bike_id": "344fe323aa11a14c5b3c52e563ae9130", "is_disabled": 0, "is_reserved": 0}, {"rental_uris": {"ios": "https://dc.lft.to/lastmile_qr_scan", "android": "https://dc.lft.to/lastmile_qr_scan"}, "lon": -77.021024, "type": "electric_scooter", "fusion_lat": 0.0, "lat": 38.913176166666666, "name": "e8b46441d03f4d0d52cb5e18ffb244ab", "fusion_lon": 0.0, "bike_id": "e8b46441d03f4d0d52cb5e18ffb244ab", "is_disabled": 0, "is_reserved": 0}, {"rental_uris": {"ios": "https://dc.lft.to/lastmile_qr_scan", "android": "https://dc.lft.to/lastmile_qr_scan"}, "lon": -77.022989, "type": "electric_scooter", "fusion_lat": 0.0, "lat": 38.93296483333334, "name": "d1b9decdeee82a853f97d5a937baafa8", "fusion_lon": 0.0, "bike_id": "d1b9decdeee82a853f97d5a937baafa8", "is_disabled": 0, "is_reserved": 0}, {"rental_uris": {"ios": "https://dc.lft.to/lastmile_qr_scan", "android": "https://dc.lft.to/lastmile_qr_scan"}, "lon": -77.01507183333334, "type": "electric_scooter", "fusion_lat": 0.0, "lat": 38.891181333333336, "name": "5c0cef35cd0edbbffc96e74b799a0229", "fusion_lon": 0.0, "bike_id": "5c0cef35cd0edbbffc96e74b799a0229", "is_disabled": 0, "is_reserved": 0}, {"rental_uris": {"ios": "https://dc.lft.to/lastmile_qr_scan", "android": "https://dc.lft.to/lastmile_qr_scan"}, "lon": -77.008932, "type": "electric_scooter", "fusion_lat": 0.0, "lat": 38.91238466666667, "name": "470b476cdf749ff4d0cdd9e3c40ee33d", "fusion_lon": 0.0, "bike_id": "470b476cdf749ff4d0cdd9e3c40ee33d", "is_disabled": 0, "is_reserved": 0}, {"rental_uris": {"ios": "https://dc.lft.to/lastmile_qr_scan", "android": "https://dc.lft.to/lastmile_qr_scan"},