{"data": {"bikes": [{"is_reserved": 0, "type": "electric_scooter", "bike_id": "c76aec4b9b7482dd104c98a6090be846", "lat": 38.905919, "lon": -77.06422683333334, "rental_uris": {"android": "https://dc.lft.to/lastmile_qr_scan", "ios": "https://dc.lft.to/lastmile_qr_scan"}, "is_disabled": 0, "fusion_lat": 0.0, "name": "c76aec4b9b7482dd104c98a6090be846", "fusion_lon": 0.0}, {"is_reserved": 0, "type": "electric_scooter", "bike_id": "7402e4f9e5edb6cf4b511c6cda7605e2", "lat": 38.89399683333333, "lon": -77.02980233333334, "rental_uris": {"android": "https://dc.lft.to/lastmile_qr_scan", "ios": "https://dc.lft.to/lastmile_qr_scan"}, "is_disabled": 0, "fusion_lat": 0.0, "name": "7402e4f9e5edb6cf4b511c6cda7605e2", "fusion_lon": 0.0}, {"is_reserved": 0, "type": "electric_scooter", "bike_id": "ea939672458073d2db51fc43804e0d87", "lat": 38.908418166666664, "lon": -77.00271133333334, "rental_uris": {"android": "https://dc.lft.to/lastmile_qr_scan", "ios": "https://dc.lft.to/lastmile_qr_scan"}, "is_disabled": 0, "fusion_lat": 0.0, "name": "ea939672458073d2db51fc43804e0d87", "fusion_lon": 0.0}, {"is_reserved": 0, "type": "electric_scooter", "bike_id": "df7680b90b777943edfb01768f87f64b", "lat": 38.91037766666667, "lon": -77.0308805, "rental_uris": {"android": "https://dc.lft.to/lastmile_qr_scan", "ios": "https://dc.lft.to/lastmile_qr_scan"}, "is_disabled": 0, "fusion_lat": 0.0, "name": "df7680b90b777943edfb01768f87f64b", "fusion_lon": 0.0}, {"is_reserved": 0, "type": "electric_scooter", "bike_id": "5a8c0d370fc768730766e8c3fcabbe44", "lat": 38.92092133333333, "lon": -77.07188933333333, "rental_uris": {"android": "https://dc.lft.to/lastmile_qr_scan", "ios": "https://dc.lft.to/lastmile_qr_scan"}, "is_disabled": 0, "fusion_lat": 0.0, "name": "5a8c0d370fc768730766e8c3fcabbe44", "fusion_lon": 0.0}, {"is_reserved": 0, "type": "electric_scooter", "bike_id": "45ab92dc2b2aea0ddf1e60c15d8fb3ad", "lat": 38.87758483333333, "lon": -76.99533983333333, "rental_uris": {"android": "https://dc.lft.to/lastmile_qr_scan", "ios": "https://dc.lft.to/lastmile_qr_scan"}, "is_disabled": 0, "fusion_lat": 0.0, "name": "45ab92dc2b2aea0ddf1e60c15d8fb3ad", "fusion_lon": 0.0}, {"is_reserved": 0, "type": "electric_scooter", "bike_id": "18f62cfdcc3ea72ab8e8d0fd43167af9", "lat": 38.91601883333333, "lon": -77.00269733333333, "rental_uris": {"android": "https://dc.lft.to/lastmile_qr_scan", "ios": "https://dc.lft.to/lastmile_qr_scan"}, "is_disabled": 0, "fusion_lat": 0.0, "name": "18f62cfdcc3ea72ab8e8d0fd43167af9", "fusion_lon": 0.0}, {"is_reserved": 0, "type": "electric_scooter", "bike_id": "7795589b25197773b97376a0e96c71ed", "lat": 38.952864, "lon": -77.06859766666666, "rental_uris": {"android": "https://dc.lft.to/lastmile_qr_scan", "ios": "https://dc.lft.to/lastmile_qr_scan"}, "is_disabled": 0, "fusion_lat": 0.0, "name": "7795589b25197773b97376a0e96c71ed", "fusion_lon": 0.0}, {"is_reserved": 0, "type": "electric_scooter", "bike_id": "ff5d615589bf5fc8b3c75488913b7e18", "lat": 38.924516, "lon": -77.00847416666667, "rental_uris": {"android": "https://dc.lft.to/lastmile_qr_scan", "ios": "https://dc.lft.to/lastmile_qr_scan"}, "is_disabled": 0, "fusion_lat": 0.0, "name": "ff5d615589bf5fc8b3c75488913b7e18", "fusion_lon": 0.0}, {"is_reserved": 0, "type": "electric_scooter", "bike_id": "1166b4c987697bd10041a0cf2b9d9573", "lat": 38.91968266666667, "lon": -77.02716583333333, "rental_uris": {"android": "https://dc.lft.to/lastmile_qr_scan", "ios": "https://dc.lft.to/lastmile_qr_scan"}, "is_disabled": 0, "fusion_lat": 0.0, "name": "1166b4c987697bd10041a0cf2b9d9573", "fusion_lon": 0.0}, {"is_reserved": 0, "type": "electric_scooter", "bike_id": "be499fe52e9dc3ed2570cf3bbb57302b", "lat": 38.8999855, "lon": -77.0401255, "rental_uris": {"android": "https://dc.lft.to/lastmile_qr_scan", "ios": "https://dc.lft.to/lastmile_qr_scan"}, "is_disabled": 0, "fusion_lat": 0.0, "name": "be499fe52e9dc3ed2570cf3bbb57302b", "fusion_lon": 0.0}, {"is_reserved": 0, "type": "electric_scooter", "bike_id": "417036bcb4416a65dbb2e87ecdaa4faa", "lat": 38.8749725, "lon": -77.0003595, "rental_uris": {"android": "https://dc.lft.to/lastmile_qr_scan", "ios": "https://dc.lft.to/lastmile_qr_scan"}, "is_disabled": 0, "fusion_lat": 0.0, "name": "417036bcb4416a65dbb2e87ecdaa4faa", "fusion_lon": 0.0}, {"is_reserved": 0, "type": "electric_scooter", "bike_id": "85c72885f2a568390780a41f5693c96f", "lat": 38.89715133333333, "lon": -77.00796466666667, "rental_uris": {"android": "https://dc.lft.to/lastmile_qr_scan", "ios": "https://dc.lft.to/lastmile_qr_scan"}, "is_disabled": 0, "fusion_lat": 0.0, "name": "85c72885f2a568390780a41f5693c96f", "fusion_lon": 0.0}, {"is_reserved": 0, "type": "electric_scooter", "bike_id": "0858d3422734e434d727a4d139f98c1b", "lat": 38.922768, "lon": -77.04031366666666, "rental_uris": {"android": "https://dc.lft.to/lastmile_qr_scan", "ios": "https://dc.lft.to/lastmile_qr_scan"}, "is_disabled": 0, "fusion_lat": 0.0, "name": "0858d3422734e434d727a4d139f98c1b", "fusion_lon": 0.0}, {"is_reserved": 0, "type": "electric_scooter", "bike_id": "10e2e0e16fdfb8bf085cb5ebfcbca764", "lat": 38.91555816666666, "lon": -77.02116433333333, "rental_uris": {"android": "https://dc.lft.to/lastmile_qr_scan", "ios": "https://dc.lft.to/lastmile_qr_scan"}, "is_disabled": 0, "fusion_lat": 0.0, "name": "10e2e0e16fdfb8bf085cb5ebfcbca764", "fusion_lon": 0.0}, {"is_reserved": 0, "type": "electric_scooter", "bike_id": "a4ecf0d870125718d13d9cbfcb3c6310", "lat": 38.90383666666666, "lon": -77.053476, "rental_uris": {"android": "https://dc.lft.to/lastmile_qr_scan", "ios": "https://dc.lft.to/lastmile_qr_scan"}, "is_disabled": 0, "fusion_lat": 0.0, "name": "a4ecf0d870125718d13d9cbfcb3c6310", "fusion_lon": 0.0}, {"is_reserved": 0, "type": "electric_scooter", "bike_id": "e830a7c8c18d34e20cc6d18d92f4be62", "lat": 38.940373666666666, "lon": -77.0291325, "rental_uris": {"android": "https://dc.lft.to/lastmile_qr_scan", "ios": "https://dc.lft.to/lastmile_qr_scan"}, "is_disabled": 0, "fusion_lat": 0.0, "name": "e830a7c8c18d34e20cc6d18d92f4be62", "fusion_lon": 0.0}, {"is_reserved": 0, "type": "electric_scooter", "bike_id": "d939fbd8692ac7602877c402073602f6", "lat": 38.920053333333335, "lon": -76.98504583333333, "rental_uris": {"android": "https://dc.lft.to/lastmile_qr_scan", "ios": "https://dc.lft.to/lastmile_qr_scan"}, "is_disabled": 0, "fusion_lat": 0.0, "name": "d939fbd8692ac7602877c402073602f6", "fusion_lon": 0.0}, {"is_reserved": 0, "type": "electric_scooter", "bike_id": "1f9a0c26cc8b547f3331b302e98a289d", "lat": 38.924165333333335, "lon": -77.035409, "rental_uris": {"android": "https://dc.lft.to/lastmile_qr_scan", "ios": "https://dc.lft.to/lastmile_qr_scan"}, "is_disabled": 0, "fusion_lat": 0.0, "name": "1f9a0c26cc8b547f3331b302e98a289d", "fusion_lon": 0.0}, {"is_reserved": 0, "type": "electric_scooter", "bike_id": "14c334345ecddfca9a005a5d89ca6196", "lat": 38.90832233333333, "lon": -76.987201, "rental_uris": {"android": "https://dc.lft.to/lastmile_qr_scan", "ios": "https://dc.lft.to/lastmile_qr_scan"}, "is_disabled": 0, "fusion_lat": 0.0, "name": "14c334345ecddfca9a005a5d89ca6196", "fusion_lon": 0.0}, {"is_reserved": 0, "type": "electric_scooter", "bike_id": "4b1bf3e97a40e082d570ce983ff43b37", "lat": 38.9310295, "lon": -77.024859, "rental_uris": {"android": "https://dc.lft.to/lastmile_qr_scan", "ios": "https://dc.lft.to/lastmile_qr_scan"}, "is_disabled": 0, "fusion_lat": 0.0, "name": "4b1bf3e97a40e082d570ce983ff43b37", "fusion_lon": 0.0}, {"is_reserved": 0, "type": "electric_scooter", "bike_id": "db37941a6a95cd362015de063536e5df", "lat": 38.915733, "lon": -77.020025, "rental_uris": {"android": "https://dc.lft.to/lastmile_qr_scan", "ios": "https://dc.lft.to/lastmile_qr_scan"}, "is_disabled": 0, "fusion_lat": 0.0, "name": "db37941a6a95cd362015de063536e5df", "fusion_lon": 0.0}, {"is_reserved": 0, "type": "electric_scooter", "bike_id": "82aa8d9eefba98f50ee2c247ca7733fb", "lat": 38.9057515, "lon": -77.0059925, "rental_uris": {"android": "https://dc.lft.to/lastmile_qr_scan", "ios": "https://dc.lft.to/lastmile_qr_scan"}, "is_disabled": 0, "fusion_lat": 0.0, "name": "82aa8d9eefba98f50ee2c247ca7733fb", "fusion_lon": 0.0}, {"is_reserved": 0, "type": "electric_scooter", "bike_id": "d308cd5ee66a990916a0738ed9ac1ed8", "lat": 38.918148, "lon": -77.03164316666667, "rental_uris": {"android": "https://dc.lft.to/lastmile_qr_scan", "ios": "https://dc.lft.to/lastmile_qr_scan"}, "is_disabled": 0, "fusion_lat": 0.0, "name": "d308cd5ee66a990916a0738ed9ac1ed8", "fusion_lon": 0.0}, {"is_reserved": 0, "type": "electric_scooter", "bike_id": "da27e707a1f032982df8677bec8b1140", "lat": 38.8861105, "lon": -77.01553916666667, "rental_uris": {"android": "https://dc.lft.to/lastmile_qr_scan", "ios": "https://dc.lft.to/lastmile_qr_scan"}, "is_disabled": 0, "fusion_lat": 0.0, "name": "da27e707a1f032982df8677bec8b1140", "fusion_lon": 0.0}, {"is_reserved": 0, "type": "electric_scooter", "bike_id": "0d726b064a173ec3f116e8b861e58783", "lat": 38.92604816666667, "lon": -77.05185133333333, "rental_uris": {"android": "https://dc.lft.to/lastmile_qr_scan", "ios": "https://dc.lft.to/lastmile_qr_scan"}, "is_disabled": 0, "fusion_lat": 0.0, "name": "0d726b064a173ec3f116e8b861e58783", "fusion_lon": 0.0}, {"is_reserved": 0, "type": "electric_bike", "bike_id": "6baa0dbfaf716ea57fe5f2f560f628eb", "lat": 38.9910355, "lon": -76.88154166666666, "rental_uris": {"android": "https://dc.lft.to/lastmile_qr_scan", "ios": "https://dc.lft.to/lastmile_qr_scan"}, "is_disabled": 0, "fusion_lat": 0.0, "name": "6baa0dbfaf716ea57fe5f2f560f628eb", "fusion_lon": 0.0}, {"is_reserved": 0, "type": "electric_bike", "bike_id": "1c085ee75d3e34be2e72dbc831c3b973", "lat": 38.84335433333333, "lon": -76.99733316666666, "rental_uris": {"android": "https://dc.lft.to/lastmile_qr_scan", "ios": "https://dc.lft.to/lastmile_qr_scan"}, "is_disabled": 0, "fusion_lat": 0.0, "name": "1c085ee75d3e34be2e72dbc831c3b973", "fusion_lon": 0.0}, {"is_reserved": 0, "type": "electric_scooter", "bike_id": "e76b5ecd08d9e22a8f1770b5a45a95de", "lat": 38.88509066666667, "lon": -77.01114716666666, "rental_uris": {"android": "https://dc.lft.to/lastmile_qr_scan", "ios": "https://dc.lft.to/lastmile_qr_scan"}, "is_disabled": 0, "fusion_lat": 0.0, "name": "e76b5ecd08d9e22a8f1770b5a45a95de", "fusion_lon": 0.0}, {"is_reserved": 0, "type": "electric_scooter", "bike_id": "1468eefae44c889a750fc8f0a0ffd2c0", "lat": 38.885982166666665, "lon": -77.00404333333333, "rental_uris": {"android": "https://dc.lft.to/lastmile_qr_scan", "ios": "https://dc.lft.to/lastmile_qr_scan"}, "is_disabled": 0, "fusion_lat": 0.0, "name": "1468eefae44c889a750fc8f0a0ffd2c0", "fusion_lon": 0.0}, {"is_reserved": 0, "type": "electric_scooter", "bike_id": "060693b226012f043cfd723ce8c4eea2", "lat": 38.924717, "lon": -77.02922483333333, "rental_uris": {"android": "https://dc.lft.to/lastmile_qr_scan", "ios": "https://dc.lft.to/lastmile_qr_scan"}, "is_disabled": 0, "fusion_lat": 0.0, "name": "060693b226012f043cfd723ce8c4eea2", "fusion_lon": 0.0}, {"is_reserved": 0, "type": "electric_scooter", "bike_id": "b23d51e5d93fa95bd8c05925a6ad71da", "lat": 38.942010333333336, "lon": -77.025233, "rental_uris": {"android": "https://dc.lft.to/lastmile_qr_scan", "ios": "https://dc.lft.to/lastmile_qr_scan"}, "is_disabled": 0, "fusion_lat": 0.0, "name": "b23d51e5d93fa95bd8c05925a6ad71da", "fusion_lon": 0.0}, {"is_reserved": 0, "type": "electric_bike", "bike_id": "4550b00797bde42a1c155f4031988ff8", "lat": 38.840508166666666, "lon": -77.05601083333333, "rental_uris": {"android": "https://dc.lft.to/lastmile_qr_scan", "ios": "https://dc.lft.to/lastmile_qr_scan"}, "is_disabled": 0, "fusion_lat": 0.0, "name": "4550b00797bde42a1c155f4031988ff8", "fusion_lon": 0.0}, {"is_reserved": 0, "type": "electric_scooter", "bike_id": "d753ab83e356468d6a27f7845826d1a3", "lat": 38.92148533333334, "lon": -77.03508416666666, "rental_uris": {"android": "https://dc.lft.to/lastmile_qr_scan", "ios": "https://dc.lft.to/lastmile_qr_scan"}, "is_disabled": 0, "fusion_lat": 0.0, "name": "d753ab83e356468d6a27f7845826d1a3", "fusion_lon": 0.0}, {"is_reserved": 0, "type": "electric_scooter", "bike_id": "8354043f4a598da068d8fd5a687f552d", "lat": 38.899329, "lon": -77.03207533333334, "rental_uris": {"android": "https://dc.lft.to/lastmile_qr_scan", "ios": "https://dc.lft.to/lastmile_qr_scan"}, "is_disabled": 0, "fusion_lat": 0.0, "name": "8354043f4a598da068d8fd5a687f552d", "fusion_lon": 0.0}, {"is_reserved": 0, "type": "electric_scooter", "bike_id": "54d6e05c2bed6f3f0d0489e8392a444b", "lat": 38.935721, "lon": -77.03260833333333, "rental_uris": {"android": "https://dc.lft.to/lastmile_qr_scan", "ios": "https://dc.lft.to/lastmile_qr_scan"}, "is_disabled": 0, "fusion_lat": 0.0, "name": "54d6e05c2bed6f3f0d0489e8392a444b", "fusion_lon": 0.0}, {"is_reserved": 0, "type": "electric_scooter", "bike_id": "1ea6f47c6172f38c2df1b7d7629c2872", "lat": 38.91048583333333, "lon": -77.01514883333333, "rental_uris": {"android": "https://dc.lft.to/lastmile_qr_scan", "ios": "https://dc.lft.to/lastmile_qr_scan"}, "is_disabled": 0, "fusion_lat": 0.0, "name": "1ea6f47c6172f38c2df1b7d7629c2872", "fusion_lon": 0.0}, {"is_reserved": 0, "type": "electric_scooter", "bike_id": "bf8aea72cd88145134ef156fa3508cf6", "lat": 38.92364666666667, "lon": -77.036679, "rental_uris": {"android": "https://dc.lft.to/lastmile_qr_scan", "ios": "https://dc.lft.to/lastmile_qr_scan"}, "is_disabled": 0, "fusion_lat": 0.0, "name": "bf8aea72cd88145134ef156fa3508cf6", "fusion_lon": 0.0}, {"is_reserved": 0, "type": "electric_scooter", "bike_id": "a85df4e0a7de27ec64d336a8b6709ed7", "lat": 38.9029095, "lon": -77.00203116666667, "rental_uris": {"android": "https://dc.lft.to/lastmile_qr_scan", "ios": "https://dc.lft.to/lastmile_qr_scan"}, "is_disabled": 0, "fusion_lat": 0.0, "name": "a85df4e0a7de27ec64d336a8b6709ed7", "fusion_lon": 0.0}, {"is_reserved": 0, "type": "electric_scooter", "bike_id": "55f9b2b2d5bdb9374cc0a5dabc44a7ed", "lat": 38.8991175, "lon": -76.93367433333333, "rental_uris": {"android": "https://dc.lft.to/lastmile_qr_scan", "ios": "https://dc.lft.to/lastmile_qr_scan"}, "is_disabled": 0, "fusion_lat": 0.0, "name": "55f9b2b2d5bdb9374cc0a5dabc44a7ed", "fusion_lon": 0.0}, {"is_reserved": 0, "type": "electric_scooter", "bike_id": "b2502e4f9383ce8f294c623318f54842", "lat": 38.912207333333335, "lon": -77.04566433333333, "rental_uris": {"android": "https://dc.lft.to/lastmile_qr_scan", "ios": "https://dc.lft.to/lastmile_qr_scan"}, "is_disabled": 0, "fusion_lat": 0.0, "name": "b2502e4f9383ce8f294c623318f54842", "fusion_lon": 0.0}, {"is_reserved": 0, "type": "electric_scooter", "bike_id": "d1fc2dc981c0f330ab43e9eeb1cc177c", "lat": 38.921361833333336, "lon": -77.04587816666667, "rental_uris": {"android": "https://dc.lft.to/lastmile_qr_scan", "ios": "https://dc.lft.to/lastmile_qr_scan"}, "is_disabled": 0, "fusion_lat": 0.0, "name": "d1fc2dc981c0f330ab43e9eeb1cc177c", "fusion_lon": 0.0}, {"is_reserved": 0, "type": "electric_scooter", "bike_id": "4f3eebbc087906254ed47c8b28dfd2f2", "lat": 38.946597833333335, "lon": -77.03283616666667, "rental_uris": {"android": "https://dc.lft.to/lastmile_qr_scan", "ios": "https://dc.lft.to/lastmile_qr_scan"}, "is_disabled": 0, "fusion_lat": 0.0, "name": "4f3eebbc087906254ed47c8b28dfd2f2", "fusion_lon": 0.0}, {"is_reserved": 0, "type": "electric_scooter", "bike_id": "9fe0a43bd29bd0207ff7f0663594c5ba", "lat": 38.93640966666667, "lon": -77.03694733333333, "rental_uris": {"android": "https://dc.lft.to/lastmile_qr_scan", "ios": "https://dc.lft.to/lastmile_qr_scan"}, "is_disabled": 0, "fusion_lat": 0.0, "name": "9fe0a43bd29bd0207ff7f0663594c5ba", "fusion_lon": 0.0}, {"is_reserved": 0, "type": "electric_scooter", "bike_id": "55852bbd08bfed9af0945b01d7b4013f", "lat": 38.900311, "lon": -76.99153766666667, "rental_uris": {"android": "https://dc.lft.to/lastmile_qr_scan", "ios": "https://dc.lft.to/lastmile_qr_scan"}, "is_disabled": 0, "fusion_lat": 0.0, "name": "55852bbd08bfed9af0945b01d7b4013f", "fusion_lon": 0.0}, {"is_reserved": 0, "type": "electric_scooter", "bike_id": "717b11d998c3520da53ea1707270e226", "lat": 38.93900516666667, "lon": -77.0331055, "rental_uris": {"android": "https://dc.lft.to/lastmile_qr_scan", "ios": "https://dc.lft.to/lastmile_qr_scan"}, "is_disabled": 0, "fusion_lat": 0.0, "name": "717b11d998c3520da53ea1707270e226", "fusion_lon": 0.0}, {"is_reserved": 0, "type": "electric_scooter", "bike_id": "7eba7d332e1d2a1fe0d730dbcfda616a", "lat": 38.894857333333334, "lon": -77.04986283333334, "rental_uris": {"android": "https://dc.lft.to/lastmile_qr_scan", "ios": "https://dc.lft.to/lastmile_qr_scan"}, "is_disabled": 0, "fusion_lat": 0.0, "name": "7eba7d332e1d2a1fe0d730dbcfda616a", "fusion_lon": 0.0}, {"is_reserved": 0, "type": "electric_scooter", "bike_id": "99611ca9772e992b182da11940913d4d", "lat": 38.91990083333334, "lon": -77.02541083333334, "rental_uris": {"android": "https://dc.lft.to/lastmile_qr_scan", "ios": "https://dc.lft.to/lastmile_qr_scan"}, "is_disabled": 0, "fusion_lat": 0.0, "name": "99611ca9772e992b182da11940913d4d", "fusion_lon": 0.0}, {"is_reserved": 0, "type": "electric_scooter", "bike_id": "b1e1dfb0fe49d88cefa47f618d756636", "lat": 38.913473, "lon": -77.04351183333333, "rental_uris": {"android": "https://dc.lft.to/lastmile_qr_scan", "ios": "https://dc.lft.to/lastmile_qr_scan"}, "is_disabled": 0, "fusion_lat": 0.0, "name": "b1e1dfb0fe49d88cefa47f618d756636", "fusion_lon": 0.0}, {"is_reserved": 0, "type": "electric_scooter", "bike_id": "f9a658567464a4ababec4a13e9f5d15e", "lat": 38.899911, "lon": -77.02288916666667, "rental_uris": {"android": "https://dc.lft.to/lastmile_qr_scan", "ios": "https://dc.lft.to/lastmile_qr_scan"}, "is_disabled": 0, "fusion_lat": 0.0, "name": "f9a658567464a4ababec4a13e9f5d15e", "fusion_lon": 0.0}, {"is_reserved": 0, "type": "electric_bike", "bike_id": "e8464a76db1ecf286638bf929dca695c", "lat": 38.942631, "lon": -76.990733, "rental_uris": {"android": "https://dc.lft.to/lastmile_qr_scan", "ios": "https://dc.lft.to/lastmile_qr_scan"}, "is_disabled": 0, "fusion_lat": 0.0, "name": "e8464a76db1ecf286638bf929dca695c", "fusion_lon": 0.0}, {"is_reserved": 0, "type": "electric_scooter", "bike_id": "b35740e90692208c8eb4c41ae9a39ea8", "lat": 38.893903333333334, "lon": -77.02258266666666, "rental_uris": {"android": "https://dc.lft.to/lastmile_qr_scan", "ios": "https://dc.lft.to/lastmile_qr_scan"}, "is_disabled": 0, "fusion_lat": 0.0, "name": "b35740e90692208c8eb4c41ae9a39ea8", "fusion_lon": 0.0}, {"is_reserved": 0, "type": "electric_scooter", "bike_id": "cdea3ba87a81580992a392414b8654ba", "lat": 38.91597266666667, "lon": -77.02006016666667, "rental_uris": {"android": "https://dc.lft.to/lastmile_qr_scan", "ios": "https://dc.lft.to/lastmile_qr_scan"}, "is_disabled": 0, "fusion_lat": 0.0, "name": "cdea3ba87a81580992a392414b8654ba", "fusion_lon": 0.0}, {"is_reserved": 0, "type": "electric_scooter", "bike_id": "960bb372189712434bf7dd807b8d91c1", "lat": 38.9162575, "lon": -77.00759066666667, "rental_uris": {"android": "https://dc.lft.to/lastmile_qr_scan", "ios": "https://dc.lft.to/lastmile_qr_scan"}, "is_disabled": 0, "fusion_lat": 0.0, "name": "960bb372189712434bf7dd807b8d91c1", "fusion_lon": 0.0}, {"is_reserved": 0, "type": "electric_scooter", "bike_id": "c44a2dcac83bd0adcd3f57777c9ac31e", "lat": 38.92581366666667, "lon": -77.02943516666667, "rental_uris": {"android": "https://dc.lft.to/lastmile_qr_scan", "ios": "https://dc.lft.to/lastmile_qr_scan"}, "is_disabled": 0, "fusion_lat": 0.0, "name": "c44a2dcac83bd0adcd3f57777c9ac31e", "fusion_lon": 0.0}, {"is_reserved": 0, "type": "electric_scooter", "bike_id": "e1b699245d2ce1cac050469d4ac1fc52", "lat": 38.885121833333336, "lon": -77.0219405, "rental_uris": {"android": "https://dc.lft.to/lastmile_qr_scan", "ios": "https://dc.lft.to/lastmile_qr_scan"}, "is_disabled": 0, "fusion_lat": 0.0, "name": "e1b699245d2ce1cac050469d4ac1fc52", "fusion_lon": 0.0}, {"is_reserved": 0, "type": "electric_scooter", "bike_id": "c4395200eeb7c2353676cd800fb43af5", "lat": 38.92127416666666, "lon": -77.03205133333333, "rental_uris": {"android": "https://dc.lft.to/lastmile_qr_scan", "ios": "https://dc.lft.to/lastmile_qr_scan"}, "is_disabled": 0, "fusion_lat": 0.0, "name": "c4395200eeb7c2353676cd800fb43af5", "fusion_lon": 0.0}, {"is_reserved": 0, "type": "electric_scooter", "bike_id": "4a750f279be40074c51764b8df8f61c9", "lat": 38.91266666666667, "lon": -77.037165, "rental_uris": {"android": "https://dc.lft.to/lastmile_qr_scan", "ios": "https://dc.lft.to/lastmile_qr_scan"}, "is_disabled": 0, "fusion_lat": 0.0, "name": "4a750f279be40074c51764b8df8f61c9", "fusion_lon": 0.0}, {"is_reserved": 0, "type": "electric_bike", "bike_id": "167464a91cc1e846ba9ba541542ba0b8", "lat": 38.944728, "lon": -76.98693433333334, "rental_uris": {"android": "https://dc.lft.to/lastmile_qr_scan", "ios": "https://dc.lft.to/lastmile_qr_scan"}, "is_disabled": 0, "fusion_lat": 0.0, "name": "167464a91cc1e846ba9ba541542ba0b8", "fusion_lon": 0.0}, {"is_reserved": 0, "type": "electric_scooter", "bike_id": "186012577cce9f21c9f421fcea889c95", "lat": 38.91915733333333, "lon": -77.048086, "rental_uris": {"android": "https://dc.lft.to/lastmile_qr_scan", "ios": "https://dc.lft.to/lastmile_qr_scan"}, "is_disabled": 0, "fusion_lat": 0.0, "name": "186012577cce9f21c9f421fcea889c95", "fusion_lon": 0.0}, {"is_reserved": 0, "type": "electric_scooter", "bike_id": "31e69c8dd1f62e79987c8e9d9dfcb190", "lat": 38.90566916666667, "lon": -77.0059105, "rental_uris": {"android": "https://dc.lft.to/lastmile_qr_scan", "ios": "https://dc.lft.to/lastmile_qr_scan"}, "is_disabled": 0, "fusion_lat": 0.0, "name": "31e69c8dd1f62e79987c8e9d9dfcb190", "fusion_lon": 0.0}, {"is_reserved": 0, "type": "electric_scooter", "bike_id": "2fbc682d6b65f1c96d9e8f3ec3b09778", "lat": 38.89810383333333, "lon": -77.02318633333333, "rental_uris": {"android": "https://dc.lft.to/lastmile_qr_scan", "ios": "https://dc.lft.to/lastmile_qr_scan"}, "is_disabled": 0, "fusion_lat": 0.0, "name": "2fbc682d6b65f1c96d9e8f3ec3b09778", "fusion_lon": 0.0}, {"is_reserved": 0, "type": "electric_scooter", "bike_id": "74a7f97a32b3365fa9fbc378a08acbad", "lat": 38.904015333333334, "lon": -77.01629316666667, "rental_uris": {"android": "https://dc.lft.to/lastmile_qr_scan", "ios": "https://dc.lft.to/lastmile_qr_scan"}, "is_disabled": 0, "fusion_lat": 0.0, "name": "74a7f97a32b3365fa9fbc378a08acbad", "fusion_lon": 0.0}, {"is_reserved": 0, "type": "electric_bike", "bike_id": "5afa412a19577a89ce21d760fd1c2bf7", "lat": 38.83627633333333, "lon": -77.002804, "rental_uris": {"android": "https://dc.lft.to/lastmile_qr_scan", "ios": "https://dc.lft.to/lastmile_qr_scan"}, "is_disabled": 0, "fusion_lat": 0.0, "name": "5afa412a19577a89ce21d760fd1c2bf7", "fusion_lon": 0.0}, {"is_reserved": 0, "type": "electric_scooter", "bike_id": "bb158abff225f280720f979e503e93e6", "lat": 38.931316833333334, "lon": -77.02308783333334, "rental_uris": {"android": "https://dc.lft.to/lastmile_qr_scan", "ios": "https://dc.lft.to/lastmile_qr_scan"}, "is_disabled": 0, "fusion_lat": 0.0, "name": "bb158abff225f280720f979e503e93e6", "fusion_lon": 0.0}, {"is_reserved": 0, "type": "electric_scooter", "bike_id": "61bbbc2d47495ad8b356597ab6ee357e", "lat": 38.96031383333333, "lon": -77.07159916666667, "rental_uris": {"android": "https://dc.lft.to/lastmile_qr_scan", "ios": "https://dc.lft.to/lastmile_qr_scan"}, "is_disabled": 0, "fusion_lat": 0.0, "name": "61bbbc2d47495ad8b356597ab6ee357e", "fusion_lon": 0.0}, {"is_reserved": 0, "type": "electric_scooter", "bike_id": "e33e35fa105e309461d49158b6f1d5ce", "lat": 38.923366333333334, "lon": -77.056815, "rental_uris": {"android": "https://dc.lft.to/lastmile_qr_scan", "ios": "https://dc.lft.to/lastmile_qr_scan"}, "is_disabled": 0, "fusion_lat": 0.0, "name": "e33e35fa105e309461d49158b6f1d5ce", "fusion_lon": 0.0}, {"is_reserved": 0, "type": "electric_scooter", "bike_id": "30cc36955f80e0edc22341f954d7b6f3", "lat": 38.9335375, "lon": -77.03426466666667, "rental_uris": {"android": "https://dc.lft.to/lastmile_qr_scan", "ios": "https://dc.lft.to/lastmile_qr_scan"}, "is_disabled": 0, "fusion_lat": 0.0, "name": "30cc36955f80e0edc22341f954d7b6f3", "fusion_lon": 0.0}, {"is_reserved": 0, "type": "electric_scooter", "bike_id": "76af881d63bde756916908c55a7f816a", "lat": 38.9074375, "lon": -77.00756166666666, "rental_uris": {"android": "https://dc.lft.to/lastmile_qr_scan", "ios": "https://dc.lft.to/lastmile_qr_scan"}, "is_disabled": 0, "fusion_lat": 0.0, "name": "76af881d63bde756916908c55a7f816a", "fusion_lon": 0.0}, {"is_reserved": 0, "type": "electric_scooter", "bike_id": "10bb8c6a9e2df8bc17998aacd5522fe8", "lat": 38.905142833333336, "lon": -77.0318105, "rental_uris": {"android": "https://dc.lft.to/lastmile_qr_scan", "ios": "https://dc.lft.to/lastmile_qr_scan"}, "is_disabled": 0, "fusion_lat": 0.0, "name": "10bb8c6a9e2df8bc17998aacd5522fe8", "fusion_lon": 0.0}, {"is_reserved": 0, "type": "electric_scooter", "bike_id": "4a61b58e983bb5d81a1df49ad1369400", "lat": 38.91915216666666, "lon": -77.013386, "rental_uris": {"android": "https://dc.lft.to/lastmile_qr_scan", "ios": "https://dc.lft.to/lastmile_qr_scan"}, "is_disabled": 0, "fusion_lat": 0.0, "name": "4a61b58e983bb5d81a1df49ad1369400", "fusion_lon": 0.0}, {"is_reserved": 0, "type": "electric_scooter", "bike_id": "00097cef52e90e8cd984416398f54242", "lat": 38.906856, "lon": -77.06262833333334, "rental_uris": {"android": "https://dc.lft.to/lastmile_qr_scan", "ios": "https://dc.lft.to/lastmile_qr_scan"}, "is_disabled": 0, "fusion_lat": 0.0, "name": "00097cef52e90e8cd984416398f54242", "fusion_lon": 0.0}, {"is_reserved": 0, "type": "electric_scooter", "bike_id": "3c52654c4e8877b7b5671ea4bde0f703", "lat": 38.924877333333335, "lon": -77.03180283333333, "rental_uris": {"android": "https://dc.lft.to/lastmile_qr_scan", "ios": "https://dc.lft.to/lastmile_qr_scan"}, "is_disabled": 0, "fusion_lat": 0.0, "name": "3c52654c4e8877b7b5671ea4bde0f703", "fusion_lon": 0.0}, {"is_reserved": 0, "type": "electric_bike", "bike_id": "6c7dbbb79fc0cf86ef84696c1bafa1e1", "lat": 38.959577833333334, "lon": -76.98169716666666, "rental_uris": {"android": "https://dc.lft.to/lastmile_qr_scan", "ios": "https://dc.lft.to/lastmile_qr_scan"}, "is_disabled": 0, "fusion_lat": 0.0, "name": "6c7dbbb79fc0cf86ef84696c1bafa1e1", "fusion_lon": 0.0}, {"is_reserved": 0, "type": "electric_scooter", "bike_id": "9f26677664cd95c983c4e24896192ec1", "lat": 38.883689833333335, "lon": -76.995103, "rental_uris": {"android": "https://dc.lft.to/lastmile_qr_scan", "ios": "https://dc.lft.to/lastmile_qr_scan"}, "is_disabled": 0, "fusion_lat": 0.0, "name": "9f26677664cd95c983c4e24896192ec1", "fusion_lon": 0.0}, {"is_reserved": 0, "type": "electric_scooter", "bike_id": "fc9b08c7acd02ac3b461d8203804c7ac", "lat": 38.87922733333333, "lon": -77.00246, "rental_uris": {"android": "https://dc.lft.to/lastmile_qr_scan", "ios": "https://dc.lft.to/lastmile_qr_scan"}, "is_disabled": 0, "fusion_lat": 0.0, "name": "fc9b08c7acd02ac3b461d8203804c7ac", "fusion_lon": 0.0}, {"is_reserved": 0, "type": "electric_bike", "bike_id": "5bc74ed2deab77fe5f9895c3a75bdcbf", "lat": 39.038171166666665, "lon": -77.04258233333333, "rental_uris": {"android": "https://dc.lft.to/lastmile_qr_scan", "ios": "https://dc.lft.to/lastmile_qr_scan"}, "is_disabled": 0, "fusion_lat": 0.0, "name": "5bc74ed2deab77fe5f9895c3a75bdcbf", "fusion_lon": 0.0}, {"is_reserved": 0, "type": "electric_scooter", "bike_id": "575bc02467378d00022b08ff8bd5675f", "lat": 38.87660133333333, "lon": -77.00717583333333, "rental_uris": {"android": "https://dc.lft.to/lastmile_qr_scan", "ios": "https://dc.lft.to/lastmile_qr_scan"}, "is_disabled": 0, "fusion_lat": 0.0, "name": "575bc02467378d00022b08ff8bd5675f", "fusion_lon": 0.0}, {"is_reserved": 0, "type": "electric_scooter", "bike_id": "01fb9ac379844f8241a1b59f0161ba36", "lat": 38.90565333333333, "lon": -77.03064233333333, "rental_uris": {"android": "https://dc.lft.to/lastmile_qr_scan", "ios": "https://dc.lft.to/lastmile_qr_scan"}, "is_disabled": 0, "fusion_lat": 0.0, "name": "01fb9ac379844f8241a1b59f0161ba36", "fusion_lon": 0.0}, {"is_reserved": 0, "type": "electric_scooter", "bike_id": "bc8b8899b31725c2bbeaf7dc4049e038", "lat": 38.897634333333336, "lon": -77.02510466666666, "rental_uris": {"android": "https://dc.lft.to/lastmile_qr_scan", "ios": "https://dc.lft.to/lastmile_qr_scan"}, "is_disabled": 0, "fusion_lat": 0.0, "name": "bc8b8899b31725c2bbeaf7dc4049e038", "fusion_lon": 0.0}, {"is_reserved": 0, "type": "electric_scooter", "bike_id": "7001d6b6708e7e00f79772c17a92895f", "lat": 38.904015333333334, "lon": -77.0489765, "rental_uris": {"android": "https://dc.lft.to/lastmile_qr_scan", "ios": "https://dc.lft.to/lastmile_qr_scan"}, "is_disabled": 0, "fusion_lat": 0.0, "name": "7001d6b6708e7e00f79772c17a92895f", "fusion_lon": 0.0}, {"is_reserved": 0, "type": "electric_scooter", "bike_id": "5ac3f0c7ff4f0454791f502538c361a1", "lat": 38.915086333333335, "lon": -77.02186733333333, "rental_uris": {"android": "https://dc.lft.to/lastmile_qr_scan", "ios": "https://dc.lft.to/lastmile_qr_scan"}, "is_disabled": 0, "fusion_lat": 0.0, "name": "5ac3f0c7ff4f0454791f502538c361a1", "fusion_lon": 0.0}, {"is_reserved": 0, "type": "electric_scooter", "bike_id": "5cdcd612fa180c767af48d12c9cc62fe", "lat": 38.89853216666667, "lon": -76.99036783333334, "rental_uris": {"android": "https://dc.lft.to/lastmile_qr_scan", "ios": "https://dc.lft.to/lastmile_qr_scan"}, "is_disabled": 0, "fusion_lat": 0.0, "name": "5cdcd612fa180c767af48d12c9cc62fe", "fusion_lon": 0.0}, {"is_reserved": 0, "type": "electric_scooter", "bike_id": "b865ce7bf18d0a202f05e47f6e48f91b", "lat": 38.93123083333333, "lon": -77.03879266666667, "rental_uris": {"android": "https://dc.lft.to/lastmile_qr_scan", "ios": "https://dc.lft.to/lastmile_qr_scan"}, "is_disabled": 0, "fusion_lat": 0.0, "name": "b865ce7bf18d0a202f05e47f6e48f91b", "fusion_lon": 0.0}, {"is_reserved": 0, "type": "electric_scooter", "bike_id": "95a2c073a9f459a1f626dad8eeb5e2cf", "lat": 38.92154883333333, "lon": -77.07216333333334, "rental_uris": {"android": "https://dc.lft.to/lastmile_qr_scan", "ios": "https://dc.lft.to/lastmile_qr_scan"}, "is_disabled": 0, "fusion_lat": 0.0, "name": "95a2c073a9f459a1f626dad8eeb5e2cf", "fusion_lon": 0.0}, {"is_reserved": 0, "type": "electric_scooter", "bike_id": "1efe92218478ad1cce27d0f7f1f53d19", "lat": 38.906219, "lon": -77.02799116666667, "rental_uris": {"android": "https://dc.lft.to/lastmile_qr_scan", "ios": "https://dc.lft.to/lastmile_qr_scan"}, "is_disabled": 0, "fusion_lat": 0.0, "name": "1efe92218478ad1cce27d0f7f1f53d19", "fusion_lon": 0.0}, {"is_reserved": 0, "type": "electric_bike", "bike_id": "6c1f3ff68bbf355eb5bff4c079adaaa1", "lat": 38.857892166666666, "lon": -77.09964766666667, "rental_uris": {"android": "https://dc.lft.to/lastmile_qr_scan", "ios": "https://dc.lft.to/lastmile_qr_scan"}, "is_disabled": 0, "fusion_lat": 0.0, "name": "6c1f3ff68bbf355eb5bff4c079adaaa1", "fusion_lon": 0.0}, {"is_reserved": 0, "type": "electric_scooter", "bike_id": "03787a33bf2f3bc7ed43c96af19a0455", "lat": 38.942278, "lon": -77.07150633333333, "rental_uris": {"android": "https://dc.lft.to/lastmile_qr_scan", "ios": "https://dc.lft.to/lastmile_qr_scan"}, "is_disabled": 0, "fusion_lat": 0.0, "name": "03787a33bf2f3bc7ed43c96af19a0455", "fusion_lon": 0.0}, {"is_reserved": 0, "type": "electric_scooter", "bike_id": "ffd2ca78c35616f8526c6bc4ead4fd80", "lat": 38.920652833333335, "lon": -77.02250383333333, "rental_uris": {"android": "https://dc.lft.to/lastmile_qr_scan", "ios": "https://dc.lft.to/lastmile_qr_scan"}, "is_disabled": 0, "fusion_lat": 0.0, "name": "ffd2ca78c35616f8526c6bc4ead4fd80", "fusion_lon": 0.0}, {"is_reserved": 0, "type": "electric_scooter", "bike_id": "1ca5812544cc9424ae49d67f01ede33b", "lat": 38.901817333333334, "lon": -76.93006366666667, "rental_uris": {"android": "https://dc.lft.to/lastmile_qr_scan", "ios": "https://dc.lft.to/lastmile_qr_scan"}, "is_disabled": 0, "fusion_lat": 0.0, "name": "1ca5812544cc9424ae49d67f01ede33b", "fusion_lon": 0.0}, {"is_reserved": 0, "type": "electric_scooter", "bike_id": "88c4ff3e4dab62774eb89a8f8199fa76", "lat": 38.88632616666666, "lon": -77.022076, "rental_uris": {"android": "https://dc.lft.to/lastmile_qr_scan", "ios": "https://dc.lft.to/lastmile_qr_scan"}, "is_disabled": 0, "fusion_lat": 0.0, "name": "88c4ff3e4dab62774eb89a8f8199fa76", "fusion_lon": 0.0}, {"is_reserved": 0, "type": "electric_bike", "bike_id": "bffd0d56c86ea7220bfd26bf42addf6e", "lat": 38.863278333333334, "lon": -76.987276, "rental_uris": {"android": "https://dc.lft.to/lastmile_qr_scan", "ios": "https://dc.lft.to/lastmile_qr_scan"}, "is_disabled": 0, "fusion_lat": 0.0, "name": "bffd0d56c86ea7220bfd26bf42addf6e", "fusion_lon": 0.0}, {"is_reserved": 0, "type": "electric_scooter", "bike_id": "4612c7f043a7b033b76453d185a8d10d", "lat": 38.925189833333334, "lon": -77.050562, "rental_uris": {"android": "https://dc.lft.to/lastmile_qr_scan", "ios": "https://dc.lft.to/lastmile_qr_scan"}, "is_disabled": 0, "fusion_lat": 0.0, "name": "4612c7f043a7b033b76453d185a8d10d", "fusion_lon": 0.0}, {"is_reserved": 0, "type": "electric_scooter", "bike_id": "660429a17c32fff07eb76f48ef40b1ab", "lat": 38.87524333333333, "lon": -77.00070833333334, "rental_uris": {"android": "https://dc.lft.to/lastmile_qr_scan", "ios": "https://dc.lft.to/lastmile_qr_scan"}, "is_disabled": 0, "fusion_lat": 0.0, "name": "660429a17c32fff07eb76f48ef40b1ab", "fusion_lon": 0.0}, {"is_reserved": 0, "type": "electric_scooter", "bike_id": "297822eabb2dfeca99544a805ccceda7", "lat": 38.9206045, "lon": -77.02280933333333, "rental_uris": {"android": "https://dc.lft.to/lastmile_qr_scan", "ios": "https://dc.lft.to/lastmile_qr_scan"}, "is_disabled": 0, "fusion_lat": 0.0, "name": "297822eabb2dfeca99544a805ccceda7", "fusion_lon": 0.0}, {"is_reserved": 0, "type": "electric_scooter", "bike_id": "3742d443b3f8f2f6eab38beb85c738ad", "lat": 38.9084815, "lon": -77.044629, "rental_uris": {"android": "https://dc.lft.to/lastmile_qr_scan", "ios": "https://dc.lft.to/lastmile_qr_scan"}, "is_disabled": 0, "fusion_lat": 0.0, "name": "3742d443b3f8f2f6eab38beb85c738ad", "fusion_lon": 0.0}, {"is_reserved": 0, "type": "electric_bike", "bike_id": "419e91e6155a198f924a16b249c1d89f", "lat": 38.854191, "lon": -77.08369383333333, "rental_uris": {"android": "https://dc.lft.to/lastmile_qr_scan", "ios": "https://dc.lft.to/lastmile_qr_scan"}, "is_disabled": 0, "fusion_lat": 0.0, "name": "419e91e6155a198f924a16b249c1d89f", "fusion_lon": 0.0}, {"is_reserved": 0, "type": "electric_bike", "bike_id": "effcf51edf75f27ecfcafad4833a6cdc", "lat": 38.87010266666667, "lon": -77.22991883333333, "rental_uris": {"android": "https://dc.lft.to/lastmile_qr_scan", "ios": "https://dc.lft.to/lastmile_qr_scan"}, "is_disabled": 0, "fusion_lat": 0.0, "name": "effcf51edf75f27ecfcafad4833a6cdc", "fusion_lon": 0.0}, {"is_reserved": 0, "type": "electric_scooter", "bike_id": "8b4fa7272a588b83435817a0d99abfb4", "lat": 38.92247966666667, "lon": -77.03084133333333, "rental_uris": {"android": "https://dc.lft.to/lastmile_qr_scan", "ios": "https://dc.lft.to/lastmile_qr_scan"}, "is_disabled": 0, "fusion_lat": 0.0, "name": "8b4fa7272a588b83435817a0d99abfb4", "fusion_lon": 0.0}, {"is_reserved": 0, "type": "electric_scooter", "bike_id": "af2fdcf9c21e5c4decbd42982b019425", "lat": 38.907311, "lon": -77.01091316666667, "rental_uris": {"android": "https://dc.lft.to/lastmile_qr_scan", "ios": "https://dc.lft.to/lastmile_qr_scan"}, "is_disabled": 0, "fusion_lat": 0.0, "name": "af2fdcf9c21e5c4decbd42982b019425", "fusion_lon": 0.0}, {"is_reserved": 0, "type": "electric_bike", "bike_id": "5143d7246efc676b44684bc7a834b6f8", "lat": 38.92434933333333, "lon": -77.05742783333334, "rental_uris": {"android": "https://dc.lft.to/lastmile_qr_scan", "ios": "https://dc.lft.to/lastmile_qr_scan"}, "is_disabled": 0, "fusion_lat": 0.0, "name": "5143d7246efc676b44684bc7a834b6f8", "fusion_lon": 0.0}, {"is_reserved": 0, "type": "electric_scooter", "bike_id": "c6334f1e6a293f154f35cfecc0b07b7d", "lat": 38.89634733333333, "lon": -76.92800383333334, "rental_uris": {"android": "https://dc.lft.to/lastmile_qr_scan", "ios": "https://dc.lft.to/lastmile_qr_scan"}, "is_disabled": 0, "fusion_lat": 0.0, "name": "c6334f1e6a293f154f35cfecc0b07b7d", "fusion_lon": 0.0}, {"is_reserved": 0, "type": "electric_scooter", "bike_id": "5970c66702b5fac6e348af00cc74e311", "lat": 38.91028383333333, "lon": -77.00760366666667, "rental_uris": {"android": "https://dc.lft.to/lastmile_qr_scan", "ios": "https://dc.lft.to/lastmile_qr_scan"}, "is_disabled": 0, "fusion_lat": 0.0, "name": "5970c66702b5fac6e348af00cc74e311", "fusion_lon": 0.0}, {"is_reserved": 0, "type": "electric_bike", "bike_id": "58f8438e32aba423c7d94c32985ad41d", "lat": 38.94264483333333, "lon": -76.99067633333334, "rental_uris": {"android": "https://dc.lft.to/lastmile_qr_scan", "ios": "https://dc.lft.to/lastmile_qr_scan"}, "is_disabled": 0, "fusion_lat": 0.0, "name": "58f8438e32aba423c7d94c32985ad41d", "fusion_lon": 0.0}, {"is_reserved": 0, "type": "electric_scooter", "bike_id": "b3cb959d9e5a5dff4a0df23f912db6f1", "lat": 38.912653166666665, "lon": -77.0155795, "rental_uris": {"android": "https://dc.lft.to/lastmile_qr_scan", "ios": "https://dc.lft.to/lastmile_qr_scan"}, "is_disabled": 0, "fusion_lat": 0.0, "name": "b3cb959d9e5a5dff4a0df23f912db6f1", "fusion_lon": 0.0}, {"is_reserved": 0, "type": "electric_scooter", "bike_id": "f17aef14f615f4820abd16ed4754b196", "lat": 38.92750266666667, "lon": -77.0253605, "rental_uris": {"android": "https://dc.lft.to/lastmile_qr_scan", "ios": "https://dc.lft.to/lastmile_qr_scan"}, "is_disabled": 0, "fusion_lat": 0.0, "name": "f17aef14f615f4820abd16ed4754b196", "fusion_lon": 0.0}, {"is_reserved": 0, "type": "electric_scooter", "bike_id": "13f55ba5b53d3f40768ff450930899df", "lat": 38.959122, "lon": -77.00013583333333, "rental_uris": {"android": "https://dc.lft.to/lastmile_qr_scan", "ios": "https://dc.lft.to/lastmile_qr_scan"}, "is_disabled": 0, "fusion_lat": 0.0, "name": "13f55ba5b53d3f40768ff450930899df", "fusion_lon": 0.0}, {"is_reserved": 0, "type": "electric_scooter", "bike_id": "20755a70793b805cc7f3542438c5953a", "lat": 38.91478633333333, "lon": -77.04536033333333, "rental_uris": {"android": "https://dc.lft.to/lastmile_qr_scan", "ios": "https://dc.lft.to/lastmile_qr_scan"}, "is_disabled": 0, "fusion_lat": 0.0, "name": "20755a70793b805cc7f3542438c5953a", "fusion_lon": 0.0}, {"is_reserved": 0, "type": "electric_bike", "bike_id": "c498a8ee8261b1b13aed8398113bcd58", "lat": 38.928773, "lon": -77.0336485, "rental_uris": {"android": "https://dc.lft.to/lastmile_qr_scan", "ios": "https://dc.lft.to/lastmile_qr_scan"}, "is_disabled": 0, "fusion_lat": 0.0, "name": "c498a8ee8261b1b13aed8398113bcd58", "fusion_lon": 0.0}, {"is_reserved": 0, "type": "electric_scooter", "bike_id": "44cc9be0ed1e20e1d3eef2952fa58154", "lat": 38.898967666666664, "lon": -77.03971216666666, "rental_uris": {"android": "https://dc.lft.to/lastmile_qr_scan", "ios": "https://dc.lft.to/lastmile_qr_scan"}, "is_disabled": 0, "fusion_lat": 0.0, "name": "44cc9be0ed1e20e1d3eef2952fa58154", "fusion_lon": 0.0}, {"is_reserved": 0, "type": "electric_scooter", "bike_id": "8f092cdeee7bed7648bce454ea8c2a59", "lat": 38.895230166666664, "lon": -77.01120366666666, "rental_uris": {"android": "https://dc.lft.to/lastmile_qr_scan", "ios": "https://dc.lft.to/lastmile_qr_scan"}, "is_disabled": 0, "fusion_lat": 0.0, "name": "8f092cdeee7bed7648bce454ea8c2a59", "fusion_lon": 0.0}, {"is_reserved": 0, "type": "electric_bike", "bike_id": "b891de199b37b8e702efff8179c0bdfd", "lat": 38.949182666666665, "lon": -77.00799966666666, "rental_uris": {"android": "https://dc.lft.to/lastmile_qr_scan", "ios": "https://dc.lft.to/lastmile_qr_scan"}, "is_disabled": 0, "fusion_lat": 0.0, "name": "b891de199b37b8e702efff8179c0bdfd", "fusion_lon": 0.0}, {"is_reserved": 0, "type": "electric_bike", "bike_id": "8a66b8cb8548e9a7e2e9accd307fce5a", "lat": 38.9624345, "lon": -76.9968185, "rental_uris": {"android": "https://dc.lft.to/lastmile_qr_scan", "ios": "https://dc.lft.to/lastmile_qr_scan"}, "is_disabled": 0, "fusion_lat": 0.0, "name": "8a66b8cb8548e9a7e2e9accd307fce5a", "fusion_lon": 0.0}, {"is_reserved": 0, "type": "electric_scooter", "bike_id": "1f4aa45600e500f039404c5f9e7ae387", "lat": 38.92476933333333, "lon": -77.03492783333333, "rental_uris": {"android": "https://dc.lft.to/lastmile_qr_scan", "ios": "https://dc.lft.to/lastmile_qr_scan"}, "is_disabled": 0, "fusion_lat": 0.0, "name": "1f4aa45600e500f039404c5f9e7ae387", "fusion_lon": 0.0}, {"is_reserved": 0, "type": "electric_scooter", "bike_id": "eb70f60ca8fe090b521f036aa88ed32a", "lat": 38.932814, "lon": -77.0394195, "rental_uris": {"android": "https://dc.lft.to/lastmile_qr_scan", "ios": "https://dc.lft.to/lastmile_qr_scan"}, "is_disabled": 0, "fusion_lat": 0.0, "name": "eb70f60ca8fe090b521f036aa88ed32a", "fusion_lon": 0.0}, {"is_reserved": 0, "type": "electric_scooter", "bike_id": "7289b165af3d421d78f625089630bcad", "lat": 38.87944866666667, "lon": -77.00379183333334, "rental_uris": {"android": "https://dc.lft.to/lastmile_qr_scan", "ios": "https://dc.lft.to/lastmile_qr_scan"}, "is_disabled": 0, "fusion_lat": 0.0, "name": "7289b165af3d421d78f625089630bcad", "fusion_lon": 0.0}, {"is_reserved": 0, "type": "electric_scooter", "bike_id": "adaef3380d1a900b9af4ad95a59dddd4", "lat": 38.943123166666666, "lon": -77.06174716666666, "rental_uris": {"android": "https://dc.lft.to/lastmile_qr_scan", "ios": "https://dc.lft.to/lastmile_qr_scan"}, "is_disabled": 0, "fusion_lat": 0.0, "name": "adaef3380d1a900b9af4ad95a59dddd4", "fusion_lon": 0.0}, {"is_reserved": 0, "type": "electric_scooter", "bike_id": "0b7ec7baf5069422165290c531bfbf3e", "lat": 38.93084616666667, "lon": -77.02551666666666, "rental_uris": {"android": "https://dc.lft.to/lastmile_qr_scan", "ios": "https://dc.lft.to/lastmile_qr_scan"}, "is_disabled": 0, "fusion_lat": 0.0, "name": "0b7ec7baf5069422165290c531bfbf3e", "fusion_lon": 0.0}, {"is_reserved": 0, "type": "electric_scooter", "bike_id": "0e6aa534107e4a94363d16919b4cfe94", "lat": 38.90779, "lon": -77.010837, "rental_uris": {"android": "https://dc.lft.to/lastmile_qr_scan", "ios": "https://dc.lft.to/lastmile_qr_scan"}, "is_disabled": 0, "fusion_lat": 0.0, "name": "0e6aa534107e4a94363d16919b4cfe94", "fusion_lon": 0.0}, {"is_reserved": 0, "type": "electric_scooter", "bike_id": "1c2b30a6461bc7ac00c7ba0e664ae10f", "lat": 38.922375, "lon": -77.04015916666667, "rental_uris": {"android": "https://dc.lft.to/lastmile_qr_scan", "ios": "https://dc.lft.to/lastmile_qr_scan"}, "is_disabled": 0, "fusion_lat": 0.0, "name": "1c2b30a6461bc7ac00c7ba0e664ae10f", "fusion_lon": 0.0}, {"is_reserved": 0, "type": "electric_scooter", "bike_id": "59ffb6b1311c2beeadff3669364c1793", "lat": 38.934089166666666, "lon": -77.045516, "rental_uris": {"android": "https://dc.lft.to/lastmile_qr_scan", "ios": "https://dc.lft.to/lastmile_qr_scan"}, "is_disabled": 0, "fusion_lat": 0.0, "name": "59ffb6b1311c2beeadff3669364c1793", "fusion_lon": 0.0}, {"is_reserved": 0, "type": "electric_scooter", "bike_id": "b8e2908caf04774dc2aa3a0f2efee806", "lat": 38.890815333333336, "lon": -77.04043183333333, "rental_uris": {"android": "https://dc.lft.to/lastmile_qr_scan", "ios": "https://dc.lft.to/lastmile_qr_scan"}, "is_disabled": 0, "fusion_lat": 0.0, "name": "b8e2908caf04774dc2aa3a0f2efee806", "fusion_lon": 0.0}, {"is_reserved": 0, "type": "electric_scooter", "bike_id": "b3d176762a643adf06110906dd67eb7f", "lat": 38.920599833333334, "lon": -77.0294655, "rental_uris": {"android": "https://dc.lft.to/lastmile_qr_scan", "ios": "https://dc.lft.to/lastmile_qr_scan"}, "is_disabled": 0, "fusion_lat": 0.0, "name": "b3d176762a643adf06110906dd67eb7f", "fusion_lon": 0.0}, {"is_reserved": 0, "type": "electric_scooter", "bike_id": "b9d84f4c79c8051f374a2f99f77641b6", "lat": 38.94510116666667, "lon": -77.03365983333333, "rental_uris": {"android": "https://dc.lft.to/lastmile_qr_scan", "ios": "https://dc.lft.to/lastmile_qr_scan"}, "is_disabled": 0, "fusion_lat": 0.0, "name": "b9d84f4c79c8051f374a2f99f77641b6", "fusion_lon": 0.0}, {"is_reserved": 0, "type": "electric_scooter", "bike_id": "056261a777bfc98a34e88375551de095", "lat": 38.92730366666667, "lon": -77.05255533333333, "rental_uris": {"android": "https://dc.lft.to/lastmile_qr_scan", "ios": "https://dc.lft.to/lastmile_qr_scan"}, "is_disabled": 0, "fusion_lat": 0.0, "name": "056261a777bfc98a34e88375551de095", "fusion_lon": 0.0}, {"is_reserved": 0, "type": "electric_scooter", "bike_id": "9fe260c24a6d0c0bd4a9bf27a9059ff0", "lat": 38.920218, "lon": -77.01880583333333, "rental_uris": {"android": "https://dc.lft.to/lastmile_qr_scan", "ios": "https://dc.lft.to/lastmile_qr_scan"}, "is_disabled": 0, "fusion_lat": 0.0, "name": "9fe260c24a6d0c0bd4a9bf27a9059ff0", "fusion_lon": 0.0}, {"is_reserved": 0, "type": "electric_scooter", "bike_id": "8381a8ec3f892ac0b6baef40165335fe", "lat": 38.9307095, "lon": -77.0296815, "rental_uris": {"android": "https://dc.lft.to/lastmile_qr_scan", "ios": "https://dc.lft.to/lastmile_qr_scan"}, "is_disabled": 0, "fusion_lat": 0.0, "name": "8381a8ec3f892ac0b6baef40165335fe", "fusion_lon": 0.0}, {"is_reserved": 0, "type": "electric_scooter", "bike_id": "4d32447a0b4b329cc90e8406737690b0", "lat": 38.9451815, "lon": -77.029794, "rental_uris": {"android": "https://dc.lft.to/lastmile_qr_scan", "ios": "https://dc.lft.to/lastmile_qr_scan"}, "is_disabled": 0, "fusion_lat": 0.0, "name": "4d32447a0b4b329cc90e8406737690b0", "fusion_lon": 0.0}, {"is_reserved": 0, "type": "electric_scooter", "bike_id": "dd4fe8fd2f2de0516c9db04f38329f59", "lat": 38.897665333333336, "lon": -77.0090185, "rental_uris": {"android": "https://dc.lft.to/lastmile_qr_scan", "ios": "https://dc.lft.to/lastmile_qr_scan"}, "is_disabled": 0, "fusion_lat": 0.0, "name": "dd4fe8fd2f2de0516c9db04f38329f59", "fusion_lon": 0.0}, {"is_reserved": 0, "type": "electric_scooter", "bike_id": "405c337e059210d85b697a7f970aab49", "lat": 38.9498145, "lon": -77.0201735, "rental_uris": {"android": "https://dc.lft.to/lastmile_qr_scan", "ios": "https://dc.lft.to/lastmile_qr_scan"}, "is_disabled": 0, "fusion_lat": 0.0, "name": "405c337e059210d85b697a7f970aab49", "fusion_lon": 0.0}, {"is_reserved": 0, "type": "electric_scooter", "bike_id": "9f1bf8f09d3071c96e8ce9f21ab8aa33", "lat": 38.92190566666667, "lon": -77.0424675, "rental_uris": {"android": "https://dc.lft.to/lastmile_qr_scan", "ios": "https://dc.lft.to/lastmile_qr_scan"}, "is_disabled": 0, "fusion_lat": 0.0, "name": "9f1bf8f09d3071c96e8ce9f21ab8aa33", "fusion_lon": 0.0}, {"is_reserved": 0, "type": "electric_scooter", "bike_id": "c931e276dc2fa2c6ce6ff87140b06e45", "lat": 38.907684333333336, "lon": -77.0000145, "rental_uris": {"android": "https://dc.lft.to/lastmile_qr_scan", "ios": "https://dc.lft.to/lastmile_qr_scan"}, "is_disabled": 0, "fusion_lat": 0.0, "name": "c931e276dc2fa2c6ce6ff87140b06e45", "fusion_lon": 0.0}, {"is_reserved": 0, "type": "electric_bike", "bike_id": "dcd53d587e2f5a1ca84c3a0ff1964614", "lat": 38.92444316666667, "lon": -77.01921183333333, "rental_uris": {"android": "https://dc.lft.to/lastmile_qr_scan", "ios": "https://dc.lft.to/lastmile_qr_scan"}, "is_disabled": 0, "fusion_lat": 0.0, "name": "dcd53d587e2f5a1ca84c3a0ff1964614", "fusion_lon": 0.0}, {"is_reserved": 0, "type": "electric_scooter", "bike_id": "9fece4c35a9c6494370d89250f122b73", "lat": 38.914176166666664, "lon": -77.022184, "rental_uris": {"android": "https://dc.lft.to/lastmile_qr_scan", "ios": "https://dc.lft.to/lastmile_qr_scan"}, "is_disabled": 0, "fusion_lat": 0.0, "name": "9fece4c35a9c6494370d89250f122b73", "fusion_lon": 0.0}, {"is_reserved": 0, "type": "electric_scooter", "bike_id": "12e90fa953505e702f9ddfb14c0f9340", "lat": 38.923903, "lon": -77.0296435, "rental_uris": {"android": "https://dc.lft.to/lastmile_qr_scan", "ios": "https://dc.lft.to/lastmile_qr_scan"}, "is_disabled": 0, "fusion_lat": 0.0, "name": "12e90fa953505e702f9ddfb14c0f9340", "fusion_lon": 0.0}, {"is_reserved": 0, "type": "electric_scooter", "bike_id": "e3396cc62e1a9edc0862244edbcfd2e7", "lat": 38.8975595, "lon": -77.02984783333333, "rental_uris": {"android": "https://dc.lft.to/lastmile_qr_scan", "ios": "https://dc.lft.to/lastmile_qr_scan"}, "is_disabled": 0, "fusion_lat": 0.0, "name": "e3396cc62e1a9edc0862244edbcfd2e7", "fusion_lon": 0.0}, {"is_reserved": 0, "type": "electric_bike", "bike_id": "0bbeee2d4e3bcbf5dca484a5b8822cbb", "lat": 38.82042033333333, "lon": -77.05363433333333, "rental_uris": {"android": "https://dc.lft.to/lastmile_qr_scan", "ios": "https://dc.lft.to/lastmile_qr_scan"}, "is_disabled": 0, "fusion_lat": 0.0, "name": "0bbeee2d4e3bcbf5dca484a5b8822cbb", "fusion_lon": 0.0}, {"is_reserved": 0, "type": "electric_scooter", "bike_id": "d835b9facef383a661573f50542cec84", "lat": 38.89623183333333, "lon": -77.02211683333333, "rental_uris": {"android": "https://dc.lft.to/lastmile_qr_scan", "ios": "https://dc.lft.to/lastmile_qr_scan"}, "is_disabled": 0, "fusion_lat": 0.0, "name": "d835b9facef383a661573f50542cec84", "fusion_lon": 0.0}, {"is_reserved": 0, "type": "electric_scooter", "bike_id": "6dbd47a9a63a0301ff560d67e48afc52", "lat": 38.933614166666665, "lon": -77.02736233333333, "rental_uris": {"android": "https://dc.lft.to/lastmile_qr_scan", "ios": "https://dc.lft.to/lastmile_qr_scan"}, "is_disabled": 0, "fusion_lat": 0.0, "name": "6dbd47a9a63a0301ff560d67e48afc52", "fusion_lon": 0.0}, {"is_reserved": 0, "type": "electric_scooter", "bike_id": "2290c8b84665b707e2ab2d6e516570c1", "lat": 38.92030466666667, "lon": -77.03728483333333, "rental_uris": {"android": "https://dc.lft.to/lastmile_qr_scan", "ios": "https://dc.lft.to/lastmile_qr_scan"}, "is_disabled": 0, "fusion_lat": 0.0, "name": "2290c8b84665b707e2ab2d6e516570c1", "fusion_lon": 0.0}, {"is_reserved": 0, "type": "electric_scooter", "bike_id": "a5bff69244837e65f41050580cb84ea1", "lat": 38.932589666666665, "lon": -77.03853366666667, "rental_uris": {"android": "https://dc.lft.to/lastmile_qr_scan", "ios": "https://dc.lft.to/lastmile_qr_scan"}, "is_disabled": 0, "fusion_lat": 0.0, "name": "a5bff69244837e65f41050580cb84ea1", "fusion_lon": 0.0}, {"is_reserved": 0, "type": "electric_scooter", "bike_id": "9f85817c6f0ee71fe03bc6d553aa6ff3", "lat": 38.878418833333335, "lon": -77.01968733333334, "rental_uris": {"android": "https://dc.lft.to/lastmile_qr_scan", "ios": "https://dc.lft.to/lastmile_qr_scan"}, "is_disabled": 0, "fusion_lat": 0.0, "name": "9f85817c6f0ee71fe03bc6d553aa6ff3", "fusion_lon": 0.0}, {"is_reserved": 0, "type": "electric_scooter", "bike_id": "bca53196f2d91c0f59e5c1394c26fefd", "lat": 38.897518, "lon": -77.00202216666666, "rental_uris": {"android": "https://dc.lft.to/lastmile_qr_scan", "ios": "https://dc.lft.to/lastmile_qr_scan"}, "is_disabled": 0, "fusion_lat": 0.0, "name": "bca53196f2d91c0f59e5c1394c26fefd", "fusion_lon": 0.0}, {"is_reserved": 0, "type": "electric_scooter", "bike_id": "f252812f98cbeb66598d8cf85ee46d42", "lat": 38.894852666666665, "lon": -76.9956195, "rental_uris": {"android": "https://dc.lft.to/lastmile_qr_scan", "ios": "https://dc.lft.to/lastmile_qr_scan"}, "is_disabled": 0, "fusion_lat": 0.0, "name": "f252812f98cbeb66598d8cf85ee46d42", "fusion_lon": 0.0}, {"is_reserved": 0, "type": "electric_bike", "bike_id": "1e686362e1ead98d3f652644ba39e4fb", "lat": 38.93757383333333, "lon": -77.036312, "rental_uris": {"android": "https://dc.lft.to/lastmile_qr_scan", "ios": "https://dc.lft.to/lastmile_qr_scan"}, "is_disabled": 0, "fusion_lat": 0.0, "name": "1e686362e1ead98d3f652644ba39e4fb", "fusion_lon": 0.0}, {"is_reserved": 0, "type": "electric_scooter", "bike_id": "0997326b3aecfb831248f7848651db9c", "lat": 38.9042385, "lon": -77.0265595, "rental_uris": {"android": "https://dc.lft.to/lastmile_qr_scan", "ios": "https://dc.lft.to/lastmile_qr_scan"}, "is_disabled": 0, "fusion_lat": 0.0, "name": "0997326b3aecfb831248f7848651db9c", "fusion_lon": 0.0}, {"is_reserved": 0, "type": "electric_scooter", "bike_id": "0b1c71345731c1e7840739b16abf9d16", "lat": 38.9058455, "lon": -77.07284666666666, "rental_uris": {"android": "https://dc.lft.to/lastmile_qr_scan", "ios": "https://dc.lft.to/lastmile_qr_scan"}, "is_disabled": 0, "fusion_lat": 0.0, "name": "0b1c71345731c1e7840739b16abf9d16", "fusion_lon": 0.0}, {"is_reserved": 0, "type": "electric_scooter", "bike_id": "5397c4a71ecf11047341b26abe75efc3", "lat": 38.89857033333333, "lon": -77.0283825, "rental_uris": {"android": "https://dc.lft.to/lastmile_qr_scan", "ios": "https://dc.lft.to/lastmile_qr_scan"}, "is_disabled": 0, "fusion_lat": 0.0, "name": "5397c4a71ecf11047341b26abe75efc3", "fusion_lon": 0.0}, {"is_reserved": 0, "type": "electric_scooter", "bike_id": "3cc43095c88c68c7233c6eb03b6e4930", "lat": 38.909937666666664, "lon": -77.040088, "rental_uris": {"android": "https://dc.lft.to/lastmile_qr_scan", "ios": "https://dc.lft.to/lastmile_qr_scan"}, "is_disabled": 0, "fusion_lat": 0.0, "name": "3cc43095c88c68c7233c6eb03b6e4930", "fusion_lon": 0.0}, {"is_reserved": 0, "type": "electric_scooter", "bike_id": "5417dca63f16d5195e8c5695ad4cd2ef", "lat": 38.90434533333333, "lon": -77.02694633333333, "rental_uris": {"android": "https://dc.lft.to/lastmile_qr_scan", "ios": "https://dc.lft.to/lastmile_qr_scan"}, "is_disabled": 0, "fusion_lat": 0.0, "name": "5417dca63f16d5195e8c5695ad4cd2ef", "fusion_lon": 0.0}, {"is_reserved": 0, "type": "electric_bike", "bike_id": "7d6543a1c878cf298ca6b8d46b480188", "lat": 38.899138666666666, "lon": -76.933392, "rental_uris": {"android": "https://dc.lft.to/lastmile_qr_scan", "ios": "https://dc.lft.to/lastmile_qr_scan"}, "is_disabled": 0, "fusion_lat": 0.0, "name": "7d6543a1c878cf298ca6b8d46b480188", "fusion_lon": 0.0}, {"is_reserved": 0, "type": "electric_bike", "bike_id": "8e6cc3070e5c09a3e72cb07b191a1425", "lat": 38.951531833333334, "lon": -76.93332566666666, "rental_uris": {"android": "https://dc.lft.to/lastmile_qr_scan", "ios": "https://dc.lft.to/lastmile_qr_scan"}, "is_disabled": 0, "fusion_lat": 0.0, "name": "8e6cc3070e5c09a3e72cb07b191a1425", "fusion_lon": 0.0}, {"is_reserved": 0, "type": "electric_scooter", "bike_id": "9c59cbce3dc53b6b4731d97033b2dc61", "lat": 38.9104605, "lon": -77.01517666666666, "rental_uris": {"android": "https://dc.lft.to/lastmile_qr_scan", "ios": "https://dc.lft.to/lastmile_qr_scan"}, "is_disabled": 0, "fusion_lat": 0.0, "name": "9c59cbce3dc53b6b4731d97033b2dc61", "fusion_lon": 0.0}, {"is_reserved": 0, "type": "electric_scooter", "bike_id": "42326e794446a5e8565c5220697de28e", "lat": 38.9333775, "lon": -77.041354, "rental_uris": {"android": "https://dc.lft.to/lastmile_qr_scan", "ios": "https://dc.lft.to/lastmile_qr_scan"}, "is_disabled": 0, "fusion_lat": 0.0, "name": "42326e794446a5e8565c5220697de28e", "fusion_lon": 0.0}, {"is_reserved": 0, "type": "electric_scooter", "bike_id": "e357709b040c9d3164a0e704e9231221", "lat": 38.925997, "lon": -77.05706316666667, "rental_uris": {"android": "https://dc.lft.to/lastmile_qr_scan", "ios": "https://dc.lft.to/lastmile_qr_scan"}, "is_disabled": 0, "fusion_lat": 0.0, "name": "e357709b040c9d3164a0e704e9231221", "fusion_lon": 0.0}, {"is_reserved": 0, "type": "electric_bike", "bike_id": "540b3f072ec60d8e8e0f8e64bff2db03", "lat": 38.8025265, "lon": -77.12173883333334, "rental_uris": {"android": "https://dc.lft.to/lastmile_qr_scan", "ios": "https://dc.lft.to/lastmile_qr_scan"}, "is_disabled": 0, "fusion_lat": 0.0, "name": "540b3f072ec60d8e8e0f8e64bff2db03", "fusion_lon": 0.0}, {"is_reserved": 0, "type": "electric_scooter", "bike_id": "49e98580eee5ec7f7935b8588249375d", "lat": 38.949785, "lon": -77.024391, "rental_uris": {"android": "https://dc.lft.to/lastmile_qr_scan", "ios": "https://dc.lft.to/lastmile_qr_scan"}, "is_disabled": 0, "fusion_lat": 0.0, "name": "49e98580eee5ec7f7935b8588249375d", "fusion_lon": 0.0}, {"is_reserved": 0, "type": "electric_scooter", "bike_id": "196e7b3427a5452a300a6a4f201b6c8e", "lat": 38.8545655, "lon": -76.9724515, "rental_uris": {"android": "https://dc.lft.to/lastmile_qr_scan", "ios": "https://dc.lft.to/lastmile_qr_scan"}, "is_disabled": 0, "fusion_lat": 0.0, "name": "196e7b3427a5452a300a6a4f201b6c8e", "fusion_lon": 0.0}, {"is_reserved": 0, "type": "electric_scooter", "bike_id": "e1b69eecf290460bcd9024d5260d567d", "lat": 38.90719283333333, "lon": -77.02545616666667, "rental_uris": {"android": "https://dc.lft.to/lastmile_qr_scan", "ios": "https://dc.lft.to/lastmile_qr_scan"}, "is_disabled": 0, "fusion_lat": 0.0, "name": "e1b69eecf290460bcd9024d5260d567d", "fusion_lon": 0.0}, {"is_reserved": 0, "type": "electric_scooter", "bike_id": "76305ee15ee67028926e62cd5d83f18b", "lat": 38.901457, "lon": -77.05125516666666, "rental_uris": {"android": "https://dc.lft.to/lastmile_qr_scan", "ios": "https://dc.lft.to/lastmile_qr_scan"}, "is_disabled": 0, "fusion_lat": 0.0, "name": "76305ee15ee67028926e62cd5d83f18b", "fusion_lon": 0.0}, {"is_reserved": 0, "type": "electric_scooter", "bike_id": "7996180e227abd03d783edf05dc6208c", "lat": 38.92751633333334, "lon": -77.02313616666666, "rental_uris": {"android": "https://dc.lft.to/lastmile_qr_scan", "ios": "https://dc.lft.to/lastmile_qr_scan"}, "is_disabled": 0, "fusion_lat": 0.0, "name": "7996180e227abd03d783edf05dc6208c", "fusion_lon": 0.0}, {"is_reserved": 0, "type": "electric_scooter", "bike_id": "3e9648ef41d67e240c57fae2b7d6f925", "lat": 38.908325166666664, "lon": -77.00113466666667, "rental_uris": {"android": "https://dc.lft.to/lastmile_qr_scan", "ios": "https://dc.lft.to/lastmile_qr_scan"}, "is_disabled": 0, "fusion_lat": 0.0, "name": "3e9648ef41d67e240c57fae2b7d6f925", "fusion_lon": 0.0}, {"is_reserved": 0, "type": "electric_scooter", "bike_id": "e464ddc1493dd1cef423e4fc5eae5321", "lat": 38.90717, "lon": -77.04615783333334, "rental_uris": {"android": "https://dc.lft.to/lastmile_qr_scan", "ios": "https://dc.lft.to/lastmile_qr_scan"}, "is_disabled": 0, "fusion_lat": 0.0, "name": "e464ddc1493dd1cef423e4fc5eae5321", "fusion_lon": 0.0}, {"is_reserved": 0, "type": "electric_scooter", "bike_id": "5c48fe4fd6585d280e43ff41c82f49aa", "lat": 38.90398283333333, "lon": -77.02741366666666, "rental_uris": {"android": "https://dc.lft.to/lastmile_qr_scan", "ios": "https://dc.lft.to/lastmile_qr_scan"}, "is_disabled": 0, "fusion_lat": 0.0, "name": "5c48fe4fd6585d280e43ff41c82f49aa", "fusion_lon": 0.0}, {"is_reserved": 0, "type": "electric_scooter", "bike_id": "cfc8c23698be656e852dd7a248ae8a87", "lat": 38.92023016666667, "lon": -77.039728, "rental_uris": {"android": "https://dc.lft.to/lastmile_qr_scan", "ios": "https://dc.lft.to/lastmile_qr_scan"}, "is_disabled": 0, "fusion_lat": 0.0, "name": "cfc8c23698be656e852dd7a248ae8a87", "fusion_lon": 0.0}, {"is_reserved": 0, "type": "electric_scooter", "bike_id": "062fe8019c3904349a75d79b27f5491c", "lat": 38.92157366666667, "lon": -77.03384733333333, "rental_uris": {"android": "https://dc.lft.to/lastmile_qr_scan", "ios": "https://dc.lft.to/lastmile_qr_scan"}, "is_disabled": 0, "fusion_lat": 0.0, "name": "062fe8019c3904349a75d79b27f5491c", "fusion_lon": 0.0}, {"is_reserved": 0, "type": "electric_bike", "bike_id": "482a61e3d9cb3de53dff574b8c7d2223", "lat": 38.88932533333333, "lon": -76.91324483333334, "rental_uris": {"android": "https://dc.lft.to/lastmile_qr_scan", "ios": "https://dc.lft.to/lastmile_qr_scan"}, "is_disabled": 0, "fusion_lat": 0.0, "name": "482a61e3d9cb3de53dff574b8c7d2223", "fusion_lon": 0.0}, {"is_reserved": 0, "type": "electric_scooter", "bike_id": "bbcc08d4fc8977d78ffce146bf6a2994", "lat": 38.93197216666667, "lon": -77.01958916666666, "rental_uris": {"android": "https://dc.lft.to/lastmile_qr_scan", "ios": "https://dc.lft.to/lastmile_qr_scan"}, "is_disabled": 0, "fusion_lat": 0.0, "name": "bbcc08d4fc8977d78ffce146bf6a2994", "fusion_lon": 0.0}, {"is_reserved": 0, "type": "electric_scooter", "bike_id": "0540a0bdf14207509f8b212ea396eeb2", "lat": 38.9238775, "lon": -77.025805, "rental_uris": {"android": "https://dc.lft.to/lastmile_qr_scan", "ios": "https://dc.lft.to/lastmile_qr_scan"}, "is_disabled": 0, "fusion_lat": 0.0, "name": "0540a0bdf14207509f8b212ea396eeb2", "fusion_lon": 0.0}, {"is_reserved": 0, "type": "electric_scooter", "bike_id": "a05705904834b422d8128750b87ca59e", "lat": 38.94054466666667, "lon": -77.02505716666667, "rental_uris": {"android": "https://dc.lft.to/lastmile_qr_scan", "ios": "https://dc.lft.to/lastmile_qr_scan"}, "is_disabled": 0, "fusion_lat": 0.0, "name": "a05705904834b422d8128750b87ca59e", "fusion_lon": 0.0}, {"is_reserved": 0, "type": "electric_scooter", "bike_id": "f4bc218cbe44a38feecefc3d386bf189", "lat": 38.8938495, "lon": -76.92310666666667, "rental_uris": {"android": "https://dc.lft.to/lastmile_qr_scan", "ios": "https://dc.lft.to/lastmile_qr_scan"}, "is_disabled": 0, "fusion_lat": 0.0, "name": "f4bc218cbe44a38feecefc3d386bf189", "fusion_lon": 0.0}, {"is_reserved": 0, "type": "electric_scooter", "bike_id": "07bcf7a33cd6fd1147639c4e7baf0fa4", "lat": 38.885926166666664, "lon": -77.01965666666666, "rental_uris": {"android": "https://dc.lft.to/lastmile_qr_scan", "ios": "https://dc.lft.to/lastmile_qr_scan"}, "is_disabled": 0, "fusion_lat": 0.0, "name": "07bcf7a33cd6fd1147639c4e7baf0fa4", "fusion_lon": 0.0}, {"is_reserved": 0, "type": "electric_bike", "bike_id": "4928bba8e8cb904236d865ffa91ce5ae", "lat": 38.926047, "lon": -77.0243445, "rental_uris": {"android": "https://dc.lft.to/lastmile_qr_scan", "ios": "https://dc.lft.to/lastmile_qr_scan"}, "is_disabled": 0, "fusion_lat": 0.0, "name": "4928bba8e8cb904236d865ffa91ce5ae", "fusion_lon": 0.0}, {"is_reserved": 0, "type": "electric_bike", "bike_id": "dc0d699d7b96d0a9776640d6973147c8", "lat": 38.925528, "lon": -77.001252, "rental_uris": {"android": "https://dc.lft.to/lastmile_qr_scan", "ios": "https://dc.lft.to/lastmile_qr_scan"}, "is_disabled": 0, "fusion_lat": 0.0, "name": "dc0d699d7b96d0a9776640d6973147c8", "fusion_lon": 0.0}, {"is_reserved": 0, "type": "electric_scooter", "bike_id": "287cf5d6b9af8e6f478a9e9578a97b5e", "lat": 38.931447, "lon": -77.02991966666667, "rental_uris": {"android": "https://dc.lft.to/lastmile_qr_scan", "ios": "https://dc.lft.to/lastmile_qr_scan"}, "is_disabled": 0, "fusion_lat": 0.0, "name": "287cf5d6b9af8e6f478a9e9578a97b5e", "fusion_lon": 0.0}, {"is_reserved": 0, "type": "electric_scooter", "bike_id": "1ea1459bda4945a97f59ad17dfa32ecb", "lat": 38.88534166666667, "lon": -76.99825883333334, "rental_uris": {"android": "https://dc.lft.to/lastmile_qr_scan", "ios": "https://dc.lft.to/lastmile_qr_scan"}, "is_disabled": 0, "fusion_lat": 0.0, "name": "1ea1459bda4945a97f59ad17dfa32ecb", "fusion_lon": 0.0}, {"is_reserved": 0, "type": "electric_scooter", "bike_id": "1bfd5bd6fd8dcce23cfab062a2ea6526", "lat": 38.9141355, "lon": -77.0317125, "rental_uris": {"android": "https://dc.lft.to/lastmile_qr_scan", "ios": "https://dc.lft.to/lastmile_qr_scan"}, "is_disabled": 0, "fusion_lat": 0.0, "name": "1bfd5bd6fd8dcce23cfab062a2ea6526", "fusion_lon": 0.0}, {"is_reserved": 0, "type": "electric_bike", "bike_id": "ee216339efdc876deddec3b0c4c685c1", "lat": 39.004437333333335, "lon": -76.9013425, "rental_uris": {"android": "https://dc.lft.to/lastmile_qr_scan", "ios": "https://dc.lft.to/lastmile_qr_scan"}, "is_disabled": 0, "fusion_lat": 0.0, "name": "ee216339efdc876deddec3b0c4c685c1", "fusion_lon": 0.0}, {"is_reserved": 0, "type": "electric_bike", "bike_id": "f93c6f27cc4e2f617aeb5fc56f94da7d", "lat": 38.854179333333335, "lon": -77.08369566666667, "rental_uris": {"android": "https://dc.lft.to/lastmile_qr_scan", "ios": "https://dc.lft.to/lastmile_qr_scan"}, "is_disabled": 0, "fusion_lat": 0.0, "name": "f93c6f27cc4e2f617aeb5fc56f94da7d", "fusion_lon": 0.0}, {"is_reserved": 0, "type": "electric_scooter", "bike_id": "1eb77f06fa8dd132a0279581b51771d0", "lat": 38.9244795, "lon": -77.0203865, "rental_uris": {"android": "https://dc.lft.to/lastmile_qr_scan", "ios": "https://dc.lft.to/lastmile_qr_scan"}, "is_disabled": 0, "fusion_lat": 0.0, "name": "1eb77f06fa8dd132a0279581b51771d0", "fusion_lon": 0.0}, {"is_reserved": 0, "type": "electric_bike", "bike_id": "2071a78f584bb61bbaa9f1a8c2c4efef", "lat": 38.870355, "lon": -77.22914783333333, "rental_uris": {"android": "https://dc.lft.to/lastmile_qr_scan", "ios": "https://dc.lft.to/lastmile_qr_scan"}, "is_disabled": 0, "fusion_lat": 0.0, "name": "2071a78f584bb61bbaa9f1a8c2c4efef", "fusion_lon": 0.0}, {"is_reserved": 0, "type": "electric_scooter", "bike_id": "5e48be5f69b1d0f1258f0f495684cdce", "lat": 38.91370783333333, "lon": -77.02739933333334, "rental_uris": {"android": "https://dc.lft.to/lastmile_qr_scan", "ios": "https://dc.lft.to/lastmile_qr_scan"}, "is_disabled": 0, "fusion_lat": 0.0, "name": "5e48be5f69b1d0f1258f0f495684cdce", "fusion_lon": 0.0}, {"is_reserved": 0, "type": "electric_scooter", "bike_id": "acd49de929c608455e5d99139264ca26", "lat": 38.9250505, "lon": -77.02165133333334, "rental_uris": {"android": "https://dc.lft.to/lastmile_qr_scan", "ios": "https://dc.lft.to/lastmile_qr_scan"}, "is_disabled": 0, "fusion_lat": 0.0, "name": "acd49de929c608455e5d99139264ca26", "fusion_lon": 0.0}, {"is_reserved": 0, "type": "electric_scooter", "bike_id": "3618ee592e5285042a494f8a9fe8d79c", "lat": 38.8794055, "lon": -77.01668266666667, "rental_uris": {"android": "https://dc.lft.to/lastmile_qr_scan", "ios": "https://dc.lft.to/lastmile_qr_scan"}, "is_disabled": 0, "fusion_lat": 0.0, "name": "3618ee592e5285042a494f8a9fe8d79c", "fusion_lon": 0.0}, {"is_reserved": 0, "type": "electric_scooter", "bike_id": "bbde880d66a7580e5b04ed9b5f3d42c8", "lat": 38.9152115, "lon": -77.00342, "rental_uris": {"android": "https://dc.lft.to/lastmile_qr_scan", "ios": "https://dc.lft.to/lastmile_qr_scan"}, "is_disabled": 0, "fusion_lat": 0.0, "name": "bbde880d66a7580e5b04ed9b5f3d42c8", "fusion_lon": 0.0}, {"is_reserved": 0, "type": "electric_bike", "bike_id": "7cba443156ae97573137a895b972482d", "lat": 38.99028766666667, "lon": -77.02550133333334, "rental_uris": {"android": "https://dc.lft.to/lastmile_qr_scan", "ios": "https://dc.lft.to/lastmile_qr_scan"}, "is_disabled": 0, "fusion_lat": 0.0, "name": "7cba443156ae97573137a895b972482d", "fusion_lon": 0.0}, {"is_reserved": 0, "type": "electric_scooter", "bike_id": "199699cd7640c1a2576a2037023c3b96", "lat": 38.907531666666664, "lon": -76.99880216666666, "rental_uris": {"android": "https://dc.lft.to/lastmile_qr_scan", "ios": "https://dc.lft.to/lastmile_qr_scan"}, "is_disabled": 0, "fusion_lat": 0.0, "name": "199699cd7640c1a2576a2037023c3b96", "fusion_lon": 0.0}, {"is_reserved": 0, "type": "electric_scooter", "bike_id": "00d8661437a1caaa3f9eba42a2852a4e", "lat": 38.93880683333333, "lon": -77.02939583333334, "rental_uris": {"android": "https://dc.lft.to/lastmile_qr_scan", "ios": "https://dc.lft.to/lastmile_qr_scan"}, "is_disabled": 0, "fusion_lat": 0.0, "name": "00d8661437a1caaa3f9eba42a2852a4e", "fusion_lon": 0.0}, {"is_reserved": 0, "type": "electric_scooter", "bike_id": "fcd16e7d621ba8dbc7b029f7c957579d", "lat": 38.927982666666665, "lon": -77.04063783333334, "rental_uris": {"android": "https://dc.lft.to/lastmile_qr_scan", "ios": "https://dc.lft.to/lastmile_qr_scan"}, "is_disabled": 0, "fusion_lat": 0.0, "name": "fcd16e7d621ba8dbc7b029f7c957579d", "fusion_lon": 0.0}, {"is_reserved": 0, "type": "electric_scooter", "bike_id": "9af0c62fa7666aed6be15669355cfca2", "lat": 38.95629, "lon": -77.03561833333333, "rental_uris": {"android": "https://dc.lft.to/lastmile_qr_scan", "ios": "https://dc.lft.to/lastmile_qr_scan"}, "is_disabled": 0, "fusion_lat": 0.0, "name": "9af0c62fa7666aed6be15669355cfca2", "fusion_lon": 0.0}, {"is_reserved": 0, "type": "electric_scooter", "bike_id": "963691a48a4752631cf20c3011c1a384", "lat": 38.9110235, "lon": -77.03832883333334, "rental_uris": {"android": "https://dc.lft.to/lastmile_qr_scan", "ios": "https://dc.lft.to/lastmile_qr_scan"}, "is_disabled": 0, "fusion_lat": 0.0, "name": "963691a48a4752631cf20c3011c1a384", "fusion_lon": 0.0}, {"is_reserved": 0, "type": "electric_scooter", "bike_id": "f21f01c6e189adae15809e5a6e7792a1", "lat": 38.876211, "lon": -77.0125, "rental_uris": {"android": "https://dc.lft.to/lastmile_qr_scan", "ios": "https://dc.lft.to/lastmile_qr_scan"}, "is_disabled": 0, "fusion_lat": 0.0, "name": "f21f01c6e189adae15809e5a6e7792a1", "fusion_lon": 0.0}, {"is_reserved": 0, "type": "electric_scooter", "bike_id": "0deb96452fd5a71ac9614c35e759fe6f", "lat": 38.91167733333333, "lon": -77.0109595, "rental_uris": {"android": "https://dc.lft.to/lastmile_qr_scan", "ios": "https://dc.lft.to/lastmile_qr_scan"}, "is_disabled": 0, "fusion_lat": 0.0, "name": "0deb96452fd5a71ac9614c35e759fe6f", "fusion_lon": 0.0}, {"is_reserved": 0, "type": "electric_scooter", "bike_id": "9a81f394c6270060c66f446fd2cac2d3", "lat": 38.93503716666667, "lon": -77.02006533333333, "rental_uris": {"android": "https://dc.lft.to/lastmile_qr_scan", "ios": "https://dc.lft.to/lastmile_qr_scan"}, "is_disabled": 0, "fusion_lat": 0.0, "name": "9a81f394c6270060c66f446fd2cac2d3", "fusion_lon": 0.0}, {"is_reserved": 0, "type": "electric_scooter", "bike_id": "a718415cdfd01a2c8a8ed1e5ecc55249", "lat": 38.91480633333333, "lon": -77.01816716666667, "rental_uris": {"android": "https://dc.lft.to/lastmile_qr_scan", "ios": "https://dc.lft.to/lastmile_qr_scan"}, "is_disabled": 0, "fusion_lat": 0.0, "name": "a718415cdfd01a2c8a8ed1e5ecc55249", "fusion_lon": 0.0}, {"is_reserved": 0, "type": "electric_scooter", "bike_id": "bf045d7c7b05959492c2a467d31631de", "lat": 38.901314166666666, "lon": -77.032042, "rental_uris": {"android": "https://dc.lft.to/lastmile_qr_scan", "ios": "https://dc.lft.to/lastmile_qr_scan"}, "is_disabled": 0, "fusion_lat": 0.0, "name": "bf045d7c7b05959492c2a467d31631de", "fusion_lon": 0.0}, {"is_reserved": 0, "type": "electric_scooter", "bike_id": "30474cf343cf8237fddb2805dd608296", "lat": 38.9407635, "lon": -77.02906833333333, "rental_uris": {"android": "https://dc.lft.to/lastmile_qr_scan", "ios": "https://dc.lft.to/lastmile_qr_scan"}, "is_disabled": 0, "fusion_lat": 0.0, "name": "30474cf343cf8237fddb2805dd608296", "fusion_lon": 0.0}, {"is_reserved": 0, "type": "electric_bike", "bike_id": "22ac5fd756e9cf1b23c79b7741e85027", "lat": 38.84561766666667, "lon": -76.97057566666666, "rental_uris": {"android": "https://dc.lft.to/lastmile_qr_scan", "ios": "https://dc.lft.to/lastmile_qr_scan"}, "is_disabled": 0, "fusion_lat": 0.0, "name": "22ac5fd756e9cf1b23c79b7741e85027", "fusion_lon": 0.0}, {"is_reserved": 0, "type": "electric_bike", "bike_id": "68c8c5f829ae1bae1868f78c758d6150", "lat": 38.838142833333336, "lon": -77.0952465, "rental_uris": {"android": "https://dc.lft.to/lastmile_qr_scan", "ios": "https://dc.lft.to/lastmile_qr_scan"}, "is_disabled": 0, "fusion_lat": 0.0, "name": "68c8c5f829ae1bae1868f78c758d6150", "fusion_lon": 0.0}, {"is_reserved": 0, "type": "electric_bike", "bike_id": "7b345f2cfe4df1a048028c76ce9a5f65", "lat": 38.97424216666667, "lon": -77.01258616666667, "rental_uris": {"android": "https://dc.lft.to/lastmile_qr_scan", "ios": "https://dc.lft.to/lastmile_qr_scan"}, "is_disabled": 0, "fusion_lat": 0.0, "name": "7b345f2cfe4df1a048028c76ce9a5f65", "fusion_lon": 0.0}, {"is_reserved": 0, "type": "electric_scooter", "bike_id": "8b14d88e37374e70a20602df06104d10", "lat": 38.93098533333333, "lon": -77.02472416666667, "rental_uris": {"android": "https://dc.lft.to/lastmile_qr_scan", "ios": "https://dc.lft.to/lastmile_qr_scan"}, "is_disabled": 0, "fusion_lat": 0.0, "name": "8b14d88e37374e70a20602df06104d10", "fusion_lon": 0.0}, {"is_reserved": 0, "type": "electric_scooter", "bike_id": "e5145c821a5add8352c64cc3187dc95b", "lat": 38.91117916666666, "lon": -77.01820416666666, "rental_uris": {"android": "https://dc.lft.to/lastmile_qr_scan", "ios": "https://dc.lft.to/lastmile_qr_scan"}, "is_disabled": 0, "fusion_lat": 0.0, "name": "e5145c821a5add8352c64cc3187dc95b", "fusion_lon": 0.0}, {"is_reserved": 0, "type": "electric_scooter", "bike_id": "e3ead8558ce2a9370e25f6a19f256b73", "lat": 38.930633, "lon": -77.02837683333334, "rental_uris": {"android": "https://dc.lft.to/lastmile_qr_scan", "ios": "https://dc.lft.to/lastmile_qr_scan"}, "is_disabled": 0, "fusion_lat": 0.0, "name": "e3ead8558ce2a9370e25f6a19f256b73", "fusion_lon": 0.0}, {"is_reserved": 0, "type": "electric_scooter", "bike_id": "6fb161cb3a363d8105a7776d000f0bdd", "lat": 38.9382765, "lon": -77.0263285, "rental_uris": {"android": "https://dc.lft.to/lastmile_qr_scan", "ios": "https://dc.lft.to/lastmile_qr_scan"}, "is_disabled": 0, "fusion_lat": 0.0, "name": "6fb161cb3a363d8105a7776d000f0bdd", "fusion_lon": 0.0}, {"is_reserved": 0, "type": "electric_scooter", "bike_id": "2c68c6cee89ecac284fa3cffa4ee8bde", "lat": 38.935233, "lon": -77.032654, "rental_uris": {"android": "https://dc.lft.to/lastmile_qr_scan", "ios": "https://dc.lft.to/lastmile_qr_scan"}, "is_disabled": 0, "fusion_lat": 0.0, "name": "2c68c6cee89ecac284fa3cffa4ee8bde", "fusion_lon": 0.0}, {"is_reserved": 0, "type": "electric_scooter", "bike_id": "74d20e7cd517dbd262d8ea5200375ea6", "lat": 38.92907866666667, "lon": -77.02190616666667, "rental_uris": {"android": "https://dc.lft.to/lastmile_qr_scan", "ios": "https://dc.lft.to/lastmile_qr_scan"}, "is_disabled": 0, "fusion_lat": 0.0, "name": "74d20e7cd517dbd262d8ea5200375ea6", "fusion_lon": 0.0}, {"is_reserved": 0, "type": "electric_scooter", "bike_id": "2ede678b321745f7f904ccc536db2919", "lat": 38.92442833333333, "lon": -77.040311, "rental_uris": {"android": "https://dc.lft.to/lastmile_qr_scan", "ios": "https://dc.lft.to/lastmile_qr_scan"}, "is_disabled": 0, "fusion_lat": 0.0, "name": "2ede678b321745f7f904ccc536db2919", "fusion_lon": 0.0}, {"is_reserved": 0, "type": "electric_bike", "bike_id": "2d6d9bc932c971598c2ec4402a550e1c", "lat": 38.9122535, "lon": -77.06597083333334, "rental_uris": {"android": "https://dc.lft.to/lastmile_qr_scan", "ios": "https://dc.lft.to/lastmile_qr_scan"}, "is_disabled": 0, "fusion_lat": 0.0, "name": "2d6d9bc932c971598c2ec4402a550e1c", "fusion_lon": 0.0}, {"is_reserved": 0, "type": "electric_scooter", "bike_id": "a40f01f3b5a774bff52350937bb22539", "lat": 38.91461366666667, "lon": -77.0021085, "rental_uris": {"android": "https://dc.lft.to/lastmile_qr_scan", "ios": "https://dc.lft.to/lastmile_qr_scan"}, "is_disabled": 0, "fusion_lat": 0.0, "name": "a40f01f3b5a774bff52350937bb22539", "fusion_lon": 0.0}, {"is_reserved": 0, "type": "electric_scooter", "bike_id": "6debfde311a11b957bc35da44d22d61e", "lat": 38.919152, "lon": -77.03578433333334, "rental_uris": {"android": "https://dc.lft.to/lastmile_qr_scan", "ios": "https://dc.lft.to/lastmile_qr_scan"}, "is_disabled": 0, "fusion_lat": 0.0, "name": "6debfde311a11b957bc35da44d22d61e", "fusion_lon": 0.0}, {"is_reserved": 0, "type": "electric_scooter", "bike_id": "c6715fd8055dab4cfec1cb2bc42a8fce", "lat": 38.898957333333335, "lon": -77.03333383333333, "rental_uris": {"android": "https://dc.lft.to/lastmile_qr_scan", "ios": "https://dc.lft.to/lastmile_qr_scan"}, "is_disabled": 0, "fusion_lat": 0.0, "name": "c6715fd8055dab4cfec1cb2bc42a8fce", "fusion_lon": 0.0}, {"is_reserved": 0, "type": "electric_scooter", "bike_id": "7e8d4a3176deac4468f32335e79e2c0f", "lat": 38.907246666666666, "lon": -77.04499233333334, "rental_uris": {"android": "https://dc.lft.to/lastmile_qr_scan", "ios": "https://dc.lft.to/lastmile_qr_scan"}, "is_disabled": 0, "fusion_lat": 0.0, "name": "7e8d4a3176deac4468f32335e79e2c0f", "fusion_lon": 0.0}, {"is_reserved": 0, "type": "electric_scooter", "bike_id": "197585230227dc9c1b92dc4c2c50524b", "lat": 38.88995466666667, "lon": -77.00155516666666, "rental_uris": {"android": "https://dc.lft.to/lastmile_qr_scan", "ios": "https://dc.lft.to/lastmile_qr_scan"}, "is_disabled": 0, "fusion_lat": 0.0, "name": "197585230227dc9c1b92dc4c2c50524b", "fusion_lon": 0.0}, {"is_reserved": 0, "type": "electric_scooter", "bike_id": "a435190b7fb8c1671810c82efa4a109c", "lat": 38.907258166666665, "lon": -77.04752583333334, "rental_uris": {"android": "https://dc.lft.to/lastmile_qr_scan", "ios": "https://dc.lft.to/lastmile_qr_scan"}, "is_disabled": 0, "fusion_lat": 0.0, "name": "a435190b7fb8c1671810c82efa4a109c", "fusion_lon": 0.0}, {"is_reserved": 0, "type": "electric_scooter", "bike_id": "2867fa013c5662c0c3afc002cb82f771", "lat": 38.89860616666667, "lon": -77.01971016666667, "rental_uris": {"android": "https://dc.lft.to/lastmile_qr_scan", "ios": "https://dc.lft.to/lastmile_qr_scan"}, "is_disabled": 0, "fusion_lat": 0.0, "name": "2867fa013c5662c0c3afc002cb82f771", "fusion_lon": 0.0}, {"is_reserved": 0, "type": "electric_bike", "bike_id": "a62ea413e6cdd5d316030e71ad82866f", "lat": 38.9112945, "lon": -77.065775, "rental_uris": {"android": "https://dc.lft.to/lastmile_qr_scan", "ios": "https://dc.lft.to/lastmile_qr_scan"}, "is_disabled": 0, "fusion_lat": 0.0, "name": "a62ea413e6cdd5d316030e71ad82866f", "fusion_lon": 0.0}, {"is_reserved": 0, "type": "electric_scooter", "bike_id": "942aeff9ee5ba5989b4b9315fc391b58", "lat": 38.9198835, "lon": -77.028804, "rental_uris": {"android": "https://dc.lft.to/lastmile_qr_scan", "ios": "https://dc.lft.to/lastmile_qr_scan"}, "is_disabled": 0, "fusion_lat": 0.0, "name": "942aeff9ee5ba5989b4b9315fc391b58", "fusion_lon": 0.0}, {"is_reserved": 0, "type": "electric_scooter", "bike_id": "6eaeca17b8e618592fb67d1a71cafd88", "lat": 38.91414, "lon": -77.03815266666666, "rental_uris": {"android": "https://dc.lft.to/lastmile_qr_scan", "ios": "https://dc.lft.to/lastmile_qr_scan"}, "is_disabled": 0, "fusion_lat": 0.0, "name": "6eaeca17b8e618592fb67d1a71cafd88", "fusion_lon": 0.0}, {"is_reserved": 0, "type": "electric_scooter", "bike_id": "da2e1e6fa2255631703d21dbc395d65a", "lat": 38.88394383333333, "lon": -76.9898215, "rental_uris": {"android": "https://dc.lft.to/lastmile_qr_scan", "ios": "https://dc.lft.to/lastmile_qr_scan"}, "is_disabled": 0, "fusion_lat": 0.0, "name": "da2e1e6fa2255631703d21dbc395d65a", "fusion_lon": 0.0}, {"is_reserved": 0, "type": "electric_scooter", "bike_id": "3e14b3a645f99d8ec59e6f982fd17563", "lat": 38.940774166666664, "lon": -77.0333335, "rental_uris": {"android": "https://dc.lft.to/lastmile_qr_scan", "ios": "https://dc.lft.to/lastmile_qr_scan"}, "is_disabled": 0, "fusion_lat": 0.0, "name": "3e14b3a645f99d8ec59e6f982fd17563", "fusion_lon": 0.0}, {"is_reserved": 0, "type": "electric_scooter", "bike_id": "267774bebb7941a0983139881e143a92", "lat": 38.92101533333334, "lon": -77.01760916666667, "rental_uris": {"android": "https://dc.lft.to/lastmile_qr_scan", "ios": "https://dc.lft.to/lastmile_qr_scan"}, "is_disabled": 0, "fusion_lat": 0.0, "name": "267774bebb7941a0983139881e143a92", "fusion_lon": 0.0}, {"is_reserved": 0, "type": "electric_scooter", "bike_id": "619d0f60ac0e03fe928984e4a9b3b376", "lat": 38.87759966666667, "lon": -76.99426533333333, "rental_uris": {"android": "https://dc.lft.to/lastmile_qr_scan", "ios": "https://dc.lft.to/lastmile_qr_scan"}, "is_disabled": 0, "fusion_lat": 0.0, "name": "619d0f60ac0e03fe928984e4a9b3b376", "fusion_lon": 0.0}, {"is_reserved": 0, "type": "electric_scooter", "bike_id": "a263d3ce82a9f1ed580f4291b7ce2e9d", "lat": 38.942394166666666, "lon": -77.03581983333333, "rental_uris": {"android": "https://dc.lft.to/lastmile_qr_scan", "ios": "https://dc.lft.to/lastmile_qr_scan"}, "is_disabled": 0, "fusion_lat": 0.0, "name": "a263d3ce82a9f1ed580f4291b7ce2e9d", "fusion_lon": 0.0}, {"is_reserved": 0, "type": "electric_scooter", "bike_id": "a6b746eba618e2e1405429feb66838e6", "lat": 38.89884883333333, "lon": -76.93175466666666, "rental_uris": {"android": "https://dc.lft.to/lastmile_qr_scan", "ios": "https://dc.lft.to/lastmile_qr_scan"}, "is_disabled": 0, "fusion_lat": 0.0, "name": "a6b746eba618e2e1405429feb66838e6", "fusion_lon": 0.0}, {"is_reserved": 0, "type": "electric_scooter", "bike_id": "f6c79bc26c9bb05075a888c2af592c7e", "lat": 38.915785166666666, "lon": -77.01233, "rental_uris": {"android": "https://dc.lft.to/lastmile_qr_scan", "ios": "https://dc.lft.to/lastmile_qr_scan"}, "is_disabled": 0, "fusion_lat": 0.0, "name": "f6c79bc26c9bb05075a888c2af592c7e", "fusion_lon": 0.0}, {"is_reserved": 0, "type": "electric_scooter", "bike_id": "9c6599d8bfeabc71c5affda6d1697987", "lat": 38.90065083333333, "lon": -76.92744483333334, "rental_uris": {"android": "https://dc.lft.to/lastmile_qr_scan", "ios": "https://dc.lft.to/lastmile_qr_scan"}, "is_disabled": 0, "fusion_lat": 0.0, "name": "9c6599d8bfeabc71c5affda6d1697987", "fusion_lon": 0.0}, {"is_reserved": 0, "type": "electric_scooter", "bike_id": "ac5b7f9bc63f6c735ea86e543673e181", "lat": 38.88281666666666, "lon": -76.99491683333333, "rental_uris": {"android": "https://dc.lft.to/lastmile_qr_scan", "ios": "https://dc.lft.to/lastmile_qr_scan"}, "is_disabled": 0, "fusion_lat": 0.0, "name": "ac5b7f9bc63f6c735ea86e543673e181", "fusion_lon": 0.0}, {"is_reserved": 0, "type": "electric_bike", "bike_id": "bc54bcbee5859345940b6d4999ffa587", "lat": 38.945367, "lon": -77.34452133333333, "rental_uris": {"android": "https://dc.lft.to/lastmile_qr_scan", "ios": "https://dc.lft.to/lastmile_qr_scan"}, "is_disabled": 0, "fusion_lat": 0.0, "name": "bc54bcbee5859345940b6d4999ffa587", "fusion_lon": 0.0}, {"is_reserved": 0, "type": "electric_scooter", "bike_id": "10113e5f3b0dee52c04b1bcf3d3dae8b", "lat": 38.90078783333333, "lon": -76.9257095, "rental_uris": {"android": "https://dc.lft.to/lastmile_qr_scan", "ios": "https://dc.lft.to/lastmile_qr_scan"}, "is_disabled": 0, "fusion_lat": 0.0, "name": "10113e5f3b0dee52c04b1bcf3d3dae8b", "fusion_lon": 0.0}, {"is_reserved": 0, "type": "electric_bike", "bike_id": "3e02a0afc3446ccb9b56818eef51f9f6", "lat": 39.084326, "lon": -76.95145466666666, "rental_uris": {"android": "https://dc.lft.to/lastmile_qr_scan", "ios": "https://dc.lft.to/lastmile_qr_scan"}, "is_disabled": 0, "fusion_lat": 0.0, "name": "3e02a0afc3446ccb9b56818eef51f9f6", "fusion_lon": 0.0}, {"is_reserved": 0, "type": "electric_scooter", "bike_id": "2b517922012f64630baf4de83ec0607e", "lat": 38.90868566666666, "lon": -77.04742566666667, "rental_uris": {"android": "https://dc.lft.to/lastmile_qr_scan", "ios": "https://dc.lft.to/lastmile_qr_scan"}, "is_disabled": 0, "fusion_lat": 0.0, "name": "2b517922012f64630baf4de83ec0607e", "fusion_lon": 0.0}, {"is_reserved": 0, "type": "electric_bike", "bike_id": "4367b68565f6b129eed1b038a7f8de24", "lat": 38.81940633333333, "lon": -77.00201883333334, "rental_uris": {"android": "https://dc.lft.to/lastmile_qr_scan", "ios": "https://dc.lft.to/lastmile_qr_scan"}, "is_disabled": 0, "fusion_lat": 0.0, "name": "4367b68565f6b129eed1b038a7f8de24", "fusion_lon": 0.0}, {"is_reserved": 0, "type": "electric_scooter", "bike_id": "e858d8283e9218abf48cd956f0fddf04", "lat": 38.908006666666665, "lon": -77.04483566666667, "rental_uris": {"android": "https://dc.lft.to/lastmile_qr_scan", "ios": "https://dc.lft.to/lastmile_qr_scan"}, "is_disabled": 0, "fusion_lat": 0.0, "name": "e858d8283e9218abf48cd956f0fddf04", "fusion_lon": 0.0}, {"is_reserved": 0, "type": "electric_scooter", "bike_id": "259977c089639865667ee93ace0b2b76", "lat": 38.934604666666665, "lon": -77.02098916666667, "rental_uris": {"android": "https://dc.lft.to/lastmile_qr_scan", "ios": "https://dc.lft.to/lastmile_qr_scan"}, "is_disabled": 0, "fusion_lat": 0.0, "name": "259977c089639865667ee93ace0b2b76", "fusion_lon": 0.0}, {"is_reserved": 0, "type": "electric_scooter", "bike_id": "cf09e8e33dddf325f4ebf00f46de0ac0", "lat": 38.88985016666667, "lon": -76.99299016666667, "rental_uris": {"android": "https://dc.lft.to/lastmile_qr_scan", "ios": "https://dc.lft.to/lastmile_qr_scan"}, "is_disabled": 0, "fusion_lat": 0.0, "name": "cf09e8e33dddf325f4ebf00f46de0ac0", "fusion_lon": 0.0}, {"is_reserved": 0, "type": "electric_scooter", "bike_id": "b5448ce552a221b007ef22a32170af1d", "lat": 38.89764383333333, "lon": -77.026909, "rental_uris": {"android": "https://dc.lft.to/lastmile_qr_scan", "ios": "https://dc.lft.to/lastmile_qr_scan"}, "is_disabled": 0, "fusion_lat": 0.0, "name": "b5448ce552a221b007ef22a32170af1d", "fusion_lon": 0.0}, {"is_reserved": 0, "type": "electric_scooter", "bike_id": "506349f62f5d01366481c3d416debf09", "lat": 38.887674833333335, "lon": -76.98331116666667, "rental_uris": {"android": "https://dc.lft.to/lastmile_qr_scan", "ios": "https://dc.lft.to/lastmile_qr_scan"}, "is_disabled": 0, "fusion_lat": 0.0, "name": "506349f62f5d01366481c3d416debf09", "fusion_lon": 0.0}, {"is_reserved": 0, "type": "electric_scooter", "bike_id": "21b3dde1d531d5f7d7450c060c162aee", "lat": 38.89810083333333, "lon": -76.99692516666667, "rental_uris": {"android": "https://dc.lft.to/lastmile_qr_scan", "ios": "https://dc.lft.to/lastmile_qr_scan"}, "is_disabled": 0, "fusion_lat": 0.0, "name": "21b3dde1d531d5f7d7450c060c162aee", "fusion_lon": 0.0}, {"is_reserved": 0, "type": "electric_scooter", "bike_id": "b6d2c3a664e392b653ef26094de09f9b", "lat": 38.9193465, "lon": -77.01881416666667, "rental_uris": {"android": "https://dc.lft.to/lastmile_qr_scan", "ios": "https://dc.lft.to/lastmile_qr_scan"}, "is_disabled": 0, "fusion_lat": 0.0, "name": "b6d2c3a664e392b653ef26094de09f9b", "fusion_lon": 0.0}, {"is_reserved": 0, "type": "electric_scooter", "bike_id": "914bb64e77c759579aada20f0bf1312d", "lat": 38.9195615, "lon": -77.04362566666667, "rental_uris": {"android": "https://dc.lft.to/lastmile_qr_scan", "ios": "https://dc.lft.to/lastmile_qr_scan"}, "is_disabled": 0, "fusion_lat": 0.0, "name": "914bb64e77c759579aada20f0bf1312d", "fusion_lon": 0.0}, {"is_reserved": 0, "type": "electric_scooter", "bike_id": "0b82c82e9ed986b19703d4dbd8c406d9", "lat": 38.867144, "lon": -76.98074016666666, "rental_uris": {"android": "https://dc.lft.to/lastmile_qr_scan", "ios": "https://dc.lft.to/lastmile_qr_scan"}, "is_disabled": 0, "fusion_lat": 0.0, "name": "0b82c82e9ed986b19703d4dbd8c406d9", "fusion_lon": 0.0}, {"is_reserved": 0, "type": "electric_scooter", "bike_id": "6af305d162b49e8afe6d7e307bade220", "lat": 38.911093, "lon": -77.0207785, "rental_uris": {"android": "https://dc.lft.to/lastmile_qr_scan", "ios": "https://dc.lft.to/lastmile_qr_scan"}, "is_disabled": 0, "fusion_lat": 0.0, "name": "6af305d162b49e8afe6d7e307bade220", "fusion_lon": 0.0}, {"is_reserved": 0, "type": "electric_scooter", "bike_id": "67c9ea36fa6fee6b98ade95de6085ffb", "lat": 38.90858933333333, "lon": -77.00369183333333, "rental_uris": {"android": "https://dc.lft.to/lastmile_qr_scan", "ios": "https://dc.lft.to/lastmile_qr_scan"}, "is_disabled": 0, "fusion_lat": 0.0, "name": "67c9ea36fa6fee6b98ade95de6085ffb", "fusion_lon": 0.0}, {"is_reserved": 0, "type": "electric_scooter", "bike_id": "f71a0a645b36753d6074c51da4a55527", "lat": 38.9097755, "lon": -77.0241065, "rental_uris": {"android": "https://dc.lft.to/lastmile_qr_scan", "ios": "https://dc.lft.to/lastmile_qr_scan"}, "is_disabled": 0, "fusion_lat": 0.0, "name": "f71a0a645b36753d6074c51da4a55527", "fusion_lon": 0.0}, {"is_reserved": 0, "type": "electric_bike", "bike_id": "e134ac7ce0f43161f0d8170c4b176e1c", "lat": 38.95642566666667, "lon": -77.03296933333333, "rental_uris": {"android": "https://dc.lft.to/lastmile_qr_scan", "ios": "https://dc.lft.to/lastmile_qr_scan"}, "is_disabled": 0, "fusion_lat": 0.0, "name": "e134ac7ce0f43161f0d8170c4b176e1c", "fusion_lon": 0.0}, {"is_reserved": 0, "type": "electric_bike", "bike_id": "a87400a2d3a70d4818cf14eb0d2c5919", "lat": 38.895917, "lon": -76.90693733333333, "rental_uris": {"android": "https://dc.lft.to/lastmile_qr_scan", "ios": "https://dc.lft.to/lastmile_qr_scan"}, "is_disabled": 0, "fusion_lat": 0.0, "name": "a87400a2d3a70d4818cf14eb0d2c5919", "fusion_lon": 0.0}, {"is_reserved": 0, "type": "electric_scooter", "bike_id": "9f19cc5d1ebff9d466c8b2800a84bd98", "lat": 38.86589383333333, "lon": -76.9745195, "rental_uris": {"android": "https://dc.lft.to/lastmile_qr_scan", "ios": "https://dc.lft.to/lastmile_qr_scan"}, "is_disabled": 0, "fusion_lat": 0.0, "name": "9f19cc5d1ebff9d466c8b2800a84bd98", "fusion_lon": 0.0}, {"is_reserved": 0, "type": "electric_scooter", "bike_id": "970c8a31c70d68bf87f857ec745b7a15", "lat": 38.9056855, "lon": -77.0307215, "rental_uris": {"android": "https://dc.lft.to/lastmile_qr_scan", "ios": "https://dc.lft.to/lastmile_qr_scan"}, "is_disabled": 0, "fusion_lat": 0.0, "name": "970c8a31c70d68bf87f857ec745b7a15", "fusion_lon": 0.0}, {"is_reserved": 0, "type": "electric_scooter", "bike_id": "e8e8a3d5981be85b4e409d1bd884d84e", "lat": 38.887701, "lon": -76.98320533333333, "rental_uris": {"android": "https://dc.lft.to/lastmile_qr_scan", "ios": "https://dc.lft.to/lastmile_qr_scan"}, "is_disabled": 0, "fusion_lat": 0.0, "name": "e8e8a3d5981be85b4e409d1bd884d84e", "fusion_lon": 0.0}, {"is_reserved": 0, "type": "electric_scooter", "bike_id": "02ef0d3ec4807d45f4d16e185f509a33", "lat": 38.91572083333333, "lon": -77.022887, "rental_uris": {"android": "https://dc.lft.to/lastmile_qr_scan", "ios": "https://dc.lft.to/lastmile_qr_scan"}, "is_disabled": 0, "fusion_lat": 0.0, "name": "02ef0d3ec4807d45f4d16e185f509a33", "fusion_lon": 0.0}, {"is_reserved": 0, "type": "electric_scooter", "bike_id": "e6eb42dcb862f910de3df07acb8b9730", "lat": 38.87414833333333, "lon": -77.00180433333334, "rental_uris": {"android": "https://dc.lft.to/lastmile_qr_scan", "ios": "https://dc.lft.to/lastmile_qr_scan"}, "is_disabled": 0, "fusion_lat": 0.0, "name": "e6eb42dcb862f910de3df07acb8b9730", "fusion_lon": 0.0}, {"is_reserved": 0, "type": "electric_scooter", "bike_id": "6f1b00c22d4f48b868ff32cbe5f3060f", "lat": 38.8832765, "lon": -77.00959516666667, "rental_uris": {"android": "https://dc.lft.to/lastmile_qr_scan", "ios": "https://dc.lft.to/lastmile_qr_scan"}, "is_disabled": 0, "fusion_lat": 0.0, "name": "6f1b00c22d4f48b868ff32cbe5f3060f", "fusion_lon": 0.0}, {"is_reserved": 0, "type": "electric_scooter", "bike_id": "69def064cfcff460454f0f8ee559174d", "lat": 38.91554883333333, "lon": -77.03173966666667, "rental_uris": {"android": "https://dc.lft.to/lastmile_qr_scan", "ios": "https://dc.lft.to/lastmile_qr_scan"}, "is_disabled": 0, "fusion_lat": 0.0, "name": "69def064cfcff460454f0f8ee559174d", "fusion_lon": 0.0}, {"is_reserved": 0, "type": "electric_scooter", "bike_id": "d048337ce7f3bf437af4a0e5cb19ee79", "lat": 38.9126845, "lon": -77.00512216666667, "rental_uris": {"android": "https://dc.lft.to/lastmile_qr_scan", "ios": "https://dc.lft.to/lastmile_qr_scan"}, "is_disabled": 0, "fusion_lat": 0.0, "name": "d048337ce7f3bf437af4a0e5cb19ee79", "fusion_lon": 0.0}, {"is_reserved": 0, "type": "electric_scooter", "bike_id": "95ebabdf6ad1cfa133226c309d23760d", "lat": 38.90388266666667, "lon": -77.03144233333333, "rental_uris": {"android": "https://dc.lft.to/lastmile_qr_scan", "ios": "https://dc.lft.to/lastmile_qr_scan"}, "is_disabled": 0, "fusion_lat": 0.0, "name": "95ebabdf6ad1cfa133226c309d23760d", "fusion_lon": 0.0}, {"is_reserved": 0, "type": "electric_scooter", "bike_id": "011bfc5ee5af25e54d43109fd65c56a0", "lat": 38.922326, "lon": -77.02332516666667, "rental_uris": {"android": "https://dc.lft.to/lastmile_qr_scan", "ios": "https://dc.lft.to/lastmile_qr_scan"}, "is_disabled": 0, "fusion_lat": 0.0, "name": "011bfc5ee5af25e54d43109fd65c56a0", "fusion_lon": 0.0}, {"is_reserved": 0, "type": "electric_scooter", "bike_id": "46ae70089eca20bc577cb795be182a1b", "lat": 38.9248725, "lon": -77.02270366666667, "rental_uris": {"android": "https://dc.lft.to/lastmile_qr_scan", "ios": "https://dc.lft.to/lastmile_qr_scan"}, "is_disabled": 0, "fusion_lat": 0.0, "name": "46ae70089eca20bc577cb795be182a1b", "fusion_lon": 0.0}, {"is_reserved": 0, "type": "electric_scooter", "bike_id": "f3aa0e3381561acc83b54b5ce0e6540a", "lat": 38.899472, "lon": -76.98197716666667, "rental_uris": {"android": "https://dc.lft.to/lastmile_qr_scan", "ios": "https://dc.lft.to/lastmile_qr_scan"}, "is_disabled": 0, "fusion_lat": 0.0, "name": "f3aa0e3381561acc83b54b5ce0e6540a", "fusion_lon": 0.0}, {"is_reserved": 0, "type": "electric_scooter", "bike_id": "c23619a61972cd6e001c5869e2849a92", "lat": 38.90429533333333, "lon": -77.02606383333334, "rental_uris": {"android": "https://dc.lft.to/lastmile_qr_scan", "ios": "https://dc.lft.to/lastmile_qr_scan"}, "is_disabled": 0, "fusion_lat": 0.0, "name": "c23619a61972cd6e001c5869e2849a92", "fusion_lon": 0.0}, {"is_reserved": 0, "type": "electric_scooter", "bike_id": "a7f066f544257f9297526d37cb447fa9", "lat": 38.91388383333334, "lon": -77.0198715, "rental_uris": {"android": "https://dc.lft.to/lastmile_qr_scan", "ios": "https://dc.lft.to/lastmile_qr_scan"}, "is_disabled": 0, "fusion_lat": 0.0, "name": "a7f066f544257f9297526d37cb447fa9", "fusion_lon": 0.0}, {"is_reserved": 0, "type": "electric_scooter", "bike_id": "0f542f891e4ba2d5c3985030abe2a5bb", "lat": 38.921406166666664, "lon": -77.04702683333333, "rental_uris": {"android": "https://dc.lft.to/lastmile_qr_scan", "ios": "https://dc.lft.to/lastmile_qr_scan"}, "is_disabled": 0, "fusion_lat": 0.0, "name": "0f542f891e4ba2d5c3985030abe2a5bb", "fusion_lon": 0.0}, {"is_reserved": 0, "type": "electric_scooter", "bike_id": "bd1fd391862d4c63b3205c2648e83e47", "lat": 38.90359733333333, "lon": -77.05399266666667, "rental_uris": {"android": "https://dc.lft.to/lastmile_qr_scan", "ios": "https://dc.lft.to/lastmile_qr_scan"}, "is_disabled": 0, "fusion_lat": 0.0, "name": "bd1fd391862d4c63b3205c2648e83e47", "fusion_lon": 0.0}, {"is_reserved": 0, "type": "electric_scooter", "bike_id": "ce3a9dd285740bc60e295be6cfe6350f", "lat": 38.91915766666666, "lon": -77.03431166666667, "rental_uris": {"android": "https://dc.lft.to/lastmile_qr_scan", "ios": "https://dc.lft.to/lastmile_qr_scan"}, "is_disabled": 0, "fusion_lat": 0.0, "name": "ce3a9dd285740bc60e295be6cfe6350f", "fusion_lon": 0.0}, {"is_reserved": 0, "type": "electric_scooter", "bike_id": "9c5445add6a12ad418356f5f72b03622", "lat": 38.980236833333336, "lon": -77.02665883333333, "rental_uris": {"android": "https://dc.lft.to/lastmile_qr_scan", "ios": "https://dc.lft.to/lastmile_qr_scan"}, "is_disabled": 0, "fusion_lat": 0.0, "name": "9c5445add6a12ad418356f5f72b03622", "fusion_lon": 0.0}, {"is_reserved": 0, "type": "electric_scooter", "bike_id": "d1512c72e32dd2e7439833cd9b4ff1f4", "lat": 38.8956105, "lon": -77.01104816666667, "rental_uris": {"android": "https://dc.lft.to/lastmile_qr_scan", "ios": "https://dc.lft.to/lastmile_qr_scan"}, "is_disabled": 0, "fusion_lat": 0.0, "name": "d1512c72e32dd2e7439833cd9b4ff1f4", "fusion_lon": 0.0}, {"is_reserved": 0, "type": "electric_scooter", "bike_id": "01783dd4f3ff821062b4efb714108326", "lat": 38.899589666666664, "lon": -77.05085133333333, "rental_uris": {"android": "https://dc.lft.to/lastmile_qr_scan", "ios": "https://dc.lft.to/lastmile_qr_scan"}, "is_disabled": 0, "fusion_lat": 0.0, "name": "01783dd4f3ff821062b4efb714108326", "fusion_lon": 0.0}, {"is_reserved": 0, "type": "electric_scooter", "bike_id": "12889fa85ab4ee42ab21d6ef5a650b2a", "lat": 38.933251, "lon": -77.082268, "rental_uris": {"android": "https://dc.lft.to/lastmile_qr_scan", "ios": "https://dc.lft.to/lastmile_qr_scan"}, "is_disabled": 0, "fusion_lat": 0.0, "name": "12889fa85ab4ee42ab21d6ef5a650b2a", "fusion_lon": 0.0}, {"is_reserved": 0, "type": "electric_bike", "bike_id": "a1c4dce1533ae7f2d02aa32589a39efb", "lat": 38.784079, "lon": -77.12073533333333, "rental_uris": {"android": "https://dc.lft.to/lastmile_qr_scan", "ios": "https://dc.lft.to/lastmile_qr_scan"}, "is_disabled": 0, "fusion_lat": 0.0, "name": "a1c4dce1533ae7f2d02aa32589a39efb", "fusion_lon": 0.0}, {"is_reserved": 0, "type": "electric_scooter", "bike_id": "7c34a9e1dfe57082503747114d9dbf82", "lat": 38.913121833333335, "lon": -77.03645016666667, "rental_uris": {"android": "https://dc.lft.to/lastmile_qr_scan", "ios": "https://dc.lft.to/lastmile_qr_scan"}, "is_disabled": 0, "fusion_lat": 0.0, "name": "7c34a9e1dfe57082503747114d9dbf82", "fusion_lon": 0.0}, {"is_reserved": 0, "type": "electric_scooter", "bike_id": "0323becbe6a5d90f31d77cc9c2b35131", "lat": 38.883852166666664, "lon": -77.019338, "rental_uris": {"android": "https://dc.lft.to/lastmile_qr_scan", "ios": "https://dc.lft.to/lastmile_qr_scan"}, "is_disabled": 0, "fusion_lat": 0.0, "name": "0323becbe6a5d90f31d77cc9c2b35131", "fusion_lon": 0.0}, {"is_reserved": 0, "type": "electric_scooter", "bike_id": "41b019a52f3504dcfa22303cf9cc4896", "lat": 38.924256166666666, "lon": -77.03417783333333, "rental_uris": {"android": "https://dc.lft.to/lastmile_qr_scan", "ios": "https://dc.lft.to/lastmile_qr_scan"}, "is_disabled": 0, "fusion_lat": 0.0, "name": "41b019a52f3504dcfa22303cf9cc4896", "fusion_lon": 0.0}, {"is_reserved": 0, "type": "electric_scooter", "bike_id": "df70c822bf1cce83bac3dab3feae134c", "lat": 38.926341, "lon": -77.0424775, "rental_uris": {"android": "https://dc.lft.to/lastmile_qr_scan", "ios": "https://dc.lft.to/lastmile_qr_scan"}, "is_disabled": 0, "fusion_lat": 0.0, "name": "df70c822bf1cce83bac3dab3feae134c", "fusion_lon": 0.0}, {"is_reserved": 0, "type": "electric_scooter", "bike_id": "056ca12f0d813d60dc3e1d48dd631041", "lat": 38.911976833333334, "lon": -77.03755416666667, "rental_uris": {"android": "https://dc.lft.to/lastmile_qr_scan", "ios": "https://dc.lft.to/lastmile_qr_scan"}, "is_disabled": 0, "fusion_lat": 0.0, "name": "056ca12f0d813d60dc3e1d48dd631041", "fusion_lon": 0.0}, {"is_reserved": 0, "type": "electric_scooter", "bike_id": "c632c2a68610f198f32041e5cf0d436c", "lat": 38.930400666666664, "lon": -77.055451, "rental_uris": {"android": "https://dc.lft.to/lastmile_qr_scan", "ios": "https://dc.lft.to/lastmile_qr_scan"}, "is_disabled": 0, "fusion_lat": 0.0, "name": "c632c2a68610f198f32041e5cf0d436c", "fusion_lon": 0.0}, {"is_reserved": 0, "type": "electric_scooter", "bike_id": "e03ef13ffec73e37f7db3597d628cdb5", "lat": 38.90905716666666, "lon": -76.9961825, "rental_uris": {"android": "https://dc.lft.to/lastmile_qr_scan", "ios": "https://dc.lft.to/lastmile_qr_scan"}, "is_disabled": 0, "fusion_lat": 0.0, "name": "e03ef13ffec73e37f7db3597d628cdb5", "fusion_lon": 0.0}, {"is_reserved": 0, "type": "electric_scooter", "bike_id": "e88e3cce5b70263efc0d1a41dbe987b2", "lat": 38.902803, "lon": -77.0348225, "rental_uris": {"android": "https://dc.lft.to/lastmile_qr_scan", "ios": "https://dc.lft.to/lastmile_qr_scan"}, "is_disabled": 0, "fusion_lat": 0.0, "name": "e88e3cce5b70263efc0d1a41dbe987b2", "fusion_lon": 0.0}, {"is_reserved": 0, "type": "electric_scooter", "bike_id": "6ba1fa0db50df782cab59cd0e98c04a7", "lat": 38.92098383333333, "lon": -77.047089, "rental_uris": {"android": "https://dc.lft.to/lastmile_qr_scan", "ios": "https://dc.lft.to/lastmile_qr_scan"}, "is_disabled": 0, "fusion_lat": 0.0, "name": "6ba1fa0db50df782cab59cd0e98c04a7", "fusion_lon": 0.0}, {"is_reserved": 0, "type": "electric_scooter", "bike_id": "7918ac14a3c490d33480fd92a3de1911", "lat": 38.943245166666664, "lon": -77.0126245, "rental_uris": {"android": "https://dc.lft.to/lastmile_qr_scan", "ios": "https://dc.lft.to/lastmile_qr_scan"}, "is_disabled": 0, "fusion_lat": 0.0, "name": "7918ac14a3c490d33480fd92a3de1911", "fusion_lon": 0.0}, {"is_reserved": 0, "type": "electric_scooter", "bike_id": "274886bb8f97ac49699df92260a3b195", "lat": 38.8953415, "lon": -76.97900033333333, "rental_uris": {"android": "https://dc.lft.to/lastmile_qr_scan", "ios": "https://dc.lft.to/lastmile_qr_scan"}, "is_disabled": 0, "fusion_lat": 0.0, "name": "274886bb8f97ac49699df92260a3b195", "fusion_lon": 0.0}, {"is_reserved": 0, "type": "electric_scooter", "bike_id": "46b15eee924eda26cde724256631cbc6", "lat": 38.896838333333335, "lon": -76.93533183333334, "rental_uris": {"android": "https://dc.lft.to/lastmile_qr_scan", "ios": "https://dc.lft.to/lastmile_qr_scan"}, "is_disabled": 0, "fusion_lat": 0.0, "name": "46b15eee924eda26cde724256631cbc6", "fusion_lon": 0.0}, {"is_reserved": 0, "type": "electric_scooter", "bike_id": "a9fd8c10acb0ad2b9adc2ad1fd1a1526", "lat": 38.8961595, "lon": -76.97684, "rental_uris": {"android": "https://dc.lft.to/lastmile_qr_scan", "ios": "https://dc.lft.to/lastmile_qr_scan"}, "is_disabled": 0, "fusion_lat": 0.0, "name": "a9fd8c10acb0ad2b9adc2ad1fd1a1526", "fusion_lon": 0.0}, {"is_reserved": 0, "type": "electric_scooter", "bike_id": "17fa95828f67c80d059c8dd9364c7c6a", "lat": 38.918489, "lon": -77.02424233333333, "rental_uris": {"android": "https://dc.lft.to/lastmile_qr_scan", "ios": "https://dc.lft.to/lastmile_qr_scan"}, "is_disabled": 0, "fusion_lat": 0.0, "name": "17fa95828f67c80d059c8dd9364c7c6a", "fusion_lon": 0.0}, {"is_reserved": 0, "type": "electric_scooter", "bike_id": "c551abd92aac9a6f1701406d09eeb181", "lat": 38.88723916666667, "lon": -77.0198365, "rental_uris": {"android": "https://dc.lft.to/lastmile_qr_scan", "ios": "https://dc.lft.to/lastmile_qr_scan"},