{"data": {"bikes": [{"bike_id": "8cdb0cdb947bf5ca2b9cb9a52ed51bbb", "type": "electric_scooter", "is_disabled": 0, "lat": 38.905729, "rental_uris": {"ios": "https://dc.lft.to/lastmile_qr_scan", "android": "https://dc.lft.to/lastmile_qr_scan"}, "is_reserved": 0, "fusion_lon": 0.0, "fusion_lat": 0.0, "lon": -77.0259615, "name": "8cdb0cdb947bf5ca2b9cb9a52ed51bbb"}, {"bike_id": "ff93f1a60223a34db6ec5336beae2554", "type": "electric_scooter", "is_disabled": 0, "lat": 38.91274033333333, "rental_uris": {"ios": "https://dc.lft.to/lastmile_qr_scan", "android": "https://dc.lft.to/lastmile_qr_scan"}, "is_reserved": 0, "fusion_lon": 0.0, "fusion_lat": 0.0, "lon": -77.0223825, "name": "ff93f1a60223a34db6ec5336beae2554"}, {"bike_id": "e7a3d727370c1faee18a0ecec8442c38", "type": "electric_scooter", "is_disabled": 0, "lat": 38.91557533333334, "rental_uris": {"ios": "https://dc.lft.to/lastmile_qr_scan", "android": "https://dc.lft.to/lastmile_qr_scan"}, "is_reserved": 0, "fusion_lon": 0.0, "fusion_lat": 0.0, "lon": -77.03869566666667, "name": "e7a3d727370c1faee18a0ecec8442c38"}, {"bike_id": "855712d3539f80060f3544802d51c3ed", "type": "electric_scooter", "is_disabled": 0, "lat": 38.88267716666667, "rental_uris": {"ios": "https://dc.lft.to/lastmile_qr_scan", "android": "https://dc.lft.to/lastmile_qr_scan"}, "is_reserved": 0, "fusion_lon": 0.0, "fusion_lat": 0.0, "lon": -76.993619, "name": "855712d3539f80060f3544802d51c3ed"}, {"bike_id": "245506ff350cc8c751b178a2ce0926f1", "type": "electric_scooter", "is_disabled": 0, "lat": 38.926029166666666, "rental_uris": {"ios": "https://dc.lft.to/lastmile_qr_scan", "android": "https://dc.lft.to/lastmile_qr_scan"}, "is_reserved": 0, "fusion_lon": 0.0, "fusion_lat": 0.0, "lon": -77.0265535, "name": "245506ff350cc8c751b178a2ce0926f1"}, {"bike_id": "999521db00783a61491a6b0573d61ee8", "type": "electric_scooter", "is_disabled": 0, "lat": 38.90034816666667, "rental_uris": {"ios": "https://dc.lft.to/lastmile_qr_scan", "android": "https://dc.lft.to/lastmile_qr_scan"}, "is_reserved": 0, "fusion_lon": 0.0, "fusion_lat": 0.0, "lon": -77.044361, "name": "999521db00783a61491a6b0573d61ee8"}, {"bike_id": "87537162222e4c21cb001668119bd8e7", "type": "electric_scooter", "is_disabled": 0, "lat": 38.9051055, "rental_uris": {"ios": "https://dc.lft.to/lastmile_qr_scan", "android": "https://dc.lft.to/lastmile_qr_scan"}, "is_reserved": 0, "fusion_lon": 0.0, "fusion_lat": 0.0, "lon": -77.06872116666666, "name": "87537162222e4c21cb001668119bd8e7"}, {"bike_id": "af4d576e89d0e571887b6296044afcac", "type": "electric_scooter", "is_disabled": 0, "lat": 38.921490666666664, "rental_uris": {"ios": "https://dc.lft.to/lastmile_qr_scan", "android": "https://dc.lft.to/lastmile_qr_scan"}, "is_reserved": 0, "fusion_lon": 0.0, "fusion_lat": 0.0, "lon": -77.0332985, "name": "af4d576e89d0e571887b6296044afcac"}, {"bike_id": "895812ad4624e8ec12578ed705a239cd", "type": "electric_scooter", "is_disabled": 0, "lat": 38.890857833333335, "rental_uris": {"ios": "https://dc.lft.to/lastmile_qr_scan", "android": "https://dc.lft.to/lastmile_qr_scan"}, "is_reserved": 0, "fusion_lon": 0.0, "fusion_lat": 0.0, "lon": -77.00262683333334, "name": "895812ad4624e8ec12578ed705a239cd"}, {"bike_id": "cf4a7e6aee1c8c64a10ebdef67f46239", "type": "electric_scooter", "is_disabled": 0, "lat": 38.9421785, "rental_uris": {"ios": "https://dc.lft.to/lastmile_qr_scan", "android": "https://dc.lft.to/lastmile_qr_scan"}, "is_reserved": 0, "fusion_lon": 0.0, "fusion_lat": 0.0, "lon": -77.0258655, "name": "cf4a7e6aee1c8c64a10ebdef67f46239"}, {"bike_id": "8ca863252cfe25b3ea65d25805d334be", "type": "electric_scooter", "is_disabled": 0, "lat": 38.87673516666667, "rental_uris": {"ios": "https://dc.lft.to/lastmile_qr_scan", "android": "https://dc.lft.to/lastmile_qr_scan"}, "is_reserved": 0, "fusion_lon": 0.0, "fusion_lat": 0.0, "lon": -77.0041425, "name": "8ca863252cfe25b3ea65d25805d334be"}, {"bike_id": "faa174572ec6283cfae6d8ac7b4931ba", "type": "electric_scooter", "is_disabled": 0, "lat": 38.9153915, "rental_uris": {"ios": "https://dc.lft.to/lastmile_qr_scan", "android": "https://dc.lft.to/lastmile_qr_scan"}, "is_reserved": 0, "fusion_lon": 0.0, "fusion_lat": 0.0, "lon": -76.97008683333334, "name": "faa174572ec6283cfae6d8ac7b4931ba"}, {"bike_id": "40f5cf83a0e96403cc254cf9244a9ddf", "type": "electric_bike", "is_disabled": 0, "lat": 39.04304283333333, "rental_uris": {"ios": "https://dc.lft.to/lastmile_qr_scan", "android": "https://dc.lft.to/lastmile_qr_scan"}, "is_reserved": 0, "fusion_lon": 0.0, "fusion_lat": 0.0, "lon": -77.0516215, "name": "40f5cf83a0e96403cc254cf9244a9ddf"}, {"bike_id": "bfc8dcd41ba76888e3ba20764fb837e9", "type": "electric_scooter", "is_disabled": 0, "lat": 38.91110116666667, "rental_uris": {"ios": "https://dc.lft.to/lastmile_qr_scan", "android": "https://dc.lft.to/lastmile_qr_scan"}, "is_reserved": 0, "fusion_lon": 0.0, "fusion_lat": 0.0, "lon": -77.03830866666667, "name": "bfc8dcd41ba76888e3ba20764fb837e9"}, {"bike_id": "96458484820b83bac14bdab3b87356b1", "type": "electric_scooter", "is_disabled": 0, "lat": 38.900597, "rental_uris": {"ios": "https://dc.lft.to/lastmile_qr_scan", "android": "https://dc.lft.to/lastmile_qr_scan"}, "is_reserved": 0, "fusion_lon": 0.0, "fusion_lat": 0.0, "lon": -77.04540016666667, "name": "96458484820b83bac14bdab3b87356b1"}, {"bike_id": "9ebfd0934e5a1418ec750c0ee0ad60b2", "type": "electric_scooter", "is_disabled": 0, "lat": 38.927856166666665, "rental_uris": {"ios": "https://dc.lft.to/lastmile_qr_scan", "android": "https://dc.lft.to/lastmile_qr_scan"}, "is_reserved": 0, "fusion_lon": 0.0, "fusion_lat": 0.0, "lon": -77.043138, "name": "9ebfd0934e5a1418ec750c0ee0ad60b2"}, {"bike_id": "21bbc60dde23863ebf5e050f3bf0f3ae", "type": "electric_bike", "is_disabled": 0, "lat": 38.823749666666664, "rental_uris": {"ios": "https://dc.lft.to/lastmile_qr_scan", "android": "https://dc.lft.to/lastmile_qr_scan"}, "is_reserved": 0, "fusion_lon": 0.0, "fusion_lat": 0.0, "lon": -77.0022795, "name": "21bbc60dde23863ebf5e050f3bf0f3ae"}, {"bike_id": "0be50455ac86beb0addf6b2fa6d7a824", "type": "electric_bike", "is_disabled": 0, "lat": 38.905061, "rental_uris": {"ios": "https://dc.lft.to/lastmile_qr_scan", "android": "https://dc.lft.to/lastmile_qr_scan"}, "is_reserved": 0, "fusion_lon": 0.0, "fusion_lat": 0.0, "lon": -76.98725766666666, "name": "0be50455ac86beb0addf6b2fa6d7a824"}, {"bike_id": "fd63c9cb2aae0015c8651b62e4b166ca", "type": "electric_scooter", "is_disabled": 0, "lat": 38.91799116666667, "rental_uris": {"ios": "https://dc.lft.to/lastmile_qr_scan", "android": "https://dc.lft.to/lastmile_qr_scan"}, "is_reserved": 0, "fusion_lon": 0.0, "fusion_lat": 0.0, "lon": -77.034429, "name": "fd63c9cb2aae0015c8651b62e4b166ca"}, {"bike_id": "050e592a332f67d0292e30725a180f60", "type": "electric_scooter", "is_disabled": 0, "lat": 38.9049245, "rental_uris": {"ios": "https://dc.lft.to/lastmile_qr_scan", "android": "https://dc.lft.to/lastmile_qr_scan"}, "is_reserved": 0, "fusion_lon": 0.0, "fusion_lat": 0.0, "lon": -77.03252033333334, "name": "050e592a332f67d0292e30725a180f60"}, {"bike_id": "61380ce7507ee8407dea4365b8a6e054", "type": "electric_scooter", "is_disabled": 0, "lat": 38.932877500000004, "rental_uris": {"ios": "https://dc.lft.to/lastmile_qr_scan", "android": "https://dc.lft.to/lastmile_qr_scan"}, "is_reserved": 0, "fusion_lon": 0.0, "fusion_lat": 0.0, "lon": -77.03543666666667, "name": "61380ce7507ee8407dea4365b8a6e054"}, {"bike_id": "af4112399a966a7308e9fe333fbea563", "type": "electric_bike", "is_disabled": 0, "lat": 38.88241683333333, "rental_uris": {"ios": "https://dc.lft.to/lastmile_qr_scan", "android": "https://dc.lft.to/lastmile_qr_scan"}, "is_reserved": 0, "fusion_lon": 0.0, "fusion_lat": 0.0, "lon": -76.962531, "name": "af4112399a966a7308e9fe333fbea563"}, {"bike_id": "76e5c139f16397071ccf779d202ec625", "type": "electric_scooter", "is_disabled": 0, "lat": 38.899664333333334, "rental_uris": {"ios": "https://dc.lft.to/lastmile_qr_scan", "android": "https://dc.lft.to/lastmile_qr_scan"}, "is_reserved": 0, "fusion_lon": 0.0, "fusion_lat": 0.0, "lon": -77.04778033333334, "name": "76e5c139f16397071ccf779d202ec625"}, {"bike_id": "54a3744987bd067e6101fb7a2c573dd1", "type": "electric_scooter", "is_disabled": 0, "lat": 38.87926266666667, "rental_uris": {"ios": "https://dc.lft.to/lastmile_qr_scan", "android": "https://dc.lft.to/lastmile_qr_scan"}, "is_reserved": 0, "fusion_lon": 0.0, "fusion_lat": 0.0, "lon": -77.02335866666667, "name": "54a3744987bd067e6101fb7a2c573dd1"}, {"bike_id": "fb6a753a949f9adf6e9137981b28e496", "type": "electric_scooter", "is_disabled": 0, "lat": 38.888540666666664, "rental_uris": {"ios": "https://dc.lft.to/lastmile_qr_scan", "android": "https://dc.lft.to/lastmile_qr_scan"}, "is_reserved": 0, "fusion_lon": 0.0, "fusion_lat": 0.0, "lon": -77.000544, "name": "fb6a753a949f9adf6e9137981b28e496"}, {"bike_id": "474ee30eeb5a5ce9913331a0b7d9d646", "type": "electric_scooter", "is_disabled": 0, "lat": 38.893545, "rental_uris": {"ios": "https://dc.lft.to/lastmile_qr_scan", "android": "https://dc.lft.to/lastmile_qr_scan"}, "is_reserved": 0, "fusion_lon": 0.0, "fusion_lat": 0.0, "lon": -76.94933916666666, "name": "474ee30eeb5a5ce9913331a0b7d9d646"}, {"bike_id": "ad84adf1b94aac03f60d2f8cfadda170", "type": "electric_scooter", "is_disabled": 0, "lat": 38.84439, "rental_uris": {"ios": "https://dc.lft.to/lastmile_qr_scan", "android": "https://dc.lft.to/lastmile_qr_scan"}, "is_reserved": 0, "fusion_lon": 0.0, "fusion_lat": 0.0, "lon": -76.997765, "name": "ad84adf1b94aac03f60d2f8cfadda170"}, {"bike_id": "6bb38151287bf27e489086eff6d2eef5", "type": "electric_scooter", "is_disabled": 0, "lat": 38.92804016666667, "rental_uris": {"ios": "https://dc.lft.to/lastmile_qr_scan", "android": "https://dc.lft.to/lastmile_qr_scan"}, "is_reserved": 0, "fusion_lon": 0.0, "fusion_lat": 0.0, "lon": -77.03203, "name": "6bb38151287bf27e489086eff6d2eef5"}, {"bike_id": "82da30e7a8b3a2e62ab5142de33930b6", "type": "electric_scooter", "is_disabled": 0, "lat": 38.90248316666667, "rental_uris": {"ios": "https://dc.lft.to/lastmile_qr_scan", "android": "https://dc.lft.to/lastmile_qr_scan"}, "is_reserved": 0, "fusion_lon": 0.0, "fusion_lat": 0.0, "lon": -77.01864783333333, "name": "82da30e7a8b3a2e62ab5142de33930b6"}, {"bike_id": "134563e6e23b1775f1ded2e94cb6bfd3", "type": "electric_scooter", "is_disabled": 0, "lat": 38.892270833333335, "rental_uris": {"ios": "https://dc.lft.to/lastmile_qr_scan", "android": "https://dc.lft.to/lastmile_qr_scan"}, "is_reserved": 0, "fusion_lon": 0.0, "fusion_lat": 0.0, "lon": -77.0217845, "name": "134563e6e23b1775f1ded2e94cb6bfd3"}, {"bike_id": "875eb9b8de34aaa666b2a4b7dc1fb5ed", "type": "electric_scooter", "is_disabled": 0, "lat": 38.91566533333334, "rental_uris": {"ios": "https://dc.lft.to/lastmile_qr_scan", "android": "https://dc.lft.to/lastmile_qr_scan"}, "is_reserved": 0, "fusion_lon": 0.0, "fusion_lat": 0.0, "lon": -77.05005116666666, "name": "875eb9b8de34aaa666b2a4b7dc1fb5ed"}, {"bike_id": "fc41bf1560f0c74d64ca8721c7fa829b", "type": "electric_scooter", "is_disabled": 0, "lat": 38.91913066666667, "rental_uris": {"ios": "https://dc.lft.to/lastmile_qr_scan", "android": "https://dc.lft.to/lastmile_qr_scan"}, "is_reserved": 0, "fusion_lon": 0.0, "fusion_lat": 0.0, "lon": -77.02947566666667, "name": "fc41bf1560f0c74d64ca8721c7fa829b"}, {"bike_id": "b697dfa21eac77ef330f81df58cfe7d5", "type": "electric_bike", "is_disabled": 0, "lat": 38.932349333333335, "rental_uris": {"ios": "https://dc.lft.to/lastmile_qr_scan", "android": "https://dc.lft.to/lastmile_qr_scan"}, "is_reserved": 0, "fusion_lon": 0.0, "fusion_lat": 0.0, "lon": -76.97425816666667, "name": "b697dfa21eac77ef330f81df58cfe7d5"}, {"bike_id": "d25610ef8ff7b6ee0fbfa99bf7cd5892", "type": "electric_scooter", "is_disabled": 0, "lat": 38.90070266666667, "rental_uris": {"ios": "https://dc.lft.to/lastmile_qr_scan", "android": "https://dc.lft.to/lastmile_qr_scan"}, "is_reserved": 0, "fusion_lon": 0.0, "fusion_lat": 0.0, "lon": -77.03523116666666, "name": "d25610ef8ff7b6ee0fbfa99bf7cd5892"}, {"bike_id": "e65a95b74deceb80794898f794f7b964", "type": "electric_scooter", "is_disabled": 0, "lat": 38.9064775, "rental_uris": {"ios": "https://dc.lft.to/lastmile_qr_scan", "android": "https://dc.lft.to/lastmile_qr_scan"}, "is_reserved": 0, "fusion_lon": 0.0, "fusion_lat": 0.0, "lon": -77.01458033333333, "name": "e65a95b74deceb80794898f794f7b964"}, {"bike_id": "0fc9bd568ba87f52b555426041ed292d", "type": "electric_scooter", "is_disabled": 0, "lat": 38.906767, "rental_uris": {"ios": "https://dc.lft.to/lastmile_qr_scan", "android": "https://dc.lft.to/lastmile_qr_scan"}, "is_reserved": 0, "fusion_lon": 0.0, "fusion_lat": 0.0, "lon": -77.0716645, "name": "0fc9bd568ba87f52b555426041ed292d"}, {"bike_id": "d609b51630c4a6d3769ad0b1701c0d83", "type": "electric_scooter", "is_disabled": 0, "lat": 38.9270445, "rental_uris": {"ios": "https://dc.lft.to/lastmile_qr_scan", "android": "https://dc.lft.to/lastmile_qr_scan"}, "is_reserved": 0, "fusion_lon": 0.0, "fusion_lat": 0.0, "lon": -77.02328433333334, "name": "d609b51630c4a6d3769ad0b1701c0d83"}, {"bike_id": "b4978675e9469f0fa97efbed8be102a0", "type": "electric_scooter", "is_disabled": 0, "lat": 38.903325833333334, "rental_uris": {"ios": "https://dc.lft.to/lastmile_qr_scan", "android": "https://dc.lft.to/lastmile_qr_scan"}, "is_reserved": 0, "fusion_lon": 0.0, "fusion_lat": 0.0, "lon": -77.0692455, "name": "b4978675e9469f0fa97efbed8be102a0"}, {"bike_id": "923f690a9b59f63778814595c622c5bd", "type": "electric_scooter", "is_disabled": 0, "lat": 38.9842915, "rental_uris": {"ios": "https://dc.lft.to/lastmile_qr_scan", "android": "https://dc.lft.to/lastmile_qr_scan"}, "is_reserved": 0, "fusion_lon": 0.0, "fusion_lat": 0.0, "lon": -77.0267005, "name": "923f690a9b59f63778814595c622c5bd"}, {"bike_id": "8e2a485d619d8edf0a070a6d986cacc9", "type": "electric_scooter", "is_disabled": 0, "lat": 38.90747066666667, "rental_uris": {"ios": "https://dc.lft.to/lastmile_qr_scan", "android": "https://dc.lft.to/lastmile_qr_scan"}, "is_reserved": 0, "fusion_lon": 0.0, "fusion_lat": 0.0, "lon": -77.0296525, "name": "8e2a485d619d8edf0a070a6d986cacc9"}, {"bike_id": "71bf4788d1a3a3b75771da3ba938718f", "type": "electric_scooter", "is_disabled": 0, "lat": 38.862440166666666, "rental_uris": {"ios": "https://dc.lft.to/lastmile_qr_scan", "android": "https://dc.lft.to/lastmile_qr_scan"}, "is_reserved": 0, "fusion_lon": 0.0, "fusion_lat": 0.0, "lon": -76.99502733333334, "name": "71bf4788d1a3a3b75771da3ba938718f"}, {"bike_id": "4cb63ff7936ebecb0628b8459f341d3b", "type": "electric_scooter", "is_disabled": 0, "lat": 38.903932, "rental_uris": {"ios": "https://dc.lft.to/lastmile_qr_scan", "android": "https://dc.lft.to/lastmile_qr_scan"}, "is_reserved": 0, "fusion_lon": 0.0, "fusion_lat": 0.0, "lon": -76.9894295, "name": "4cb63ff7936ebecb0628b8459f341d3b"}, {"bike_id": "3e60efec70285b3214e9798db6642645", "type": "electric_scooter", "is_disabled": 0, "lat": 38.919116333333335, "rental_uris": {"ios": "https://dc.lft.to/lastmile_qr_scan", "android": "https://dc.lft.to/lastmile_qr_scan"}, "is_reserved": 0, "fusion_lon": 0.0, "fusion_lat": 0.0, "lon": -77.04474333333333, "name": "3e60efec70285b3214e9798db6642645"}, {"bike_id": "3e99eb4b0e8d6839a464ce405e46afa3", "type": "electric_scooter", "is_disabled": 0, "lat": 38.957828166666665, "rental_uris": {"ios": "https://dc.lft.to/lastmile_qr_scan", "android": "https://dc.lft.to/lastmile_qr_scan"}, "is_reserved": 0, "fusion_lon": 0.0, "fusion_lat": 0.0, "lon": -77.01990083333334, "name": "3e99eb4b0e8d6839a464ce405e46afa3"}, {"bike_id": "a790c0d43e89a96942a7d282d67b5b1b", "type": "electric_scooter", "is_disabled": 0, "lat": 38.90039216666667, "rental_uris": {"ios": "https://dc.lft.to/lastmile_qr_scan", "android": "https://dc.lft.to/lastmile_qr_scan"}, "is_reserved": 0, "fusion_lon": 0.0, "fusion_lat": 0.0, "lon": -77.01771866666667, "name": "a790c0d43e89a96942a7d282d67b5b1b"}, {"bike_id": "7a77754f273e01e439d6bd256c493e02", "type": "electric_scooter", "is_disabled": 0, "lat": 38.9618965, "rental_uris": {"ios": "https://dc.lft.to/lastmile_qr_scan", "android": "https://dc.lft.to/lastmile_qr_scan"}, "is_reserved": 0, "fusion_lon": 0.0, "fusion_lat": 0.0, "lon": -77.0279765, "name": "7a77754f273e01e439d6bd256c493e02"}, {"bike_id": "2fdf4c2d17d4d73f348de294b6c53c0e", "type": "electric_scooter", "is_disabled": 0, "lat": 38.919195333333334, "rental_uris": {"ios": "https://dc.lft.to/lastmile_qr_scan", "android": "https://dc.lft.to/lastmile_qr_scan"}, "is_reserved": 0, "fusion_lon": 0.0, "fusion_lat": 0.0, "lon": -77.0424435, "name": "2fdf4c2d17d4d73f348de294b6c53c0e"}, {"bike_id": "4259fd67a434cbb261f189312f3d5bc4", "type": "electric_scooter", "is_disabled": 0, "lat": 38.86371416666667, "rental_uris": {"ios": "https://dc.lft.to/lastmile_qr_scan", "android": "https://dc.lft.to/lastmile_qr_scan"}, "is_reserved": 0, "fusion_lon": 0.0, "fusion_lat": 0.0, "lon": -76.99060666666666, "name": "4259fd67a434cbb261f189312f3d5bc4"}, {"bike_id": "97b1ae49f2d97b312982e1f71a769b84", "type": "electric_scooter", "is_disabled": 0, "lat": 38.866824666666666, "rental_uris": {"ios": "https://dc.lft.to/lastmile_qr_scan", "android": "https://dc.lft.to/lastmile_qr_scan"}, "is_reserved": 0, "fusion_lon": 0.0, "fusion_lat": 0.0, "lon": -76.98553133333333, "name": "97b1ae49f2d97b312982e1f71a769b84"}, {"bike_id": "a4fe6b359d927da7034e7dd7c943897a", "type": "electric_scooter", "is_disabled": 0, "lat": 38.8838095, "rental_uris": {"ios": "https://dc.lft.to/lastmile_qr_scan", "android": "https://dc.lft.to/lastmile_qr_scan"}, "is_reserved": 0, "fusion_lon": 0.0, "fusion_lat": 0.0, "lon": -77.02613416666667, "name": "a4fe6b359d927da7034e7dd7c943897a"}, {"bike_id": "3e210d35b125a71c79969096ff290e83", "type": "electric_scooter", "is_disabled": 0, "lat": 38.903590333333334, "rental_uris": {"ios": "https://dc.lft.to/lastmile_qr_scan", "android": "https://dc.lft.to/lastmile_qr_scan"}, "is_reserved": 0, "fusion_lon": 0.0, "fusion_lat": 0.0, "lon": -77.060162, "name": "3e210d35b125a71c79969096ff290e83"}, {"bike_id": "c5f3ab26acc03b508778bfe34b2acf32", "type": "electric_scooter", "is_disabled": 0, "lat": 38.89843883333333, "rental_uris": {"ios": "https://dc.lft.to/lastmile_qr_scan", "android": "https://dc.lft.to/lastmile_qr_scan"}, "is_reserved": 0, "fusion_lon": 0.0, "fusion_lat": 0.0, "lon": -76.946338, "name": "c5f3ab26acc03b508778bfe34b2acf32"}, {"bike_id": "216ee495034902aefa05a74145272388", "type": "electric_scooter", "is_disabled": 0, "lat": 38.908450333333334, "rental_uris": {"ios": "https://dc.lft.to/lastmile_qr_scan", "android": "https://dc.lft.to/lastmile_qr_scan"}, "is_reserved": 0, "fusion_lon": 0.0, "fusion_lat": 0.0, "lon": -76.99798916666667, "name": "216ee495034902aefa05a74145272388"}, {"bike_id": "853d164899ef3d899d0af0ff655f49e3", "type": "electric_scooter", "is_disabled": 0, "lat": 38.920193833333336, "rental_uris": {"ios": "https://dc.lft.to/lastmile_qr_scan", "android": "https://dc.lft.to/lastmile_qr_scan"}, "is_reserved": 0, "fusion_lon": 0.0, "fusion_lat": 0.0, "lon": -77.03124883333334, "name": "853d164899ef3d899d0af0ff655f49e3"}, {"bike_id": "2335e3d81447f98303584fa217ee15a0", "type": "electric_scooter", "is_disabled": 0, "lat": 38.86416366666667, "rental_uris": {"ios": "https://dc.lft.to/lastmile_qr_scan", "android": "https://dc.lft.to/lastmile_qr_scan"}, "is_reserved": 0, "fusion_lon": 0.0, "fusion_lat": 0.0, "lon": -76.98039783333333, "name": "2335e3d81447f98303584fa217ee15a0"}, {"bike_id": "6d42c10e2455339946f6d4b27eee675b", "type": "electric_scooter", "is_disabled": 0, "lat": 38.97240016666667, "rental_uris": {"ios": "https://dc.lft.to/lastmile_qr_scan", "android": "https://dc.lft.to/lastmile_qr_scan"}, "is_reserved": 0, "fusion_lon": 0.0, "fusion_lat": 0.0, "lon": -77.02714983333334, "name": "6d42c10e2455339946f6d4b27eee675b"}, {"bike_id": "4982bda7cd88c6d56480f850d28422fa", "type": "electric_scooter", "is_disabled": 0, "lat": 38.90593, "rental_uris": {"ios": "https://dc.lft.to/lastmile_qr_scan", "android": "https://dc.lft.to/lastmile_qr_scan"}, "is_reserved": 0, "fusion_lon": 0.0, "fusion_lat": 0.0, "lon": -77.0042085, "name": "4982bda7cd88c6d56480f850d28422fa"}, {"bike_id": "d90ffcca7598b6682259bdcca0d2160f", "type": "electric_scooter", "is_disabled": 0, "lat": 38.919405166666664, "rental_uris": {"ios": "https://dc.lft.to/lastmile_qr_scan", "android": "https://dc.lft.to/lastmile_qr_scan"}, "is_reserved": 0, "fusion_lon": 0.0, "fusion_lat": 0.0, "lon": -77.04579616666666, "name": "d90ffcca7598b6682259bdcca0d2160f"}, {"bike_id": "7a161ec4a7c3e9a0c4450c351a87b84d", "type": "electric_scooter", "is_disabled": 0, "lat": 38.907290333333336, "rental_uris": {"ios": "https://dc.lft.to/lastmile_qr_scan", "android": "https://dc.lft.to/lastmile_qr_scan"}, "is_reserved": 0, "fusion_lon": 0.0, "fusion_lat": 0.0, "lon": -77.0298105, "name": "7a161ec4a7c3e9a0c4450c351a87b84d"}, {"bike_id": "180899d3344cfc5a68ff71311c13e8cb", "type": "electric_scooter", "is_disabled": 0, "lat": 38.92463266666667, "rental_uris": {"ios": "https://dc.lft.to/lastmile_qr_scan", "android": "https://dc.lft.to/lastmile_qr_scan"}, "is_reserved": 0, "fusion_lon": 0.0, "fusion_lat": 0.0, "lon": -77.05234416666667, "name": "180899d3344cfc5a68ff71311c13e8cb"}, {"bike_id": "1eb843032c7304616f123c638bc4ed5f", "type": "electric_scooter", "is_disabled": 0, "lat": 38.87934116666667, "rental_uris": {"ios": "https://dc.lft.to/lastmile_qr_scan", "android": "https://dc.lft.to/lastmile_qr_scan"}, "is_reserved": 0, "fusion_lon": 0.0, "fusion_lat": 0.0, "lon": -77.00426616666667, "name": "1eb843032c7304616f123c638bc4ed5f"}, {"bike_id": "8094691e5c777676a6667afa89097a4d", "type": "electric_scooter", "is_disabled": 0, "lat": 38.92536316666666, "rental_uris": {"ios": "https://dc.lft.to/lastmile_qr_scan", "android": "https://dc.lft.to/lastmile_qr_scan"}, "is_reserved": 0, "fusion_lon": 0.0, "fusion_lat": 0.0, "lon": -77.0226625, "name": "8094691e5c777676a6667afa89097a4d"}, {"bike_id": "c4268c72d9f4a1587e0824f4c573f739", "type": "electric_scooter", "is_disabled": 0, "lat": 38.913305333333334, "rental_uris": {"ios": "https://dc.lft.to/lastmile_qr_scan", "android": "https://dc.lft.to/lastmile_qr_scan"}, "is_reserved": 0, "fusion_lon": 0.0, "fusion_lat": 0.0, "lon": -77.03164766666667, "name": "c4268c72d9f4a1587e0824f4c573f739"}, {"bike_id": "c66e16285b9653ea0ca49f0ac6810e96", "type": "electric_bike", "is_disabled": 0, "lat": 38.8755065, "rental_uris": {"ios": "https://dc.lft.to/lastmile_qr_scan", "android": "https://dc.lft.to/lastmile_qr_scan"}, "is_reserved": 0, "fusion_lon": 0.0, "fusion_lat": 0.0, "lon": -76.965078, "name": "c66e16285b9653ea0ca49f0ac6810e96"}, {"bike_id": "4013de8d312af9048268a855034465df", "type": "electric_scooter", "is_disabled": 0, "lat": 38.90970016666667, "rental_uris": {"ios": "https://dc.lft.to/lastmile_qr_scan", "android": "https://dc.lft.to/lastmile_qr_scan"}, "is_reserved": 0, "fusion_lon": 0.0, "fusion_lat": 0.0, "lon": -77.03209, "name": "4013de8d312af9048268a855034465df"}, {"bike_id": "4d8669ee7fbbf93dd8de7fe2bcf80ef1", "type": "electric_scooter", "is_disabled": 0, "lat": 38.892151, "rental_uris": {"ios": "https://dc.lft.to/lastmile_qr_scan", "android": "https://dc.lft.to/lastmile_qr_scan"}, "is_reserved": 0, "fusion_lon": 0.0, "fusion_lat": 0.0, "lon": -77.02630316666666, "name": "4d8669ee7fbbf93dd8de7fe2bcf80ef1"}, {"bike_id": "3fe8a01c5bb239cb9bef74043a00e1d8", "type": "electric_scooter", "is_disabled": 0, "lat": 38.877905166666665, "rental_uris": {"ios": "https://dc.lft.to/lastmile_qr_scan", "android": "https://dc.lft.to/lastmile_qr_scan"}, "is_reserved": 0, "fusion_lon": 0.0, "fusion_lat": 0.0, "lon": -76.93091916666667, "name": "3fe8a01c5bb239cb9bef74043a00e1d8"}, {"bike_id": "252bae270288ae81da78ad08d9e4f17a", "type": "electric_scooter", "is_disabled": 0, "lat": 38.9139425, "rental_uris": {"ios": "https://dc.lft.to/lastmile_qr_scan", "android": "https://dc.lft.to/lastmile_qr_scan"}, "is_reserved": 0, "fusion_lon": 0.0, "fusion_lat": 0.0, "lon": -77.0221235, "name": "252bae270288ae81da78ad08d9e4f17a"}, {"bike_id": "1f481f1e750a54983d237c95d2db2676", "type": "electric_scooter", "is_disabled": 0, "lat": 38.906420833333335, "rental_uris": {"ios": "https://dc.lft.to/lastmile_qr_scan", "android": "https://dc.lft.to/lastmile_qr_scan"}, "is_reserved": 0, "fusion_lon": 0.0, "fusion_lat": 0.0, "lon": -77.0532465, "name": "1f481f1e750a54983d237c95d2db2676"}, {"bike_id": "df6925c8ae4bcbffb93472ac6b10605b", "type": "electric_scooter", "is_disabled": 0, "lat": 38.9072015, "rental_uris": {"ios": "https://dc.lft.to/lastmile_qr_scan", "android": "https://dc.lft.to/lastmile_qr_scan"}, "is_reserved": 0, "fusion_lon": 0.0, "fusion_lat": 0.0, "lon": -77.011268, "name": "df6925c8ae4bcbffb93472ac6b10605b"}, {"bike_id": "a1fbdc4f8f671f67186382ba77e64ea6", "type": "electric_scooter", "is_disabled": 0, "lat": 38.897376666666666, "rental_uris": {"ios": "https://dc.lft.to/lastmile_qr_scan", "android": "https://dc.lft.to/lastmile_qr_scan"}, "is_reserved": 0, "fusion_lon": 0.0, "fusion_lat": 0.0, "lon": -77.020968, "name": "a1fbdc4f8f671f67186382ba77e64ea6"}, {"bike_id": "b53365e6e797ff642a9e65f4f4c4a83b", "type": "electric_scooter", "is_disabled": 0, "lat": 38.921252833333334, "rental_uris": {"ios": "https://dc.lft.to/lastmile_qr_scan", "android": "https://dc.lft.to/lastmile_qr_scan"}, "is_reserved": 0, "fusion_lon": 0.0, "fusion_lat": 0.0, "lon": -76.99248333333334, "name": "b53365e6e797ff642a9e65f4f4c4a83b"}, {"bike_id": "b14c519314a608f8e2e140a6d492d7f4", "type": "electric_scooter", "is_disabled": 0, "lat": 38.9320905, "rental_uris": {"ios": "https://dc.lft.to/lastmile_qr_scan", "android": "https://dc.lft.to/lastmile_qr_scan"}, "is_reserved": 0, "fusion_lon": 0.0, "fusion_lat": 0.0, "lon": -77.0335485, "name": "b14c519314a608f8e2e140a6d492d7f4"}, {"bike_id": "49bb6f5179e85daab7be585466b44d92", "type": "electric_scooter", "is_disabled": 0, "lat": 38.9177635, "rental_uris": {"ios": "https://dc.lft.to/lastmile_qr_scan", "android": "https://dc.lft.to/lastmile_qr_scan"}, "is_reserved": 0, "fusion_lon": 0.0, "fusion_lat": 0.0, "lon": -77.03468733333334, "name": "49bb6f5179e85daab7be585466b44d92"}, {"bike_id": "232b35e523b5107ec8272cd11e35ee3e", "type": "electric_scooter", "is_disabled": 0, "lat": 38.905138666666666, "rental_uris": {"ios": "https://dc.lft.to/lastmile_qr_scan", "android": "https://dc.lft.to/lastmile_qr_scan"}, "is_reserved": 0, "fusion_lon": 0.0, "fusion_lat": 0.0, "lon": -77.06375266666667, "name": "232b35e523b5107ec8272cd11e35ee3e"}, {"bike_id": "e4893928d6e060d1b65fd04e51cb243f", "type": "electric_scooter", "is_disabled": 0, "lat": 38.91822466666667, "rental_uris": {"ios": "https://dc.lft.to/lastmile_qr_scan", "android": "https://dc.lft.to/lastmile_qr_scan"}, "is_reserved": 0, "fusion_lon": 0.0, "fusion_lat": 0.0, "lon": -77.049441, "name": "e4893928d6e060d1b65fd04e51cb243f"}, {"bike_id": "149118b3a5fa91c2ee36a2eebe8d34cc", "type": "electric_scooter", "is_disabled": 0, "lat": 38.905513, "rental_uris": {"ios": "https://dc.lft.to/lastmile_qr_scan", "android": "https://dc.lft.to/lastmile_qr_scan"}, "is_reserved": 0, "fusion_lon": 0.0, "fusion_lat": 0.0, "lon": -77.03812133333334, "name": "149118b3a5fa91c2ee36a2eebe8d34cc"}, {"bike_id": "ac78e431df42d1fcfea69c01fe84912a", "type": "electric_scooter", "is_disabled": 0, "lat": 38.8600245, "rental_uris": {"ios": "https://dc.lft.to/lastmile_qr_scan", "android": "https://dc.lft.to/lastmile_qr_scan"}, "is_reserved": 0, "fusion_lon": 0.0, "fusion_lat": 0.0, "lon": -76.98519533333334, "name": "ac78e431df42d1fcfea69c01fe84912a"}, {"bike_id": "ed8f6ba5301d94f7c156bee50a2ba151", "type": "electric_scooter", "is_disabled": 0, "lat": 38.8919305, "rental_uris": {"ios": "https://dc.lft.to/lastmile_qr_scan", "android": "https://dc.lft.to/lastmile_qr_scan"}, "is_reserved": 0, "fusion_lon": 0.0, "fusion_lat": 0.0, "lon": -77.02980466666666, "name": "ed8f6ba5301d94f7c156bee50a2ba151"}, {"bike_id": "f551dfeac353146d946a3bac7d842740", "type": "electric_scooter", "is_disabled": 0, "lat": 38.905926666666666, "rental_uris": {"ios": "https://dc.lft.to/lastmile_qr_scan", "android": "https://dc.lft.to/lastmile_qr_scan"}, "is_reserved": 0, "fusion_lon": 0.0, "fusion_lat": 0.0, "lon": -77.07012566666667, "name": "f551dfeac353146d946a3bac7d842740"}, {"bike_id": "21b351926f41cc2ee97ef83c68be8fff", "type": "electric_scooter", "is_disabled": 0, "lat": 38.919257333333334, "rental_uris": {"ios": "https://dc.lft.to/lastmile_qr_scan", "android": "https://dc.lft.to/lastmile_qr_scan"}, "is_reserved": 0, "fusion_lon": 0.0, "fusion_lat": 0.0, "lon": -77.04627983333333, "name": "21b351926f41cc2ee97ef83c68be8fff"}, {"bike_id": "c388c5bb73b5cc38e2568de4d7b70bb0", "type": "electric_scooter", "is_disabled": 0, "lat": 38.9001145, "rental_uris": {"ios": "https://dc.lft.to/lastmile_qr_scan", "android": "https://dc.lft.to/lastmile_qr_scan"}, "is_reserved": 0, "fusion_lon": 0.0, "fusion_lat": 0.0, "lon": -76.99348833333333, "name": "c388c5bb73b5cc38e2568de4d7b70bb0"}, {"bike_id": "00818a453ca5e731d073ecf203fe364f", "type": "electric_scooter", "is_disabled": 0, "lat": 38.9086375, "rental_uris": {"ios": "https://dc.lft.to/lastmile_qr_scan", "android": "https://dc.lft.to/lastmile_qr_scan"}, "is_reserved": 0, "fusion_lon": 0.0, "fusion_lat": 0.0, "lon": -77.00344616666666, "name": "00818a453ca5e731d073ecf203fe364f"}, {"bike_id": "ecf08342cdcdc800d6d9aef9eed7b95d", "type": "electric_scooter", "is_disabled": 0, "lat": 38.96131666666667, "rental_uris": {"ios": "https://dc.lft.to/lastmile_qr_scan", "android": "https://dc.lft.to/lastmile_qr_scan"}, "is_reserved": 0, "fusion_lon": 0.0, "fusion_lat": 0.0, "lon": -77.00970516666666, "name": "ecf08342cdcdc800d6d9aef9eed7b95d"}, {"bike_id": "40bc61aae230a65816d4b2f4094d6326", "type": "electric_scooter", "is_disabled": 0, "lat": 38.92269183333333, "rental_uris": {"ios": "https://dc.lft.to/lastmile_qr_scan", "android": "https://dc.lft.to/lastmile_qr_scan"}, "is_reserved": 0, "fusion_lon": 0.0, "fusion_lat": 0.0, "lon": -77.04278883333333, "name": "40bc61aae230a65816d4b2f4094d6326"}, {"bike_id": "d6e7fd7c7e148786141ef612b0141f21", "type": "electric_bike", "is_disabled": 0, "lat": 38.89743133333333, "rental_uris": {"ios": "https://dc.lft.to/lastmile_qr_scan", "android": "https://dc.lft.to/lastmile_qr_scan"}, "is_reserved": 0, "fusion_lon": 0.0, "fusion_lat": 0.0, "lon": -76.92046866666666, "name": "d6e7fd7c7e148786141ef612b0141f21"}, {"bike_id": "9a2a77eb53df8e98c24d7b597d17a856", "type": "electric_scooter", "is_disabled": 0, "lat": 38.919209333333335, "rental_uris": {"ios": "https://dc.lft.to/lastmile_qr_scan", "android": "https://dc.lft.to/lastmile_qr_scan"}, "is_reserved": 0, "fusion_lon": 0.0, "fusion_lat": 0.0, "lon": -77.03362716666666, "name": "9a2a77eb53df8e98c24d7b597d17a856"}, {"bike_id": "d6e2f81c051d13e4c867f45c94900464", "type": "electric_scooter", "is_disabled": 0, "lat": 38.91773366666666, "rental_uris": {"ios": "https://dc.lft.to/lastmile_qr_scan", "android": "https://dc.lft.to/lastmile_qr_scan"}, "is_reserved": 0, "fusion_lon": 0.0, "fusion_lat": 0.0, "lon": -77.04409033333333, "name": "d6e2f81c051d13e4c867f45c94900464"}, {"bike_id": "ac479c293c5118f51b2ddc8d0a9f609f", "type": "electric_scooter", "is_disabled": 0, "lat": 38.91720016666667, "rental_uris": {"ios": "https://dc.lft.to/lastmile_qr_scan", "android": "https://dc.lft.to/lastmile_qr_scan"}, "is_reserved": 0, "fusion_lon": 0.0, "fusion_lat": 0.0, "lon": -77.03736116666667, "name": "ac479c293c5118f51b2ddc8d0a9f609f"}, {"bike_id": "716798df3eb1dcb236cad3b15e570b8c", "type": "electric_scooter", "is_disabled": 0, "lat": 38.892932, "rental_uris": {"ios": "https://dc.lft.to/lastmile_qr_scan", "android": "https://dc.lft.to/lastmile_qr_scan"}, "is_reserved": 0, "fusion_lon": 0.0, "fusion_lat": 0.0, "lon": -77.01228966666666, "name": "716798df3eb1dcb236cad3b15e570b8c"}, {"bike_id": "59b25f7ca6f6f17ae845347309ce23c1", "type": "electric_scooter", "is_disabled": 0, "lat": 38.927419, "rental_uris": {"ios": "https://dc.lft.to/lastmile_qr_scan", "android": "https://dc.lft.to/lastmile_qr_scan"}, "is_reserved": 0, "fusion_lon": 0.0, "fusion_lat": 0.0, "lon": -77.0253335, "name": "59b25f7ca6f6f17ae845347309ce23c1"}, {"bike_id": "ed2168cd23a7effede3cc9d375a72d14", "type": "electric_bike", "is_disabled": 0, "lat": 38.89609766666667, "rental_uris": {"ios": "https://dc.lft.to/lastmile_qr_scan", "android": "https://dc.lft.to/lastmile_qr_scan"}, "is_reserved": 0, "fusion_lon": 0.0, "fusion_lat": 0.0, "lon": -77.02239166666666, "name": "ed2168cd23a7effede3cc9d375a72d14"}, {"bike_id": "3fe85dcab282b159d5b18b956c023d11", "type": "electric_bike", "is_disabled": 0, "lat": 38.98366383333333, "rental_uris": {"ios": "https://dc.lft.to/lastmile_qr_scan", "android": "https://dc.lft.to/lastmile_qr_scan"}, "is_reserved": 0, "fusion_lon": 0.0, "fusion_lat": 0.0, "lon": -76.972179, "name": "3fe85dcab282b159d5b18b956c023d11"}, {"bike_id": "1f50b59a021dfd86ec3f5ac6411c90cf", "type": "electric_scooter", "is_disabled": 0, "lat": 38.905104333333334, "rental_uris": {"ios": "https://dc.lft.to/lastmile_qr_scan", "android": "https://dc.lft.to/lastmile_qr_scan"}, "is_reserved": 0, "fusion_lon": 0.0, "fusion_lat": 0.0, "lon": -77.029724, "name": "1f50b59a021dfd86ec3f5ac6411c90cf"}, {"bike_id": "80604a349e54c7fe5daac60d1b76db73", "type": "electric_scooter", "is_disabled": 0, "lat": 38.8646755, "rental_uris": {"ios": "https://dc.lft.to/lastmile_qr_scan", "android": "https://dc.lft.to/lastmile_qr_scan"}, "is_reserved": 0, "fusion_lon": 0.0, "fusion_lat": 0.0, "lon": -76.98230866666667, "name": "80604a349e54c7fe5daac60d1b76db73"}, {"bike_id": "b1be45f41607ce1d7d625e544e9216e9", "type": "electric_bike", "is_disabled": 0, "lat": 38.92576416666667, "rental_uris": {"ios": "https://dc.lft.to/lastmile_qr_scan", "android": "https://dc.lft.to/lastmile_qr_scan"}, "is_reserved": 0, "fusion_lon": 0.0, "fusion_lat": 0.0, "lon": -77.079293, "name": "b1be45f41607ce1d7d625e544e9216e9"}, {"bike_id": "d7570fae316c5a606ef1f61744937436", "type": "electric_scooter", "is_disabled": 0, "lat": 38.904193666666664, "rental_uris": {"ios": "https://dc.lft.to/lastmile_qr_scan", "android": "https://dc.lft.to/lastmile_qr_scan"}, "is_reserved": 0, "fusion_lon": 0.0, "fusion_lat": 0.0, "lon": -77.0547065, "name": "d7570fae316c5a606ef1f61744937436"}, {"bike_id": "45b518032f2207157051e7f531cb9cd9", "type": "electric_scooter", "is_disabled": 0, "lat": 38.936739333333335, "rental_uris": {"ios": "https://dc.lft.to/lastmile_qr_scan", "android": "https://dc.lft.to/lastmile_qr_scan"}, "is_reserved": 0, "fusion_lon": 0.0, "fusion_lat": 0.0, "lon": -77.0356305, "name": "45b518032f2207157051e7f531cb9cd9"}, {"bike_id": "ba6c6405c62e1ed669b3f62ca6ac23a3", "type": "electric_scooter", "is_disabled": 0, "lat": 38.86246666666667, "rental_uris": {"ios": "https://dc.lft.to/lastmile_qr_scan", "android": "https://dc.lft.to/lastmile_qr_scan"}, "is_reserved": 0, "fusion_lon": 0.0, "fusion_lat": 0.0, "lon": -76.99504816666666, "name": "ba6c6405c62e1ed669b3f62ca6ac23a3"}, {"bike_id": "5cff222a51e0ddd0b1de81b27e28493f", "type": "electric_scooter", "is_disabled": 0, "lat": 38.9620455, "rental_uris": {"ios": "https://dc.lft.to/lastmile_qr_scan", "android": "https://dc.lft.to/lastmile_qr_scan"}, "is_reserved": 0, "fusion_lon": 0.0, "fusion_lat": 0.0, "lon": -77.0223265, "name": "5cff222a51e0ddd0b1de81b27e28493f"}, {"bike_id": "54e1d5d7e6ed59468494ea41e91109f3", "type": "electric_scooter", "is_disabled": 0, "lat": 38.93846883333333, "rental_uris": {"ios": "https://dc.lft.to/lastmile_qr_scan", "android": "https://dc.lft.to/lastmile_qr_scan"}, "is_reserved": 0, "fusion_lon": 0.0, "fusion_lat": 0.0, "lon": -77.072281, "name": "54e1d5d7e6ed59468494ea41e91109f3"}, {"bike_id": "e8686d34ea3ea3f21bff61b47a09ac78", "type": "electric_scooter", "is_disabled": 0, "lat": 38.902848666666664, "rental_uris": {"ios": "https://dc.lft.to/lastmile_qr_scan", "android": "https://dc.lft.to/lastmile_qr_scan"}, "is_reserved": 0, "fusion_lon": 0.0, "fusion_lat": 0.0, "lon": -77.03856, "name": "e8686d34ea3ea3f21bff61b47a09ac78"}, {"bike_id": "a1f386be0ad30d52c0fc3bdf5fe530aa", "type": "electric_scooter", "is_disabled": 0, "lat": 38.862165, "rental_uris": {"ios": "https://dc.lft.to/lastmile_qr_scan", "android": "https://dc.lft.to/lastmile_qr_scan"}, "is_reserved": 0, "fusion_lon": 0.0, "fusion_lat": 0.0, "lon": -76.994854, "name": "a1f386be0ad30d52c0fc3bdf5fe530aa"}, {"bike_id": "06aff95106dde1ad595cdc311ea60dce", "type": "electric_scooter", "is_disabled": 0, "lat": 38.90644483333333, "rental_uris": {"ios": "https://dc.lft.to/lastmile_qr_scan", "android": "https://dc.lft.to/lastmile_qr_scan"}, "is_reserved": 0, "fusion_lon": 0.0, "fusion_lat": 0.0, "lon": -77.04871833333333, "name": "06aff95106dde1ad595cdc311ea60dce"}, {"bike_id": "6a6045b4ba9a44f0e96bd0e216c2d202", "type": "electric_scooter", "is_disabled": 0, "lat": 38.871948, "rental_uris": {"ios": "https://dc.lft.to/lastmile_qr_scan", "android": "https://dc.lft.to/lastmile_qr_scan"}, "is_reserved": 0, "fusion_lon": 0.0, "fusion_lat": 0.0, "lon": -77.00931833333334, "name": "6a6045b4ba9a44f0e96bd0e216c2d202"}, {"bike_id": "3f6ba1c6078c541963f2abfafe450083", "type": "electric_scooter", "is_disabled": 0, "lat": 38.90150633333333, "rental_uris": {"ios": "https://dc.lft.to/lastmile_qr_scan", "android": "https://dc.lft.to/lastmile_qr_scan"}, "is_reserved": 0, "fusion_lon": 0.0, "fusion_lat": 0.0, "lon": -76.93058533333334, "name": "3f6ba1c6078c541963f2abfafe450083"}, {"bike_id": "55cd40721990b4f63d1bda6c590fe4e5", "type": "electric_bike", "is_disabled": 0, "lat": 39.062904833333334, "rental_uris": {"ios": "https://dc.lft.to/lastmile_qr_scan", "android": "https://dc.lft.to/lastmile_qr_scan"}, "is_reserved": 0, "fusion_lon": 0.0, "fusion_lat": 0.0, "lon": -77.04979283333333, "name": "55cd40721990b4f63d1bda6c590fe4e5"}, {"bike_id": "d89ef277aa70dd552bbc191c585759ec", "type": "electric_scooter", "is_disabled": 0, "lat": 38.892219, "rental_uris": {"ios": "https://dc.lft.to/lastmile_qr_scan", "android": "https://dc.lft.to/lastmile_qr_scan"}, "is_reserved": 0, "fusion_lon": 0.0, "fusion_lat": 0.0, "lon": -77.02582366666667, "name": "d89ef277aa70dd552bbc191c585759ec"}, {"bike_id": "c334b71d9256076d0ff54de3a82dc18a", "type": "electric_scooter", "is_disabled": 0, "lat": 38.93883533333333, "rental_uris": {"ios": "https://dc.lft.to/lastmile_qr_scan", "android": "https://dc.lft.to/lastmile_qr_scan"}, "is_reserved": 0, "fusion_lon": 0.0, "fusion_lat": 0.0, "lon": -77.02492133333334, "name": "c334b71d9256076d0ff54de3a82dc18a"}, {"bike_id": "18e619fe28032df033ba73bd05db966c", "type": "electric_scooter", "is_disabled": 0, "lat": 38.902011, "rental_uris": {"ios": "https://dc.lft.to/lastmile_qr_scan", "android": "https://dc.lft.to/lastmile_qr_scan"}, "is_reserved": 0, "fusion_lon": 0.0, "fusion_lat": 0.0, "lon": -77.02376083333333, "name": "18e619fe28032df033ba73bd05db966c"}, {"bike_id": "6e0f4b1b44e192f28da6ee5e11400ee4", "type": "electric_bike", "is_disabled": 0, "lat": 38.86480733333333, "rental_uris": {"ios": "https://dc.lft.to/lastmile_qr_scan", "android": "https://dc.lft.to/lastmile_qr_scan"}, "is_reserved": 0, "fusion_lon": 0.0, "fusion_lat": 0.0, "lon": -76.97748866666667, "name": "6e0f4b1b44e192f28da6ee5e11400ee4"}, {"bike_id": "9f8b85b3b7f7299cdca208b6426a3e9d", "type": "electric_scooter", "is_disabled": 0, "lat": 38.938901, "rental_uris": {"ios": "https://dc.lft.to/lastmile_qr_scan", "android": "https://dc.lft.to/lastmile_qr_scan"}, "is_reserved": 0, "fusion_lon": 0.0, "fusion_lat": 0.0, "lon": -77.03335983333334, "name": "9f8b85b3b7f7299cdca208b6426a3e9d"}, {"bike_id": "7b74383a8ae8f720ebd2100540af4eb7", "type": "electric_scooter", "is_disabled": 0, "lat": 38.89961366666667, "rental_uris": {"ios": "https://dc.lft.to/lastmile_qr_scan", "android": "https://dc.lft.to/lastmile_qr_scan"}, "is_reserved": 0, "fusion_lon": 0.0, "fusion_lat": 0.0, "lon": -77.04749283333334, "name": "7b74383a8ae8f720ebd2100540af4eb7"}, {"bike_id": "5d4158f67c606f145779a1f65f416a51", "type": "electric_scooter", "is_disabled": 0, "lat": 38.94184, "rental_uris": {"ios": "https://dc.lft.to/lastmile_qr_scan", "android": "https://dc.lft.to/lastmile_qr_scan"}, "is_reserved": 0, "fusion_lon": 0.0, "fusion_lat": 0.0, "lon": -77.02487166666667, "name": "5d4158f67c606f145779a1f65f416a51"}, {"bike_id": "710af09f60738793d08c0e3d8b3caf28", "type": "electric_scooter", "is_disabled": 0, "lat": 38.914851666666664, "rental_uris": {"ios": "https://dc.lft.to/lastmile_qr_scan", "android": "https://dc.lft.to/lastmile_qr_scan"}, "is_reserved": 0, "fusion_lon": 0.0, "fusion_lat": 0.0, "lon": -77.02499883333333, "name": "710af09f60738793d08c0e3d8b3caf28"}, {"bike_id": "a914f161fa1d8db5b5eece250590ef4b", "type": "electric_scooter", "is_disabled": 0, "lat": 38.927858666666665, "rental_uris": {"ios": "https://dc.lft.to/lastmile_qr_scan", "android": "https://dc.lft.to/lastmile_qr_scan"}, "is_reserved": 0, "fusion_lon": 0.0, "fusion_lat": 0.0, "lon": -77.01383366666667, "name": "a914f161fa1d8db5b5eece250590ef4b"}, {"bike_id": "aca547c630b531782c022a25ad45a946", "type": "electric_scooter", "is_disabled": 0, "lat": 38.9221825, "rental_uris": {"ios": "https://dc.lft.to/lastmile_qr_scan", "android": "https://dc.lft.to/lastmile_qr_scan"}, "is_reserved": 0, "fusion_lon": 0.0, "fusion_lat": 0.0, "lon": -77.03458283333333, "name": "aca547c630b531782c022a25ad45a946"}, {"bike_id": "385a554e8bb755e8561f80915e1425b4", "type": "electric_scooter", "is_disabled": 0, "lat": 38.89301416666667, "rental_uris": {"ios": "https://dc.lft.to/lastmile_qr_scan", "android": "https://dc.lft.to/lastmile_qr_scan"}, "is_reserved": 0, "fusion_lon": 0.0, "fusion_lat": 0.0, "lon": -77.0261445, "name": "385a554e8bb755e8561f80915e1425b4"}, {"bike_id": "fa76ac605e1955f337d333888721953b", "type": "electric_scooter", "is_disabled": 0, "lat": 38.900214, "rental_uris": {"ios": "https://dc.lft.to/lastmile_qr_scan", "android": "https://dc.lft.to/lastmile_qr_scan"}, "is_reserved": 0, "fusion_lon": 0.0, "fusion_lat": 0.0, "lon": -76.9942095, "name": "fa76ac605e1955f337d333888721953b"}, {"bike_id": "9eb1df48805ce9394000828ea7f6a361", "type": "electric_scooter", "is_disabled": 0, "lat": 38.9324365, "rental_uris": {"ios": "https://dc.lft.to/lastmile_qr_scan", "android": "https://dc.lft.to/lastmile_qr_scan"}, "is_reserved": 0, "fusion_lon": 0.0, "fusion_lat": 0.0, "lon": -77.032746, "name": "9eb1df48805ce9394000828ea7f6a361"}, {"bike_id": "e83229afc7d754ac6a81a3f9f893f913", "type": "electric_scooter", "is_disabled": 0, "lat": 38.9419445, "rental_uris": {"ios": "https://dc.lft.to/lastmile_qr_scan", "android": "https://dc.lft.to/lastmile_qr_scan"}, "is_reserved": 0, "fusion_lon": 0.0, "fusion_lat": 0.0, "lon": -77.02554683333334, "name": "e83229afc7d754ac6a81a3f9f893f913"}, {"bike_id": "ac8c6c8f5431abc171990c987ba4783a", "type": "electric_scooter", "is_disabled": 0, "lat": 38.87067433333333, "rental_uris": {"ios": "https://dc.lft.to/lastmile_qr_scan", "android": "https://dc.lft.to/lastmile_qr_scan"}, "is_reserved": 0, "fusion_lon": 0.0, "fusion_lat": 0.0, "lon": -76.98131633333334, "name": "ac8c6c8f5431abc171990c987ba4783a"}, {"bike_id": "a562246ee3c4d2b8d6ab26f4b217d2e8", "type": "electric_scooter", "is_disabled": 0, "lat": 38.858065, "rental_uris": {"ios": "https://dc.lft.to/lastmile_qr_scan", "android": "https://dc.lft.to/lastmile_qr_scan"}, "is_reserved": 0, "fusion_lon": 0.0, "fusion_lat": 0.0, "lon": -76.98923166666667, "name": "a562246ee3c4d2b8d6ab26f4b217d2e8"}, {"bike_id": "d929a89671031dee74ede6223f9ae205", "type": "electric_scooter", "is_disabled": 0, "lat": 38.900254, "rental_uris": {"ios": "https://dc.lft.to/lastmile_qr_scan", "android": "https://dc.lft.to/lastmile_qr_scan"}, "is_reserved": 0, "fusion_lon": 0.0, "fusion_lat": 0.0, "lon": -76.99856, "name": "d929a89671031dee74ede6223f9ae205"}, {"bike_id": "3c46b2dc6bfc8f911d9d76b3f702aed3", "type": "electric_scooter", "is_disabled": 0, "lat": 38.895138833333334, "rental_uris": {"ios": "https://dc.lft.to/lastmile_qr_scan", "android": "https://dc.lft.to/lastmile_qr_scan"}, "is_reserved": 0, "fusion_lon": 0.0, "fusion_lat": 0.0, "lon": -77.01105333333334, "name": "3c46b2dc6bfc8f911d9d76b3f702aed3"}, {"bike_id": "e28205dba9a1bc432ab82d6d6ba3064d", "type": "electric_scooter", "is_disabled": 0, "lat": 38.8874345, "rental_uris": {"ios": "https://dc.lft.to/lastmile_qr_scan", "android": "https://dc.lft.to/lastmile_qr_scan"}, "is_reserved": 0, "fusion_lon": 0.0, "fusion_lat": 0.0, "lon": -77.02733233333333, "name": "e28205dba9a1bc432ab82d6d6ba3064d"}, {"bike_id": "078d58b35ac56c9495fcb67bdd546480", "type": "electric_scooter", "is_disabled": 0, "lat": 38.9261855, "rental_uris": {"ios": "https://dc.lft.to/lastmile_qr_scan", "android": "https://dc.lft.to/lastmile_qr_scan"}, "is_reserved": 0, "fusion_lon": 0.0, "fusion_lat": 0.0, "lon": -77.04199083333333, "name": "078d58b35ac56c9495fcb67bdd546480"}, {"bike_id": "3ec547ca6b61666823c768a4f437d002", "type": "electric_scooter", "is_disabled": 0, "lat": 38.905098833333334, "rental_uris": {"ios": "https://dc.lft.to/lastmile_qr_scan", "android": "https://dc.lft.to/lastmile_qr_scan"}, "is_reserved": 0, "fusion_lon": 0.0, "fusion_lat": 0.0, "lon": -77.06202683333333, "name": "3ec547ca6b61666823c768a4f437d002"}, {"bike_id": "df0ec09d9f9b8b5de24f19d80041af41", "type": "electric_scooter", "is_disabled": 0, "lat": 38.919994333333335, "rental_uris": {"ios": "https://dc.lft.to/lastmile_qr_scan", "android": "https://dc.lft.to/lastmile_qr_scan"}, "is_reserved": 0, "fusion_lon": 0.0, "fusion_lat": 0.0, "lon": -77.03158866666666, "name": "df0ec09d9f9b8b5de24f19d80041af41"}, {"bike_id": "403a95f708a745b77f8324c5c18461e2", "type": "electric_scooter", "is_disabled": 0, "lat": 38.89591183333334, "rental_uris": {"ios": "https://dc.lft.to/lastmile_qr_scan", "android": "https://dc.lft.to/lastmile_qr_scan"}, "is_reserved": 0, "fusion_lon": 0.0, "fusion_lat": 0.0, "lon": -77.005027, "name": "403a95f708a745b77f8324c5c18461e2"}, {"bike_id": "64b7342aeba253a5e7fd96faafa57b21", "type": "electric_scooter", "is_disabled": 0, "lat": 38.930962666666666, "rental_uris": {"ios": "https://dc.lft.to/lastmile_qr_scan", "android": "https://dc.lft.to/lastmile_qr_scan"}, "is_reserved": 0, "fusion_lon": 0.0, "fusion_lat": 0.0, "lon": -77.026665, "name": "64b7342aeba253a5e7fd96faafa57b21"}, {"bike_id": "1e6f77d8043374111dfa107cd45dde68", "type": "electric_scooter", "is_disabled": 0, "lat": 38.898739666666664, "rental_uris": {"ios": "https://dc.lft.to/lastmile_qr_scan", "android": "https://dc.lft.to/lastmile_qr_scan"}, "is_reserved": 0, "fusion_lon": 0.0, "fusion_lat": 0.0, "lon": -76.93184466666666, "name": "1e6f77d8043374111dfa107cd45dde68"}, {"bike_id": "2cb2d85cecc193cad6aadbf367dee9a8", "type": "electric_scooter", "is_disabled": 0, "lat": 38.90947833333333, "rental_uris": {"ios": "https://dc.lft.to/lastmile_qr_scan", "android": "https://dc.lft.to/lastmile_qr_scan"}, "is_reserved": 0, "fusion_lon": 0.0, "fusion_lat": 0.0, "lon": -77.03447183333333, "name": "2cb2d85cecc193cad6aadbf367dee9a8"}, {"bike_id": "cb57f21487351e6708dfddf2d1bc305b", "type": "electric_scooter", "is_disabled": 0, "lat": 38.917950833333336, "rental_uris": {"ios": "https://dc.lft.to/lastmile_qr_scan", "android": "https://dc.lft.to/lastmile_qr_scan"}, "is_reserved": 0, "fusion_lon": 0.0, "fusion_lat": 0.0, "lon": -77.03446683333334, "name": "cb57f21487351e6708dfddf2d1bc305b"}, {"bike_id": "c02ccbff728107e4bc3ad241bf73734c", "type": "electric_scooter", "is_disabled": 0, "lat": 38.937250666666664, "rental_uris": {"ios": "https://dc.lft.to/lastmile_qr_scan", "android": "https://dc.lft.to/lastmile_qr_scan"}, "is_reserved": 0, "fusion_lon": 0.0, "fusion_lat": 0.0, "lon": -77.03292916666666, "name": "c02ccbff728107e4bc3ad241bf73734c"}, {"bike_id": "7492ab9c507c23ae27c616f0bb4aa200", "type": "electric_scooter", "is_disabled": 0, "lat": 38.90132366666667, "rental_uris": {"ios": "https://dc.lft.to/lastmile_qr_scan", "android": "https://dc.lft.to/lastmile_qr_scan"}, "is_reserved": 0, "fusion_lon": 0.0, "fusion_lat": 0.0, "lon": -77.00855, "name": "7492ab9c507c23ae27c616f0bb4aa200"}, {"bike_id": "45bf2b7ccd364cbe85ec274842251af9", "type": "electric_bike", "is_disabled": 0, "lat": 38.8619305, "rental_uris": {"ios": "https://dc.lft.to/lastmile_qr_scan", "android": "https://dc.lft.to/lastmile_qr_scan"}, "is_reserved": 0, "fusion_lon": 0.0, "fusion_lat": 0.0, "lon": -76.94804716666667, "name": "45bf2b7ccd364cbe85ec274842251af9"}, {"bike_id": "ecacb578e24e1cfb7279decacb24e5cb", "type": "electric_scooter", "is_disabled": 0, "lat": 38.922626, "rental_uris": {"ios": "https://dc.lft.to/lastmile_qr_scan", "android": "https://dc.lft.to/lastmile_qr_scan"}, "is_reserved": 0, "fusion_lon": 0.0, "fusion_lat": 0.0, "lon": -77.00050566666667, "name": "ecacb578e24e1cfb7279decacb24e5cb"}, {"bike_id": "3ae5cf7be09c6ea6b860d173de393ad9", "type": "electric_scooter", "is_disabled": 0, "lat": 38.90542583333333, "rental_uris": {"ios": "https://dc.lft.to/lastmile_qr_scan", "android": "https://dc.lft.to/lastmile_qr_scan"}, "is_reserved": 0, "fusion_lon": 0.0, "fusion_lat": 0.0, "lon": -77.04178633333333, "name": "3ae5cf7be09c6ea6b860d173de393ad9"}, {"bike_id": "17c9cab6f88623b6772f3a3470ef1594", "type": "electric_scooter", "is_disabled": 0, "lat": 38.911804833333335, "rental_uris": {"ios": "https://dc.lft.to/lastmile_qr_scan", "android": "https://dc.lft.to/lastmile_qr_scan"}, "is_reserved": 0, "fusion_lon": 0.0, "fusion_lat": 0.0, "lon": -77.045658, "name": "17c9cab6f88623b6772f3a3470ef1594"}, {"bike_id": "1c53eee6a1d8aa8d838f831ddd451bc6", "type": "electric_scooter", "is_disabled": 0, "lat": 38.937810666666664, "rental_uris": {"ios": "https://dc.lft.to/lastmile_qr_scan", "android": "https://dc.lft.to/lastmile_qr_scan"}, "is_reserved": 0, "fusion_lon": 0.0, "fusion_lat": 0.0, "lon": -77.0329335, "name": "1c53eee6a1d8aa8d838f831ddd451bc6"}, {"bike_id": "e9d6358cf4963a59fbb3ac9263eda675", "type": "electric_scooter", "is_disabled": 0, "lat": 38.900156333333335, "rental_uris": {"ios": "https://dc.lft.to/lastmile_qr_scan", "android": "https://dc.lft.to/lastmile_qr_scan"}, "is_reserved": 0, "fusion_lon": 0.0, "fusion_lat": 0.0, "lon": -77.04481033333333, "name": "e9d6358cf4963a59fbb3ac9263eda675"}, {"bike_id": "aa92e0ba08d206cfc5765af957fad302", "type": "electric_scooter", "is_disabled": 0, "lat": 38.92347, "rental_uris": {"ios": "https://dc.lft.to/lastmile_qr_scan", "android": "https://dc.lft.to/lastmile_qr_scan"}, "is_reserved": 0, "fusion_lon": 0.0, "fusion_lat": 0.0, "lon": -77.0415045, "name": "aa92e0ba08d206cfc5765af957fad302"}, {"bike_id": "42209c23cbbd1fe857ad222263a9675d", "type": "electric_scooter", "is_disabled": 0, "lat": 38.906827666666665, "rental_uris": {"ios": "https://dc.lft.to/lastmile_qr_scan", "android": "https://dc.lft.to/lastmile_qr_scan"}, "is_reserved": 0, "fusion_lon": 0.0, "fusion_lat": 0.0, "lon": -77.05335533333333, "name": "42209c23cbbd1fe857ad222263a9675d"}, {"bike_id": "433a738bec086f0c378ac3617d5dc815", "type": "electric_scooter", "is_disabled": 0, "lat": 38.901508666666665, "rental_uris": {"ios": "https://dc.lft.to/lastmile_qr_scan", "android": "https://dc.lft.to/lastmile_qr_scan"}, "is_reserved": 0, "fusion_lon": 0.0, "fusion_lat": 0.0, "lon": -77.01540033333333, "name": "433a738bec086f0c378ac3617d5dc815"}, {"bike_id": "32c0f3fc090959f9e2d8ace9cfa4a8b0", "type": "electric_scooter", "is_disabled": 0, "lat": 38.911154, "rental_uris": {"ios": "https://dc.lft.to/lastmile_qr_scan", "android": "https://dc.lft.to/lastmile_qr_scan"}, "is_reserved": 0, "fusion_lon": 0.0, "fusion_lat": 0.0, "lon": -77.02235016666667, "name": "32c0f3fc090959f9e2d8ace9cfa4a8b0"}, {"bike_id": "d97691b37c8822fe5e5177cf434772da", "type": "electric_scooter", "is_disabled": 0, "lat": 38.917886333333335, "rental_uris": {"ios": "https://dc.lft.to/lastmile_qr_scan", "android": "https://dc.lft.to/lastmile_qr_scan"}, "is_reserved": 0, "fusion_lon": 0.0, "fusion_lat": 0.0, "lon": -77.02332083333333, "name": "d97691b37c8822fe5e5177cf434772da"}, {"bike_id": "d4702d4d100ee2595b4fa1671222a6ef", "type": "electric_scooter", "is_disabled": 0, "lat": 38.92340216666667, "rental_uris": {"ios": "https://dc.lft.to/lastmile_qr_scan", "android": "https://dc.lft.to/lastmile_qr_scan"}, "is_reserved": 0, "fusion_lon": 0.0, "fusion_lat": 0.0, "lon": -77.01986466666666, "name": "d4702d4d100ee2595b4fa1671222a6ef"}, {"bike_id": "f444711d33d0d221751066080f7b62df", "type": "electric_bike", "is_disabled": 0, "lat": 38.809076833333336, "rental_uris": {"ios": "https://dc.lft.to/lastmile_qr_scan", "android": "https://dc.lft.to/lastmile_qr_scan"}, "is_reserved": 0, "fusion_lon": 0.0, "fusion_lat": 0.0, "lon": -77.08653766666667, "name": "f444711d33d0d221751066080f7b62df"}, {"bike_id": "1dc14e2f99e156045d5b5423d9b87820", "type": "electric_scooter", "is_disabled": 0, "lat": 38.921518, "rental_uris": {"ios": "https://dc.lft.to/lastmile_qr_scan", "android": "https://dc.lft.to/lastmile_qr_scan"}, "is_reserved": 0, "fusion_lon": 0.0, "fusion_lat": 0.0, "lon": -77.03534116666667, "name": "1dc14e2f99e156045d5b5423d9b87820"}, {"bike_id": "4a7eb57e88bcfea62e73b3eed29df6b0", "type": "electric_scooter", "is_disabled": 0, "lat": 38.9208825, "rental_uris": {"ios": "https://dc.lft.to/lastmile_qr_scan", "android": "https://dc.lft.to/lastmile_qr_scan"}, "is_reserved": 0, "fusion_lon": 0.0, "fusion_lat": 0.0, "lon": -77.02533183333334, "name": "4a7eb57e88bcfea62e73b3eed29df6b0"}, {"bike_id": "2b58fb627ba87b92239d95a612bcedce", "type": "electric_scooter", "is_disabled": 0, "lat": 38.9284965, "rental_uris": {"ios": "https://dc.lft.to/lastmile_qr_scan", "android": "https://dc.lft.to/lastmile_qr_scan"}, "is_reserved": 0, "fusion_lon": 0.0, "fusion_lat": 0.0, "lon": -77.01950983333333, "name": "2b58fb627ba87b92239d95a612bcedce"}, {"bike_id": "c63a4bd4139b8ebca15cb39793bf6923", "type": "electric_scooter", "is_disabled": 0, "lat": 38.902822, "rental_uris": {"ios": "https://dc.lft.to/lastmile_qr_scan", "android": "https://dc.lft.to/lastmile_qr_scan"}, "is_reserved": 0, "fusion_lon": 0.0, "fusion_lat": 0.0, "lon": -77.00362233333334, "name": "c63a4bd4139b8ebca15cb39793bf6923"}, {"bike_id": "a2ab263f38eddfe147249c5321e3ffb7", "type": "electric_scooter", "is_disabled": 0, "lat": 38.93456533333333, "rental_uris": {"ios": "https://dc.lft.to/lastmile_qr_scan", "android": "https://dc.lft.to/lastmile_qr_scan"}, "is_reserved": 0, "fusion_lon": 0.0, "fusion_lat": 0.0, "lon": -77.0726065, "name": "a2ab263f38eddfe147249c5321e3ffb7"}, {"bike_id": "ac0c5562dd3a7c042f8f26097176f912", "type": "electric_scooter", "is_disabled": 0, "lat": 38.9565725, "rental_uris": {"ios": "https://dc.lft.to/lastmile_qr_scan", "android": "https://dc.lft.to/lastmile_qr_scan"}, "is_reserved": 0, "fusion_lon": 0.0, "fusion_lat": 0.0, "lon": -77.0103375, "name": "ac0c5562dd3a7c042f8f26097176f912"}, {"bike_id": "802c88b10ecb08cfc202d56cda9033cb", "type": "electric_scooter", "is_disabled": 0, "lat": 38.89897416666667, "rental_uris": {"ios": "https://dc.lft.to/lastmile_qr_scan", "android": "https://dc.lft.to/lastmile_qr_scan"}, "is_reserved": 0, "fusion_lon": 0.0, "fusion_lat": 0.0, "lon": -77.01524083333334, "name": "802c88b10ecb08cfc202d56cda9033cb"}, {"bike_id": "85107b365fed8f899c781bef86dbdeb6", "type": "electric_scooter", "is_disabled": 0, "lat": 38.951504, "rental_uris": {"ios": "https://dc.lft.to/lastmile_qr_scan", "android": "https://dc.lft.to/lastmile_qr_scan"}, "is_reserved": 0, "fusion_lon": 0.0, "fusion_lat": 0.0, "lon": -77.01872916666666, "name": "85107b365fed8f899c781bef86dbdeb6"}, {"bike_id": "d060b6d9f8afcfd15b6c29e5f9a2b4aa", "type": "electric_scooter", "is_disabled": 0, "lat": 38.895312833333335, "rental_uris": {"ios": "https://dc.lft.to/lastmile_qr_scan", "android": "https://dc.lft.to/lastmile_qr_scan"}, "is_reserved": 0, "fusion_lon": 0.0, "fusion_lat": 0.0, "lon": -76.94896316666667, "name": "d060b6d9f8afcfd15b6c29e5f9a2b4aa"}, {"bike_id": "f32f3b02b452c780a58dc8f1a2ec619d", "type": "electric_scooter", "is_disabled": 0, "lat": 38.877313, "rental_uris": {"ios": "https://dc.lft.to/lastmile_qr_scan", "android": "https://dc.lft.to/lastmile_qr_scan"}, "is_reserved": 0, "fusion_lon": 0.0, "fusion_lat": 0.0, "lon": -77.01777216666666, "name": "f32f3b02b452c780a58dc8f1a2ec619d"}, {"bike_id": "78f37aae841e03b745d82b1e9be1b0dc", "type": "electric_scooter", "is_disabled": 0, "lat": 38.890040666666664, "rental_uris": {"ios": "https://dc.lft.to/lastmile_qr_scan", "android": "https://dc.lft.to/lastmile_qr_scan"}, "is_reserved": 0, "fusion_lon": 0.0, "fusion_lat": 0.0, "lon": -76.937456, "name": "78f37aae841e03b745d82b1e9be1b0dc"}, {"bike_id": "bb4984a7292b05cc9e2355be64015535", "type": "electric_scooter", "is_disabled": 0, "lat": 38.888686, "rental_uris": {"ios": "https://dc.lft.to/lastmile_qr_scan", "android": "https://dc.lft.to/lastmile_qr_scan"}, "is_reserved": 0, "fusion_lon": 0.0, "fusion_lat": 0.0, "lon": -77.03996933333333, "name": "bb4984a7292b05cc9e2355be64015535"}, {"bike_id": "07df9e957e036e4f5bb7cf12f7acd00f", "type": "electric_scooter", "is_disabled": 0, "lat": 38.893227333333336, "rental_uris": {"ios": "https://dc.lft.to/lastmile_qr_scan", "android": "https://dc.lft.to/lastmile_qr_scan"}, "is_reserved": 0, "fusion_lon": 0.0, "fusion_lat": 0.0, "lon": -77.04879416666667, "name": "07df9e957e036e4f5bb7cf12f7acd00f"}, {"bike_id": "17272f7474c3e943d62e50c425c358b9", "type": "electric_scooter", "is_disabled": 0, "lat": 38.914185833333335, "rental_uris": {"ios": "https://dc.lft.to/lastmile_qr_scan", "android": "https://dc.lft.to/lastmile_qr_scan"}, "is_reserved": 0, "fusion_lon": 0.0, "fusion_lat": 0.0, "lon": -77.02178566666667, "name": "17272f7474c3e943d62e50c425c358b9"}, {"bike_id": "95b4a0cbac3483ebcec3d61fe11ef1b5", "type": "electric_bike", "is_disabled": 0, "lat": 38.932266166666665, "rental_uris": {"ios": "https://dc.lft.to/lastmile_qr_scan", "android": "https://dc.lft.to/lastmile_qr_scan"}, "is_reserved": 0, "fusion_lon": 0.0, "fusion_lat": 0.0, "lon": -77.18121033333334, "name": "95b4a0cbac3483ebcec3d61fe11ef1b5"}, {"bike_id": "dfc0025b431558f0be93fdd0776c7d47", "type": "electric_scooter", "is_disabled": 0, "lat": 38.931893333333335, "rental_uris": {"ios": "https://dc.lft.to/lastmile_qr_scan", "android": "https://dc.lft.to/lastmile_qr_scan"}, "is_reserved": 0, "fusion_lon": 0.0, "fusion_lat": 0.0, "lon": -77.02390516666667, "name": "dfc0025b431558f0be93fdd0776c7d47"}, {"bike_id": "61c307f79c4333aefaa4567995d1d1ac", "type": "electric_scooter", "is_disabled": 0, "lat": 38.9225035, "rental_uris": {"ios": "https://dc.lft.to/lastmile_qr_scan", "android": "https://dc.lft.to/lastmile_qr_scan"}, "is_reserved": 0, "fusion_lon": 0.0, "fusion_lat": 0.0, "lon": -77.04205, "name": "61c307f79c4333aefaa4567995d1d1ac"}, {"bike_id": "3a56a70dabfd62fb4cb000746f4abeb5", "type": "electric_scooter", "is_disabled": 0, "lat": 38.90466716666667, "rental_uris": {"ios": "https://dc.lft.to/lastmile_qr_scan", "android": "https://dc.lft.to/lastmile_qr_scan"}, "is_reserved": 0, "fusion_lon": 0.0, "fusion_lat": 0.0, "lon": -76.976106, "name": "3a56a70dabfd62fb4cb000746f4abeb5"}, {"bike_id": "2ca5ad7ae9286afa08919cbe0370f2c4", "type": "electric_scooter", "is_disabled": 0, "lat": 38.90020783333333, "rental_uris": {"ios": "https://dc.lft.to/lastmile_qr_scan", "android": "https://dc.lft.to/lastmile_qr_scan"}, "is_reserved": 0, "fusion_lon": 0.0, "fusion_lat": 0.0, "lon": -76.99851983333333, "name": "2ca5ad7ae9286afa08919cbe0370f2c4"}, {"bike_id": "f25eee81811ece421d8dac9287240a38", "type": "electric_scooter", "is_disabled": 0, "lat": 38.91829383333334, "rental_uris": {"ios": "https://dc.lft.to/lastmile_qr_scan", "android": "https://dc.lft.to/lastmile_qr_scan"}, "is_reserved": 0, "fusion_lon": 0.0, "fusion_lat": 0.0, "lon": -77.03194283333333, "name": "f25eee81811ece421d8dac9287240a38"}, {"bike_id": "6657778933897787353cac076eafd892", "type": "electric_scooter", "is_disabled": 0, "lat": 38.93410433333333, "rental_uris": {"ios": "https://dc.lft.to/lastmile_qr_scan", "android": "https://dc.lft.to/lastmile_qr_scan"}, "is_reserved": 0, "fusion_lon": 0.0, "fusion_lat": 0.0, "lon": -77.04152533333334, "name": "6657778933897787353cac076eafd892"}, {"bike_id": "8c093ec197062abb4dca47f9a034a0fc", "type": "electric_scooter", "is_disabled": 0, "lat": 38.934577166666664, "rental_uris": {"ios": "https://dc.lft.to/lastmile_qr_scan", "android": "https://dc.lft.to/lastmile_qr_scan"}, "is_reserved": 0, "fusion_lon": 0.0, "fusion_lat": 0.0, "lon": -77.02801283333334, "name": "8c093ec197062abb4dca47f9a034a0fc"}, {"bike_id": "d4635c2efbee52ea034348866b553b81", "type": "electric_scooter", "is_disabled": 0, "lat": 38.932214333333334, "rental_uris": {"ios": "https://dc.lft.to/lastmile_qr_scan", "android": "https://dc.lft.to/lastmile_qr_scan"}, "is_reserved": 0, "fusion_lon": 0.0, "fusion_lat": 0.0, "lon": -77.0336225, "name": "d4635c2efbee52ea034348866b553b81"}, {"bike_id": "7508bd4dcdfcb5b38c96463534e6a0be", "type": "electric_scooter", "is_disabled": 0, "lat": 38.90678716666667, "rental_uris": {"ios": "https://dc.lft.to/lastmile_qr_scan", "android": "https://dc.lft.to/lastmile_qr_scan"}, "is_reserved": 0, "fusion_lon": 0.0, "fusion_lat": 0.0, "lon": -77.06262666666667, "name": "7508bd4dcdfcb5b38c96463534e6a0be"}, {"bike_id": "d4a6707fa97a3c1c46619dca9338d324", "type": "electric_bike", "is_disabled": 0, "lat": 38.93449566666666, "rental_uris": {"ios": "https://dc.lft.to/lastmile_qr_scan", "android": "https://dc.lft.to/lastmile_qr_scan"}, "is_reserved": 0, "fusion_lon": 0.0, "fusion_lat": 0.0, "lon": -77.04129816666666, "name": "d4a6707fa97a3c1c46619dca9338d324"}, {"bike_id": "c4601c782a20c4846cbd64e37259826e", "type": "electric_scooter", "is_disabled": 0, "lat": 38.907792666666666, "rental_uris": {"ios": "https://dc.lft.to/lastmile_qr_scan", "android": "https://dc.lft.to/lastmile_qr_scan"}, "is_reserved": 0, "fusion_lon": 0.0, "fusion_lat": 0.0, "lon": -77.03863016666666, "name": "c4601c782a20c4846cbd64e37259826e"}, {"bike_id": "343ae51d110f4a0a355a361d9d749a5d", "type": "electric_scooter", "is_disabled": 0, "lat": 38.91322866666667, "rental_uris": {"ios": "https://dc.lft.to/lastmile_qr_scan", "android": "https://dc.lft.to/lastmile_qr_scan"}, "is_reserved": 0, "fusion_lon": 0.0, "fusion_lat": 0.0, "lon": -77.03246266666666, "name": "343ae51d110f4a0a355a361d9d749a5d"}, {"bike_id": "aa3423483b78385b67b49aeeaf91891a", "type": "electric_bike", "is_disabled": 0, "lat": 38.8824515, "rental_uris": {"ios": "https://dc.lft.to/lastmile_qr_scan", "android": "https://dc.lft.to/lastmile_qr_scan"}, "is_reserved": 0, "fusion_lon": 0.0, "fusion_lat": 0.0, "lon": -76.96260666666667, "name": "aa3423483b78385b67b49aeeaf91891a"}, {"bike_id": "4df0d7dd9253b8b0e57b0071d039a1a4", "type": "electric_scooter", "is_disabled": 0, "lat": 38.929541666666665, "rental_uris": {"ios": "https://dc.lft.to/lastmile_qr_scan", "android": "https://dc.lft.to/lastmile_qr_scan"}, "is_reserved": 0, "fusion_lon": 0.0, "fusion_lat": 0.0, "lon": -77.04406566666667, "name": "4df0d7dd9253b8b0e57b0071d039a1a4"}, {"bike_id": "db7b25fbfb4b80283d52c12bfa196626", "type": "electric_scooter", "is_disabled": 0, "lat": 38.90267, "rental_uris": {"ios": "https://dc.lft.to/lastmile_qr_scan", "android": "https://dc.lft.to/lastmile_qr_scan"}, "is_reserved": 0, "fusion_lon": 0.0, "fusion_lat": 0.0, "lon": -77.03447433333334, "name": "db7b25fbfb4b80283d52c12bfa196626"}, {"bike_id": "d84ed5705a2e3c58b50b2374b29ac551", "type": "electric_scooter", "is_disabled": 0, "lat": 38.891526999999996, "rental_uris": {"ios": "https://dc.lft.to/lastmile_qr_scan", "android": "https://dc.lft.to/lastmile_qr_scan"}, "is_reserved": 0, "fusion_lon": 0.0, "fusion_lat": 0.0, "lon": -76.9947, "name": "d84ed5705a2e3c58b50b2374b29ac551"}, {"bike_id": "5d8994d03492abb077322ff14a988498", "type": "electric_scooter", "is_disabled": 0, "lat": 38.92383316666667, "rental_uris": {"ios": "https://dc.lft.to/lastmile_qr_scan", "android": "https://dc.lft.to/lastmile_qr_scan"}, "is_reserved": 0, "fusion_lon": 0.0, "fusion_lat": 0.0, "lon": -77.036601, "name": "5d8994d03492abb077322ff14a988498"}, {"bike_id": "2fcd9e8fea99512ead3f7499ee91af27", "type": "electric_scooter", "is_disabled": 0, "lat": 38.92158033333333, "rental_uris": {"ios": "https://dc.lft.to/lastmile_qr_scan", "android": "https://dc.lft.to/lastmile_qr_scan"}, "is_reserved": 0, "fusion_lon": 0.0, "fusion_lat": 0.0, "lon": -77.0353375, "name": "2fcd9e8fea99512ead3f7499ee91af27"}, {"bike_id": "3ac7232a3259fd8a01f0c15e72717412", "type": "electric_scooter", "is_disabled": 0, "lat": 38.9284695, "rental_uris": {"ios": "https://dc.lft.to/lastmile_qr_scan", "android": "https://dc.lft.to/lastmile_qr_scan"}, "is_reserved": 0, "fusion_lon": 0.0, "fusion_lat": 0.0, "lon": -77.0328255, "name": "3ac7232a3259fd8a01f0c15e72717412"}, {"bike_id": "a4c0d25389ef59d0845dff5418cbf1f4", "type": "electric_scooter", "is_disabled": 0, "lat": 38.9056745, "rental_uris": {"ios": "https://dc.lft.to/lastmile_qr_scan", "android": "https://dc.lft.to/lastmile_qr_scan"}, "is_reserved": 0, "fusion_lon": 0.0, "fusion_lat": 0.0, "lon": -77.0433455, "name": "a4c0d25389ef59d0845dff5418cbf1f4"}, {"bike_id": "e14e4ba3863600e7f0685df7b61f236d", "type": "electric_scooter", "is_disabled": 0, "lat": 38.92738116666666, "rental_uris": {"ios": "https://dc.lft.to/lastmile_qr_scan", "android": "https://dc.lft.to/lastmile_qr_scan"}, "is_reserved": 0, "fusion_lon": 0.0, "fusion_lat": 0.0, "lon": -77.02532016666666, "name": "e14e4ba3863600e7f0685df7b61f236d"}, {"bike_id": "b8503cc8302aad8db92145630bc04abe", "type": "electric_bike", "is_disabled": 0, "lat": 38.853579833333335, "rental_uris": {"ios": "https://dc.lft.to/lastmile_qr_scan", "android": "https://dc.lft.to/lastmile_qr_scan"}, "is_reserved": 0, "fusion_lon": 0.0, "fusion_lat": 0.0, "lon": -77.1346085, "name": "b8503cc8302aad8db92145630bc04abe"}, {"bike_id": "596b568b736c9c691c67856fd4a59ffd", "type": "electric_scooter", "is_disabled": 0, "lat": 38.905515333333334, "rental_uris": {"ios": "https://dc.lft.to/lastmile_qr_scan", "android": "https://dc.lft.to/lastmile_qr_scan"}, "is_reserved": 0, "fusion_lon": 0.0, "fusion_lat": 0.0, "lon": -77.034289, "name": "596b568b736c9c691c67856fd4a59ffd"}, {"bike_id": "1a92d8ca4f6bdb7958e5421e778f1786", "type": "electric_scooter", "is_disabled": 0, "lat": 38.91268216666667, "rental_uris": {"ios": "https://dc.lft.to/lastmile_qr_scan", "android": "https://dc.lft.to/lastmile_qr_scan"}, "is_reserved": 0, "fusion_lon": 0.0, "fusion_lat": 0.0, "lon": -77.01247066666667, "name": "1a92d8ca4f6bdb7958e5421e778f1786"}, {"bike_id": "71d45182f86d481cc173e94a09e7ef43", "type": "electric_scooter", "is_disabled": 0, "lat": 38.9428705, "rental_uris": {"ios": "https://dc.lft.to/lastmile_qr_scan", "android": "https://dc.lft.to/lastmile_qr_scan"}, "is_reserved": 0, "fusion_lon": 0.0, "fusion_lat": 0.0, "lon": -77.02171233333334, "name": "71d45182f86d481cc173e94a09e7ef43"}, {"bike_id": "ebb77b03a64f81ab66203a913d1352c6", "type": "electric_scooter", "is_disabled": 0, "lat": 38.92261666666667, "rental_uris": {"ios": "https://dc.lft.to/lastmile_qr_scan", "android": "https://dc.lft.to/lastmile_qr_scan"}, "is_reserved": 0, "fusion_lon": 0.0, "fusion_lat": 0.0, "lon": -76.99451016666667, "name": "ebb77b03a64f81ab66203a913d1352c6"}, {"bike_id": "c271f9f872dcf81ce98b5d68ccc27575", "type": "electric_scooter", "is_disabled": 0, "lat": 38.9066015, "rental_uris": {"ios": "https://dc.lft.to/lastmile_qr_scan", "android": "https://dc.lft.to/lastmile_qr_scan"}, "is_reserved": 0, "fusion_lon": 0.0, "fusion_lat": 0.0, "lon": -77.027079, "name": "c271f9f872dcf81ce98b5d68ccc27575"}, {"bike_id": "cd6151cc250dd6c4cd9c2f2d9d4a5abf", "type": "electric_scooter", "is_disabled": 0, "lat": 38.90554216666666, "rental_uris": {"ios": "https://dc.lft.to/lastmile_qr_scan", "android": "https://dc.lft.to/lastmile_qr_scan"}, "is_reserved": 0, "fusion_lon": 0.0, "fusion_lat": 0.0, "lon": -77.0464975, "name": "cd6151cc250dd6c4cd9c2f2d9d4a5abf"}, {"bike_id": "482a0e2c1ff5a8e76f4669a208be7509", "type": "electric_scooter", "is_disabled": 0, "lat": 38.909750333333335, "rental_uris": {"ios": "https://dc.lft.to/lastmile_qr_scan", "android": "https://dc.lft.to/lastmile_qr_scan"}, "is_reserved": 0, "fusion_lon": 0.0, "fusion_lat": 0.0, "lon": -77.03187366666667, "name": "482a0e2c1ff5a8e76f4669a208be7509"}, {"bike_id": "b22b63c22efc3d0b1fc5753a7ad74e89", "type": "electric_scooter", "is_disabled": 0, "lat": 38.918140666666666, "rental_uris": {"ios": "https://dc.lft.to/lastmile_qr_scan", "android": "https://dc.lft.to/lastmile_qr_scan"}, "is_reserved": 0, "fusion_lon": 0.0, "fusion_lat": 0.0, "lon": -77.0366355, "name": "b22b63c22efc3d0b1fc5753a7ad74e89"}, {"bike_id": "8e2fd295e05eb7dcf95e37be7dcb319b", "type": "electric_scooter", "is_disabled": 0, "lat": 38.90743166666667, "rental_uris": {"ios": "https://dc.lft.to/lastmile_qr_scan", "android": "https://dc.lft.to/lastmile_qr_scan"}, "is_reserved": 0, "fusion_lon": 0.0, "fusion_lat": 0.0, "lon": -77.02961016666667, "name": "8e2fd295e05eb7dcf95e37be7dcb319b"}, {"bike_id": "d1277e0b3ff6ba6f22dabe2a25d2a54a", "type": "electric_scooter", "is_disabled": 0, "lat": 38.8925745, "rental_uris": {"ios": "https://dc.lft.to/lastmile_qr_scan", "android": "https://dc.lft.to/lastmile_qr_scan"}, "is_reserved": 0, "fusion_lon": 0.0, "fusion_lat": 0.0, "lon": -77.0334165, "name": "d1277e0b3ff6ba6f22dabe2a25d2a54a"}, {"bike_id": "a7762212c97be1d60c723aa9003fe9f8", "type": "electric_scooter", "is_disabled": 0, "lat": 38.9067675, "rental_uris": {"ios": "https://dc.lft.to/lastmile_qr_scan", "android": "https://dc.lft.to/lastmile_qr_scan"}, "is_reserved": 0, "fusion_lon": 0.0, "fusion_lat": 0.0, "lon": -77.0384575, "name": "a7762212c97be1d60c723aa9003fe9f8"}, {"bike_id": "97181fe16bcb474e238d5a0948efaa6e", "type": "electric_bike", "is_disabled": 0, "lat": 38.90852366666667, "rental_uris": {"ios": "https://dc.lft.to/lastmile_qr_scan", "android": "https://dc.lft.to/lastmile_qr_scan"}, "is_reserved": 0, "fusion_lon": 0.0, "fusion_lat": 0.0, "lon": -76.99137816666666, "name": "97181fe16bcb474e238d5a0948efaa6e"}, {"bike_id": "c673ea18ba59962877924b9b331c876f", "type": "electric_scooter", "is_disabled": 0, "lat": 38.921373833333334, "rental_uris": {"ios": "https://dc.lft.to/lastmile_qr_scan", "android": "https://dc.lft.to/lastmile_qr_scan"}, "is_reserved": 0, "fusion_lon": 0.0, "fusion_lat": 0.0, "lon": -77.04128033333333, "name": "c673ea18ba59962877924b9b331c876f"}, {"bike_id": "460c3f8fbcae755daac2913a1f943f83", "type": "electric_scooter", "is_disabled": 0, "lat": 38.908083833333336, "rental_uris": {"ios": "https://dc.lft.to/lastmile_qr_scan", "android": "https://dc.lft.to/lastmile_qr_scan"}, "is_reserved": 0, "fusion_lon": 0.0, "fusion_lat": 0.0, "lon": -77.0346165, "name": "460c3f8fbcae755daac2913a1f943f83"}, {"bike_id": "5428919935fb7cfe2ce46290c24b6f26", "type": "electric_scooter", "is_disabled": 0, "lat": 38.92307233333333, "rental_uris": {"ios": "https://dc.lft.to/lastmile_qr_scan", "android": "https://dc.lft.to/lastmile_qr_scan"}, "is_reserved": 0, "fusion_lon": 0.0, "fusion_lat": 0.0, "lon": -77.0391125, "name": "5428919935fb7cfe2ce46290c24b6f26"}, {"bike_id": "7d92205bdc7283424808dc722210a73d", "type": "electric_scooter", "is_disabled": 0, "lat": 38.933598333333336, "rental_uris": {"ios": "https://dc.lft.to/lastmile_qr_scan", "android": "https://dc.lft.to/lastmile_qr_scan"}, "is_reserved": 0, "fusion_lon": 0.0, "fusion_lat": 0.0, "lon": -77.08860066666666, "name": "7d92205bdc7283424808dc722210a73d"}, {"bike_id": "9b10eefc11e01014619782a562cff804", "type": "electric_scooter", "is_disabled": 0, "lat": 38.9237265, "rental_uris": {"ios": "https://dc.lft.to/lastmile_qr_scan", "android": "https://dc.lft.to/lastmile_qr_scan"}, "is_reserved": 0, "fusion_lon": 0.0, "fusion_lat": 0.0, "lon": -77.01940666666667, "name": "9b10eefc11e01014619782a562cff804"}, {"bike_id": "8821a79e6fbf2aa0e206945670d4090b", "type": "electric_scooter", "is_disabled": 0, "lat": 38.90389316666667, "rental_uris": {"ios": "https://dc.lft.to/lastmile_qr_scan", "android": "https://dc.lft.to/lastmile_qr_scan"}, "is_reserved": 0, "fusion_lon": 0.0, "fusion_lat": 0.0, "lon": -77.02432066666667, "name": "8821a79e6fbf2aa0e206945670d4090b"}, {"bike_id": "031d119a5708e75fb88d800f135bd3ae", "type": "electric_scooter", "is_disabled": 0, "lat": 38.91581033333333, "rental_uris": {"ios": "https://dc.lft.to/lastmile_qr_scan", "android": "https://dc.lft.to/lastmile_qr_scan"}, "is_reserved": 0, "fusion_lon": 0.0, "fusion_lat": 0.0, "lon": -77.04494516666666, "name": "031d119a5708e75fb88d800f135bd3ae"}, {"bike_id": "443dcfc370d56828cfa9555fbc18f641", "type": "electric_scooter", "is_disabled": 0, "lat": 38.91669133333333, "rental_uris": {"ios": "https://dc.lft.to/lastmile_qr_scan", "android": "https://dc.lft.to/lastmile_qr_scan"}, "is_reserved": 0, "fusion_lon": 0.0, "fusion_lat": 0.0, "lon": -77.03195133333334, "name": "443dcfc370d56828cfa9555fbc18f641"}, {"bike_id": "1df51c53bc309fb23a1cb0c4ea494122", "type": "electric_scooter", "is_disabled": 0, "lat": 38.890090666666666, "rental_uris": {"ios": "https://dc.lft.to/lastmile_qr_scan", "android": "https://dc.lft.to/lastmile_qr_scan"}, "is_reserved": 0, "fusion_lon": 0.0, "fusion_lat": 0.0, "lon": -77.03324233333333, "name": "1df51c53bc309fb23a1cb0c4ea494122"}, {"bike_id": "89aeab2b43a3c65ee4fc697eba593e8b", "type": "electric_scooter", "is_disabled": 0, "lat": 38.926559166666664, "rental_uris": {"ios": "https://dc.lft.to/lastmile_qr_scan", "android": "https://dc.lft.to/lastmile_qr_scan"}, "is_reserved": 0, "fusion_lon": 0.0, "fusion_lat": 0.0, "lon": -77.03730866666666, "name": "89aeab2b43a3c65ee4fc697eba593e8b"}, {"bike_id": "ccb8ea530d7f1295ba1b7dfd9666848b", "type": "electric_scooter", "is_disabled": 0, "lat": 38.936563666666665, "rental_uris": {"ios": "https://dc.lft.to/lastmile_qr_scan", "android": "https://dc.lft.to/lastmile_qr_scan"}, "is_reserved": 0, "fusion_lon": 0.0, "fusion_lat": 0.0, "lon": -77.05501016666666, "name": "ccb8ea530d7f1295ba1b7dfd9666848b"}, {"bike_id": "2358f6234e771e6dfc5f06983b079738", "type": "electric_scooter", "is_disabled": 0, "lat": 38.9076965, "rental_uris": {"ios": "https://dc.lft.to/lastmile_qr_scan", "android": "https://dc.lft.to/lastmile_qr_scan"}, "is_reserved": 0, "fusion_lon": 0.0, "fusion_lat": 0.0, "lon": -77.03858633333333, "name": "2358f6234e771e6dfc5f06983b079738"}, {"bike_id": "2e57e8958b0e9bd789b484a654ec7b35", "type": "electric_scooter", "is_disabled": 0, "lat": 38.9154725, "rental_uris": {"ios": "https://dc.lft.to/lastmile_qr_scan", "android": "https://dc.lft.to/lastmile_qr_scan"}, "is_reserved": 0, "fusion_lon": 0.0, "fusion_lat": 0.0, "lon": -77.03512766666667, "name": "2e57e8958b0e9bd789b484a654ec7b35"}, {"bike_id": "6ec83ed7d45bfb0b2e476c2120ba457b", "type": "electric_scooter", "is_disabled": 0, "lat": 38.906816666666664, "rental_uris": {"ios": "https://dc.lft.to/lastmile_qr_scan", "android": "https://dc.lft.to/lastmile_qr_scan"}, "is_reserved": 0, "fusion_lon": 0.0, "fusion_lat": 0.0, "lon": -77.02695633333333, "name": "6ec83ed7d45bfb0b2e476c2120ba457b"}, {"bike_id": "9d3ee216d093c5ff75f336a073542c2c", "type": "electric_scooter", "is_disabled": 0, "lat": 38.9010845, "rental_uris": {"ios": "https://dc.lft.to/lastmile_qr_scan", "android": "https://dc.lft.to/lastmile_qr_scan"}, "is_reserved": 0, "fusion_lon": 0.0, "fusion_lat": 0.0, "lon": -77.05167866666666, "name": "9d3ee216d093c5ff75f336a073542c2c"}, {"bike_id": "3ce170ce7ea13f0c74af3868471f8216", "type": "electric_scooter", "is_disabled": 0, "lat": 38.92247183333333, "rental_uris": {"ios": "https://dc.lft.to/lastmile_qr_scan", "android": "https://dc.lft.to/lastmile_qr_scan"}, "is_reserved": 0, "fusion_lon": 0.0, "fusion_lat": 0.0, "lon": -77.03898983333333, "name": "3ce170ce7ea13f0c74af3868471f8216"}, {"bike_id": "a84b77a671e3727aa4f743f2d626180b", "type": "electric_scooter", "is_disabled": 0, "lat": 38.9286125, "rental_uris": {"ios": "https://dc.lft.to/lastmile_qr_scan", "android": "https://dc.lft.to/lastmile_qr_scan"}, "is_reserved": 0, "fusion_lon": 0.0, "fusion_lat": 0.0, "lon": -77.03219333333334, "name": "a84b77a671e3727aa4f743f2d626180b"}, {"bike_id": "b38e80a99f304cce9516b4e18fa87a43", "type": "electric_scooter", "is_disabled": 0, "lat": 38.90677066666667, "rental_uris": {"ios": "https://dc.lft.to/lastmile_qr_scan", "android": "https://dc.lft.to/lastmile_qr_scan"}, "is_reserved": 0, "fusion_lon": 0.0, "fusion_lat": 0.0, "lon": -77.06540683333333, "name": "b38e80a99f304cce9516b4e18fa87a43"}, {"bike_id": "253e5b118400ad8388a70dc3e39f40a0", "type": "electric_scooter", "is_disabled": 0, "lat": 38.92993366666666, "rental_uris": {"ios": "https://dc.lft.to/lastmile_qr_scan", "android": "https://dc.lft.to/lastmile_qr_scan"}, "is_reserved": 0, "fusion_lon": 0.0, "fusion_lat": 0.0, "lon": -77.02348316666667, "name": "253e5b118400ad8388a70dc3e39f40a0"}, {"bike_id": "c25aa97a8651ab78de2aec0d810f0bd1", "type": "electric_bike", "is_disabled": 0, "lat": 38.85760766666667, "rental_uris": {"ios": "https://dc.lft.to/lastmile_qr_scan", "android": "https://dc.lft.to/lastmile_qr_scan"}, "is_reserved": 0, "fusion_lon": 0.0, "fusion_lat": 0.0, "lon": -76.98756233333333, "name": "c25aa97a8651ab78de2aec0d810f0bd1"}, {"bike_id": "7bb2e94bdf0917e9d2ecfc97a63a25a2", "type": "electric_scooter", "is_disabled": 0, "lat": 38.93710166666666, "rental_uris": {"ios": "https://dc.lft.to/lastmile_qr_scan", "android": "https://dc.lft.to/lastmile_qr_scan"}, "is_reserved": 0, "fusion_lon": 0.0, "fusion_lat": 0.0, "lon": -77.02449466666667, "name": "7bb2e94bdf0917e9d2ecfc97a63a25a2"}, {"bike_id": "c56f7a1607774600e3b0b23705c42115", "type": "electric_scooter", "is_disabled": 0, "lat": 38.91741916666667, "rental_uris": {"ios": "https://dc.lft.to/lastmile_qr_scan", "android": "https://dc.lft.to/lastmile_qr_scan"}, "is_reserved": 0, "fusion_lon": 0.0, "fusion_lat": 0.0, "lon": -77.02286933333333, "name": "c56f7a1607774600e3b0b23705c42115"}, {"bike_id": "ba764b1e6c89203cf659e0ed9da10224", "type": "electric_bike", "is_disabled": 0, "lat": 38.93859483333333, "rental_uris": {"ios": "https://dc.lft.to/lastmile_qr_scan", "android": "https://dc.lft.to/lastmile_qr_scan"}, "is_reserved": 0, "fusion_lon": 0.0, "fusion_lat": 0.0, "lon": -77.0269265, "name": "ba764b1e6c89203cf659e0ed9da10224"}, {"bike_id": "b8eda00970d6ad34949340691ec9e962", "type": "electric_scooter", "is_disabled": 0, "lat": 38.92826266666667, "rental_uris": {"ios": "https://dc.lft.to/lastmile_qr_scan", "android": "https://dc.lft.to/lastmile_qr_scan"}, "is_reserved": 0, "fusion_lon": 0.0, "fusion_lat": 0.0, "lon": -77.02265783333333, "name": "b8eda00970d6ad34949340691ec9e962"}, {"bike_id": "5a1a83eee6cedd3dccad93cb17bba1a8", "type": "electric_scooter", "is_disabled": 0, "lat": 38.88414266666667, "rental_uris": {"ios": "https://dc.lft.to/lastmile_qr_scan", "android": "https://dc.lft.to/lastmile_qr_scan"}, "is_reserved": 0, "fusion_lon": 0.0, "fusion_lat": 0.0, "lon": -77.03171616666667, "name": "5a1a83eee6cedd3dccad93cb17bba1a8"}, {"bike_id": "759fda3a41d335f24f7d273c295fea1c", "type": "electric_scooter", "is_disabled": 0, "lat": 38.93291166666667, "rental_uris": {"ios": "https://dc.lft.to/lastmile_qr_scan", "android": "https://dc.lft.to/lastmile_qr_scan"}, "is_reserved": 0, "fusion_lon": 0.0, "fusion_lat": 0.0, "lon": -77.04124716666666, "name": "759fda3a41d335f24f7d273c295fea1c"}, {"bike_id": "bf266c554127e252cd3531567c71a670", "type": "electric_scooter", "is_disabled": 0, "lat": 38.902060166666665, "rental_uris": {"ios": "https://dc.lft.to/lastmile_qr_scan", "android": "https://dc.lft.to/lastmile_qr_scan"}, "is_reserved": 0, "fusion_lon": 0.0, "fusion_lat": 0.0, "lon": -77.02380716666667, "name": "bf266c554127e252cd3531567c71a670"}, {"bike_id": "4fd467d8b10fd8e743cba5785e40563d", "type": "electric_scooter", "is_disabled": 0, "lat": 38.89545316666667, "rental_uris": {"ios": "https://dc.lft.to/lastmile_qr_scan", "android": "https://dc.lft.to/lastmile_qr_scan"}, "is_reserved": 0, "fusion_lon": 0.0, "fusion_lat": 0.0, "lon": -76.92952383333333, "name": "4fd467d8b10fd8e743cba5785e40563d"}, {"bike_id": "2537b8aece17e0fd72f8c3f8f55b9fa7", "type": "electric_bike", "is_disabled": 0, "lat": 38.857873166666664, "rental_uris": {"ios": "https://dc.lft.to/lastmile_qr_scan", "android": "https://dc.lft.to/lastmile_qr_scan"}, "is_reserved": 0, "fusion_lon": 0.0, "fusion_lat": 0.0, "lon": -77.12021516666667, "name": "2537b8aece17e0fd72f8c3f8f55b9fa7"}, {"bike_id": "7bf5724589cea775c2480ec8dd40e449", "type": "electric_scooter", "is_disabled": 0, "lat": 38.905623166666665, "rental_uris": {"ios": "https://dc.lft.to/lastmile_qr_scan", "android": "https://dc.lft.to/lastmile_qr_scan"}, "is_reserved": 0, "fusion_lon": 0.0, "fusion_lat": 0.0, "lon": -76.98143616666667, "name": "7bf5724589cea775c2480ec8dd40e449"}, {"bike_id": "17f177ba38aef030fdacb5ec2b034568", "type": "electric_scooter", "is_disabled": 0, "lat": 38.92671266666667, "rental_uris": {"ios": "https://dc.lft.to/lastmile_qr_scan", "android": "https://dc.lft.to/lastmile_qr_scan"}, "is_reserved": 0, "fusion_lon": 0.0, "fusion_lat": 0.0, "lon": -77.0435585, "name": "17f177ba38aef030fdacb5ec2b034568"}, {"bike_id": "312c4950f318e41882fe23425151a973", "type": "electric_scooter", "is_disabled": 0, "lat": 38.91136383333333, "rental_uris": {"ios": "https://dc.lft.to/lastmile_qr_scan", "android": "https://dc.lft.to/lastmile_qr_scan"}, "is_reserved": 0, "fusion_lon": 0.0, "fusion_lat": 0.0, "lon": -77.06544833333334, "name": "312c4950f318e41882fe23425151a973"}, {"bike_id": "9796999b719c55f899d2ecda4f9593c5", "type": "electric_scooter", "is_disabled": 0, "lat": 38.916977333333335, "rental_uris": {"ios": "https://dc.lft.to/lastmile_qr_scan", "android": "https://dc.lft.to/lastmile_qr_scan"}, "is_reserved": 0, "fusion_lon": 0.0, "fusion_lat": 0.0, "lon": -77.03599933333334, "name": "9796999b719c55f899d2ecda4f9593c5"}, {"bike_id": "221b3440e2b021280d0046f67d2634d6", "type": "electric_scooter", "is_disabled": 0, "lat": 38.9091195, "rental_uris": {"ios": "https://dc.lft.to/lastmile_qr_scan", "android": "https://dc.lft.to/lastmile_qr_scan"}, "is_reserved": 0, "fusion_lon": 0.0, "fusion_lat": 0.0, "lon": -76.98424783333333, "name": "221b3440e2b021280d0046f67d2634d6"}, {"bike_id": "02063dc510a5af1e501059545d5ca6fa", "type": "electric_scooter", "is_disabled": 0, "lat": 38.915881, "rental_uris": {"ios": "https://dc.lft.to/lastmile_qr_scan", "android": "https://dc.lft.to/lastmile_qr_scan"}, "is_reserved": 0, "fusion_lon": 0.0, "fusion_lat": 0.0, "lon": -77.04521483333333, "name": "02063dc510a5af1e501059545d5ca6fa"}, {"bike_id": "dda11a836056d84b1a2468f34d349744", "type": "electric_scooter", "is_disabled": 0, "lat": 38.91469016666667, "rental_uris": {"ios": "https://dc.lft.to/lastmile_qr_scan", "android": "https://dc.lft.to/lastmile_qr_scan"}, "is_reserved": 0, "fusion_lon": 0.0, "fusion_lat": 0.0, "lon": -77.03209333333334, "name": "dda11a836056d84b1a2468f34d349744"}, {"bike_id": "2140136d97ae5f3a4937febaab456546", "type": "electric_scooter", "is_disabled": 0, "lat": 38.92484233333333, "rental_uris": {"ios": "https://dc.lft.to/lastmile_qr_scan", "android": "https://dc.lft.to/lastmile_qr_scan"}, "is_reserved": 0, "fusion_lon": 0.0, "fusion_lat": 0.0, "lon": -77.05753333333334, "name": "2140136d97ae5f3a4937febaab456546"}, {"bike_id": "6bc452059c59532923c0c2d90eee0afa", "type": "electric_scooter", "is_disabled": 0, "lat": 38.8931705, "rental_uris": {"ios": "https://dc.lft.to/lastmile_qr_scan", "android": "https://dc.lft.to/lastmile_qr_scan"}, "is_reserved": 0, "fusion_lon": 0.0, "fusion_lat": 0.0, "lon": -76.93967633333334, "name": "6bc452059c59532923c0c2d90eee0afa"}, {"bike_id": "2b68a05595693141229c8397b69354ba", "type": "electric_scooter", "is_disabled": 0, "lat": 38.88779133333333, "rental_uris": {"ios": "https://dc.lft.to/lastmile_qr_scan", "android": "https://dc.lft.to/lastmile_qr_scan"}, "is_reserved": 0, "fusion_lon": 0.0, "fusion_lat": 0.0, "lon": -76.9553175, "name": "2b68a05595693141229c8397b69354ba"}, {"bike_id": "d9f129c4b972b282562ca61a27ceb4d6", "type": "electric_scooter", "is_disabled": 0, "lat": 38.921972833333335, "rental_uris": {"ios": "https://dc.lft.to/lastmile_qr_scan", "android": "https://dc.lft.to/lastmile_qr_scan"}, "is_reserved": 0, "fusion_lon": 0.0, "fusion_lat": 0.0, "lon": -77.04013483333334, "name": "d9f129c4b972b282562ca61a27ceb4d6"}, {"bike_id": "50fe90c1ed009329f05b256497993c37", "type": "electric_scooter", "is_disabled": 0, "lat": 38.87723416666667, "rental_uris": {"ios": "https://dc.lft.to/lastmile_qr_scan", "android": "https://dc.lft.to/lastmile_qr_scan"}, "is_reserved": 0, "fusion_lon": 0.0, "fusion_lat": 0.0, "lon": -77.0177745, "name": "50fe90c1ed009329f05b256497993c37"}, {"bike_id": "85f235e4b2758bc6ac38a64d3aab89e4", "type": "electric_scooter", "is_disabled": 0, "lat": 38.93323066666667, "rental_uris": {"ios": "https://dc.lft.to/lastmile_qr_scan", "android": "https://dc.lft.to/lastmile_qr_scan"}, "is_reserved": 0, "fusion_lon": 0.0, "fusion_lat": 0.0, "lon": -77.03259333333334, "name": "85f235e4b2758bc6ac38a64d3aab89e4"}, {"bike_id": "5987203410fb04122356bd41f6bbf961", "type": "electric_scooter", "is_disabled": 0, "lat": 38.923118333333335, "rental_uris": {"ios": "https://dc.lft.to/lastmile_qr_scan", "android": "https://dc.lft.to/lastmile_qr_scan"}, "is_reserved": 0, "fusion_lon": 0.0, "fusion_lat": 0.0, "lon": -77.04033816666667, "name": "5987203410fb04122356bd41f6bbf961"}, {"bike_id": "53f5b8677a95e610a8e37b28bca3b140", "type": "electric_bike", "is_disabled": 0, "lat": 38.993427833333335, "rental_uris": {"ios": "https://dc.lft.to/lastmile_qr_scan", "android": "https://dc.lft.to/lastmile_qr_scan"}, "is_reserved": 0, "fusion_lon": 0.0, "fusion_lat": 0.0, "lon": -77.11581616666666, "name": "53f5b8677a95e610a8e37b28bca3b140"}, {"bike_id": "429a1e95d8c14600bb59610882e7a451", "type": "electric_scooter", "is_disabled": 0, "lat": 38.935756, "rental_uris": {"ios": "https://dc.lft.to/lastmile_qr_scan", "android": "https://dc.lft.to/lastmile_qr_scan"}, "is_reserved": 0, "fusion_lon": 0.0, "fusion_lat": 0.0, "lon": -77.03357916666667, "name": "429a1e95d8c14600bb59610882e7a451"}, {"bike_id": "fc47dea924589d9f7b90087182a55f5c", "type": "electric_scooter", "is_disabled": 0, "lat": 38.91616916666667, "rental_uris": {"ios": "https://dc.lft.to/lastmile_qr_scan", "android": "https://dc.lft.to/lastmile_qr_scan"}, "is_reserved": 0, "fusion_lon": 0.0, "fusion_lat": 0.0, "lon": -77.03380066666666, "name": "fc47dea924589d9f7b90087182a55f5c"}, {"bike_id": "dbeaf847f807cfb8599067ef364b4504", "type": "electric_scooter", "is_disabled": 0, "lat": 38.9031975, "rental_uris": {"ios": "https://dc.lft.to/lastmile_qr_scan", "android": "https://dc.lft.to/lastmile_qr_scan"}, "is_reserved": 0, "fusion_lon": 0.0, "fusion_lat": 0.0, "lon": -76.98289233333334, "name": "dbeaf847f807cfb8599067ef364b4504"}, {"bike_id": "3c1ca79694727d67b8b262ca17808a48", "type": "electric_scooter", "is_disabled": 0, "lat": 38.87791633333333, "rental_uris": {"ios": "https://dc.lft.to/lastmile_qr_scan", "android": "https://dc.lft.to/lastmile_qr_scan"}, "is_reserved": 0, "fusion_lon": 0.0, "fusion_lat": 0.0, "lon": -77.01760433333334, "name": "3c1ca79694727d67b8b262ca17808a48"}, {"bike_id": "3c91a0fd1583476ac455e0f144f7f41b", "type": "electric_scooter", "is_disabled": 0, "lat": 38.91882866666667, "rental_uris": {"ios": "https://dc.lft.to/lastmile_qr_scan", "android": "https://dc.lft.to/lastmile_qr_scan"}, "is_reserved": 0, "fusion_lon": 0.0, "fusion_lat": 0.0, "lon": -77.03475583333334, "name": "3c91a0fd1583476ac455e0f144f7f41b"}, {"bike_id": "0ba0a49e81af08c4a8f98d329231dfdf", "type": "electric_scooter", "is_disabled": 0, "lat": 38.90976, "rental_uris": {"ios": "https://dc.lft.to/lastmile_qr_scan", "android": "https://dc.lft.to/lastmile_qr_scan"}, "is_reserved": 0, "fusion_lon": 0.0, "fusion_lat": 0.0, "lon": -77.03441633333334, "name": "0ba0a49e81af08c4a8f98d329231dfdf"}, {"bike_id": "12e77481cfa1077c646dfe807a420e03", "type": "electric_bike", "is_disabled": 0, "lat": 38.8075955, "rental_uris": {"ios": "https://dc.lft.to/lastmile_qr_scan", "android": "https://dc.lft.to/lastmile_qr_scan"}, "is_reserved": 0, "fusion_lon": 0.0, "fusion_lat": 0.0, "lon": -77.0946885, "name": "12e77481cfa1077c646dfe807a420e03"}, {"bike_id": "be8ae226f0eee25997296dae84f86ee4", "type": "electric_scooter", "is_disabled": 0, "lat": 38.929719166666665, "rental_uris": {"ios": "https://dc.lft.to/lastmile_qr_scan", "android": "https://dc.lft.to/lastmile_qr_scan"}, "is_reserved": 0, "fusion_lon": 0.0, "fusion_lat": 0.0, "lon": -77.03150133333334, "name": "be8ae226f0eee25997296dae84f86ee4"}, {"bike_id": "4e4e8132ce1b43dab28610020c8093f2", "type": "electric_scooter", "is_disabled": 0, "lat": 38.865041166666664, "rental_uris": {"ios": "https://dc.lft.to/lastmile_qr_scan", "android": "https://dc.lft.to/lastmile_qr_scan"}, "is_reserved": 0, "fusion_lon": 0.0, "fusion_lat": 0.0, "lon": -76.99004833333333, "name": "4e4e8132ce1b43dab28610020c8093f2"}, {"bike_id": "e23f579ad6879b61e0b3db4b7113ab2d", "type": "electric_scooter", "is_disabled": 0, "lat": 38.91399766666667, "rental_uris": {"ios": "https://dc.lft.to/lastmile_qr_scan", "android": "https://dc.lft.to/lastmile_qr_scan"}, "is_reserved": 0, "fusion_lon": 0.0, "fusion_lat": 0.0, "lon": -77.03447316666667, "name": "e23f579ad6879b61e0b3db4b7113ab2d"}, {"bike_id": "33aaba7f3ee113e94d345c1e28cc5aa9", "type": "electric_scooter", "is_disabled": 0, "lat": 38.920543, "rental_uris": {"ios": "https://dc.lft.to/lastmile_qr_scan", "android": "https://dc.lft.to/lastmile_qr_scan"}, "is_reserved": 0, "fusion_lon": 0.0, "fusion_lat": 0.0, "lon": -77.04408216666667, "name": "33aaba7f3ee113e94d345c1e28cc5aa9"}, {"bike_id": "e5db49171db40e6c026cab8053901f32", "type": "electric_scooter", "is_disabled": 0, "lat": 38.93466216666667, "rental_uris": {"ios": "https://dc.lft.to/lastmile_qr_scan", "android": "https://dc.lft.to/lastmile_qr_scan"}, "is_reserved": 0, "fusion_lon": 0.0, "fusion_lat": 0.0, "lon": -77.0305025, "name": "e5db49171db40e6c026cab8053901f32"}, {"bike_id": "4ff81e0289e9a87c6db1a7034837205d", "type": "electric_scooter", "is_disabled": 0, "lat": 38.9323705, "rental_uris": {"ios": "https://dc.lft.to/lastmile_qr_scan", "android": "https://dc.lft.to/lastmile_qr_scan"}, "is_reserved": 0, "fusion_lon": 0.0, "fusion_lat": 0.0, "lon": -77.033883, "name": "4ff81e0289e9a87c6db1a7034837205d"}, {"bike_id": "523820d5cea1935f7c51ef0117aede17", "type": "electric_scooter", "is_disabled": 0, "lat": 38.910376, "rental_uris": {"ios": "https://dc.lft.to/lastmile_qr_scan", "android": "https://dc.lft.to/lastmile_qr_scan"}, "is_reserved": 0, "fusion_lon": 0.0, "fusion_lat": 0.0, "lon": -77.03825266666666, "name": "523820d5cea1935f7c51ef0117aede17"}, {"bike_id": "15f5945ba183e114b44837d8602cf57d", "type": "electric_scooter", "is_disabled": 0, "lat": 38.920427833333335, "rental_uris": {"ios": "https://dc.lft.to/lastmile_qr_scan", "android": "https://dc.lft.to/lastmile_qr_scan"}, "is_reserved": 0, "fusion_lon": 0.0, "fusion_lat": 0.0, "lon": -77.03453233333333, "name": "15f5945ba183e114b44837d8602cf57d"}, {"bike_id": "9c8ea9ba185dbdc5fb2416d4c9c06286", "type": "electric_scooter", "is_disabled": 0, "lat": 38.896686833333334, "rental_uris": {"ios": "https://dc.lft.to/lastmile_qr_scan", "android": "https://dc.lft.to/lastmile_qr_scan"}, "is_reserved": 0, "fusion_lon": 0.0, "fusion_lat": 0.0, "lon": -76.98814016666667, "name": "9c8ea9ba185dbdc5fb2416d4c9c06286"}, {"bike_id": "fcc7eb820645f5b3420d089e92cb9128", "type": "electric_scooter", "is_disabled": 0, "lat": 38.8850595, "rental_uris": {"ios": "https://dc.lft.to/lastmile_qr_scan", "android": "https://dc.lft.to/lastmile_qr_scan"}, "is_reserved": 0, "fusion_lon": 0.0, "fusion_lat": 0.0, "lon": -77.01551116666667, "name": "fcc7eb820645f5b3420d089e92cb9128"}, {"bike_id": "bb00b92fdc5e96560c22319b72e03e22", "type": "electric_scooter", "is_disabled": 0, "lat": 38.908069, "rental_uris": {"ios": "https://dc.lft.to/lastmile_qr_scan", "android": "https://dc.lft.to/lastmile_qr_scan"}, "is_reserved": 0, "fusion_lon": 0.0, "fusion_lat": 0.0, "lon": -77.03452733333333, "name": "bb00b92fdc5e96560c22319b72e03e22"}, {"bike_id": "0f24a1b51cd9c538ce902b05cbd91680", "type": "electric_scooter", "is_disabled": 0, "lat": 38.90295616666667, "rental_uris": {"ios": "https://dc.lft.to/lastmile_qr_scan", "android": "https://dc.lft.to/lastmile_qr_scan"}, "is_reserved": 0, "fusion_lon": 0.0, "fusion_lat": 0.0, "lon": -76.98347916666667, "name": "0f24a1b51cd9c538ce902b05cbd91680"}, {"bike_id": "15ca9681d20bd14c9b9614cd07ba7634", "type": "electric_scooter", "is_disabled": 0, "lat": 38.89858916666667, "rental_uris": {"ios": "https://dc.lft.to/lastmile_qr_scan", "android": "https://dc.lft.to/lastmile_qr_scan"}, "is_reserved": 0, "fusion_lon": 0.0, "fusion_lat": 0.0, "lon": -77.048775, "name": "15ca9681d20bd14c9b9614cd07ba7634"}, {"bike_id": "c950e4ea54b3abeba676bcea50bbd088", "type": "electric_scooter", "is_disabled": 0, "lat": 38.913594, "rental_uris": {"ios": "https://dc.lft.to/lastmile_qr_scan", "android": "https://dc.lft.to/lastmile_qr_scan"}, "is_reserved": 0, "fusion_lon": 0.0, "fusion_lat": 0.0, "lon": -77.04496266666666, "name": "c950e4ea54b3abeba676bcea50bbd088"}, {"bike_id": "936f218e5d2682bf3152119c1f634289", "type": "electric_scooter", "is_disabled": 0, "lat": 38.8918975, "rental_uris": {"ios": "https://dc.lft.to/lastmile_qr_scan", "android": "https://dc.lft.to/lastmile_qr_scan"}, "is_reserved": 0, "fusion_lon": 0.0, "fusion_lat": 0.0, "lon": -77.00234316666666, "name": "936f218e5d2682bf3152119c1f634289"}, {"bike_id": "0f50314c0a95e5a0c507e487030045ef", "type": "electric_scooter", "is_disabled": 0, "lat": 38.89731616666667, "rental_uris": {"ios": "https://dc.lft.to/lastmile_qr_scan", "android": "https://dc.lft.to/lastmile_qr_scan"}, "is_reserved": 0, "fusion_lon": 0.0, "fusion_lat": 0.0, "lon": -77.033272, "name": "0f50314c0a95e5a0c507e487030045ef"}, {"bike_id": "7f680a31f96f174d881e7791e4a5e6ad", "type": "electric_scooter", "is_disabled": 0, "lat": 38.913502666666666, "rental_uris": {"ios": "https://dc.lft.to/lastmile_qr_scan", "android": "https://dc.lft.to/lastmile_qr_scan"}, "is_reserved": 0, "fusion_lon": 0.0, "fusion_lat": 0.0, "lon": -77.03189583333334, "name": "7f680a31f96f174d881e7791e4a5e6ad"}, {"bike_id": "4138163f296391fd30d03dd9c430d234", "type": "electric_scooter", "is_disabled": 0, "lat": 38.920875, "rental_uris": {"ios": "https://dc.lft.to/lastmile_qr_scan", "android": "https://dc.lft.to/lastmile_qr_scan"}, "is_reserved": 0, "fusion_lon": 0.0, "fusion_lat": 0.0, "lon": -77.02534016666667, "name": "4138163f296391fd30d03dd9c430d234"}, {"bike_id": "9034e2ed8c95a4898688345fbd5bf99d", "type": "electric_scooter", "is_disabled": 0, "lat": 38.870819166666664, "rental_uris": {"ios": "https://dc.lft.to/lastmile_qr_scan", "android": "https://dc.lft.to/lastmile_qr_scan"}, "is_reserved": 0, "fusion_lon": 0.0, "fusion_lat": 0.0, "lon": -76.9890005, "name": "9034e2ed8c95a4898688345fbd5bf99d"}, {"bike_id": "248556eef9b7a95f0d46b62dbcd0dd3a", "type": "electric_scooter", "is_disabled": 0, "lat": 38.9068455, "rental_uris": {"ios": "https://dc.lft.to/lastmile_qr_scan", "android": "https://dc.lft.to/lastmile_qr_scan"}, "is_reserved": 0, "fusion_lon": 0.0, "fusion_lat": 0.0, "lon": -77.07161783333333, "name": "248556eef9b7a95f0d46b62dbcd0dd3a"}, {"bike_id": "a39dc854b0980540ad0f2a1f6c361eb7", "type": "electric_scooter", "is_disabled": 0, "lat": 38.90235766666667, "rental_uris": {"ios": "https://dc.lft.to/lastmile_qr_scan", "android": "https://dc.lft.to/lastmile_qr_scan"}, "is_reserved": 0, "fusion_lon": 0.0, "fusion_lat": 0.0, "lon": -77.0020015, "name": "a39dc854b0980540ad0f2a1f6c361eb7"}, {"bike_id": "9c5866191c2129b86c6814d28c8324e4", "type": "electric_scooter", "is_disabled": 0, "lat": 38.92612233333333, "rental_uris": {"ios": "https://dc.lft.to/lastmile_qr_scan", "android": "https://dc.lft.to/lastmile_qr_scan"}, "is_reserved": 0, "fusion_lon": 0.0, "fusion_lat": 0.0, "lon": -77.0216585, "name": "9c5866191c2129b86c6814d28c8324e4"}, {"bike_id": "7b74f576fd1b0a1a2ba3f477c2344e72", "type": "electric_scooter", "is_disabled": 0, "lat": 38.9163605, "rental_uris": {"ios": "https://dc.lft.to/lastmile_qr_scan", "android": "https://dc.lft.to/lastmile_qr_scan"}, "is_reserved": 0, "fusion_lon": 0.0, "fusion_lat": 0.0, "lon": -77.03222933333333, "name": "7b74f576fd1b0a1a2ba3f477c2344e72"}, {"bike_id": "7548952a2c4531f93a2e621347773eed", "type": "electric_scooter", "is_disabled": 0, "lat": 38.884280333333336, "rental_uris": {"ios": "https://dc.lft.to/lastmile_qr_scan", "android": "https://dc.lft.to/lastmile_qr_scan"}, "is_reserved": 0, "fusion_lon": 0.0, "fusion_lat": 0.0, "lon": -76.957585, "name": "7548952a2c4531f93a2e621347773eed"}, {"bike_id": "7253b6ad9d92d940e7cf1b5a2d5b3e65", "type": "electric_scooter", "is_disabled": 0, "lat": 38.903165666666666, "rental_uris": {"ios": "https://dc.lft.to/lastmile_qr_scan", "android": "https://dc.lft.to/lastmile_qr_scan"}, "is_reserved": 0, "fusion_lon": 0.0, "fusion_lat": 0.0, "lon": -77.02885966666666, "name": "7253b6ad9d92d940e7cf1b5a2d5b3e65"}, {"bike_id": "22abe7fb5fbbdc148ac616927cf911c1", "type": "electric_scooter", "is_disabled": 0, "lat": 38.9283515, "rental_uris": {"ios": "https://dc.lft.to/lastmile_qr_scan", "android": "https://dc.lft.to/lastmile_qr_scan"}, "is_reserved": 0, "fusion_lon": 0.0, "fusion_lat": 0.0, "lon": -77.01400316666667, "name": "22abe7fb5fbbdc148ac616927cf911c1"}, {"bike_id": "6483971db2e508b381297d1cd90c8b0e", "type": "electric_scooter", "is_disabled": 0, "lat": 38.941913666666665, "rental_uris": {"ios": "https://dc.lft.to/lastmile_qr_scan", "android": "https://dc.lft.to/lastmile_qr_scan"}, "is_reserved": 0, "fusion_lon": 0.0, "fusion_lat": 0.0, "lon": -77.0234685, "name": "6483971db2e508b381297d1cd90c8b0e"}, {"bike_id": "301e8db9b75b192bafb353abb0c5896e", "type": "electric_scooter", "is_disabled": 0, "lat": 38.870209833333334, "rental_uris": {"ios": "https://dc.lft.to/lastmile_qr_scan", "android": "https://dc.lft.to/lastmile_qr_scan"}, "is_reserved": 0, "fusion_lon": 0.0, "fusion_lat": 0.0, "lon": -76.98082433333333, "name": "301e8db9b75b192bafb353abb0c5896e"}, {"bike_id": "6ea1d4410d560de40ac4fc66290c56ef", "type": "electric_scooter", "is_disabled": 0, "lat": 38.926675333333336, "rental_uris": {"ios": "https://dc.lft.to/lastmile_qr_scan", "android": "https://dc.lft.to/lastmile_qr_scan"}, "is_reserved": 0, "fusion_lon": 0.0, "fusion_lat": 0.0, "lon": -77.01472583333333, "name": "6ea1d4410d560de40ac4fc66290c56ef"}, {"bike_id": "dc22b59af214271bbd5c6ea23041d29d", "type": "electric_scooter", "is_disabled": 0, "lat": 38.93529983333333, "rental_uris": {"ios": "https://dc.lft.to/lastmile_qr_scan", "android": "https://dc.lft.to/lastmile_qr_scan"}, "is_reserved": 0, "fusion_lon": 0.0, "fusion_lat": 0.0, "lon": -77.023552, "name": "dc22b59af214271bbd5c6ea23041d29d"}, {"bike_id": "8d3de6a124c485f53d0787b1ffaf2591", "type": "electric_scooter", "is_disabled": 0, "lat": 38.93467783333333, "rental_uris": {"ios": "https://dc.lft.to/lastmile_qr_scan", "android": "https://dc.lft.to/lastmile_qr_scan"}, "is_reserved": 0, "fusion_lon": 0.0, "fusion_lat": 0.0, "lon": -77.02930483333333, "name": "8d3de6a124c485f53d0787b1ffaf2591"}, {"bike_id": "d0645717480d514715550843543a942e", "type": "electric_scooter", "is_disabled": 0, "lat": 38.907147333333334, "rental_uris": {"ios": "https://dc.lft.to/lastmile_qr_scan", "android": "https://dc.lft.to/lastmile_qr_scan"}, "is_reserved": 0, "fusion_lon": 0.0, "fusion_lat": 0.0, "lon": -77.01469833333333, "name": "d0645717480d514715550843543a942e"}, {"bike_id": "b997f102be282effb5b531f77de29a52", "type": "electric_scooter", "is_disabled": 0, "lat": 38.891767333333334, "rental_uris": {"ios": "https://dc.lft.to/lastmile_qr_scan", "android": "https://dc.lft.to/lastmile_qr_scan"}, "is_reserved": 0, "fusion_lon": 0.0, "fusion_lat": 0.0, "lon": -77.02206166666667, "name": "b997f102be282effb5b531f77de29a52"},