{"data": {"bikes": [{"lon": -77.05064033333333, "is_disabled": 0, "lat": 38.905487666666666, "fusion_lat": 0.0, "is_reserved": 0, "rental_uris": {"ios": "https://dc.lft.to/lastmile_qr_scan", "android": "https://dc.lft.to/lastmile_qr_scan"}, "fusion_lon": 0.0, "type": "electric_scooter", "bike_id": "0b3b54b9637deecda048707fdaa96c0d", "name": "0b3b54b9637deecda048707fdaa96c0d"}, {"lon": -77.00712533333333, "is_disabled": 0, "lat": 38.884951666666666, "fusion_lat": 0.0, "is_reserved": 0, "rental_uris": {"ios": "https://dc.lft.to/lastmile_qr_scan", "android": "https://dc.lft.to/lastmile_qr_scan"}, "fusion_lon": 0.0, "type": "electric_scooter", "bike_id": "e6e67461c3d0abad1a8915813cea3901", "name": "e6e67461c3d0abad1a8915813cea3901"}, {"lon": -77.01850116666667, "is_disabled": 0, "lat": 38.909794, "fusion_lat": 0.0, "is_reserved": 0, "rental_uris": {"ios": "https://dc.lft.to/lastmile_qr_scan", "android": "https://dc.lft.to/lastmile_qr_scan"}, "fusion_lon": 0.0, "type": "electric_scooter", "bike_id": "f81455caf71dc245f5e38b5ab02b0a6a", "name": "f81455caf71dc245f5e38b5ab02b0a6a"}, {"lon": -77.03858616666666, "is_disabled": 0, "lat": 38.90717133333333, "fusion_lat": 0.0, "is_reserved": 0, "rental_uris": {"ios": "https://dc.lft.to/lastmile_qr_scan", "android": "https://dc.lft.to/lastmile_qr_scan"}, "fusion_lon": 0.0, "type": "electric_scooter", "bike_id": "2df6be315862ae2325e8e7f8dc66c705", "name": "2df6be315862ae2325e8e7f8dc66c705"}, {"lon": -76.98880966666667, "is_disabled": 0, "lat": 38.86658216666667, "fusion_lat": 0.0, "is_reserved": 0, "rental_uris": {"ios": "https://dc.lft.to/lastmile_qr_scan", "android": "https://dc.lft.to/lastmile_qr_scan"}, "fusion_lon": 0.0, "type": "electric_scooter", "bike_id": "cd094d4237cded04f414566da4310808", "name": "cd094d4237cded04f414566da4310808"}, {"lon": -77.03936383333334, "is_disabled": 0, "lat": 38.898561, "fusion_lat": 0.0, "is_reserved": 0, "rental_uris": {"ios": "https://dc.lft.to/lastmile_qr_scan", "android": "https://dc.lft.to/lastmile_qr_scan"}, "fusion_lon": 0.0, "type": "electric_scooter", "bike_id": "8f2e9615f98e3ed5f6391428dad2273b", "name": "8f2e9615f98e3ed5f6391428dad2273b"}, {"lon": -77.04374433333334, "is_disabled": 0, "lat": 38.910555333333335, "fusion_lat": 0.0, "is_reserved": 0, "rental_uris": {"ios": "https://dc.lft.to/lastmile_qr_scan", "android": "https://dc.lft.to/lastmile_qr_scan"}, "fusion_lon": 0.0, "type": "electric_scooter", "bike_id": "56f5ed5b376559f98054228a714a19d6", "name": "56f5ed5b376559f98054228a714a19d6"}, {"lon": -77.04285416666667, "is_disabled": 0, "lat": 38.9142195, "fusion_lat": 0.0, "is_reserved": 0, "rental_uris": {"ios": "https://dc.lft.to/lastmile_qr_scan", "android": "https://dc.lft.to/lastmile_qr_scan"}, "fusion_lon": 0.0, "type": "electric_scooter", "bike_id": "ef06b208ccc191e650e799a28dfe15d2", "name": "ef06b208ccc191e650e799a28dfe15d2"}, {"lon": -77.014915, "is_disabled": 0, "lat": 38.917560333333334, "fusion_lat": 0.0, "is_reserved": 0, "rental_uris": {"ios": "https://dc.lft.to/lastmile_qr_scan", "android": "https://dc.lft.to/lastmile_qr_scan"}, "fusion_lon": 0.0, "type": "electric_scooter", "bike_id": "e9344867dbf034c2556fb8da5c370a26", "name": "e9344867dbf034c2556fb8da5c370a26"}, {"lon": -76.98177316666667, "is_disabled": 0, "lat": 38.86964716666667, "fusion_lat": 0.0, "is_reserved": 0, "rental_uris": {"ios": "https://dc.lft.to/lastmile_qr_scan", "android": "https://dc.lft.to/lastmile_qr_scan"}, "fusion_lon": 0.0, "type": "electric_scooter", "bike_id": "75f6fbd2e2b1438ebd47ecf9fe36825d", "name": "75f6fbd2e2b1438ebd47ecf9fe36825d"}, {"lon": -77.03320233333334, "is_disabled": 0, "lat": 38.8982235, "fusion_lat": 0.0, "is_reserved": 0, "rental_uris": {"ios": "https://dc.lft.to/lastmile_qr_scan", "android": "https://dc.lft.to/lastmile_qr_scan"}, "fusion_lon": 0.0, "type": "electric_scooter", "bike_id": "a58a9392feeb5e938bc2b0b992976c12", "name": "a58a9392feeb5e938bc2b0b992976c12"}, {"lon": -77.22891416666667, "is_disabled": 0, "lat": 38.90962283333333, "fusion_lat": 0.0, "is_reserved": 0, "rental_uris": {"ios": "https://dc.lft.to/lastmile_qr_scan", "android": "https://dc.lft.to/lastmile_qr_scan"}, "fusion_lon": 0.0, "type": "electric_bike", "bike_id": "80062d1624ce28100649ca823bbbc4bf", "name": "80062d1624ce28100649ca823bbbc4bf"}, {"lon": -76.97847366666667, "is_disabled": 0, "lat": 38.898529, "fusion_lat": 0.0, "is_reserved": 0, "rental_uris": {"ios": "https://dc.lft.to/lastmile_qr_scan", "android": "https://dc.lft.to/lastmile_qr_scan"}, "fusion_lon": 0.0, "type": "electric_scooter", "bike_id": "dfb3dea6d662b1337b8eefdaf4f120b3", "name": "dfb3dea6d662b1337b8eefdaf4f120b3"}, {"lon": -77.0411305, "is_disabled": 0, "lat": 38.910713333333334, "fusion_lat": 0.0, "is_reserved": 0, "rental_uris": {"ios": "https://dc.lft.to/lastmile_qr_scan", "android": "https://dc.lft.to/lastmile_qr_scan"}, "fusion_lon": 0.0, "type": "electric_scooter", "bike_id": "feb98aaeb928bdbef17c54229acb6577", "name": "feb98aaeb928bdbef17c54229acb6577"}, {"lon": -77.0481515, "is_disabled": 0, "lat": 38.90979016666667, "fusion_lat": 0.0, "is_reserved": 0, "rental_uris": {"ios": "https://dc.lft.to/lastmile_qr_scan", "android": "https://dc.lft.to/lastmile_qr_scan"}, "fusion_lon": 0.0, "type": "electric_scooter", "bike_id": "9ef992ec4ed87c29fd8244f6745e8f92", "name": "9ef992ec4ed87c29fd8244f6745e8f92"}, {"lon": -77.01146866666667, "is_disabled": 0, "lat": 38.89646116666667, "fusion_lat": 0.0, "is_reserved": 0, "rental_uris": {"ios": "https://dc.lft.to/lastmile_qr_scan", "android": "https://dc.lft.to/lastmile_qr_scan"}, "fusion_lon": 0.0, "type": "electric_scooter", "bike_id": "6adf1e0b3a5e547e124c30dfdfe47702", "name": "6adf1e0b3a5e547e124c30dfdfe47702"}, {"lon": -77.0393385, "is_disabled": 0, "lat": 38.926284, "fusion_lat": 0.0, "is_reserved": 0, "rental_uris": {"ios": "https://dc.lft.to/lastmile_qr_scan", "android": "https://dc.lft.to/lastmile_qr_scan"}, "fusion_lon": 0.0, "type": "electric_scooter", "bike_id": "d7326018ae195e5af52eab48b7715df3", "name": "d7326018ae195e5af52eab48b7715df3"}, {"lon": -77.02778566666667, "is_disabled": 0, "lat": 38.92772566666667, "fusion_lat": 0.0, "is_reserved": 0, "rental_uris": {"ios": "https://dc.lft.to/lastmile_qr_scan", "android": "https://dc.lft.to/lastmile_qr_scan"}, "fusion_lon": 0.0, "type": "electric_scooter", "bike_id": "f3ab3d2079724bd755c20368d88362ea", "name": "f3ab3d2079724bd755c20368d88362ea"}, {"lon": -76.99490966666667, "is_disabled": 0, "lat": 38.883394333333335, "fusion_lat": 0.0, "is_reserved": 0, "rental_uris": {"ios": "https://dc.lft.to/lastmile_qr_scan", "android": "https://dc.lft.to/lastmile_qr_scan"}, "fusion_lon": 0.0, "type": "electric_scooter", "bike_id": "745ea0140bc8a79c2b3b2d28b3508f49", "name": "745ea0140bc8a79c2b3b2d28b3508f49"}, {"lon": -77.00796616666666, "is_disabled": 0, "lat": 38.94915783333333, "fusion_lat": 0.0, "is_reserved": 0, "rental_uris": {"ios": "https://dc.lft.to/lastmile_qr_scan", "android": "https://dc.lft.to/lastmile_qr_scan"}, "fusion_lon": 0.0, "type": "electric_bike", "bike_id": "0646cdf969308cc86bfacc4c9ce4b5fa", "name": "0646cdf969308cc86bfacc4c9ce4b5fa"}, {"lon": -77.04192516666667, "is_disabled": 0, "lat": 38.9208385, "fusion_lat": 0.0, "is_reserved": 0, "rental_uris": {"ios": "https://dc.lft.to/lastmile_qr_scan", "android": "https://dc.lft.to/lastmile_qr_scan"}, "fusion_lon": 0.0, "type": "electric_scooter", "bike_id": "d5b0c432b16afe2e9ae647dfc3afb469", "name": "d5b0c432b16afe2e9ae647dfc3afb469"}, {"lon": -76.96528983333333, "is_disabled": 0, "lat": 38.876219, "fusion_lat": 0.0, "is_reserved": 0, "rental_uris": {"ios": "https://dc.lft.to/lastmile_qr_scan", "android": "https://dc.lft.to/lastmile_qr_scan"}, "fusion_lon": 0.0, "type": "electric_scooter", "bike_id": "afbb2308183314f73d0c315dbe571aeb", "name": "afbb2308183314f73d0c315dbe571aeb"}, {"lon": -77.02604583333333, "is_disabled": 0, "lat": 38.901112166666664, "fusion_lat": 0.0, "is_reserved": 0, "rental_uris": {"ios": "https://dc.lft.to/lastmile_qr_scan", "android": "https://dc.lft.to/lastmile_qr_scan"}, "fusion_lon": 0.0, "type": "electric_bike", "bike_id": "eecd30a19d0dc35df5d08427dd3c7def", "name": "eecd30a19d0dc35df5d08427dd3c7def"}, {"lon": -77.03566166666667, "is_disabled": 0, "lat": 38.903623333333336, "fusion_lat": 0.0, "is_reserved": 0, "rental_uris": {"ios": "https://dc.lft.to/lastmile_qr_scan", "android": "https://dc.lft.to/lastmile_qr_scan"}, "fusion_lon": 0.0, "type": "electric_scooter", "bike_id": "7a73f7a51fa1b3b017414b55d01ad342", "name": "7a73f7a51fa1b3b017414b55d01ad342"}, {"lon": -77.0208525, "is_disabled": 0, "lat": 38.88188016666667, "fusion_lat": 0.0, "is_reserved": 0, "rental_uris": {"ios": "https://dc.lft.to/lastmile_qr_scan", "android": "https://dc.lft.to/lastmile_qr_scan"}, "fusion_lon": 0.0, "type": "electric_scooter", "bike_id": "6f7e64e4e1fcc86faee83edf3f9a4785", "name": "6f7e64e4e1fcc86faee83edf3f9a4785"}, {"lon": -76.98823066666667, "is_disabled": 0, "lat": 38.900720166666666, "fusion_lat": 0.0, "is_reserved": 0, "rental_uris": {"ios": "https://dc.lft.to/lastmile_qr_scan", "android": "https://dc.lft.to/lastmile_qr_scan"}, "fusion_lon": 0.0, "type": "electric_scooter", "bike_id": "ab737ea8baee8235e85ec5beb4c7bfdd", "name": "ab737ea8baee8235e85ec5beb4c7bfdd"}, {"lon": -77.044972, "is_disabled": 0, "lat": 38.903883, "fusion_lat": 0.0, "is_reserved": 0, "rental_uris": {"ios": "https://dc.lft.to/lastmile_qr_scan", "android": "https://dc.lft.to/lastmile_qr_scan"}, "fusion_lon": 0.0, "type": "electric_scooter", "bike_id": "2e224674ad84ee4c8007ada4d315f1e5", "name": "2e224674ad84ee4c8007ada4d315f1e5"}, {"lon": -76.9860505, "is_disabled": 0, "lat": 38.90017116666667, "fusion_lat": 0.0, "is_reserved": 0, "rental_uris": {"ios": "https://dc.lft.to/lastmile_qr_scan", "android": "https://dc.lft.to/lastmile_qr_scan"}, "fusion_lon": 0.0, "type": "electric_scooter", "bike_id": "667731729fd30348e7bccf691764bbc7", "name": "667731729fd30348e7bccf691764bbc7"}, {"lon": -76.94644816666667, "is_disabled": 0, "lat": 38.898609, "fusion_lat": 0.0, "is_reserved": 0, "rental_uris": {"ios": "https://dc.lft.to/lastmile_qr_scan", "android": "https://dc.lft.to/lastmile_qr_scan"}, "fusion_lon": 0.0, "type": "electric_scooter", "bike_id": "c082ebff036fe1a2ac880cbec1638abe", "name": "c082ebff036fe1a2ac880cbec1638abe"}, {"lon": -76.9702765, "is_disabled": 0, "lat": 38.87359416666666, "fusion_lat": 0.0, "is_reserved": 0, "rental_uris": {"ios": "https://dc.lft.to/lastmile_qr_scan", "android": "https://dc.lft.to/lastmile_qr_scan"}, "fusion_lon": 0.0, "type": "electric_scooter", "bike_id": "8ffd26330d8724038bc6481fba1d4ec4", "name": "8ffd26330d8724038bc6481fba1d4ec4"}, {"lon": -77.04943133333333, "is_disabled": 0, "lat": 38.918228, "fusion_lat": 0.0, "is_reserved": 0, "rental_uris": {"ios": "https://dc.lft.to/lastmile_qr_scan", "android": "https://dc.lft.to/lastmile_qr_scan"}, "fusion_lon": 0.0, "type": "electric_scooter", "bike_id": "fccb7ddab2a0f055d04758e709126081", "name": "fccb7ddab2a0f055d04758e709126081"}, {"lon": -77.046856, "is_disabled": 0, "lat": 38.897470166666665, "fusion_lat": 0.0, "is_reserved": 0, "rental_uris": {"ios": "https://dc.lft.to/lastmile_qr_scan", "android": "https://dc.lft.to/lastmile_qr_scan"}, "fusion_lon": 0.0, "type": "electric_scooter", "bike_id": "5d202d7885ea290579d9f6a5280a14ce", "name": "5d202d7885ea290579d9f6a5280a14ce"}, {"lon": -76.96540916666666, "is_disabled": 0, "lat": 38.918485833333335, "fusion_lat": 0.0, "is_reserved": 0, "rental_uris": {"ios": "https://dc.lft.to/lastmile_qr_scan", "android": "https://dc.lft.to/lastmile_qr_scan"}, "fusion_lon": 0.0, "type": "electric_scooter", "bike_id": "8d245130e6cfa22dee182058924de8a1", "name": "8d245130e6cfa22dee182058924de8a1"}, {"lon": -77.0229155, "is_disabled": 0, "lat": 38.89511266666667, "fusion_lat": 0.0, "is_reserved": 0, "rental_uris": {"ios": "https://dc.lft.to/lastmile_qr_scan", "android": "https://dc.lft.to/lastmile_qr_scan"}, "fusion_lon": 0.0, "type": "electric_scooter", "bike_id": "3a51923792adeb926100a5b91cd38b2f", "name": "3a51923792adeb926100a5b91cd38b2f"}, {"lon": -77.00500983333333, "is_disabled": 0, "lat": 38.87471683333333, "fusion_lat": 0.0, "is_reserved": 0, "rental_uris": {"ios": "https://dc.lft.to/lastmile_qr_scan", "android": "https://dc.lft.to/lastmile_qr_scan"}, "fusion_lon": 0.0, "type": "electric_scooter", "bike_id": "49421d89b72c2fc8aaa47a7bbc900041", "name": "49421d89b72c2fc8aaa47a7bbc900041"}, {"lon": -77.01535333333334, "is_disabled": 0, "lat": 38.887404333333336, "fusion_lat": 0.0, "is_reserved": 0, "rental_uris": {"ios": "https://dc.lft.to/lastmile_qr_scan", "android": "https://dc.lft.to/lastmile_qr_scan"}, "fusion_lon": 0.0, "type": "electric_scooter", "bike_id": "8d01557e3baf7e2355653a64fa7cb438", "name": "8d01557e3baf7e2355653a64fa7cb438"}, {"lon": -77.02411183333334, "is_disabled": 0, "lat": 38.914013, "fusion_lat": 0.0, "is_reserved": 0, "rental_uris": {"ios": "https://dc.lft.to/lastmile_qr_scan", "android": "https://dc.lft.to/lastmile_qr_scan"}, "fusion_lon": 0.0, "type": "electric_scooter", "bike_id": "6e24482718c6261ad627959540909dd9", "name": "6e24482718c6261ad627959540909dd9"}, {"lon": -77.0450685, "is_disabled": 0, "lat": 38.915175166666664, "fusion_lat": 0.0, "is_reserved": 0, "rental_uris": {"ios": "https://dc.lft.to/lastmile_qr_scan", "android": "https://dc.lft.to/lastmile_qr_scan"}, "fusion_lon": 0.0, "type": "electric_scooter", "bike_id": "bd34c89933971519845771611b0f56d2", "name": "bd34c89933971519845771611b0f56d2"}, {"lon": -77.0807015, "is_disabled": 0, "lat": 39.05253183333333, "fusion_lat": 0.0, "is_reserved": 0, "rental_uris": {"ios": "https://dc.lft.to/lastmile_qr_scan", "android": "https://dc.lft.to/lastmile_qr_scan"}, "fusion_lon": 0.0, "type": "electric_bike", "bike_id": "abc9563d3028d6d9c3718fa39855aecd", "name": "abc9563d3028d6d9c3718fa39855aecd"}, {"lon": -77.0383035, "is_disabled": 0, "lat": 38.90779583333333, "fusion_lat": 0.0, "is_reserved": 0, "rental_uris": {"ios": "https://dc.lft.to/lastmile_qr_scan", "android": "https://dc.lft.to/lastmile_qr_scan"}, "fusion_lon": 0.0, "type": "electric_scooter", "bike_id": "cf471b7b39040d31dcddcefad6e51cd4", "name": "cf471b7b39040d31dcddcefad6e51cd4"}, {"lon": -77.02055233333333, "is_disabled": 0, "lat": 38.933454166666664, "fusion_lat": 0.0, "is_reserved": 0, "rental_uris": {"ios": "https://dc.lft.to/lastmile_qr_scan", "android": "https://dc.lft.to/lastmile_qr_scan"}, "fusion_lon": 0.0, "type": "electric_scooter", "bike_id": "885e4a7af9236b7fd695638cd86ce151", "name": "885e4a7af9236b7fd695638cd86ce151"}, {"lon": -77.03425283333333, "is_disabled": 0, "lat": 38.904458, "fusion_lat": 0.0, "is_reserved": 0, "rental_uris": {"ios": "https://dc.lft.to/lastmile_qr_scan", "android": "https://dc.lft.to/lastmile_qr_scan"}, "fusion_lon": 0.0, "type": "electric_scooter", "bike_id": "7ee1678f1337094629181e14fd473631", "name": "7ee1678f1337094629181e14fd473631"}, {"lon": -77.043529, "is_disabled": 0, "lat": 38.90499233333333, "fusion_lat": 0.0, "is_reserved": 0, "rental_uris": {"ios": "https://dc.lft.to/lastmile_qr_scan", "android": "https://dc.lft.to/lastmile_qr_scan"}, "fusion_lon": 0.0, "type": "electric_scooter", "bike_id": "941f5ba829e7151632716df848596763", "name": "941f5ba829e7151632716df848596763"}, {"lon": -76.95783666666667, "is_disabled": 0, "lat": 38.868897833333335, "fusion_lat": 0.0, "is_reserved": 0, "rental_uris": {"ios": "https://dc.lft.to/lastmile_qr_scan", "android": "https://dc.lft.to/lastmile_qr_scan"}, "fusion_lon": 0.0, "type": "electric_bike", "bike_id": "1d7aaf33d41abb55d610da816ac76635", "name": "1d7aaf33d41abb55d610da816ac76635"}, {"lon": -77.00599416666667, "is_disabled": 0, "lat": 38.87579266666667, "fusion_lat": 0.0, "is_reserved": 0, "rental_uris": {"ios": "https://dc.lft.to/lastmile_qr_scan", "android": "https://dc.lft.to/lastmile_qr_scan"}, "fusion_lon": 0.0, "type": "electric_scooter", "bike_id": "d070df5d504a2d5652f504247ebba321", "name": "d070df5d504a2d5652f504247ebba321"}, {"lon": -77.07191266666666, "is_disabled": 0, "lat": 38.920692833333334, "fusion_lat": 0.0, "is_reserved": 0, "rental_uris": {"ios": "https://dc.lft.to/lastmile_qr_scan", "android": "https://dc.lft.to/lastmile_qr_scan"}, "fusion_lon": 0.0, "type": "electric_scooter", "bike_id": "ea854d4daa37645d324e045cedcbfcc3", "name": "ea854d4daa37645d324e045cedcbfcc3"}, {"lon": -77.02011566666667, "is_disabled": 0, "lat": 38.924178, "fusion_lat": 0.0, "is_reserved": 0, "rental_uris": {"ios": "https://dc.lft.to/lastmile_qr_scan", "android": "https://dc.lft.to/lastmile_qr_scan"}, "fusion_lon": 0.0, "type": "electric_scooter", "bike_id": "dd77962a0319c5b5ed151dd579ff1f53", "name": "dd77962a0319c5b5ed151dd579ff1f53"}, {"lon": -77.05154, "is_disabled": 0, "lat": 38.92380466666667, "fusion_lat": 0.0, "is_reserved": 0, "rental_uris": {"ios": "https://dc.lft.to/lastmile_qr_scan", "android": "https://dc.lft.to/lastmile_qr_scan"}, "fusion_lon": 0.0, "type": "electric_scooter", "bike_id": "9962ea0e79fb667b6da08ff86f94dc22", "name": "9962ea0e79fb667b6da08ff86f94dc22"}, {"lon": -77.011587, "is_disabled": 0, "lat": 38.95638233333333, "fusion_lat": 0.0, "is_reserved": 0, "rental_uris": {"ios": "https://dc.lft.to/lastmile_qr_scan", "android": "https://dc.lft.to/lastmile_qr_scan"}, "fusion_lon": 0.0, "type": "electric_scooter", "bike_id": "6cea3b6d76656e79792f75e7f06a2335", "name": "6cea3b6d76656e79792f75e7f06a2335"}, {"lon": -77.01149233333334, "is_disabled": 0, "lat": 38.92963683333333, "fusion_lat": 0.0, "is_reserved": 0, "rental_uris": {"ios": "https://dc.lft.to/lastmile_qr_scan", "android": "https://dc.lft.to/lastmile_qr_scan"}, "fusion_lon": 0.0, "type": "electric_scooter", "bike_id": "fc6d1054548fe9efa91df2d93e9fa7c8", "name": "fc6d1054548fe9efa91df2d93e9fa7c8"}, {"lon": -77.01015883333334, "is_disabled": 0, "lat": 38.956573166666665, "fusion_lat": 0.0, "is_reserved": 0, "rental_uris": {"ios": "https://dc.lft.to/lastmile_qr_scan", "android": "https://dc.lft.to/lastmile_qr_scan"}, "fusion_lon": 0.0, "type": "electric_scooter", "bike_id": "9c75fc95a5a856d7df26be61bbfab4f6", "name": "9c75fc95a5a856d7df26be61bbfab4f6"}, {"lon": -77.0317925, "is_disabled": 0, "lat": 38.91324733333333, "fusion_lat": 0.0, "is_reserved": 0, "rental_uris": {"ios": "https://dc.lft.to/lastmile_qr_scan", "android": "https://dc.lft.to/lastmile_qr_scan"}, "fusion_lon": 0.0, "type": "electric_scooter", "bike_id": "f286b0404a1637c3c0474da88262abd3", "name": "f286b0404a1637c3c0474da88262abd3"}, {"lon": -77.02118566666667, "is_disabled": 0, "lat": 38.91741533333333, "fusion_lat": 0.0, "is_reserved": 0, "rental_uris": {"ios": "https://dc.lft.to/lastmile_qr_scan", "android": "https://dc.lft.to/lastmile_qr_scan"}, "fusion_lon": 0.0, "type": "electric_scooter", "bike_id": "873cc2abfc6d0d020319c532e46a4332", "name": "873cc2abfc6d0d020319c532e46a4332"}, {"lon": -77.00121183333333, "is_disabled": 0, "lat": 38.886590166666664, "fusion_lat": 0.0, "is_reserved": 0, "rental_uris": {"ios": "https://dc.lft.to/lastmile_qr_scan", "android": "https://dc.lft.to/lastmile_qr_scan"}, "fusion_lon": 0.0, "type": "electric_scooter", "bike_id": "3ac3be4ce4dbe9b8c2ce3a82157fa6e3", "name": "3ac3be4ce4dbe9b8c2ce3a82157fa6e3"}, {"lon": -77.0231655, "is_disabled": 0, "lat": 38.909165, "fusion_lat": 0.0, "is_reserved": 0, "rental_uris": {"ios": "https://dc.lft.to/lastmile_qr_scan", "android": "https://dc.lft.to/lastmile_qr_scan"}, "fusion_lon": 0.0, "type": "electric_scooter", "bike_id": "f6f422a06487ced379a6b1f76ce70914", "name": "f6f422a06487ced379a6b1f76ce70914"}, {"lon": -77.0211015, "is_disabled": 0, "lat": 38.902193833333335, "fusion_lat": 0.0, "is_reserved": 0, "rental_uris": {"ios": "https://dc.lft.to/lastmile_qr_scan", "android": "https://dc.lft.to/lastmile_qr_scan"}, "fusion_lon": 0.0, "type": "electric_scooter", "bike_id": "6577420a07e3bb9709df1ff6303bf9bf", "name": "6577420a07e3bb9709df1ff6303bf9bf"}, {"lon": -77.0435365, "is_disabled": 0, "lat": 38.90828883333333, "fusion_lat": 0.0, "is_reserved": 0, "rental_uris": {"ios": "https://dc.lft.to/lastmile_qr_scan", "android": "https://dc.lft.to/lastmile_qr_scan"}, "fusion_lon": 0.0, "type": "electric_scooter", "bike_id": "b60c3bc32945bcb773910ea2123bf5d4", "name": "b60c3bc32945bcb773910ea2123bf5d4"}, {"lon": -77.017803, "is_disabled": 0, "lat": 38.91505683333333, "fusion_lat": 0.0, "is_reserved": 0, "rental_uris": {"ios": "https://dc.lft.to/lastmile_qr_scan", "android": "https://dc.lft.to/lastmile_qr_scan"}, "fusion_lon": 0.0, "type": "electric_scooter", "bike_id": "c7b3217fc761e65dc1d88d8320fcd4ec", "name": "c7b3217fc761e65dc1d88d8320fcd4ec"}, {"lon": -76.96542466666666, "is_disabled": 0, "lat": 38.87488716666667, "fusion_lat": 0.0, "is_reserved": 0, "rental_uris": {"ios": "https://dc.lft.to/lastmile_qr_scan", "android": "https://dc.lft.to/lastmile_qr_scan"}, "fusion_lon": 0.0, "type": "electric_bike", "bike_id": "327e262269445303682d5d56a2039932", "name": "327e262269445303682d5d56a2039932"}, {"lon": -77.063089, "is_disabled": 0, "lat": 38.798569, "fusion_lat": 0.0, "is_reserved": 0, "rental_uris": {"ios": "https://dc.lft.to/lastmile_qr_scan", "android": "https://dc.lft.to/lastmile_qr_scan"}, "fusion_lon": 0.0, "type": "electric_bike", "bike_id": "7f70fbffcb33d145560aa10113f62909", "name": "7f70fbffcb33d145560aa10113f62909"}, {"lon": -77.054372, "is_disabled": 0, "lat": 38.896052, "fusion_lat": 0.0, "is_reserved": 0, "rental_uris": {"ios": "https://dc.lft.to/lastmile_qr_scan", "android": "https://dc.lft.to/lastmile_qr_scan"}, "fusion_lon": 0.0, "type": "electric_scooter", "bike_id": "c6b3419df8886f1fb26c2dd6b4088eae", "name": "c6b3419df8886f1fb26c2dd6b4088eae"}, {"lon": -77.00333766666667, "is_disabled": 0, "lat": 38.893601333333336, "fusion_lat": 0.0, "is_reserved": 0, "rental_uris": {"ios": "https://dc.lft.to/lastmile_qr_scan", "android": "https://dc.lft.to/lastmile_qr_scan"}, "fusion_lon": 0.0, "type": "electric_scooter", "bike_id": "9bfa003fd5b3ce6e8b0e143954b8e61c", "name": "9bfa003fd5b3ce6e8b0e143954b8e61c"}, {"lon": -77.02293783333333, "is_disabled": 0, "lat": 38.895184, "fusion_lat": 0.0, "is_reserved": 0, "rental_uris": {"ios": "https://dc.lft.to/lastmile_qr_scan", "android": "https://dc.lft.to/lastmile_qr_scan"}, "fusion_lon": 0.0, "type": "electric_scooter", "bike_id": "5462b2b9ee92ffc1176db144733db71c", "name": "5462b2b9ee92ffc1176db144733db71c"}, {"lon": -76.930145, "is_disabled": 0, "lat": 38.901666666666664, "fusion_lat": 0.0, "is_reserved": 0, "rental_uris": {"ios": "https://dc.lft.to/lastmile_qr_scan", "android": "https://dc.lft.to/lastmile_qr_scan"}, "fusion_lon": 0.0, "type": "electric_scooter", "bike_id": "96b4457deec4be6c4aecb46eda49801e", "name": "96b4457deec4be6c4aecb46eda49801e"}, {"lon": -77.024563, "is_disabled": 0, "lat": 38.94365333333333, "fusion_lat": 0.0, "is_reserved": 0, "rental_uris": {"ios": "https://dc.lft.to/lastmile_qr_scan", "android": "https://dc.lft.to/lastmile_qr_scan"}, "fusion_lon": 0.0, "type": "electric_scooter", "bike_id": "b73d7b00eec8b21c3e2dd7c313f158cb", "name": "b73d7b00eec8b21c3e2dd7c313f158cb"}, {"lon": -76.97025216666667, "is_disabled": 0, "lat": 38.87361283333333, "fusion_lat": 0.0, "is_reserved": 0, "rental_uris": {"ios": "https://dc.lft.to/lastmile_qr_scan", "android": "https://dc.lft.to/lastmile_qr_scan"}, "fusion_lon": 0.0, "type": "electric_scooter", "bike_id": "f50b59082892a9dbd9045fc8b4748bdb", "name": "f50b59082892a9dbd9045fc8b4748bdb"}, {"lon": -77.00237533333333, "is_disabled": 0, "lat": 38.875028, "fusion_lat": 0.0, "is_reserved": 0, "rental_uris": {"ios": "https://dc.lft.to/lastmile_qr_scan", "android": "https://dc.lft.to/lastmile_qr_scan"}, "fusion_lon": 0.0, "type": "electric_scooter", "bike_id": "23404c907b20db0c271ccbd53b7fbf11", "name": "23404c907b20db0c271ccbd53b7fbf11"}, {"lon": -76.96060683333333, "is_disabled": 0, "lat": 38.883248333333334, "fusion_lat": 0.0, "is_reserved": 0, "rental_uris": {"ios": "https://dc.lft.to/lastmile_qr_scan", "android": "https://dc.lft.to/lastmile_qr_scan"}, "fusion_lon": 0.0, "type": "electric_bike", "bike_id": "ff138cc733d63971690f3dec30070455", "name": "ff138cc733d63971690f3dec30070455"}, {"lon": -77.0154665, "is_disabled": 0, "lat": 38.8858745, "fusion_lat": 0.0, "is_reserved": 0, "rental_uris": {"ios": "https://dc.lft.to/lastmile_qr_scan", "android": "https://dc.lft.to/lastmile_qr_scan"}, "fusion_lon": 0.0, "type": "electric_scooter", "bike_id": "e584c23d91cf5da55bef1826b0ca69fb", "name": "e584c23d91cf5da55bef1826b0ca69fb"}, {"lon": -77.13929733333333, "is_disabled": 0, "lat": 38.872998, "fusion_lat": 0.0, "is_reserved": 0, "rental_uris": {"ios": "https://dc.lft.to/lastmile_qr_scan", "android": "https://dc.lft.to/lastmile_qr_scan"}, "fusion_lon": 0.0, "type": "electric_bike", "bike_id": "958fffdcff6250fcf7fb9d85da39c0c5", "name": "958fffdcff6250fcf7fb9d85da39c0c5"}, {"lon": -76.97949566666666, "is_disabled": 0, "lat": 38.9043585, "fusion_lat": 0.0, "is_reserved": 0, "rental_uris": {"ios": "https://dc.lft.to/lastmile_qr_scan", "android": "https://dc.lft.to/lastmile_qr_scan"}, "fusion_lon": 0.0, "type": "electric_scooter", "bike_id": "9d59aba44e9d4b3f75e0d16025598148", "name": "9d59aba44e9d4b3f75e0d16025598148"}, {"lon": -76.99413966666667, "is_disabled": 0, "lat": 38.877859, "fusion_lat": 0.0, "is_reserved": 0, "rental_uris": {"ios": "https://dc.lft.to/lastmile_qr_scan", "android": "https://dc.lft.to/lastmile_qr_scan"}, "fusion_lon": 0.0, "type": "electric_scooter", "bike_id": "46c68372ff395103331ac935aac5a385", "name": "46c68372ff395103331ac935aac5a385"}, {"lon": -77.0245005, "is_disabled": 0, "lat": 38.91834083333333, "fusion_lat": 0.0, "is_reserved": 0, "rental_uris": {"ios": "https://dc.lft.to/lastmile_qr_scan", "android": "https://dc.lft.to/lastmile_qr_scan"}, "fusion_lon": 0.0, "type": "electric_scooter", "bike_id": "4cdce2712e2792147046a142728f76a7", "name": "4cdce2712e2792147046a142728f76a7"}, {"lon": -77.0435415, "is_disabled": 0, "lat": 38.90399933333333, "fusion_lat": 0.0, "is_reserved": 0, "rental_uris": {"ios": "https://dc.lft.to/lastmile_qr_scan", "android": "https://dc.lft.to/lastmile_qr_scan"}, "fusion_lon": 0.0, "type": "electric_scooter", "bike_id": "7ae21299b312a6838ddfbf5c50897f50", "name": "7ae21299b312a6838ddfbf5c50897f50"}, {"lon": -77.00174766666666, "is_disabled": 0, "lat": 38.844711, "fusion_lat": 0.0, "is_reserved": 0, "rental_uris": {"ios": "https://dc.lft.to/lastmile_qr_scan", "android": "https://dc.lft.to/lastmile_qr_scan"}, "fusion_lon": 0.0, "type": "electric_bike", "bike_id": "395442f7bd4ed797438e404084f7afb2", "name": "395442f7bd4ed797438e404084f7afb2"}, {"lon": -77.0384665, "is_disabled": 0, "lat": 38.921785666666665, "fusion_lat": 0.0, "is_reserved": 0, "rental_uris": {"ios": "https://dc.lft.to/lastmile_qr_scan", "android": "https://dc.lft.to/lastmile_qr_scan"}, "fusion_lon": 0.0, "type": "electric_scooter", "bike_id": "c88218a52d801e8cded9c83847821709", "name": "c88218a52d801e8cded9c83847821709"}, {"lon": -77.020352, "is_disabled": 0, "lat": 38.92468516666667, "fusion_lat": 0.0, "is_reserved": 0, "rental_uris": {"ios": "https://dc.lft.to/lastmile_qr_scan", "android": "https://dc.lft.to/lastmile_qr_scan"}, "fusion_lon": 0.0, "type": "electric_scooter", "bike_id": "203cfe32dbc3ad333ee8bead3fcf7c36", "name": "203cfe32dbc3ad333ee8bead3fcf7c36"}, {"lon": -77.0296545, "is_disabled": 0, "lat": 38.927509666666666, "fusion_lat": 0.0, "is_reserved": 0, "rental_uris": {"ios": "https://dc.lft.to/lastmile_qr_scan", "android": "https://dc.lft.to/lastmile_qr_scan"}, "fusion_lon": 0.0, "type": "electric_scooter", "bike_id": "7cf426d58eaec1cbf7d90cc0aaea8478", "name": "7cf426d58eaec1cbf7d90cc0aaea8478"}, {"lon": -77.02556866666667, "is_disabled": 0, "lat": 38.919187666666666, "fusion_lat": 0.0, "is_reserved": 0, "rental_uris": {"ios": "https://dc.lft.to/lastmile_qr_scan", "android": "https://dc.lft.to/lastmile_qr_scan"}, "fusion_lon": 0.0, "type": "electric_scooter", "bike_id": "844568e50635da58d3e413c9ba33a87d", "name": "844568e50635da58d3e413c9ba33a87d"}, {"lon": -77.04189466666666, "is_disabled": 0, "lat": 38.90573, "fusion_lat": 0.0, "is_reserved": 0, "rental_uris": {"ios": "https://dc.lft.to/lastmile_qr_scan", "android": "https://dc.lft.to/lastmile_qr_scan"}, "fusion_lon": 0.0, "type": "electric_scooter", "bike_id": "f53c9da9028bcda5226eae8b7c67c334", "name": "f53c9da9028bcda5226eae8b7c67c334"}, {"lon": -77.04483183333333, "is_disabled": 0, "lat": 38.931308333333334, "fusion_lat": 0.0, "is_reserved": 0, "rental_uris": {"ios": "https://dc.lft.to/lastmile_qr_scan", "android": "https://dc.lft.to/lastmile_qr_scan"}, "fusion_lon": 0.0, "type": "electric_scooter", "bike_id": "1228e7d95238bf9c78b31458efb34fd4", "name": "1228e7d95238bf9c78b31458efb34fd4"}, {"lon": -77.04346733333334, "is_disabled": 0, "lat": 38.921910833333335, "fusion_lat": 0.0, "is_reserved": 0, "rental_uris": {"ios": "https://dc.lft.to/lastmile_qr_scan", "android": "https://dc.lft.to/lastmile_qr_scan"}, "fusion_lon": 0.0, "type": "electric_scooter", "bike_id": "583fa5119712256a54504997626e1d32", "name": "583fa5119712256a54504997626e1d32"}, {"lon": -76.93384533333334, "is_disabled": 0, "lat": 38.899225, "fusion_lat": 0.0, "is_reserved": 0, "rental_uris": {"ios": "https://dc.lft.to/lastmile_qr_scan", "android": "https://dc.lft.to/lastmile_qr_scan"}, "fusion_lon": 0.0, "type": "electric_scooter", "bike_id": "f3265c7d3b822f0bed2be3b1f3eccb02", "name": "f3265c7d3b822f0bed2be3b1f3eccb02"}, {"lon": -77.0315175, "is_disabled": 0, "lat": 38.915657833333334, "fusion_lat": 0.0, "is_reserved": 0, "rental_uris": {"ios": "https://dc.lft.to/lastmile_qr_scan", "android": "https://dc.lft.to/lastmile_qr_scan"}, "fusion_lon": 0.0, "type": "electric_scooter", "bike_id": "e3b8c8a821369f9a27241c345ab7abc4", "name": "e3b8c8a821369f9a27241c345ab7abc4"}, {"lon": -77.0467705, "is_disabled": 0, "lat": 38.8946185, "fusion_lat": 0.0, "is_reserved": 0, "rental_uris": {"ios": "https://dc.lft.to/lastmile_qr_scan", "android": "https://dc.lft.to/lastmile_qr_scan"}, "fusion_lon": 0.0, "type": "electric_scooter", "bike_id": "da78dba733158d0ba124f0fbfcea1dc9", "name": "da78dba733158d0ba124f0fbfcea1dc9"}, {"lon": -77.0324205, "is_disabled": 0, "lat": 38.91714566666667, "fusion_lat": 0.0, "is_reserved": 0, "rental_uris": {"ios": "https://dc.lft.to/lastmile_qr_scan", "android": "https://dc.lft.to/lastmile_qr_scan"}, "fusion_lon": 0.0, "type": "electric_scooter", "bike_id": "161d18cabb40c87d76d9f69a71d9a097", "name": "161d18cabb40c87d76d9f69a71d9a097"}, {"lon": -77.0855465, "is_disabled": 0, "lat": 38.93747483333333, "fusion_lat": 0.0, "is_reserved": 0, "rental_uris": {"ios": "https://dc.lft.to/lastmile_qr_scan", "android": "https://dc.lft.to/lastmile_qr_scan"}, "fusion_lon": 0.0, "type": "electric_scooter", "bike_id": "81fcd93ed0c1b5c27960068a08733d2d", "name": "81fcd93ed0c1b5c27960068a08733d2d"}, {"lon": -77.01089983333334, "is_disabled": 0, "lat": 38.91746283333333, "fusion_lat": 0.0, "is_reserved": 0, "rental_uris": {"ios": "https://dc.lft.to/lastmile_qr_scan", "android": "https://dc.lft.to/lastmile_qr_scan"}, "fusion_lon": 0.0, "type": "electric_scooter", "bike_id": "8ae8db94d0df746b78a4b405635e993f", "name": "8ae8db94d0df746b78a4b405635e993f"}, {"lon": -77.02484833333334, "is_disabled": 0, "lat": 38.918803, "fusion_lat": 0.0, "is_reserved": 0, "rental_uris": {"ios": "https://dc.lft.to/lastmile_qr_scan", "android": "https://dc.lft.to/lastmile_qr_scan"}, "fusion_lon": 0.0, "type": "electric_scooter", "bike_id": "74dd119799aa33289696a387b09e674f", "name": "74dd119799aa33289696a387b09e674f"}, {"lon": -77.023855, "is_disabled": 0, "lat": 38.912920166666666, "fusion_lat": 0.0, "is_reserved": 0, "rental_uris": {"ios": "https://dc.lft.to/lastmile_qr_scan", "android": "https://dc.lft.to/lastmile_qr_scan"}, "fusion_lon": 0.0, "type": "electric_scooter", "bike_id": "5621aa32611af1ad65e14b26fd274efb", "name": "5621aa32611af1ad65e14b26fd274efb"}, {"lon": -77.01538933333333, "is_disabled": 0, "lat": 38.88741566666667, "fusion_lat": 0.0, "is_reserved": 0, "rental_uris": {"ios": "https://dc.lft.to/lastmile_qr_scan", "android": "https://dc.lft.to/lastmile_qr_scan"}, "fusion_lon": 0.0, "type": "electric_scooter", "bike_id": "c3972e2d899160fb9bc9c7d7fed464d5", "name": "c3972e2d899160fb9bc9c7d7fed464d5"}, {"lon": -77.03645616666667, "is_disabled": 0, "lat": 38.917366, "fusion_lat": 0.0, "is_reserved": 0, "rental_uris": {"ios": "https://dc.lft.to/lastmile_qr_scan", "android": "https://dc.lft.to/lastmile_qr_scan"}, "fusion_lon": 0.0, "type": "electric_scooter", "bike_id": "5bb1769e3d507664da62e05ee083cd59", "name": "5bb1769e3d507664da62e05ee083cd59"}, {"lon": -77.03703083333333, "is_disabled": 0, "lat": 38.90376116666667, "fusion_lat": 0.0, "is_reserved": 0, "rental_uris": {"ios": "https://dc.lft.to/lastmile_qr_scan", "android": "https://dc.lft.to/lastmile_qr_scan"}, "fusion_lon": 0.0, "type": "electric_scooter", "bike_id": "3d0816b5b80da957acffcc72316ac320", "name": "3d0816b5b80da957acffcc72316ac320"}, {"lon": -77.03706666666666, "is_disabled": 0, "lat": 38.90374533333333, "fusion_lat": 0.0, "is_reserved": 0, "rental_uris": {"ios": "https://dc.lft.to/lastmile_qr_scan", "android": "https://dc.lft.to/lastmile_qr_scan"}, "fusion_lon": 0.0, "type": "electric_scooter", "bike_id": "653f49662472c2b1711b159047028d8c", "name": "653f49662472c2b1711b159047028d8c"}, {"lon": -76.97398466666667, "is_disabled": 0, "lat": 38.845287, "fusion_lat": 0.0, "is_reserved": 0, "rental_uris": {"ios": "https://dc.lft.to/lastmile_qr_scan", "android": "https://dc.lft.to/lastmile_qr_scan"}, "fusion_lon": 0.0, "type": "electric_bike", "bike_id": "1f438a6f3421ef7a7db19d7823742274", "name": "1f438a6f3421ef7a7db19d7823742274"}, {"lon": -76.99868316666667, "is_disabled": 0, "lat": 38.9101575, "fusion_lat": 0.0, "is_reserved": 0, "rental_uris": {"ios": "https://dc.lft.to/lastmile_qr_scan", "android": "https://dc.lft.to/lastmile_qr_scan"}, "fusion_lon": 0.0, "type": "electric_scooter", "bike_id": "abf636cad98cbdf911f60281848b1ca7", "name": "abf636cad98cbdf911f60281848b1ca7"}, {"lon": -77.03181683333334, "is_disabled": 0, "lat": 38.908794, "fusion_lat": 0.0, "is_reserved": 0, "rental_uris": {"ios": "https://dc.lft.to/lastmile_qr_scan", "android": "https://dc.lft.to/lastmile_qr_scan"}, "fusion_lon": 0.0, "type": "electric_scooter", "bike_id": "ec5da354226fedd71811a591e07c5a16", "name": "ec5da354226fedd71811a591e07c5a16"}, {"lon": -77.00460666666666, "is_disabled": 0, "lat": 38.876645, "fusion_lat": 0.0, "is_reserved": 0, "rental_uris": {"ios": "https://dc.lft.to/lastmile_qr_scan", "android": "https://dc.lft.to/lastmile_qr_scan"}, "fusion_lon": 0.0, "type": "electric_scooter", "bike_id": "296f7db2e9bc7faf111f0e25e6704161", "name": "296f7db2e9bc7faf111f0e25e6704161"}, {"lon": -77.040418, "is_disabled": 0, "lat": 38.9176485, "fusion_lat": 0.0, "is_reserved": 0, "rental_uris": {"ios": "https://dc.lft.to/lastmile_qr_scan", "android": "https://dc.lft.to/lastmile_qr_scan"}, "fusion_lon": 0.0, "type": "electric_scooter", "bike_id": "aaf809da77342997b96e307a9e021675", "name": "aaf809da77342997b96e307a9e021675"}, {"lon": -77.02685933333333, "is_disabled": 0, "lat": 38.909524166666664, "fusion_lat": 0.0, "is_reserved": 0, "rental_uris": {"ios": "https://dc.lft.to/lastmile_qr_scan", "android": "https://dc.lft.to/lastmile_qr_scan"}, "fusion_lon": 0.0, "type": "electric_scooter", "bike_id": "db785d439bd72a1b5605d46a4be35a91", "name": "db785d439bd72a1b5605d46a4be35a91"}, {"lon": -77.03259133333333, "is_disabled": 0, "lat": 38.909692666666665, "fusion_lat": 0.0, "is_reserved": 0, "rental_uris": {"ios": "https://dc.lft.to/lastmile_qr_scan", "android": "https://dc.lft.to/lastmile_qr_scan"}, "fusion_lon": 0.0, "type": "electric_scooter", "bike_id": "da286522ada07a9f16213a4dce7b85fe", "name": "da286522ada07a9f16213a4dce7b85fe"}, {"lon": -77.05331716666667, "is_disabled": 0, "lat": 38.904884, "fusion_lat": 0.0, "is_reserved": 0, "rental_uris": {"ios": "https://dc.lft.to/lastmile_qr_scan", "android": "https://dc.lft.to/lastmile_qr_scan"}, "fusion_lon": 0.0, "type": "electric_scooter", "bike_id": "151c5e481c33cfa95ebcf750b86efe5b", "name": "151c5e481c33cfa95ebcf750b86efe5b"}, {"lon": -77.00065933333333, "is_disabled": 0, "lat": 38.87689833333334, "fusion_lat": 0.0, "is_reserved": 0, "rental_uris": {"ios": "https://dc.lft.to/lastmile_qr_scan", "android": "https://dc.lft.to/lastmile_qr_scan"}, "fusion_lon": 0.0, "type": "electric_scooter", "bike_id": "938290125b36095107b7fd394c0c4ebc", "name": "938290125b36095107b7fd394c0c4ebc"}, {"lon": -77.03183866666667, "is_disabled": 0, "lat": 38.909820333333336, "fusion_lat": 0.0, "is_reserved": 0, "rental_uris": {"ios": "https://dc.lft.to/lastmile_qr_scan", "android": "https://dc.lft.to/lastmile_qr_scan"}, "fusion_lon": 0.0, "type": "electric_scooter", "bike_id": "a4ce7da8d8ba259690500e3c032d704a", "name": "a4ce7da8d8ba259690500e3c032d704a"}, {"lon": -77.0292605, "is_disabled": 0, "lat": 38.90151183333333, "fusion_lat": 0.0, "is_reserved": 0, "rental_uris": {"ios": "https://dc.lft.to/lastmile_qr_scan", "android": "https://dc.lft.to/lastmile_qr_scan"}, "fusion_lon": 0.0, "type": "electric_scooter", "bike_id": "2ceb2bbffd3f0486ed6ee6fe5e9705cc", "name": "2ceb2bbffd3f0486ed6ee6fe5e9705cc"}, {"lon": -76.95418566666666, "is_disabled": 0, "lat": 38.88411966666666, "fusion_lat": 0.0, "is_reserved": 0, "rental_uris": {"ios": "https://dc.lft.to/lastmile_qr_scan", "android": "https://dc.lft.to/lastmile_qr_scan"}, "fusion_lon": 0.0, "type": "electric_bike", "bike_id": "415b36bd73091cbb31682d7927443c92", "name": "415b36bd73091cbb31682d7927443c92"}, {"lon": -77.02085616666666, "is_disabled": 0, "lat": 38.8850275, "fusion_lat": 0.0, "is_reserved": 0, "rental_uris": {"ios": "https://dc.lft.to/lastmile_qr_scan", "android": "https://dc.lft.to/lastmile_qr_scan"}, "fusion_lon": 0.0, "type": "electric_scooter", "bike_id": "571d0e316a358e4b7689af98e3f98c3e", "name": "571d0e316a358e4b7689af98e3f98c3e"}, {"lon": -77.003396, "is_disabled": 0, "lat": 38.88741733333333, "fusion_lat": 0.0, "is_reserved": 0, "rental_uris": {"ios": "https://dc.lft.to/lastmile_qr_scan", "android": "https://dc.lft.to/lastmile_qr_scan"}, "fusion_lon": 0.0, "type": "electric_scooter", "bike_id": "97440225367093eedcdfe04797859f4d", "name": "97440225367093eedcdfe04797859f4d"}, {"lon": -76.9978895, "is_disabled": 0, "lat": 38.90875916666667, "fusion_lat": 0.0, "is_reserved": 0, "rental_uris": {"ios": "https://dc.lft.to/lastmile_qr_scan", "android": "https://dc.lft.to/lastmile_qr_scan"}, "fusion_lon": 0.0, "type": "electric_scooter", "bike_id": "4825ebcb67535ed81d6ceeb3822b9e73", "name": "4825ebcb67535ed81d6ceeb3822b9e73"}, {"lon": -76.980634, "is_disabled": 0, "lat": 38.90116833333333, "fusion_lat": 0.0, "is_reserved": 0, "rental_uris": {"ios": "https://dc.lft.to/lastmile_qr_scan", "android": "https://dc.lft.to/lastmile_qr_scan"}, "fusion_lon": 0.0, "type": "electric_bike", "bike_id": "f8dc38c29bc954b5da647834d90ce857", "name": "f8dc38c29bc954b5da647834d90ce857"}, {"lon": -77.06189833333333, "is_disabled": 0, "lat": 38.903385, "fusion_lat": 0.0, "is_reserved": 0, "rental_uris": {"ios": "https://dc.lft.to/lastmile_qr_scan", "android": "https://dc.lft.to/lastmile_qr_scan"}, "fusion_lon": 0.0, "type": "electric_scooter", "bike_id": "25372de5a15cfa2c708bb8a9cec97cce", "name": "25372de5a15cfa2c708bb8a9cec97cce"}, {"lon": -77.03710883333333, "is_disabled": 0, "lat": 38.90246033333333, "fusion_lat": 0.0, "is_reserved": 0, "rental_uris": {"ios": "https://dc.lft.to/lastmile_qr_scan", "android": "https://dc.lft.to/lastmile_qr_scan"}, "fusion_lon": 0.0, "type": "electric_scooter", "bike_id": "6ef72c3c3c53c91f51aa3f80490962e1", "name": "6ef72c3c3c53c91f51aa3f80490962e1"}, {"lon": -77.0021925, "is_disabled": 0, "lat": 38.82372383333333, "fusion_lat": 0.0, "is_reserved": 0, "rental_uris": {"ios": "https://dc.lft.to/lastmile_qr_scan", "android": "https://dc.lft.to/lastmile_qr_scan"}, "fusion_lon": 0.0, "type": "electric_bike", "bike_id": "ac46aaa5ca9a4c34ba320e28b0138a80", "name": "ac46aaa5ca9a4c34ba320e28b0138a80"}, {"lon": -77.02145866666666, "is_disabled": 0, "lat": 38.9021345, "fusion_lat": 0.0, "is_reserved": 0, "rental_uris": {"ios": "https://dc.lft.to/lastmile_qr_scan", "android": "https://dc.lft.to/lastmile_qr_scan"}, "fusion_lon": 0.0, "type": "electric_scooter", "bike_id": "690c3562f11ca7ce9e16e5e5a98c241c", "name": "690c3562f11ca7ce9e16e5e5a98c241c"}, {"lon": -77.03360083333334, "is_disabled": 0, "lat": 38.924527499999996, "fusion_lat": 0.0, "is_reserved": 0, "rental_uris": {"ios": "https://dc.lft.to/lastmile_qr_scan", "android": "https://dc.lft.to/lastmile_qr_scan"}, "fusion_lon": 0.0, "type": "electric_scooter", "bike_id": "1f068230b8c2e76a22b2c99885deed0f", "name": "1f068230b8c2e76a22b2c99885deed0f"}, {"lon": -76.99969166666666, "is_disabled": 0, "lat": 38.87513783333333, "fusion_lat": 0.0, "is_reserved": 0, "rental_uris": {"ios": "https://dc.lft.to/lastmile_qr_scan", "android": "https://dc.lft.to/lastmile_qr_scan"}, "fusion_lon": 0.0, "type": "electric_scooter", "bike_id": "b3b0fdecd1c6914a950107c4146bd40a", "name": "b3b0fdecd1c6914a950107c4146bd40a"}, {"lon": -77.02160516666666, "is_disabled": 0, "lat": 38.92602766666667, "fusion_lat": 0.0, "is_reserved": 0, "rental_uris": {"ios": "https://dc.lft.to/lastmile_qr_scan", "android": "https://dc.lft.to/lastmile_qr_scan"}, "fusion_lon": 0.0, "type": "electric_scooter", "bike_id": "a10530fda85d7c8b7a3bc1bcec41cce0", "name": "a10530fda85d7c8b7a3bc1bcec41cce0"}, {"lon": -77.00931833333334, "is_disabled": 0, "lat": 38.919243, "fusion_lat": 0.0, "is_reserved": 0, "rental_uris": {"ios": "https://dc.lft.to/lastmile_qr_scan", "android": "https://dc.lft.to/lastmile_qr_scan"}, "fusion_lon": 0.0, "type": "electric_scooter", "bike_id": "0a007e83f9c0ac171e9ca22c94a888b0", "name": "0a007e83f9c0ac171e9ca22c94a888b0"}, {"lon": -77.118321, "is_disabled": 0, "lat": 38.85938866666667, "fusion_lat": 0.0, "is_reserved": 0, "rental_uris": {"ios": "https://dc.lft.to/lastmile_qr_scan", "android": "https://dc.lft.to/lastmile_qr_scan"}, "fusion_lon": 0.0, "type": "electric_bike", "bike_id": "d2a398112c607477a4b6e091f0b5fc81", "name": "d2a398112c607477a4b6e091f0b5fc81"}, {"lon": -77.04192533333334, "is_disabled": 0, "lat": 38.92054, "fusion_lat": 0.0, "is_reserved": 0, "rental_uris": {"ios": "https://dc.lft.to/lastmile_qr_scan", "android": "https://dc.lft.to/lastmile_qr_scan"}, "fusion_lon": 0.0, "type": "electric_scooter", "bike_id": "da70e4274ae19125f80158f83997c95e", "name": "da70e4274ae19125f80158f83997c95e"}, {"lon": -77.07269166666667, "is_disabled": 0, "lat": 38.911589, "fusion_lat": 0.0, "is_reserved": 0, "rental_uris": {"ios": "https://dc.lft.to/lastmile_qr_scan", "android": "https://dc.lft.to/lastmile_qr_scan"}, "fusion_lon": 0.0, "type": "electric_scooter", "bike_id": "7f5e2608c4034de1388fb028c88824e6", "name": "7f5e2608c4034de1388fb028c88824e6"}, {"lon": -76.9814335, "is_disabled": 0, "lat": 38.897527333333336, "fusion_lat": 0.0, "is_reserved": 0, "rental_uris": {"ios": "https://dc.lft.to/lastmile_qr_scan", "android": "https://dc.lft.to/lastmile_qr_scan"}, "fusion_lon": 0.0, "type": "electric_scooter", "bike_id": "38f1625fc9dc6cd5de7cb0663c5bf59e", "name": "38f1625fc9dc6cd5de7cb0663c5bf59e"}, {"lon": -77.08864616666666, "is_disabled": 0, "lat": 38.91641833333333, "fusion_lat": 0.0, "is_reserved": 0, "rental_uris": {"ios": "https://dc.lft.to/lastmile_qr_scan", "android": "https://dc.lft.to/lastmile_qr_scan"}, "fusion_lon": 0.0, "type": "electric_scooter", "bike_id": "28c099d8da991df1330cb4f74f3bec90", "name": "28c099d8da991df1330cb4f74f3bec90"}, {"lon": -77.02206666666666, "is_disabled": 0, "lat": 38.8961735, "fusion_lat": 0.0, "is_reserved": 0, "rental_uris": {"ios": "https://dc.lft.to/lastmile_qr_scan", "android": "https://dc.lft.to/lastmile_qr_scan"}, "fusion_lon": 0.0, "type": "electric_scooter", "bike_id": "7410ba7bd2981230d11b516a4ef9a1ad", "name": "7410ba7bd2981230d11b516a4ef9a1ad"}, {"lon": -76.95953433333334, "is_disabled": 0, "lat": 38.861916666666666, "fusion_lat": 0.0, "is_reserved": 0, "rental_uris": {"ios": "https://dc.lft.to/lastmile_qr_scan", "android": "https://dc.lft.to/lastmile_qr_scan"}, "fusion_lon": 0.0, "type": "electric_scooter", "bike_id": "a50c5e4e860555ea2ce79178bc356fa3", "name": "a50c5e4e860555ea2ce79178bc356fa3"}, {"lon": -77.04369116666666, "is_disabled": 0, "lat": 38.9059965, "fusion_lat": 0.0, "is_reserved": 0, "rental_uris": {"ios": "https://dc.lft.to/lastmile_qr_scan", "android": "https://dc.lft.to/lastmile_qr_scan"}, "fusion_lon": 0.0, "type": "electric_scooter", "bike_id": "fb44d3ab67be634a8e6f54678cb22e34", "name": "fb44d3ab67be634a8e6f54678cb22e34"}, {"lon": -77.00405766666667, "is_disabled": 0, "lat": 38.921350333333336, "fusion_lat": 0.0, "is_reserved": 0, "rental_uris": {"ios": "https://dc.lft.to/lastmile_qr_scan", "android": "https://dc.lft.to/lastmile_qr_scan"}, "fusion_lon": 0.0, "type": "electric_scooter", "bike_id": "8b0aa18bb433ef742a5b393c73dbec53", "name": "8b0aa18bb433ef742a5b393c73dbec53"}, {"lon": -77.00714883333333, "is_disabled": 0, "lat": 38.925424166666666, "fusion_lat": 0.0, "is_reserved": 0, "rental_uris": {"ios": "https://dc.lft.to/lastmile_qr_scan", "android": "https://dc.lft.to/lastmile_qr_scan"}, "fusion_lon": 0.0, "type": "electric_scooter", "bike_id": "69c83e9c85897415aa385f4c62919c12", "name": "69c83e9c85897415aa385f4c62919c12"}, {"lon": -77.02157766666667, "is_disabled": 0, "lat": 38.924636166666666, "fusion_lat": 0.0, "is_reserved": 0, "rental_uris": {"ios": "https://dc.lft.to/lastmile_qr_scan", "android": "https://dc.lft.to/lastmile_qr_scan"}, "fusion_lon": 0.0, "type": "electric_scooter", "bike_id": "9eec43bf419d32a4a2a46d1856787d4f", "name": "9eec43bf419d32a4a2a46d1856787d4f"}, {"lon": -77.04006233333334, "is_disabled": 0, "lat": 38.903202666666665, "fusion_lat": 0.0, "is_reserved": 0, "rental_uris": {"ios": "https://dc.lft.to/lastmile_qr_scan", "android": "https://dc.lft.to/lastmile_qr_scan"}, "fusion_lon": 0.0, "type": "electric_scooter", "bike_id": "c65a45c416b5aa6bb934a39ade301f74", "name": "c65a45c416b5aa6bb934a39ade301f74"}, {"lon": -77.03116216666666, "is_disabled": 0, "lat": 38.920324, "fusion_lat": 0.0, "is_reserved": 0, "rental_uris": {"ios": "https://dc.lft.to/lastmile_qr_scan", "android": "https://dc.lft.to/lastmile_qr_scan"}, "fusion_lon": 0.0, "type": "electric_scooter", "bike_id": "ec9cabb66820fbfc8e97ee9432411387", "name": "ec9cabb66820fbfc8e97ee9432411387"}, {"lon": -77.05432566666667, "is_disabled": 0, "lat": 38.928526, "fusion_lat": 0.0, "is_reserved": 0, "rental_uris": {"ios": "https://dc.lft.to/lastmile_qr_scan", "android": "https://dc.lft.to/lastmile_qr_scan"}, "fusion_lon": 0.0, "type": "electric_scooter", "bike_id": "a9aa4a0d01e42fa5d5b22215db3c205e", "name": "a9aa4a0d01e42fa5d5b22215db3c205e"}, {"lon": -77.02694266666667, "is_disabled": 0, "lat": 38.90955116666667, "fusion_lat": 0.0, "is_reserved": 0, "rental_uris": {"ios": "https://dc.lft.to/lastmile_qr_scan", "android": "https://dc.lft.to/lastmile_qr_scan"}, "fusion_lon": 0.0, "type": "electric_scooter", "bike_id": "bdfd07296819f1fa7abef6a770eb3403", "name": "bdfd07296819f1fa7abef6a770eb3403"}, {"lon": -77.034413, "is_disabled": 0, "lat": 38.903534666666665, "fusion_lat": 0.0, "is_reserved": 0, "rental_uris": {"ios": "https://dc.lft.to/lastmile_qr_scan", "android": "https://dc.lft.to/lastmile_qr_scan"}, "fusion_lon": 0.0, "type": "electric_scooter", "bike_id": "90257107e6ffb3b820a0a34309f51bdf", "name": "90257107e6ffb3b820a0a34309f51bdf"}, {"lon": -77.0007245, "is_disabled": 0, "lat": 38.873867, "fusion_lat": 0.0, "is_reserved": 0, "rental_uris": {"ios": "https://dc.lft.to/lastmile_qr_scan", "android": "https://dc.lft.to/lastmile_qr_scan"}, "fusion_lon": 0.0, "type": "electric_scooter", "bike_id": "1aafe434b397035357b19f238189acf7", "name": "1aafe434b397035357b19f238189acf7"}, {"lon": -77.034443, "is_disabled": 0, "lat": 38.91818516666667, "fusion_lat": 0.0, "is_reserved": 0, "rental_uris": {"ios": "https://dc.lft.to/lastmile_qr_scan", "android": "https://dc.lft.to/lastmile_qr_scan"}, "fusion_lon": 0.0, "type": "electric_scooter", "bike_id": "0b859ce561c4e5c0fa420088b39cf83c", "name": "0b859ce561c4e5c0fa420088b39cf83c"}, {"lon": -77.0340435, "is_disabled": 0, "lat": 38.9221185, "fusion_lat": 0.0, "is_reserved": 0, "rental_uris": {"ios": "https://dc.lft.to/lastmile_qr_scan", "android": "https://dc.lft.to/lastmile_qr_scan"}, "fusion_lon": 0.0, "type": "electric_scooter", "bike_id": "cb76f06f09656fb88295e9285e10b748", "name": "cb76f06f09656fb88295e9285e10b748"}, {"lon": -77.0454715, "is_disabled": 0, "lat": 38.89822916666667, "fusion_lat": 0.0, "is_reserved": 0, "rental_uris": {"ios": "https://dc.lft.to/lastmile_qr_scan", "android": "https://dc.lft.to/lastmile_qr_scan"}, "fusion_lon": 0.0, "type": "electric_scooter", "bike_id": "475ef539777c223033ee6bbfbc25240c", "name": "475ef539777c223033ee6bbfbc25240c"}, {"lon": -77.04687283333334, "is_disabled": 0, "lat": 38.902896, "fusion_lat": 0.0, "is_reserved": 0, "rental_uris": {"ios": "https://dc.lft.to/lastmile_qr_scan", "android": "https://dc.lft.to/lastmile_qr_scan"}, "fusion_lon": 0.0, "type": "electric_scooter", "bike_id": "6e846b1fc11b88562cb8eda7b8096c40", "name": "6e846b1fc11b88562cb8eda7b8096c40"}, {"lon": -77.0418595, "is_disabled": 0, "lat": 38.903105833333335, "fusion_lat": 0.0, "is_reserved": 0, "rental_uris": {"ios": "https://dc.lft.to/lastmile_qr_scan", "android": "https://dc.lft.to/lastmile_qr_scan"}, "fusion_lon": 0.0, "type": "electric_scooter", "bike_id": "fd83cd73737f836a936ea68f15892a36", "name": "fd83cd73737f836a936ea68f15892a36"}, {"lon": -77.01650866666667, "is_disabled": 0, "lat": 38.8811485, "fusion_lat": 0.0, "is_reserved": 0, "rental_uris": {"ios": "https://dc.lft.to/lastmile_qr_scan", "android": "https://dc.lft.to/lastmile_qr_scan"}, "fusion_lon": 0.0, "type": "electric_scooter", "bike_id": "23212c284611bfbb18fa0ec46cac448b", "name": "23212c284611bfbb18fa0ec46cac448b"}, {"lon": -77.04494966666667, "is_disabled": 0, "lat": 38.9085905, "fusion_lat": 0.0, "is_reserved": 0, "rental_uris": {"ios": "https://dc.lft.to/lastmile_qr_scan", "android": "https://dc.lft.to/lastmile_qr_scan"}, "fusion_lon": 0.0, "type": "electric_scooter", "bike_id": "3822878e09824c33c8728e33c835572c", "name": "3822878e09824c33c8728e33c835572c"}, {"lon": -77.03042183333334, "is_disabled": 0, "lat": 38.916332, "fusion_lat": 0.0, "is_reserved": 0, "rental_uris": {"ios": "https://dc.lft.to/lastmile_qr_scan", "android": "https://dc.lft.to/lastmile_qr_scan"}, "fusion_lon": 0.0, "type": "electric_scooter", "bike_id": "53072005a789a2a4624932ed54d4df9a", "name": "53072005a789a2a4624932ed54d4df9a"}, {"lon": -77.03187666666666, "is_disabled": 0, "lat": 38.9173905, "fusion_lat": 0.0, "is_reserved": 0, "rental_uris": {"ios": "https://dc.lft.to/lastmile_qr_scan", "android": "https://dc.lft.to/lastmile_qr_scan"}, "fusion_lon": 0.0, "type": "electric_scooter", "bike_id": "ce5f3bc0b57bd38fb3f127125ee55ea2", "name": "ce5f3bc0b57bd38fb3f127125ee55ea2"}, {"lon": -77.043346, "is_disabled": 0, "lat": 38.922238666666665, "fusion_lat": 0.0, "is_reserved": 0, "rental_uris": {"ios": "https://dc.lft.to/lastmile_qr_scan", "android": "https://dc.lft.to/lastmile_qr_scan"}, "fusion_lon": 0.0, "type": "electric_scooter", "bike_id": "052abeb3a69d41923baafb6463c9ee9e", "name": "052abeb3a69d41923baafb6463c9ee9e"}, {"lon": -77.03808233333334, "is_disabled": 0, "lat": 38.919964, "fusion_lat": 0.0, "is_reserved": 0, "rental_uris": {"ios": "https://dc.lft.to/lastmile_qr_scan", "android": "https://dc.lft.to/lastmile_qr_scan"}, "fusion_lon": 0.0, "type": "electric_scooter", "bike_id": "a4151413d99c0ff29b6f749c07fab76a", "name": "a4151413d99c0ff29b6f749c07fab76a"}, {"lon": -77.02588, "is_disabled": 0, "lat": 38.91486316666666, "fusion_lat": 0.0, "is_reserved": 0, "rental_uris": {"ios": "https://dc.lft.to/lastmile_qr_scan", "android": "https://dc.lft.to/lastmile_qr_scan"}, "fusion_lon": 0.0, "type": "electric_scooter", "bike_id": "e5b9027eb755c8ae80745dd3155a749f", "name": "e5b9027eb755c8ae80745dd3155a749f"}, {"lon": -77.00335416666667, "is_disabled": 0, "lat": 38.90772533333333, "fusion_lat": 0.0, "is_reserved": 0, "rental_uris": {"ios": "https://dc.lft.to/lastmile_qr_scan", "android": "https://dc.lft.to/lastmile_qr_scan"}, "fusion_lon": 0.0, "type": "electric_scooter", "bike_id": "d170297ee31e19d0368b09319412f510", "name": "d170297ee31e19d0368b09319412f510"}, {"lon": -77.04441933333334, "is_disabled": 0, "lat": 38.8960125, "fusion_lat": 0.0, "is_reserved": 0, "rental_uris": {"ios": "https://dc.lft.to/lastmile_qr_scan", "android": "https://dc.lft.to/lastmile_qr_scan"}, "fusion_lon": 0.0, "type": "electric_scooter", "bike_id": "071dbdb5afed9711352ef4429b0df6fc", "name": "071dbdb5afed9711352ef4429b0df6fc"}, {"lon": -77.04851233333333, "is_disabled": 0, "lat": 38.904393, "fusion_lat": 0.0, "is_reserved": 0, "rental_uris": {"ios": "https://dc.lft.to/lastmile_qr_scan", "android": "https://dc.lft.to/lastmile_qr_scan"}, "fusion_lon": 0.0, "type": "electric_scooter", "bike_id": "1332b34aa61d9a8e701aeb03f9e18cfb", "name": "1332b34aa61d9a8e701aeb03f9e18cfb"}, {"lon": -77.13100616666667, "is_disabled": 0, "lat": 39.0243835, "fusion_lat": 0.0, "is_reserved": 0, "rental_uris": {"ios": "https://dc.lft.to/lastmile_qr_scan", "android": "https://dc.lft.to/lastmile_qr_scan"}, "fusion_lon": 0.0, "type": "electric_bike", "bike_id": "2f2793a7afdba55d055e7c2fcff691e0", "name": "2f2793a7afdba55d055e7c2fcff691e0"}, {"lon": -77.0312015, "is_disabled": 0, "lat": 38.92039883333333, "fusion_lat": 0.0, "is_reserved": 0, "rental_uris": {"ios": "https://dc.lft.to/lastmile_qr_scan", "android": "https://dc.lft.to/lastmile_qr_scan"}, "fusion_lon": 0.0, "type": "electric_scooter", "bike_id": "11a949a9508abbdc95fd7867d5650f87", "name": "11a949a9508abbdc95fd7867d5650f87"}, {"lon": -77.0344235, "is_disabled": 0, "lat": 38.91817983333333, "fusion_lat": 0.0, "is_reserved": 0, "rental_uris": {"ios": "https://dc.lft.to/lastmile_qr_scan", "android": "https://dc.lft.to/lastmile_qr_scan"}, "fusion_lon": 0.0, "type": "electric_scooter", "bike_id": "30cca69528918569ae9f5e1d8e53c104", "name": "30cca69528918569ae9f5e1d8e53c104"}, {"lon": -77.04334283333333, "is_disabled": 0, "lat": 38.8952675, "fusion_lat": 0.0, "is_reserved": 0, "rental_uris": {"ios": "https://dc.lft.to/lastmile_qr_scan", "android": "https://dc.lft.to/lastmile_qr_scan"}, "fusion_lon": 0.0, "type": "electric_scooter", "bike_id": "da96f72050e5bf9aa37c6abef773fdff", "name": "da96f72050e5bf9aa37c6abef773fdff"}, {"lon": -77.04006116666666, "is_disabled": 0, "lat": 38.93427966666667, "fusion_lat": 0.0, "is_reserved": 0, "rental_uris": {"ios": "https://dc.lft.to/lastmile_qr_scan", "android": "https://dc.lft.to/lastmile_qr_scan"}, "fusion_lon": 0.0, "type": "electric_scooter", "bike_id": "2a84e777dfb684f6c6efb7eab3b1ac7f", "name": "2a84e777dfb684f6c6efb7eab3b1ac7f"}, {"lon": -77.0526245, "is_disabled": 0, "lat": 38.927837333333336, "fusion_lat": 0.0, "is_reserved": 0, "rental_uris": {"ios": "https://dc.lft.to/lastmile_qr_scan", "android": "https://dc.lft.to/lastmile_qr_scan"}, "fusion_lon": 0.0, "type": "electric_scooter", "bike_id": "8e263bd7f3d533e8fa7832fa80a2cdd2", "name": "8e263bd7f3d533e8fa7832fa80a2cdd2"}, {"lon": -76.99133783333333, "is_disabled": 0, "lat": 38.908705833333336, "fusion_lat": 0.0, "is_reserved": 0, "rental_uris": {"ios": "https://dc.lft.to/lastmile_qr_scan", "android": "https://dc.lft.to/lastmile_qr_scan"}, "fusion_lon": 0.0, "type": "electric_bike", "bike_id": "d6d3ac59d98a5fcb4e4d50afbe0e11d6", "name": "d6d3ac59d98a5fcb4e4d50afbe0e11d6"}, {"lon": -77.01423733333333, "is_disabled": 0, "lat": 38.928750666666666, "fusion_lat": 0.0, "is_reserved": 0, "rental_uris": {"ios": "https://dc.lft.to/lastmile_qr_scan", "android": "https://dc.lft.to/lastmile_qr_scan"}, "fusion_lon": 0.0, "type": "electric_scooter", "bike_id": "999988d5be3bfed5046c221d7f438bbe", "name": "999988d5be3bfed5046c221d7f438bbe"}, {"lon": -76.99484116666666, "is_disabled": 0, "lat": 38.891801, "fusion_lat": 0.0, "is_reserved": 0, "rental_uris": {"ios": "https://dc.lft.to/lastmile_qr_scan", "android": "https://dc.lft.to/lastmile_qr_scan"}, "fusion_lon": 0.0, "type": "electric_scooter", "bike_id": "802666582805d2bca966f5b7a2c72a55", "name": "802666582805d2bca966f5b7a2c72a55"}, {"lon": -77.03463866666667, "is_disabled": 0, "lat": 38.9082345, "fusion_lat": 0.0, "is_reserved": 0, "rental_uris": {"ios": "https://dc.lft.to/lastmile_qr_scan", "android": "https://dc.lft.to/lastmile_qr_scan"}, "fusion_lon": 0.0, "type": "electric_scooter", "bike_id": "d1ff4b368815675a7b43ad9602dd0c36", "name": "d1ff4b368815675a7b43ad9602dd0c36"}, {"lon": -76.9489165, "is_disabled": 0, "lat": 38.89533866666667, "fusion_lat": 0.0, "is_reserved": 0, "rental_uris": {"ios": "https://dc.lft.to/lastmile_qr_scan", "android": "https://dc.lft.to/lastmile_qr_scan"}, "fusion_lon": 0.0, "type": "electric_scooter", "bike_id": "32551f8ac6f9981af706ebe0a49d4336", "name": "32551f8ac6f9981af706ebe0a49d4336"}, {"lon": -77.0318505, "is_disabled": 0, "lat": 38.89250966666667, "fusion_lat": 0.0, "is_reserved": 0, "rental_uris": {"ios": "https://dc.lft.to/lastmile_qr_scan", "android": "https://dc.lft.to/lastmile_qr_scan"}, "fusion_lon": 0.0, "type": "electric_scooter", "bike_id": "f6cb23921ab50744afef01aecbbde06d", "name": "f6cb23921ab50744afef01aecbbde06d"}, {"lon": -77.032106, "is_disabled": 0, "lat": 38.89235583333333, "fusion_lat": 0.0, "is_reserved": 0, "rental_uris": {"ios": "https://dc.lft.to/lastmile_qr_scan", "android": "https://dc.lft.to/lastmile_qr_scan"}, "fusion_lon": 0.0, "type": "electric_scooter", "bike_id": "4451b51b98ebfd1829425f5eef82bf4e", "name": "4451b51b98ebfd1829425f5eef82bf4e"}, {"lon": -77.04870583333333, "is_disabled": 0, "lat": 38.909773666666666, "fusion_lat": 0.0, "is_reserved": 0, "rental_uris": {"ios": "https://dc.lft.to/lastmile_qr_scan", "android": "https://dc.lft.to/lastmile_qr_scan"}, "fusion_lon": 0.0, "type": "electric_scooter", "bike_id": "f1b1d1ac3a6356f49b7dba94daa516ca", "name": "f1b1d1ac3a6356f49b7dba94daa516ca"}, {"lon": -77.03159733333334, "is_disabled": 0, "lat": 38.91629566666667, "fusion_lat": 0.0, "is_reserved": 0, "rental_uris": {"ios": "https://dc.lft.to/lastmile_qr_scan", "android": "https://dc.lft.to/lastmile_qr_scan"}, "fusion_lon": 0.0, "type": "electric_scooter", "bike_id": "c0b6917b1f55c1cc4f8db2bf651f1179", "name": "c0b6917b1f55c1cc4f8db2bf651f1179"}, {"lon": -76.9566005, "is_disabled": 0, "lat": 38.884689333333334, "fusion_lat": 0.0, "is_reserved": 0, "rental_uris": {"ios": "https://dc.lft.to/lastmile_qr_scan", "android": "https://dc.lft.to/lastmile_qr_scan"}, "fusion_lon": 0.0, "type": "electric_bike", "bike_id": "a521e7d98b1959c6540ca7fd3a5db623", "name": "a521e7d98b1959c6540ca7fd3a5db623"}, {"lon": -77.04306383333333, "is_disabled": 0, "lat": 39.034319833333335, "fusion_lat": 0.0, "is_reserved": 0, "rental_uris": {"ios": "https://dc.lft.to/lastmile_qr_scan", "android": "https://dc.lft.to/lastmile_qr_scan"}, "fusion_lon": 0.0, "type": "electric_bike", "bike_id": "f57581b6d54bf8ac06ac620f60e91fab", "name": "f57581b6d54bf8ac06ac620f60e91fab"}, {"lon": -77.051541, "is_disabled": 0, "lat": 38.923764166666665, "fusion_lat": 0.0, "is_reserved": 0, "rental_uris": {"ios": "https://dc.lft.to/lastmile_qr_scan", "android": "https://dc.lft.to/lastmile_qr_scan"}, "fusion_lon": 0.0, "type": "electric_scooter", "bike_id": "22246991b1c5c82c7581937a5a66d3db", "name": "22246991b1c5c82c7581937a5a66d3db"}, {"lon": -77.041501, "is_disabled": 0, "lat": 38.907207166666666, "fusion_lat": 0.0, "is_reserved": 0, "rental_uris": {"ios": "https://dc.lft.to/lastmile_qr_scan", "android": "https://dc.lft.to/lastmile_qr_scan"}, "fusion_lon": 0.0, "type": "electric_scooter", "bike_id": "330a12fd736dbe2ec6f892923c262c18", "name": "330a12fd736dbe2ec6f892923c262c18"}, {"lon": -77.04355633333333, "is_disabled": 0, "lat": 38.910513333333334, "fusion_lat": 0.0, "is_reserved": 0, "rental_uris": {"ios": "https://dc.lft.to/lastmile_qr_scan", "android": "https://dc.lft.to/lastmile_qr_scan"}, "fusion_lon": 0.0, "type": "electric_scooter", "bike_id": "79eb8e61f4e47be6027dd6b08b8de46e", "name": "79eb8e61f4e47be6027dd6b08b8de46e"}, {"lon": -76.97784833333333, "is_disabled": 0, "lat": 38.90569033333333, "fusion_lat": 0.0, "is_reserved": 0, "rental_uris": {"ios": "https://dc.lft.to/lastmile_qr_scan", "android": "https://dc.lft.to/lastmile_qr_scan"}, "fusion_lon": 0.0, "type": "electric_scooter", "bike_id": "99d7e89bb1f01556a9c13396ee163992", "name": "99d7e89bb1f01556a9c13396ee163992"}, {"lon": -77.04612883333333, "is_disabled": 0, "lat": 38.902685, "fusion_lat": 0.0, "is_reserved": 0, "rental_uris": {"ios": "https://dc.lft.to/lastmile_qr_scan", "android": "https://dc.lft.to/lastmile_qr_scan"}, "fusion_lon": 0.0, "type": "electric_scooter", "bike_id": "2fc5d063368c38ff4625d876040e9f50", "name": "2fc5d063368c38ff4625d876040e9f50"}, {"lon": -77.01211933333333, "is_disabled": 0, "lat": 38.90617616666667, "fusion_lat": 0.0, "is_reserved": 0, "rental_uris": {"ios": "https://dc.lft.to/lastmile_qr_scan", "android": "https://dc.lft.to/lastmile_qr_scan"}, "fusion_lon": 0.0, "type": "electric_scooter", "bike_id": "3bc5fd5adeda71e8781e7ec20ebb9ada", "name": "3bc5fd5adeda71e8781e7ec20ebb9ada"}, {"lon": -77.04549416666667, "is_disabled": 0, "lat": 38.91315816666667, "fusion_lat": 0.0, "is_reserved": 0, "rental_uris": {"ios": "https://dc.lft.to/lastmile_qr_scan", "android": "https://dc.lft.to/lastmile_qr_scan"}, "fusion_lon": 0.0, "type": "electric_scooter", "bike_id": "20787bd22e87eef0afb0a082133a2564", "name": "20787bd22e87eef0afb0a082133a2564"}, {"lon": -77.01510733333333, "is_disabled": 0, "lat": 38.9267265, "fusion_lat": 0.0, "is_reserved": 0, "rental_uris": {"ios": "https://dc.lft.to/lastmile_qr_scan", "android": "https://dc.lft.to/lastmile_qr_scan"}, "fusion_lon": 0.0, "type": "electric_scooter", "bike_id": "a3bc57c74caadd2b56a66ca0feae9be3", "name": "a3bc57c74caadd2b56a66ca0feae9be3"}, {"lon": -76.98693883333334, "is_disabled": 0, "lat": 38.877592, "fusion_lat": 0.0, "is_reserved": 0, "rental_uris": {"ios": "https://dc.lft.to/lastmile_qr_scan", "android": "https://dc.lft.to/lastmile_qr_scan"}, "fusion_lon": 0.0, "type": "electric_scooter", "bike_id": "8e669494089132e1bd6d798ec13081f9", "name": "8e669494089132e1bd6d798ec13081f9"}, {"lon": -77.033657, "is_disabled": 0, "lat": 38.92160166666667, "fusion_lat": 0.0, "is_reserved": 0, "rental_uris": {"ios": "https://dc.lft.to/lastmile_qr_scan", "android": "https://dc.lft.to/lastmile_qr_scan"}, "fusion_lon": 0.0, "type": "electric_scooter", "bike_id": "8cc2270d16043a587ccfa35349e14b9e", "name": "8cc2270d16043a587ccfa35349e14b9e"}, {"lon": -77.0276635, "is_disabled": 0, "lat": 38.92866266666667, "fusion_lat": 0.0, "is_reserved": 0, "rental_uris": {"ios": "https://dc.lft.to/lastmile_qr_scan", "android": "https://dc.lft.to/lastmile_qr_scan"}, "fusion_lon": 0.0, "type": "electric_scooter", "bike_id": "1cd0e0416a168fed057b0a18e399e3b4", "name": "1cd0e0416a168fed057b0a18e399e3b4"}, {"lon": -76.99636933333333, "is_disabled": 0, "lat": 38.8844815, "fusion_lat": 0.0, "is_reserved": 0, "rental_uris": {"ios": "https://dc.lft.to/lastmile_qr_scan", "android": "https://dc.lft.to/lastmile_qr_scan"}, "fusion_lon": 0.0, "type": "electric_scooter", "bike_id": "4ed00ca210717117b40b5062f2ed29d4", "name": "4ed00ca210717117b40b5062f2ed29d4"}, {"lon": -77.0377485, "is_disabled": 0, "lat": 38.90249416666666, "fusion_lat": 0.0, "is_reserved": 0, "rental_uris": {"ios": "https://dc.lft.to/lastmile_qr_scan", "android": "https://dc.lft.to/lastmile_qr_scan"}, "fusion_lon": 0.0, "type": "electric_scooter", "bike_id": "3499bf1a7f2917fddec3610d7373a858", "name": "3499bf1a7f2917fddec3610d7373a858"}, {"lon": -77.02301633333333, "is_disabled": 0, "lat": 38.927458, "fusion_lat": 0.0, "is_reserved": 0, "rental_uris": {"ios": "https://dc.lft.to/lastmile_qr_scan", "android": "https://dc.lft.to/lastmile_qr_scan"}, "fusion_lon": 0.0, "type": "electric_scooter", "bike_id": "270a493bdc3b5f2d7b91878c9f82f736", "name": "270a493bdc3b5f2d7b91878c9f82f736"}, {"lon": -76.94632483333334, "is_disabled": 0, "lat": 38.83243433333333, "fusion_lat": 0.0, "is_reserved": 0, "rental_uris": {"ios": "https://dc.lft.to/lastmile_qr_scan", "android": "https://dc.lft.to/lastmile_qr_scan"}, "fusion_lon": 0.0, "type": "electric_bike", "bike_id": "6d9c1af145930da69f15012ddda14d2a", "name": "6d9c1af145930da69f15012ddda14d2a"}, {"lon": -76.93028166666667, "is_disabled": 0, "lat": 38.895674166666666, "fusion_lat": 0.0, "is_reserved": 0, "rental_uris": {"ios": "https://dc.lft.to/lastmile_qr_scan", "android": "https://dc.lft.to/lastmile_qr_scan"}, "fusion_lon": 0.0, "type": "electric_scooter", "bike_id": "4a113d8cc9e40b8f5830aca99b2aeec6", "name": "4a113d8cc9e40b8f5830aca99b2aeec6"}, {"lon": -77.00147483333333, "is_disabled": 0, "lat": 38.897429, "fusion_lat": 0.0, "is_reserved": 0, "rental_uris": {"ios": "https://dc.lft.to/lastmile_qr_scan", "android": "https://dc.lft.to/lastmile_qr_scan"}, "fusion_lon": 0.0, "type": "electric_scooter", "bike_id": "740fa2f143fb5cf848d7c62b01082444", "name": "740fa2f143fb5cf848d7c62b01082444"}, {"lon": -77.02936183333334, "is_disabled": 0, "lat": 38.89969516666667, "fusion_lat": 0.0, "is_reserved": 0, "rental_uris": {"ios": "https://dc.lft.to/lastmile_qr_scan", "android": "https://dc.lft.to/lastmile_qr_scan"}, "fusion_lon": 0.0, "type": "electric_scooter", "bike_id": "a1b1991688d51bd78af69614d3b2d3b8", "name": "a1b1991688d51bd78af69614d3b2d3b8"}, {"lon": -77.0285125, "is_disabled": 0, "lat": 38.88630766666667, "fusion_lat": 0.0, "is_reserved": 0, "rental_uris": {"ios": "https://dc.lft.to/lastmile_qr_scan", "android": "https://dc.lft.to/lastmile_qr_scan"}, "fusion_lon": 0.0, "type": "electric_scooter", "bike_id": "05951274c9bd74726e3ef97c44b2cac5", "name": "05951274c9bd74726e3ef97c44b2cac5"}, {"lon": -76.94731266666666, "is_disabled": 0, "lat": 38.897407333333334, "fusion_lat": 0.0, "is_reserved": 0, "rental_uris": {"ios": "https://dc.lft.to/lastmile_qr_scan", "android": "https://dc.lft.to/lastmile_qr_scan"}, "fusion_lon": 0.0, "type": "electric_scooter", "bike_id": "177d579c31d83996edd1c621d0a90d61", "name": "177d579c31d83996edd1c621d0a90d61"}, {"lon": -77.03226216666667, "is_disabled": 0, "lat": 38.917113, "fusion_lat": 0.0, "is_reserved": 0, "rental_uris": {"ios": "https://dc.lft.to/lastmile_qr_scan", "android": "https://dc.lft.to/lastmile_qr_scan"}, "fusion_lon": 0.0, "type": "electric_scooter", "bike_id": "7835be8f9b341af859203dc41de84840", "name": "7835be8f9b341af859203dc41de84840"}, {"lon": -77.04694416666666, "is_disabled": 0, "lat": 38.89226166666667, "fusion_lat": 0.0, "is_reserved": 0, "rental_uris": {"ios": "https://dc.lft.to/lastmile_qr_scan", "android": "https://dc.lft.to/lastmile_qr_scan"}, "fusion_lon": 0.0, "type": "electric_scooter", "bike_id": "adb2152339e56aafa2911b37c0ea2bf7", "name": "adb2152339e56aafa2911b37c0ea2bf7"}, {"lon": -77.031576, "is_disabled": 0, "lat": 38.897848, "fusion_lat": 0.0, "is_reserved": 0, "rental_uris": {"ios": "https://dc.lft.to/lastmile_qr_scan", "android": "https://dc.lft.to/lastmile_qr_scan"}, "fusion_lon": 0.0, "type": "electric_scooter", "bike_id": "fbf4d48f596a7885f426b7048d53a22f", "name": "fbf4d48f596a7885f426b7048d53a22f"}, {"lon": -77.0230895, "is_disabled": 0, "lat": 38.92892166666667, "fusion_lat": 0.0, "is_reserved": 0, "rental_uris": {"ios": "https://dc.lft.to/lastmile_qr_scan", "android": "https://dc.lft.to/lastmile_qr_scan"}, "fusion_lon": 0.0, "type": "electric_scooter", "bike_id": "8b067d8d53f1daff26fdb786a0ad33ac", "name": "8b067d8d53f1daff26fdb786a0ad33ac"}, {"lon": -77.06395516666667, "is_disabled": 0, "lat": 38.944235666666664, "fusion_lat": 0.0, "is_reserved": 0, "rental_uris": {"ios": "https://dc.lft.to/lastmile_qr_scan", "android": "https://dc.lft.to/lastmile_qr_scan"}, "fusion_lon": 0.0, "type": "electric_scooter", "bike_id": "be7c839a64d41b7729f0fd8bdd48fe23", "name": "be7c839a64d41b7729f0fd8bdd48fe23"}, {"lon": -77.032112, "is_disabled": 0, "lat": 38.912011666666665, "fusion_lat": 0.0, "is_reserved": 0, "rental_uris": {"ios": "https://dc.lft.to/lastmile_qr_scan", "android": "https://dc.lft.to/lastmile_qr_scan"}, "fusion_lon": 0.0, "type": "electric_scooter", "bike_id": "08f900d5f61ec35523faac47bb9abd17", "name": "08f900d5f61ec35523faac47bb9abd17"}, {"lon": -77.022438, "is_disabled": 0, "lat": 38.89194583333333, "fusion_lat": 0.0, "is_reserved": 0, "rental_uris": {"ios": "https://dc.lft.to/lastmile_qr_scan", "android": "https://dc.lft.to/lastmile_qr_scan"}, "fusion_lon": 0.0, "type": "electric_scooter", "bike_id": "76698f3fcffaee9c539ae20d1db2467a", "name": "76698f3fcffaee9c539ae20d1db2467a"}, {"lon": -77.03548183333334, "is_disabled": 0, "lat": 38.9083565, "fusion_lat": 0.0, "is_reserved": 0, "rental_uris": {"ios": "https://dc.lft.to/lastmile_qr_scan", "android": "https://dc.lft.to/lastmile_qr_scan"}, "fusion_lon": 0.0, "type": "electric_scooter", "bike_id": "c72e2f7f691e2fbce5bb65668921216e", "name": "c72e2f7f691e2fbce5bb65668921216e"}, {"lon": -77.04369133333333, "is_disabled": 0, "lat": 38.90620466666667, "fusion_lat": 0.0, "is_reserved": 0, "rental_uris": {"ios": "https://dc.lft.to/lastmile_qr_scan", "android": "https://dc.lft.to/lastmile_qr_scan"}, "fusion_lon": 0.0, "type": "electric_scooter", "bike_id": "2320e034c28857c7d29c2c6d0199e9c2", "name": "2320e034c28857c7d29c2c6d0199e9c2"}, {"lon": -76.9811215, "is_disabled": 0, "lat": 38.91472783333333, "fusion_lat": 0.0, "is_reserved": 0, "rental_uris": {"ios": "https://dc.lft.to/lastmile_qr_scan", "android": "https://dc.lft.to/lastmile_qr_scan"}, "fusion_lon": 0.0, "type": "electric_scooter", "bike_id": "391009cbcc1e471ad6b86e08f9a933b9", "name": "391009cbcc1e471ad6b86e08f9a933b9"}, {"lon": -77.03845916666667, "is_disabled": 0, "lat": 38.90978066666667, "fusion_lat": 0.0, "is_reserved": 0, "rental_uris": {"ios": "https://dc.lft.to/lastmile_qr_scan", "android": "https://dc.lft.to/lastmile_qr_scan"}, "fusion_lon": 0.0, "type": "electric_scooter", "bike_id": "d0c18afb09ba284dbbded65a71c61c15", "name": "d0c18afb09ba284dbbded65a71c61c15"}, {"lon": -77.02598633333334, "is_disabled": 0, "lat": 38.89646783333333, "fusion_lat": 0.0, "is_reserved": 0, "rental_uris": {"ios": "https://dc.lft.to/lastmile_qr_scan", "android": "https://dc.lft.to/lastmile_qr_scan"}, "fusion_lon": 0.0, "type": "electric_scooter", "bike_id": "9488d9c793ccc4072380c16f69ed36d8", "name": "9488d9c793ccc4072380c16f69ed36d8"}, {"lon": -77.04480716666667, "is_disabled": 0, "lat": 38.9037405, "fusion_lat": 0.0, "is_reserved": 0, "rental_uris": {"ios": "https://dc.lft.to/lastmile_qr_scan", "android": "https://dc.lft.to/lastmile_qr_scan"}, "fusion_lon": 0.0, "type": "electric_scooter", "bike_id": "8c830691e18fa0f617eb517e4d58bdf0", "name": "8c830691e18fa0f617eb517e4d58bdf0"}, {"lon": -77.03189333333333, "is_disabled": 0, "lat": 38.90095516666667, "fusion_lat": 0.0, "is_reserved": 0, "rental_uris": {"ios": "https://dc.lft.to/lastmile_qr_scan", "android": "https://dc.lft.to/lastmile_qr_scan"}, "fusion_lon": 0.0, "type": "electric_scooter", "bike_id": "eb9816229518710b322b963f79c4a9bf", "name": "eb9816229518710b322b963f79c4a9bf"}, {"lon": -77.0342605, "is_disabled": 0, "lat": 38.919104, "fusion_lat": 0.0, "is_reserved": 0, "rental_uris": {"ios": "https://dc.lft.to/lastmile_qr_scan", "android": "https://dc.lft.to/lastmile_qr_scan"}, "fusion_lon": 0.0, "type": "electric_scooter", "bike_id": "5e0440930d1107cba3b4bef8a6b43f65", "name": "5e0440930d1107cba3b4bef8a6b43f65"}, {"lon": -76.97884566666667, "is_disabled": 0, "lat": 38.90193883333333, "fusion_lat": 0.0, "is_reserved": 0, "rental_uris": {"ios": "https://dc.lft.to/lastmile_qr_scan", "android": "https://dc.lft.to/lastmile_qr_scan"}, "fusion_lon": 0.0, "type": "electric_scooter", "bike_id": "38fad6ac4c1cf476315d0e2cba3ef118", "name": "38fad6ac4c1cf476315d0e2cba3ef118"}, {"lon": -77.04186516666667, "is_disabled": 0, "lat": 38.91844716666667, "fusion_lat": 0.0, "is_reserved": 0, "rental_uris": {"ios": "https://dc.lft.to/lastmile_qr_scan", "android": "https://dc.lft.to/lastmile_qr_scan"}, "fusion_lon": 0.0, "type": "electric_scooter", "bike_id": "a3cd5b7dbf7f33187e49fad9f35ea27f", "name": "a3cd5b7dbf7f33187e49fad9f35ea27f"}, {"lon": -77.0273815, "is_disabled": 0, "lat": 38.89658283333333, "fusion_lat": 0.0, "is_reserved": 0, "rental_uris": {"ios": "https://dc.lft.to/lastmile_qr_scan", "android": "https://dc.lft.to/lastmile_qr_scan"}, "fusion_lon": 0.0, "type": "electric_scooter", "bike_id": "1dc780f26ddf4af869c48cb1d85945a2", "name": "1dc780f26ddf4af869c48cb1d85945a2"}, {"lon": -77.01344466666667, "is_disabled": 0, "lat": 38.9191615, "fusion_lat": 0.0, "is_reserved": 0, "rental_uris": {"ios": "https://dc.lft.to/lastmile_qr_scan", "android": "https://dc.lft.to/lastmile_qr_scan"}, "fusion_lon": 0.0, "type": "electric_scooter", "bike_id": "a855a769bba8572e114c56c5f694f50b", "name": "a855a769bba8572e114c56c5f694f50b"}, {"lon": -76.99398283333333, "is_disabled": 0, "lat": 38.91012816666667, "fusion_lat": 0.0, "is_reserved": 0, "rental_uris": {"ios": "https://dc.lft.to/lastmile_qr_scan", "android": "https://dc.lft.to/lastmile_qr_scan"}, "fusion_lon": 0.0, "type": "electric_scooter", "bike_id": "0ce128e21c6f592a236d579bdbcb133c", "name": "0ce128e21c6f592a236d579bdbcb133c"}, {"lon": -77.0271655, "is_disabled": 0, "lat": 38.919645833333334, "fusion_lat": 0.0, "is_reserved": 0, "rental_uris": {"ios": "https://dc.lft.to/lastmile_qr_scan", "android": "https://dc.lft.to/lastmile_qr_scan"}, "fusion_lon": 0.0, "type": "electric_scooter", "bike_id": "b6c3dcb1f14a296679546ae61c85ddca", "name": "b6c3dcb1f14a296679546ae61c85ddca"}, {"lon": -77.04174933333333, "is_disabled": 0, "lat": 38.90749916666667, "fusion_lat": 0.0, "is_reserved": 0, "rental_uris": {"ios": "https://dc.lft.to/lastmile_qr_scan", "android": "https://dc.lft.to/lastmile_qr_scan"}, "fusion_lon": 0.0, "type": "electric_scooter", "bike_id": "e71b69e1d720b384eaca7bb7d88372ec", "name": "e71b69e1d720b384eaca7bb7d88372ec"}, {"lon": -77.01845933333334, "is_disabled": 0, "lat": 38.946368, "fusion_lat": 0.0, "is_reserved": 0, "rental_uris": {"ios": "https://dc.lft.to/lastmile_qr_scan", "android": "https://dc.lft.to/lastmile_qr_scan"}, "fusion_lon": 0.0, "type": "electric_scooter", "bike_id": "da0742dfc9348a1f6eb345963fc74718", "name": "da0742dfc9348a1f6eb345963fc74718"}, {"lon": -77.026913, "is_disabled": 0, "lat": 38.894685833333334, "fusion_lat": 0.0, "is_reserved": 0, "rental_uris": {"ios": "https://dc.lft.to/lastmile_qr_scan", "android": "https://dc.lft.to/lastmile_qr_scan"}, "fusion_lon": 0.0, "type": "electric_scooter", "bike_id": "3c5cb4a74ca454366229cea7d149831f", "name": "3c5cb4a74ca454366229cea7d149831f"}, {"lon": -77.03643783333334, "is_disabled": 0, "lat": 38.913128, "fusion_lat": 0.0, "is_reserved": 0, "rental_uris": {"ios": "https://dc.lft.to/lastmile_qr_scan", "android": "https://dc.lft.to/lastmile_qr_scan"}, "fusion_lon": 0.0, "type": "electric_scooter", "bike_id": "9fcf11a6b2de18c8c0f1a3db46426630", "name": "9fcf11a6b2de18c8c0f1a3db46426630"}, {"lon": -77.02478866666667, "is_disabled": 0, "lat": 38.918823833333335, "fusion_lat": 0.0, "is_reserved": 0, "rental_uris": {"ios": "https://dc.lft.to/lastmile_qr_scan", "android": "https://dc.lft.to/lastmile_qr_scan"}, "fusion_lon": 0.0, "type": "electric_scooter", "bike_id": "d2a82e142ea2d56b4c3165a79524fa32", "name": "d2a82e142ea2d56b4c3165a79524fa32"}, {"lon": -77.05725566666666, "is_disabled": 0, "lat": 38.93365166666667, "fusion_lat": 0.0, "is_reserved": 0, "rental_uris": {"ios": "https://dc.lft.to/lastmile_qr_scan", "android": "https://dc.lft.to/lastmile_qr_scan"}, "fusion_lon": 0.0, "type": "electric_scooter", "bike_id": "3e59cb096d0bb18fd974fb9f0a9ff6e5", "name": "3e59cb096d0bb18fd974fb9f0a9ff6e5"}, {"lon": -77.00208366666666, "is_disabled": 0, "lat": 38.96557033333333, "fusion_lat": 0.0, "is_reserved": 0, "rental_uris": {"ios": "https://dc.lft.to/lastmile_qr_scan", "android": "https://dc.lft.to/lastmile_qr_scan"}, "fusion_lon": 0.0, "type": "electric_scooter", "bike_id": "599f27adaffb3575e7f1e676f692fdfa", "name": "599f27adaffb3575e7f1e676f692fdfa"}, {"lon": -77.05925983333333, "is_disabled": 0, "lat": 38.9430255, "fusion_lat": 0.0, "is_reserved": 0, "rental_uris": {"ios": "https://dc.lft.to/lastmile_qr_scan", "android": "https://dc.lft.to/lastmile_qr_scan"}, "fusion_lon": 0.0, "type": "electric_scooter", "bike_id": "186961f06b333630bdf21745a54e4a95", "name": "186961f06b333630bdf21745a54e4a95"}, {"lon": -77.02735416666667, "is_disabled": 0, "lat": 38.933623, "fusion_lat": 0.0, "is_reserved": 0, "rental_uris": {"ios": "https://dc.lft.to/lastmile_qr_scan", "android": "https://dc.lft.to/lastmile_qr_scan"}, "fusion_lon": 0.0, "type": "electric_scooter", "bike_id": "73426f04a20bca670fb701a0f1717ede", "name": "73426f04a20bca670fb701a0f1717ede"}, {"lon": -77.02936733333334, "is_disabled": 0, "lat": 38.901392666666666, "fusion_lat": 0.0, "is_reserved": 0, "rental_uris": {"ios": "https://dc.lft.to/lastmile_qr_scan", "android": "https://dc.lft.to/lastmile_qr_scan"}, "fusion_lon": 0.0, "type": "electric_scooter", "bike_id": "1620db2ec61eb1c1a01b0cfd8a9607f1", "name": "1620db2ec61eb1c1a01b0cfd8a9607f1"}, {"lon": -76.94638216666667, "is_disabled": 0, "lat": 38.898611833333334, "fusion_lat": 0.0, "is_reserved": 0, "rental_uris": {"ios": "https://dc.lft.to/lastmile_qr_scan", "android": "https://dc.lft.to/lastmile_qr_scan"}, "fusion_lon": 0.0, "type": "electric_scooter", "bike_id": "d744c670b1212fad796dd672d1fcd7b6", "name": "d744c670b1212fad796dd672d1fcd7b6"}, {"lon": -77.02395366666667, "is_disabled": 0, "lat": 38.91715116666666, "fusion_lat": 0.0, "is_reserved": 0, "rental_uris": {"ios": "https://dc.lft.to/lastmile_qr_scan", "android": "https://dc.lft.to/lastmile_qr_scan"}, "fusion_lon": 0.0, "type": "electric_scooter", "bike_id": "24691607c073bd43d085c0eca0b01f8a", "name": "24691607c073bd43d085c0eca0b01f8a"}, {"lon": -77.0445985, "is_disabled": 0, "lat": 38.909685833333334, "fusion_lat": 0.0, "is_reserved": 0, "rental_uris": {"ios": "https://dc.lft.to/lastmile_qr_scan", "android": "https://dc.lft.to/lastmile_qr_scan"}, "fusion_lon": 0.0, "type": "electric_scooter", "bike_id": "7cd52258ba8de38a599c1cab1842c463", "name": "7cd52258ba8de38a599c1cab1842c463"}, {"lon": -76.98183033333333, "is_disabled": 0, "lat": 38.89581716666667, "fusion_lat": 0.0, "is_reserved": 0, "rental_uris": {"ios": "https://dc.lft.to/lastmile_qr_scan", "android": "https://dc.lft.to/lastmile_qr_scan"}, "fusion_lon": 0.0, "type": "electric_scooter", "bike_id": "b35efc4e01f674fa6166de7e8802f804", "name": "b35efc4e01f674fa6166de7e8802f804"}, {"lon": -77.01221133333334, "is_disabled": 0, "lat": 38.91448283333333, "fusion_lat": 0.0, "is_reserved": 0, "rental_uris": {"ios": "https://dc.lft.to/lastmile_qr_scan", "android": "https://dc.lft.to/lastmile_qr_scan"}, "fusion_lon": 0.0, "type": "electric_scooter", "bike_id": "58d5d19a792a5cb322dc540998d40f51", "name": "58d5d19a792a5cb322dc540998d40f51"}, {"lon": -76.9854395, "is_disabled": 0, "lat": 38.86690333333333, "fusion_lat": 0.0, "is_reserved": 0, "rental_uris": {"ios": "https://dc.lft.to/lastmile_qr_scan", "android": "https://dc.lft.to/lastmile_qr_scan"}, "fusion_lon": 0.0, "type": "electric_scooter", "bike_id": "8c01127aa71bc4cd63c9b3e2adbb1220", "name": "8c01127aa71bc4cd63c9b3e2adbb1220"}, {"lon": -77.02185233333333, "is_disabled": 0, "lat": 38.90831416666666, "fusion_lat": 0.0, "is_reserved": 0, "rental_uris": {"ios": "https://dc.lft.to/lastmile_qr_scan", "android": "https://dc.lft.to/lastmile_qr_scan"}, "fusion_lon": 0.0, "type": "electric_scooter", "bike_id": "2bf75e034898efbaa5164ed92b4abfd8", "name": "2bf75e034898efbaa5164ed92b4abfd8"}, {"lon": -77.03183666666666, "is_disabled": 0, "lat": 38.903142833333334, "fusion_lat": 0.0, "is_reserved": 0, "rental_uris": {"ios": "https://dc.lft.to/lastmile_qr_scan", "android": "https://dc.lft.to/lastmile_qr_scan"}, "fusion_lon": 0.0, "type": "electric_scooter", "bike_id": "bbfd9f9cdc58b375cd581c8b3322b746", "name": "bbfd9f9cdc58b375cd581c8b3322b746"}, {"lon": -77.00156016666666, "is_disabled": 0, "lat": 38.87388933333333, "fusion_lat": 0.0, "is_reserved": 0, "rental_uris": {"ios": "https://dc.lft.to/lastmile_qr_scan", "android": "https://dc.lft.to/lastmile_qr_scan"}, "fusion_lon": 0.0, "type": "electric_scooter", "bike_id": "05da1658479ab877b081b9b7a4d46006", "name": "05da1658479ab877b081b9b7a4d46006"}, {"lon": -77.12656783333334, "is_disabled": 0, "lat": 38.8151135, "fusion_lat": 0.0, "is_reserved": 0, "rental_uris": {"ios": "https://dc.lft.to/lastmile_qr_scan", "android": "https://dc.lft.to/lastmile_qr_scan"}, "fusion_lon": 0.0, "type": "electric_bike", "bike_id": "875be70f952b58f52130a98217d70aec", "name": "875be70f952b58f52130a98217d70aec"}, {"lon": -77.032241, "is_disabled": 0, "lat": 38.90866033333333, "fusion_lat": 0.0, "is_reserved": 0, "rental_uris": {"ios": "https://dc.lft.to/lastmile_qr_scan", "android": "https://dc.lft.to/lastmile_qr_scan"}, "fusion_lon": 0.0, "type": "electric_scooter", "bike_id": "3726300deb80ced6eeb6cafd2243fc0f", "name": "3726300deb80ced6eeb6cafd2243fc0f"}, {"lon": -76.992442, "is_disabled": 0, "lat": 38.79470516666667, "fusion_lat": 0.0, "is_reserved": 0, "rental_uris": {"ios": "https://dc.lft.to/lastmile_qr_scan", "android": "https://dc.lft.to/lastmile_qr_scan"}, "fusion_lon": 0.0, "type": "electric_bike", "bike_id": "c7e231cb54a478fd4961f957c4914a34", "name": "c7e231cb54a478fd4961f957c4914a34"}, {"lon": -77.03175966666667, "is_disabled": 0, "lat": 38.892514, "fusion_lat": 0.0, "is_reserved": 0, "rental_uris": {"ios": "https://dc.lft.to/lastmile_qr_scan", "android": "https://dc.lft.to/lastmile_qr_scan"}, "fusion_lon": 0.0, "type": "electric_scooter", "bike_id": "af8464b8846fce1e554a9c9758d64e0e", "name": "af8464b8846fce1e554a9c9758d64e0e"}, {"lon": -77.03328816666667, "is_disabled": 0, "lat": 38.898551, "fusion_lat": 0.0, "is_reserved": 0, "rental_uris": {"ios": "https://dc.lft.to/lastmile_qr_scan", "android": "https://dc.lft.to/lastmile_qr_scan"}, "fusion_lon": 0.0, "type": "electric_scooter", "bike_id": "59a65f1fa0b8d5157133df9ba2f0b214", "name": "59a65f1fa0b8d5157133df9ba2f0b214"}, {"lon": -77.0006755, "is_disabled": 0, "lat": 38.838889333333334, "fusion_lat": 0.0, "is_reserved": 0, "rental_uris": {"ios": "https://dc.lft.to/lastmile_qr_scan", "android": "https://dc.lft.to/lastmile_qr_scan"}, "fusion_lon": 0.0, "type": "electric_scooter", "bike_id": "5b99c49ccf93ab0bae46f2466dcf4690", "name": "5b99c49ccf93ab0bae46f2466dcf4690"}, {"lon": -77.00711133333333, "is_disabled": 0, "lat": 38.884942833333334, "fusion_lat": 0.0, "is_reserved": 0, "rental_uris": {"ios": "https://dc.lft.to/lastmile_qr_scan", "android": "https://dc.lft.to/lastmile_qr_scan"}, "fusion_lon": 0.0, "type": "electric_scooter", "bike_id": "d0b813f70195fc309acb039b6dfee90b", "name": "d0b813f70195fc309acb039b6dfee90b"}, {"lon": -76.93769216666666, "is_disabled": 0, "lat": 38.902474, "fusion_lat": 0.0, "is_reserved": 0, "rental_uris": {"ios": "https://dc.lft.to/lastmile_qr_scan", "android": "https://dc.lft.to/lastmile_qr_scan"}, "fusion_lon": 0.0, "type": "electric_scooter", "bike_id": "78e4dfdfc304597fe54c93edbbb51cdb", "name": "78e4dfdfc304597fe54c93edbbb51cdb"}, {"lon": -77.032617, "is_disabled": 0, "lat": 38.935792, "fusion_lat": 0.0, "is_reserved": 0, "rental_uris": {"ios": "https://dc.lft.to/lastmile_qr_scan", "android": "https://dc.lft.to/lastmile_qr_scan"}, "fusion_lon": 0.0, "type": "electric_scooter", "bike_id": "9967a026594ae0ef5ae96fbb408363cb", "name": "9967a026594ae0ef5ae96fbb408363cb"}, {"lon": -77.04659933333333, "is_disabled": 0, "lat": 38.89882033333333, "fusion_lat": 0.0, "is_reserved": 0, "rental_uris": {"ios": "https://dc.lft.to/lastmile_qr_scan", "android": "https://dc.lft.to/lastmile_qr_scan"}, "fusion_lon": 0.0, "type": "electric_scooter", "bike_id": "026954063ab2f928d7b3145fd100b796", "name": "026954063ab2f928d7b3145fd100b796"}, {"lon": -77.00193666666667, "is_disabled": 0, "lat": 38.90264583333333, "fusion_lat": 0.0, "is_reserved": 0, "rental_uris": {"ios": "https://dc.lft.to/lastmile_qr_scan", "android": "https://dc.lft.to/lastmile_qr_scan"}, "fusion_lon": 0.0, "type": "electric_scooter", "bike_id": "497a8390e40f5035138bc554c2af1a97", "name": "497a8390e40f5035138bc554c2af1a97"}, {"lon": -77.02483916666667, "is_disabled": 0, "lat": 38.93882883333333, "fusion_lat": 0.0, "is_reserved": 0, "rental_uris": {"ios": "https://dc.lft.to/lastmile_qr_scan", "android": "https://dc.lft.to/lastmile_qr_scan"}, "fusion_lon": 0.0, "type": "electric_scooter", "bike_id": "99f1e6956a880dceffe58b89dee32dc7", "name": "99f1e6956a880dceffe58b89dee32dc7"}, {"lon": -77.0376775, "is_disabled": 0, "lat": 38.91569766666667, "fusion_lat": 0.0, "is_reserved": 0, "rental_uris": {"ios": "https://dc.lft.to/lastmile_qr_scan", "android": "https://dc.lft.to/lastmile_qr_scan"}, "fusion_lon": 0.0, "type": "electric_scooter", "bike_id": "c893dbf778779ad634cd72ac6425173d", "name": "c893dbf778779ad634cd72ac6425173d"}, {"lon": -77.01433916666667, "is_disabled": 0, "lat": 38.91581516666667, "fusion_lat": 0.0, "is_reserved": 0, "rental_uris": {"ios": "https://dc.lft.to/lastmile_qr_scan", "android": "https://dc.lft.to/lastmile_qr_scan"}, "fusion_lon": 0.0, "type": "electric_scooter", "bike_id": "f8f0bad609ba2c0d51038fba051a3646", "name": "f8f0bad609ba2c0d51038fba051a3646"}, {"lon": -77.06948516666667, "is_disabled": 0, "lat": 38.995329166666664, "fusion_lat": 0.0, "is_reserved": 0, "rental_uris": {"ios": "https://dc.lft.to/lastmile_qr_scan", "android": "https://dc.lft.to/lastmile_qr_scan"}, "fusion_lon": 0.0, "type": "electric_bike", "bike_id": "7c53e6bd77daca8f9537ad7a8d7c9efc", "name": "7c53e6bd77daca8f9537ad7a8d7c9efc"}, {"lon": -77.03879466666666, "is_disabled": 0, "lat": 38.90282033333333, "fusion_lat": 0.0, "is_reserved": 0, "rental_uris": {"ios": "https://dc.lft.to/lastmile_qr_scan", "android": "https://dc.lft.to/lastmile_qr_scan"}, "fusion_lon": 0.0, "type": "electric_scooter", "bike_id": "ce2793db85732f12007a2fe6bbc19097", "name": "ce2793db85732f12007a2fe6bbc19097"}, {"lon": -77.03662833333334, "is_disabled": 0, "lat": 38.941966, "fusion_lat": 0.0, "is_reserved": 0, "rental_uris": {"ios": "https://dc.lft.to/lastmile_qr_scan", "android": "https://dc.lft.to/lastmile_qr_scan"}, "fusion_lon": 0.0, "type": "electric_scooter", "bike_id": "9ba901b130cf746aac372f89f15f392c", "name": "9ba901b130cf746aac372f89f15f392c"}, {"lon": -76.98717433333333, "is_disabled": 0, "lat": 38.866288833333336, "fusion_lat": 0.0, "is_reserved": 0, "rental_uris": {"ios": "https://dc.lft.to/lastmile_qr_scan", "android": "https://dc.lft.to/lastmile_qr_scan"}, "fusion_lon": 0.0, "type": "electric_scooter", "bike_id": "b816c46269039a1cbd4ec5b25f5cf36a", "name": "b816c46269039a1cbd4ec5b25f5cf36a"}, {"lon": -77.0068495, "is_disabled": 0, "lat": 38.90005033333333, "fusion_lat": 0.0, "is_reserved": 0, "rental_uris": {"ios": "https://dc.lft.to/lastmile_qr_scan", "android": "https://dc.lft.to/lastmile_qr_scan"}, "fusion_lon": 0.0, "type": "electric_scooter", "bike_id": "1b8c7d6afecd1b89ba346e3419c77102", "name": "1b8c7d6afecd1b89ba346e3419c77102"}, {"lon": -77.03218733333334, "is_disabled": 0, "lat": 38.89788133333333, "fusion_lat": 0.0, "is_reserved": 0, "rental_uris": {"ios": "https://dc.lft.to/lastmile_qr_scan", "android": "https://dc.lft.to/lastmile_qr_scan"}, "fusion_lon": 0.0, "type": "electric_scooter", "bike_id": "2708221fb21ae484fc6734bf46e7381c", "name": "2708221fb21ae484fc6734bf46e7381c"}, {"lon": -76.98037066666667, "is_disabled": 0, "lat": 38.90787666666667, "fusion_lat": 0.0, "is_reserved": 0, "rental_uris": {"ios": "https://dc.lft.to/lastmile_qr_scan", "android": "https://dc.lft.to/lastmile_qr_scan"}, "fusion_lon": 0.0, "type": "electric_scooter", "bike_id": "63ef7148a98bb4863ec2100eedfab5d9", "name": "63ef7148a98bb4863ec2100eedfab5d9"}, {"lon": -77.04150333333334, "is_disabled": 0, "lat": 38.90659866666667, "fusion_lat": 0.0, "is_reserved": 0, "rental_uris": {"ios": "https://dc.lft.to/lastmile_qr_scan", "android": "https://dc.lft.to/lastmile_qr_scan"}, "fusion_lon": 0.0, "type": "electric_scooter", "bike_id": "8c020f6402ddddf01cef1e46167806c4", "name": "8c020f6402ddddf01cef1e46167806c4"}, {"lon": -77.02886833333334, "is_disabled": 0, "lat": 38.90151216666667, "fusion_lat": 0.0, "is_reserved": 0, "rental_uris": {"ios": "https://dc.lft.to/lastmile_qr_scan", "android": "https://dc.lft.to/lastmile_qr_scan"}, "fusion_lon": 0.0, "type": "electric_scooter", "bike_id": "b124f7574810463da4f427c801dee7c9", "name": "b124f7574810463da4f427c801dee7c9"}, {"lon": -77.10434766666667, "is_disabled": 0, "lat": 38.8967145, "fusion_lat": 0.0, "is_reserved": 0, "rental_uris": {"ios": "https://dc.lft.to/lastmile_qr_scan", "android": "https://dc.lft.to/lastmile_qr_scan"}, "fusion_lon": 0.0, "type": "electric_bike", "bike_id": "d9ec96a27136f59a9f7aefafd1e29788", "name": "d9ec96a27136f59a9f7aefafd1e29788"}, {"lon": -76.942516, "is_disabled": 0, "lat": 38.897422166666665, "fusion_lat": 0.0, "is_reserved": 0, "rental_uris": {"ios": "https://dc.lft.to/lastmile_qr_scan", "android": "https://dc.lft.to/lastmile_qr_scan"}, "fusion_lon": 0.0, "type": "electric_bike", "bike_id": "9e6c6f175e96abf7efd7904daa818b69", "name": "9e6c6f175e96abf7efd7904daa818b69"}, {"lon": -77.02313716666667, "is_disabled": 0, "lat": 38.897018333333335, "fusion_lat": 0.0, "is_reserved": 0, "rental_uris": {"ios": "https://dc.lft.to/lastmile_qr_scan", "android": "https://dc.lft.to/lastmile_qr_scan"}, "fusion_lon": 0.0, "type": "electric_scooter", "bike_id": "c7f087d4af21ca880103ace5639bc31b", "name": "c7f087d4af21ca880103ace5639bc31b"}, {"lon": -77.0477375, "is_disabled": 0, "lat": 38.91761266666666, "fusion_lat": 0.0, "is_reserved": 0, "rental_uris": {"ios": "https://dc.lft.to/lastmile_qr_scan", "android": "https://dc.lft.to/lastmile_qr_scan"}, "fusion_lon": 0.0, "type": "electric_scooter", "bike_id": "4e59587aafeb2e226885ecd7a932275a", "name": "4e59587aafeb2e226885ecd7a932275a"}, {"lon": -77.069556, "is_disabled": 0, "lat": 38.90512733333333, "fusion_lat": 0.0, "is_reserved": 0, "rental_uris": {"ios": "https://dc.lft.to/lastmile_qr_scan", "android": "https://dc.lft.to/lastmile_qr_scan"}, "fusion_lon": 0.0, "type": "electric_bike", "bike_id": "c26abe3e9971d57e023c9258d667c4a7", "name": "c26abe3e9971d57e023c9258d667c4a7"}, {"lon": -77.01391816666667, "is_disabled": 0, "lat": 38.886470333333335, "fusion_lat": 0.0, "is_reserved": 0, "rental_uris": {"ios": "https://dc.lft.to/lastmile_qr_scan", "android": "https://dc.lft.to/lastmile_qr_scan"}, "fusion_lon": 0.0, "type": "electric_scooter", "bike_id": "ad62ecff6648299d5690fa2091107817", "name": "ad62ecff6648299d5690fa2091107817"}, {"lon": -77.0034085, "is_disabled": 0, "lat": 38.905982333333334, "fusion_lat": 0.0, "is_reserved": 0, "rental_uris": {"ios": "https://dc.lft.to/lastmile_qr_scan", "android": "https://dc.lft.to/lastmile_qr_scan"}, "fusion_lon": 0.0, "type": "electric_scooter", "bike_id": "a448d8c905156d232dabec29a0cec185", "name": "a448d8c905156d232dabec29a0cec185"}, {"lon": -77.03193466666667, "is_disabled": 0, "lat": 38.900178333333336, "fusion_lat": 0.0, "is_reserved": 0, "rental_uris": {"ios": "https://dc.lft.to/lastmile_qr_scan", "android": "https://dc.lft.to/lastmile_qr_scan"}, "fusion_lon": 0.0, "type": "electric_scooter", "bike_id": "2a625a16574bc18e5239b189ed4443fe", "name": "2a625a16574bc18e5239b189ed4443fe"}, {"lon": -76.9857705, "is_disabled": 0, "lat": 38.866843, "fusion_lat": 0.0, "is_reserved": 0, "rental_uris": {"ios": "https://dc.lft.to/lastmile_qr_scan", "android": "https://dc.lft.to/lastmile_qr_scan"}, "fusion_lon": 0.0, "type": "electric_scooter", "bike_id": "6e2944af83ea7084420552ecc48459ad", "name": "6e2944af83ea7084420552ecc48459ad"}, {"lon": -76.93075966666666, "is_disabled": 0, "lat": 38.901653, "fusion_lat": 0.0, "is_reserved": 0, "rental_uris": {"ios": "https://dc.lft.to/lastmile_qr_scan", "android": "https://dc.lft.to/lastmile_qr_scan"}, "fusion_lon": 0.0, "type": "electric_scooter", "bike_id": "002a045fe230da40b430b2c3b124beeb", "name": "002a045fe230da40b430b2c3b124beeb"}, {"lon": -77.04332516666666, "is_disabled": 0, "lat": 38.907328, "fusion_lat": 0.0, "is_reserved": 0, "rental_uris": {"ios": "https://dc.lft.to/lastmile_qr_scan", "android": "https://dc.lft.to/lastmile_qr_scan"}, "fusion_lon": 0.0, "type": "electric_scooter", "bike_id": "4d85cdda12f54e115f569508e8f64168", "name": "4d85cdda12f54e115f569508e8f64168"}, {"lon": -77.03087366666666, "is_disabled": 0, "lat": 38.90265516666667, "fusion_lat": 0.0, "is_reserved": 0, "rental_uris": {"ios": "https://dc.lft.to/lastmile_qr_scan", "android": "https://dc.lft.to/lastmile_qr_scan"}, "fusion_lon": 0.0, "type": "electric_scooter", "bike_id": "5fb939d635eca347b75327ecff3a5acf", "name": "5fb939d635eca347b75327ecff3a5acf"}, {"lon": -77.0665345, "is_disabled": 0, "lat": 38.950787166666665, "fusion_lat": 0.0, "is_reserved": 0, "rental_uris": {"ios": "https://dc.lft.to/lastmile_qr_scan", "android": "https://dc.lft.to/lastmile_qr_scan"}, "fusion_lon": 0.0, "type": "electric_bike", "bike_id": "4cc99eba402a530cfbc1b47a752e730b", "name": "4cc99eba402a530cfbc1b47a752e730b"}, {"lon": -77.034577, "is_disabled": 0, "lat": 38.90137133333333, "fusion_lat": 0.0, "is_reserved": 0, "rental_uris": {"ios": "https://dc.lft.to/lastmile_qr_scan", "android": "https://dc.lft.to/lastmile_qr_scan"}, "fusion_lon": 0.0, "type": "electric_scooter", "bike_id": "0fbc326eb1986ef1a25e109a451f2a3c", "name": "0fbc326eb1986ef1a25e109a451f2a3c"}, {"lon": -77.025957, "is_disabled": 0, "lat": 38.94196483333333, "fusion_lat": 0.0, "is_reserved": 0, "rental_uris": {"ios": "https://dc.lft.to/lastmile_qr_scan", "android": "https://dc.lft.to/lastmile_qr_scan"}, "fusion_lon": 0.0, "type": "electric_scooter", "bike_id": "d26048c4d243cf342a8eca35c4315c4f", "name": "d26048c4d243cf342a8eca35c4315c4f"}, {"lon": -77.02203383333334, "is_disabled": 0, "lat": 38.91315683333333, "fusion_lat": 0.0, "is_reserved": 0, "rental_uris": {"ios": "https://dc.lft.to/lastmile_qr_scan", "android": "https://dc.lft.to/lastmile_qr_scan"}, "fusion_lon": 0.0, "type": "electric_scooter", "bike_id": "c1754b1ee889a256640adfd6f73eea87", "name": "c1754b1ee889a256640adfd6f73eea87"}, {"lon": -77.06270483333333, "is_disabled": 0, "lat": 38.905793833333334, "fusion_lat": 0.0, "is_reserved": 0, "rental_uris": {"ios": "https://dc.lft.to/lastmile_qr_scan", "android": "https://dc.lft.to/lastmile_qr_scan"}, "fusion_lon": 0.0, "type": "electric_scooter", "bike_id": "d2766db1b9f3bb9d270490ecedd69e32", "name": "d2766db1b9f3bb9d270490ecedd69e32"}, {"lon": -77.02164033333334, "is_disabled": 0, "lat": 38.9261525, "fusion_lat": 0.0, "is_reserved": 0, "rental_uris": {"ios": "https://dc.lft.to/lastmile_qr_scan", "android": "https://dc.lft.to/lastmile_qr_scan"}, "fusion_lon": 0.0, "type": "electric_scooter", "bike_id": "b94b6e184c90629af73e83ee2d8c4dea", "name": "b94b6e184c90629af73e83ee2d8c4dea"}, {"lon": -77.06731416666666, "is_disabled": 0, "lat": 38.95016416666667, "fusion_lat": 0.0, "is_reserved": 0, "rental_uris": {"ios": "https://dc.lft.to/lastmile_qr_scan", "android": "https://dc.lft.to/lastmile_qr_scan"}, "fusion_lon": 0.0, "type": "electric_scooter", "bike_id": "b0cbbc13de56acacd9fd39b069d8b403", "name": "b0cbbc13de56acacd9fd39b069d8b403"}, {"lon": -77.03907966666667, "is_disabled": 0, "lat": 38.903628499999996, "fusion_lat": 0.0, "is_reserved": 0, "rental_uris": {"ios": "https://dc.lft.to/lastmile_qr_scan", "android": "https://dc.lft.to/lastmile_qr_scan"}, "fusion_lon": 0.0, "type": "electric_scooter", "bike_id": "6382418e50ce1e9fc69433613276cd57", "name": "6382418e50ce1e9fc69433613276cd57"}, {"lon": -77.05683633333334, "is_disabled": 0, "lat": 38.95158966666666, "fusion_lat": 0.0, "is_reserved": 0, "rental_uris": {"ios": "https://dc.lft.to/lastmile_qr_scan", "android": "https://dc.lft.to/lastmile_qr_scan"}, "fusion_lon": 0.0, "type": "electric_scooter", "bike_id": "63f36e1eefb052e9682d2f26d16457d1", "name": "63f36e1eefb052e9682d2f26d16457d1"}, {"lon": -77.0364855, "is_disabled": 0, "lat": 38.90281983333333, "fusion_lat": 0.0, "is_reserved": 0, "rental_uris": {"ios": "https://dc.lft.to/lastmile_qr_scan", "android": "https://dc.lft.to/lastmile_qr_scan"}, "fusion_lon": 0.0, "type": "electric_scooter", "bike_id": "0a743cee96d4442c605dd6e9be443a9c", "name": "0a743cee96d4442c605dd6e9be443a9c"}, {"lon": -77.041909, "is_disabled": 0, "lat": 38.90388816666667, "fusion_lat": 0.0, "is_reserved": 0, "rental_uris": {"ios": "https://dc.lft.to/lastmile_qr_scan", "android": "https://dc.lft.to/lastmile_qr_scan"}, "fusion_lon": 0.0, "type": "electric_scooter", "bike_id": "6346c9f79320e2cfdd153fcace556818", "name": "6346c9f79320e2cfdd153fcace556818"}, {"lon": -77.04538966666667, "is_disabled": 0, "lat": 38.934558833333334, "fusion_lat": 0.0, "is_reserved": 0, "rental_uris": {"ios": "https://dc.lft.to/lastmile_qr_scan", "android": "https://dc.lft.to/lastmile_qr_scan"}, "fusion_lon": 0.0, "type": "electric_scooter", "bike_id": "32e86b921ef5f953697005e85e88b55f", "name": "32e86b921ef5f953697005e85e88b55f"}, {"lon": -76.972299, "is_disabled": 0, "lat": 38.90036533333333, "fusion_lat": 0.0, "is_reserved": 0, "rental_uris": {"ios": "https://dc.lft.to/lastmile_qr_scan", "android": "https://dc.lft.to/lastmile_qr_scan"}, "fusion_lon": 0.0, "type": "electric_bike", "bike_id": "36c57f379b09b47d39a7f9555b113f8b", "name": "36c57f379b09b47d39a7f9555b113f8b"}, {"lon": -77.042129, "is_disabled": 0, "lat": 38.9073745, "fusion_lat": 0.0, "is_reserved": 0, "rental_uris": {"ios": "https://dc.lft.to/lastmile_qr_scan", "android": "https://dc.lft.to/lastmile_qr_scan"}, "fusion_lon": 0.0, "type": "electric_scooter", "bike_id": "267989a205ed91cb5a6efa317d9dc8c8", "name": "267989a205ed91cb5a6efa317d9dc8c8"}, {"lon": -77.03829416666666, "is_disabled": 0, "lat": 38.919685, "fusion_lat": 0.0, "is_reserved": 0, "rental_uris": {"ios": "https://dc.lft.to/lastmile_qr_scan", "android": "https://dc.lft.to/lastmile_qr_scan"}, "fusion_lon": 0.0, "type": "electric_scooter", "bike_id": "85076aa82d3b5feea99adb4225e65982", "name": "85076aa82d3b5feea99adb4225e65982"}, {"lon": -76.94767683333333, "is_disabled": 0, "lat": 38.896292833333334, "fusion_lat": 0.0, "is_reserved": 0, "rental_uris": {"ios": "https://dc.lft.to/lastmile_qr_scan", "android": "https://dc.lft.to/lastmile_qr_scan"}, "fusion_lon": 0.0, "type": "electric_scooter", "bike_id": "5a92c298e6808d55c425db06fcd51cb4", "name": "5a92c298e6808d55c425db06fcd51cb4"}, {"lon": -77.04196583333334, "is_disabled": 0, "lat": 38.922475, "fusion_lat": 0.0, "is_reserved": 0, "rental_uris": {"ios": "https://dc.lft.to/lastmile_qr_scan", "android": "https://dc.lft.to/lastmile_qr_scan"}, "fusion_lon": 0.0, "type": "electric_scooter", "bike_id": "04eb37e7dc3b59b19bebd985b6f6616a", "name": "04eb37e7dc3b59b19bebd985b6f6616a"}, {"lon": -77.02390416666667, "is_disabled": 0, "lat": 38.906995, "fusion_lat": 0.0, "is_reserved": 0, "rental_uris": {"ios": "https://dc.lft.to/lastmile_qr_scan", "android": "https://dc.lft.to/lastmile_qr_scan"}, "fusion_lon": 0.0, "type": "electric_scooter", "bike_id": "c813980e3a4a9392f390648752f9213d", "name": "c813980e3a4a9392f390648752f9213d"}, {"lon": -77.0317645, "is_disabled": 0, "lat": 38.918128333333335, "fusion_lat": 0.0, "is_reserved": 0, "rental_uris": {"ios": "https://dc.lft.to/lastmile_qr_scan", "android": "https://dc.lft.to/lastmile_qr_scan"}, "fusion_lon": 0.0, "type": "electric_scooter", "bike_id": "752a4da4998ea31384d7b7740618b8e4", "name": "752a4da4998ea31384d7b7740618b8e4"}, {"lon": -77.0340055, "is_disabled": 0, "lat": 38.938537833333335, "fusion_lat": 0.0, "is_reserved": 0, "rental_uris": {"ios": "https://dc.lft.to/lastmile_qr_scan", "android": "https://dc.lft.to/lastmile_qr_scan"}, "fusion_lon": 0.0, "type": "electric_scooter", "bike_id": "95436167cadcf9804d1e3deab011c8fa", "name": "95436167cadcf9804d1e3deab011c8fa"},