{"data": {"bikes": [{"type": "electric_scooter", "name": "3142de03ed14db23cb9cfd11de0f0802", "is_reserved": 0, "fusion_lat": 0.0, "lon": -77.03320016666666, "is_disabled": 0, "rental_uris": {"android": "https://dc.lft.to/lastmile_qr_scan", "ios": "https://dc.lft.to/lastmile_qr_scan"}, "bike_id": "3142de03ed14db23cb9cfd11de0f0802", "fusion_lon": 0.0, "lat": 38.92155}, {"type": "electric_scooter", "name": "ebe4f84fa35fe40d68c289fd700ccc36", "is_reserved": 0, "fusion_lat": 0.0, "lon": -77.05438133333334, "is_disabled": 0, "rental_uris": {"android": "https://dc.lft.to/lastmile_qr_scan", "ios": "https://dc.lft.to/lastmile_qr_scan"}, "bike_id": "ebe4f84fa35fe40d68c289fd700ccc36", "fusion_lon": 0.0, "lat": 38.92829283333333}, {"type": "electric_scooter", "name": "ed26d3e4a5f9c71f16d452940002783e", "is_reserved": 0, "fusion_lat": 0.0, "lon": -77.05348283333333, "is_disabled": 0, "rental_uris": {"android": "https://dc.lft.to/lastmile_qr_scan", "ios": "https://dc.lft.to/lastmile_qr_scan"}, "bike_id": "ed26d3e4a5f9c71f16d452940002783e", "fusion_lon": 0.0, "lat": 38.923476}, {"type": "electric_scooter", "name": "e0495f3d369797c9e006442ee86fca4d", "is_reserved": 0, "fusion_lat": 0.0, "lon": -77.0276425, "is_disabled": 0, "rental_uris": {"android": "https://dc.lft.to/lastmile_qr_scan", "ios": "https://dc.lft.to/lastmile_qr_scan"}, "bike_id": "e0495f3d369797c9e006442ee86fca4d", "fusion_lon": 0.0, "lat": 38.9542575}, {"type": "electric_scooter", "name": "cf7a80c2caf3a493e2544a5e153956ac", "is_reserved": 0, "fusion_lat": 0.0, "lon": -77.0327825, "is_disabled": 0, "rental_uris": {"android": "https://dc.lft.to/lastmile_qr_scan", "ios": "https://dc.lft.to/lastmile_qr_scan"}, "bike_id": "cf7a80c2caf3a493e2544a5e153956ac", "fusion_lon": 0.0, "lat": 38.936646333333336}, {"type": "electric_scooter", "name": "def8b19a1f90edb6e616919b5a3b053f", "is_reserved": 0, "fusion_lat": 0.0, "lon": -77.03185966666666, "is_disabled": 0, "rental_uris": {"android": "https://dc.lft.to/lastmile_qr_scan", "ios": "https://dc.lft.to/lastmile_qr_scan"}, "bike_id": "def8b19a1f90edb6e616919b5a3b053f", "fusion_lon": 0.0, "lat": 38.919108}, {"type": "electric_scooter", "name": "ca51e9cd98f9cb8faf6c410c2cf921d8", "is_reserved": 0, "fusion_lat": 0.0, "lon": -77.02140583333333, "is_disabled": 0, "rental_uris": {"android": "https://dc.lft.to/lastmile_qr_scan", "ios": "https://dc.lft.to/lastmile_qr_scan"}, "bike_id": "ca51e9cd98f9cb8faf6c410c2cf921d8", "fusion_lon": 0.0, "lat": 38.923212}, {"type": "electric_scooter", "name": "635ff60787bc532669a6be3f3ef68188", "is_reserved": 0, "fusion_lat": 0.0, "lon": -77.02205483333333, "is_disabled": 0, "rental_uris": {"android": "https://dc.lft.to/lastmile_qr_scan", "ios": "https://dc.lft.to/lastmile_qr_scan"}, "bike_id": "635ff60787bc532669a6be3f3ef68188", "fusion_lon": 0.0, "lat": 38.88722283333333}, {"type": "electric_scooter", "name": "3fd3705b2e6588baccf70865fc59bd9f", "is_reserved": 0, "fusion_lat": 0.0, "lon": -77.06329083333334, "is_disabled": 0, "rental_uris": {"android": "https://dc.lft.to/lastmile_qr_scan", "ios": "https://dc.lft.to/lastmile_qr_scan"}, "bike_id": "3fd3705b2e6588baccf70865fc59bd9f", "fusion_lon": 0.0, "lat": 38.907683666666664}, {"type": "electric_scooter", "name": "5ef5a9c021045e62abd172117e4530e5", "is_reserved": 0, "fusion_lat": 0.0, "lon": -77.04417033333333, "is_disabled": 0, "rental_uris": {"android": "https://dc.lft.to/lastmile_qr_scan", "ios": "https://dc.lft.to/lastmile_qr_scan"}, "bike_id": "5ef5a9c021045e62abd172117e4530e5", "fusion_lon": 0.0, "lat": 38.902128166666664}, {"type": "electric_scooter", "name": "27f0a4942ef396096a7dd916204c587c", "is_reserved": 0, "fusion_lat": 0.0, "lon": -77.0297415, "is_disabled": 0, "rental_uris": {"android": "https://dc.lft.to/lastmile_qr_scan", "ios": "https://dc.lft.to/lastmile_qr_scan"}, "bike_id": "27f0a4942ef396096a7dd916204c587c", "fusion_lon": 0.0, "lat": 38.916791}, {"type": "electric_scooter", "name": "a7fa825c1b1a774632274034579e5c75", "is_reserved": 0, "fusion_lat": 0.0, "lon": -77.02745366666667, "is_disabled": 0, "rental_uris": {"android": "https://dc.lft.to/lastmile_qr_scan", "ios": "https://dc.lft.to/lastmile_qr_scan"}, "bike_id": "a7fa825c1b1a774632274034579e5c75", "fusion_lon": 0.0, "lat": 38.935857}, {"type": "electric_scooter", "name": "f92e4b60026ae7f443f4767ac88ff838", "is_reserved": 0, "fusion_lat": 0.0, "lon": -77.02952033333334, "is_disabled": 0, "rental_uris": {"android": "https://dc.lft.to/lastmile_qr_scan", "ios": "https://dc.lft.to/lastmile_qr_scan"}, "bike_id": "f92e4b60026ae7f443f4767ac88ff838", "fusion_lon": 0.0, "lat": 38.916810166666664}, {"type": "electric_bike", "name": "d7ad2494f78e8cd49863e3aa9927492a", "is_reserved": 0, "fusion_lat": 0.0, "lon": -77.0089715, "is_disabled": 0, "rental_uris": {"android": "https://dc.lft.to/lastmile_qr_scan", "ios": "https://dc.lft.to/lastmile_qr_scan"}, "bike_id": "d7ad2494f78e8cd49863e3aa9927492a", "fusion_lon": 0.0, "lat": 38.899346666666666}, {"type": "electric_scooter", "name": "ea97f5aa5401af7002ca543d08c1b68d", "is_reserved": 0, "fusion_lat": 0.0, "lon": -76.9973825, "is_disabled": 0, "rental_uris": {"android": "https://dc.lft.to/lastmile_qr_scan", "ios": "https://dc.lft.to/lastmile_qr_scan"}, "bike_id": "ea97f5aa5401af7002ca543d08c1b68d", "fusion_lon": 0.0, "lat": 38.901264166666664}, {"type": "electric_scooter", "name": "79d75560a1077894d9534e5726f525bb", "is_reserved": 0, "fusion_lat": 0.0, "lon": -76.986968, "is_disabled": 0, "rental_uris": {"android": "https://dc.lft.to/lastmile_qr_scan", "ios": "https://dc.lft.to/lastmile_qr_scan"}, "bike_id": "79d75560a1077894d9534e5726f525bb", "fusion_lon": 0.0, "lat": 38.86251733333334}, {"type": "electric_scooter", "name": "e176d009be1ca003693c01781bbaaf98", "is_reserved": 0, "fusion_lat": 0.0, "lon": -77.0320765, "is_disabled": 0, "rental_uris": {"android": "https://dc.lft.to/lastmile_qr_scan", "ios": "https://dc.lft.to/lastmile_qr_scan"}, "bike_id": "e176d009be1ca003693c01781bbaaf98", "fusion_lon": 0.0, "lat": 38.907844}, {"type": "electric_scooter", "name": "7bd9dc0399ee39301952576d0d65f5cf", "is_reserved": 0, "fusion_lat": 0.0, "lon": -77.027185, "is_disabled": 0, "rental_uris": {"android": "https://dc.lft.to/lastmile_qr_scan", "ios": "https://dc.lft.to/lastmile_qr_scan"}, "bike_id": "7bd9dc0399ee39301952576d0d65f5cf", "fusion_lon": 0.0, "lat": 38.91675133333333}, {"type": "electric_scooter", "name": "6b3446227fbcd347ddfa6bce1049ebba", "is_reserved": 0, "fusion_lat": 0.0, "lon": -76.99363083333333, "is_disabled": 0, "rental_uris": {"android": "https://dc.lft.to/lastmile_qr_scan", "ios": "https://dc.lft.to/lastmile_qr_scan"}, "bike_id": "6b3446227fbcd347ddfa6bce1049ebba", "fusion_lon": 0.0, "lat": 38.92839816666667}, {"type": "electric_scooter", "name": "e080ab0e9ea37eb87a7c7ccd24b8a599", "is_reserved": 0, "fusion_lat": 0.0, "lon": -77.00293733333334, "is_disabled": 0, "rental_uris": {"android": "https://dc.lft.to/lastmile_qr_scan", "ios": "https://dc.lft.to/lastmile_qr_scan"}, "bike_id": "e080ab0e9ea37eb87a7c7ccd24b8a599", "fusion_lon": 0.0, "lat": 38.89492116666667}, {"type": "electric_scooter", "name": "00a69f27f70167cf3062a7be97e8daa3", "is_reserved": 0, "fusion_lat": 0.0, "lon": -77.0345345, "is_disabled": 0, "rental_uris": {"android": "https://dc.lft.to/lastmile_qr_scan", "ios": "https://dc.lft.to/lastmile_qr_scan"}, "bike_id": "00a69f27f70167cf3062a7be97e8daa3", "fusion_lon": 0.0, "lat": 38.9214635}, {"type": "electric_scooter", "name": "fa72d52e5171fd27ea84454fcce1771c", "is_reserved": 0, "fusion_lat": 0.0, "lon": -77.06287216666666, "is_disabled": 0, "rental_uris": {"android": "https://dc.lft.to/lastmile_qr_scan", "ios": "https://dc.lft.to/lastmile_qr_scan"}, "bike_id": "fa72d52e5171fd27ea84454fcce1771c", "fusion_lon": 0.0, "lat": 38.94343383333333}, {"type": "electric_scooter", "name": "e758748863c6a0879bbae2261d917951", "is_reserved": 0, "fusion_lat": 0.0, "lon": -77.04331033333334, "is_disabled": 0, "rental_uris": {"android": "https://dc.lft.to/lastmile_qr_scan", "ios": "https://dc.lft.to/lastmile_qr_scan"}, "bike_id": "e758748863c6a0879bbae2261d917951", "fusion_lon": 0.0, "lat": 38.892259833333334}, {"type": "electric_scooter", "name": "44d6f457dfdafc604e34560bf58ee90e", "is_reserved": 0, "fusion_lat": 0.0, "lon": -77.03836683333333, "is_disabled": 0, "rental_uris": {"android": "https://dc.lft.to/lastmile_qr_scan", "ios": "https://dc.lft.to/lastmile_qr_scan"}, "bike_id": "44d6f457dfdafc604e34560bf58ee90e", "fusion_lon": 0.0, "lat": 38.9071935}, {"type": "electric_scooter", "name": "fe688e16f853739e7f168b29289a6e14", "is_reserved": 0, "fusion_lat": 0.0, "lon": -76.98878466666666, "is_disabled": 0, "rental_uris": {"android": "https://dc.lft.to/lastmile_qr_scan", "ios": "https://dc.lft.to/lastmile_qr_scan"}, "bike_id": "fe688e16f853739e7f168b29289a6e14", "fusion_lon": 0.0, "lat": 38.9002955}, {"type": "electric_scooter", "name": "8c14975f2dbbfdc65eddaacd5bf8d2f9", "is_reserved": 0, "fusion_lat": 0.0, "lon": -77.033057, "is_disabled": 0, "rental_uris": {"android": "https://dc.lft.to/lastmile_qr_scan", "ios": "https://dc.lft.to/lastmile_qr_scan"}, "bike_id": "8c14975f2dbbfdc65eddaacd5bf8d2f9", "fusion_lon": 0.0, "lat": 38.909622166666665}, {"type": "electric_scooter", "name": "5b8d8271f4551e1f6cb9ef11e7a9a634", "is_reserved": 0, "fusion_lat": 0.0, "lon": -77.03196133333333, "is_disabled": 0, "rental_uris": {"android": "https://dc.lft.to/lastmile_qr_scan", "ios": "https://dc.lft.to/lastmile_qr_scan"}, "bike_id": "5b8d8271f4551e1f6cb9ef11e7a9a634", "fusion_lon": 0.0, "lat": 38.918078333333334}, {"type": "electric_scooter", "name": "860958a188c82a3f22a7ae42c375deef", "is_reserved": 0, "fusion_lat": 0.0, "lon": -77.00375866666667, "is_disabled": 0, "rental_uris": {"android": "https://dc.lft.to/lastmile_qr_scan", "ios": "https://dc.lft.to/lastmile_qr_scan"}, "bike_id": "860958a188c82a3f22a7ae42c375deef", "fusion_lon": 0.0, "lat": 38.8973195}, {"type": "electric_scooter", "name": "e1baa251bef1a00d0183e2e7335127e4", "is_reserved": 0, "fusion_lat": 0.0, "lon": -77.00203483333334, "is_disabled": 0, "rental_uris": {"android": "https://dc.lft.to/lastmile_qr_scan", "ios": "https://dc.lft.to/lastmile_qr_scan"}, "bike_id": "e1baa251bef1a00d0183e2e7335127e4", "fusion_lon": 0.0, "lat": 38.89540066666667}, {"type": "electric_scooter", "name": "fb17bdc638b24349636206ce84512575", "is_reserved": 0, "fusion_lat": 0.0, "lon": -76.97330933333333, "is_disabled": 0, "rental_uris": {"android": "https://dc.lft.to/lastmile_qr_scan", "ios": "https://dc.lft.to/lastmile_qr_scan"}, "bike_id": "fb17bdc638b24349636206ce84512575", "fusion_lon": 0.0, "lat": 38.9040735}, {"type": "electric_scooter", "name": "e847f21af83e5ae6eb324fff4fb4cf72", "is_reserved": 0, "fusion_lat": 0.0, "lon": -77.03324416666666, "is_disabled": 0, "rental_uris": {"android": "https://dc.lft.to/lastmile_qr_scan", "ios": "https://dc.lft.to/lastmile_qr_scan"}, "bike_id": "e847f21af83e5ae6eb324fff4fb4cf72", "fusion_lon": 0.0, "lat": 38.9216325}, {"type": "electric_scooter", "name": "9befd02191857e521361efa221630b04", "is_reserved": 0, "fusion_lat": 0.0, "lon": -77.02724433333333, "is_disabled": 0, "rental_uris": {"android": "https://dc.lft.to/lastmile_qr_scan", "ios": "https://dc.lft.to/lastmile_qr_scan"}, "bike_id": "9befd02191857e521361efa221630b04", "fusion_lon": 0.0, "lat": 38.91823733333333}, {"type": "electric_scooter", "name": "139f7b9cf3865da5278aec93ae58d424", "is_reserved": 0, "fusion_lat": 0.0, "lon": -76.974846, "is_disabled": 0, "rental_uris": {"android": "https://dc.lft.to/lastmile_qr_scan", "ios": "https://dc.lft.to/lastmile_qr_scan"}, "bike_id": "139f7b9cf3865da5278aec93ae58d424", "fusion_lon": 0.0, "lat": 38.903533333333336}, {"type": "electric_scooter", "name": "935b58c07ddbf6ca2bf48cc6edf3626a", "is_reserved": 0, "fusion_lat": 0.0, "lon": -77.02688533333334, "is_disabled": 0, "rental_uris": {"android": "https://dc.lft.to/lastmile_qr_scan", "ios": "https://dc.lft.to/lastmile_qr_scan"}, "bike_id": "935b58c07ddbf6ca2bf48cc6edf3626a", "fusion_lon": 0.0, "lat": 38.908697833333335}, {"type": "electric_scooter", "name": "5b6b35005ada1bb259877a9f9fb2dc19", "is_reserved": 0, "fusion_lat": 0.0, "lon": -77.00682183333333, "is_disabled": 0, "rental_uris": {"android": "https://dc.lft.to/lastmile_qr_scan", "ios": "https://dc.lft.to/lastmile_qr_scan"}, "bike_id": "5b6b35005ada1bb259877a9f9fb2dc19", "fusion_lon": 0.0, "lat": 38.900187}, {"type": "electric_scooter", "name": "a31fed6e52f7ce90c77930bf947ac635", "is_reserved": 0, "fusion_lat": 0.0, "lon": -77.04036866666667, "is_disabled": 0, "rental_uris": {"android": "https://dc.lft.to/lastmile_qr_scan", "ios": "https://dc.lft.to/lastmile_qr_scan"}, "bike_id": "a31fed6e52f7ce90c77930bf947ac635", "fusion_lon": 0.0, "lat": 38.9013235}, {"type": "electric_scooter", "name": "f2ca15c9c481c27c6ab5dac098c628eb", "is_reserved": 0, "fusion_lat": 0.0, "lon": -77.04038266666667, "is_disabled": 0, "rental_uris": {"android": "https://dc.lft.to/lastmile_qr_scan", "ios": "https://dc.lft.to/lastmile_qr_scan"}, "bike_id": "f2ca15c9c481c27c6ab5dac098c628eb", "fusion_lon": 0.0, "lat": 38.918627666666666}, {"type": "electric_scooter", "name": "bff82e50ff5e2119555b29ca6de7de20", "is_reserved": 0, "fusion_lat": 0.0, "lon": -77.05815233333334, "is_disabled": 0, "rental_uris": {"android": "https://dc.lft.to/lastmile_qr_scan", "ios": "https://dc.lft.to/lastmile_qr_scan"}, "bike_id": "bff82e50ff5e2119555b29ca6de7de20", "fusion_lon": 0.0, "lat": 38.9350955}, {"type": "electric_scooter", "name": "11019d3d6605cfedaf88b173f63c7a1b", "is_reserved": 0, "fusion_lat": 0.0, "lon": -77.0288735, "is_disabled": 0, "rental_uris": {"android": "https://dc.lft.to/lastmile_qr_scan", "ios": "https://dc.lft.to/lastmile_qr_scan"}, "bike_id": "11019d3d6605cfedaf88b173f63c7a1b", "fusion_lon": 0.0, "lat": 39.037536333333335}, {"type": "electric_scooter", "name": "be10a366c3cc1b3a7c1fe3664e35c774", "is_reserved": 0, "fusion_lat": 0.0, "lon": -76.98673416666666, "is_disabled": 0, "rental_uris": {"android": "https://dc.lft.to/lastmile_qr_scan", "ios": "https://dc.lft.to/lastmile_qr_scan"}, "bike_id": "be10a366c3cc1b3a7c1fe3664e35c774", "fusion_lon": 0.0, "lat": 38.90976416666667}, {"type": "electric_scooter", "name": "86c7d1931a85a5c9faae462fd6bfd518", "is_reserved": 0, "fusion_lat": 0.0, "lon": -77.02329116666667, "is_disabled": 0, "rental_uris": {"android": "https://dc.lft.to/lastmile_qr_scan", "ios": "https://dc.lft.to/lastmile_qr_scan"}, "bike_id": "86c7d1931a85a5c9faae462fd6bfd518", "fusion_lon": 0.0, "lat": 38.924767}, {"type": "electric_bike", "name": "be938400a1fb4030f80095c2aebaee7e", "is_reserved": 0, "fusion_lat": 0.0, "lon": -77.09484366666666, "is_disabled": 0, "rental_uris": {"android": "https://dc.lft.to/lastmile_qr_scan", "ios": "https://dc.lft.to/lastmile_qr_scan"}, "bike_id": "be938400a1fb4030f80095c2aebaee7e", "fusion_lon": 0.0, "lat": 39.0304705}, {"type": "electric_scooter", "name": "99ea91c6bca2dfad69cb46eb18b28caf", "is_reserved": 0, "fusion_lat": 0.0, "lon": -77.02396183333333, "is_disabled": 0, "rental_uris": {"android": "https://dc.lft.to/lastmile_qr_scan", "ios": "https://dc.lft.to/lastmile_qr_scan"}, "bike_id": "99ea91c6bca2dfad69cb46eb18b28caf", "fusion_lon": 0.0, "lat": 38.9198835}, {"type": "electric_scooter", "name": "b8db2148fad1af9be41cfa4a74beda61", "is_reserved": 0, "fusion_lat": 0.0, "lon": -77.02825516666667, "is_disabled": 0, "rental_uris": {"android": "https://dc.lft.to/lastmile_qr_scan", "ios": "https://dc.lft.to/lastmile_qr_scan"}, "bike_id": "b8db2148fad1af9be41cfa4a74beda61", "fusion_lon": 0.0, "lat": 38.960830666666666}, {"type": "electric_scooter", "name": "f1a7dde3b2730b784884d739950a602c", "is_reserved": 0, "fusion_lat": 0.0, "lon": -77.07235966666667, "is_disabled": 0, "rental_uris": {"android": "https://dc.lft.to/lastmile_qr_scan", "ios": "https://dc.lft.to/lastmile_qr_scan"}, "bike_id": "f1a7dde3b2730b784884d739950a602c", "fusion_lon": 0.0, "lat": 38.94005116666666}, {"type": "electric_scooter", "name": "527148214874f9590befc15f293ac5b8", "is_reserved": 0, "fusion_lat": 0.0, "lon": -76.983804, "is_disabled": 0, "rental_uris": {"android": "https://dc.lft.to/lastmile_qr_scan", "ios": "https://dc.lft.to/lastmile_qr_scan"}, "bike_id": "527148214874f9590befc15f293ac5b8", "fusion_lon": 0.0, "lat": 38.86120583333334}, {"type": "electric_scooter", "name": "94b9286a21fc79f5784596fcd6627bcc", "is_reserved": 0, "fusion_lat": 0.0, "lon": -77.001734, "is_disabled": 0, "rental_uris": {"android": "https://dc.lft.to/lastmile_qr_scan", "ios": "https://dc.lft.to/lastmile_qr_scan"}, "bike_id": "94b9286a21fc79f5784596fcd6627bcc", "fusion_lon": 0.0, "lat": 38.876558833333334}, {"type": "electric_scooter", "name": "9aa41207f0fe91ee0a5d907d55cea7e3", "is_reserved": 0, "fusion_lat": 0.0, "lon": -77.00489366666666, "is_disabled": 0, "rental_uris": {"android": "https://dc.lft.to/lastmile_qr_scan", "ios": "https://dc.lft.to/lastmile_qr_scan"}, "bike_id": "9aa41207f0fe91ee0a5d907d55cea7e3", "fusion_lon": 0.0, "lat": 38.8970545}, {"type": "electric_scooter", "name": "3c2253c07ac28e79e011630a92f0bd16", "is_reserved": 0, "fusion_lat": 0.0, "lon": -77.00916366666667, "is_disabled": 0, "rental_uris": {"android": "https://dc.lft.to/lastmile_qr_scan", "ios": "https://dc.lft.to/lastmile_qr_scan"}, "bike_id": "3c2253c07ac28e79e011630a92f0bd16", "fusion_lon": 0.0, "lat": 38.90184583333333}, {"type": "electric_scooter", "name": "c3d13039cb927329758341e28681569d", "is_reserved": 0, "fusion_lat": 0.0, "lon": -77.03347916666667, "is_disabled": 0, "rental_uris": {"android": "https://dc.lft.to/lastmile_qr_scan", "ios": "https://dc.lft.to/lastmile_qr_scan"}, "bike_id": "c3d13039cb927329758341e28681569d", "fusion_lon": 0.0, "lat": 38.89738466666667}, {"type": "electric_scooter", "name": "085f170ecad284fce200d622dda18b1b", "is_reserved": 0, "fusion_lat": 0.0, "lon": -77.015026, "is_disabled": 0, "rental_uris": {"android": "https://dc.lft.to/lastmile_qr_scan", "ios": "https://dc.lft.to/lastmile_qr_scan"}, "bike_id": "085f170ecad284fce200d622dda18b1b", "fusion_lon": 0.0, "lat": 38.892978}, {"type": "electric_scooter", "name": "19bf38548927e25abea7a6315cb27f58", "is_reserved": 0, "fusion_lat": 0.0, "lon": -77.01273966666666, "is_disabled": 0, "rental_uris": {"android": "https://dc.lft.to/lastmile_qr_scan", "ios": "https://dc.lft.to/lastmile_qr_scan"}, "bike_id": "19bf38548927e25abea7a6315cb27f58", "fusion_lon": 0.0, "lat": 38.89736833333333}, {"type": "electric_scooter", "name": "c758e94f453097d9f4d07f063bcc3f26", "is_reserved": 0, "fusion_lat": 0.0, "lon": -77.00606633333334, "is_disabled": 0, "rental_uris": {"android": "https://dc.lft.to/lastmile_qr_scan", "ios": "https://dc.lft.to/lastmile_qr_scan"}, "bike_id": "c758e94f453097d9f4d07f063bcc3f26", "fusion_lon": 0.0, "lat": 38.90585266666667}, {"type": "electric_scooter", "name": "f2bd2cd2f290dbb02c92773cf0a353c6", "is_reserved": 0, "fusion_lat": 0.0, "lon": -76.9962455, "is_disabled": 0, "rental_uris": {"android": "https://dc.lft.to/lastmile_qr_scan", "ios": "https://dc.lft.to/lastmile_qr_scan"}, "bike_id": "f2bd2cd2f290dbb02c92773cf0a353c6", "fusion_lon": 0.0, "lat": 38.8856765}, {"type": "electric_scooter", "name": "e95012a4bc7710cda5790517e1ef95f8", "is_reserved": 0, "fusion_lat": 0.0, "lon": -76.95665966666667, "is_disabled": 0, "rental_uris": {"android": "https://dc.lft.to/lastmile_qr_scan", "ios": "https://dc.lft.to/lastmile_qr_scan"}, "bike_id": "e95012a4bc7710cda5790517e1ef95f8", "fusion_lon": 0.0, "lat": 38.8940975}, {"type": "electric_bike", "name": "942cc409322e1b4a99ac8435e7f2c673", "is_reserved": 0, "fusion_lat": 0.0, "lon": -76.94822883333333, "is_disabled": 0, "rental_uris": {"android": "https://dc.lft.to/lastmile_qr_scan", "ios": "https://dc.lft.to/lastmile_qr_scan"}, "bike_id": "942cc409322e1b4a99ac8435e7f2c673", "fusion_lon": 0.0, "lat": 38.89382583333333}, {"type": "electric_scooter", "name": "fcd8a6092323ec5cdd5bac80381e9f43", "is_reserved": 0, "fusion_lat": 0.0, "lon": -76.96778483333334, "is_disabled": 0, "rental_uris": {"android": "https://dc.lft.to/lastmile_qr_scan", "ios": "https://dc.lft.to/lastmile_qr_scan"}, "bike_id": "fcd8a6092323ec5cdd5bac80381e9f43", "fusion_lon": 0.0, "lat": 38.85926633333333}, {"type": "electric_scooter", "name": "9faa1b298606ae354a86520022d34743", "is_reserved": 0, "fusion_lat": 0.0, "lon": -76.995248, "is_disabled": 0, "rental_uris": {"android": "https://dc.lft.to/lastmile_qr_scan", "ios": "https://dc.lft.to/lastmile_qr_scan"}, "bike_id": "9faa1b298606ae354a86520022d34743", "fusion_lon": 0.0, "lat": 38.895436833333335}, {"type": "electric_scooter", "name": "24222d04075145b5b47af580c7ba9017", "is_reserved": 0, "fusion_lat": 0.0, "lon": -77.03186266666667, "is_disabled": 0, "rental_uris": {"android": "https://dc.lft.to/lastmile_qr_scan", "ios": "https://dc.lft.to/lastmile_qr_scan"}, "bike_id": "24222d04075145b5b47af580c7ba9017", "fusion_lon": 0.0, "lat": 38.91350416666667}, {"type": "electric_scooter", "name": "0b376803ae766945da8388a83c193992", "is_reserved": 0, "fusion_lat": 0.0, "lon": -77.0179875, "is_disabled": 0, "rental_uris": {"android": "https://dc.lft.to/lastmile_qr_scan", "ios": "https://dc.lft.to/lastmile_qr_scan"}, "bike_id": "0b376803ae766945da8388a83c193992", "fusion_lon": 0.0, "lat": 38.87670383333333}, {"type": "electric_scooter", "name": "f281c73881a21e71b489e58569a20c62", "is_reserved": 0, "fusion_lat": 0.0, "lon": -77.026951, "is_disabled": 0, "rental_uris": {"android": "https://dc.lft.to/lastmile_qr_scan", "ios": "https://dc.lft.to/lastmile_qr_scan"}, "bike_id": "f281c73881a21e71b489e58569a20c62", "fusion_lon": 0.0, "lat": 38.911337833333334}, {"type": "electric_scooter", "name": "002143821f0a7e9b5ff93acbadd9356b", "is_reserved": 0, "fusion_lat": 0.0, "lon": -77.00435483333334, "is_disabled": 0, "rental_uris": {"android": "https://dc.lft.to/lastmile_qr_scan", "ios": "https://dc.lft.to/lastmile_qr_scan"}, "bike_id": "002143821f0a7e9b5ff93acbadd9356b", "fusion_lon": 0.0, "lat": 38.87678783333333}, {"type": "electric_scooter", "name": "a35fc87b32d2281d82e418eec58e85b1", "is_reserved": 0, "fusion_lat": 0.0, "lon": -77.03957016666666, "is_disabled": 0, "rental_uris": {"android": "https://dc.lft.to/lastmile_qr_scan", "ios": "https://dc.lft.to/lastmile_qr_scan"}, "bike_id": "a35fc87b32d2281d82e418eec58e85b1", "fusion_lon": 0.0, "lat": 38.902536}, {"type": "electric_bike", "name": "82546abef8d097a5e404d28bd478b5fa", "is_reserved": 0, "fusion_lat": 0.0, "lon": -76.98760983333334, "is_disabled": 0, "rental_uris": {"android": "https://dc.lft.to/lastmile_qr_scan", "ios": "https://dc.lft.to/lastmile_qr_scan"}, "bike_id": "82546abef8d097a5e404d28bd478b5fa", "fusion_lon": 0.0, "lat": 38.857686666666666}, {"type": "electric_scooter", "name": "8fdd23dfb786df61575cfbcbd718ae4d", "is_reserved": 0, "fusion_lat": 0.0, "lon": -77.01832333333333, "is_disabled": 0, "rental_uris": {"android": "https://dc.lft.to/lastmile_qr_scan", "ios": "https://dc.lft.to/lastmile_qr_scan"}, "bike_id": "8fdd23dfb786df61575cfbcbd718ae4d", "fusion_lon": 0.0, "lat": 38.922695}, {"type": "electric_scooter", "name": "e41df3746e84f97290d7ff92e400c24c", "is_reserved": 0, "fusion_lat": 0.0, "lon": -77.03245833333334, "is_disabled": 0, "rental_uris": {"android": "https://dc.lft.to/lastmile_qr_scan", "ios": "https://dc.lft.to/lastmile_qr_scan"}, "bike_id": "e41df3746e84f97290d7ff92e400c24c", "fusion_lon": 0.0, "lat": 38.914122166666665}, {"type": "electric_scooter", "name": "8613ab4710db31cb6e6f3aaf73b6f2b0", "is_reserved": 0, "fusion_lat": 0.0, "lon": -76.93263866666666, "is_disabled": 0, "rental_uris": {"android": "https://dc.lft.to/lastmile_qr_scan", "ios": "https://dc.lft.to/lastmile_qr_scan"}, "bike_id": "8613ab4710db31cb6e6f3aaf73b6f2b0", "fusion_lon": 0.0, "lat": 38.88772983333333}, {"type": "electric_scooter", "name": "a585650581f5f7a7f6f9330b35cd08c7", "is_reserved": 0, "fusion_lat": 0.0, "lon": -77.04476533333333, "is_disabled": 0, "rental_uris": {"android": "https://dc.lft.to/lastmile_qr_scan", "ios": "https://dc.lft.to/lastmile_qr_scan"}, "bike_id": "a585650581f5f7a7f6f9330b35cd08c7", "fusion_lon": 0.0, "lat": 38.9214285}, {"type": "electric_scooter", "name": "fbf66180d87f83964ee61c376230edb3", "is_reserved": 0, "fusion_lat": 0.0, "lon": -77.02694933333333, "is_disabled": 0, "rental_uris": {"android": "https://dc.lft.to/lastmile_qr_scan", "ios": "https://dc.lft.to/lastmile_qr_scan"}, "bike_id": "fbf66180d87f83964ee61c376230edb3", "fusion_lon": 0.0, "lat": 38.909772333333336}, {"type": "electric_scooter", "name": "9336ad0cc29265eebb00546d35ec8e33", "is_reserved": 0, "fusion_lat": 0.0, "lon": -77.04317416666666, "is_disabled": 0, "rental_uris": {"android": "https://dc.lft.to/lastmile_qr_scan", "ios": "https://dc.lft.to/lastmile_qr_scan"}, "bike_id": "9336ad0cc29265eebb00546d35ec8e33", "fusion_lon": 0.0, "lat": 38.92798883333333}, {"type": "electric_scooter", "name": "aac773687478ee4964ca38736089b017", "is_reserved": 0, "fusion_lat": 0.0, "lon": -77.0033255, "is_disabled": 0, "rental_uris": {"android": "https://dc.lft.to/lastmile_qr_scan", "ios": "https://dc.lft.to/lastmile_qr_scan"}, "bike_id": "aac773687478ee4964ca38736089b017", "fusion_lon": 0.0, "lat": 38.893617166666665}, {"type": "electric_scooter", "name": "107d90f681e6cd9a4f74addf0d46c451", "is_reserved": 0, "fusion_lat": 0.0, "lon": -77.03954666666667, "is_disabled": 0, "rental_uris": {"android": "https://dc.lft.to/lastmile_qr_scan", "ios": "https://dc.lft.to/lastmile_qr_scan"}, "bike_id": "107d90f681e6cd9a4f74addf0d46c451", "fusion_lon": 0.0, "lat": 38.931492666666664}, {"type": "electric_scooter", "name": "b7d8c4842b51dc83f51cdf5a0e303f46", "is_reserved": 0, "fusion_lat": 0.0, "lon": -77.024927, "is_disabled": 0, "rental_uris": {"android": "https://dc.lft.to/lastmile_qr_scan", "ios": "https://dc.lft.to/lastmile_qr_scan"}, "bike_id": "b7d8c4842b51dc83f51cdf5a0e303f46", "fusion_lon": 0.0, "lat": 38.94186533333333}, {"type": "electric_scooter", "name": "08e3f0bf6fa6a00446639dc0d8734bff", "is_reserved": 0, "fusion_lat": 0.0, "lon": -77.02808183333333, "is_disabled": 0, "rental_uris": {"android": "https://dc.lft.to/lastmile_qr_scan", "ios": "https://dc.lft.to/lastmile_qr_scan"}, "bike_id": "08e3f0bf6fa6a00446639dc0d8734bff", "fusion_lon": 0.0, "lat": 38.932978}, {"type": "electric_bike", "name": "6c28f21702b440fd0b9da173a9c5596a", "is_reserved": 0, "fusion_lat": 0.0, "lon": -76.9442275, "is_disabled": 0, "rental_uris": {"android": "https://dc.lft.to/lastmile_qr_scan", "ios": "https://dc.lft.to/lastmile_qr_scan"}, "bike_id": "6c28f21702b440fd0b9da173a9c5596a", "fusion_lon": 0.0, "lat": 38.96616516666667}, {"type": "electric_scooter", "name": "2cdd85a2668fcbdf923bdaa7d2401541", "is_reserved": 0, "fusion_lat": 0.0, "lon": -76.96713066666666, "is_disabled": 0, "rental_uris": {"android": "https://dc.lft.to/lastmile_qr_scan", "ios": "https://dc.lft.to/lastmile_qr_scan"}, "bike_id": "2cdd85a2668fcbdf923bdaa7d2401541", "fusion_lon": 0.0, "lat": 38.847984}, {"type": "electric_scooter", "name": "8f1f587535636353cb25132394091fa3", "is_reserved": 0, "fusion_lat": 0.0, "lon": -76.99864883333333, "is_disabled": 0, "rental_uris": {"android": "https://dc.lft.to/lastmile_qr_scan", "ios": "https://dc.lft.to/lastmile_qr_scan"}, "bike_id": "8f1f587535636353cb25132394091fa3", "fusion_lon": 0.0, "lat": 38.90028083333333}, {"type": "electric_bike", "name": "a99849d26bfaa21b389b7db454c23dc5", "is_reserved": 0, "fusion_lat": 0.0, "lon": -77.0058385, "is_disabled": 0, "rental_uris": {"android": "https://dc.lft.to/lastmile_qr_scan", "ios": "https://dc.lft.to/lastmile_qr_scan"}, "bike_id": "a99849d26bfaa21b389b7db454c23dc5", "fusion_lon": 0.0, "lat": 38.9024215}, {"type": "electric_bike", "name": "919b809d7627387cdbdb8cb000186733", "is_reserved": 0, "fusion_lat": 0.0, "lon": -76.92334483333333, "is_disabled": 0, "rental_uris": {"android": "https://dc.lft.to/lastmile_qr_scan", "ios": "https://dc.lft.to/lastmile_qr_scan"}, "bike_id": "919b809d7627387cdbdb8cb000186733", "fusion_lon": 0.0, "lat": 38.871037666666666}, {"type": "electric_bike", "name": "0b71344e982e94bce27252c1aaa8f273", "is_reserved": 0, "fusion_lat": 0.0, "lon": -77.08138333333333, "is_disabled": 0, "rental_uris": {"android": "https://dc.lft.to/lastmile_qr_scan", "ios": "https://dc.lft.to/lastmile_qr_scan"}, "bike_id": "0b71344e982e94bce27252c1aaa8f273", "fusion_lon": 0.0, "lat": 38.951992}, {"type": "electric_scooter", "name": "9f0a43459865bd63b8d2c8b08fddb29a", "is_reserved": 0, "fusion_lat": 0.0, "lon": -77.02877516666666, "is_disabled": 0, "rental_uris": {"android": "https://dc.lft.to/lastmile_qr_scan", "ios": "https://dc.lft.to/lastmile_qr_scan"}, "bike_id": "9f0a43459865bd63b8d2c8b08fddb29a", "fusion_lon": 0.0, "lat": 38.90417466666667}, {"type": "electric_scooter", "name": "b5ba2b98ac4c4a115644aab214fe8450", "is_reserved": 0, "fusion_lat": 0.0, "lon": -77.02403, "is_disabled": 0, "rental_uris": {"android": "https://dc.lft.to/lastmile_qr_scan", "ios": "https://dc.lft.to/lastmile_qr_scan"}, "bike_id": "b5ba2b98ac4c4a115644aab214fe8450", "fusion_lon": 0.0, "lat": 38.917449}, {"type": "electric_scooter", "name": "fddfbe75e1f7d4683dbb80552b8487d9", "is_reserved": 0, "fusion_lat": 0.0, "lon": -77.02174233333334, "is_disabled": 0, "rental_uris": {"android": "https://dc.lft.to/lastmile_qr_scan", "ios": "https://dc.lft.to/lastmile_qr_scan"}, "bike_id": "fddfbe75e1f7d4683dbb80552b8487d9", "fusion_lon": 0.0, "lat": 38.915555}, {"type": "electric_bike", "name": "d50b40af5dd75f98580362064cc399a6", "is_reserved": 0, "fusion_lat": 0.0, "lon": -77.05800383333333, "is_disabled": 0, "rental_uris": {"android": "https://dc.lft.to/lastmile_qr_scan", "ios": "https://dc.lft.to/lastmile_qr_scan"}, "bike_id": "d50b40af5dd75f98580362064cc399a6", "fusion_lon": 0.0, "lat": 38.901190666666665}, {"type": "electric_scooter", "name": "7d234457233e1f9ca433e54e0c1a0962", "is_reserved": 0, "fusion_lat": 0.0, "lon": -77.03357883333334, "is_disabled": 0, "rental_uris": {"android": "https://dc.lft.to/lastmile_qr_scan", "ios": "https://dc.lft.to/lastmile_qr_scan"}, "bike_id": "7d234457233e1f9ca433e54e0c1a0962", "fusion_lon": 0.0, "lat": 38.928818}, {"type": "electric_scooter", "name": "38ab1245cfc0da917831471b446e0589", "is_reserved": 0, "fusion_lat": 0.0, "lon": -77.05133716666667, "is_disabled": 0, "rental_uris": {"android": "https://dc.lft.to/lastmile_qr_scan", "ios": "https://dc.lft.to/lastmile_qr_scan"}, "bike_id": "38ab1245cfc0da917831471b446e0589", "fusion_lon": 0.0, "lat": 38.90716416666667}, {"type": "electric_scooter", "name": "9d9ae66a6a278d23960ab90c9ec6dd18", "is_reserved": 0, "fusion_lat": 0.0, "lon": -77.00776383333333, "is_disabled": 0, "rental_uris": {"android": "https://dc.lft.to/lastmile_qr_scan", "ios": "https://dc.lft.to/lastmile_qr_scan"}, "bike_id": "9d9ae66a6a278d23960ab90c9ec6dd18", "fusion_lon": 0.0, "lat": 38.926711833333336}, {"type": "electric_scooter", "name": "64de6aeedabf7955637a320e060d4d5d", "is_reserved": 0, "fusion_lat": 0.0, "lon": -76.99861716666666, "is_disabled": 0, "rental_uris": {"android": "https://dc.lft.to/lastmile_qr_scan", "ios": "https://dc.lft.to/lastmile_qr_scan"}, "bike_id": "64de6aeedabf7955637a320e060d4d5d", "fusion_lon": 0.0, "lat": 38.900039}, {"type": "electric_scooter", "name": "24e32a8c07a534ef9be7659dd2fb89ac", "is_reserved": 0, "fusion_lat": 0.0, "lon": -77.040143, "is_disabled": 0, "rental_uris": {"android": "https://dc.lft.to/lastmile_qr_scan", "ios": "https://dc.lft.to/lastmile_qr_scan"}, "bike_id": "24e32a8c07a534ef9be7659dd2fb89ac", "fusion_lon": 0.0, "lat": 38.903675666666665}, {"type": "electric_scooter", "name": "1e450b51f274ad0c4bc2308f5f149df3", "is_reserved": 0, "fusion_lat": 0.0, "lon": -77.02160833333333, "is_disabled": 0, "rental_uris": {"android": "https://dc.lft.to/lastmile_qr_scan", "ios": "https://dc.lft.to/lastmile_qr_scan"}, "bike_id": "1e450b51f274ad0c4bc2308f5f149df3", "fusion_lon": 0.0, "lat": 38.92612}, {"type": "electric_scooter", "name": "01d8e8326bc4e825567c5ae9bdbfed75", "is_reserved": 0, "fusion_lat": 0.0, "lon": -77.02503033333333, "is_disabled": 0, "rental_uris": {"android": "https://dc.lft.to/lastmile_qr_scan", "ios": "https://dc.lft.to/lastmile_qr_scan"}, "bike_id": "01d8e8326bc4e825567c5ae9bdbfed75", "fusion_lon": 0.0, "lat": 38.90636716666667}, {"type": "electric_scooter", "name": "e792180e6c0b503419159026fe52f693", "is_reserved": 0, "fusion_lat": 0.0, "lon": -77.011109, "is_disabled": 0, "rental_uris": {"android": "https://dc.lft.to/lastmile_qr_scan", "ios": "https://dc.lft.to/lastmile_qr_scan"}, "bike_id": "e792180e6c0b503419159026fe52f693", "fusion_lon": 0.0, "lat": 38.8949865}, {"type": "electric_scooter", "name": "1aac689e8101c73b257f6bd53ea7d2de", "is_reserved": 0, "fusion_lat": 0.0, "lon": -77.0506375, "is_disabled": 0, "rental_uris": {"android": "https://dc.lft.to/lastmile_qr_scan", "ios": "https://dc.lft.to/lastmile_qr_scan"}, "bike_id": "1aac689e8101c73b257f6bd53ea7d2de", "fusion_lon": 0.0, "lat": 38.900789833333334}, {"type": "electric_scooter", "name": "664b69963d87616ffae5af090cddd87a", "is_reserved": 0, "fusion_lat": 0.0, "lon": -77.04342466666667, "is_disabled": 0, "rental_uris": {"android": "https://dc.lft.to/lastmile_qr_scan", "ios": "https://dc.lft.to/lastmile_qr_scan"}, "bike_id": "664b69963d87616ffae5af090cddd87a", "fusion_lon": 0.0, "lat": 38.90374383333333}, {"type": "electric_bike", "name": "8dad32bbad4049d4b948e920245bba11", "is_reserved": 0, "fusion_lat": 0.0, "lon": -77.095262, "is_disabled": 0, "rental_uris": {"android": "https://dc.lft.to/lastmile_qr_scan", "ios": "https://dc.lft.to/lastmile_qr_scan"}, "bike_id": "8dad32bbad4049d4b948e920245bba11", "fusion_lon": 0.0, "lat": 38.838127}, {"type": "electric_scooter", "name": "3699b04e4a5ebd98e37054ae2ba77718", "is_reserved": 0, "fusion_lat": 0.0, "lon": -77.00200333333333, "is_disabled": 0, "rental_uris": {"android": "https://dc.lft.to/lastmile_qr_scan", "ios": "https://dc.lft.to/lastmile_qr_scan"}, "bike_id": "3699b04e4a5ebd98e37054ae2ba77718", "fusion_lon": 0.0, "lat": 38.902368333333335}, {"type": "electric_scooter", "name": "5a9bb4ee5302420e8b6c7a32505e4a02", "is_reserved": 0, "fusion_lat": 0.0, "lon": -77.04101483333334, "is_disabled": 0, "rental_uris": {"android": "https://dc.lft.to/lastmile_qr_scan", "ios": "https://dc.lft.to/lastmile_qr_scan"}, "bike_id": "5a9bb4ee5302420e8b6c7a32505e4a02", "fusion_lon": 0.0, "lat": 38.910586}, {"type": "electric_scooter", "name": "0c2123a66b9c4ea9d32800a662218164", "is_reserved": 0, "fusion_lat": 0.0, "lon": -77.03388066666666, "is_disabled": 0, "rental_uris": {"android": "https://dc.lft.to/lastmile_qr_scan", "ios": "https://dc.lft.to/lastmile_qr_scan"}, "bike_id": "0c2123a66b9c4ea9d32800a662218164", "fusion_lon": 0.0, "lat": 38.92867616666667}, {"type": "electric_scooter", "name": "fa85e5c5fe5469b0fa57391e7b28d37b", "is_reserved": 0, "fusion_lat": 0.0, "lon": -76.98698, "is_disabled": 0, "rental_uris": {"android": "https://dc.lft.to/lastmile_qr_scan", "ios": "https://dc.lft.to/lastmile_qr_scan"}, "bike_id": "fa85e5c5fe5469b0fa57391e7b28d37b", "fusion_lon": 0.0, "lat": 38.90731483333333}, {"type": "electric_bike", "name": "e20a2cacc6e0a961fe96bf6ff9fa8186", "is_reserved": 0, "fusion_lat": 0.0, "lon": -77.228029, "is_disabled": 0, "rental_uris": {"android": "https://dc.lft.to/lastmile_qr_scan", "ios": "https://dc.lft.to/lastmile_qr_scan"}, "bike_id": "e20a2cacc6e0a961fe96bf6ff9fa8186", "fusion_lon": 0.0, "lat": 38.910155833333334}, {"type": "electric_scooter", "name": "70271f89b5cff6d8780bb193522f2098", "is_reserved": 0, "fusion_lat": 0.0, "lon": -77.03199133333334, "is_disabled": 0, "rental_uris": {"android": "https://dc.lft.to/lastmile_qr_scan", "ios": "https://dc.lft.to/lastmile_qr_scan"}, "bike_id": "70271f89b5cff6d8780bb193522f2098", "fusion_lon": 0.0, "lat": 38.914236}, {"type": "electric_scooter", "name": "2fb7808c9ce413f1391b0b20b1ece76d", "is_reserved": 0, "fusion_lat": 0.0, "lon": -76.99407216666667, "is_disabled": 0, "rental_uris": {"android": "https://dc.lft.to/lastmile_qr_scan", "ios": "https://dc.lft.to/lastmile_qr_scan"}, "bike_id": "2fb7808c9ce413f1391b0b20b1ece76d", "fusion_lon": 0.0, "lat": 38.92113666666667}, {"type": "electric_scooter", "name": "3e0a540972ca475bf650460b7ae7ff83", "is_reserved": 0, "fusion_lat": 0.0, "lon": -77.04688316666666, "is_disabled": 0, "rental_uris": {"android": "https://dc.lft.to/lastmile_qr_scan", "ios": "https://dc.lft.to/lastmile_qr_scan"}, "bike_id": "3e0a540972ca475bf650460b7ae7ff83", "fusion_lon": 0.0, "lat": 38.8974105}, {"type": "electric_scooter", "name": "18b679836f9063006a92cd6ae30bef9e", "is_reserved": 0, "fusion_lat": 0.0, "lon": -77.00236166666667, "is_disabled": 0, "rental_uris": {"android": "https://dc.lft.to/lastmile_qr_scan", "ios": "https://dc.lft.to/lastmile_qr_scan"}, "bike_id": "18b679836f9063006a92cd6ae30bef9e", "fusion_lon": 0.0, "lat": 38.95719366666667}, {"type": "electric_scooter", "name": "202971233ad5b5116b5713140be11220", "is_reserved": 0, "fusion_lat": 0.0, "lon": -77.0399675, "is_disabled": 0, "rental_uris": {"android": "https://dc.lft.to/lastmile_qr_scan", "ios": "https://dc.lft.to/lastmile_qr_scan"}, "bike_id": "202971233ad5b5116b5713140be11220", "fusion_lon": 0.0, "lat": 38.91257516666667}, {"type": "electric_scooter", "name": "e59311e542a2ad165842cb6985be2ecd", "is_reserved": 0, "fusion_lat": 0.0, "lon": -77.01696533333333, "is_disabled": 0, "rental_uris": {"android": "https://dc.lft.to/lastmile_qr_scan", "ios": "https://dc.lft.to/lastmile_qr_scan"}, "bike_id": "e59311e542a2ad165842cb6985be2ecd", "fusion_lon": 0.0, "lat": 38.975016833333335}, {"type": "electric_bike", "name": "f2a5a4840ac24742c040dc6469c18d08", "is_reserved": 0, "fusion_lat": 0.0, "lon": -76.96809316666666, "is_disabled": 0, "rental_uris": {"android": "https://dc.lft.to/lastmile_qr_scan", "ios": "https://dc.lft.to/lastmile_qr_scan"}, "bike_id": "f2a5a4840ac24742c040dc6469c18d08", "fusion_lon": 0.0, "lat": 38.949852}, {"type": "electric_scooter", "name": "834d568264ca00d830b82fcf94f90a71", "is_reserved": 0, "fusion_lat": 0.0, "lon": -77.04285866666666, "is_disabled": 0, "rental_uris": {"android": "https://dc.lft.to/lastmile_qr_scan", "ios": "https://dc.lft.to/lastmile_qr_scan"}, "bike_id": "834d568264ca00d830b82fcf94f90a71", "fusion_lon": 0.0, "lat": 38.905730166666665}, {"type": "electric_scooter", "name": "7057ea9c801f18db13533db5833e7358", "is_reserved": 0, "fusion_lat": 0.0, "lon": -77.03213166666667, "is_disabled": 0, "rental_uris": {"android": "https://dc.lft.to/lastmile_qr_scan", "ios": "https://dc.lft.to/lastmile_qr_scan"}, "bike_id": "7057ea9c801f18db13533db5833e7358", "fusion_lon": 0.0, "lat": 38.895312}, {"type": "electric_scooter", "name": "eef1aeb3f2b72b14ff19b4fbf48f4867", "is_reserved": 0, "fusion_lat": 0.0, "lon": -76.9954915, "is_disabled": 0, "rental_uris": {"android": "https://dc.lft.to/lastmile_qr_scan", "ios": "https://dc.lft.to/lastmile_qr_scan"}, "bike_id": "eef1aeb3f2b72b14ff19b4fbf48f4867", "fusion_lon": 0.0, "lat": 38.862572}, {"type": "electric_scooter", "name": "5abcefea23ce29ba29d08f63017725e6", "is_reserved": 0, "fusion_lat": 0.0, "lon": -77.048341, "is_disabled": 0, "rental_uris": {"android": "https://dc.lft.to/lastmile_qr_scan", "ios": "https://dc.lft.to/lastmile_qr_scan"}, "bike_id": "5abcefea23ce29ba29d08f63017725e6", "fusion_lon": 0.0, "lat": 38.91105616666667}, {"type": "electric_scooter", "name": "03bc45d1774fe30c90ead8775237c403", "is_reserved": 0, "fusion_lat": 0.0, "lon": -77.04351916666667, "is_disabled": 0, "rental_uris": {"android": "https://dc.lft.to/lastmile_qr_scan", "ios": "https://dc.lft.to/lastmile_qr_scan"}, "bike_id": "03bc45d1774fe30c90ead8775237c403", "fusion_lon": 0.0, "lat": 38.917037666666666}, {"type": "electric_scooter", "name": "f1c3aba0bc06f5581c634121b1ad04c7", "is_reserved": 0, "fusion_lat": 0.0, "lon": -77.03210683333333, "is_disabled": 0, "rental_uris": {"android": "https://dc.lft.to/lastmile_qr_scan", "ios": "https://dc.lft.to/lastmile_qr_scan"}, "bike_id": "f1c3aba0bc06f5581c634121b1ad04c7", "fusion_lon": 0.0, "lat": 38.917887666666665}, {"type": "electric_bike", "name": "611e2c7e067738a9e508fcd12a5c30ab", "is_reserved": 0, "fusion_lat": 0.0, "lon": -76.9847315, "is_disabled": 0, "rental_uris": {"android": "https://dc.lft.to/lastmile_qr_scan", "ios": "https://dc.lft.to/lastmile_qr_scan"}, "bike_id": "611e2c7e067738a9e508fcd12a5c30ab", "fusion_lon": 0.0, "lat": 38.88005866666666}, {"type": "electric_scooter", "name": "9b6285611d34e011ce58e5e81d59db4d", "is_reserved": 0, "fusion_lat": 0.0, "lon": -77.032642, "is_disabled": 0, "rental_uris": {"android": "https://dc.lft.to/lastmile_qr_scan", "ios": "https://dc.lft.to/lastmile_qr_scan"}, "bike_id": "9b6285611d34e011ce58e5e81d59db4d", "fusion_lon": 0.0, "lat": 38.9356845}, {"type": "electric_bike", "name": "08b961c99a119dcad7cf13641efc5c6b", "is_reserved": 0, "fusion_lat": 0.0, "lon": -77.17840733333334, "is_disabled": 0, "rental_uris": {"android": "https://dc.lft.to/lastmile_qr_scan", "ios": "https://dc.lft.to/lastmile_qr_scan"}, "bike_id": "08b961c99a119dcad7cf13641efc5c6b", "fusion_lon": 0.0, "lat": 39.088585}, {"type": "electric_scooter", "name": "ab95d93be84ab879f867b9ba81dd59fa", "is_reserved": 0, "fusion_lat": 0.0, "lon": -76.991613, "is_disabled": 0, "rental_uris": {"android": "https://dc.lft.to/lastmile_qr_scan", "ios": "https://dc.lft.to/lastmile_qr_scan"}, "bike_id": "ab95d93be84ab879f867b9ba81dd59fa", "fusion_lon": 0.0, "lat": 38.8980275}, {"type": "electric_scooter", "name": "cf1ffa2242daf27e510133bc24d466b1", "is_reserved": 0, "fusion_lat": 0.0, "lon": -77.03449416666666, "is_disabled": 0, "rental_uris": {"android": "https://dc.lft.to/lastmile_qr_scan", "ios": "https://dc.lft.to/lastmile_qr_scan"}, "bike_id": "cf1ffa2242daf27e510133bc24d466b1", "fusion_lon": 0.0, "lat": 38.905618833333335}, {"type": "electric_scooter", "name": "5f27b51b827f18651cf2c6d6d7c854cf", "is_reserved": 0, "fusion_lat": 0.0, "lon": -76.95642683333334, "is_disabled": 0, "rental_uris": {"android": "https://dc.lft.to/lastmile_qr_scan", "ios": "https://dc.lft.to/lastmile_qr_scan"}, "bike_id": "5f27b51b827f18651cf2c6d6d7c854cf", "fusion_lon": 0.0, "lat": 38.8955745}, {"type": "electric_scooter", "name": "4b1a9f61b892562ab5c42a5aa1f01c6a", "is_reserved": 0, "fusion_lat": 0.0, "lon": -77.02207016666667, "is_disabled": 0, "rental_uris": {"android": "https://dc.lft.to/lastmile_qr_scan", "ios": "https://dc.lft.to/lastmile_qr_scan"}, "bike_id": "4b1a9f61b892562ab5c42a5aa1f01c6a", "fusion_lon": 0.0, "lat": 38.89988183333333}, {"type": "electric_bike", "name": "b1f616bb16a2e87fd192dbdfb7cf4b4f", "is_reserved": 0, "fusion_lat": 0.0, "lon": -77.08631566666666, "is_disabled": 0, "rental_uris": {"android": "https://dc.lft.to/lastmile_qr_scan", "ios": "https://dc.lft.to/lastmile_qr_scan"}, "bike_id": "b1f616bb16a2e87fd192dbdfb7cf4b4f", "fusion_lon": 0.0, "lat": 38.881828166666665}, {"type": "electric_scooter", "name": "33620ddad1db0887d1b67a688ca0d533", "is_reserved": 0, "fusion_lat": 0.0, "lon": -77.03264333333334, "is_disabled": 0, "rental_uris": {"android": "https://dc.lft.to/lastmile_qr_scan", "ios": "https://dc.lft.to/lastmile_qr_scan"}, "bike_id": "33620ddad1db0887d1b67a688ca0d533", "fusion_lon": 0.0, "lat": 38.93264533333333}, {"type": "electric_scooter", "name": "635cacf24d09fb2576f2f89bd0a76473", "is_reserved": 0, "fusion_lat": 0.0, "lon": -77.03523083333333, "is_disabled": 0, "rental_uris": {"android": "https://dc.lft.to/lastmile_qr_scan", "ios": "https://dc.lft.to/lastmile_qr_scan"}, "bike_id": "635cacf24d09fb2576f2f89bd0a76473", "fusion_lon": 0.0, "lat": 38.906923}, {"type": "electric_scooter", "name": "bbc182a61e6ce9a201e94cd5df22349a", "is_reserved": 0, "fusion_lat": 0.0, "lon": -77.04519933333333, "is_disabled": 0, "rental_uris": {"android": "https://dc.lft.to/lastmile_qr_scan", "ios": "https://dc.lft.to/lastmile_qr_scan"}, "bike_id": "bbc182a61e6ce9a201e94cd5df22349a", "fusion_lon": 0.0, "lat": 38.90225866666667}, {"type": "electric_scooter", "name": "779bb638372a89140471f5eaad218af1", "is_reserved": 0, "fusion_lat": 0.0, "lon": -77.00232533333333, "is_disabled": 0, "rental_uris": {"android": "https://dc.lft.to/lastmile_qr_scan", "ios": "https://dc.lft.to/lastmile_qr_scan"}, "bike_id": "779bb638372a89140471f5eaad218af1", "fusion_lon": 0.0, "lat": 38.900440833333334}, {"type": "electric_scooter", "name": "57bc69c044324c034f0db16cccd1b12f", "is_reserved": 0, "fusion_lat": 0.0, "lon": -77.02914816666667, "is_disabled": 0, "rental_uris": {"android": "https://dc.lft.to/lastmile_qr_scan", "ios": "https://dc.lft.to/lastmile_qr_scan"}, "bike_id": "57bc69c044324c034f0db16cccd1b12f", "fusion_lon": 0.0, "lat": 38.933312}, {"type": "electric_scooter", "name": "c434f1820c0ece08951449ac22964928", "is_reserved": 0, "fusion_lat": 0.0, "lon": -77.0448135, "is_disabled": 0, "rental_uris": {"android": "https://dc.lft.to/lastmile_qr_scan", "ios": "https://dc.lft.to/lastmile_qr_scan"}, "bike_id": "c434f1820c0ece08951449ac22964928", "fusion_lon": 0.0, "lat": 38.909795333333335}, {"type": "electric_scooter", "name": "0cf7c1a5e14989833e4396a417c7e7d3", "is_reserved": 0, "fusion_lat": 0.0, "lon": -76.9977705, "is_disabled": 0, "rental_uris": {"android": "https://dc.lft.to/lastmile_qr_scan", "ios": "https://dc.lft.to/lastmile_qr_scan"}, "bike_id": "0cf7c1a5e14989833e4396a417c7e7d3", "fusion_lon": 0.0, "lat": 38.84425866666667}, {"type": "electric_scooter", "name": "28568d173b3a75204bf02746f8b5f1ba", "is_reserved": 0, "fusion_lat": 0.0, "lon": -77.03523316666667, "is_disabled": 0, "rental_uris": {"android": "https://dc.lft.to/lastmile_qr_scan", "ios": "https://dc.lft.to/lastmile_qr_scan"}, "bike_id": "28568d173b3a75204bf02746f8b5f1ba", "fusion_lon": 0.0, "lat": 38.923191}, {"type": "electric_scooter", "name": "9f0e96a571da79af7daf7ce52383dec6", "is_reserved": 0, "fusion_lat": 0.0, "lon": -77.0321685, "is_disabled": 0, "rental_uris": {"android": "https://dc.lft.to/lastmile_qr_scan", "ios": "https://dc.lft.to/lastmile_qr_scan"}, "bike_id": "9f0e96a571da79af7daf7ce52383dec6", "fusion_lon": 0.0, "lat": 38.91793716666667}, {"type": "electric_scooter", "name": "753693705cf56931642d27ab6844521c", "is_reserved": 0, "fusion_lat": 0.0, "lon": -77.044967, "is_disabled": 0, "rental_uris": {"android": "https://dc.lft.to/lastmile_qr_scan", "ios": "https://dc.lft.to/lastmile_qr_scan"}, "bike_id": "753693705cf56931642d27ab6844521c", "fusion_lon": 0.0, "lat": 38.8994325}, {"type": "electric_scooter", "name": "a0cbf54b142a04d97b37cdf1303897d2", "is_reserved": 0, "fusion_lat": 0.0, "lon": -77.032769, "is_disabled": 0, "rental_uris": {"android": "https://dc.lft.to/lastmile_qr_scan", "ios": "https://dc.lft.to/lastmile_qr_scan"}, "bike_id": "a0cbf54b142a04d97b37cdf1303897d2", "fusion_lon": 0.0, "lat": 38.932503833333335}, {"type": "electric_scooter", "name": "586c2d930dc676883c099ea6e7f6345e", "is_reserved": 0, "fusion_lat": 0.0, "lon": -77.02329433333334, "is_disabled": 0, "rental_uris": {"android": "https://dc.lft.to/lastmile_qr_scan", "ios": "https://dc.lft.to/lastmile_qr_scan"}, "bike_id": "586c2d930dc676883c099ea6e7f6345e", "fusion_lon": 0.0, "lat": 38.930501166666666}, {"type": "electric_bike", "name": "85e799250026a5aefaf0c5984890b5bc", "is_reserved": 0, "fusion_lat": 0.0, "lon": -77.10598533333334, "is_disabled": 0, "rental_uris": {"android": "https://dc.lft.to/lastmile_qr_scan", "ios": "https://dc.lft.to/lastmile_qr_scan"}, "bike_id": "85e799250026a5aefaf0c5984890b5bc", "fusion_lon": 0.0, "lat": 38.9289735}, {"type": "electric_scooter", "name": "d688dba05f4ca73636ce202da3ea6600", "is_reserved": 0, "fusion_lat": 0.0, "lon": -76.95754916666667, "is_disabled": 0, "rental_uris": {"android": "https://dc.lft.to/lastmile_qr_scan", "ios": "https://dc.lft.to/lastmile_qr_scan"}, "bike_id": "d688dba05f4ca73636ce202da3ea6600", "fusion_lon": 0.0, "lat": 38.884316}, {"type": "electric_scooter", "name": "3350207ff2a3d7e5326e801a28ecbe48", "is_reserved": 0, "fusion_lat": 0.0, "lon": -77.00339716666667, "is_disabled": 0, "rental_uris": {"android": "https://dc.lft.to/lastmile_qr_scan", "ios": "https://dc.lft.to/lastmile_qr_scan"}, "bike_id": "3350207ff2a3d7e5326e801a28ecbe48", "fusion_lon": 0.0, "lat": 38.89352233333334}, {"type": "electric_scooter", "name": "f022afeca5415279c8a503460e67acbd", "is_reserved": 0, "fusion_lat": 0.0, "lon": -77.0455885, "is_disabled": 0, "rental_uris": {"android": "https://dc.lft.to/lastmile_qr_scan", "ios": "https://dc.lft.to/lastmile_qr_scan"}, "bike_id": "f022afeca5415279c8a503460e67acbd", "fusion_lon": 0.0, "lat": 38.9130455}, {"type": "electric_scooter", "name": "2203f02107ed52afc110258522ffd380", "is_reserved": 0, "fusion_lat": 0.0, "lon": -77.02014616666666, "is_disabled": 0, "rental_uris": {"android": "https://dc.lft.to/lastmile_qr_scan", "ios": "https://dc.lft.to/lastmile_qr_scan"}, "bike_id": "2203f02107ed52afc110258522ffd380", "fusion_lon": 0.0, "lat": 38.89886033333333}, {"type": "electric_scooter", "name": "f01aea791f0a1dd7a06259149bc35669", "is_reserved": 0, "fusion_lat": 0.0, "lon": -77.02390733333333, "is_disabled": 0, "rental_uris": {"android": "https://dc.lft.to/lastmile_qr_scan", "ios": "https://dc.lft.to/lastmile_qr_scan"}, "bike_id": "f01aea791f0a1dd7a06259149bc35669", "fusion_lon": 0.0, "lat": 38.91984883333333}, {"type": "electric_scooter", "name": "83452755778594f9180e5112fee18bfd", "is_reserved": 0, "fusion_lat": 0.0, "lon": -77.02282566666666, "is_disabled": 0, "rental_uris": {"android": "https://dc.lft.to/lastmile_qr_scan", "ios": "https://dc.lft.to/lastmile_qr_scan"}, "bike_id": "83452755778594f9180e5112fee18bfd", "fusion_lon": 0.0, "lat": 38.9168195}, {"type": "electric_scooter", "name": "22be967ac1d93cb56b6ad38015b4174b", "is_reserved": 0, "fusion_lat": 0.0, "lon": -76.98347333333334, "is_disabled": 0, "rental_uris": {"android": "https://dc.lft.to/lastmile_qr_scan", "ios": "https://dc.lft.to/lastmile_qr_scan"}, "bike_id": "22be967ac1d93cb56b6ad38015b4174b", "fusion_lon": 0.0, "lat": 38.915467}, {"type": "electric_scooter", "name": "c4506c741f61b8e82c1cf34b909f680c", "is_reserved": 0, "fusion_lat": 0.0, "lon": -77.02799233333333, "is_disabled": 0, "rental_uris": {"android": "https://dc.lft.to/lastmile_qr_scan", "ios": "https://dc.lft.to/lastmile_qr_scan"}, "bike_id": "c4506c741f61b8e82c1cf34b909f680c", "fusion_lon": 0.0, "lat": 38.95401716666667}, {"type": "electric_scooter", "name": "4a4c06973dfed885a2d78d8d4f46e5b2", "is_reserved": 0, "fusion_lat": 0.0, "lon": -77.0340715, "is_disabled": 0, "rental_uris": {"android": "https://dc.lft.to/lastmile_qr_scan", "ios": "https://dc.lft.to/lastmile_qr_scan"}, "bike_id": "4a4c06973dfed885a2d78d8d4f46e5b2", "fusion_lon": 0.0, "lat": 38.937506}, {"type": "electric_scooter", "name": "e8068a509393913f7fde228dcdffbce3", "is_reserved": 0, "fusion_lat": 0.0, "lon": -77.04244383333334, "is_disabled": 0, "rental_uris": {"android": "https://dc.lft.to/lastmile_qr_scan", "ios": "https://dc.lft.to/lastmile_qr_scan"}, "bike_id": "e8068a509393913f7fde228dcdffbce3", "fusion_lon": 0.0, "lat": 38.922224666666665}, {"type": "electric_scooter", "name": "10ca9ef77d4683a96b4015ba260fd2e9", "is_reserved": 0, "fusion_lat": 0.0, "lon": -77.04342783333334, "is_disabled": 0, "rental_uris": {"android": "https://dc.lft.to/lastmile_qr_scan", "ios": "https://dc.lft.to/lastmile_qr_scan"}, "bike_id": "10ca9ef77d4683a96b4015ba260fd2e9", "fusion_lon": 0.0, "lat": 38.9041525}, {"type": "electric_scooter", "name": "bfcbb4087682c47d0f795d1ee19a31af", "is_reserved": 0, "fusion_lat": 0.0, "lon": -77.02096816666666, "is_disabled": 0, "rental_uris": {"android": "https://dc.lft.to/lastmile_qr_scan", "ios": "https://dc.lft.to/lastmile_qr_scan"}, "bike_id": "bfcbb4087682c47d0f795d1ee19a31af", "fusion_lon": 0.0, "lat": 38.92709416666667}, {"type": "electric_scooter", "name": "826f025d22a659d6f5e724ea43ce8ea0", "is_reserved": 0, "fusion_lat": 0.0, "lon": -77.06367533333334, "is_disabled": 0, "rental_uris": {"android": "https://dc.lft.to/lastmile_qr_scan", "ios": "https://dc.lft.to/lastmile_qr_scan"}, "bike_id": "826f025d22a659d6f5e724ea43ce8ea0", "fusion_lon": 0.0, "lat": 38.905134333333336}, {"type": "electric_scooter", "name": "917eafd819deb187aafd512c3e6f5526", "is_reserved": 0, "fusion_lat": 0.0, "lon": -77.032548, "is_disabled": 0, "rental_uris": {"android": "https://dc.lft.to/lastmile_qr_scan", "ios": "https://dc.lft.to/lastmile_qr_scan"}, "bike_id": "917eafd819deb187aafd512c3e6f5526", "fusion_lon": 0.0, "lat": 38.90242816666667}, {"type": "electric_scooter", "name": "fd053f69ecf11724ff4e7db1b11d0bba", "is_reserved": 0, "fusion_lat": 0.0, "lon": -77.0514095, "is_disabled": 0, "rental_uris": {"android": "https://dc.lft.to/lastmile_qr_scan", "ios": "https://dc.lft.to/lastmile_qr_scan"}, "bike_id": "fd053f69ecf11724ff4e7db1b11d0bba", "fusion_lon": 0.0, "lat": 38.90530433333333}, {"type": "electric_scooter", "name": "941e651544de59ecff02707db8648429", "is_reserved": 0, "fusion_lat": 0.0, "lon": -76.98523983333334, "is_disabled": 0, "rental_uris": {"android": "https://dc.lft.to/lastmile_qr_scan", "ios": "https://dc.lft.to/lastmile_qr_scan"}, "bike_id": "941e651544de59ecff02707db8648429", "fusion_lon": 0.0, "lat": 38.866694333333335}, {"type": "electric_scooter", "name": "f1a43c646805a10d639f1f7e230288ee", "is_reserved": 0, "fusion_lat": 0.0, "lon": -77.04489783333334, "is_disabled": 0, "rental_uris": {"android": "https://dc.lft.to/lastmile_qr_scan", "ios": "https://dc.lft.to/lastmile_qr_scan"}, "bike_id": "f1a43c646805a10d639f1f7e230288ee", "fusion_lon": 0.0, "lat": 38.9001995}, {"type": "electric_scooter", "name": "d97a86a56899415befa4aa925d9788c3", "is_reserved": 0, "fusion_lat": 0.0, "lon": -77.04479116666667, "is_disabled": 0, "rental_uris": {"android": "https://dc.lft.to/lastmile_qr_scan", "ios": "https://dc.lft.to/lastmile_qr_scan"}, "bike_id": "d97a86a56899415befa4aa925d9788c3", "fusion_lon": 0.0, "lat": 38.91868633333333}, {"type": "electric_scooter", "name": "c006fa6ea9b107f8927f3f11ae36ae75", "is_reserved": 0, "fusion_lat": 0.0, "lon": -76.98537616666667, "is_disabled": 0, "rental_uris": {"android": "https://dc.lft.to/lastmile_qr_scan", "ios": "https://dc.lft.to/lastmile_qr_scan"}, "bike_id": "c006fa6ea9b107f8927f3f11ae36ae75", "fusion_lon": 0.0, "lat": 38.9144775}, {"type": "electric_bike", "name": "9407c5eb85a94972a07ed00a9f32a587", "is_reserved": 0, "fusion_lat": 0.0, "lon": -76.93542333333333, "is_disabled": 0, "rental_uris": {"android": "https://dc.lft.to/lastmile_qr_scan", "ios": "https://dc.lft.to/lastmile_qr_scan"}, "bike_id": "9407c5eb85a94972a07ed00a9f32a587", "fusion_lon": 0.0, "lat": 38.955519333333335}, {"type": "electric_scooter", "name": "7ed4d7eef8655766ec809559c5a0ad0b", "is_reserved": 0, "fusion_lat": 0.0, "lon": -76.9319915, "is_disabled": 0, "rental_uris": {"android": "https://dc.lft.to/lastmile_qr_scan", "ios": "https://dc.lft.to/lastmile_qr_scan"}, "bike_id": "7ed4d7eef8655766ec809559c5a0ad0b", "fusion_lon": 0.0, "lat": 38.8987875}, {"type": "electric_scooter", "name": "2bc4d80213a21955d99a889593501b86", "is_reserved": 0, "fusion_lat": 0.0, "lon": -77.06354, "is_disabled": 0, "rental_uris": {"android": "https://dc.lft.to/lastmile_qr_scan", "ios": "https://dc.lft.to/lastmile_qr_scan"}, "bike_id": "2bc4d80213a21955d99a889593501b86", "fusion_lon": 0.0, "lat": 38.944487}, {"type": "electric_scooter", "name": "76b9df864b2b3e9e921c720c3a71efa2", "is_reserved": 0, "fusion_lat": 0.0, "lon": -77.02295116666667, "is_disabled": 0, "rental_uris": {"android": "https://dc.lft.to/lastmile_qr_scan", "ios": "https://dc.lft.to/lastmile_qr_scan"}, "bike_id": "76b9df864b2b3e9e921c720c3a71efa2", "fusion_lon": 0.0, "lat": 38.91838583333333}, {"type": "electric_scooter", "name": "8716f97b91267fe2c3098437d09c6fbe", "is_reserved": 0, "fusion_lat": 0.0, "lon": -76.99264983333333, "is_disabled": 0, "rental_uris": {"android": "https://dc.lft.to/lastmile_qr_scan", "ios": "https://dc.lft.to/lastmile_qr_scan"}, "bike_id": "8716f97b91267fe2c3098437d09c6fbe", "fusion_lon": 0.0, "lat": 38.86250783333333}, {"type": "electric_scooter", "name": "cec90eb37e94ae93ba5df8063b305749", "is_reserved": 0, "fusion_lat": 0.0, "lon": -77.03263083333333, "is_disabled": 0, "rental_uris": {"android": "https://dc.lft.to/lastmile_qr_scan", "ios": "https://dc.lft.to/lastmile_qr_scan"}, "bike_id": "cec90eb37e94ae93ba5df8063b305749", "fusion_lon": 0.0, "lat": 38.9397535}, {"type": "electric_bike", "name": "fa2a36a4e74c86676cfe2126ce925976", "is_reserved": 0, "fusion_lat": 0.0, "lon": -76.895418, "is_disabled": 0, "rental_uris": {"android": "https://dc.lft.to/lastmile_qr_scan", "ios": "https://dc.lft.to/lastmile_qr_scan"}, "bike_id": "fa2a36a4e74c86676cfe2126ce925976", "fusion_lon": 0.0, "lat": 38.945595}, {"type": "electric_scooter", "name": "cff8b195c8f0b6303fdc5e2175841db8", "is_reserved": 0, "fusion_lat": 0.0, "lon": -77.01656333333334, "is_disabled": 0, "rental_uris": {"android": "https://dc.lft.to/lastmile_qr_scan", "ios": "https://dc.lft.to/lastmile_qr_scan"}, "bike_id": "cff8b195c8f0b6303fdc5e2175841db8", "fusion_lon": 0.0, "lat": 38.881096}, {"type": "electric_scooter", "name": "218fa894f811010f198ea5f4ab72b762", "is_reserved": 0, "fusion_lat": 0.0, "lon": -77.03977633333334, "is_disabled": 0, "rental_uris": {"android": "https://dc.lft.to/lastmile_qr_scan", "ios": "https://dc.lft.to/lastmile_qr_scan"}, "bike_id": "218fa894f811010f198ea5f4ab72b762", "fusion_lon": 0.0, "lat": 38.89880433333333}, {"type": "electric_bike", "name": "6444b5f39931454fdb93b15de35deee7", "is_reserved": 0, "fusion_lat": 0.0, "lon": -76.98435166666667, "is_disabled": 0, "rental_uris": {"android": "https://dc.lft.to/lastmile_qr_scan", "ios": "https://dc.lft.to/lastmile_qr_scan"}, "bike_id": "6444b5f39931454fdb93b15de35deee7", "fusion_lon": 0.0, "lat": 38.85520533333333}, {"type": "electric_scooter", "name": "fcded8aa23daeccceeefc4a19cc0794d", "is_reserved": 0, "fusion_lat": 0.0, "lon": -76.986421, "is_disabled": 0, "rental_uris": {"android": "https://dc.lft.to/lastmile_qr_scan", "ios": "https://dc.lft.to/lastmile_qr_scan"}, "bike_id": "fcded8aa23daeccceeefc4a19cc0794d", "fusion_lon": 0.0, "lat": 38.88833}, {"type": "electric_scooter", "name": "7b4910a12724e9f6548044a176a5ae42", "is_reserved": 0, "fusion_lat": 0.0, "lon": -77.0465205, "is_disabled": 0, "rental_uris": {"android": "https://dc.lft.to/lastmile_qr_scan", "ios": "https://dc.lft.to/lastmile_qr_scan"}, "bike_id": "7b4910a12724e9f6548044a176a5ae42", "fusion_lon": 0.0, "lat": 38.91946133333333}, {"type": "electric_scooter", "name": "dbe08ce19c621c0c1963baf51ca2507c", "is_reserved": 0, "fusion_lat": 0.0, "lon": -77.06328233333333, "is_disabled": 0, "rental_uris": {"android": "https://dc.lft.to/lastmile_qr_scan", "ios": "https://dc.lft.to/lastmile_qr_scan"}, "bike_id": "dbe08ce19c621c0c1963baf51ca2507c", "fusion_lon": 0.0, "lat": 38.94422516666667}, {"type": "electric_scooter", "name": "3c54dc82b8d990c0b0f6defce0e428a8", "is_reserved": 0, "fusion_lat": 0.0, "lon": -77.02403916666667, "is_disabled": 0, "rental_uris": {"android": "https://dc.lft.to/lastmile_qr_scan", "ios": "https://dc.lft.to/lastmile_qr_scan"}, "bike_id": "3c54dc82b8d990c0b0f6defce0e428a8", "fusion_lon": 0.0, "lat": 38.91626083333333}, {"type": "electric_bike", "name": "7d2db2bca77c04605e8f530df8349bd2", "is_reserved": 0, "fusion_lat": 0.0, "lon": -77.0686425, "is_disabled": 0, "rental_uris": {"android": "https://dc.lft.to/lastmile_qr_scan", "ios": "https://dc.lft.to/lastmile_qr_scan"}, "bike_id": "7d2db2bca77c04605e8f530df8349bd2", "fusion_lon": 0.0, "lat": 38.80577983333333}, {"type": "electric_scooter", "name": "66181bc31b61a89fd1011b9d309b0dca", "is_reserved": 0, "fusion_lat": 0.0, "lon": -76.937337, "is_disabled": 0, "rental_uris": {"android": "https://dc.lft.to/lastmile_qr_scan", "ios": "https://dc.lft.to/lastmile_qr_scan"}, "bike_id": "66181bc31b61a89fd1011b9d309b0dca", "fusion_lon": 0.0, "lat": 38.890167}, {"type": "electric_scooter", "name": "80ac330702c12429b63600fbe58fc7e3", "is_reserved": 0, "fusion_lat": 0.0, "lon": -77.03191583333333, "is_disabled": 0, "rental_uris": {"android": "https://dc.lft.to/lastmile_qr_scan", "ios": "https://dc.lft.to/lastmile_qr_scan"}, "bike_id": "80ac330702c12429b63600fbe58fc7e3", "fusion_lon": 0.0, "lat": 38.91575816666667}, {"type": "electric_scooter", "name": "816cb0ca7dd9175aa780bc82a1df6c4e", "is_reserved": 0, "fusion_lat": 0.0, "lon": -77.0272895, "is_disabled": 0, "rental_uris": {"android": "https://dc.lft.to/lastmile_qr_scan", "ios": "https://dc.lft.to/lastmile_qr_scan"}, "bike_id": "816cb0ca7dd9175aa780bc82a1df6c4e", "fusion_lon": 0.0, "lat": 38.94088683333333}, {"type": "electric_bike", "name": "4e0d2580507bf83e3ce7e5187c9ae510", "is_reserved": 0, "fusion_lat": 0.0, "lon": -77.04313333333333, "is_disabled": 0, "rental_uris": {"android": "https://dc.lft.to/lastmile_qr_scan", "ios": "https://dc.lft.to/lastmile_qr_scan"}, "bike_id": "4e0d2580507bf83e3ce7e5187c9ae510", "fusion_lon": 0.0, "lat": 38.92888133333334}, {"type": "electric_scooter", "name": "0fe6ae5f8fe833a00e65324ab44fe994", "is_reserved": 0, "fusion_lat": 0.0, "lon": -77.010754, "is_disabled": 0, "rental_uris": {"android": "https://dc.lft.to/lastmile_qr_scan", "ios": "https://dc.lft.to/lastmile_qr_scan"}, "bike_id": "0fe6ae5f8fe833a00e65324ab44fe994", "fusion_lon": 0.0, "lat": 38.89807}, {"type": "electric_scooter", "name": "53b181991028ffd0c4e42afca65923b7", "is_reserved": 0, "fusion_lat": 0.0, "lon": -77.04527866666666, "is_disabled": 0, "rental_uris": {"android": "https://dc.lft.to/lastmile_qr_scan", "ios": "https://dc.lft.to/lastmile_qr_scan"}, "bike_id": "53b181991028ffd0c4e42afca65923b7", "fusion_lon": 0.0, "lat": 38.902674166666664}, {"type": "electric_scooter", "name": "1ce3e8559d1763825f55735793360af4", "is_reserved": 0, "fusion_lat": 0.0, "lon": -77.04491983333334, "is_disabled": 0, "rental_uris": {"android": "https://dc.lft.to/lastmile_qr_scan", "ios": "https://dc.lft.to/lastmile_qr_scan"}, "bike_id": "1ce3e8559d1763825f55735793360af4", "fusion_lon": 0.0, "lat": 38.901445}, {"type": "electric_bike", "name": "af7c7db3f27e5d96884f6ce99e38acc8", "is_reserved": 0, "fusion_lat": 0.0, "lon": -77.115665, "is_disabled": 0, "rental_uris": {"android": "https://dc.lft.to/lastmile_qr_scan", "ios": "https://dc.lft.to/lastmile_qr_scan"}, "bike_id": "af7c7db3f27e5d96884f6ce99e38acc8", "fusion_lon": 0.0, "lat": 38.993285}, {"type": "electric_scooter", "name": "1ee70c9fe32745358ae8f835ba083999", "is_reserved": 0, "fusion_lat": 0.0, "lon": -77.04874683333334, "is_disabled": 0, "rental_uris": {"android": "https://dc.lft.to/lastmile_qr_scan", "ios": "https://dc.lft.to/lastmile_qr_scan"}, "bike_id": "1ee70c9fe32745358ae8f835ba083999", "fusion_lon": 0.0, "lat": 38.8927205}, {"type": "electric_scooter", "name": "f64ba08523f1ddac1de4246e3b78df33", "is_reserved": 0, "fusion_lat": 0.0, "lon": -77.02965633333334, "is_disabled": 0, "rental_uris": {"android": "https://dc.lft.to/lastmile_qr_scan", "ios": "https://dc.lft.to/lastmile_qr_scan"}, "bike_id": "f64ba08523f1ddac1de4246e3b78df33", "fusion_lon": 0.0, "lat": 38.897345333333334}, {"type": "electric_scooter", "name": "b62e483b9773ed47ced276877567552a", "is_reserved": 0, "fusion_lat": 0.0, "lon": -77.0271255, "is_disabled": 0, "rental_uris": {"android": "https://dc.lft.to/lastmile_qr_scan", "ios": "https://dc.lft.to/lastmile_qr_scan"}, "bike_id": "b62e483b9773ed47ced276877567552a", "fusion_lon": 0.0, "lat": 38.918149666666665}, {"type": "electric_scooter", "name": "996bf1df587eb1724348b6b6f94e94fa", "is_reserved": 0, "fusion_lat": 0.0, "lon": -77.04935766666667, "is_disabled": 0, "rental_uris": {"android": "https://dc.lft.to/lastmile_qr_scan", "ios": "https://dc.lft.to/lastmile_qr_scan"}, "bike_id": "996bf1df587eb1724348b6b6f94e94fa", "fusion_lon": 0.0, "lat": 38.909969333333336}, {"type": "electric_scooter", "name": "2de6a2c53d5516b4756a8dcfc14e2673", "is_reserved": 0, "fusion_lat": 0.0, "lon": -77.01966083333333, "is_disabled": 0, "rental_uris": {"android": "https://dc.lft.to/lastmile_qr_scan", "ios": "https://dc.lft.to/lastmile_qr_scan"}, "bike_id": "2de6a2c53d5516b4756a8dcfc14e2673", "fusion_lon": 0.0, "lat": 38.95652416666667}, {"type": "electric_scooter", "name": "5b5968ca1e7d9952dde04d45e8e14abb", "is_reserved": 0, "fusion_lat": 0.0, "lon": -77.01691366666667, "is_disabled": 0, "rental_uris": {"android": "https://dc.lft.to/lastmile_qr_scan", "ios": "https://dc.lft.to/lastmile_qr_scan"}, "bike_id": "5b5968ca1e7d9952dde04d45e8e14abb", "fusion_lon": 0.0, "lat": 38.975015}, {"type": "electric_scooter", "name": "5d5e1f534197dc6caa32e98116312f30", "is_reserved": 0, "fusion_lat": 0.0, "lon": -77.01292766666667, "is_disabled": 0, "rental_uris": {"android": "https://dc.lft.to/lastmile_qr_scan", "ios": "https://dc.lft.to/lastmile_qr_scan"}, "bike_id": "5d5e1f534197dc6caa32e98116312f30", "fusion_lon": 0.0, "lat": 38.89470433333334}, {"type": "electric_scooter", "name": "da400ed589d205c038c01f284a02d1f1", "is_reserved": 0, "fusion_lat": 0.0, "lon": -76.98884983333333, "is_disabled": 0, "rental_uris": {"android": "https://dc.lft.to/lastmile_qr_scan", "ios": "https://dc.lft.to/lastmile_qr_scan"}, "bike_id": "da400ed589d205c038c01f284a02d1f1", "fusion_lon": 0.0, "lat": 38.866522833333335}, {"type": "electric_bike", "name": "f15a0e16bd1662cf6284399d351d8c4a", "is_reserved": 0, "fusion_lat": 0.0, "lon": -76.99620916666667, "is_disabled": 0, "rental_uris": {"android": "https://dc.lft.to/lastmile_qr_scan", "ios": "https://dc.lft.to/lastmile_qr_scan"}, "bike_id": "f15a0e16bd1662cf6284399d351d8c4a", "fusion_lon": 0.0, "lat": 38.885007333333334}, {"type": "electric_scooter", "name": "19c1f887acb3cd33693ad06d7c7614f6", "is_reserved": 0, "fusion_lat": 0.0, "lon": -77.030051, "is_disabled": 0, "rental_uris": {"android": "https://dc.lft.to/lastmile_qr_scan", "ios": "https://dc.lft.to/lastmile_qr_scan"}, "bike_id": "19c1f887acb3cd33693ad06d7c7614f6", "fusion_lon": 0.0, "lat": 38.89727033333333}, {"type": "electric_scooter", "name": "2d81fc223d503172595434e0f1ddcf89", "is_reserved": 0, "fusion_lat": 0.0, "lon": -77.03219466666667, "is_disabled": 0, "rental_uris": {"android": "https://dc.lft.to/lastmile_qr_scan", "ios": "https://dc.lft.to/lastmile_qr_scan"}, "bike_id": "2d81fc223d503172595434e0f1ddcf89", "fusion_lon": 0.0, "lat": 38.91660483333333}, {"type": "electric_scooter", "name": "4b10e8b96b18dded695fef6cb2b3db26", "is_reserved": 0, "fusion_lat": 0.0, "lon": -77.02277583333333, "is_disabled": 0, "rental_uris": {"android": "https://dc.lft.to/lastmile_qr_scan", "ios": "https://dc.lft.to/lastmile_qr_scan"}, "bike_id": "4b10e8b96b18dded695fef6cb2b3db26", "fusion_lon": 0.0, "lat": 38.902257}, {"type": "electric_scooter", "name": "a8562871e7f14e110e0025e82a9d772e", "is_reserved": 0, "fusion_lat": 0.0, "lon": -77.04613216666667, "is_disabled": 0, "rental_uris": {"android": "https://dc.lft.to/lastmile_qr_scan", "ios": "https://dc.lft.to/lastmile_qr_scan"}, "bike_id": "a8562871e7f14e110e0025e82a9d772e", "fusion_lon": 0.0, "lat": 38.92320216666667}, {"type": "electric_scooter", "name": "e81a703fc1e7fef25231bd9e3b15c318", "is_reserved": 0, "fusion_lat": 0.0, "lon": -77.044099, "is_disabled": 0, "rental_uris": {"android": "https://dc.lft.to/lastmile_qr_scan", "ios": "https://dc.lft.to/lastmile_qr_scan"}, "bike_id": "e81a703fc1e7fef25231bd9e3b15c318", "fusion_lon": 0.0, "lat": 38.9212935}, {"type": "electric_scooter", "name": "2374e9e6c8fa51b9c4ec3a3dfaaba26f", "is_reserved": 0, "fusion_lat": 0.0, "lon": -77.04156566666667, "is_disabled": 0, "rental_uris": {"android": "https://dc.lft.to/lastmile_qr_scan", "ios": "https://dc.lft.to/lastmile_qr_scan"}, "bike_id": "2374e9e6c8fa51b9c4ec3a3dfaaba26f", "fusion_lon": 0.0, "lat": 38.905927166666665}, {"type": "electric_scooter", "name": "5882cdf92d28e2961eb3ccad0a7aa704", "is_reserved": 0, "fusion_lat": 0.0, "lon": -77.029289, "is_disabled": 0, "rental_uris": {"android": "https://dc.lft.to/lastmile_qr_scan", "ios": "https://dc.lft.to/lastmile_qr_scan"}, "bike_id": "5882cdf92d28e2961eb3ccad0a7aa704", "fusion_lon": 0.0, "lat": 38.916956666666664}, {"type": "electric_bike", "name": "6a1c6ad59d53f2a0d67377b0c95b5532", "is_reserved": 0, "fusion_lat": 0.0, "lon": -76.97238116666666, "is_disabled": 0, "rental_uris": {"android": "https://dc.lft.to/lastmile_qr_scan", "ios": "https://dc.lft.to/lastmile_qr_scan"}, "bike_id": "6a1c6ad59d53f2a0d67377b0c95b5532", "fusion_lon": 0.0, "lat": 38.949053666666664}, {"type": "electric_scooter", "name": "606506edada984e9769a063b32223bab", "is_reserved": 0, "fusion_lat": 0.0, "lon": -77.00676316666667, "is_disabled": 0, "rental_uris": {"android": "https://dc.lft.to/lastmile_qr_scan", "ios": "https://dc.lft.to/lastmile_qr_scan"}, "bike_id": "606506edada984e9769a063b32223bab", "fusion_lon": 0.0, "lat": 38.90016116666666}, {"type": "electric_scooter", "name": "b2f38800de7d340fefd511a2e35ed27f", "is_reserved": 0, "fusion_lat": 0.0, "lon": -77.02209116666667, "is_disabled": 0, "rental_uris": {"android": "https://dc.lft.to/lastmile_qr_scan", "ios": "https://dc.lft.to/lastmile_qr_scan"}, "bike_id": "b2f38800de7d340fefd511a2e35ed27f", "fusion_lon": 0.0, "lat": 38.8865035}, {"type": "electric_scooter", "name": "5ef1698161709b0e0799526ca32bf2b1", "is_reserved": 0, "fusion_lat": 0.0, "lon": -77.05742416666666, "is_disabled": 0, "rental_uris": {"android": "https://dc.lft.to/lastmile_qr_scan", "ios": "https://dc.lft.to/lastmile_qr_scan"}, "bike_id": "5ef1698161709b0e0799526ca32bf2b1", "fusion_lon": 0.0, "lat": 38.9338945}, {"type": "electric_scooter", "name": "4446109f58cc57f2ca2cda744e63420d", "is_reserved": 0, "fusion_lat": 0.0, "lon": -77.05692466666666, "is_disabled": 0, "rental_uris": {"android": "https://dc.lft.to/lastmile_qr_scan", "ios": "https://dc.lft.to/lastmile_qr_scan"}, "bike_id": "4446109f58cc57f2ca2cda744e63420d", "fusion_lon": 0.0, "lat": 38.905325833333336}, {"type": "electric_scooter", "name": "1659d0eb4616cdbd372d06ed8ef46838", "is_reserved": 0, "fusion_lat": 0.0, "lon": -77.038388, "is_disabled": 0, "rental_uris": {"android": "https://dc.lft.to/lastmile_qr_scan", "ios": "https://dc.lft.to/lastmile_qr_scan"}, "bike_id": "1659d0eb4616cdbd372d06ed8ef46838", "fusion_lon": 0.0, "lat": 38.90275316666666}, {"type": "electric_scooter", "name": "a4c834f98585102cb191c91666eda84c", "is_reserved": 0, "fusion_lat": 0.0, "lon": -76.984921, "is_disabled": 0, "rental_uris": {"android": "https://dc.lft.to/lastmile_qr_scan", "ios": "https://dc.lft.to/lastmile_qr_scan"}, "bike_id": "a4c834f98585102cb191c91666eda84c", "fusion_lon": 0.0, "lat": 38.915159}, {"type": "electric_scooter", "name": "2f8f3ce841f5de88cd7fbb0a385c64b4", "is_reserved": 0, "fusion_lat": 0.0, "lon": -77.04302016666666, "is_disabled": 0, "rental_uris": {"android": "https://dc.lft.to/lastmile_qr_scan", "ios": "https://dc.lft.to/lastmile_qr_scan"}, "bike_id": "2f8f3ce841f5de88cd7fbb0a385c64b4", "fusion_lon": 0.0, "lat": 38.923346333333335}, {"type": "electric_scooter", "name": "17c1e84aa139d46b314329b5ae5c4cf6", "is_reserved": 0, "fusion_lat": 0.0, "lon": -76.97321933333333, "is_disabled": 0, "rental_uris": {"android": "https://dc.lft.to/lastmile_qr_scan", "ios": "https://dc.lft.to/lastmile_qr_scan"}, "bike_id": "17c1e84aa139d46b314329b5ae5c4cf6", "fusion_lon": 0.0, "lat": 38.9177085}, {"type": "electric_scooter", "name": "f3a4e6c4d495e5c33c3aaab8a0df09c2", "is_reserved": 0, "fusion_lat": 0.0, "lon": -77.04334316666667, "is_disabled": 0, "rental_uris": {"android": "https://dc.lft.to/lastmile_qr_scan", "ios": "https://dc.lft.to/lastmile_qr_scan"}, "bike_id": "f3a4e6c4d495e5c33c3aaab8a0df09c2", "fusion_lon": 0.0, "lat": 38.903067}, {"type": "electric_bike", "name": "e29255de6c2a1368d4d4a1f72d5acf02", "is_reserved": 0, "fusion_lat": 0.0, "lon": -77.08588066666667, "is_disabled": 0, "rental_uris": {"android": "https://dc.lft.to/lastmile_qr_scan", "ios": "https://dc.lft.to/lastmile_qr_scan"}, "bike_id": "e29255de6c2a1368d4d4a1f72d5acf02", "fusion_lon": 0.0, "lat": 38.844389166666666}, {"type": "electric_scooter", "name": "8addf6503bcfc462d0797b03fc7db82d", "is_reserved": 0, "fusion_lat": 0.0, "lon": -77.03428716666667, "is_disabled": 0, "rental_uris": {"android": "https://dc.lft.to/lastmile_qr_scan", "ios": "https://dc.lft.to/lastmile_qr_scan"}, "bike_id": "8addf6503bcfc462d0797b03fc7db82d", "fusion_lon": 0.0, "lat": 38.91935933333333}, {"type": "electric_scooter", "name": "0951f90ba62274c29fdc5bd46b163ebb", "is_reserved": 0, "fusion_lat": 0.0, "lon": -77.02909083333333, "is_disabled": 0, "rental_uris": {"android": "https://dc.lft.to/lastmile_qr_scan", "ios": "https://dc.lft.to/lastmile_qr_scan"}, "bike_id": "0951f90ba62274c29fdc5bd46b163ebb", "fusion_lon": 0.0, "lat": 38.924841}, {"type": "electric_scooter", "name": "db5a12f5f8c49c014e4d4e0bf34a203f", "is_reserved": 0, "fusion_lat": 0.0, "lon": -77.02166166666666, "is_disabled": 0, "rental_uris": {"android": "https://dc.lft.to/lastmile_qr_scan", "ios": "https://dc.lft.to/lastmile_qr_scan"}, "bike_id": "db5a12f5f8c49c014e4d4e0bf34a203f", "fusion_lon": 0.0, "lat": 38.909735833333336}, {"type": "electric_scooter", "name": "aa2de54db38d1825aaf3182aa966580f", "is_reserved": 0, "fusion_lat": 0.0, "lon": -77.047505, "is_disabled": 0, "rental_uris": {"android": "https://dc.lft.to/lastmile_qr_scan", "ios": "https://dc.lft.to/lastmile_qr_scan"}, "bike_id": "aa2de54db38d1825aaf3182aa966580f", "fusion_lon": 0.0, "lat": 38.90542283333333}, {"type": "electric_scooter", "name": "dd10ccf75b33dc325788da9e35a5537a", "is_reserved": 0, "fusion_lat": 0.0, "lon": -77.03262616666666, "is_disabled": 0, "rental_uris": {"android": "https://dc.lft.to/lastmile_qr_scan", "ios": "https://dc.lft.to/lastmile_qr_scan"}, "bike_id": "dd10ccf75b33dc325788da9e35a5537a", "fusion_lon": 0.0, "lat": 38.9415635}, {"type": "electric_scooter", "name": "87bf462247931d9f7ec87fe932244c7a", "is_reserved": 0, "fusion_lat": 0.0, "lon": -76.97705266666667, "is_disabled": 0, "rental_uris": {"android": "https://dc.lft.to/lastmile_qr_scan", "ios": "https://dc.lft.to/lastmile_qr_scan"}, "bike_id": "87bf462247931d9f7ec87fe932244c7a", "fusion_lon": 0.0, "lat": 38.9025145}, {"type": "electric_scooter", "name": "00255ca0d54f6ccf51b845cdcb782f50", "is_reserved": 0, "fusion_lat": 0.0, "lon": -77.03441316666667, "is_disabled": 0, "rental_uris": {"android": "https://dc.lft.to/lastmile_qr_scan", "ios": "https://dc.lft.to/lastmile_qr_scan"}, "bike_id": "00255ca0d54f6ccf51b845cdcb782f50", "fusion_lon": 0.0, "lat": 38.91808733333333}, {"type": "electric_scooter", "name": "50e7574100fdc99298acd0cddecc8625", "is_reserved": 0, "fusion_lat": 0.0, "lon": -77.00438, "is_disabled": 0, "rental_uris": {"android": "https://dc.lft.to/lastmile_qr_scan", "ios": "https://dc.lft.to/lastmile_qr_scan"}, "bike_id": "50e7574100fdc99298acd0cddecc8625", "fusion_lon": 0.0, "lat": 38.8767175}, {"type": "electric_scooter", "name": "6b4686091e33ef72ee352e92a12b24b0", "is_reserved": 0, "fusion_lat": 0.0, "lon": -77.02158683333333, "is_disabled": 0, "rental_uris": {"android": "https://dc.lft.to/lastmile_qr_scan", "ios": "https://dc.lft.to/lastmile_qr_scan"}, "bike_id": "6b4686091e33ef72ee352e92a12b24b0", "fusion_lon": 0.0, "lat": 38.92606683333333}, {"type": "electric_scooter", "name": "5b9042714279925d30a68256b52d703e", "is_reserved": 0, "fusion_lat": 0.0, "lon": -77.04351233333334, "is_disabled": 0, "rental_uris": {"android": "https://dc.lft.to/lastmile_qr_scan", "ios": "https://dc.lft.to/lastmile_qr_scan"}, "bike_id": "5b9042714279925d30a68256b52d703e", "fusion_lon": 0.0, "lat": 38.910436833333335}, {"type": "electric_scooter", "name": "960abdb211253876a789d852f9596ea8", "is_reserved": 0, "fusion_lat": 0.0, "lon": -77.0474175, "is_disabled": 0, "rental_uris": {"android": "https://dc.lft.to/lastmile_qr_scan", "ios": "https://dc.lft.to/lastmile_qr_scan"}, "bike_id": "960abdb211253876a789d852f9596ea8", "fusion_lon": 0.0, "lat": 38.909603}, {"type": "electric_scooter", "name": "1a28909ce354dde12af73605c87b96e3", "is_reserved": 0, "fusion_lat": 0.0, "lon": -77.03175733333333, "is_disabled": 0, "rental_uris": {"android": "https://dc.lft.to/lastmile_qr_scan", "ios": "https://dc.lft.to/lastmile_qr_scan"}, "bike_id": "1a28909ce354dde12af73605c87b96e3", "fusion_lon": 0.0, "lat": 38.917796333333335}, {"type": "electric_scooter", "name": "bab76cac3aef288c318554165620139b", "is_reserved": 0, "fusion_lat": 0.0, "lon": -77.05001433333334, "is_disabled": 0, "rental_uris": {"android": "https://dc.lft.to/lastmile_qr_scan", "ios": "https://dc.lft.to/lastmile_qr_scan"}, "bike_id": "bab76cac3aef288c318554165620139b", "fusion_lon": 0.0, "lat": 38.8922865}, {"type": "electric_scooter", "name": "053b28a16b1fc408793e19b51210e24e", "is_reserved": 0, "fusion_lat": 0.0, "lon": -77.04203633333333, "is_disabled": 0, "rental_uris": {"android": "https://dc.lft.to/lastmile_qr_scan", "ios": "https://dc.lft.to/lastmile_qr_scan"}, "bike_id": "053b28a16b1fc408793e19b51210e24e", "fusion_lon": 0.0, "lat": 38.9187555}, {"type": "electric_scooter", "name": "e3d7314ad42f20457fa9b4f03ca9c58e", "is_reserved": 0, "fusion_lat": 0.0, "lon": -77.02744233333334, "is_disabled": 0, "rental_uris": {"android": "https://dc.lft.to/lastmile_qr_scan", "ios": "https://dc.lft.to/lastmile_qr_scan"}, "bike_id": "e3d7314ad42f20457fa9b4f03ca9c58e", "fusion_lon": 0.0, "lat": 38.92408666666667}, {"type": "electric_scooter", "name": "9a7c6b49ba27f25aff71feeda8eb7308", "is_reserved": 0, "fusion_lat": 0.0, "lon": -77.01901216666667, "is_disabled": 0, "rental_uris": {"android": "https://dc.lft.to/lastmile_qr_scan", "ios": "https://dc.lft.to/lastmile_qr_scan"}, "bike_id": "9a7c6b49ba27f25aff71feeda8eb7308", "fusion_lon": 0.0, "lat": 38.91385783333333}, {"type": "electric_scooter", "name": "670faadc25432c4d664fee0de7392e00", "is_reserved": 0, "fusion_lat": 0.0, "lon": -77.03162583333334, "is_disabled": 0, "rental_uris": {"android": "https://dc.lft.to/lastmile_qr_scan", "ios": "https://dc.lft.to/lastmile_qr_scan"}, "bike_id": "670faadc25432c4d664fee0de7392e00", "fusion_lon": 0.0, "lat": 38.9161945}, {"type": "electric_scooter", "name": "cc4a57466c0089d6349f621903d51832", "is_reserved": 0, "fusion_lat": 0.0, "lon": -77.02894016666667, "is_disabled": 0, "rental_uris": {"android": "https://dc.lft.to/lastmile_qr_scan", "ios": "https://dc.lft.to/lastmile_qr_scan"}, "bike_id": "cc4a57466c0089d6349f621903d51832", "fusion_lon": 0.0, "lat": 38.90318}, {"type": "electric_scooter", "name": "c0e8c124aac763c6321b98bd8843d9a9", "is_reserved": 0, "fusion_lat": 0.0, "lon": -77.04251583333334, "is_disabled": 0, "rental_uris": {"android": "https://dc.lft.to/lastmile_qr_scan", "ios": "https://dc.lft.to/lastmile_qr_scan"}, "bike_id": "c0e8c124aac763c6321b98bd8843d9a9", "fusion_lon": 0.0, "lat": 38.90641}, {"type": "electric_scooter", "name": "d8918a29e4cb7ccc66716c79761f0182", "is_reserved": 0, "fusion_lat": 0.0, "lon": -77.02727716666666, "is_disabled": 0, "rental_uris": {"android": "https://dc.lft.to/lastmile_qr_scan", "ios": "https://dc.lft.to/lastmile_qr_scan"}, "bike_id": "d8918a29e4cb7ccc66716c79761f0182", "fusion_lon": 0.0, "lat": 38.9277105}, {"type": "electric_scooter", "name": "b45d166f7d8153ae6c8d02cd5060ca1c", "is_reserved": 0, "fusion_lat": 0.0, "lon": -77.03934783333334, "is_disabled": 0, "rental_uris": {"android": "https://dc.lft.to/lastmile_qr_scan", "ios": "https://dc.lft.to/lastmile_qr_scan"}, "bike_id": "b45d166f7d8153ae6c8d02cd5060ca1c", "fusion_lon": 0.0, "lat": 38.903696333333336}, {"type": "electric_scooter", "name": "16136bb057b908c41b8c4fbc9dd9c0df", "is_reserved": 0, "fusion_lat": 0.0, "lon": -77.07165516666667, "is_disabled": 0, "rental_uris": {"android": "https://dc.lft.to/lastmile_qr_scan", "ios": "https://dc.lft.to/lastmile_qr_scan"}, "bike_id": "16136bb057b908c41b8c4fbc9dd9c0df", "fusion_lon": 0.0, "lat": 38.90779366666666}, {"type": "electric_scooter", "name": "fafbc9838ba495080f6db1d1d022bb57", "is_reserved": 0, "fusion_lat": 0.0, "lon": -77.04681116666667, "is_disabled": 0, "rental_uris": {"android": "https://dc.lft.to/lastmile_qr_scan", "ios": "https://dc.lft.to/lastmile_qr_scan"}, "bike_id": "fafbc9838ba495080f6db1d1d022bb57", "fusion_lon": 0.0, "lat": 38.90170216666667}, {"type": "electric_scooter", "name": "2f89c09b68e68bddadf2a32accde37bd", "is_reserved": 0, "fusion_lat": 0.0, "lon": -77.03025, "is_disabled": 0, "rental_uris": {"android": "https://dc.lft.to/lastmile_qr_scan", "ios": "https://dc.lft.to/lastmile_qr_scan"}, "bike_id": "2f89c09b68e68bddadf2a32accde37bd", "fusion_lon": 0.0, "lat": 38.922454}, {"type": "electric_scooter", "name": "82645e2d03ded5cbe95499a899915756", "is_reserved": 0, "fusion_lat": 0.0, "lon": -77.0543205, "is_disabled": 0, "rental_uris": {"android": "https://dc.lft.to/lastmile_qr_scan", "ios": "https://dc.lft.to/lastmile_qr_scan"}, "bike_id": "82645e2d03ded5cbe95499a899915756", "fusion_lon": 0.0, "lat": 38.923483833333336}, {"type": "electric_scooter", "name": "bf064037a5e71fa57dbc00d93aa6acf5", "is_reserved": 0, "fusion_lat": 0.0, "lon": -77.034872, "is_disabled": 0, "rental_uris": {"android": "https://dc.lft.to/lastmile_qr_scan", "ios": "https://dc.lft.to/lastmile_qr_scan"}, "bike_id": "bf064037a5e71fa57dbc00d93aa6acf5", "fusion_lon": 0.0, "lat": 38.932702}, {"type": "electric_scooter", "name": "ec71b109daadcbf525d850a3f880e909", "is_reserved": 0, "fusion_lat": 0.0, "lon": -77.03469766666667, "is_disabled": 0, "rental_uris": {"android": "https://dc.lft.to/lastmile_qr_scan", "ios": "https://dc.lft.to/lastmile_qr_scan"}, "bike_id": "ec71b109daadcbf525d850a3f880e909", "fusion_lon": 0.0, "lat": 38.91705733333333}, {"type": "electric_scooter", "name": "f4e13f7c3ffddf32f77605e5c2523bab", "is_reserved": 0, "fusion_lat": 0.0, "lon": -77.05130216666667, "is_disabled": 0, "rental_uris": {"android": "https://dc.lft.to/lastmile_qr_scan", "ios": "https://dc.lft.to/lastmile_qr_scan"}, "bike_id": "f4e13f7c3ffddf32f77605e5c2523bab", "fusion_lon": 0.0, "lat": 38.923622}, {"type": "electric_scooter", "name": "60fbff49bf714e9a82b84d8816ca2cdc", "is_reserved": 0, "fusion_lat": 0.0, "lon": -77.06326683333333, "is_disabled": 0, "rental_uris": {"android": "https://dc.lft.to/lastmile_qr_scan", "ios": "https://dc.lft.to/lastmile_qr_scan"}, "bike_id": "60fbff49bf714e9a82b84d8816ca2cdc", "fusion_lon": 0.0, "lat": 38.94421066666666}, {"type": "electric_scooter", "name": "d62185a0ce75dfd6da8e7045e958b516", "is_reserved": 0, "fusion_lat": 0.0, "lon": -77.03073816666667, "is_disabled": 0, "rental_uris": {"android": "https://dc.lft.to/lastmile_qr_scan", "ios": "https://dc.lft.to/lastmile_qr_scan"}, "bike_id": "d62185a0ce75dfd6da8e7045e958b516", "fusion_lon": 0.0, "lat": 38.89750216666667}, {"type": "electric_scooter", "name": "7425622249e3796b965ee306223a8047", "is_reserved": 0, "fusion_lat": 0.0, "lon": -77.04653366666666, "is_disabled": 0, "rental_uris": {"android": "https://dc.lft.to/lastmile_qr_scan", "ios": "https://dc.lft.to/lastmile_qr_scan"}, "bike_id": "7425622249e3796b965ee306223a8047", "fusion_lon": 0.0, "lat": 38.89221216666667}, {"type": "electric_scooter", "name": "8f7b2da52c299500fe37e791b13d9078", "is_reserved": 0, "fusion_lat": 0.0, "lon": -77.02290716666667, "is_disabled": 0, "rental_uris": {"android": "https://dc.lft.to/lastmile_qr_scan", "ios": "https://dc.lft.to/lastmile_qr_scan"}, "bike_id": "8f7b2da52c299500fe37e791b13d9078", "fusion_lon": 0.0, "lat": 38.91840166666667}, {"type": "electric_scooter", "name": "f4561ab05a330c508f7ba81e0ed2eb0f", "is_reserved": 0, "fusion_lat": 0.0, "lon": -77.00366183333334, "is_disabled": 0, "rental_uris": {"android": "https://dc.lft.to/lastmile_qr_scan", "ios": "https://dc.lft.to/lastmile_qr_scan"}, "bike_id": "f4561ab05a330c508f7ba81e0ed2eb0f", "fusion_lon": 0.0, "lat": 38.882612333333334}, {"type": "electric_bike", "name": "07a09508c02321eb207628ccefe74208", "is_reserved": 0, "fusion_lat": 0.0, "lon": -76.98631716666667, "is_disabled": 0, "rental_uris": {"android": "https://dc.lft.to/lastmile_qr_scan", "ios": "https://dc.lft.to/lastmile_qr_scan"}, "bike_id": "07a09508c02321eb207628ccefe74208", "fusion_lon": 0.0, "lat": 38.88043183333333}, {"type": "electric_scooter", "name": "fea848653f8cf98cb91e72fe3fb0fc2f", "is_reserved": 0, "fusion_lat": 0.0, "lon": -77.00581583333333, "is_disabled": 0, "rental_uris": {"android": "https://dc.lft.to/lastmile_qr_scan", "ios": "https://dc.lft.to/lastmile_qr_scan"}, "bike_id": "fea848653f8cf98cb91e72fe3fb0fc2f", "fusion_lon": 0.0, "lat": 38.876577}, {"type": "electric_scooter", "name": "dc8dcf36c807db802aedba00135bae25", "is_reserved": 0, "fusion_lat": 0.0, "lon": -76.988762, "is_disabled": 0, "rental_uris": {"android": "https://dc.lft.to/lastmile_qr_scan", "ios": "https://dc.lft.to/lastmile_qr_scan"}, "bike_id": "dc8dcf36c807db802aedba00135bae25", "fusion_lon": 0.0, "lat": 38.9002825}, {"type": "electric_scooter", "name": "6488fc06dd50992a01502c7f4adc16d9", "is_reserved": 0, "fusion_lat": 0.0, "lon": -77.00725066666666, "is_disabled": 0, "rental_uris": {"android": "https://dc.lft.to/lastmile_qr_scan", "ios": "https://dc.lft.to/lastmile_qr_scan"}, "bike_id": "6488fc06dd50992a01502c7f4adc16d9", "fusion_lon": 0.0, "lat": 38.8849315}, {"type": "electric_scooter", "name": "0318ea5052ce1652f9f59a3a00a5bd5d", "is_reserved": 0, "fusion_lat": 0.0, "lon": -77.06162116666667, "is_disabled": 0, "rental_uris": {"android": "https://dc.lft.to/lastmile_qr_scan", "ios": "https://dc.lft.to/lastmile_qr_scan"}, "bike_id": "0318ea5052ce1652f9f59a3a00a5bd5d", "fusion_lon": 0.0, "lat": 38.902796}, {"type": "electric_scooter", "name": "2a23e0ee46314be12d294e68ece3e076", "is_reserved": 0, "fusion_lat": 0.0, "lon": -77.0417865, "is_disabled": 0, "rental_uris": {"android": "https://dc.lft.to/lastmile_qr_scan", "ios": "https://dc.lft.to/lastmile_qr_scan"}, "bike_id": "2a23e0ee46314be12d294e68ece3e076", "fusion_lon": 0.0, "lat": 38.91552683333333}, {"type": "electric_bike", "name": "93feb243c58f5d2e75862e1e5ca1897d", "is_reserved": 0, "fusion_lat": 0.0, "lon": -77.00207216666666, "is_disabled": 0, "rental_uris": {"android": "https://dc.lft.to/lastmile_qr_scan", "ios": "https://dc.lft.to/lastmile_qr_scan"}, "bike_id": "93feb243c58f5d2e75862e1e5ca1897d", "fusion_lon": 0.0, "lat": 38.81943533333333}, {"type": "electric_bike", "name": "1735cd253d53cba3ed001c437ed81143", "is_reserved": 0, "fusion_lat": 0.0, "lon": -77.11708183333333, "is_disabled": 0, "rental_uris": {"android": "https://dc.lft.to/lastmile_qr_scan", "ios": "https://dc.lft.to/lastmile_qr_scan"}, "bike_id": "1735cd253d53cba3ed001c437ed81143", "fusion_lon": 0.0, "lat": 38.86743116666667}, {"type": "electric_scooter", "name": "c19fd1fbf4b02eb757e7bdeed4e7a584", "is_reserved": 0, "fusion_lat": 0.0, "lon": -77.00968633333333, "is_disabled": 0, "rental_uris": {"android": "https://dc.lft.to/lastmile_qr_scan", "ios": "https://dc.lft.to/lastmile_qr_scan"}, "bike_id": "c19fd1fbf4b02eb757e7bdeed4e7a584", "fusion_lon": 0.0, "lat": 38.914150666666664}, {"type": "electric_scooter", "name": "b0c56da05a6e01a7a63d49bea75bbdc3", "is_reserved": 0, "fusion_lat": 0.0, "lon": -77.03642466666666, "is_disabled": 0, "rental_uris": {"android": "https://dc.lft.to/lastmile_qr_scan", "ios": "https://dc.lft.to/lastmile_qr_scan"}, "bike_id": "b0c56da05a6e01a7a63d49bea75bbdc3", "fusion_lon": 0.0, "lat": 38.90286116666667}, {"type": "electric_scooter", "name": "1a12d726b9b960a9b66e391c417de3b4", "is_reserved": 0, "fusion_lat": 0.0, "lon": -77.02915583333333, "is_disabled": 0, "rental_uris": {"android": "https://dc.lft.to/lastmile_qr_scan", "ios": "https://dc.lft.to/lastmile_qr_scan"}, "bike_id": "1a12d726b9b960a9b66e391c417de3b4", "fusion_lon": 0.0, "lat": 38.916915333333336}, {"type": "electric_scooter", "name": "b3b06f55b4367384b925d92689700c94", "is_reserved": 0, "fusion_lat": 0.0, "lon": -76.93748966666666, "is_disabled": 0, "rental_uris": {"android": "https://dc.lft.to/lastmile_qr_scan", "ios": "https://dc.lft.to/lastmile_qr_scan"}, "bike_id": "b3b06f55b4367384b925d92689700c94", "fusion_lon": 0.0, "lat": 38.890473166666666}, {"type": "electric_scooter", "name": "fb31909fdef015a5c1d34914a668c752", "is_reserved": 0, "fusion_lat": 0.0, "lon": -77.027043, "is_disabled": 0, "rental_uris": {"android": "https://dc.lft.to/lastmile_qr_scan", "ios": "https://dc.lft.to/lastmile_qr_scan"}, "bike_id": "fb31909fdef015a5c1d34914a668c752", "fusion_lon": 0.0, "lat": 38.906726666666664}, {"type": "electric_scooter", "name": "310ab01755e505dc2f4d5a2b17cac8f0", "is_reserved": 0, "fusion_lat": 0.0, "lon": -77.07073866666667, "is_disabled": 0, "rental_uris": {"android": "https://dc.lft.to/lastmile_qr_scan", "ios": "https://dc.lft.to/lastmile_qr_scan"}, "bike_id": "310ab01755e505dc2f4d5a2b17cac8f0", "fusion_lon": 0.0, "lat": 38.931710333333335}, {"type": "electric_scooter", "name": "0f552be150b53ec3265368621ea98074", "is_reserved": 0, "fusion_lat": 0.0, "lon": -77.02494983333334, "is_disabled": 0, "rental_uris": {"android": "https://dc.lft.to/lastmile_qr_scan", "ios": "https://dc.lft.to/lastmile_qr_scan"}, "bike_id": "0f552be150b53ec3265368621ea98074", "fusion_lon": 0.0, "lat": 38.9180775}, {"type": "electric_scooter", "name": "21c41c1b9f1d3044fc53943c964b6259", "is_reserved": 0, "fusion_lat": 0.0, "lon": -77.04339016666667, "is_disabled": 0, "rental_uris": {"android": "https://dc.lft.to/lastmile_qr_scan", "ios": "https://dc.lft.to/lastmile_qr_scan"}, "bike_id": "21c41c1b9f1d3044fc53943c964b6259", "fusion_lon": 0.0, "lat": 38.897976166666666}, {"type": "electric_scooter", "name": "bfdd4e85072506d705c9203e415c5d48", "is_reserved": 0, "fusion_lat": 0.0, "lon": -77.038893, "is_disabled": 0, "rental_uris": {"android": "https://dc.lft.to/lastmile_qr_scan", "ios": "https://dc.lft.to/lastmile_qr_scan"}, "bike_id": "bfdd4e85072506d705c9203e415c5d48", "fusion_lon": 0.0, "lat": 38.93262383333333}, {"type": "electric_scooter", "name": "21965a093528d4faf50c9f302339a8b7", "is_reserved": 0, "fusion_lat": 0.0, "lon": -77.03453116666667, "is_disabled": 0, "rental_uris": {"android": "https://dc.lft.to/lastmile_qr_scan", "ios": "https://dc.lft.to/lastmile_qr_scan"}, "bike_id": "21965a093528d4faf50c9f302339a8b7", "fusion_lon": 0.0, "lat": 38.91820583333333}, {"type": "electric_scooter", "name": "49b73ea5c15384a7185e0882df7c9721", "is_reserved": 0, "fusion_lat": 0.0, "lon": -77.01745016666666, "is_disabled": 0, "rental_uris": {"android": "https://dc.lft.to/lastmile_qr_scan", "ios": "https://dc.lft.to/lastmile_qr_scan"}, "bike_id": "49b73ea5c15384a7185e0882df7c9721", "fusion_lon": 0.0, "lat": 38.87273666666667}, {"type": "electric_scooter", "name": "a20cf3da4952372e231a61ffc7f55ab8", "is_reserved": 0, "fusion_lat": 0.0, "lon": -77.0333985, "is_disabled": 0, "rental_uris": {"android": "https://dc.lft.to/lastmile_qr_scan", "ios": "https://dc.lft.to/lastmile_qr_scan"}, "bike_id": "a20cf3da4952372e231a61ffc7f55ab8", "fusion_lon": 0.0, "lat": 38.898140833333336}, {"type": "electric_scooter", "name": "1af293841a1480623d1208b2741781ec", "is_reserved": 0, "fusion_lat": 0.0, "lon": -77.0442045, "is_disabled": 0, "rental_uris": {"android": "https://dc.lft.to/lastmile_qr_scan", "ios": "https://dc.lft.to/lastmile_qr_scan"}, "bike_id": "1af293841a1480623d1208b2741781ec", "fusion_lon": 0.0, "lat": 38.90946566666667}, {"type": "electric_scooter", "name": "ab5deca287518c90db26ac538cc8ec20", "is_reserved": 0, "fusion_lat": 0.0, "lon": -76.99750033333333, "is_disabled": 0, "rental_uris": {"android": "https://dc.lft.to/lastmile_qr_scan", "ios": "https://dc.lft.to/lastmile_qr_scan"}, "bike_id": "ab5deca287518c90db26ac538cc8ec20", "fusion_lon": 0.0, "lat": 38.90848}, {"type": "electric_scooter", "name": "40c48187f5c8899f6cc21e45937fef3c", "is_reserved": 0, "fusion_lat": 0.0, "lon": -77.03987116666667, "is_disabled": 0, "rental_uris": {"android": "https://dc.lft.to/lastmile_qr_scan", "ios": "https://dc.lft.to/lastmile_qr_scan"}, "bike_id": "40c48187f5c8899f6cc21e45937fef3c", "fusion_lon": 0.0, "lat": 38.90603566666667}, {"type": "electric_scooter", "name": "17b7123c7bcde8c225d2111aa4482182", "is_reserved": 0, "fusion_lat": 0.0, "lon": -77.01611983333333, "is_disabled": 0, "rental_uris": {"android": "https://dc.lft.to/lastmile_qr_scan", "ios": "https://dc.lft.to/lastmile_qr_scan"}, "bike_id": "17b7123c7bcde8c225d2111aa4482182", "fusion_lon": 0.0, "lat": 38.883266166666665}, {"type": "electric_scooter", "name": "0270671c7583551d8f7523e9fdbb4992", "is_reserved": 0, "fusion_lat": 0.0, "lon": -77.0227615, "is_disabled": 0, "rental_uris": {"android": "https://dc.lft.to/lastmile_qr_scan", "ios": "https://dc.lft.to/lastmile_qr_scan"}, "bike_id": "0270671c7583551d8f7523e9fdbb4992", "fusion_lon": 0.0, "lat": 38.90959466666666}, {"type": "electric_scooter", "name": "1ee459fcb0b1a7f1481b9835d823a4d7", "is_reserved": 0, "fusion_lat": 0.0, "lon": -77.02694366666667, "is_disabled": 0, "rental_uris": {"android": "https://dc.lft.to/lastmile_qr_scan", "ios": "https://dc.lft.to/lastmile_qr_scan"}, "bike_id": "1ee459fcb0b1a7f1481b9835d823a4d7", "fusion_lon": 0.0, "lat": 38.90457166666667}, {"type": "electric_scooter", "name": "53d38b5fa573ca0b658947a094953533", "is_reserved": 0, "fusion_lat": 0.0, "lon": -77.06133833333334, "is_disabled": 0, "rental_uris": {"android": "https://dc.lft.to/lastmile_qr_scan", "ios": "https://dc.lft.to/lastmile_qr_scan"}, "bike_id": "53d38b5fa573ca0b658947a094953533", "fusion_lon": 0.0, "lat": 38.940861166666664}, {"type": "electric_scooter", "name": "cb3f26333b3319f597aa074c4427d17f", "is_reserved": 0, "fusion_lat": 0.0, "lon": -77.02986233333333, "is_disabled": 0, "rental_uris": {"android": "https://dc.lft.to/lastmile_qr_scan", "ios": "https://dc.lft.to/lastmile_qr_scan"}, "bike_id": "cb3f26333b3319f597aa074c4427d17f", "fusion_lon": 0.0, "lat": 38.93451566666667}, {"type": "electric_scooter", "name": "4232dcc21f45f3e94087ee59366eeac4", "is_reserved": 0, "fusion_lat": 0.0, "lon": -77.0237035, "is_disabled": 0, "rental_uris": {"android": "https://dc.lft.to/lastmile_qr_scan", "ios": "https://dc.lft.to/lastmile_qr_scan"}, "bike_id": "4232dcc21f45f3e94087ee59366eeac4", "fusion_lon": 0.0, "lat": 38.89629466666667}, {"type": "electric_scooter", "name": "ca418da7dccf6e763a38e14ff7b7d380", "is_reserved": 0, "fusion_lat": 0.0, "lon": -77.06416933333334, "is_disabled": 0, "rental_uris": {"android": "https://dc.lft.to/lastmile_qr_scan", "ios": "https://dc.lft.to/lastmile_qr_scan"}, "bike_id": "ca418da7dccf6e763a38e14ff7b7d380", "fusion_lon": 0.0, "lat": 38.945585333333334}, {"type": "electric_scooter", "name": "6ce148337307824d7167bdcb5a246a8f", "is_reserved": 0, "fusion_lat": 0.0, "lon": -77.017643, "is_disabled": 0, "rental_uris": {"android": "https://dc.lft.to/lastmile_qr_scan", "ios": "https://dc.lft.to/lastmile_qr_scan"}, "bike_id": "6ce148337307824d7167bdcb5a246a8f", "fusion_lon": 0.0, "lat": 38.87499066666667}, {"type": "electric_scooter", "name": "213be3b9b5bb9f82c43007ed7b885a45", "is_reserved": 0, "fusion_lat": 0.0, "lon": -77.05120016666666, "is_disabled": 0, "rental_uris": {"android": "https://dc.lft.to/lastmile_qr_scan", "ios": "https://dc.lft.to/lastmile_qr_scan"}, "bike_id": "213be3b9b5bb9f82c43007ed7b885a45", "fusion_lon": 0.0, "lat": 38.923594666666666}, {"type": "electric_scooter", "name": "f2d4dd2c9dbbc083883d909096bf919f", "is_reserved": 0, "fusion_lat": 0.0, "lon": -77.03177183333334, "is_disabled": 0, "rental_uris": {"android": "https://dc.lft.to/lastmile_qr_scan", "ios": "https://dc.lft.to/lastmile_qr_scan"}, "bike_id": "f2d4dd2c9dbbc083883d909096bf919f", "fusion_lon": 0.0, "lat": 38.920078333333336}, {"type": "electric_bike", "name": "5f01547ad1edd40581c5dd67ddb4eff0", "is_reserved": 0, "fusion_lat": 0.0, "lon": -76.96943783333333, "is_disabled": 0, "rental_uris": {"android": "https://dc.lft.to/lastmile_qr_scan", "ios": "https://dc.lft.to/lastmile_qr_scan"}, "bike_id": "5f01547ad1edd40581c5dd67ddb4eff0", "fusion_lon": 0.0, "lat": 38.897469}, {"type": "electric_scooter", "name": "436a4ab80e251de199fdf3a2074b2936", "is_reserved": 0, "fusion_lat": 0.0, "lon": -76.99868983333333, "is_disabled": 0, "rental_uris": {"android": "https://dc.lft.to/lastmile_qr_scan", "ios": "https://dc.lft.to/lastmile_qr_scan"}, "bike_id": "436a4ab80e251de199fdf3a2074b2936", "fusion_lon": 0.0, "lat": 38.923434666666665}, {"type": "electric_scooter", "name": "f149b55698e488008c99f90338d9e837", "is_reserved": 0, "fusion_lat": 0.0, "lon": -76.99611983333334, "is_disabled": 0, "rental_uris": {"android": "https://dc.lft.to/lastmile_qr_scan", "ios": "https://dc.lft.to/lastmile_qr_scan"}, "bike_id": "f149b55698e488008c99f90338d9e837", "fusion_lon": 0.0, "lat": 38.88702216666667}, {"type": "electric_scooter", "name": "2caeae791a31edcfb78bfeb9f8f8b8bf", "is_reserved": 0, "fusion_lat": 0.0, "lon": -77.03840883333334, "is_disabled": 0, "rental_uris": {"android": "https://dc.lft.to/lastmile_qr_scan", "ios": "https://dc.lft.to/lastmile_qr_scan"}, "bike_id": "2caeae791a31edcfb78bfeb9f8f8b8bf", "fusion_lon": 0.0, "lat": 38.90677766666667}, {"type": "electric_scooter", "name": "980fda4557649531b2a9391d90d8feb3", "is_reserved": 0, "fusion_lat": 0.0, "lon": -77.02482183333333, "is_disabled": 0, "rental_uris": {"android": "https://dc.lft.to/lastmile_qr_scan", "ios": "https://dc.lft.to/lastmile_qr_scan"}, "bike_id": "980fda4557649531b2a9391d90d8feb3", "fusion_lon": 0.0, "lat": 38.89842}, {"type": "electric_scooter", "name": "f913dc0151006c8db7690399f3969390", "is_reserved": 0, "fusion_lat": 0.0, "lon": -77.02438283333333, "is_disabled": 0, "rental_uris": {"android": "https://dc.lft.to/lastmile_qr_scan", "ios": "https://dc.lft.to/lastmile_qr_scan"}, "bike_id": "f913dc0151006c8db7690399f3969390", "fusion_lon": 0.0, "lat": 38.90970183333334}, {"type": "electric_scooter", "name": "806265dc7a72f0295a44b01f54ce2289", "is_reserved": 0, "fusion_lat": 0.0, "lon": -77.01530316666667, "is_disabled": 0, "rental_uris": {"android": "https://dc.lft.to/lastmile_qr_scan", "ios": "https://dc.lft.to/lastmile_qr_scan"}, "bike_id": "806265dc7a72f0295a44b01f54ce2289", "fusion_lon": 0.0, "lat": 38.877153166666666}, {"type": "electric_scooter", "name": "20f9fbaafcdecdf53615b6258192dd49", "is_reserved": 0, "fusion_lat": 0.0, "lon": -77.02758933333334, "is_disabled": 0, "rental_uris": {"android": "https://dc.lft.to/lastmile_qr_scan", "ios": "https://dc.lft.to/lastmile_qr_scan"}, "bike_id": "20f9fbaafcdecdf53615b6258192dd49", "fusion_lon": 0.0, "lat": 38.95432866666667}, {"type": "electric_scooter", "name": "26f3c3b6b85d8a619b051faeaedf6306", "is_reserved": 0, "fusion_lat": 0.0, "lon": -77.04554716666667, "is_disabled": 0, "rental_uris": {"android": "https://dc.lft.to/lastmile_qr_scan", "ios": "https://dc.lft.to/lastmile_qr_scan"}, "bike_id": "26f3c3b6b85d8a619b051faeaedf6306", "fusion_lon": 0.0, "lat": 38.8960875}, {"type": "electric_scooter", "name": "1716d97fa8d3436a0cb5662bae07475e", "is_reserved": 0, "fusion_lat": 0.0, "lon": -76.93351066666666, "is_disabled": 0, "rental_uris": {"android": "https://dc.lft.to/lastmile_qr_scan", "ios": "https://dc.lft.to/lastmile_qr_scan"}, "bike_id": "1716d97fa8d3436a0cb5662bae07475e", "fusion_lon": 0.0, "lat": 38.89909466666667}, {"type": "electric_scooter", "name": "129e2f4286e807d20c457ea3ad436b4e", "is_reserved": 0, "fusion_lat": 0.0, "lon": -77.018987, "is_disabled": 0, "rental_uris": {"android": "https://dc.lft.to/lastmile_qr_scan", "ios": "https://dc.lft.to/lastmile_qr_scan"}, "bike_id": "129e2f4286e807d20c457ea3ad436b4e", "fusion_lon": 0.0, "lat": 38.922578}, {"type": "electric_scooter", "name": "11d230ab8dfe3637f4c739bca8afaf2d", "is_reserved": 0, "fusion_lat": 0.0, "lon": -77.05004216666667, "is_disabled": 0, "rental_uris": {"android": "https://dc.lft.to/lastmile_qr_scan", "ios": "https://dc.lft.to/lastmile_qr_scan"}, "bike_id": "11d230ab8dfe3637f4c739bca8afaf2d", "fusion_lon": 0.0, "lat": 38.892310333333334}, {"type": "electric_scooter", "name": "7c0d9033268ea7efc53192be30d1f47e", "is_reserved": 0, "fusion_lat": 0.0, "lon": -77.0199795, "is_disabled": 0, "rental_uris": {"android": "https://dc.lft.to/lastmile_qr_scan", "ios": "https://dc.lft.to/lastmile_qr_scan"}, "bike_id": "7c0d9033268ea7efc53192be30d1f47e", "fusion_lon": 0.0, "lat": 38.96630583333334},