{"data": {"bikes": [{"type": "electric_bike", "fusion_lon": 0.0, "name": "e346face3dd3849f850b03c8b5db3d6c", "lon": -76.99108066666666, "fusion_lat": 0.0, "is_disabled": 0, "is_reserved": 0, "rental_uris": {"ios": "https://dc.lft.to/lastmile_qr_scan", "android": "https://dc.lft.to/lastmile_qr_scan"}, "bike_id": "e346face3dd3849f850b03c8b5db3d6c", "lat": 38.80482416666667}, {"type": "electric_bike", "fusion_lon": 0.0, "name": "970cf162936e4a942a877d0f4c953d95", "lon": -76.9809635, "fusion_lat": 0.0, "is_disabled": 0, "is_reserved": 0, "rental_uris": {"ios": "https://dc.lft.to/lastmile_qr_scan", "android": "https://dc.lft.to/lastmile_qr_scan"}, "bike_id": "970cf162936e4a942a877d0f4c953d95", "lat": 38.95886516666667}, {"type": "electric_bike", "fusion_lon": 0.0, "name": "91c95b3f7222b6ce173718f1250ba66d", "lon": -77.05438633333333, "fusion_lat": 0.0, "is_disabled": 0, "is_reserved": 0, "rental_uris": {"ios": "https://dc.lft.to/lastmile_qr_scan", "android": "https://dc.lft.to/lastmile_qr_scan"}, "bike_id": "91c95b3f7222b6ce173718f1250ba66d", "lat": 38.78462716666667}, {"type": "electric_scooter", "fusion_lon": 0.0, "name": "b29a67ee5671c92004884e82a6dd2d7d", "lon": -77.0321535, "fusion_lat": 0.0, "is_disabled": 0, "is_reserved": 0, "rental_uris": {"ios": "https://dc.lft.to/lastmile_qr_scan", "android": "https://dc.lft.to/lastmile_qr_scan"}, "bike_id": "b29a67ee5671c92004884e82a6dd2d7d", "lat": 38.91122633333333}, {"type": "electric_scooter", "fusion_lon": 0.0, "name": "1994c894d59c3352f3d64646de10d83b", "lon": -77.05469983333333, "fusion_lat": 0.0, "is_disabled": 0, "is_reserved": 0, "rental_uris": {"ios": "https://dc.lft.to/lastmile_qr_scan", "android": "https://dc.lft.to/lastmile_qr_scan"}, "bike_id": "1994c894d59c3352f3d64646de10d83b", "lat": 38.936943666666664}, {"type": "electric_scooter", "fusion_lon": 0.0, "name": "17b267f445a0dc9c0d7ad949818f3961", "lon": -77.01804016666667, "fusion_lat": 0.0, "is_disabled": 0, "is_reserved": 0, "rental_uris": {"ios": "https://dc.lft.to/lastmile_qr_scan", "android": "https://dc.lft.to/lastmile_qr_scan"}, "bike_id": "17b267f445a0dc9c0d7ad949818f3961", "lat": 38.914216333333336}, {"type": "electric_scooter", "fusion_lon": 0.0, "name": "0f479884e62506cc234f65cf6c13b936", "lon": -77.00070016666666, "fusion_lat": 0.0, "is_disabled": 0, "is_reserved": 0, "rental_uris": {"ios": "https://dc.lft.to/lastmile_qr_scan", "android": "https://dc.lft.to/lastmile_qr_scan"}, "bike_id": "0f479884e62506cc234f65cf6c13b936", "lat": 38.8768295}, {"type": "electric_scooter", "fusion_lon": 0.0, "name": "826b051caddd341e3934e33e90c2aaa2", "lon": -77.01551816666667, "fusion_lat": 0.0, "is_disabled": 0, "is_reserved": 0, "rental_uris": {"ios": "https://dc.lft.to/lastmile_qr_scan", "android": "https://dc.lft.to/lastmile_qr_scan"}, "bike_id": "826b051caddd341e3934e33e90c2aaa2", "lat": 38.928032333333334}, {"type": "electric_bike", "fusion_lon": 0.0, "name": "959c7311771060aa0897458350918438", "lon": -77.000516, "fusion_lat": 0.0, "is_disabled": 0, "is_reserved": 0, "rental_uris": {"ios": "https://dc.lft.to/lastmile_qr_scan", "android": "https://dc.lft.to/lastmile_qr_scan"}, "bike_id": "959c7311771060aa0897458350918438", "lat": 38.90804933333333}, {"type": "electric_scooter", "fusion_lon": 0.0, "name": "5f277a617568d6f2d07e313fd81b142d", "lon": -77.03847383333333, "fusion_lat": 0.0, "is_disabled": 0, "is_reserved": 0, "rental_uris": {"ios": "https://dc.lft.to/lastmile_qr_scan", "android": "https://dc.lft.to/lastmile_qr_scan"}, "bike_id": "5f277a617568d6f2d07e313fd81b142d", "lat": 38.90882783333333}, {"type": "electric_scooter", "fusion_lon": 0.0, "name": "86c7db236b71e0e62a11bc2108aa35c2", "lon": -77.037066, "fusion_lat": 0.0, "is_disabled": 0, "is_reserved": 0, "rental_uris": {"ios": "https://dc.lft.to/lastmile_qr_scan", "android": "https://dc.lft.to/lastmile_qr_scan"}, "bike_id": "86c7db236b71e0e62a11bc2108aa35c2", "lat": 38.92638616666667}, {"type": "electric_scooter", "fusion_lon": 0.0, "name": "d51488019a6e9645a6fd86989083a73f", "lon": -76.991521, "fusion_lat": 0.0, "is_disabled": 0, "is_reserved": 0, "rental_uris": {"ios": "https://dc.lft.to/lastmile_qr_scan", "android": "https://dc.lft.to/lastmile_qr_scan"}, "bike_id": "d51488019a6e9645a6fd86989083a73f", "lat": 38.9004925}, {"type": "electric_scooter", "fusion_lon": 0.0, "name": "7f2af5fa578bcd81a9955ec8d67bae47", "lon": -77.0178135, "fusion_lat": 0.0, "is_disabled": 0, "is_reserved": 0, "rental_uris": {"ios": "https://dc.lft.to/lastmile_qr_scan", "android": "https://dc.lft.to/lastmile_qr_scan"}, "bike_id": "7f2af5fa578bcd81a9955ec8d67bae47", "lat": 38.919977833333334}, {"type": "electric_scooter", "fusion_lon": 0.0, "name": "f4faca26038dd447d7ea098cc0c2f986", "lon": -77.0322255, "fusion_lat": 0.0, "is_disabled": 0, "is_reserved": 0, "rental_uris": {"ios": "https://dc.lft.to/lastmile_qr_scan", "android": "https://dc.lft.to/lastmile_qr_scan"}, "bike_id": "f4faca26038dd447d7ea098cc0c2f986", "lat": 38.892284}, {"type": "electric_scooter", "fusion_lon": 0.0, "name": "bc71cce819ee215fc77c692bd80266f2", "lon": -77.02183716666667, "fusion_lat": 0.0, "is_disabled": 0, "is_reserved": 0, "rental_uris": {"ios": "https://dc.lft.to/lastmile_qr_scan", "android": "https://dc.lft.to/lastmile_qr_scan"}, "bike_id": "bc71cce819ee215fc77c692bd80266f2", "lat": 38.89471433333333}, {"type": "electric_scooter", "fusion_lon": 0.0, "name": "95db7160b03ca96b5d43f9027d26ac33", "lon": -77.02590283333333, "fusion_lat": 0.0, "is_disabled": 0, "is_reserved": 0, "rental_uris": {"ios": "https://dc.lft.to/lastmile_qr_scan", "android": "https://dc.lft.to/lastmile_qr_scan"}, "bike_id": "95db7160b03ca96b5d43f9027d26ac33", "lat": 38.896247}, {"type": "electric_scooter", "fusion_lon": 0.0, "name": "a944afc701d6c5011cf5ad23c414280d", "lon": -77.03498333333333, "fusion_lat": 0.0, "is_disabled": 0, "is_reserved": 0, "rental_uris": {"ios": "https://dc.lft.to/lastmile_qr_scan", "android": "https://dc.lft.to/lastmile_qr_scan"}, "bike_id": "a944afc701d6c5011cf5ad23c414280d", "lat": 38.9286585}, {"type": "electric_scooter", "fusion_lon": 0.0, "name": "ab68faa3b46535d17a634a9c842b7393", "lon": -77.03664716666667, "fusion_lat": 0.0, "is_disabled": 0, "is_reserved": 0, "rental_uris": {"ios": "https://dc.lft.to/lastmile_qr_scan", "android": "https://dc.lft.to/lastmile_qr_scan"}, "bike_id": "ab68faa3b46535d17a634a9c842b7393", "lat": 38.9183575}, {"type": "electric_scooter", "fusion_lon": 0.0, "name": "1486e5569f0399aea4d036ac545b64b8", "lon": -77.04412516666666, "fusion_lat": 0.0, "is_disabled": 0, "is_reserved": 0, "rental_uris": {"ios": "https://dc.lft.to/lastmile_qr_scan", "android": "https://dc.lft.to/lastmile_qr_scan"}, "bike_id": "1486e5569f0399aea4d036ac545b64b8", "lat": 38.896093666666665}, {"type": "electric_scooter", "fusion_lon": 0.0, "name": "71048cc71291b48870b4ccc602f71d1d", "lon": -77.03449816666667, "fusion_lat": 0.0, "is_disabled": 0, "is_reserved": 0, "rental_uris": {"ios": "https://dc.lft.to/lastmile_qr_scan", "android": "https://dc.lft.to/lastmile_qr_scan"}, "bike_id": "71048cc71291b48870b4ccc602f71d1d", "lat": 38.910283666666665}, {"type": "electric_bike", "fusion_lon": 0.0, "name": "3790343a70069b6e565ee9c10c02dd10", "lon": -76.95255416666667, "fusion_lat": 0.0, "is_disabled": 0, "is_reserved": 0, "rental_uris": {"ios": "https://dc.lft.to/lastmile_qr_scan", "android": "https://dc.lft.to/lastmile_qr_scan"}, "bike_id": "3790343a70069b6e565ee9c10c02dd10", "lat": 38.9068755}, {"type": "electric_scooter", "fusion_lon": 0.0, "name": "4bd29026ec77cafad326208b1534b2f8", "lon": -77.03427366666666, "fusion_lat": 0.0, "is_disabled": 0, "is_reserved": 0, "rental_uris": {"ios": "https://dc.lft.to/lastmile_qr_scan", "android": "https://dc.lft.to/lastmile_qr_scan"}, "bike_id": "4bd29026ec77cafad326208b1534b2f8", "lat": 38.919154}, {"type": "electric_scooter", "fusion_lon": 0.0, "name": "79940c2de24fc425efb4668b384d902c", "lon": -77.00061266666667, "fusion_lat": 0.0, "is_disabled": 0, "is_reserved": 0, "rental_uris": {"ios": "https://dc.lft.to/lastmile_qr_scan", "android": "https://dc.lft.to/lastmile_qr_scan"}, "bike_id": "79940c2de24fc425efb4668b384d902c", "lat": 38.91901983333333}, {"type": "electric_scooter", "fusion_lon": 0.0, "name": "c7550bb8b1ddc4b7a9c15aaaf41e5fba", "lon": -77.043398, "fusion_lat": 0.0, "is_disabled": 0, "is_reserved": 0, "rental_uris": {"ios": "https://dc.lft.to/lastmile_qr_scan", "android": "https://dc.lft.to/lastmile_qr_scan"}, "bike_id": "c7550bb8b1ddc4b7a9c15aaaf41e5fba", "lat": 38.89223833333333}, {"type": "electric_bike", "fusion_lon": 0.0, "name": "a1f560428d522a2a2fb682279f8fcf1a", "lon": -76.97707233333334, "fusion_lat": 0.0, "is_disabled": 0, "is_reserved": 0, "rental_uris": {"ios": "https://dc.lft.to/lastmile_qr_scan", "android": "https://dc.lft.to/lastmile_qr_scan"}, "bike_id": "a1f560428d522a2a2fb682279f8fcf1a", "lat": 38.822095166666664}, {"type": "electric_scooter", "fusion_lon": 0.0, "name": "f816b023a3396a62a76266701838a42e", "lon": -77.02813533333334, "fusion_lat": 0.0, "is_disabled": 0, "is_reserved": 0, "rental_uris": {"ios": "https://dc.lft.to/lastmile_qr_scan", "android": "https://dc.lft.to/lastmile_qr_scan"}, "bike_id": "f816b023a3396a62a76266701838a42e", "lat": 38.903967333333334}, {"type": "electric_scooter", "fusion_lon": 0.0, "name": "ec862c89cb224e6b74e93b42f036a838", "lon": -77.04346216666667, "fusion_lat": 0.0, "is_disabled": 0, "is_reserved": 0, "rental_uris": {"ios": "https://dc.lft.to/lastmile_qr_scan", "android": "https://dc.lft.to/lastmile_qr_scan"}, "bike_id": "ec862c89cb224e6b74e93b42f036a838", "lat": 38.89635333333333}, {"type": "electric_scooter", "fusion_lon": 0.0, "name": "1e464154e20fa51937d405a1ae0a7ab8", "lon": -77.033522, "fusion_lat": 0.0, "is_disabled": 0, "is_reserved": 0, "rental_uris": {"ios": "https://dc.lft.to/lastmile_qr_scan", "android": "https://dc.lft.to/lastmile_qr_scan"}, "bike_id": "1e464154e20fa51937d405a1ae0a7ab8", "lat": 38.89741083333333}, {"type": "electric_scooter", "fusion_lon": 0.0, "name": "9180b356c668c2cb9615672ac4f0cbf9", "lon": -77.021646, "fusion_lat": 0.0, "is_disabled": 0, "is_reserved": 0, "rental_uris": {"ios": "https://dc.lft.to/lastmile_qr_scan", "android": "https://dc.lft.to/lastmile_qr_scan"}, "bike_id": "9180b356c668c2cb9615672ac4f0cbf9", "lat": 38.91471666666666}, {"type": "electric_scooter", "fusion_lon": 0.0, "name": "2f9d31966749f4904c46d6e91e35cc9a", "lon": -77.04360066666666, "fusion_lat": 0.0, "is_disabled": 0, "is_reserved": 0, "rental_uris": {"ios": "https://dc.lft.to/lastmile_qr_scan", "android": "https://dc.lft.to/lastmile_qr_scan"}, "bike_id": "2f9d31966749f4904c46d6e91e35cc9a", "lat": 38.911237166666666}, {"type": "electric_scooter", "fusion_lon": 0.0, "name": "6601903589d41f36d8ba8b24ceae4f05", "lon": -77.0133555, "fusion_lat": 0.0, "is_disabled": 0, "is_reserved": 0, "rental_uris": {"ios": "https://dc.lft.to/lastmile_qr_scan", "android": "https://dc.lft.to/lastmile_qr_scan"}, "bike_id": "6601903589d41f36d8ba8b24ceae4f05", "lat": 38.896131833333335}, {"type": "electric_bike", "fusion_lon": 0.0, "name": "6935ccd000c7a6b5791140e6c4a91449", "lon": -77.01663016666667, "fusion_lat": 0.0, "is_disabled": 0, "is_reserved": 0, "rental_uris": {"ios": "https://dc.lft.to/lastmile_qr_scan", "android": "https://dc.lft.to/lastmile_qr_scan"}, "bike_id": "6935ccd000c7a6b5791140e6c4a91449", "lat": 38.8810935}, {"type": "electric_scooter", "fusion_lon": 0.0, "name": "fcb51840f96a94b30d0016e4322e1a63", "lon": -77.0222555, "fusion_lat": 0.0, "is_disabled": 0, "is_reserved": 0, "rental_uris": {"ios": "https://dc.lft.to/lastmile_qr_scan", "android": "https://dc.lft.to/lastmile_qr_scan"}, "bike_id": "fcb51840f96a94b30d0016e4322e1a63", "lat": 38.88748266666666}, {"type": "electric_scooter", "fusion_lon": 0.0, "name": "7c9495ec5e03d27173447b9dedca6f10", "lon": -76.9374635, "fusion_lat": 0.0, "is_disabled": 0, "is_reserved": 0, "rental_uris": {"ios": "https://dc.lft.to/lastmile_qr_scan", "android": "https://dc.lft.to/lastmile_qr_scan"}, "bike_id": "7c9495ec5e03d27173447b9dedca6f10", "lat": 38.912792833333334}, {"type": "electric_scooter", "fusion_lon": 0.0, "name": "ba66c48eaf52d6792a525436bdbafad6", "lon": -77.02384433333333, "fusion_lat": 0.0, "is_disabled": 0, "is_reserved": 0, "rental_uris": {"ios": "https://dc.lft.to/lastmile_qr_scan", "android": "https://dc.lft.to/lastmile_qr_scan"}, "bike_id": "ba66c48eaf52d6792a525436bdbafad6", "lat": 38.9193445}, {"type": "electric_scooter", "fusion_lon": 0.0, "name": "51a80455ad590ab02bea5d720ceebf67", "lon": -76.981079, "fusion_lat": 0.0, "is_disabled": 0, "is_reserved": 0, "rental_uris": {"ios": "https://dc.lft.to/lastmile_qr_scan", "android": "https://dc.lft.to/lastmile_qr_scan"}, "bike_id": "51a80455ad590ab02bea5d720ceebf67", "lat": 38.89836016666667}, {"type": "electric_scooter", "fusion_lon": 0.0, "name": "8649cfe8dd1debd048cf0887bbe966d5", "lon": -77.00362133333333, "fusion_lat": 0.0, "is_disabled": 0, "is_reserved": 0, "rental_uris": {"ios": "https://dc.lft.to/lastmile_qr_scan", "android": "https://dc.lft.to/lastmile_qr_scan"}, "bike_id": "8649cfe8dd1debd048cf0887bbe966d5", "lat": 38.91110416666667}, {"type": "electric_scooter", "fusion_lon": 0.0, "name": "8b40ebbb23651335bf9b0faa99d515fc", "lon": -77.04368733333334, "fusion_lat": 0.0, "is_disabled": 0, "is_reserved": 0, "rental_uris": {"ios": "https://dc.lft.to/lastmile_qr_scan", "android": "https://dc.lft.to/lastmile_qr_scan"}, "bike_id": "8b40ebbb23651335bf9b0faa99d515fc", "lat": 38.911237666666665}, {"type": "electric_scooter", "fusion_lon": 0.0, "name": "60e8ca54187ab2f2c7d17343b85c95f3", "lon": -77.04252516666666, "fusion_lat": 0.0, "is_disabled": 0, "is_reserved": 0, "rental_uris": {"ios": "https://dc.lft.to/lastmile_qr_scan", "android": "https://dc.lft.to/lastmile_qr_scan"}, "bike_id": "60e8ca54187ab2f2c7d17343b85c95f3", "lat": 38.922711}, {"type": "electric_scooter", "fusion_lon": 0.0, "name": "383f55dd6efbd41eafa7514ce7f3501f", "lon": -77.06570133333334, "fusion_lat": 0.0, "is_disabled": 0, "is_reserved": 0, "rental_uris": {"ios": "https://dc.lft.to/lastmile_qr_scan", "android": "https://dc.lft.to/lastmile_qr_scan"}, "bike_id": "383f55dd6efbd41eafa7514ce7f3501f", "lat": 38.905098}, {"type": "electric_scooter", "fusion_lon": 0.0, "name": "6664fec0b5fbb40feb7d9e9afc634e49", "lon": -77.0185115, "fusion_lat": 0.0, "is_disabled": 0, "is_reserved": 0, "rental_uris": {"ios": "https://dc.lft.to/lastmile_qr_scan", "android": "https://dc.lft.to/lastmile_qr_scan"}, "bike_id": "6664fec0b5fbb40feb7d9e9afc634e49", "lat": 38.915207833333334}, {"type": "electric_scooter", "fusion_lon": 0.0, "name": "9f70502f6e83788b2a940dd4d170f659", "lon": -77.02606266666666, "fusion_lat": 0.0, "is_disabled": 0, "is_reserved": 0, "rental_uris": {"ios": "https://dc.lft.to/lastmile_qr_scan", "android": "https://dc.lft.to/lastmile_qr_scan"}, "bike_id": "9f70502f6e83788b2a940dd4d170f659", "lat": 38.920627833333334}, {"type": "electric_scooter", "fusion_lon": 0.0, "name": "be18dc480739ae97dbd4fd5f9c71d192", "lon": -77.0082185, "fusion_lat": 0.0, "is_disabled": 0, "is_reserved": 0, "rental_uris": {"ios": "https://dc.lft.to/lastmile_qr_scan", "android": "https://dc.lft.to/lastmile_qr_scan"}, "bike_id": "be18dc480739ae97dbd4fd5f9c71d192", "lat": 38.87650516666667}, {"type": "electric_scooter", "fusion_lon": 0.0, "name": "f2b5d9109fd6d946b613c2abc3692f35", "lon": -77.02710566666667, "fusion_lat": 0.0, "is_disabled": 0, "is_reserved": 0, "rental_uris": {"ios": "https://dc.lft.to/lastmile_qr_scan", "android": "https://dc.lft.to/lastmile_qr_scan"}, "bike_id": "f2b5d9109fd6d946b613c2abc3692f35", "lat": 38.918171666666666}, {"type": "electric_scooter", "fusion_lon": 0.0, "name": "ef523c1c689a01c8d1e9514daa957c38", "lon": -76.99439783333334, "fusion_lat": 0.0, "is_disabled": 0, "is_reserved": 0, "rental_uris": {"ios": "https://dc.lft.to/lastmile_qr_scan", "android": "https://dc.lft.to/lastmile_qr_scan"}, "bike_id": "ef523c1c689a01c8d1e9514daa957c38", "lat": 38.93346783333333}, {"type": "electric_scooter", "fusion_lon": 0.0, "name": "fc92bb72f347fe165e57c02cf3591556", "lon": -77.03211166666667, "fusion_lat": 0.0, "is_disabled": 0, "is_reserved": 0, "rental_uris": {"ios": "https://dc.lft.to/lastmile_qr_scan", "android": "https://dc.lft.to/lastmile_qr_scan"}, "bike_id": "fc92bb72f347fe165e57c02cf3591556", "lat": 38.925814}, {"type": "electric_scooter", "fusion_lon": 0.0, "name": "2e096757d83bd42449a0c4956adae3e8", "lon": -77.05134983333333, "fusion_lat": 0.0, "is_disabled": 0, "is_reserved": 0, "rental_uris": {"ios": "https://dc.lft.to/lastmile_qr_scan", "android": "https://dc.lft.to/lastmile_qr_scan"}, "bike_id": "2e096757d83bd42449a0c4956adae3e8", "lat": 38.907496333333334}, {"type": "electric_scooter", "fusion_lon": 0.0, "name": "eda3b1abb6c1a086362c3b84ae19ea8f", "lon": -77.00800083333333, "fusion_lat": 0.0, "is_disabled": 0, "is_reserved": 0, "rental_uris": {"ios": "https://dc.lft.to/lastmile_qr_scan", "android": "https://dc.lft.to/lastmile_qr_scan"}, "bike_id": "eda3b1abb6c1a086362c3b84ae19ea8f", "lat": 38.897174166666666}, {"type": "electric_scooter", "fusion_lon": 0.0, "name": "07b49efe974384ef332de327214671d4", "lon": -77.042704, "fusion_lat": 0.0, "is_disabled": 0, "is_reserved": 0, "rental_uris": {"ios": "https://dc.lft.to/lastmile_qr_scan", "android": "https://dc.lft.to/lastmile_qr_scan"}, "bike_id": "07b49efe974384ef332de327214671d4", "lat": 38.89554366666667}, {"type": "electric_scooter", "fusion_lon": 0.0, "name": "aaacb7f82aeebae647092bbf2caad344", "lon": -77.02843566666667, "fusion_lat": 0.0, "is_disabled": 0, "is_reserved": 0, "rental_uris": {"ios": "https://dc.lft.to/lastmile_qr_scan", "android": "https://dc.lft.to/lastmile_qr_scan"}, "bike_id": "aaacb7f82aeebae647092bbf2caad344", "lat": 38.88746883333334}, {"type": "electric_scooter", "fusion_lon": 0.0, "name": "3c58d184aa481c934f877ead0ae9764e", "lon": -77.0570275, "fusion_lat": 0.0, "is_disabled": 0, "is_reserved": 0, "rental_uris": {"ios": "https://dc.lft.to/lastmile_qr_scan", "android": "https://dc.lft.to/lastmile_qr_scan"}, "bike_id": "3c58d184aa481c934f877ead0ae9764e", "lat": 38.9055145}, {"type": "electric_scooter", "fusion_lon": 0.0, "name": "fef0c48926e568166b10bc593ffea472", "lon": -76.99500816666666, "fusion_lat": 0.0, "is_disabled": 0, "is_reserved": 0, "rental_uris": {"ios": "https://dc.lft.to/lastmile_qr_scan", "android": "https://dc.lft.to/lastmile_qr_scan"}, "bike_id": "fef0c48926e568166b10bc593ffea472", "lat": 38.895157166666664}, {"type": "electric_scooter", "fusion_lon": 0.0, "name": "740a2889d0dd8b426411662fcb1fcc9c", "lon": -77.0391925, "fusion_lat": 0.0, "is_disabled": 0, "is_reserved": 0, "rental_uris": {"ios": "https://dc.lft.to/lastmile_qr_scan", "android": "https://dc.lft.to/lastmile_qr_scan"}, "bike_id": "740a2889d0dd8b426411662fcb1fcc9c", "lat": 38.89922133333334}, {"type": "electric_scooter", "fusion_lon": 0.0, "name": "527c680aaf18d0da4b842910aec22ad9", "lon": -76.98527183333333, "fusion_lat": 0.0, "is_disabled": 0, "is_reserved": 0, "rental_uris": {"ios": "https://dc.lft.to/lastmile_qr_scan", "android": "https://dc.lft.to/lastmile_qr_scan"}, "bike_id": "527c680aaf18d0da4b842910aec22ad9", "lat": 38.90971283333333}, {"type": "electric_scooter", "fusion_lon": 0.0, "name": "7dd4bdd9447817f7825105e70a009e9f", "lon": -77.04895633333334, "fusion_lat": 0.0, "is_disabled": 0, "is_reserved": 0, "rental_uris": {"ios": "https://dc.lft.to/lastmile_qr_scan", "android": "https://dc.lft.to/lastmile_qr_scan"}, "bike_id": "7dd4bdd9447817f7825105e70a009e9f", "lat": 38.899081}, {"type": "electric_scooter", "fusion_lon": 0.0, "name": "495e712224d63b580663135d1315667a", "lon": -77.02160833333333, "fusion_lat": 0.0, "is_disabled": 0, "is_reserved": 0, "rental_uris": {"ios": "https://dc.lft.to/lastmile_qr_scan", "android": "https://dc.lft.to/lastmile_qr_scan"}, "bike_id": "495e712224d63b580663135d1315667a", "lat": 38.919986}, {"type": "electric_scooter", "fusion_lon": 0.0, "name": "ef1a0b11a23b2cb44acd93f5536ea1e0", "lon": -77.00355883333333, "fusion_lat": 0.0, "is_disabled": 0, "is_reserved": 0, "rental_uris": {"ios": "https://dc.lft.to/lastmile_qr_scan", "android": "https://dc.lft.to/lastmile_qr_scan"}, "bike_id": "ef1a0b11a23b2cb44acd93f5536ea1e0", "lat": 38.89263366666667}, {"type": "electric_scooter", "fusion_lon": 0.0, "name": "2dc6000f32db1024898457577e6b55a6", "lon": -77.01512, "fusion_lat": 0.0, "is_disabled": 0, "is_reserved": 0, "rental_uris": {"ios": "https://dc.lft.to/lastmile_qr_scan", "android": "https://dc.lft.to/lastmile_qr_scan"}, "bike_id": "2dc6000f32db1024898457577e6b55a6", "lat": 38.926650333333335}, {"type": "electric_scooter", "fusion_lon": 0.0, "name": "8ce830976e2cfc566956625ba1238e9d", "lon": -77.04682033333333, "fusion_lat": 0.0, "is_disabled": 0, "is_reserved": 0, "rental_uris": {"ios": "https://dc.lft.to/lastmile_qr_scan", "android": "https://dc.lft.to/lastmile_qr_scan"}, "bike_id": "8ce830976e2cfc566956625ba1238e9d", "lat": 38.9166805}, {"type": "electric_scooter", "fusion_lon": 0.0, "name": "e554bf7bb9c063ed31fbe9000adc8c81", "lon": -77.0076015, "fusion_lat": 0.0, "is_disabled": 0, "is_reserved": 0, "rental_uris": {"ios": "https://dc.lft.to/lastmile_qr_scan", "android": "https://dc.lft.to/lastmile_qr_scan"}, "bike_id": "e554bf7bb9c063ed31fbe9000adc8c81", "lat": 38.90756783333333}, {"type": "electric_scooter", "fusion_lon": 0.0, "name": "b71d7e0e8938c7e7c68e9885059a8657", "lon": -77.02969566666667, "fusion_lat": 0.0, "is_disabled": 0, "is_reserved": 0, "rental_uris": {"ios": "https://dc.lft.to/lastmile_qr_scan", "android": "https://dc.lft.to/lastmile_qr_scan"}, "bike_id": "b71d7e0e8938c7e7c68e9885059a8657", "lat": 38.91683116666667}, {"type": "electric_scooter", "fusion_lon": 0.0, "name": "f088846613021ef8bb62176783ee5b16", "lon": -77.02439483333333, "fusion_lat": 0.0, "is_disabled": 0, "is_reserved": 0, "rental_uris": {"ios": "https://dc.lft.to/lastmile_qr_scan", "android": "https://dc.lft.to/lastmile_qr_scan"}, "bike_id": "f088846613021ef8bb62176783ee5b16", "lat": 38.95639033333333}, {"type": "electric_bike", "fusion_lon": 0.0, "name": "c15f6a83cc63bdc97021e5d3c4a329f5", "lon": -76.95142066666666, "fusion_lat": 0.0, "is_disabled": 0, "is_reserved": 0, "rental_uris": {"ios": "https://dc.lft.to/lastmile_qr_scan", "android": "https://dc.lft.to/lastmile_qr_scan"}, "bike_id": "c15f6a83cc63bdc97021e5d3c4a329f5", "lat": 39.08434583333333}, {"type": "electric_bike", "fusion_lon": 0.0, "name": "dd4b80afbee12358618af01308edbe20", "lon": -77.359743, "fusion_lat": 0.0, "is_disabled": 0, "is_reserved": 0, "rental_uris": {"ios": "https://dc.lft.to/lastmile_qr_scan", "android": "https://dc.lft.to/lastmile_qr_scan"}, "bike_id": "dd4b80afbee12358618af01308edbe20", "lat": 38.957053}, {"type": "electric_scooter", "fusion_lon": 0.0, "name": "c290470161ad07ca3fd875351fd4523c", "lon": -77.02326216666667, "fusion_lat": 0.0, "is_disabled": 0, "is_reserved": 0, "rental_uris": {"ios": "https://dc.lft.to/lastmile_qr_scan", "android": "https://dc.lft.to/lastmile_qr_scan"}, "bike_id": "c290470161ad07ca3fd875351fd4523c", "lat": 38.918393}, {"type": "electric_scooter", "fusion_lon": 0.0, "name": "dcec400ee6a140290489a7c874d3b015", "lon": -77.022204, "fusion_lat": 0.0, "is_disabled": 0, "is_reserved": 0, "rental_uris": {"ios": "https://dc.lft.to/lastmile_qr_scan", "android": "https://dc.lft.to/lastmile_qr_scan"}, "bike_id": "dcec400ee6a140290489a7c874d3b015", "lat": 38.92479866666667}, {"type": "electric_scooter", "fusion_lon": 0.0, "name": "8eaaf07ab447ffe10417034090aa3b39", "lon": -77.02154316666666, "fusion_lat": 0.0, "is_disabled": 0, "is_reserved": 0, "rental_uris": {"ios": "https://dc.lft.to/lastmile_qr_scan", "android": "https://dc.lft.to/lastmile_qr_scan"}, "bike_id": "8eaaf07ab447ffe10417034090aa3b39", "lat": 38.91989483333333}, {"type": "electric_scooter", "fusion_lon": 0.0, "name": "902d7af2b4f5e41dbf75c1543788f425", "lon": -76.97809683333334, "fusion_lat": 0.0, "is_disabled": 0, "is_reserved": 0, "rental_uris": {"ios": "https://dc.lft.to/lastmile_qr_scan", "android": "https://dc.lft.to/lastmile_qr_scan"}, "bike_id": "902d7af2b4f5e41dbf75c1543788f425", "lat": 38.90612}, {"type": "electric_scooter", "fusion_lon": 0.0, "name": "b468b7cefce939cdb56791fbf6e18b4f", "lon": -77.022058, "fusion_lat": 0.0, "is_disabled": 0, "is_reserved": 0, "rental_uris": {"ios": "https://dc.lft.to/lastmile_qr_scan", "android": "https://dc.lft.to/lastmile_qr_scan"}, "bike_id": "b468b7cefce939cdb56791fbf6e18b4f", "lat": 38.89735433333333}, {"type": "electric_scooter", "fusion_lon": 0.0, "name": "156df0a4d6cceaad19cd55f7ab6bda22", "lon": -76.98942966666667, "fusion_lat": 0.0, "is_disabled": 0, "is_reserved": 0, "rental_uris": {"ios": "https://dc.lft.to/lastmile_qr_scan", "android": "https://dc.lft.to/lastmile_qr_scan"}, "bike_id": "156df0a4d6cceaad19cd55f7ab6bda22", "lat": 38.903940166666665}, {"type": "electric_bike", "fusion_lon": 0.0, "name": "abe0abbd12fd639929774d44474b8495", "lon": -77.09681283333333, "fusion_lat": 0.0, "is_disabled": 0, "is_reserved": 0, "rental_uris": {"ios": "https://dc.lft.to/lastmile_qr_scan", "android": "https://dc.lft.to/lastmile_qr_scan"}, "bike_id": "abe0abbd12fd639929774d44474b8495", "lat": 38.886983666666666}, {"type": "electric_scooter", "fusion_lon": 0.0, "name": "4977817815cbfabd66db95990a07790a", "lon": -77.01683, "fusion_lat": 0.0, "is_disabled": 0, "is_reserved": 0, "rental_uris": {"ios": "https://dc.lft.to/lastmile_qr_scan", "android": "https://dc.lft.to/lastmile_qr_scan"}, "bike_id": "4977817815cbfabd66db95990a07790a", "lat": 38.900326166666666}, {"type": "electric_scooter", "fusion_lon": 0.0, "name": "dfe57bbfa83cfeebf5b946b4017dbe45", "lon": -77.03761716666666, "fusion_lat": 0.0, "is_disabled": 0, "is_reserved": 0, "rental_uris": {"ios": "https://dc.lft.to/lastmile_qr_scan", "android": "https://dc.lft.to/lastmile_qr_scan"}, "bike_id": "dfe57bbfa83cfeebf5b946b4017dbe45", "lat": 38.903757166666665}, {"type": "electric_scooter", "fusion_lon": 0.0, "name": "64717014c114a6d4029e1bb6d6c976fa", "lon": -76.93264033333334, "fusion_lat": 0.0, "is_disabled": 0, "is_reserved": 0, "rental_uris": {"ios": "https://dc.lft.to/lastmile_qr_scan", "android": "https://dc.lft.to/lastmile_qr_scan"}, "bike_id": "64717014c114a6d4029e1bb6d6c976fa", "lat": 38.887733}, {"type": "electric_scooter", "fusion_lon": 0.0, "name": "028517ca9c35c83fdead63887abd01f2", "lon": -76.9304325, "fusion_lat": 0.0, "is_disabled": 0, "is_reserved": 0, "rental_uris": {"ios": "https://dc.lft.to/lastmile_qr_scan", "android": "https://dc.lft.to/lastmile_qr_scan"}, "bike_id": "028517ca9c35c83fdead63887abd01f2", "lat": 38.883882666666665}, {"type": "electric_scooter", "fusion_lon": 0.0, "name": "9e834550c7ef8c6e69825b5c3e5e2978", "lon": -77.0449025, "fusion_lat": 0.0, "is_disabled": 0, "is_reserved": 0, "rental_uris": {"ios": "https://dc.lft.to/lastmile_qr_scan", "android": "https://dc.lft.to/lastmile_qr_scan"}, "bike_id": "9e834550c7ef8c6e69825b5c3e5e2978", "lat": 38.90733566666667}, {"type": "electric_bike", "fusion_lon": 0.0, "name": "f10d20723cec08bf8923cb389ccd38e5", "lon": -77.11327183333333, "fusion_lat": 0.0, "is_disabled": 0, "is_reserved": 0, "rental_uris": {"ios": "https://dc.lft.to/lastmile_qr_scan", "android": "https://dc.lft.to/lastmile_qr_scan"}, "bike_id": "f10d20723cec08bf8923cb389ccd38e5", "lat": 38.804029666666665}, {"type": "electric_scooter", "fusion_lon": 0.0, "name": "65cc219b390f9f60d05ca355d02cff24", "lon": -77.0322015, "fusion_lat": 0.0, "is_disabled": 0, "is_reserved": 0, "rental_uris": {"ios": "https://dc.lft.to/lastmile_qr_scan", "android": "https://dc.lft.to/lastmile_qr_scan"}, "bike_id": "65cc219b390f9f60d05ca355d02cff24", "lat": 38.89911716666667}, {"type": "electric_scooter", "fusion_lon": 0.0, "name": "d72a56f3c7c2cbc877e7a3f38cae58cc", "lon": -77.03678016666667, "fusion_lat": 0.0, "is_disabled": 0, "is_reserved": 0, "rental_uris": {"ios": "https://dc.lft.to/lastmile_qr_scan", "android": "https://dc.lft.to/lastmile_qr_scan"}, "bike_id": "d72a56f3c7c2cbc877e7a3f38cae58cc", "lat": 38.915660833333334}, {"type": "electric_scooter", "fusion_lon": 0.0, "name": "309be9be1eba5806da50821ba06c64d5", "lon": -76.98704033333334, "fusion_lat": 0.0, "is_disabled": 0, "is_reserved": 0, "rental_uris": {"ios": "https://dc.lft.to/lastmile_qr_scan", "android": "https://dc.lft.to/lastmile_qr_scan"}, "bike_id": "309be9be1eba5806da50821ba06c64d5", "lat": 38.900567833333334}, {"type": "electric_scooter", "fusion_lon": 0.0, "name": "d28750a683ffd9ec26864149e200714a", "lon": -77.01437883333334, "fusion_lat": 0.0, "is_disabled": 0, "is_reserved": 0, "rental_uris": {"ios": "https://dc.lft.to/lastmile_qr_scan", "android": "https://dc.lft.to/lastmile_qr_scan"}, "bike_id": "d28750a683ffd9ec26864149e200714a", "lat": 38.91313433333333}, {"type": "electric_bike", "fusion_lon": 0.0, "name": "736bf3d6f5aa06b0bc236fcf33756393", "lon": -77.08572066666666, "fusion_lat": 0.0, "is_disabled": 0, "is_reserved": 0, "rental_uris": {"ios": "https://dc.lft.to/lastmile_qr_scan", "android": "https://dc.lft.to/lastmile_qr_scan"}, "bike_id": "736bf3d6f5aa06b0bc236fcf33756393", "lat": 38.87422683333333}, {"type": "electric_scooter", "fusion_lon": 0.0, "name": "9413e16c3cd41d674b9e06606c441919", "lon": -77.04235733333333, "fusion_lat": 0.0, "is_disabled": 0, "is_reserved": 0, "rental_uris": {"ios": "https://dc.lft.to/lastmile_qr_scan", "android": "https://dc.lft.to/lastmile_qr_scan"}, "bike_id": "9413e16c3cd41d674b9e06606c441919", "lat": 38.921981833333334}, {"type": "electric_scooter", "fusion_lon": 0.0, "name": "e78349ac8dba4a22f624951e7c0d95a1", "lon": -76.99514333333333, "fusion_lat": 0.0, "is_disabled": 0, "is_reserved": 0, "rental_uris": {"ios": "https://dc.lft.to/lastmile_qr_scan", "android": "https://dc.lft.to/lastmile_qr_scan"}, "bike_id": "e78349ac8dba4a22f624951e7c0d95a1", "lat": 38.883754333333336}, {"type": "electric_scooter", "fusion_lon": 0.0, "name": "f8140d4769ad0ff295c9f1ee52a3161e", "lon": -77.044919, "fusion_lat": 0.0, "is_disabled": 0, "is_reserved": 0, "rental_uris": {"ios": "https://dc.lft.to/lastmile_qr_scan", "android": "https://dc.lft.to/lastmile_qr_scan"}, "bike_id": "f8140d4769ad0ff295c9f1ee52a3161e", "lat": 38.903122833333335}, {"type": "electric_scooter", "fusion_lon": 0.0, "name": "1baaed18b0224a67b0ceb4ea01100318", "lon": -77.05068283333334, "fusion_lat": 0.0, "is_disabled": 0, "is_reserved": 0, "rental_uris": {"ios": "https://dc.lft.to/lastmile_qr_scan", "android": "https://dc.lft.to/lastmile_qr_scan"}, "bike_id": "1baaed18b0224a67b0ceb4ea01100318", "lat": 38.916185666666664}, {"type": "electric_scooter", "fusion_lon": 0.0, "name": "e85d45e316545ac9d2273c4458751e1b", "lon": -77.04513, "fusion_lat": 0.0, "is_disabled": 0, "is_reserved": 0, "rental_uris": {"ios": "https://dc.lft.to/lastmile_qr_scan", "android": "https://dc.lft.to/lastmile_qr_scan"}, "bike_id": "e85d45e316545ac9d2273c4458751e1b", "lat": 38.9077975}, {"type": "electric_scooter", "fusion_lon": 0.0, "name": "e07b107e243fd42b770970e198545356", "lon": -77.01925783333333, "fusion_lat": 0.0, "is_disabled": 0, "is_reserved": 0, "rental_uris": {"ios": "https://dc.lft.to/lastmile_qr_scan", "android": "https://dc.lft.to/lastmile_qr_scan"}, "bike_id": "e07b107e243fd42b770970e198545356", "lat": 38.92260116666667}, {"type": "electric_scooter", "fusion_lon": 0.0, "name": "79a2233d576e3d5ed052bf792d7ca954", "lon": -77.02717233333334, "fusion_lat": 0.0, "is_disabled": 0, "is_reserved": 0, "rental_uris": {"ios": "https://dc.lft.to/lastmile_qr_scan", "android": "https://dc.lft.to/lastmile_qr_scan"}, "bike_id": "79a2233d576e3d5ed052bf792d7ca954", "lat": 38.9068155}, {"type": "electric_scooter", "fusion_lon": 0.0, "name": "063ea2e66ca02c18ae992277c916c08e", "lon": -77.0453465, "fusion_lat": 0.0, "is_disabled": 0, "is_reserved": 0, "rental_uris": {"ios": "https://dc.lft.to/lastmile_qr_scan", "android": "https://dc.lft.to/lastmile_qr_scan"}, "bike_id": "063ea2e66ca02c18ae992277c916c08e", "lat": 38.90068}, {"type": "electric_scooter", "fusion_lon": 0.0, "name": "a44603e1faa48020dc74265cfee6f9e0", "lon": -77.05260183333333, "fusion_lat": 0.0, "is_disabled": 0, "is_reserved": 0, "rental_uris": {"ios": "https://dc.lft.to/lastmile_qr_scan", "android": "https://dc.lft.to/lastmile_qr_scan"}, "bike_id": "a44603e1faa48020dc74265cfee6f9e0", "lat": 38.927791}, {"type": "electric_scooter", "fusion_lon": 0.0, "name": "2faaa1a320025119793b1606fdf0655a", "lon": -77.076976, "fusion_lat": 0.0, "is_disabled": 0, "is_reserved": 0, "rental_uris": {"ios": "https://dc.lft.to/lastmile_qr_scan", "android": "https://dc.lft.to/lastmile_qr_scan"}, "bike_id": "2faaa1a320025119793b1606fdf0655a", "lat": 38.942917}, {"type": "electric_scooter", "fusion_lon": 0.0, "name": "e450db1d1cd92f2e21cc217d1730fb33", "lon": -77.03773083333333, "fusion_lat": 0.0, "is_disabled": 0, "is_reserved": 0, "rental_uris": {"ios": "https://dc.lft.to/lastmile_qr_scan", "android": "https://dc.lft.to/lastmile_qr_scan"}, "bike_id": "e450db1d1cd92f2e21cc217d1730fb33", "lat": 38.9022905}, {"type": "electric_scooter", "fusion_lon": 0.0, "name": "b4d119b504d475a1ad0d3905a8928f99", "lon": -77.03385233333333, "fusion_lat": 0.0, "is_disabled": 0, "is_reserved": 0, "rental_uris": {"ios": "https://dc.lft.to/lastmile_qr_scan", "android": "https://dc.lft.to/lastmile_qr_scan"}, "bike_id": "b4d119b504d475a1ad0d3905a8928f99", "lat": 38.9385375}, {"type": "electric_scooter", "fusion_lon": 0.0, "name": "f17f8c95e0cb4330c638119ab281d400", "lon": -77.0441385, "fusion_lat": 0.0, "is_disabled": 0, "is_reserved": 0, "rental_uris": {"ios": "https://dc.lft.to/lastmile_qr_scan", "android": "https://dc.lft.to/lastmile_qr_scan"}, "bike_id": "f17f8c95e0cb4330c638119ab281d400", "lat": 38.896052833333336}, {"type": "electric_scooter", "fusion_lon": 0.0, "name": "dc08d3c0a8603decf5f6fc90774c2b9e", "lon": -76.983117, "fusion_lat": 0.0, "is_disabled": 0, "is_reserved": 0, "rental_uris": {"ios": "https://dc.lft.to/lastmile_qr_scan", "android": "https://dc.lft.to/lastmile_qr_scan"}, "bike_id": "dc08d3c0a8603decf5f6fc90774c2b9e", "lat": 38.925555}, {"type": "electric_scooter", "fusion_lon": 0.0, "name": "a10b0872a1cb580e2f21fec20bb859bf", "lon": -77.00295116666666, "fusion_lat": 0.0, "is_disabled": 0, "is_reserved": 0, "rental_uris": {"ios": "https://dc.lft.to/lastmile_qr_scan", "android": "https://dc.lft.to/lastmile_qr_scan"}, "bike_id": "a10b0872a1cb580e2f21fec20bb859bf", "lat": 38.891995666666666}, {"type": "electric_bike", "fusion_lon": 0.0, "name": "e24ea4c8d768a531f315a5e66e487556", "lon": -76.98861316666667, "fusion_lat": 0.0, "is_disabled": 0, "is_reserved": 0, "rental_uris": {"ios": "https://dc.lft.to/lastmile_qr_scan", "android": "https://dc.lft.to/lastmile_qr_scan"}, "bike_id": "e24ea4c8d768a531f315a5e66e487556", "lat": 38.84029833333334}, {"type": "electric_scooter", "fusion_lon": 0.0, "name": "064475d487e1db15515bc599c72627a9", "lon": -77.040496, "fusion_lat": 0.0, "is_disabled": 0, "is_reserved": 0, "rental_uris": {"ios": "https://dc.lft.to/lastmile_qr_scan", "android": "https://dc.lft.to/lastmile_qr_scan"}, "bike_id": "064475d487e1db15515bc599c72627a9", "lat": 38.89623183333333}, {"type": "electric_bike", "fusion_lon": 0.0, "name": "5b148b4b20c0f4dd88c24d085e7bb7de", "lon": -77.11683516666666, "fusion_lat": 0.0, "is_disabled": 0, "is_reserved": 0, "rental_uris": {"ios": "https://dc.lft.to/lastmile_qr_scan", "android": "https://dc.lft.to/lastmile_qr_scan"}, "bike_id": "5b148b4b20c0f4dd88c24d085e7bb7de", "lat": 38.88539983333333}, {"type": "electric_scooter", "fusion_lon": 0.0, "name": "eecabfd15d4e831300341b113580f4c7", "lon": -77.02951616666667, "fusion_lat": 0.0, "is_disabled": 0, "is_reserved": 0, "rental_uris": {"ios": "https://dc.lft.to/lastmile_qr_scan", "android": "https://dc.lft.to/lastmile_qr_scan"}, "bike_id": "eecabfd15d4e831300341b113580f4c7", "lat": 38.919103166666666}, {"type": "electric_scooter", "fusion_lon": 0.0, "name": "c3cd86ecfc8261fd30b4da27d677df98", "lon": -77.0297955, "fusion_lat": 0.0, "is_disabled": 0, "is_reserved": 0, "rental_uris": {"ios": "https://dc.lft.to/lastmile_qr_scan", "android": "https://dc.lft.to/lastmile_qr_scan"}, "bike_id": "c3cd86ecfc8261fd30b4da27d677df98", "lat": 38.925572333333335}, {"type": "electric_scooter", "fusion_lon": 0.0, "name": "22e7d80489938af4c5bfc1f1c0054426", "lon": -77.05222933333333, "fusion_lat": 0.0, "is_disabled": 0, "is_reserved": 0, "rental_uris": {"ios": "https://dc.lft.to/lastmile_qr_scan", "android": "https://dc.lft.to/lastmile_qr_scan"}, "bike_id": "22e7d80489938af4c5bfc1f1c0054426", "lat": 38.924485}, {"type": "electric_scooter", "fusion_lon": 0.0, "name": "adcb017dadb4b80f439ac12e7c73a959", "lon": -77.02046083333333, "fusion_lat": 0.0, "is_disabled": 0, "is_reserved": 0, "rental_uris": {"ios": "https://dc.lft.to/lastmile_qr_scan", "android": "https://dc.lft.to/lastmile_qr_scan"}, "bike_id": "adcb017dadb4b80f439ac12e7c73a959", "lat": 38.92341616666667}, {"type": "electric_scooter", "fusion_lon": 0.0, "name": "6e8a98e5a5f80ee7afd316bd99f3f2be", "lon": -77.032105, "fusion_lat": 0.0, "is_disabled": 0, "is_reserved": 0, "rental_uris": {"ios": "https://dc.lft.to/lastmile_qr_scan", "android": "https://dc.lft.to/lastmile_qr_scan"}, "bike_id": "6e8a98e5a5f80ee7afd316bd99f3f2be", "lat": 38.8924235}, {"type": "electric_scooter", "fusion_lon": 0.0, "name": "0fbca9aa8444c69bdd880cb0e0aca2b4", "lon": -77.05267366666666, "fusion_lat": 0.0, "is_disabled": 0, "is_reserved": 0, "rental_uris": {"ios": "https://dc.lft.to/lastmile_qr_scan", "android": "https://dc.lft.to/lastmile_qr_scan"}, "bike_id": "0fbca9aa8444c69bdd880cb0e0aca2b4", "lat": 38.9237585}, {"type": "electric_scooter", "fusion_lon": 0.0, "name": "c7cbaf1282687030f07d8616eb39ac78", "lon": -77.0210225, "fusion_lat": 0.0, "is_disabled": 0, "is_reserved": 0, "rental_uris": {"ios": "https://dc.lft.to/lastmile_qr_scan", "android": "https://dc.lft.to/lastmile_qr_scan"}, "bike_id": "c7cbaf1282687030f07d8616eb39ac78", "lat": 38.8950375}, {"type": "electric_scooter", "fusion_lon": 0.0, "name": "6882a7d430bc3e65e5a671cdc3801a4b", "lon": -77.08166183333333, "fusion_lat": 0.0, "is_disabled": 0, "is_reserved": 0, "rental_uris": {"ios": "https://dc.lft.to/lastmile_qr_scan", "android": "https://dc.lft.to/lastmile_qr_scan"}, "bike_id": "6882a7d430bc3e65e5a671cdc3801a4b", "lat": 38.952467666666664}, {"type": "electric_scooter", "fusion_lon": 0.0, "name": "1b22adcb96f055dd33db31695da7f5dc", "lon": -77.0433275, "fusion_lat": 0.0, "is_disabled": 0, "is_reserved": 0, "rental_uris": {"ios": "https://dc.lft.to/lastmile_qr_scan", "android": "https://dc.lft.to/lastmile_qr_scan"}, "bike_id": "1b22adcb96f055dd33db31695da7f5dc", "lat": 38.930619166666666}, {"type": "electric_scooter", "fusion_lon": 0.0, "name": "4ca4e70bf66ae80f41742358f566216c", "lon": -77.03432233333334, "fusion_lat": 0.0, "is_disabled": 0, "is_reserved": 0, "rental_uris": {"ios": "https://dc.lft.to/lastmile_qr_scan", "android": "https://dc.lft.to/lastmile_qr_scan"}, "bike_id": "4ca4e70bf66ae80f41742358f566216c", "lat": 38.919182666666664}, {"type": "electric_scooter", "fusion_lon": 0.0, "name": "7a668fabe17edbc572b55e0f26ec6610", "lon": -77.03214633333333, "fusion_lat": 0.0, "is_disabled": 0, "is_reserved": 0, "rental_uris": {"ios": "https://dc.lft.to/lastmile_qr_scan", "android": "https://dc.lft.to/lastmile_qr_scan"}, "bike_id": "7a668fabe17edbc572b55e0f26ec6610", "lat": 38.917816}, {"type": "electric_scooter", "fusion_lon": 0.0, "name": "0ab01a127c56f0066b27729183a29013", "lon": -77.02783216666667, "fusion_lat": 0.0, "is_disabled": 0, "is_reserved": 0, "rental_uris": {"ios": "https://dc.lft.to/lastmile_qr_scan", "android": "https://dc.lft.to/lastmile_qr_scan"}, "bike_id": "0ab01a127c56f0066b27729183a29013", "lat": 38.92955233333333}, {"type": "electric_scooter", "fusion_lon": 0.0, "name": "933549a171cee7dd45c327617997ba47", "lon": -77.005094, "fusion_lat": 0.0, "is_disabled": 0, "is_reserved": 0, "rental_uris": {"ios": "https://dc.lft.to/lastmile_qr_scan", "android": "https://dc.lft.to/lastmile_qr_scan"}, "bike_id": "933549a171cee7dd45c327617997ba47", "lat": 38.960451666666664}, {"type": "electric_scooter", "fusion_lon": 0.0, "name": "b076a0ab408db9ee8ac0a2d46e2deb43", "lon": -77.04413883333334, "fusion_lat": 0.0, "is_disabled": 0, "is_reserved": 0, "rental_uris": {"ios": "https://dc.lft.to/lastmile_qr_scan", "android": "https://dc.lft.to/lastmile_qr_scan"}, "bike_id": "b076a0ab408db9ee8ac0a2d46e2deb43", "lat": 38.909778}, {"type": "electric_scooter", "fusion_lon": 0.0, "name": "d8b55628add4d6b015d003836f28e7db", "lon": -77.01753233333334, "fusion_lat": 0.0, "is_disabled": 0, "is_reserved": 0, "rental_uris": {"ios": "https://dc.lft.to/lastmile_qr_scan", "android": "https://dc.lft.to/lastmile_qr_scan"}, "bike_id": "d8b55628add4d6b015d003836f28e7db", "lat": 38.9026525}, {"type": "electric_scooter", "fusion_lon": 0.0, "name": "beee3b351f12ec4b1b2aa3152fd57935", "lon": -77.022891, "fusion_lat": 0.0, "is_disabled": 0, "is_reserved": 0, "rental_uris": {"ios": "https://dc.lft.to/lastmile_qr_scan", "android": "https://dc.lft.to/lastmile_qr_scan"}, "bike_id": "beee3b351f12ec4b1b2aa3152fd57935", "lat": 38.91687616666667}, {"type": "electric_scooter", "fusion_lon": 0.0, "name": "9e8f5108d80f7dbda2ee39a8b67900d9", "lon": -77.01396733333333, "fusion_lat": 0.0, "is_disabled": 0, "is_reserved": 0, "rental_uris": {"ios": "https://dc.lft.to/lastmile_qr_scan", "android": "https://dc.lft.to/lastmile_qr_scan"}, "bike_id": "9e8f5108d80f7dbda2ee39a8b67900d9", "lat": 38.919521833333334}, {"type": "electric_bike", "fusion_lon": 0.0, "name": "75749f91370566a8c5b2b5fc3a269282", "lon": -76.9965795, "fusion_lat": 0.0, "is_disabled": 0, "is_reserved": 0, "rental_uris": {"ios": "https://dc.lft.to/lastmile_qr_scan", "android": "https://dc.lft.to/lastmile_qr_scan"}, "bike_id": "75749f91370566a8c5b2b5fc3a269282", "lat": 38.967718}, {"type": "electric_bike", "fusion_lon": 0.0, "name": "5e044391a912a482de78849fbc397189", "lon": -77.03658866666666, "fusion_lat": 0.0, "is_disabled": 0, "is_reserved": 0, "rental_uris": {"ios": "https://dc.lft.to/lastmile_qr_scan", "android": "https://dc.lft.to/lastmile_qr_scan"}, "bike_id": "5e044391a912a482de78849fbc397189", "lat": 38.92977333333333}, {"type": "electric_scooter", "fusion_lon": 0.0, "name": "7fbdfeaa8f00725e6dcaa08760ef6e39", "lon": -77.04686016666666, "fusion_lat": 0.0, "is_disabled": 0, "is_reserved": 0, "rental_uris": {"ios": "https://dc.lft.to/lastmile_qr_scan", "android": "https://dc.lft.to/lastmile_qr_scan"}, "bike_id": "7fbdfeaa8f00725e6dcaa08760ef6e39", "lat": 38.89221466666667}, {"type": "electric_scooter", "fusion_lon": 0.0, "name": "1b5c21bb5d63ccd0175fc428f061868e", "lon": -77.04858616666667, "fusion_lat": 0.0, "is_disabled": 0, "is_reserved": 0, "rental_uris": {"ios": "https://dc.lft.to/lastmile_qr_scan", "android": "https://dc.lft.to/lastmile_qr_scan"}, "bike_id": "1b5c21bb5d63ccd0175fc428f061868e", "lat": 38.916224166666666}, {"type": "electric_scooter", "fusion_lon": 0.0, "name": "7a45a16fcdd295b9e63e31796e679d6b", "lon": -77.04195016666667, "fusion_lat": 0.0, "is_disabled": 0, "is_reserved": 0, "rental_uris": {"ios": "https://dc.lft.to/lastmile_qr_scan", "android": "https://dc.lft.to/lastmile_qr_scan"}, "bike_id": "7a45a16fcdd295b9e63e31796e679d6b", "lat": 38.89472966666666}, {"type": "electric_scooter", "fusion_lon": 0.0, "name": "1f25f27dbde03c80f756e732441b41b6", "lon": -77.0568815, "fusion_lat": 0.0, "is_disabled": 0, "is_reserved": 0, "rental_uris": {"ios": "https://dc.lft.to/lastmile_qr_scan", "android": "https://dc.lft.to/lastmile_qr_scan"}, "bike_id": "1f25f27dbde03c80f756e732441b41b6", "lat": 38.92328116666667}, {"type": "electric_scooter", "fusion_lon": 0.0, "name": "ef5ecf026a28eef1bfb32cf4393dea9a", "lon": -77.05001316666667, "fusion_lat": 0.0, "is_disabled": 0, "is_reserved": 0, "rental_uris": {"ios": "https://dc.lft.to/lastmile_qr_scan", "android": "https://dc.lft.to/lastmile_qr_scan"}, "bike_id": "ef5ecf026a28eef1bfb32cf4393dea9a", "lat": 38.892259833333334}, {"type": "electric_scooter", "fusion_lon": 0.0, "name": "7c41aacb60242527394833472c2ccbcc", "lon": -77.05945983333334, "fusion_lat": 0.0, "is_disabled": 0, "is_reserved": 0, "rental_uris": {"ios": "https://dc.lft.to/lastmile_qr_scan", "android": "https://dc.lft.to/lastmile_qr_scan"}, "bike_id": "7c41aacb60242527394833472c2ccbcc", "lat": 38.942994166666665}, {"type": "electric_scooter", "fusion_lon": 0.0, "name": "f56bbd46361c38ce8835e229300ebfc1", "lon": -76.99530583333333, "fusion_lat": 0.0, "is_disabled": 0, "is_reserved": 0, "rental_uris": {"ios": "https://dc.lft.to/lastmile_qr_scan", "android": "https://dc.lft.to/lastmile_qr_scan"}, "bike_id": "f56bbd46361c38ce8835e229300ebfc1", "lat": 38.844016}, {"type": "electric_scooter", "fusion_lon": 0.0, "name": "8c308895612a5094024e3664ac5c77ea", "lon": -77.03442466666667, "fusion_lat": 0.0, "is_disabled": 0, "is_reserved": 0, "rental_uris": {"ios": "https://dc.lft.to/lastmile_qr_scan", "android": "https://dc.lft.to/lastmile_qr_scan"}, "bike_id": "8c308895612a5094024e3664ac5c77ea", "lat": 38.918103}, {"type": "electric_bike", "fusion_lon": 0.0, "name": "7737b4dea9d3b2b9dae667c86d13b270", "lon": -76.98850466666667, "fusion_lat": 0.0, "is_disabled": 0, "is_reserved": 0, "rental_uris": {"ios": "https://dc.lft.to/lastmile_qr_scan", "android": "https://dc.lft.to/lastmile_qr_scan"}, "bike_id": "7737b4dea9d3b2b9dae667c86d13b270", "lat": 38.98370033333333}, {"type": "electric_bike", "fusion_lon": 0.0, "name": "132ab389eafd2c60310625f08fd605df", "lon": -77.063328, "fusion_lat": 0.0, "is_disabled": 0, "is_reserved": 0, "rental_uris": {"ios": "https://dc.lft.to/lastmile_qr_scan", "android": "https://dc.lft.to/lastmile_qr_scan"}, "bike_id": "132ab389eafd2c60310625f08fd605df", "lat": 38.8556}, {"type": "electric_scooter", "fusion_lon": 0.0, "name": "987f5947d64fb16f407d0d8ad3c21517", "lon": -77.02953266666667, "fusion_lat": 0.0, "is_disabled": 0, "is_reserved": 0, "rental_uris": {"ios": "https://dc.lft.to/lastmile_qr_scan", "android": "https://dc.lft.to/lastmile_qr_scan"}, "bike_id": "987f5947d64fb16f407d0d8ad3c21517", "lat": 38.932468666666665}, {"type": "electric_scooter", "fusion_lon": 0.0, "name": "de271aa79a22143b139e009785c72f61", "lon": -77.04749883333334, "fusion_lat": 0.0, "is_disabled": 0, "is_reserved": 0, "rental_uris": {"ios": "https://dc.lft.to/lastmile_qr_scan", "android": "https://dc.lft.to/lastmile_qr_scan"}, "bike_id": "de271aa79a22143b139e009785c72f61", "lat": 38.90550116666667}, {"type": "electric_scooter", "fusion_lon": 0.0, "name": "daaa1138a8d770ba7135abfdf9102ffb", "lon": -77.02715166666667, "fusion_lat": 0.0, "is_disabled": 0, "is_reserved": 0, "rental_uris": {"ios": "https://dc.lft.to/lastmile_qr_scan", "android": "https://dc.lft.to/lastmile_qr_scan"}, "bike_id": "daaa1138a8d770ba7135abfdf9102ffb", "lat": 38.896603166666665}, {"type": "electric_scooter", "fusion_lon": 0.0, "name": "38b15aced8253fd59b30b157081e6efe", "lon": -77.02719933333333, "fusion_lat": 0.0, "is_disabled": 0, "is_reserved": 0, "rental_uris": {"ios": "https://dc.lft.to/lastmile_qr_scan", "android": "https://dc.lft.to/lastmile_qr_scan"}, "bike_id": "38b15aced8253fd59b30b157081e6efe", "lat": 38.91105366666667}, {"type": "electric_scooter", "fusion_lon": 0.0, "name": "4c7bb27226ede09710f94bbf325392fa", "lon": -77.04499066666666, "fusion_lat": 0.0, "is_disabled": 0, "is_reserved": 0, "rental_uris": {"ios": "https://dc.lft.to/lastmile_qr_scan", "android": "https://dc.lft.to/lastmile_qr_scan"}, "bike_id": "4c7bb27226ede09710f94bbf325392fa", "lat": 38.9192795}, {"type": "electric_scooter", "fusion_lon": 0.0, "name": "e8a89605f41de9ee56d8060a5d592a0b", "lon": -77.04378416666667, "fusion_lat": 0.0, "is_disabled": 0, "is_reserved": 0, "rental_uris": {"ios": "https://dc.lft.to/lastmile_qr_scan", "android": "https://dc.lft.to/lastmile_qr_scan"}, "bike_id": "e8a89605f41de9ee56d8060a5d592a0b", "lat": 38.8961235}, {"type": "electric_scooter", "fusion_lon": 0.0, "name": "156345563cc742ef7f36b4ab0e490436", "lon": -77.04510816666667, "fusion_lat": 0.0, "is_disabled": 0, "is_reserved": 0, "rental_uris": {"ios": "https://dc.lft.to/lastmile_qr_scan", "android": "https://dc.lft.to/lastmile_qr_scan"}, "bike_id": "156345563cc742ef7f36b4ab0e490436", "lat": 38.91286983333333}, {"type": "electric_scooter", "fusion_lon": 0.0, "name": "da19623004f36bd1185801e9c2df9df4", "lon": -77.03376483333334, "fusion_lat": 0.0, "is_disabled": 0, "is_reserved": 0, "rental_uris": {"ios": "https://dc.lft.to/lastmile_qr_scan", "android": "https://dc.lft.to/lastmile_qr_scan"}, "bike_id": "da19623004f36bd1185801e9c2df9df4", "lat": 38.9236045}, {"type": "electric_scooter", "fusion_lon": 0.0, "name": "a5a310d1014d84c33496f67e607cc61b", "lon": -76.994622, "fusion_lat": 0.0, "is_disabled": 0, "is_reserved": 0, "rental_uris": {"ios": "https://dc.lft.to/lastmile_qr_scan", "android": "https://dc.lft.to/lastmile_qr_scan"}, "bike_id": "a5a310d1014d84c33496f67e607cc61b", "lat": 38.908250333333335}, {"type": "electric_scooter", "fusion_lon": 0.0, "name": "eaf38d67d0a57978f475ca0d9ea7abc4", "lon": -77.0342955, "fusion_lat": 0.0, "is_disabled": 0, "is_reserved": 0, "rental_uris": {"ios": "https://dc.lft.to/lastmile_qr_scan", "android": "https://dc.lft.to/lastmile_qr_scan"}, "bike_id": "eaf38d67d0a57978f475ca0d9ea7abc4", "lat": 38.919166833333335}, {"type": "electric_scooter", "fusion_lon": 0.0, "name": "82a575152a6e657ae2fb611f2a2ad39e", "lon": -77.02925983333333, "fusion_lat": 0.0, "is_disabled": 0, "is_reserved": 0, "rental_uris": {"ios": "https://dc.lft.to/lastmile_qr_scan", "android": "https://dc.lft.to/lastmile_qr_scan"}, "bike_id": "82a575152a6e657ae2fb611f2a2ad39e", "lat": 38.884413}, {"type": "electric_scooter", "fusion_lon": 0.0, "name": "6d8389a34232df2676df8a0ab8bed4dd", "lon": -77.0135805, "fusion_lat": 0.0, "is_disabled": 0, "is_reserved": 0, "rental_uris": {"ios": "https://dc.lft.to/lastmile_qr_scan", "android": "https://dc.lft.to/lastmile_qr_scan"}, "bike_id": "6d8389a34232df2676df8a0ab8bed4dd", "lat": 38.8716235}, {"type": "electric_scooter", "fusion_lon": 0.0, "name": "725ab67e7b54a0ce9497f4c63acd24cf", "lon": -77.04250733333333, "fusion_lat": 0.0, "is_disabled": 0, "is_reserved": 0, "rental_uris": {"ios": "https://dc.lft.to/lastmile_qr_scan", "android": "https://dc.lft.to/lastmile_qr_scan"}, "bike_id": "725ab67e7b54a0ce9497f4c63acd24cf", "lat": 38.9074855}, {"type": "electric_scooter", "fusion_lon": 0.0, "name": "4d5df1855b541fa34ee70691d773f4b7", "lon": -77.02511566666666, "fusion_lat": 0.0, "is_disabled": 0, "is_reserved": 0, "rental_uris": {"ios": "https://dc.lft.to/lastmile_qr_scan", "android": "https://dc.lft.to/lastmile_qr_scan"}, "bike_id": "4d5df1855b541fa34ee70691d773f4b7", "lat": 38.892313333333334}, {"type": "electric_scooter", "fusion_lon": 0.0, "name": "58e41b14e6399c8f1e58e4f797365e56", "lon": -77.031301, "fusion_lat": 0.0, "is_disabled": 0, "is_reserved": 0, "rental_uris": {"ios": "https://dc.lft.to/lastmile_qr_scan", "android": "https://dc.lft.to/lastmile_qr_scan"}, "bike_id": "58e41b14e6399c8f1e58e4f797365e56", "lat": 38.911141}, {"type": "electric_bike", "fusion_lon": 0.0, "name": "0484888f50e43e420f7c0f166f3a5c04", "lon": -77.07656483333334, "fusion_lat": 0.0, "is_disabled": 0, "is_reserved": 0, "rental_uris": {"ios": "https://dc.lft.to/lastmile_qr_scan", "android": "https://dc.lft.to/lastmile_qr_scan"}, "bike_id": "0484888f50e43e420f7c0f166f3a5c04", "lat": 38.8098115}, {"type": "electric_scooter", "fusion_lon": 0.0, "name": "28ee42bc5ad14a51474398513227ffcd", "lon": -77.0326795, "fusion_lat": 0.0, "is_disabled": 0, "is_reserved": 0, "rental_uris": {"ios": "https://dc.lft.to/lastmile_qr_scan", "android": "https://dc.lft.to/lastmile_qr_scan"}, "bike_id": "28ee42bc5ad14a51474398513227ffcd", "lat": 38.89878383333333}, {"type": "electric_scooter", "fusion_lon": 0.0, "name": "2dfacc9d63691532d530aa84af1d3be9", "lon": -77.021575, "fusion_lat": 0.0, "is_disabled": 0, "is_reserved": 0, "rental_uris": {"ios": "https://dc.lft.to/lastmile_qr_scan", "android": "https://dc.lft.to/lastmile_qr_scan"}, "bike_id": "2dfacc9d63691532d530aa84af1d3be9", "lat": 38.899875}, {"type": "electric_scooter", "fusion_lon": 0.0, "name": "94b50d5142df99b62d5763dd7447f218", "lon": -77.009843, "fusion_lat": 0.0, "is_disabled": 0, "is_reserved": 0, "rental_uris": {"ios": "https://dc.lft.to/lastmile_qr_scan", "android": "https://dc.lft.to/lastmile_qr_scan"}, "bike_id": "94b50d5142df99b62d5763dd7447f218", "lat": 38.906968}, {"type": "electric_scooter", "fusion_lon": 0.0, "name": "10d922014fbf38a878b8eae8cfb5de50", "lon": -77.03210016666667, "fusion_lat": 0.0, "is_disabled": 0, "is_reserved": 0, "rental_uris": {"ios": "https://dc.lft.to/lastmile_qr_scan", "android": "https://dc.lft.to/lastmile_qr_scan"}, "bike_id": "10d922014fbf38a878b8eae8cfb5de50", "lat": 38.906961}, {"type": "electric_scooter", "fusion_lon": 0.0, "name": "3a9b392070c009af372fec7958f46931", "lon": -77.022466, "fusion_lat": 0.0, "is_disabled": 0, "is_reserved": 0, "rental_uris": {"ios": "https://dc.lft.to/lastmile_qr_scan", "android": "https://dc.lft.to/lastmile_qr_scan"}, "bike_id": "3a9b392070c009af372fec7958f46931", "lat": 38.9247835}, {"type": "electric_bike", "fusion_lon": 0.0, "name": "f9b1e699542dec28a1b705aa5bb4d3e6", "lon": -77.22916583333334, "fusion_lat": 0.0, "is_disabled": 0, "is_reserved": 0, "rental_uris": {"ios": "https://dc.lft.to/lastmile_qr_scan", "android": "https://dc.lft.to/lastmile_qr_scan"}, "bike_id": "f9b1e699542dec28a1b705aa5bb4d3e6", "lat": 38.8703965}, {"type": "electric_scooter", "fusion_lon": 0.0, "name": "a33f476dda503bb4e34078f8c950e37b", "lon": -77.02003716666667, "fusion_lat": 0.0, "is_disabled": 0, "is_reserved": 0, "rental_uris": {"ios": "https://dc.lft.to/lastmile_qr_scan", "android": "https://dc.lft.to/lastmile_qr_scan"}, "bike_id": "a33f476dda503bb4e34078f8c950e37b", "lat": 38.915840833333334}, {"type": "electric_scooter", "fusion_lon": 0.0, "name": "fe5a7625b61c2f6c739ac5f47a2f5946", "lon": -77.02215716666667, "fusion_lat": 0.0, "is_disabled": 0, "is_reserved": 0, "rental_uris": {"ios": "https://dc.lft.to/lastmile_qr_scan", "android": "https://dc.lft.to/lastmile_qr_scan"}, "bike_id": "fe5a7625b61c2f6c739ac5f47a2f5946", "lat": 38.896074166666665}, {"type": "electric_scooter", "fusion_lon": 0.0, "name": "87e4aa9e7528cf02ba75600b2eceac3f", "lon": -77.02290816666667, "fusion_lat": 0.0, "is_disabled": 0, "is_reserved": 0, "rental_uris": {"ios": "https://dc.lft.to/lastmile_qr_scan", "android": "https://dc.lft.to/lastmile_qr_scan"}, "bike_id": "87e4aa9e7528cf02ba75600b2eceac3f", "lat": 38.916849}, {"type": "electric_scooter", "fusion_lon": 0.0, "name": "304bcd17a94a974654b3f5252162d4cc", "lon": -77.06101366666667, "fusion_lat": 0.0, "is_disabled": 0, "is_reserved": 0, "rental_uris": {"ios": "https://dc.lft.to/lastmile_qr_scan", "android": "https://dc.lft.to/lastmile_qr_scan"}, "bike_id": "304bcd17a94a974654b3f5252162d4cc", "lat": 38.910500166666665}, {"type": "electric_scooter", "fusion_lon": 0.0, "name": "d500ea5889a25a29b981cb6c1f5f3dc5", "lon": -76.99347983333334, "fusion_lat": 0.0, "is_disabled": 0, "is_reserved": 0, "rental_uris": {"ios": "https://dc.lft.to/lastmile_qr_scan", "android": "https://dc.lft.to/lastmile_qr_scan"}, "bike_id": "d500ea5889a25a29b981cb6c1f5f3dc5", "lat": 38.900129}, {"type": "electric_scooter", "fusion_lon": 0.0, "name": "4b47e80822256be1eed6c85931a5830e", "lon": -77.03063583333333, "fusion_lat": 0.0, "is_disabled": 0, "is_reserved": 0, "rental_uris": {"ios": "https://dc.lft.to/lastmile_qr_scan", "android": "https://dc.lft.to/lastmile_qr_scan"}, "bike_id": "4b47e80822256be1eed6c85931a5830e", "lat": 38.922485}, {"type": "electric_bike", "fusion_lon": 0.0, "name": "6153e8f248c3e2b27c7921fe9e66610a", "lon": -76.91064466666667, "fusion_lat": 0.0, "is_disabled": 0, "is_reserved": 0, "rental_uris": {"ios": "https://dc.lft.to/lastmile_qr_scan", "android": "https://dc.lft.to/lastmile_qr_scan"}, "bike_id": "6153e8f248c3e2b27c7921fe9e66610a", "lat": 39.01074533333333}, {"type": "electric_scooter", "fusion_lon": 0.0, "name": "5ae4591c5cae75afed7ea1a9dea8eb5e", "lon": -77.03211633333333, "fusion_lat": 0.0, "is_disabled": 0, "is_reserved": 0, "rental_uris": {"ios": "https://dc.lft.to/lastmile_qr_scan", "android": "https://dc.lft.to/lastmile_qr_scan"}, "bike_id": "5ae4591c5cae75afed7ea1a9dea8eb5e", "lat": 38.91628333333333}, {"type": "electric_scooter", "fusion_lon": 0.0, "name": "7017f39fa11a4b5a74f86d46b917c85b", "lon": -76.99493633333333, "fusion_lat": 0.0, "is_disabled": 0, "is_reserved": 0, "rental_uris": {"ios": "https://dc.lft.to/lastmile_qr_scan", "android": "https://dc.lft.to/lastmile_qr_scan"}, "bike_id": "7017f39fa11a4b5a74f86d46b917c85b", "lat": 38.894019}, {"type": "electric_scooter", "fusion_lon": 0.0, "name": "0847e562f2fbbf82f4808ce4c1ae411e", "lon": -77.02805616666667, "fusion_lat": 0.0, "is_disabled": 0, "is_reserved": 0, "rental_uris": {"ios": "https://dc.lft.to/lastmile_qr_scan", "android": "https://dc.lft.to/lastmile_qr_scan"}, "bike_id": "0847e562f2fbbf82f4808ce4c1ae411e", "lat": 38.90105666666667}, {"type": "electric_scooter", "fusion_lon": 0.0, "name": "45b8c0e4bdd03681fc2a5c812abf5d14", "lon": -77.03554816666667, "fusion_lat": 0.0, "is_disabled": 0, "is_reserved": 0, "rental_uris": {"ios": "https://dc.lft.to/lastmile_qr_scan", "android": "https://dc.lft.to/lastmile_qr_scan"}, "bike_id": "45b8c0e4bdd03681fc2a5c812abf5d14", "lat": 38.90151133333333}, {"type": "electric_scooter", "fusion_lon": 0.0, "name": "7a8aa868063dbeb21ca36b5bdbfa8f21", "lon": -77.0216395, "fusion_lat": 0.0, "is_disabled": 0, "is_reserved": 0, "rental_uris": {"ios": "https://dc.lft.to/lastmile_qr_scan", "android": "https://dc.lft.to/lastmile_qr_scan"}, "bike_id": "7a8aa868063dbeb21ca36b5bdbfa8f21", "lat": 38.9261735}, {"type": "electric_scooter", "fusion_lon": 0.0, "name": "09522583512019e367250579ba0cad5d", "lon": -77.02396766666666, "fusion_lat": 0.0, "is_disabled": 0, "is_reserved": 0, "rental_uris": {"ios": "https://dc.lft.to/lastmile_qr_scan", "android": "https://dc.lft.to/lastmile_qr_scan"}, "bike_id": "09522583512019e367250579ba0cad5d", "lat": 38.899119}, {"type": "electric_scooter", "fusion_lon": 0.0, "name": "94010207e0091c60bc9f9dbc50016b6a", "lon": -77.04885366666667, "fusion_lat": 0.0, "is_disabled": 0, "is_reserved": 0, "rental_uris": {"ios": "https://dc.lft.to/lastmile_qr_scan", "android": "https://dc.lft.to/lastmile_qr_scan"}, "bike_id": "94010207e0091c60bc9f9dbc50016b6a", "lat": 38.904728}, {"type": "electric_scooter", "fusion_lon": 0.0, "name": "6ac995620c580025bdfcd8779d2addf7", "lon": -77.04809483333334, "fusion_lat": 0.0, "is_disabled": 0, "is_reserved": 0, "rental_uris": {"ios": "https://dc.lft.to/lastmile_qr_scan", "android": "https://dc.lft.to/lastmile_qr_scan"}, "bike_id": "6ac995620c580025bdfcd8779d2addf7", "lat": 38.89593033333333}, {"type": "electric_scooter", "fusion_lon": 0.0, "name": "b4f62b974557cf6c59ced9deb32d0cde", "lon": -77.02802433333333, "fusion_lat": 0.0, "is_disabled": 0, "is_reserved": 0, "rental_uris": {"ios": "https://dc.lft.to/lastmile_qr_scan", "android": "https://dc.lft.to/lastmile_qr_scan"}, "bike_id": "b4f62b974557cf6c59ced9deb32d0cde", "lat": 38.89231733333333}, {"type": "electric_scooter", "fusion_lon": 0.0, "name": "c48b0c93962228ae97775d3f38a22aef", "lon": -77.02227533333334, "fusion_lat": 0.0, "is_disabled": 0, "is_reserved": 0, "rental_uris": {"ios": "https://dc.lft.to/lastmile_qr_scan", "android": "https://dc.lft.to/lastmile_qr_scan"}, "bike_id": "c48b0c93962228ae97775d3f38a22aef", "lat": 38.887477833333335}, {"type": "electric_bike", "fusion_lon": 0.0, "name": "e131b008727a7cce543b7cb9a86ebc99", "lon": -77.10404, "fusion_lat": 0.0, "is_disabled": 0, "is_reserved": 0, "rental_uris": {"ios": "https://dc.lft.to/lastmile_qr_scan", "android": "https://dc.lft.to/lastmile_qr_scan"}, "bike_id": "e131b008727a7cce543b7cb9a86ebc99", "lat": 39.00533466666667}, {"type": "electric_bike", "fusion_lon": 0.0, "name": "1653087094c7af8a53b1a6d027b86eb1", "lon": -77.083025, "fusion_lat": 0.0, "is_disabled": 0, "is_reserved": 0, "rental_uris": {"ios": "https://dc.lft.to/lastmile_qr_scan", "android": "https://dc.lft.to/lastmile_qr_scan"}, "bike_id": "1653087094c7af8a53b1a6d027b86eb1", "lat": 38.930349666666665}, {"type": "electric_scooter", "fusion_lon": 0.0, "name": "e0e32ccfefa4a5d31c7206b5fb94d762", "lon": -76.99619683333333, "fusion_lat": 0.0, "is_disabled": 0, "is_reserved": 0, "rental_uris": {"ios": "https://dc.lft.to/lastmile_qr_scan", "android": "https://dc.lft.to/lastmile_qr_scan"}, "bike_id": "e0e32ccfefa4a5d31c7206b5fb94d762", "lat": 38.88526383333333}, {"type": "electric_scooter", "fusion_lon": 0.0, "name": "181dc56fa29e027ce58eea06d5c42dd2", "lon": -77.0487115, "fusion_lat": 0.0, "is_disabled": 0, "is_reserved": 0, "rental_uris": {"ios": "https://dc.lft.to/lastmile_qr_scan", "android": "https://dc.lft.to/lastmile_qr_scan"}, "bike_id": "181dc56fa29e027ce58eea06d5c42dd2", "lat": 38.905292333333335}, {"type": "electric_scooter", "fusion_lon": 0.0, "name": "009d8fd164fc42b230f14a568db44f57", "lon": -77.00927266666666, "fusion_lat": 0.0, "is_disabled": 0, "is_reserved": 0, "rental_uris": {"ios": "https://dc.lft.to/lastmile_qr_scan", "android": "https://dc.lft.to/lastmile_qr_scan"}, "bike_id": "009d8fd164fc42b230f14a568db44f57", "lat": 38.90567183333334}, {"type": "electric_scooter", "fusion_lon": 0.0, "name": "231afcfae1301c1247f14fc9c49ba081", "lon": -77.01867233333333, "fusion_lat": 0.0, "is_disabled": 0, "is_reserved": 0, "rental_uris": {"ios": "https://dc.lft.to/lastmile_qr_scan", "android": "https://dc.lft.to/lastmile_qr_scan"}, "bike_id": "231afcfae1301c1247f14fc9c49ba081", "lat": 38.9736625}, {"type": "electric_scooter", "fusion_lon": 0.0, "name": "dfed657a98977d7a290379bad66c048f", "lon": -77.03223933333334, "fusion_lat": 0.0, "is_disabled": 0, "is_reserved": 0, "rental_uris": {"ios": "https://dc.lft.to/lastmile_qr_scan", "android": "https://dc.lft.to/lastmile_qr_scan"}, "bike_id": "dfed657a98977d7a290379bad66c048f", "lat": 38.89229316666667}, {"type": "electric_bike", "fusion_lon": 0.0, "name": "1dff21663177f6ebe2b3f7e328b81817", "lon": -77.02822483333334, "fusion_lat": 0.0, "is_disabled": 0, "is_reserved": 0, "rental_uris": {"ios": "https://dc.lft.to/lastmile_qr_scan", "android": "https://dc.lft.to/lastmile_qr_scan"}, "bike_id": "1dff21663177f6ebe2b3f7e328b81817", "lat": 38.965616833333335}, {"type": "electric_scooter", "fusion_lon": 0.0, "name": "02163215e0101666fb865efe19ed79e2", "lon": -76.93390683333334, "fusion_lat": 0.0, "is_disabled": 0, "is_reserved": 0, "rental_uris": {"ios": "https://dc.lft.to/lastmile_qr_scan", "android": "https://dc.lft.to/lastmile_qr_scan"}, "bike_id": "02163215e0101666fb865efe19ed79e2", "lat": 38.899091166666665}, {"type": "electric_scooter", "fusion_lon": 0.0, "name": "45dafdd8cc984b0b5fe0c7080637c4e0", "lon": -77.01982216666667, "fusion_lat": 0.0, "is_disabled": 0, "is_reserved": 0, "rental_uris": {"ios": "https://dc.lft.to/lastmile_qr_scan", "android": "https://dc.lft.to/lastmile_qr_scan"}, "bike_id": "45dafdd8cc984b0b5fe0c7080637c4e0", "lat": 38.892332}, {"type": "electric_scooter", "fusion_lon": 0.0, "name": "2c024108a1700011b2b600ee6d290376", "lon": -76.9742165, "fusion_lat": 0.0, "is_disabled": 0, "is_reserved": 0, "rental_uris": {"ios": "https://dc.lft.to/lastmile_qr_scan", "android": "https://dc.lft.to/lastmile_qr_scan"}, "bike_id": "2c024108a1700011b2b600ee6d290376", "lat": 38.9015445}, {"type": "electric_scooter", "fusion_lon": 0.0, "name": "8a41443a15831cde2b89319f6c69a93b", "lon": -77.01982733333334, "fusion_lat": 0.0, "is_disabled": 0, "is_reserved": 0, "rental_uris": {"ios": "https://dc.lft.to/lastmile_qr_scan", "android": "https://dc.lft.to/lastmile_qr_scan"}, "bike_id": "8a41443a15831cde2b89319f6c69a93b", "lat": 38.91526183333333}, {"type": "electric_scooter", "fusion_lon": 0.0, "name": "7f82b1725996d59c5d796486f79b6ea7", "lon": -76.92723483333333, "fusion_lat": 0.0, "is_disabled": 0, "is_reserved": 0, "rental_uris": {"ios": "https://dc.lft.to/lastmile_qr_scan", "android": "https://dc.lft.to/lastmile_qr_scan"}, "bike_id": "7f82b1725996d59c5d796486f79b6ea7", "lat": 38.88035433333334}, {"type": "electric_scooter", "fusion_lon": 0.0, "name": "8a9117c67b4f186d0843d6a0ec5abe82", "lon": -77.02954016666666, "fusion_lat": 0.0, "is_disabled": 0, "is_reserved": 0, "rental_uris": {"ios": "https://dc.lft.to/lastmile_qr_scan", "android": "https://dc.lft.to/lastmile_qr_scan"}, "bike_id": "8a9117c67b4f186d0843d6a0ec5abe82", "lat": 38.9013555}, {"type": "electric_scooter", "fusion_lon": 0.0, "name": "8b66ffee1299e53b7aeb8f95a613875b", "lon": -77.04097833333333, "fusion_lat": 0.0, "is_disabled": 0, "is_reserved": 0, "rental_uris": {"ios": "https://dc.lft.to/lastmile_qr_scan", "android": "https://dc.lft.to/lastmile_qr_scan"}, "bike_id": "8b66ffee1299e53b7aeb8f95a613875b", "lat": 38.91063916666667}, {"type": "electric_scooter", "fusion_lon": 0.0, "name": "9c0e832c86f3c5616b49c4f020bc86e8", "lon": -77.031627, "fusion_lat": 0.0, "is_disabled": 0, "is_reserved": 0, "rental_uris": {"ios": "https://dc.lft.to/lastmile_qr_scan", "android": "https://dc.lft.to/lastmile_qr_scan"}, "bike_id": "9c0e832c86f3c5616b49c4f020bc86e8", "lat": 38.8922805}, {"type": "electric_bike", "fusion_lon": 0.0, "name": "d0913ba68aeabbbec08df8884cf4a582", "lon": -77.068758, "fusion_lat": 0.0, "is_disabled": 0, "is_reserved": 0, "rental_uris": {"ios": "https://dc.lft.to/lastmile_qr_scan", "android": "https://dc.lft.to/lastmile_qr_scan"}, "bike_id": "d0913ba68aeabbbec08df8884cf4a582", "lat": 38.8292105}, {"type": "electric_scooter", "fusion_lon": 0.0, "name": "a0b483dc68a9439875a09586e2942830", "lon": -77.02003133333334, "fusion_lat": 0.0, "is_disabled": 0, "is_reserved": 0, "rental_uris": {"ios": "https://dc.lft.to/lastmile_qr_scan", "android": "https://dc.lft.to/lastmile_qr_scan"}, "bike_id": "a0b483dc68a9439875a09586e2942830", "lat": 38.915775}, {"type": "electric_scooter", "fusion_lon": 0.0, "name": "83930aa275dce78be1cccc13e8ee2f10", "lon": -77.04312966666667, "fusion_lat": 0.0, "is_disabled": 0, "is_reserved": 0, "rental_uris": {"ios": "https://dc.lft.to/lastmile_qr_scan", "android": "https://dc.lft.to/lastmile_qr_scan"}, "bike_id": "83930aa275dce78be1cccc13e8ee2f10", "lat": 38.92362983333334}, {"type": "electric_bike", "fusion_lon": 0.0, "name": "7cf2deb34d0f0b6d565291114e56d750", "lon": -76.96087616666667, "fusion_lat": 0.0, "is_disabled": 0, "is_reserved": 0, "rental_uris": {"ios": "https://dc.lft.to/lastmile_qr_scan", "android": "https://dc.lft.to/lastmile_qr_scan"}, "bike_id": "7cf2deb34d0f0b6d565291114e56d750", "lat": 38.91864533333333}, {"type": "electric_scooter", "fusion_lon": 0.0, "name": "23b48f133f13c724c99a7d072414925d", "lon": -76.98029616666666, "fusion_lat": 0.0, "is_disabled": 0, "is_reserved": 0, "rental_uris": {"ios": "https://dc.lft.to/lastmile_qr_scan", "android": "https://dc.lft.to/lastmile_qr_scan"}, "bike_id": "23b48f133f13c724c99a7d072414925d", "lat": 38.90646433333333}, {"type": "electric_scooter", "fusion_lon": 0.0, "name": "4132a806296fb446eb0bda16937a3d3a", "lon": -76.99845383333333, "fusion_lat": 0.0, "is_disabled": 0, "is_reserved": 0, "rental_uris": {"ios": "https://dc.lft.to/lastmile_qr_scan", "android": "https://dc.lft.to/lastmile_qr_scan"}, "bike_id": "4132a806296fb446eb0bda16937a3d3a", "lat": 38.892094666666665}, {"type": "electric_scooter", "fusion_lon": 0.0, "name": "e9792d9a4054e74fdb240c1e76034037", "lon": -77.04502133333334, "fusion_lat": 0.0, "is_disabled": 0, "is_reserved": 0, "rental_uris": {"ios": "https://dc.lft.to/lastmile_qr_scan", "android": "https://dc.lft.to/lastmile_qr_scan"}, "bike_id": "e9792d9a4054e74fdb240c1e76034037", "lat": 38.89949}, {"type": "electric_scooter", "fusion_lon": 0.0, "name": "d0b520e62bb910749386459e5a9a5a17", "lon": -77.00042316666666, "fusion_lat": 0.0, "is_disabled": 0, "is_reserved": 0, "rental_uris": {"ios": "https://dc.lft.to/lastmile_qr_scan", "android": "https://dc.lft.to/lastmile_qr_scan"}, "bike_id": "d0b520e62bb910749386459e5a9a5a17", "lat": 38.90760733333333}, {"type": "electric_scooter", "fusion_lon": 0.0, "name": "992816a67234366ee2208b0b42c67896", "lon": -77.03249383333333, "fusion_lat": 0.0, "is_disabled": 0, "is_reserved": 0, "rental_uris": {"ios": "https://dc.lft.to/lastmile_qr_scan", "android": "https://dc.lft.to/lastmile_qr_scan"}, "bike_id": "992816a67234366ee2208b0b42c67896", "lat": 38.908764}, {"type": "electric_scooter", "fusion_lon": 0.0, "name": "f749bd65a987130e27a6bca2bbd70a69", "lon": -77.00602033333334, "fusion_lat": 0.0, "is_disabled": 0, "is_reserved": 0, "rental_uris": {"ios": "https://dc.lft.to/lastmile_qr_scan", "android": "https://dc.lft.to/lastmile_qr_scan"}, "bike_id": "f749bd65a987130e27a6bca2bbd70a69", "lat": 38.90702983333333}, {"type": "electric_scooter", "fusion_lon": 0.0, "name": "b8b72ade4bba6c338c91077ed8abd655", "lon": -77.04985533333333, "fusion_lat": 0.0, "is_disabled": 0, "is_reserved": 0, "rental_uris": {"ios": "https://dc.lft.to/lastmile_qr_scan", "android": "https://dc.lft.to/lastmile_qr_scan"}, "bike_id": "b8b72ade4bba6c338c91077ed8abd655", "lat": 38.9079865}, {"type": "electric_bike", "fusion_lon": 0.0, "name": "5f00cc86bfd22c13611e611e6499d98d", "lon": -77.07534266666667, "fusion_lat": 0.0, "is_disabled": 0, "is_reserved": 0, "rental_uris": {"ios": "https://dc.lft.to/lastmile_qr_scan", "android": "https://dc.lft.to/lastmile_qr_scan"}, "bike_id": "5f00cc86bfd22c13611e611e6499d98d", "lat": 38.905863833333335}, {"type": "electric_scooter", "fusion_lon": 0.0, "name": "73952367b87276a6f9048a4e7d411f9b", "lon": -77.05879016666667, "fusion_lat": 0.0, "is_disabled": 0, "is_reserved": 0, "rental_uris": {"ios": "https://dc.lft.to/lastmile_qr_scan", "android": "https://dc.lft.to/lastmile_qr_scan"}, "bike_id": "73952367b87276a6f9048a4e7d411f9b", "lat": 38.935876}, {"type": "electric_scooter", "fusion_lon": 0.0, "name": "73dc2bda1b1cedbd322860282dd5204e", "lon": -77.04179833333333, "fusion_lat": 0.0, "is_disabled": 0, "is_reserved": 0, "rental_uris": {"ios": "https://dc.lft.to/lastmile_qr_scan", "android": "https://dc.lft.to/lastmile_qr_scan"}, "bike_id": "73dc2bda1b1cedbd322860282dd5204e", "lat": 38.9049775}, {"type": "electric_scooter", "fusion_lon": 0.0, "name": "c2108c186f52ed18068119832d4a8c82", "lon": -77.02619683333333, "fusion_lat": 0.0, "is_disabled": 0, "is_reserved": 0, "rental_uris": {"ios": "https://dc.lft.to/lastmile_qr_scan", "android": "https://dc.lft.to/lastmile_qr_scan"}, "bike_id": "c2108c186f52ed18068119832d4a8c82", "lat": 38.89713783333333}, {"type": "electric_scooter", "fusion_lon": 0.0, "name": "4f59be5c96eef327da850777cf71283b", "lon": -77.01995583333333, "fusion_lat": 0.0, "is_disabled": 0, "is_reserved": 0, "rental_uris": {"ios": "https://dc.lft.to/lastmile_qr_scan", "android": "https://dc.lft.to/lastmile_qr_scan"}, "bike_id": "4f59be5c96eef327da850777cf71283b", "lat": 38.91914516666667}, {"type": "electric_scooter", "fusion_lon": 0.0, "name": "3babd25378091b61fb949461355b7342", "lon": -77.04759933333334, "fusion_lat": 0.0, "is_disabled": 0, "is_reserved": 0, "rental_uris": {"ios": "https://dc.lft.to/lastmile_qr_scan", "android": "https://dc.lft.to/lastmile_qr_scan"}, "bike_id": "3babd25378091b61fb949461355b7342", "lat": 38.912714}, {"type": "electric_scooter", "fusion_lon": 0.0, "name": "cb6898c474cab42d2ec8619ad320517e", "lon": -77.0272795, "fusion_lat": 0.0, "is_disabled": 0, "is_reserved": 0, "rental_uris": {"ios": "https://dc.lft.to/lastmile_qr_scan", "android": "https://dc.lft.to/lastmile_qr_scan"}, "bike_id": "cb6898c474cab42d2ec8619ad320517e", "lat": 38.89841283333333}, {"type": "electric_scooter", "fusion_lon": 0.0, "name": "2d8b196e76da0f85f68279215ac8a8f1", "lon": -77.05002683333333, "fusion_lat": 0.0, "is_disabled": 0, "is_reserved": 0, "rental_uris": {"ios": "https://dc.lft.to/lastmile_qr_scan", "android": "https://dc.lft.to/lastmile_qr_scan"}, "bike_id": "2d8b196e76da0f85f68279215ac8a8f1", "lat": 38.892317166666665}, {"type": "electric_bike", "fusion_lon": 0.0, "name": "11e764dc4b7adfd210d93bc46f1588ae", "lon": -77.0091005, "fusion_lat": 0.0, "is_disabled": 0, "is_reserved": 0, "rental_uris": {"ios": "https://dc.lft.to/lastmile_qr_scan", "android": "https://dc.lft.to/lastmile_qr_scan"}, "bike_id": "11e764dc4b7adfd210d93bc46f1588ae", "lat": 38.909959666666666}, {"type": "electric_scooter", "fusion_lon": 0.0, "name": "1536ca412475257e80ae00103cbec243", "lon": -77.03908033333333, "fusion_lat": 0.0, "is_disabled": 0, "is_reserved": 0, "rental_uris": {"ios": "https://dc.lft.to/lastmile_qr_scan", "android": "https://dc.lft.to/lastmile_qr_scan"}, "bike_id": "1536ca412475257e80ae00103cbec243", "lat": 38.917603}, {"type": "electric_scooter", "fusion_lon": 0.0, "name": "4055d2e798f4186c529de843b9c37f68", "lon": -76.95759416666667, "fusion_lat": 0.0, "is_disabled": 0, "is_reserved": 0, "rental_uris": {"ios": "https://dc.lft.to/lastmile_qr_scan", "android": "https://dc.lft.to/lastmile_qr_scan"}, "bike_id": "4055d2e798f4186c529de843b9c37f68", "lat": 38.88393583333333}, {"type": "electric_scooter", "fusion_lon": 0.0, "name": "972207c37ccafe45cd2df61cdee24946", "lon": -77.02184216666667, "fusion_lat": 0.0, "is_disabled": 0, "is_reserved": 0, "rental_uris": {"ios": "https://dc.lft.to/lastmile_qr_scan", "android": "https://dc.lft.to/lastmile_qr_scan"}, "bike_id": "972207c37ccafe45cd2df61cdee24946", "lat": 38.90699683333333}, {"type": "electric_scooter", "fusion_lon": 0.0, "name": "2e3dfd2bea5d2d14d7cddcbea350916c", "lon": -77.02714383333333, "fusion_lat": 0.0, "is_disabled": 0, "is_reserved": 0, "rental_uris": {"ios": "https://dc.lft.to/lastmile_qr_scan", "android": "https://dc.lft.to/lastmile_qr_scan"}, "bike_id": "2e3dfd2bea5d2d14d7cddcbea350916c", "lat": 38.918171}, {"type": "electric_scooter", "fusion_lon": 0.0, "name": "62ccd10baaae27675840dfb6090b3d69", "lon": -77.04747583333334, "fusion_lat": 0.0, "is_disabled": 0, "is_reserved": 0, "rental_uris": {"ios": "https://dc.lft.to/lastmile_qr_scan", "android": "https://dc.lft.to/lastmile_qr_scan"}, "bike_id": "62ccd10baaae27675840dfb6090b3d69", "lat": 38.919957333333336}, {"type": "electric_scooter", "fusion_lon": 0.0, "name": "11141a6d28c3cabab1e26c6a6e178bf9", "lon": -77.046784, "fusion_lat": 0.0, "is_disabled": 0, "is_reserved": 0, "rental_uris": {"ios": "https://dc.lft.to/lastmile_qr_scan", "android": "https://dc.lft.to/lastmile_qr_scan"}, "bike_id": "11141a6d28c3cabab1e26c6a6e178bf9", "lat": 38.8973405}, {"type": "electric_scooter", "fusion_lon": 0.0, "name": "387ce0ae235129a7ccd461e8b62b33d4", "lon": -76.9372925, "fusion_lat": 0.0, "is_disabled": 0, "is_reserved": 0, "rental_uris": {"ios": "https://dc.lft.to/lastmile_qr_scan", "android": "https://dc.lft.to/lastmile_qr_scan"}, "bike_id": "387ce0ae235129a7ccd461e8b62b33d4", "lat": 38.89015416666667}, {"type": "electric_bike", "fusion_lon": 0.0, "name": "8bb978df6af6e9473ce332fd5f5042f7", "lon": -76.9397, "fusion_lat": 0.0, "is_disabled": 0, "is_reserved": 0, "rental_uris": {"ios": "https://dc.lft.to/lastmile_qr_scan", "android": "https://dc.lft.to/lastmile_qr_scan"}, "bike_id": "8bb978df6af6e9473ce332fd5f5042f7", "lat": 38.900487166666665}, {"type": "electric_scooter", "fusion_lon": 0.0, "name": "d4ec24cdb7f52fe42a8b85038196a87e", "lon": -77.04666033333334, "fusion_lat": 0.0, "is_disabled": 0, "is_reserved": 0, "rental_uris": {"ios": "https://dc.lft.to/lastmile_qr_scan", "android": "https://dc.lft.to/lastmile_qr_scan"}, "bike_id": "d4ec24cdb7f52fe42a8b85038196a87e", "lat": 38.910101}, {"type": "electric_scooter", "fusion_lon": 0.0, "name": "e1e65186c5abeffdcd0fe64ce7833a63", "lon": -77.019858, "fusion_lat": 0.0, "is_disabled": 0, "is_reserved": 0, "rental_uris": {"ios": "https://dc.lft.to/lastmile_qr_scan", "android": "https://dc.lft.to/lastmile_qr_scan"}, "bike_id": "e1e65186c5abeffdcd0fe64ce7833a63", "lat": 38.94396966666667}, {"type": "electric_scooter", "fusion_lon": 0.0, "name": "4fc0bba58e1ca87226cc2de6e680cae7", "lon": -77.0108195, "fusion_lat": 0.0, "is_disabled": 0, "is_reserved": 0, "rental_uris": {"ios": "https://dc.lft.to/lastmile_qr_scan", "android": "https://dc.lft.to/lastmile_qr_scan"}, "bike_id": "4fc0bba58e1ca87226cc2de6e680cae7", "lat": 38.91161116666667}, {"type": "electric_bike", "fusion_lon": 0.0, "name": "e1acf85b15b4a510c14a2d6fdb642e6f", "lon": -77.0902565, "fusion_lat": 0.0, "is_disabled": 0, "is_reserved": 0, "rental_uris": {"ios": "https://dc.lft.to/lastmile_qr_scan", "android": "https://dc.lft.to/lastmile_qr_scan"}, "bike_id": "e1acf85b15b4a510c14a2d6fdb642e6f", "lat": 38.92651716666667}, {"type": "electric_scooter", "fusion_lon": 0.0, "name": "57faa3490a53d3e6f2946595771f10d1", "lon": -76.92721433333334, "fusion_lat": 0.0, "is_disabled": 0, "is_reserved": 0, "rental_uris": {"ios": "https://dc.lft.to/lastmile_qr_scan", "android": "https://dc.lft.to/lastmile_qr_scan"}, "bike_id": "57faa3490a53d3e6f2946595771f10d1", "lat": 38.880376166666665}, {"type": "electric_scooter", "fusion_lon": 0.0, "name": "8659368c0215c834a6b71ce0595522bc", "lon": -76.939147, "fusion_lat": 0.0, "is_disabled": 0, "is_reserved": 0, "rental_uris": {"ios": "https://dc.lft.to/lastmile_qr_scan", "android": "https://dc.lft.to/lastmile_qr_scan"}, "bike_id": "8659368c0215c834a6b71ce0595522bc", "lat": 38.8970955}, {"type": "electric_bike", "fusion_lon": 0.0, "name": "a6f21b5fa11dadc69ad8261d83aea7ee", "lon": -77.02980833333334, "fusion_lat": 0.0, "is_disabled": 0, "is_reserved": 0, "rental_uris": {"ios": "https://dc.lft.to/lastmile_qr_scan", "android": "https://dc.lft.to/lastmile_qr_scan"}, "bike_id": "a6f21b5fa11dadc69ad8261d83aea7ee", "lat": 38.88384033333333}, {"type": "electric_scooter", "fusion_lon": 0.0, "name": "9421e3ae829a4a4b76bcf1a5946822a0", "lon": -77.03669666666667, "fusion_lat": 0.0, "is_disabled": 0, "is_reserved": 0, "rental_uris": {"ios": "https://dc.lft.to/lastmile_qr_scan", "android": "https://dc.lft.to/lastmile_qr_scan"}, "bike_id": "9421e3ae829a4a4b76bcf1a5946822a0", "lat": 38.923273}, {"type": "electric_scooter", "fusion_lon": 0.0, "name": "f712949b8af0ff8297c8ffd4872349fd", "lon": -77.04266583333333, "fusion_lat": 0.0, "is_disabled": 0, "is_reserved": 0, "rental_uris": {"ios": "https://dc.lft.to/lastmile_qr_scan", "android": "https://dc.lft.to/lastmile_qr_scan"}, "bike_id": "f712949b8af0ff8297c8ffd4872349fd", "lat": 38.907936166666666}, {"type": "electric_scooter", "fusion_lon": 0.0, "name": "d82cb06df1b26e4a5894e39ff0f8c0a0", "lon": -77.03846583333333, "fusion_lat": 0.0, "is_disabled": 0, "is_reserved": 0, "rental_uris": {"ios": "https://dc.lft.to/lastmile_qr_scan", "android": "https://dc.lft.to/lastmile_qr_scan"}, "bike_id": "d82cb06df1b26e4a5894e39ff0f8c0a0", "lat": 38.92654116666667}, {"type": "electric_scooter", "fusion_lon": 0.0, "name": "e0770fde3b8602f04d2d882a5b5a4dda", "lon": -77.0311425, "fusion_lat": 0.0, "is_disabled": 0, "is_reserved": 0, "rental_uris": {"ios": "https://dc.lft.to/lastmile_qr_scan", "android": "https://dc.lft.to/lastmile_qr_scan"}, "bike_id": "e0770fde3b8602f04d2d882a5b5a4dda", "lat": 38.920270333333335}, {"type": "electric_bike", "fusion_lon": 0.0, "name": "9d0f2d381b625b7dcb1473c5d80a0409", "lon": -76.98362516666667, "fusion_lat": 0.0, "is_disabled": 0, "is_reserved": 0, "rental_uris": {"ios": "https://dc.lft.to/lastmile_qr_scan", "android": "https://dc.lft.to/lastmile_qr_scan"}, "bike_id": "9d0f2d381b625b7dcb1473c5d80a0409", "lat": 38.9715435}, {"type": "electric_scooter", "fusion_lon": 0.0, "name": "defdee46dfefdbf9045bcc7da4e2d4ac", "lon": -77.021186, "fusion_lat": 0.0, "is_disabled": 0, "is_reserved": 0, "rental_uris": {"ios": "https://dc.lft.to/lastmile_qr_scan", "android": "https://dc.lft.to/lastmile_qr_scan"}, "bike_id": "defdee46dfefdbf9045bcc7da4e2d4ac", "lat": 38.9175035}, {"type": "electric_scooter", "fusion_lon": 0.0, "name": "7a8d91d2abd0a077a0b339afbfe42216", "lon": -77.009193, "fusion_lat": 0.0, "is_disabled": 0, "is_reserved": 0, "rental_uris": {"ios": "https://dc.lft.to/lastmile_qr_scan", "android": "https://dc.lft.to/lastmile_qr_scan"}, "bike_id": "7a8d91d2abd0a077a0b339afbfe42216", "lat": 38.9147585}, {"type": "electric_scooter", "fusion_lon": 0.0, "name": "a6b04ffe9f45de144e5f1b66a3357fb7", "lon": -76.951811, "fusion_lat": 0.0, "is_disabled": 0, "is_reserved": 0, "rental_uris": {"ios": "https://dc.lft.to/lastmile_qr_scan", "android": "https://dc.lft.to/lastmile_qr_scan"}, "bike_id": "a6b04ffe9f45de144e5f1b66a3357fb7", "lat": 38.90514983333333}, {"type": "electric_scooter", "fusion_lon": 0.0, "name": "08fb9de61825c3bca1471ce829c2b071", "lon": -77.001324, "fusion_lat": 0.0, "is_disabled": 0, "is_reserved": 0, "rental_uris": {"ios": "https://dc.lft.to/lastmile_qr_scan", "android": "https://dc.lft.to/lastmile_qr_scan"}, "bike_id": "08fb9de61825c3bca1471ce829c2b071", "lat": 38.90755033333333}, {"type": "electric_scooter", "fusion_lon": 0.0, "name": "fb72dc2cdbf365b37e72708be1e0cc91", "lon": -76.99568466666666, "fusion_lat": 0.0, "is_disabled": 0, "is_reserved": 0, "rental_uris": {"ios": "https://dc.lft.to/lastmile_qr_scan", "android": "https://dc.lft.to/lastmile_qr_scan"}, "bike_id": "fb72dc2cdbf365b37e72708be1e0cc91", "lat": 38.925116333333335}, {"type": "electric_scooter", "fusion_lon": 0.0, "name": "2ac6d9a764cc36d48455fd6cdc31f316", "lon": -77.0433495, "fusion_lat": 0.0, "is_disabled": 0, "is_reserved": 0, "rental_uris": {"ios": "https://dc.lft.to/lastmile_qr_scan", "android": "https://dc.lft.to/lastmile_qr_scan"}, "bike_id": "2ac6d9a764cc36d48455fd6cdc31f316", "lat": 38.892274}, {"type": "electric_scooter", "fusion_lon": 0.0, "name": "2c00b4a8151a68249c6daaf8d9275750", "lon": -76.926299, "fusion_lat": 0.0, "is_disabled": 0, "is_reserved": 0, "rental_uris": {"ios": "https://dc.lft.to/lastmile_qr_scan", "android": "https://dc.lft.to/lastmile_qr_scan"}, "bike_id": "2c00b4a8151a68249c6daaf8d9275750", "lat": 38.8862545}, {"type": "electric_scooter", "fusion_lon": 0.0, "name": "8fddf1ac1b1dd6cf0084a0274531c046", "lon": -77.05211883333334, "fusion_lat": 0.0, "is_disabled": 0, "is_reserved": 0, "rental_uris": {"ios": "https://dc.lft.to/lastmile_qr_scan", "android": "https://dc.lft.to/lastmile_qr_scan"}, "bike_id": "8fddf1ac1b1dd6cf0084a0274531c046", "lat": 38.914127666666666}, {"type": "electric_scooter", "fusion_lon": 0.0, "name": "0e51a0bc0726b3eddb524cd3066df7ff", "lon": -77.0269105, "fusion_lat": 0.0, "is_disabled": 0, "is_reserved": 0, "rental_uris": {"ios": "https://dc.lft.to/lastmile_qr_scan", "android": "https://dc.lft.to/lastmile_qr_scan"}, "bike_id": "0e51a0bc0726b3eddb524cd3066df7ff", "lat": 38.9432965}, {"type": "electric_scooter", "fusion_lon": 0.0, "name": "854b669d5504dbf45ba68ff407094032", "lon": -77.0271735, "fusion_lat": 0.0, "is_disabled": 0, "is_reserved": 0, "rental_uris": {"ios": "https://dc.lft.to/lastmile_qr_scan", "android": "https://dc.lft.to/lastmile_qr_scan"}, "bike_id": "854b669d5504dbf45ba68ff407094032", "lat": 38.899839}, {"type": "electric_scooter", "fusion_lon": 0.0, "name": "b9a466fed895e8d7ce86db8bdebb989a", "lon": -77.06046233333333, "fusion_lat": 0.0, "is_disabled": 0, "is_reserved": 0, "rental_uris": {"ios": "https://dc.lft.to/lastmile_qr_scan", "android": "https://dc.lft.to/lastmile_qr_scan"}, "bike_id": "b9a466fed895e8d7ce86db8bdebb989a", "lat": 38.90519033333333}, {"type": "electric_bike", "fusion_lon": 0.0, "name": "696a4224f59fbce89164133a063de1a5", "lon": -77.036851, "fusion_lat": 0.0, "is_disabled": 0, "is_reserved": 0, "rental_uris": {"ios": "https://dc.lft.to/lastmile_qr_scan", "android": "https://dc.lft.to/lastmile_qr_scan"}, "bike_id": "696a4224f59fbce89164133a063de1a5", "lat": 39.026477166666666}, {"type": "electric_scooter", "fusion_lon": 0.0, "name": "7385fa9e171a48ebee62a34295a5e8a9", "lon": -77.04052316666667, "fusion_lat": 0.0, "is_disabled": 0, "is_reserved": 0, "rental_uris": {"ios": "https://dc.lft.to/lastmile_qr_scan", "android": "https://dc.lft.to/lastmile_qr_scan"}, "bike_id": "7385fa9e171a48ebee62a34295a5e8a9", "lat": 38.93067716666667}, {"type": "electric_scooter", "fusion_lon": 0.0, "name": "812535e16d03b2c428ece2db0b8c534d", "lon": -77.03624983333333, "fusion_lat": 0.0, "is_disabled": 0, "is_reserved": 0, "rental_uris": {"ios": "https://dc.lft.to/lastmile_qr_scan", "android": "https://dc.lft.to/lastmile_qr_scan"}, "bike_id": "812535e16d03b2c428ece2db0b8c534d", "lat": 38.90026666666667}, {"type": "electric_scooter", "fusion_lon": 0.0, "name": "1bf19751d3f571cf5d48d1ea5d8e48a7", "lon": -77.00982016666667, "fusion_lat": 0.0, "is_disabled": 0, "is_reserved": 0, "rental_uris": {"ios": "https://dc.lft.to/lastmile_qr_scan", "android": "https://dc.lft.to/lastmile_qr_scan"}, "bike_id": "1bf19751d3f571cf5d48d1ea5d8e48a7", "lat": 38.872162833333334}, {"type": "electric_scooter", "fusion_lon": 0.0, "name": "f284ee4c72c6df9f04aea091472b5693", "lon": -77.03414083333334, "fusion_lat": 0.0, "is_disabled": 0, "is_reserved": 0, "rental_uris": {"ios": "https://dc.lft.to/lastmile_qr_scan", "android": "https://dc.lft.to/lastmile_qr_scan"}, "bike_id": "f284ee4c72c6df9f04aea091472b5693", "lat": 38.90248733333333}, {"type": "electric_scooter", "fusion_lon": 0.0, "name": "adaad24a171ee50e2734a1abbdfb5b47", "lon": -77.029453, "fusion_lat": 0.0, "is_disabled": 0, "is_reserved": 0, "rental_uris": {"ios": "https://dc.lft.to/lastmile_qr_scan", "android": "https://dc.lft.to/lastmile_qr_scan"}, "bike_id": "adaad24a171ee50e2734a1abbdfb5b47", "lat": 38.90506366666666}, {"type": "electric_scooter", "fusion_lon": 0.0, "name": "fc73f78f2071c88dd819a3ce51bc8ba4", "lon": -77.0440295, "fusion_lat": 0.0, "is_disabled": 0, "is_reserved": 0, "rental_uris": {"ios": "https://dc.lft.to/lastmile_qr_scan", "android": "https://dc.lft.to/lastmile_qr_scan"}, "bike_id": "fc73f78f2071c88dd819a3ce51bc8ba4", "lat": 38.925901}, {"type": "electric_scooter", "fusion_lon": 0.0, "name": "2b9bbfa22874190363ae7922fe0f5630", "lon": -77.03177083333334, "fusion_lat": 0.0, "is_disabled": 0, "is_reserved": 0, "rental_uris": {"ios": "https://dc.lft.to/lastmile_qr_scan", "android": "https://dc.lft.to/lastmile_qr_scan"}, "bike_id": "2b9bbfa22874190363ae7922fe0f5630", "lat": 38.91417116666667}, {"type": "electric_scooter", "fusion_lon": 0.0, "name": "9a73761edbda4b643d0119dc3353c5a7", "lon": -77.0770435, "fusion_lat": 0.0, "is_disabled": 0, "is_reserved": 0, "rental_uris": {"ios": "https://dc.lft.to/lastmile_qr_scan", "android": "https://dc.lft.to/lastmile_qr_scan"}, "bike_id": "9a73761edbda4b643d0119dc3353c5a7", "lat": 38.9355565}, {"type": "electric_scooter", "fusion_lon": 0.0, "name": "95f3580ba9fdbacfb4221e92ccdf92ef", "lon": -77.01195283333334, "fusion_lat": 0.0, "is_disabled": 0, "is_reserved": 0, "rental_uris": {"ios": "https://dc.lft.to/lastmile_qr_scan", "android": "https://dc.lft.to/lastmile_qr_scan"}, "bike_id": "95f3580ba9fdbacfb4221e92ccdf92ef", "lat": 38.90005516666667}, {"type": "electric_scooter", "fusion_lon": 0.0, "name": "d3c6c1a7ca9fd78656628b3ad33750a8", "lon": -77.05679283333333, "fusion_lat": 0.0, "is_disabled": 0, "is_reserved": 0, "rental_uris": {"ios": "https://dc.lft.to/lastmile_qr_scan", "android": "https://dc.lft.to/lastmile_qr_scan"}, "bike_id": "d3c6c1a7ca9fd78656628b3ad33750a8", "lat": 38.923329}, {"type": "electric_scooter", "fusion_lon": 0.0, "name": "69b5ff73e64f8771922abec1be782996", "lon": -77.04067066666667, "fusion_lat": 0.0, "is_disabled": 0, "is_reserved": 0, "rental_uris": {"ios": "https://dc.lft.to/lastmile_qr_scan", "android": "https://dc.lft.to/lastmile_qr_scan"}, "bike_id": "69b5ff73e64f8771922abec1be782996", "lat": 38.89882633333333}, {"type": "electric_scooter", "fusion_lon": 0.0, "name": "8fc5ab1d09ea74aaa9cd9f0bdec96f65", "lon": -77.03501733333333, "fusion_lat": 0.0, "is_disabled": 0, "is_reserved": 0, "rental_uris": {"ios": "https://dc.lft.to/lastmile_qr_scan", "android": "https://dc.lft.to/lastmile_qr_scan"}, "bike_id": "8fc5ab1d09ea74aaa9cd9f0bdec96f65", "lat": 38.9171065}, {"type": "electric_scooter", "fusion_lon": 0.0, "name": "6c3b50ed15c311bcc60ad906d93d90eb", "lon": -76.994343, "fusion_lat": 0.0, "is_disabled": 0, "is_reserved": 0, "rental_uris": {"ios": "https://dc.lft.to/lastmile_qr_scan", "android": "https://dc.lft.to/lastmile_qr_scan"}, "bike_id": "6c3b50ed15c311bcc60ad906d93d90eb", "lat": 38.93858216666667}, {"type": "electric_scooter", "fusion_lon": 0.0, "name": "cf81a1dde7bdaac5577a9f51fb22df9d", "lon": -77.03794333333333, "fusion_lat": 0.0, "is_disabled": 0, "is_reserved": 0, "rental_uris": {"ios": "https://dc.lft.to/lastmile_qr_scan", "android": "https://dc.lft.to/lastmile_qr_scan"}, "bike_id": "cf81a1dde7bdaac5577a9f51fb22df9d", "lat": 38.916996166666664}, {"type": "electric_scooter", "fusion_lon": 0.0, "name": "cf63bffe87821b9dd25345c2ffa02456", "lon": -77.023498, "fusion_lat": 0.0, "is_disabled": 0, "is_reserved": 0, "rental_uris": {"ios": "https://dc.lft.to/lastmile_qr_scan", "android": "https://dc.lft.to/lastmile_qr_scan"}, "bike_id": "cf63bffe87821b9dd25345c2ffa02456", "lat": 38.90869516666667}, {"type": "electric_scooter", "fusion_lon": 0.0, "name": "568c5edf7acf5dbb5f8dd75abceb0c13", "lon": -77.01963983333333, "fusion_lat": 0.0, "is_disabled": 0, "is_reserved": 0, "rental_uris": {"ios": "https://dc.lft.to/lastmile_qr_scan", "android": "https://dc.lft.to/lastmile_qr_scan"}, "bike_id": "568c5edf7acf5dbb5f8dd75abceb0c13", "lat": 38.92324216666667}, {"type": "electric_scooter", "fusion_lon": 0.0, "name": "0461d824dd318757bedcafbf23cbb3a5", "lon": -77.00596566666667, "fusion_lat": 0.0, "is_disabled": 0, "is_reserved": 0, "rental_uris": {"ios": "https://dc.lft.to/lastmile_qr_scan", "android": "https://dc.lft.to/lastmile_qr_scan"}, "bike_id": "0461d824dd318757bedcafbf23cbb3a5", "lat": 38.8819}, {"type": "electric_scooter", "fusion_lon": 0.0, "name": "56c01e8b7e2d105001d09a245ac729f2", "lon": -77.02356316666666, "fusion_lat": 0.0, "is_disabled": 0, "is_reserved": 0, "rental_uris": {"ios": "https://dc.lft.to/lastmile_qr_scan", "android": "https://dc.lft.to/lastmile_qr_scan"}, "bike_id": "56c01e8b7e2d105001d09a245ac729f2", "lat": 38.929002833333335}, {"type": "electric_scooter", "fusion_lon": 0.0, "name": "d81327859fc3e3201827c8b7882076dd", "lon": -77.01774433333334, "fusion_lat": 0.0, "is_disabled": 0, "is_reserved": 0, "rental_uris": {"ios": "https://dc.lft.to/lastmile_qr_scan", "android": "https://dc.lft.to/lastmile_qr_scan"}, "bike_id": "d81327859fc3e3201827c8b7882076dd", "lat": 38.94040283333333}, {"type": "electric_scooter", "fusion_lon": 0.0, "name": "48f2d0e153ee330291fbb4d6a0489d77", "lon": -77.0456715, "fusion_lat": 0.0, "is_disabled": 0, "is_reserved": 0, "rental_uris": {"ios": "https://dc.lft.to/lastmile_qr_scan", "android": "https://dc.lft.to/lastmile_qr_scan"}, "bike_id": "48f2d0e153ee330291fbb4d6a0489d77", "lat": 38.9126475}, {"type": "electric_scooter", "fusion_lon": 0.0, "name": "4f0a5c85e0aab810a630de4b6493f8ad", "lon": -77.04506916666666, "fusion_lat": 0.0, "is_disabled": 0, "is_reserved": 0, "rental_uris": {"ios": "https://dc.lft.to/lastmile_qr_scan", "android": "https://dc.lft.to/lastmile_qr_scan"}, "bike_id": "4f0a5c85e0aab810a630de4b6493f8ad", "lat": 38.89970533333333}, {"type": "electric_scooter", "fusion_lon": 0.0, "name": "5aff73d0bb06adeca38ded6174bad14f", "lon": -77.04364483333333, "fusion_lat": 0.0, "is_disabled": 0, "is_reserved": 0, "rental_uris": {"ios": "https://dc.lft.to/lastmile_qr_scan", "android": "https://dc.lft.to/lastmile_qr_scan"}, "bike_id": "5aff73d0bb06adeca38ded6174bad14f", "lat": 38.91124083333333}, {"type": "electric_bike", "fusion_lon": 0.0, "name": "48541d0a42a056ce6f3f1c343f903cc7", "lon": -76.95704916666666, "fusion_lat": 0.0, "is_disabled": 0, "is_reserved": 0, "rental_uris": {"ios": "https://dc.lft.to/lastmile_qr_scan", "android": "https://dc.lft.to/lastmile_qr_scan"}, "bike_id": "48541d0a42a056ce6f3f1c343f903cc7", "lat": 38.888749}, {"type": "electric_scooter", "fusion_lon": 0.0, "name": "b426826c8e51cdabc405f0f1985c4a78", "lon": -76.9993015, "fusion_lat": 0.0, "is_disabled": 0, "is_reserved": 0, "rental_uris": {"ios": "https://dc.lft.to/lastmile_qr_scan", "android": "https://dc.lft.to/lastmile_qr_scan"}, "bike_id": "b426826c8e51cdabc405f0f1985c4a78", "lat": 38.90029716666667}, {"type": "electric_scooter", "fusion_lon": 0.0, "name": "81d830dc91b7416a4fd99e2c27024570", "lon": -77.02890383333333, "fusion_lat": 0.0, "is_disabled": 0, "is_reserved": 0, "rental_uris": {"ios": "https://dc.lft.to/lastmile_qr_scan", "android": "https://dc.lft.to/lastmile_qr_scan"}, "bike_id": "81d830dc91b7416a4fd99e2c27024570", "lat": 38.907286666666664}, {"type": "electric_bike", "fusion_lon": 0.0, "name": "18d2ddca9f6511353e7c13e08e036e8e", "lon": -76.9933, "fusion_lat": 0.0, "is_disabled": 0, "is_reserved": 0, "rental_uris": {"ios": "https://dc.lft.to/lastmile_qr_scan", "android": "https://dc.lft.to/lastmile_qr_scan"}, "bike_id": "18d2ddca9f6511353e7c13e08e036e8e", "lat": 38.92122166666667}, {"type": "electric_bike", "fusion_lon": 0.0, "name": "e6b98040afea0fa16ac8d632c1244ddf", "lon": -77.08210333333334, "fusion_lat": 0.0, "is_disabled": 0, "is_reserved": 0, "rental_uris": {"ios": "https://dc.lft.to/lastmile_qr_scan", "android": "https://dc.lft.to/lastmile_qr_scan"}, "bike_id": "e6b98040afea0fa16ac8d632c1244ddf", "lat": 38.92206083333333}, {"type": "electric_scooter", "fusion_lon": 0.0, "name": "4726bf41894ac1973937425502d0b8aa", "lon": -77.06861516666666, "fusion_lat": 0.0, "is_disabled": 0, "is_reserved": 0, "rental_uris": {"ios": "https://dc.lft.to/lastmile_qr_scan", "android": "https://dc.lft.to/lastmile_qr_scan"}, "bike_id": "4726bf41894ac1973937425502d0b8aa", "lat": 38.95279333333333}, {"type": "electric_scooter", "fusion_lon": 0.0, "name": "e86585d587704ce9c4d4b5a2b4818ebe", "lon": -77.047937, "fusion_lat": 0.0, "is_disabled": 0, "is_reserved": 0, "rental_uris": {"ios": "https://dc.lft.to/lastmile_qr_scan", "android": "https://dc.lft.to/lastmile_qr_scan"}, "bike_id": "e86585d587704ce9c4d4b5a2b4818ebe", "lat": 38.896104333333334}, {"type": "electric_scooter", "fusion_lon": 0.0, "name": "e1eb6bc1774c7f2d63fce8a15a963824", "lon": -77.00509783333334, "fusion_lat": 0.0, "is_disabled": 0, "is_reserved": 0, "rental_uris": {"ios": "https://dc.lft.to/lastmile_qr_scan", "android": "https://dc.lft.to/lastmile_qr_scan"}, "bike_id": "e1eb6bc1774c7f2d63fce8a15a963824", "lat": 38.960472}, {"type": "electric_scooter", "fusion_lon": 0.0, "name": "5b970d92f1605478e5a8addf7762ccf8", "lon": -77.03639083333333, "fusion_lat": 0.0, "is_disabled": 0, "is_reserved": 0, "rental_uris": {"ios": "https://dc.lft.to/lastmile_qr_scan", "android": "https://dc.lft.to/lastmile_qr_scan"}, "bike_id": "5b970d92f1605478e5a8addf7762ccf8", "lat": 38.91759866666666}, {"type": "electric_scooter", "fusion_lon": 0.0, "name": "306a2ed99a425219a391f187087090bd", "lon": -77.014689, "fusion_lat": 0.0, "is_disabled": 0, "is_reserved": 0, "rental_uris": {"ios": "https://dc.lft.to/lastmile_qr_scan", "android": "https://dc.lft.to/lastmile_qr_scan"}, "bike_id": "306a2ed99a425219a391f187087090bd", "lat": 38.926829166666664}, {"type": "electric_scooter", "fusion_lon": 0.0, "name": "5de7fa9d43ae3d5351cf08f26fc150a2", "lon": -77.04661633333333, "fusion_lat": 0.0, "is_disabled": 0, "is_reserved": 0, "rental_uris": {"ios": "https://dc.lft.to/lastmile_qr_scan", "android": "https://dc.lft.to/lastmile_qr_scan"}, "bike_id": "5de7fa9d43ae3d5351cf08f26fc150a2", "lat": 38.896947}, {"type": "electric_scooter", "fusion_lon": 0.0, "name": "cf3363570176c727d2bf0c741c83c288", "lon": -77.00626766666667, "fusion_lat": 0.0, "is_disabled": 0, "is_reserved": 0, "rental_uris": {"ios": "https://dc.lft.to/lastmile_qr_scan", "android": "https://dc.lft.to/lastmile_qr_scan"}, "bike_id": "cf3363570176c727d2bf0c741c83c288", "lat": 38.871723833333334}, {"type": "electric_scooter", "fusion_lon": 0.0, "name": "5b47df0258b41bba6309f805fb385b23", "lon": -77.0789155, "fusion_lat": 0.0, "is_disabled": 0, "is_reserved": 0, "rental_uris": {"ios": "https://dc.lft.to/lastmile_qr_scan", "android": "https://dc.lft.to/lastmile_qr_scan"}, "bike_id": "5b47df0258b41bba6309f805fb385b23", "lat": 38.94828733333333}, {"type": "electric_scooter", "fusion_lon": 0.0, "name": "04f5bf792bf80a174589c31bdf4b15a2", "lon": -76.96998783333333, "fusion_lat": 0.0, "is_disabled": 0, "is_reserved": 0, "rental_uris": {"ios": "https://dc.lft.to/lastmile_qr_scan", "android": "https://dc.lft.to/lastmile_qr_scan"}, "bike_id": "04f5bf792bf80a174589c31bdf4b15a2", "lat": 38.860229833333335}, {"type": "electric_bike", "fusion_lon": 0.0, "name": "57c0dc68581149f56ce1d7d4c7054e75", "lon": -76.96260383333333, "fusion_lat": 0.0, "is_disabled": 0, "is_reserved": 0, "rental_uris": {"ios": "https://dc.lft.to/lastmile_qr_scan", "android": "https://dc.lft.to/lastmile_qr_scan"}, "bike_id": "57c0dc68581149f56ce1d7d4c7054e75", "lat": 38.882474}, {"type": "electric_scooter", "fusion_lon": 0.0, "name": "18ddb687b04d42068f34a92ffeed6e00", "lon": -76.9916615, "fusion_lat": 0.0, "is_disabled": 0, "is_reserved": 0, "rental_uris": {"ios": "https://dc.lft.to/lastmile_qr_scan", "android": "https://dc.lft.to/lastmile_qr_scan"}, "bike_id": "18ddb687b04d42068f34a92ffeed6e00", "lat": 38.873416666666664}, {"type": "electric_scooter", "fusion_lon": 0.0, "name": "bf439a6472b1a0c2aa395d9af234b647", "lon": -77.04338633333333, "fusion_lat": 0.0, "is_disabled": 0, "is_reserved": 0, "rental_uris": {"ios": "https://dc.lft.to/lastmile_qr_scan", "android": "https://dc.lft.to/lastmile_qr_scan"}, "bike_id": "bf439a6472b1a0c2aa395d9af234b647", "lat": 38.901356166666666}, {"type": "electric_scooter", "fusion_lon": 0.0, "name": "36277d105f20ea8b091438ffdcfbef3d", "lon": -77.04412216666667, "fusion_lat": 0.0, "is_disabled": 0, "is_reserved": 0, "rental_uris": {"ios": "https://dc.lft.to/lastmile_qr_scan", "android": "https://dc.lft.to/lastmile_qr_scan"}, "bike_id": "36277d105f20ea8b091438ffdcfbef3d", "lat": 38.89606466666667}, {"type": "electric_scooter", "fusion_lon": 0.0, "name": "57ad0d39354930596cd23d30be142745", "lon": -77.022153, "fusion_lat": 0.0, "is_disabled": 0, "is_reserved": 0, "rental_uris": {"ios": "https://dc.lft.to/lastmile_qr_scan", "android": "https://dc.lft.to/lastmile_qr_scan"}, "bike_id": "57ad0d39354930596cd23d30be142745", "lat": 38.89227666666667}, {"type": "electric_scooter", "fusion_lon": 0.0, "name": "ecaf7bb69f6fd8eafcae2e9a6d376a5f", "lon": -77.007116, "fusion_lat": 0.0, "is_disabled": 0, "is_reserved": 0, "rental_uris": {"ios": "https://dc.lft.to/lastmile_qr_scan", "android": "https://dc.lft.to/lastmile_qr_scan"}, "bike_id": "ecaf7bb69f6fd8eafcae2e9a6d376a5f", "lat": 38.884950333333336}, {"type": "electric_bike", "fusion_lon": 0.0, "name": "701cb0d5e7577c6d8885135dbd429d7a", "lon": -77.03258933333333, "fusion_lat": 0.0, "is_disabled": 0, "is_reserved": 0, "rental_uris": {"ios": "https://dc.lft.to/lastmile_qr_scan", "android": "https://dc.lft.to/lastmile_qr_scan"}, "bike_id": "701cb0d5e7577c6d8885135dbd429d7a", "lat": 38.8807985}, {"type": "electric_scooter", "fusion_lon": 0.0, "name": "6f5d5507666d16d9ce3f1efdc19fa1d1", "lon": -77.00742416666667, "fusion_lat": 0.0, "is_disabled": 0, "is_reserved": 0, "rental_uris": {"ios": "https://dc.lft.to/lastmile_qr_scan", "android": "https://dc.lft.to/lastmile_qr_scan"}, "bike_id": "6f5d5507666d16d9ce3f1efdc19fa1d1", "lat": 38.87637333333333}, {"type": "electric_scooter", "fusion_lon": 0.0, "name": "f84d843619c2d20e578c1b66c3409379", "lon": -76.99626916666666, "fusion_lat": 0.0, "is_disabled": 0, "is_reserved": 0, "rental_uris": {"ios": "https://dc.lft.to/lastmile_qr_scan", "android": "https://dc.lft.to/lastmile_qr_scan"}, "bike_id": "f84d843619c2d20e578c1b66c3409379", "lat": 38.92189466666667}, {"type": "electric_scooter", "fusion_lon": 0.0, "name": "a0ec0f678151ec2d261135513213d18c", "lon": -77.02863783333333, "fusion_lat": 0.0, "is_disabled": 0, "is_reserved": 0, "rental_uris": {"ios": "https://dc.lft.to/lastmile_qr_scan", "android": "https://dc.lft.to/lastmile_qr_scan"}, "bike_id": "a0ec0f678151ec2d261135513213d18c", "lat": 38.88195983333333},