{"data": {"bikes": [{"name": "924a46d65ec13e31fa10e3e737261377", "fusion_lat": 0.0, "type": "electric_scooter", "lat": 38.905187833333336, "is_reserved": 0, "is_disabled": 0, "fusion_lon": 0.0, "bike_id": "924a46d65ec13e31fa10e3e737261377", "lon": -77.030597, "rental_uris": {"ios": "https://dc.lft.to/lastmile_qr_scan", "android": "https://dc.lft.to/lastmile_qr_scan"}}, {"name": "4ba1121e201d7c8aee8be4d6ec85c6c0", "fusion_lat": 0.0, "type": "electric_scooter", "lat": 38.90144383333333, "is_reserved": 0, "is_disabled": 0, "fusion_lon": 0.0, "bike_id": "4ba1121e201d7c8aee8be4d6ec85c6c0", "lon": -77.00895283333334, "rental_uris": {"ios": "https://dc.lft.to/lastmile_qr_scan", "android": "https://dc.lft.to/lastmile_qr_scan"}}, {"name": "0b5ec5936cf48df079fb1a87c23fc13d", "fusion_lat": 0.0, "type": "electric_scooter", "lat": 38.90244233333333, "is_reserved": 0, "is_disabled": 0, "fusion_lon": 0.0, "bike_id": "0b5ec5936cf48df079fb1a87c23fc13d", "lon": -77.043777, "rental_uris": {"ios": "https://dc.lft.to/lastmile_qr_scan", "android": "https://dc.lft.to/lastmile_qr_scan"}}, {"name": "f7e0072863c3ade719e23b744dd4ff32", "fusion_lat": 0.0, "type": "electric_scooter", "lat": 38.90245983333333, "is_reserved": 0, "is_disabled": 0, "fusion_lon": 0.0, "bike_id": "f7e0072863c3ade719e23b744dd4ff32", "lon": -77.03943433333333, "rental_uris": {"ios": "https://dc.lft.to/lastmile_qr_scan", "android": "https://dc.lft.to/lastmile_qr_scan"}}, {"name": "c521bb0455483a62fe771c3a45a48e5a", "fusion_lat": 0.0, "type": "electric_scooter", "lat": 38.91924733333333, "is_reserved": 0, "is_disabled": 0, "fusion_lon": 0.0, "bike_id": "c521bb0455483a62fe771c3a45a48e5a", "lon": -77.04155066666667, "rental_uris": {"ios": "https://dc.lft.to/lastmile_qr_scan", "android": "https://dc.lft.to/lastmile_qr_scan"}}, {"name": "8c418a42643ee9db0ad5102a83e7784d", "fusion_lat": 0.0, "type": "electric_scooter", "lat": 38.9110505, "is_reserved": 0, "is_disabled": 0, "fusion_lon": 0.0, "bike_id": "8c418a42643ee9db0ad5102a83e7784d", "lon": -77.02462316666667, "rental_uris": {"ios": "https://dc.lft.to/lastmile_qr_scan", "android": "https://dc.lft.to/lastmile_qr_scan"}}, {"name": "2bffaf07dca0b51ecc9eaffb90e62b31", "fusion_lat": 0.0, "type": "electric_scooter", "lat": 38.9236145, "is_reserved": 0, "is_disabled": 0, "fusion_lon": 0.0, "bike_id": "2bffaf07dca0b51ecc9eaffb90e62b31", "lon": -77.0584095, "rental_uris": {"ios": "https://dc.lft.to/lastmile_qr_scan", "android": "https://dc.lft.to/lastmile_qr_scan"}}, {"name": "e8b9961327341d87490c8a96c672a427", "fusion_lat": 0.0, "type": "electric_scooter", "lat": 38.896139833333336, "is_reserved": 0, "is_disabled": 0, "fusion_lon": 0.0, "bike_id": "e8b9961327341d87490c8a96c672a427", "lon": -77.044636, "rental_uris": {"ios": "https://dc.lft.to/lastmile_qr_scan", "android": "https://dc.lft.to/lastmile_qr_scan"}}, {"name": "05b610eaa94f3f9092538a3567b0ade2", "fusion_lat": 0.0, "type": "electric_scooter", "lat": 38.925126666666664, "is_reserved": 0, "is_disabled": 0, "fusion_lon": 0.0, "bike_id": "05b610eaa94f3f9092538a3567b0ade2", "lon": -77.00173166666667, "rental_uris": {"ios": "https://dc.lft.to/lastmile_qr_scan", "android": "https://dc.lft.to/lastmile_qr_scan"}}, {"name": "36c87a10f8ee2babf2295513dd725164", "fusion_lat": 0.0, "type": "electric_scooter", "lat": 38.89518266666666, "is_reserved": 0, "is_disabled": 0, "fusion_lon": 0.0, "bike_id": "36c87a10f8ee2babf2295513dd725164", "lon": -77.01143316666666, "rental_uris": {"ios": "https://dc.lft.to/lastmile_qr_scan", "android": "https://dc.lft.to/lastmile_qr_scan"}}, {"name": "7a59baa08f591c996853493ba504fc94", "fusion_lat": 0.0, "type": "electric_scooter", "lat": 38.8837375, "is_reserved": 0, "is_disabled": 0, "fusion_lon": 0.0, "bike_id": "7a59baa08f591c996853493ba504fc94", "lon": -76.92373483333333, "rental_uris": {"ios": "https://dc.lft.to/lastmile_qr_scan", "android": "https://dc.lft.to/lastmile_qr_scan"}}, {"name": "ae95aba0625765c947c0ec0e9d3a2352", "fusion_lat": 0.0, "type": "electric_scooter", "lat": 38.90960616666667, "is_reserved": 0, "is_disabled": 0, "fusion_lon": 0.0, "bike_id": "ae95aba0625765c947c0ec0e9d3a2352", "lon": -77.02744383333334, "rental_uris": {"ios": "https://dc.lft.to/lastmile_qr_scan", "android": "https://dc.lft.to/lastmile_qr_scan"}}, {"name": "7e69b17d108663f554014d4bdf31dcd3", "fusion_lat": 0.0, "type": "electric_scooter", "lat": 38.90194366666667, "is_reserved": 0, "is_disabled": 0, "fusion_lon": 0.0, "bike_id": "7e69b17d108663f554014d4bdf31dcd3", "lon": -76.98205666666667, "rental_uris": {"ios": "https://dc.lft.to/lastmile_qr_scan", "android": "https://dc.lft.to/lastmile_qr_scan"}}, {"name": "edee349704041282ba933421e507dead", "fusion_lat": 0.0, "type": "electric_scooter", "lat": 38.906776666666666, "is_reserved": 0, "is_disabled": 0, "fusion_lon": 0.0, "bike_id": "edee349704041282ba933421e507dead", "lon": -77.04662166666667, "rental_uris": {"ios": "https://dc.lft.to/lastmile_qr_scan", "android": "https://dc.lft.to/lastmile_qr_scan"}}, {"name": "2a34d3767ad01b259ad8003756a814ee", "fusion_lat": 0.0, "type": "electric_scooter", "lat": 38.866577666666664, "is_reserved": 0, "is_disabled": 0, "fusion_lon": 0.0, "bike_id": "2a34d3767ad01b259ad8003756a814ee", "lon": -76.988844, "rental_uris": {"ios": "https://dc.lft.to/lastmile_qr_scan", "android": "https://dc.lft.to/lastmile_qr_scan"}}, {"name": "027b758e8f7ee0995d022a3431b72225", "fusion_lat": 0.0, "type": "electric_scooter", "lat": 38.91764333333333, "is_reserved": 0, "is_disabled": 0, "fusion_lon": 0.0, "bike_id": "027b758e8f7ee0995d022a3431b72225", "lon": -77.09671333333333, "rental_uris": {"ios": "https://dc.lft.to/lastmile_qr_scan", "android": "https://dc.lft.to/lastmile_qr_scan"}}, {"name": "bb9949c91b8b29200780abab344dd3a1", "fusion_lat": 0.0, "type": "electric_scooter", "lat": 38.92510683333333, "is_reserved": 0, "is_disabled": 0, "fusion_lon": 0.0, "bike_id": "bb9949c91b8b29200780abab344dd3a1", "lon": -77.03319933333333, "rental_uris": {"ios": "https://dc.lft.to/lastmile_qr_scan", "android": "https://dc.lft.to/lastmile_qr_scan"}}, {"name": "30b31cbbd8cc7b458f2060bb4cf27494", "fusion_lat": 0.0, "type": "electric_bike", "lat": 38.873716333333334, "is_reserved": 0, "is_disabled": 0, "fusion_lon": 0.0, "bike_id": "30b31cbbd8cc7b458f2060bb4cf27494", "lon": -77.00089466666667, "rental_uris": {"ios": "https://dc.lft.to/lastmile_qr_scan", "android": "https://dc.lft.to/lastmile_qr_scan"}}, {"name": "f9796f7f34dd2f0cf8983d2dd6f7fa42", "fusion_lat": 0.0, "type": "electric_scooter", "lat": 38.93862883333333, "is_reserved": 0, "is_disabled": 0, "fusion_lon": 0.0, "bike_id": "f9796f7f34dd2f0cf8983d2dd6f7fa42", "lon": -77.02648566666667, "rental_uris": {"ios": "https://dc.lft.to/lastmile_qr_scan", "android": "https://dc.lft.to/lastmile_qr_scan"}}, {"name": "63cc1e83a7ed659697834ba73db46055", "fusion_lat": 0.0, "type": "electric_scooter", "lat": 38.90441216666667, "is_reserved": 0, "is_disabled": 0, "fusion_lon": 0.0, "bike_id": "63cc1e83a7ed659697834ba73db46055", "lon": -77.0600845, "rental_uris": {"ios": "https://dc.lft.to/lastmile_qr_scan", "android": "https://dc.lft.to/lastmile_qr_scan"}}, {"name": "d72c13dbe28946b6edfcca01a76a21a1", "fusion_lat": 0.0, "type": "electric_scooter", "lat": 38.92098466666667, "is_reserved": 0, "is_disabled": 0, "fusion_lon": 0.0, "bike_id": "d72c13dbe28946b6edfcca01a76a21a1", "lon": -77.02978966666667, "rental_uris": {"ios": "https://dc.lft.to/lastmile_qr_scan", "android": "https://dc.lft.to/lastmile_qr_scan"}}, {"name": "b900ecbf13c53ffe8e5cc633a88d96a4", "fusion_lat": 0.0, "type": "electric_scooter", "lat": 38.897381833333334, "is_reserved": 0, "is_disabled": 0, "fusion_lon": 0.0, "bike_id": "b900ecbf13c53ffe8e5cc633a88d96a4", "lon": -77.0326095, "rental_uris": {"ios": "https://dc.lft.to/lastmile_qr_scan", "android": "https://dc.lft.to/lastmile_qr_scan"}}, {"name": "ae2ba2e7066a4063fd996d2694ca58c9", "fusion_lat": 0.0, "type": "electric_scooter", "lat": 38.900968, "is_reserved": 0, "is_disabled": 0, "fusion_lon": 0.0, "bike_id": "ae2ba2e7066a4063fd996d2694ca58c9", "lon": -77.02001466666667, "rental_uris": {"ios": "https://dc.lft.to/lastmile_qr_scan", "android": "https://dc.lft.to/lastmile_qr_scan"}}, {"name": "aa52145a4a94a7428d85954feb104350", "fusion_lat": 0.0, "type": "electric_scooter", "lat": 38.902019, "is_reserved": 0, "is_disabled": 0, "fusion_lon": 0.0, "bike_id": "aa52145a4a94a7428d85954feb104350", "lon": -76.9881945, "rental_uris": {"ios": "https://dc.lft.to/lastmile_qr_scan", "android": "https://dc.lft.to/lastmile_qr_scan"}}, {"name": "b4dfd1e856fdeb84444bbeca4bb105cc", "fusion_lat": 0.0, "type": "electric_scooter", "lat": 38.86452033333333, "is_reserved": 0, "is_disabled": 0, "fusion_lon": 0.0, "bike_id": "b4dfd1e856fdeb84444bbeca4bb105cc", "lon": -76.98246083333333, "rental_uris": {"ios": "https://dc.lft.to/lastmile_qr_scan", "android": "https://dc.lft.to/lastmile_qr_scan"}}, {"name": "4628319e35718ec4d5a4d9abf90ba3d2", "fusion_lat": 0.0, "type": "electric_scooter", "lat": 38.94042, "is_reserved": 0, "is_disabled": 0, "fusion_lon": 0.0, "bike_id": "4628319e35718ec4d5a4d9abf90ba3d2", "lon": -77.02982166666666, "rental_uris": {"ios": "https://dc.lft.to/lastmile_qr_scan", "android": "https://dc.lft.to/lastmile_qr_scan"}}, {"name": "8391f1cef76538cd8593d5cd9aad8ad0", "fusion_lat": 0.0, "type": "electric_bike", "lat": 38.9286385, "is_reserved": 0, "is_disabled": 0, "fusion_lon": 0.0, "bike_id": "8391f1cef76538cd8593d5cd9aad8ad0", "lon": -76.96108466666666, "rental_uris": {"ios": "https://dc.lft.to/lastmile_qr_scan", "android": "https://dc.lft.to/lastmile_qr_scan"}}, {"name": "f7f10c4350fc3961c0bdcd2072968720", "fusion_lat": 0.0, "type": "electric_bike", "lat": 38.901755333333334, "is_reserved": 0, "is_disabled": 0, "fusion_lon": 0.0, "bike_id": "f7f10c4350fc3961c0bdcd2072968720", "lon": -77.0482695, "rental_uris": {"ios": "https://dc.lft.to/lastmile_qr_scan", "android": "https://dc.lft.to/lastmile_qr_scan"}}, {"name": "5dd453281a183f31f242bdd45f0011a4", "fusion_lat": 0.0, "type": "electric_scooter", "lat": 38.918449333333335, "is_reserved": 0, "is_disabled": 0, "fusion_lon": 0.0, "bike_id": "5dd453281a183f31f242bdd45f0011a4", "lon": -77.0445985, "rental_uris": {"ios": "https://dc.lft.to/lastmile_qr_scan", "android": "https://dc.lft.to/lastmile_qr_scan"}}, {"name": "7c8c6906edd47988b511cd2aa3a11281", "fusion_lat": 0.0, "type": "electric_scooter", "lat": 38.965539666666665, "is_reserved": 0, "is_disabled": 0, "fusion_lon": 0.0, "bike_id": "7c8c6906edd47988b511cd2aa3a11281", "lon": -77.0162135, "rental_uris": {"ios": "https://dc.lft.to/lastmile_qr_scan", "android": "https://dc.lft.to/lastmile_qr_scan"}}, {"name": "daf1059b3a58255040544508785aec92", "fusion_lat": 0.0, "type": "electric_scooter", "lat": 38.894801333333334, "is_reserved": 0, "is_disabled": 0, "fusion_lon": 0.0, "bike_id": "daf1059b3a58255040544508785aec92", "lon": -77.01081533333333, "rental_uris": {"ios": "https://dc.lft.to/lastmile_qr_scan", "android": "https://dc.lft.to/lastmile_qr_scan"}}, {"name": "ee89b085b2cd5047f922e75c023e718d", "fusion_lat": 0.0, "type": "electric_scooter", "lat": 38.89725883333333, "is_reserved": 0, "is_disabled": 0, "fusion_lon": 0.0, "bike_id": "ee89b085b2cd5047f922e75c023e718d", "lon": -77.043372, "rental_uris": {"ios": "https://dc.lft.to/lastmile_qr_scan", "android": "https://dc.lft.to/lastmile_qr_scan"}}, {"name": "c3b3c934a41cf2977f2ed18123faab24", "fusion_lat": 0.0, "type": "electric_scooter", "lat": 38.86369216666667, "is_reserved": 0, "is_disabled": 0, "fusion_lon": 0.0, "bike_id": "c3b3c934a41cf2977f2ed18123faab24", "lon": -77.013646, "rental_uris": {"ios": "https://dc.lft.to/lastmile_qr_scan", "android": "https://dc.lft.to/lastmile_qr_scan"}}, {"name": "8e36700848bbf4252dafe42a7b708a2a", "fusion_lat": 0.0, "type": "electric_bike", "lat": 38.92846683333333, "is_reserved": 0, "is_disabled": 0, "fusion_lon": 0.0, "bike_id": "8e36700848bbf4252dafe42a7b708a2a", "lon": -77.10678116666666, "rental_uris": {"ios": "https://dc.lft.to/lastmile_qr_scan", "android": "https://dc.lft.to/lastmile_qr_scan"}}, {"name": "790254661b75caee469303f78a55e645", "fusion_lat": 0.0, "type": "electric_scooter", "lat": 38.9243925, "is_reserved": 0, "is_disabled": 0, "fusion_lon": 0.0, "bike_id": "790254661b75caee469303f78a55e645", "lon": -77.0297655, "rental_uris": {"ios": "https://dc.lft.to/lastmile_qr_scan", "android": "https://dc.lft.to/lastmile_qr_scan"}}, {"name": "bcbea26f5fc82c66bed8c73f28934c3b", "fusion_lat": 0.0, "type": "electric_scooter", "lat": 38.930565333333334, "is_reserved": 0, "is_disabled": 0, "fusion_lon": 0.0, "bike_id": "bcbea26f5fc82c66bed8c73f28934c3b", "lon": -77.0232085, "rental_uris": {"ios": "https://dc.lft.to/lastmile_qr_scan", "android": "https://dc.lft.to/lastmile_qr_scan"}}, {"name": "80a88886a7db3ae30df352464d8733e4", "fusion_lat": 0.0, "type": "electric_scooter", "lat": 38.912485833333335, "is_reserved": 0, "is_disabled": 0, "fusion_lon": 0.0, "bike_id": "80a88886a7db3ae30df352464d8733e4", "lon": -77.007658, "rental_uris": {"ios": "https://dc.lft.to/lastmile_qr_scan", "android": "https://dc.lft.to/lastmile_qr_scan"}}, {"name": "16f19af38b97de5cb21ab3689279dfcc", "fusion_lat": 0.0, "type": "electric_scooter", "lat": 38.9027475, "is_reserved": 0, "is_disabled": 0, "fusion_lon": 0.0, "bike_id": "16f19af38b97de5cb21ab3689279dfcc", "lon": -77.04259366666666, "rental_uris": {"ios": "https://dc.lft.to/lastmile_qr_scan", "android": "https://dc.lft.to/lastmile_qr_scan"}}, {"name": "60d4110baa138770d9eb07e0f5639ec8", "fusion_lat": 0.0, "type": "electric_scooter", "lat": 38.92560266666667, "is_reserved": 0, "is_disabled": 0, "fusion_lon": 0.0, "bike_id": "60d4110baa138770d9eb07e0f5639ec8", "lon": -77.06283483333333, "rental_uris": {"ios": "https://dc.lft.to/lastmile_qr_scan", "android": "https://dc.lft.to/lastmile_qr_scan"}}, {"name": "0f8301ff2dcd8a8675136de1b23fc2d8", "fusion_lat": 0.0, "type": "electric_scooter", "lat": 38.893673666666665, "is_reserved": 0, "is_disabled": 0, "fusion_lon": 0.0, "bike_id": "0f8301ff2dcd8a8675136de1b23fc2d8", "lon": -76.9499715, "rental_uris": {"ios": "https://dc.lft.to/lastmile_qr_scan", "android": "https://dc.lft.to/lastmile_qr_scan"}}, {"name": "8e4d5a44751326da0938687faa7f810b", "fusion_lat": 0.0, "type": "electric_scooter", "lat": 38.89597916666666, "is_reserved": 0, "is_disabled": 0, "fusion_lon": 0.0, "bike_id": "8e4d5a44751326da0938687faa7f810b", "lon": -77.02833283333334, "rental_uris": {"ios": "https://dc.lft.to/lastmile_qr_scan", "android": "https://dc.lft.to/lastmile_qr_scan"}}, {"name": "b1c81dbc79ec34f167fb5f018de5b946", "fusion_lat": 0.0, "type": "electric_scooter", "lat": 38.925004333333334, "is_reserved": 0, "is_disabled": 0, "fusion_lon": 0.0, "bike_id": "b1c81dbc79ec34f167fb5f018de5b946", "lon": -77.02362083333334, "rental_uris": {"ios": "https://dc.lft.to/lastmile_qr_scan", "android": "https://dc.lft.to/lastmile_qr_scan"}}, {"name": "3c560e162211ef4903f70a9f47041925", "fusion_lat": 0.0, "type": "electric_scooter", "lat": 38.902590333333336, "is_reserved": 0, "is_disabled": 0, "fusion_lon": 0.0, "bike_id": "3c560e162211ef4903f70a9f47041925", "lon": -77.03147466666667, "rental_uris": {"ios": "https://dc.lft.to/lastmile_qr_scan", "android": "https://dc.lft.to/lastmile_qr_scan"}}, {"name": "99c6eabecf1321d5261af8a419fc190a", "fusion_lat": 0.0, "type": "electric_scooter", "lat": 38.91111683333333, "is_reserved": 0, "is_disabled": 0, "fusion_lon": 0.0, "bike_id": "99c6eabecf1321d5261af8a419fc190a", "lon": -77.03915533333333, "rental_uris": {"ios": "https://dc.lft.to/lastmile_qr_scan", "android": "https://dc.lft.to/lastmile_qr_scan"}}, {"name": "d01e5caa2e98dfe3166dadd895b93b4b", "fusion_lat": 0.0, "type": "electric_scooter", "lat": 38.88431966666667, "is_reserved": 0, "is_disabled": 0, "fusion_lon": 0.0, "bike_id": "d01e5caa2e98dfe3166dadd895b93b4b", "lon": -76.99660133333333, "rental_uris": {"ios": "https://dc.lft.to/lastmile_qr_scan", "android": "https://dc.lft.to/lastmile_qr_scan"}}, {"name": "d239089484f583b998992bde035f1e4a", "fusion_lat": 0.0, "type": "electric_scooter", "lat": 38.899717833333334, "is_reserved": 0, "is_disabled": 0, "fusion_lon": 0.0, "bike_id": "d239089484f583b998992bde035f1e4a", "lon": -77.03170916666667, "rental_uris": {"ios": "https://dc.lft.to/lastmile_qr_scan", "android": "https://dc.lft.to/lastmile_qr_scan"}}, {"name": "8b6a8a56122cbbf170d9b6b0c10fac89", "fusion_lat": 0.0, "type": "electric_bike", "lat": 38.8690215, "is_reserved": 0, "is_disabled": 0, "fusion_lon": 0.0, "bike_id": "8b6a8a56122cbbf170d9b6b0c10fac89", "lon": -77.13181383333334, "rental_uris": {"ios": "https://dc.lft.to/lastmile_qr_scan", "android": "https://dc.lft.to/lastmile_qr_scan"}}, {"name": "6c1b691c526bb03b8a362f07933a5fba", "fusion_lat": 0.0, "type": "electric_scooter", "lat": 38.906403, "is_reserved": 0, "is_disabled": 0, "fusion_lon": 0.0, "bike_id": "6c1b691c526bb03b8a362f07933a5fba", "lon": -76.98577166666666, "rental_uris": {"ios": "https://dc.lft.to/lastmile_qr_scan", "android": "https://dc.lft.to/lastmile_qr_scan"}}, {"name": "985545010b64c3ace09cdbd4f8225841", "fusion_lat": 0.0, "type": "electric_scooter", "lat": 38.89219516666667, "is_reserved": 0, "is_disabled": 0, "fusion_lon": 0.0, "bike_id": "985545010b64c3ace09cdbd4f8225841", "lon": -77.01372466666666, "rental_uris": {"ios": "https://dc.lft.to/lastmile_qr_scan", "android": "https://dc.lft.to/lastmile_qr_scan"}}, {"name": "791e129d865904657d574e1f5a89f0d6", "fusion_lat": 0.0, "type": "electric_scooter", "lat": 38.912436166666666, "is_reserved": 0, "is_disabled": 0, "fusion_lon": 0.0, "bike_id": "791e129d865904657d574e1f5a89f0d6", "lon": -77.03644416666667, "rental_uris": {"ios": "https://dc.lft.to/lastmile_qr_scan", "android": "https://dc.lft.to/lastmile_qr_scan"}}, {"name": "cbeb971a3ea0feb251132e5ec7dfd158", "fusion_lat": 0.0, "type": "electric_scooter", "lat": 38.9004875, "is_reserved": 0, "is_disabled": 0, "fusion_lon": 0.0, "bike_id": "cbeb971a3ea0feb251132e5ec7dfd158", "lon": -77.01671216666666, "rental_uris": {"ios": "https://dc.lft.to/lastmile_qr_scan", "android": "https://dc.lft.to/lastmile_qr_scan"}}, {"name": "c97274bb5305a3e92e68695c9320d4aa", "fusion_lat": 0.0, "type": "electric_scooter", "lat": 38.900795, "is_reserved": 0, "is_disabled": 0, "fusion_lon": 0.0, "bike_id": "c97274bb5305a3e92e68695c9320d4aa", "lon": -77.02186383333333, "rental_uris": {"ios": "https://dc.lft.to/lastmile_qr_scan", "android": "https://dc.lft.to/lastmile_qr_scan"}}, {"name": "3a58ed71be4de3b3ffdc5c30f590514b", "fusion_lat": 0.0, "type": "electric_scooter", "lat": 38.844250333333335, "is_reserved": 0, "is_disabled": 0, "fusion_lon": 0.0, "bike_id": "3a58ed71be4de3b3ffdc5c30f590514b", "lon": -76.997799, "rental_uris": {"ios": "https://dc.lft.to/lastmile_qr_scan", "android": "https://dc.lft.to/lastmile_qr_scan"}}, {"name": "fac01734698f87de5e3b5f799da6ad5a", "fusion_lat": 0.0, "type": "electric_scooter", "lat": 38.92612866666666, "is_reserved": 0, "is_disabled": 0, "fusion_lon": 0.0, "bike_id": "fac01734698f87de5e3b5f799da6ad5a", "lon": -77.005747, "rental_uris": {"ios": "https://dc.lft.to/lastmile_qr_scan", "android": "https://dc.lft.to/lastmile_qr_scan"}}, {"name": "f9ff65e092db3d591ba5a4f1fe322df0", "fusion_lat": 0.0, "type": "electric_scooter", "lat": 38.897637833333334, "is_reserved": 0, "is_disabled": 0, "fusion_lon": 0.0, "bike_id": "f9ff65e092db3d591ba5a4f1fe322df0", "lon": -76.977222, "rental_uris": {"ios": "https://dc.lft.to/lastmile_qr_scan", "android": "https://dc.lft.to/lastmile_qr_scan"}}, {"name": "ed505006cd7353b803de4445cc552bfe", "fusion_lat": 0.0, "type": "electric_bike", "lat": 38.85376133333333, "is_reserved": 0, "is_disabled": 0, "fusion_lon": 0.0, "bike_id": "ed505006cd7353b803de4445cc552bfe", "lon": -77.1180295, "rental_uris": {"ios": "https://dc.lft.to/lastmile_qr_scan", "android": "https://dc.lft.to/lastmile_qr_scan"}}, {"name": "cbfa439c5cd1b69a16d12d6a04990b4a", "fusion_lat": 0.0, "type": "electric_scooter", "lat": 38.86372133333333, "is_reserved": 0, "is_disabled": 0, "fusion_lon": 0.0, "bike_id": "cbfa439c5cd1b69a16d12d6a04990b4a", "lon": -76.99059716666666, "rental_uris": {"ios": "https://dc.lft.to/lastmile_qr_scan", "android": "https://dc.lft.to/lastmile_qr_scan"}}, {"name": "ce9a65ef884facf2444cce52f66e0312", "fusion_lat": 0.0, "type": "electric_scooter", "lat": 38.92610916666667, "is_reserved": 0, "is_disabled": 0, "fusion_lon": 0.0, "bike_id": "ce9a65ef884facf2444cce52f66e0312", "lon": -77.02159316666666, "rental_uris": {"ios": "https://dc.lft.to/lastmile_qr_scan", "android": "https://dc.lft.to/lastmile_qr_scan"}}, {"name": "e21ca20c48d5adbc2cad5ad76d82fba2", "fusion_lat": 0.0, "type": "electric_scooter", "lat": 38.937345, "is_reserved": 0, "is_disabled": 0, "fusion_lon": 0.0, "bike_id": "e21ca20c48d5adbc2cad5ad76d82fba2", "lon": -77.03268916666667, "rental_uris": {"ios": "https://dc.lft.to/lastmile_qr_scan", "android": "https://dc.lft.to/lastmile_qr_scan"}}, {"name": "747cd313fd4716690a20e632d42a678c", "fusion_lat": 0.0, "type": "electric_scooter", "lat": 38.91662683333333, "is_reserved": 0, "is_disabled": 0, "fusion_lon": 0.0, "bike_id": "747cd313fd4716690a20e632d42a678c", "lon": -77.0230045, "rental_uris": {"ios": "https://dc.lft.to/lastmile_qr_scan", "android": "https://dc.lft.to/lastmile_qr_scan"}}, {"name": "25947726923b001c582749e7bb4caff9", "fusion_lat": 0.0, "type": "electric_scooter", "lat": 38.903626333333335, "is_reserved": 0, "is_disabled": 0, "fusion_lon": 0.0, "bike_id": "25947726923b001c582749e7bb4caff9", "lon": -77.05043066666667, "rental_uris": {"ios": "https://dc.lft.to/lastmile_qr_scan", "android": "https://dc.lft.to/lastmile_qr_scan"}}, {"name": "7f6b96d794f43c5b525164c4de540352", "fusion_lat": 0.0, "type": "electric_scooter", "lat": 38.909712666666664, "is_reserved": 0, "is_disabled": 0, "fusion_lon": 0.0, "bike_id": "7f6b96d794f43c5b525164c4de540352", "lon": -77.0171985, "rental_uris": {"ios": "https://dc.lft.to/lastmile_qr_scan", "android": "https://dc.lft.to/lastmile_qr_scan"}}, {"name": "51534e240b2b9c037303cd5442e740e8", "fusion_lat": 0.0, "type": "electric_scooter", "lat": 38.909851, "is_reserved": 0, "is_disabled": 0, "fusion_lon": 0.0, "bike_id": "51534e240b2b9c037303cd5442e740e8", "lon": -77.04257966666667, "rental_uris": {"ios": "https://dc.lft.to/lastmile_qr_scan", "android": "https://dc.lft.to/lastmile_qr_scan"}}, {"name": "5c312e2a9435f01ee3cc1f5e9772d606", "fusion_lat": 0.0, "type": "electric_scooter", "lat": 38.8358435, "is_reserved": 0, "is_disabled": 0, "fusion_lon": 0.0, "bike_id": "5c312e2a9435f01ee3cc1f5e9772d606", "lon": -76.99342883333334, "rental_uris": {"ios": "https://dc.lft.to/lastmile_qr_scan", "android": "https://dc.lft.to/lastmile_qr_scan"}}, {"name": "c96ce512f8d99a139c17c92f22b1de4c", "fusion_lat": 0.0, "type": "electric_bike", "lat": 38.998154666666665, "is_reserved": 0, "is_disabled": 0, "fusion_lon": 0.0, "bike_id": "c96ce512f8d99a139c17c92f22b1de4c", "lon": -76.88367783333334, "rental_uris": {"ios": "https://dc.lft.to/lastmile_qr_scan", "android": "https://dc.lft.to/lastmile_qr_scan"}}, {"name": "f4918abe4b3cc291762b6279207259b8", "fusion_lat": 0.0, "type": "electric_scooter", "lat": 38.91837, "is_reserved": 0, "is_disabled": 0, "fusion_lon": 0.0, "bike_id": "f4918abe4b3cc291762b6279207259b8", "lon": -77.02607516666667, "rental_uris": {"ios": "https://dc.lft.to/lastmile_qr_scan", "android": "https://dc.lft.to/lastmile_qr_scan"}}, {"name": "2c761f7a496af7a398b0cbed8a405166", "fusion_lat": 0.0, "type": "electric_bike", "lat": 38.86386366666667, "is_reserved": 0, "is_disabled": 0, "fusion_lon": 0.0, "bike_id": "2c761f7a496af7a398b0cbed8a405166", "lon": -76.98989066666667, "rental_uris": {"ios": "https://dc.lft.to/lastmile_qr_scan", "android": "https://dc.lft.to/lastmile_qr_scan"}}, {"name": "41e4a234af1a774e7f4b3649ba71837a", "fusion_lat": 0.0, "type": "electric_bike", "lat": 38.94890216666667, "is_reserved": 0, "is_disabled": 0, "fusion_lon": 0.0, "bike_id": "41e4a234af1a774e7f4b3649ba71837a", "lon": -76.96371016666667, "rental_uris": {"ios": "https://dc.lft.to/lastmile_qr_scan", "android": "https://dc.lft.to/lastmile_qr_scan"}}, {"name": "5fa426d9c2b4d17e23605e63f89b1474", "fusion_lat": 0.0, "type": "electric_scooter", "lat": 38.9012385, "is_reserved": 0, "is_disabled": 0, "fusion_lon": 0.0, "bike_id": "5fa426d9c2b4d17e23605e63f89b1474", "lon": -77.0498845, "rental_uris": {"ios": "https://dc.lft.to/lastmile_qr_scan", "android": "https://dc.lft.to/lastmile_qr_scan"}}, {"name": "4410e11fad41ec3e3bb0d06ad6341719", "fusion_lat": 0.0, "type": "electric_scooter", "lat": 38.903338, "is_reserved": 0, "is_disabled": 0, "fusion_lon": 0.0, "bike_id": "4410e11fad41ec3e3bb0d06ad6341719", "lon": -77.06650183333333, "rental_uris": {"ios": "https://dc.lft.to/lastmile_qr_scan", "android": "https://dc.lft.to/lastmile_qr_scan"}}, {"name": "087c343832a46663652db87a56c7bb50", "fusion_lat": 0.0, "type": "electric_bike", "lat": 38.94366766666667, "is_reserved": 0, "is_disabled": 0, "fusion_lon": 0.0, "bike_id": "087c343832a46663652db87a56c7bb50", "lon": -77.07749833333334, "rental_uris": {"ios": "https://dc.lft.to/lastmile_qr_scan", "android": "https://dc.lft.to/lastmile_qr_scan"}}, {"name": "2d83f4c4f99c6e7e81b96999abed71ac", "fusion_lat": 0.0, "type": "electric_scooter", "lat": 38.90351966666667, "is_reserved": 0, "is_disabled": 0, "fusion_lon": 0.0, "bike_id": "2d83f4c4f99c6e7e81b96999abed71ac", "lon": -77.01103966666666, "rental_uris": {"ios": "https://dc.lft.to/lastmile_qr_scan", "android": "https://dc.lft.to/lastmile_qr_scan"}}, {"name": "562bbb58a1e283f588c5649d72b56df5", "fusion_lat": 0.0, "type": "electric_scooter", "lat": 38.929024166666665, "is_reserved": 0, "is_disabled": 0, "fusion_lon": 0.0, "bike_id": "562bbb58a1e283f588c5649d72b56df5", "lon": -77.0545415, "rental_uris": {"ios": "https://dc.lft.to/lastmile_qr_scan", "android": "https://dc.lft.to/lastmile_qr_scan"}}, {"name": "dc3f73244db373e033565e9f35b14cd2", "fusion_lat": 0.0, "type": "electric_scooter", "lat": 38.92247, "is_reserved": 0, "is_disabled": 0, "fusion_lon": 0.0, "bike_id": "dc3f73244db373e033565e9f35b14cd2", "lon": -77.01948683333333, "rental_uris": {"ios": "https://dc.lft.to/lastmile_qr_scan", "android": "https://dc.lft.to/lastmile_qr_scan"}}, {"name": "0ba8bc8bbf268855799ec79077d08d38", "fusion_lat": 0.0, "type": "electric_scooter", "lat": 38.901270833333335, "is_reserved": 0, "is_disabled": 0, "fusion_lon": 0.0, "bike_id": "0ba8bc8bbf268855799ec79077d08d38", "lon": -77.03973833333333, "rental_uris": {"ios": "https://dc.lft.to/lastmile_qr_scan", "android": "https://dc.lft.to/lastmile_qr_scan"}}, {"name": "fff6f06054d4e82b8aed5d7b39db9a28", "fusion_lat": 0.0, "type": "electric_scooter", "lat": 38.94169183333333, "is_reserved": 0, "is_disabled": 0, "fusion_lon": 0.0, "bike_id": "fff6f06054d4e82b8aed5d7b39db9a28", "lon": -77.04133333333333, "rental_uris": {"ios": "https://dc.lft.to/lastmile_qr_scan", "android": "https://dc.lft.to/lastmile_qr_scan"}}, {"name": "803ecbcac44aa5876f5605a06abfd9f5", "fusion_lat": 0.0, "type": "electric_scooter", "lat": 38.9025505, "is_reserved": 0, "is_disabled": 0, "fusion_lon": 0.0, "bike_id": "803ecbcac44aa5876f5605a06abfd9f5", "lon": -77.03439966666667, "rental_uris": {"ios": "https://dc.lft.to/lastmile_qr_scan", "android": "https://dc.lft.to/lastmile_qr_scan"}}, {"name": "fb8e55d0c4621342e87ef6081dc5994f", "fusion_lat": 0.0, "type": "electric_scooter", "lat": 38.89875716666667, "is_reserved": 0, "is_disabled": 0, "fusion_lon": 0.0, "bike_id": "fb8e55d0c4621342e87ef6081dc5994f", "lon": -76.93159233333333, "rental_uris": {"ios": "https://dc.lft.to/lastmile_qr_scan", "android": "https://dc.lft.to/lastmile_qr_scan"}}, {"name": "2b91b9d1371f2d4a9970098f19dd93e4", "fusion_lat": 0.0, "type": "electric_scooter", "lat": 38.874152, "is_reserved": 0, "is_disabled": 0, "fusion_lon": 0.0, "bike_id": "2b91b9d1371f2d4a9970098f19dd93e4", "lon": -76.97178433333333, "rental_uris": {"ios": "https://dc.lft.to/lastmile_qr_scan", "android": "https://dc.lft.to/lastmile_qr_scan"}}, {"name": "d5fda7813385aa7ab4ec2eef9f3dba18", "fusion_lat": 0.0, "type": "electric_scooter", "lat": 38.9003025, "is_reserved": 0, "is_disabled": 0, "fusion_lon": 0.0, "bike_id": "d5fda7813385aa7ab4ec2eef9f3dba18", "lon": -77.01183716666667, "rental_uris": {"ios": "https://dc.lft.to/lastmile_qr_scan", "android": "https://dc.lft.to/lastmile_qr_scan"}}, {"name": "5eae897fd5223a8788e6b8590e78a879", "fusion_lat": 0.0, "type": "electric_bike", "lat": 38.9170415, "is_reserved": 0, "is_disabled": 0, "fusion_lon": 0.0, "bike_id": "5eae897fd5223a8788e6b8590e78a879", "lon": -76.98865216666667, "rental_uris": {"ios": "https://dc.lft.to/lastmile_qr_scan", "android": "https://dc.lft.to/lastmile_qr_scan"}}, {"name": "1be7847fbc07ceb3972f4c36acf6ce60", "fusion_lat": 0.0, "type": "electric_scooter", "lat": 38.942006, "is_reserved": 0, "is_disabled": 0, "fusion_lon": 0.0, "bike_id": "1be7847fbc07ceb3972f4c36acf6ce60", "lon": -77.02515116666666, "rental_uris": {"ios": "https://dc.lft.to/lastmile_qr_scan", "android": "https://dc.lft.to/lastmile_qr_scan"}}, {"name": "94c1a83ea96f595c683662c9a024fd52", "fusion_lat": 0.0, "type": "electric_scooter", "lat": 38.9032015, "is_reserved": 0, "is_disabled": 0, "fusion_lon": 0.0, "bike_id": "94c1a83ea96f595c683662c9a024fd52", "lon": -77.053286, "rental_uris": {"ios": "https://dc.lft.to/lastmile_qr_scan", "android": "https://dc.lft.to/lastmile_qr_scan"}}, {"name": "49e0dc88ea7efcfdae298ff0f35d2edf", "fusion_lat": 0.0, "type": "electric_scooter", "lat": 38.87679033333333, "is_reserved": 0, "is_disabled": 0, "fusion_lon": 0.0, "bike_id": "49e0dc88ea7efcfdae298ff0f35d2edf", "lon": -77.000614, "rental_uris": {"ios": "https://dc.lft.to/lastmile_qr_scan", "android": "https://dc.lft.to/lastmile_qr_scan"}}, {"name": "98295e67d34b299e0079221fc867a200", "fusion_lat": 0.0, "type": "electric_bike", "lat": 38.96537333333333, "is_reserved": 0, "is_disabled": 0, "fusion_lon": 0.0, "bike_id": "98295e67d34b299e0079221fc867a200", "lon": -77.03517633333334, "rental_uris": {"ios": "https://dc.lft.to/lastmile_qr_scan", "android": "https://dc.lft.to/lastmile_qr_scan"}}, {"name": "29cb09c700456e8f6ab4ccd47d14dc8d", "fusion_lat": 0.0, "type": "electric_scooter", "lat": 38.90284416666667, "is_reserved": 0, "is_disabled": 0, "fusion_lon": 0.0, "bike_id": "29cb09c700456e8f6ab4ccd47d14dc8d", "lon": -77.03847216666666, "rental_uris": {"ios": "https://dc.lft.to/lastmile_qr_scan", "android": "https://dc.lft.to/lastmile_qr_scan"}}, {"name": "632d1df06a119ff067912cbb9f5426d7", "fusion_lat": 0.0, "type": "electric_scooter", "lat": 38.920147, "is_reserved": 0, "is_disabled": 0, "fusion_lon": 0.0, "bike_id": "632d1df06a119ff067912cbb9f5426d7", "lon": -77.02599483333333, "rental_uris": {"ios": "https://dc.lft.to/lastmile_qr_scan", "android": "https://dc.lft.to/lastmile_qr_scan"}}, {"name": "18dc749308f6e75ec97483d1f1ba82d1", "fusion_lat": 0.0, "type": "electric_scooter", "lat": 38.89473266666667, "is_reserved": 0, "is_disabled": 0, "fusion_lon": 0.0, "bike_id": "18dc749308f6e75ec97483d1f1ba82d1", "lon": -77.02020533333334, "rental_uris": {"ios": "https://dc.lft.to/lastmile_qr_scan", "android": "https://dc.lft.to/lastmile_qr_scan"}}, {"name": "a6a595626cb1270f651b2bb6d23557a6", "fusion_lat": 0.0, "type": "electric_scooter", "lat": 38.9054905, "is_reserved": 0, "is_disabled": 0, "fusion_lon": 0.0, "bike_id": "a6a595626cb1270f651b2bb6d23557a6", "lon": -77.044966, "rental_uris": {"ios": "https://dc.lft.to/lastmile_qr_scan", "android": "https://dc.lft.to/lastmile_qr_scan"}}, {"name": "2ee799cbad12c44d3c04ad791e72cc69", "fusion_lat": 0.0, "type": "electric_scooter", "lat": 38.918017166666665, "is_reserved": 0, "is_disabled": 0, "fusion_lon": 0.0, "bike_id": "2ee799cbad12c44d3c04ad791e72cc69", "lon": -77.03213716666667, "rental_uris": {"ios": "https://dc.lft.to/lastmile_qr_scan", "android": "https://dc.lft.to/lastmile_qr_scan"}}, {"name": "e8d6b1dac9dca2178ebbda95eb253d4f", "fusion_lat": 0.0, "type": "electric_scooter", "lat": 38.9094945, "is_reserved": 0, "is_disabled": 0, "fusion_lon": 0.0, "bike_id": "e8d6b1dac9dca2178ebbda95eb253d4f", "lon": -77.04065166666666, "rental_uris": {"ios": "https://dc.lft.to/lastmile_qr_scan", "android": "https://dc.lft.to/lastmile_qr_scan"}}, {"name": "63afaf8870192a558dafbdc47614fd4f", "fusion_lat": 0.0, "type": "electric_scooter", "lat": 38.9355285, "is_reserved": 0, "is_disabled": 0, "fusion_lon": 0.0, "bike_id": "63afaf8870192a558dafbdc47614fd4f", "lon": -77.081884, "rental_uris": {"ios": "https://dc.lft.to/lastmile_qr_scan", "android": "https://dc.lft.to/lastmile_qr_scan"}}, {"name": "8fd4a1a7ba197640e15bfd04bf3e844c", "fusion_lat": 0.0, "type": "electric_scooter", "lat": 38.90362433333333, "is_reserved": 0, "is_disabled": 0, "fusion_lon": 0.0, "bike_id": "8fd4a1a7ba197640e15bfd04bf3e844c", "lon": -77.02051116666667, "rental_uris": {"ios": "https://dc.lft.to/lastmile_qr_scan", "android": "https://dc.lft.to/lastmile_qr_scan"}}, {"name": "73e8398512c10e4b3a0a945c8f45644f", "fusion_lat": 0.0, "type": "electric_scooter", "lat": 38.88410866666667, "is_reserved": 0, "is_disabled": 0, "fusion_lon": 0.0, "bike_id": "73e8398512c10e4b3a0a945c8f45644f", "lon": -76.9760025, "rental_uris": {"ios": "https://dc.lft.to/lastmile_qr_scan", "android": "https://dc.lft.to/lastmile_qr_scan"}}, {"name": "497293f2b70befea3a1e97179808d279", "fusion_lat": 0.0, "type": "electric_scooter", "lat": 38.89367383333333, "is_reserved": 0, "is_disabled": 0, "fusion_lon": 0.0, "bike_id": "497293f2b70befea3a1e97179808d279", "lon": -77.04791183333333, "rental_uris": {"ios": "https://dc.lft.to/lastmile_qr_scan", "android": "https://dc.lft.to/lastmile_qr_scan"}}, {"name": "e89af2ff0cd1423dc681f6fa6f38ae86", "fusion_lat": 0.0, "type": "electric_bike", "lat": 38.87527883333333, "is_reserved": 0, "is_disabled": 0, "fusion_lon": 0.0, "bike_id": "e89af2ff0cd1423dc681f6fa6f38ae86", "lon": -77.19907133333334, "rental_uris": {"ios": "https://dc.lft.to/lastmile_qr_scan", "android": "https://dc.lft.to/lastmile_qr_scan"}}, {"name": "43a45bb0b5723fe5a755cf347fa184f8", "fusion_lat": 0.0, "type": "electric_scooter", "lat": 38.89904716666667, "is_reserved": 0, "is_disabled": 0, "fusion_lon": 0.0, "bike_id": "43a45bb0b5723fe5a755cf347fa184f8", "lon": -76.93347933333334, "rental_uris": {"ios": "https://dc.lft.to/lastmile_qr_scan", "android": "https://dc.lft.to/lastmile_qr_scan"}}, {"name": "9d9fc3dceb1d3438d0692e2658ca3d6d", "fusion_lat": 0.0, "type": "electric_scooter", "lat": 38.86241483333333, "is_reserved": 0, "is_disabled": 0, "fusion_lon": 0.0, "bike_id": "9d9fc3dceb1d3438d0692e2658ca3d6d", "lon": -76.99496216666667, "rental_uris": {"ios": "https://dc.lft.to/lastmile_qr_scan", "android": "https://dc.lft.to/lastmile_qr_scan"}}, {"name": "9c5b76a6922823ec4093beb9f8d81dd0", "fusion_lat": 0.0, "type": "electric_scooter", "lat": 38.8983075, "is_reserved": 0, "is_disabled": 0, "fusion_lon": 0.0, "bike_id": "9c5b76a6922823ec4093beb9f8d81dd0", "lon": -77.02428316666666, "rental_uris": {"ios": "https://dc.lft.to/lastmile_qr_scan", "android": "https://dc.lft.to/lastmile_qr_scan"}}, {"name": "97290ba06966bb99c76fec9d24c70e2e", "fusion_lat": 0.0, "type": "electric_scooter", "lat": 38.92364233333333, "is_reserved": 0, "is_disabled": 0, "fusion_lon": 0.0, "bike_id": "97290ba06966bb99c76fec9d24c70e2e", "lon": -77.02989283333334, "rental_uris": {"ios": "https://dc.lft.to/lastmile_qr_scan", "android": "https://dc.lft.to/lastmile_qr_scan"}}, {"name": "17d2687db6aa4f73cabe133f26b05762", "fusion_lat": 0.0, "type": "electric_scooter", "lat": 38.894904833333335, "is_reserved": 0, "is_disabled": 0, "fusion_lon": 0.0, "bike_id": "17d2687db6aa4f73cabe133f26b05762", "lon": -77.00208716666667, "rental_uris": {"ios": "https://dc.lft.to/lastmile_qr_scan", "android": "https://dc.lft.to/lastmile_qr_scan"}}, {"name": "24ed8d92290244828b982d8b2ed8d2fa", "fusion_lat": 0.0, "type": "electric_bike", "lat": 38.85788816666667, "is_reserved": 0, "is_disabled": 0, "fusion_lon": 0.0, "bike_id": "24ed8d92290244828b982d8b2ed8d2fa", "lon": -77.09961316666667, "rental_uris": {"ios": "https://dc.lft.to/lastmile_qr_scan", "android": "https://dc.lft.to/lastmile_qr_scan"}}, {"name": "92f551a1ed447b3aa25ac83dee557d46", "fusion_lat": 0.0, "type": "electric_scooter", "lat": 38.9272075, "is_reserved": 0, "is_disabled": 0, "fusion_lon": 0.0, "bike_id": "92f551a1ed447b3aa25ac83dee557d46", "lon": -77.00565483333334, "rental_uris": {"ios": "https://dc.lft.to/lastmile_qr_scan", "android": "https://dc.lft.to/lastmile_qr_scan"}}, {"name": "03bc1567335fe663114eb771e51456ab", "fusion_lat": 0.0, "type": "electric_scooter", "lat": 38.892193166666665, "is_reserved": 0, "is_disabled": 0, "fusion_lon": 0.0, "bike_id": "03bc1567335fe663114eb771e51456ab", "lon": -77.02229216666667, "rental_uris": {"ios": "https://dc.lft.to/lastmile_qr_scan", "android": "https://dc.lft.to/lastmile_qr_scan"}}, {"name": "83a59047598dcbb56ccb0f1dae961891", "fusion_lat": 0.0, "type": "electric_scooter", "lat": 38.909633, "is_reserved": 0, "is_disabled": 0, "fusion_lon": 0.0, "bike_id": "83a59047598dcbb56ccb0f1dae961891", "lon": -77.04619266666667, "rental_uris": {"ios": "https://dc.lft.to/lastmile_qr_scan", "android": "https://dc.lft.to/lastmile_qr_scan"}}, {"name": "5f6faf80f897b4754120736547d157cd", "fusion_lat": 0.0, "type": "electric_bike", "lat": 39.09458383333333, "is_reserved": 0, "is_disabled": 0, "fusion_lon": 0.0, "bike_id": "5f6faf80f897b4754120736547d157cd", "lon": -77.14995466666667, "rental_uris": {"ios": "https://dc.lft.to/lastmile_qr_scan", "android": "https://dc.lft.to/lastmile_qr_scan"}}, {"name": "11f1a0696cf4f337e70d008f079aab03", "fusion_lat": 0.0, "type": "electric_scooter", "lat": 38.89224883333333, "is_reserved": 0, "is_disabled": 0, "fusion_lon": 0.0, "bike_id": "11f1a0696cf4f337e70d008f079aab03", "lon": -77.05001166666666, "rental_uris": {"ios": "https://dc.lft.to/lastmile_qr_scan", "android": "https://dc.lft.to/lastmile_qr_scan"}}, {"name": "c3caac530dcadc90422897a1b96db8fd", "fusion_lat": 0.0, "type": "electric_scooter", "lat": 38.92984083333333, "is_reserved": 0, "is_disabled": 0, "fusion_lon": 0.0, "bike_id": "c3caac530dcadc90422897a1b96db8fd", "lon": -77.03263616666666, "rental_uris": {"ios": "https://dc.lft.to/lastmile_qr_scan", "android": "https://dc.lft.to/lastmile_qr_scan"}}, {"name": "32f08e2ac4556a750f7e8aacb260201f", "fusion_lat": 0.0, "type": "electric_scooter", "lat": 38.906619, "is_reserved": 0, "is_disabled": 0, "fusion_lon": 0.0, "bike_id": "32f08e2ac4556a750f7e8aacb260201f", "lon": -77.07037583333333, "rental_uris": {"ios": "https://dc.lft.to/lastmile_qr_scan", "android": "https://dc.lft.to/lastmile_qr_scan"}}, {"name": "3672f91aaad34ecf4b2a51a1184c60cf", "fusion_lat": 0.0, "type": "electric_scooter", "lat": 38.883307, "is_reserved": 0, "is_disabled": 0, "fusion_lon": 0.0, "bike_id": "3672f91aaad34ecf4b2a51a1184c60cf", "lon": -77.01747916666666, "rental_uris": {"ios": "https://dc.lft.to/lastmile_qr_scan", "android": "https://dc.lft.to/lastmile_qr_scan"}}, {"name": "e2bf0a4f603fa47c0110592683cb2bc4", "fusion_lat": 0.0, "type": "electric_scooter", "lat": 38.93683083333333, "is_reserved": 0, "is_disabled": 0, "fusion_lon": 0.0, "bike_id": "e2bf0a4f603fa47c0110592683cb2bc4", "lon": -77.031657, "rental_uris": {"ios": "https://dc.lft.to/lastmile_qr_scan", "android": "https://dc.lft.to/lastmile_qr_scan"}}, {"name": "1c75a4de2f87d9940e3f8de8c3189039", "fusion_lat": 0.0, "type": "electric_scooter", "lat": 38.91257133333333, "is_reserved": 0, "is_disabled": 0, "fusion_lon": 0.0, "bike_id": "1c75a4de2f87d9940e3f8de8c3189039", "lon": -77.00953083333333, "rental_uris": {"ios": "https://dc.lft.to/lastmile_qr_scan", "android": "https://dc.lft.to/lastmile_qr_scan"}}, {"name": "0bd5b6b59f1f68db53d1ed55b76b09ce", "fusion_lat": 0.0, "type": "electric_bike", "lat": 38.9662185, "is_reserved": 0, "is_disabled": 0, "fusion_lon": 0.0, "bike_id": "0bd5b6b59f1f68db53d1ed55b76b09ce", "lon": -76.97668566666667, "rental_uris": {"ios": "https://dc.lft.to/lastmile_qr_scan", "android": "https://dc.lft.to/lastmile_qr_scan"}}, {"name": "27aa8a504df9eb2e6ee0852714a91d62", "fusion_lat": 0.0, "type": "electric_scooter", "lat": 38.935227833333336, "is_reserved": 0, "is_disabled": 0, "fusion_lon": 0.0, "bike_id": "27aa8a504df9eb2e6ee0852714a91d62", "lon": -77.02855383333333, "rental_uris": {"ios": "https://dc.lft.to/lastmile_qr_scan", "android": "https://dc.lft.to/lastmile_qr_scan"}}, {"name": "fefbcebb7797434b2bd96ac493b8be4a", "fusion_lat": 0.0, "type": "electric_bike", "lat": 38.894331666666666, "is_reserved": 0, "is_disabled": 0, "fusion_lon": 0.0, "bike_id": "fefbcebb7797434b2bd96ac493b8be4a", "lon": -76.9836155, "rental_uris": {"ios": "https://dc.lft.to/lastmile_qr_scan", "android": "https://dc.lft.to/lastmile_qr_scan"}}, {"name": "50e6b0108a1a31736c33f018b2832d67", "fusion_lat": 0.0, "type": "electric_scooter", "lat": 38.883604, "is_reserved": 0, "is_disabled": 0, "fusion_lon": 0.0, "bike_id": "50e6b0108a1a31736c33f018b2832d67", "lon": -77.03173433333333, "rental_uris": {"ios": "https://dc.lft.to/lastmile_qr_scan", "android": "https://dc.lft.to/lastmile_qr_scan"}}, {"name": "b69640b1c411dfd8cefc9a17755b3e23", "fusion_lat": 0.0, "type": "electric_scooter", "lat": 38.899822, "is_reserved": 0, "is_disabled": 0, "fusion_lon": 0.0, "bike_id": "b69640b1c411dfd8cefc9a17755b3e23", "lon": -77.00918983333334, "rental_uris": {"ios": "https://dc.lft.to/lastmile_qr_scan", "android": "https://dc.lft.to/lastmile_qr_scan"}}, {"name": "076139387c7fd04b70756a1adef0286a", "fusion_lat": 0.0, "type": "electric_scooter", "lat": 38.9052135, "is_reserved": 0, "is_disabled": 0, "fusion_lon": 0.0, "bike_id": "076139387c7fd04b70756a1adef0286a", "lon": -77.0504635, "rental_uris": {"ios": "https://dc.lft.to/lastmile_qr_scan", "android": "https://dc.lft.to/lastmile_qr_scan"}}, {"name": "230577cd6bd448526eac26f9f15d2a6b", "fusion_lat": 0.0, "type": "electric_scooter", "lat": 38.906711333333334, "is_reserved": 0, "is_disabled": 0, "fusion_lon": 0.0, "bike_id": "230577cd6bd448526eac26f9f15d2a6b", "lon": -76.97812466666667, "rental_uris": {"ios": "https://dc.lft.to/lastmile_qr_scan", "android": "https://dc.lft.to/lastmile_qr_scan"}}, {"name": "95e497930e542f5e3b92e3a39fa88395", "fusion_lat": 0.0, "type": "electric_scooter", "lat": 38.908607833333335, "is_reserved": 0, "is_disabled": 0, "fusion_lon": 0.0, "bike_id": "95e497930e542f5e3b92e3a39fa88395", "lon": -76.99952583333334, "rental_uris": {"ios": "https://dc.lft.to/lastmile_qr_scan", "android": "https://dc.lft.to/lastmile_qr_scan"}}, {"name": "14b4340ae4c89b8e5cc1898a6b6f1a45", "fusion_lat": 0.0, "type": "electric_scooter", "lat": 38.89003833333334, "is_reserved": 0, "is_disabled": 0, "fusion_lon": 0.0, "bike_id": "14b4340ae4c89b8e5cc1898a6b6f1a45", "lon": -77.04895766666667, "rental_uris": {"ios": "https://dc.lft.to/lastmile_qr_scan", "android": "https://dc.lft.to/lastmile_qr_scan"}}, {"name": "f470e98c09e1964e5b77d5c1e31ec4cd", "fusion_lat": 0.0, "type": "electric_scooter", "lat": 38.915955, "is_reserved": 0, "is_disabled": 0, "fusion_lon": 0.0, "bike_id": "f470e98c09e1964e5b77d5c1e31ec4cd", "lon": -77.041578, "rental_uris": {"ios": "https://dc.lft.to/lastmile_qr_scan", "android": "https://dc.lft.to/lastmile_qr_scan"}}, {"name": "81204172600c72a97881ba83857ccc3b", "fusion_lat": 0.0, "type": "electric_scooter", "lat": 38.91104683333333, "is_reserved": 0, "is_disabled": 0, "fusion_lon": 0.0, "bike_id": "81204172600c72a97881ba83857ccc3b", "lon": -77.049278, "rental_uris": {"ios": "https://dc.lft.to/lastmile_qr_scan", "android": "https://dc.lft.to/lastmile_qr_scan"}}, {"name": "55d0a600286acb51d0f1b1d7e42db982", "fusion_lat": 0.0, "type": "electric_bike", "lat": 38.955482833333335, "is_reserved": 0, "is_disabled": 0, "fusion_lon": 0.0, "bike_id": "55d0a600286acb51d0f1b1d7e42db982", "lon": -76.93536516666667, "rental_uris": {"ios": "https://dc.lft.to/lastmile_qr_scan", "android": "https://dc.lft.to/lastmile_qr_scan"}}, {"name": "c0948f65c8c26ccfbca0033ab71ca5ba", "fusion_lat": 0.0, "type": "electric_scooter", "lat": 38.9190045, "is_reserved": 0, "is_disabled": 0, "fusion_lon": 0.0, "bike_id": "c0948f65c8c26ccfbca0033ab71ca5ba", "lon": -77.03425166666666, "rental_uris": {"ios": "https://dc.lft.to/lastmile_qr_scan", "android": "https://dc.lft.to/lastmile_qr_scan"}}, {"name": "add16d94cc3758a0e2fd3515674676fc", "fusion_lat": 0.0, "type": "electric_scooter", "lat": 38.921685333333336, "is_reserved": 0, "is_disabled": 0, "fusion_lon": 0.0, "bike_id": "add16d94cc3758a0e2fd3515674676fc", "lon": -77.04240783333333, "rental_uris": {"ios": "https://dc.lft.to/lastmile_qr_scan", "android": "https://dc.lft.to/lastmile_qr_scan"}}, {"name": "8f5ec02de577a3e8617b5bb77703cb07", "fusion_lat": 0.0, "type": "electric_scooter", "lat": 38.90973266666666, "is_reserved": 0, "is_disabled": 0, "fusion_lon": 0.0, "bike_id": "8f5ec02de577a3e8617b5bb77703cb07", "lon": -77.04235333333334, "rental_uris": {"ios": "https://dc.lft.to/lastmile_qr_scan", "android": "https://dc.lft.to/lastmile_qr_scan"}}, {"name": "9dcf34a920b7100c4ff96dbb16ff88cf", "fusion_lat": 0.0, "type": "electric_bike", "lat": 38.83190333333334, "is_reserved": 0, "is_disabled": 0, "fusion_lon": 0.0, "bike_id": "9dcf34a920b7100c4ff96dbb16ff88cf", "lon": -77.0768215, "rental_uris": {"ios": "https://dc.lft.to/lastmile_qr_scan", "android": "https://dc.lft.to/lastmile_qr_scan"}}, {"name": "ea3c096d81745dcea75591ee75e980a5", "fusion_lat": 0.0, "type": "electric_scooter", "lat": 38.90113366666667, "is_reserved": 0, "is_disabled": 0, "fusion_lon": 0.0, "bike_id": "ea3c096d81745dcea75591ee75e980a5", "lon": -77.03988633333333, "rental_uris": {"ios": "https://dc.lft.to/lastmile_qr_scan", "android": "https://dc.lft.to/lastmile_qr_scan"}}, {"name": "80f8ee8e09c3e36f830ea2b3892af583", "fusion_lat": 0.0, "type": "electric_scooter", "lat": 38.896052166666664, "is_reserved": 0, "is_disabled": 0, "fusion_lon": 0.0, "bike_id": "80f8ee8e09c3e36f830ea2b3892af583", "lon": -77.0469195, "rental_uris": {"ios": "https://dc.lft.to/lastmile_qr_scan", "android": "https://dc.lft.to/lastmile_qr_scan"}}, {"name": "6fa093bb298d3ec3a6403e6739cba282", "fusion_lat": 0.0, "type": "electric_scooter", "lat": 38.92983916666667, "is_reserved": 0, "is_disabled": 0, "fusion_lon": 0.0, "bike_id": "6fa093bb298d3ec3a6403e6739cba282", "lon": -77.0325215, "rental_uris": {"ios": "https://dc.lft.to/lastmile_qr_scan", "android": "https://dc.lft.to/lastmile_qr_scan"}}, {"name": "4a1b041be4648fa7715a086764252eb1", "fusion_lat": 0.0, "type": "electric_scooter", "lat": 38.907787, "is_reserved": 0, "is_disabled": 0, "fusion_lon": 0.0, "bike_id": "4a1b041be4648fa7715a086764252eb1", "lon": -77.07250816666667, "rental_uris": {"ios": "https://dc.lft.to/lastmile_qr_scan", "android": "https://dc.lft.to/lastmile_qr_scan"}}, {"name": "7d7fd18aedde5afddffc60dabf13d36c", "fusion_lat": 0.0, "type": "electric_bike", "lat": 38.8919045, "is_reserved": 0, "is_disabled": 0, "fusion_lon": 0.0, "bike_id": "7d7fd18aedde5afddffc60dabf13d36c", "lon": -77.12260183333333, "rental_uris": {"ios": "https://dc.lft.to/lastmile_qr_scan", "android": "https://dc.lft.to/lastmile_qr_scan"}}, {"name": "7a08a67c91905047eebc8b515b78c8b2", "fusion_lat": 0.0, "type": "electric_bike", "lat": 38.81512016666667, "is_reserved": 0, "is_disabled": 0, "fusion_lon": 0.0, "bike_id": "7a08a67c91905047eebc8b515b78c8b2", "lon": -77.12652, "rental_uris": {"ios": "https://dc.lft.to/lastmile_qr_scan", "android": "https://dc.lft.to/lastmile_qr_scan"}}, {"name": "63c8463e4672366b87cc78756458e93a", "fusion_lat": 0.0, "type": "electric_scooter", "lat": 38.90514666666667, "is_reserved": 0, "is_disabled": 0, "fusion_lon": 0.0, "bike_id": "63c8463e4672366b87cc78756458e93a", "lon": -77.04741, "rental_uris": {"ios": "https://dc.lft.to/lastmile_qr_scan", "android": "https://dc.lft.to/lastmile_qr_scan"}}, {"name": "6438a67c141cf63ab3f62148ada74077", "fusion_lat": 0.0, "type": "electric_scooter", "lat": 38.89829616666667, "is_reserved": 0, "is_disabled": 0, "fusion_lon": 0.0, "bike_id": "6438a67c141cf63ab3f62148ada74077", "lon": -76.9464105, "rental_uris": {"ios": "https://dc.lft.to/lastmile_qr_scan", "android": "https://dc.lft.to/lastmile_qr_scan"}}, {"name": "b41b12dac940736c2355ceec3a711bac", "fusion_lat": 0.0, "type": "electric_scooter", "lat": 38.898156666666665, "is_reserved": 0, "is_disabled": 0, "fusion_lon": 0.0, "bike_id": "b41b12dac940736c2355ceec3a711bac", "lon": -77.00370566666666, "rental_uris": {"ios": "https://dc.lft.to/lastmile_qr_scan", "android": "https://dc.lft.to/lastmile_qr_scan"}}, {"name": "000e5b1b7a1cbe878585f2a0006d3261", "fusion_lat": 0.0, "type": "electric_scooter", "lat": 38.923637666666664, "is_reserved": 0, "is_disabled": 0, "fusion_lon": 0.0, "bike_id": "000e5b1b7a1cbe878585f2a0006d3261", "lon": -77.05027366666667, "rental_uris": {"ios": "https://dc.lft.to/lastmile_qr_scan", "android": "https://dc.lft.to/lastmile_qr_scan"}}, {"name": "96744fc45ac5df397eb4ecfb1616edc3", "fusion_lat": 0.0, "type": "electric_scooter", "lat": 38.880137833333336, "is_reserved": 0, "is_disabled": 0, "fusion_lon": 0.0, "bike_id": "96744fc45ac5df397eb4ecfb1616edc3", "lon": -76.9313105, "rental_uris": {"ios": "https://dc.lft.to/lastmile_qr_scan", "android": "https://dc.lft.to/lastmile_qr_scan"}}, {"name": "f046ff858498df55f6f866a0486d9a05", "fusion_lat": 0.0, "type": "electric_scooter", "lat": 38.8968405, "is_reserved": 0, "is_disabled": 0, "fusion_lon": 0.0, "bike_id": "f046ff858498df55f6f866a0486d9a05", "lon": -77.0119945, "rental_uris": {"ios": "https://dc.lft.to/lastmile_qr_scan", "android": "https://dc.lft.to/lastmile_qr_scan"}}, {"name": "410fc5f63ef9a31ba09081187aed1c8f", "fusion_lat": 0.0, "type": "electric_scooter", "lat": 38.89270916666667, "is_reserved": 0, "is_disabled": 0, "fusion_lon": 0.0, "bike_id": "410fc5f63ef9a31ba09081187aed1c8f", "lon": -77.05030466666666, "rental_uris": {"ios": "https://dc.lft.to/lastmile_qr_scan", "android": "https://dc.lft.to/lastmile_qr_scan"}}, {"name": "cd478151f4d9ab8b019e425e74a69f7f", "fusion_lat": 0.0, "type": "electric_scooter", "lat": 38.89185283333333, "is_reserved": 0, "is_disabled": 0, "fusion_lon": 0.0, "bike_id": "cd478151f4d9ab8b019e425e74a69f7f", "lon": -77.00333983333333, "rental_uris": {"ios": "https://dc.lft.to/lastmile_qr_scan", "android": "https://dc.lft.to/lastmile_qr_scan"}}, {"name": "7ded6a06c20802c3244280a539081732", "fusion_lat": 0.0, "type": "electric_scooter", "lat": 38.91057416666666, "is_reserved": 0, "is_disabled": 0, "fusion_lon": 0.0, "bike_id": "7ded6a06c20802c3244280a539081732", "lon": -77.045763, "rental_uris": {"ios": "https://dc.lft.to/lastmile_qr_scan", "android": "https://dc.lft.to/lastmile_qr_scan"}}, {"name": "7e5e10beeb1a7b867258141b31dd5640", "fusion_lat": 0.0, "type": "electric_scooter", "lat": 38.92978466666667, "is_reserved": 0, "is_disabled": 0, "fusion_lon": 0.0, "bike_id": "7e5e10beeb1a7b867258141b31dd5640", "lon": -77.02611283333333, "rental_uris": {"ios": "https://dc.lft.to/lastmile_qr_scan", "android": "https://dc.lft.to/lastmile_qr_scan"}}, {"name": "bf4b902fa516fc1692167cb65965ce9b", "fusion_lat": 0.0, "type": "electric_scooter", "lat": 38.94201266666666, "is_reserved": 0, "is_disabled": 0, "fusion_lon": 0.0, "bike_id": "bf4b902fa516fc1692167cb65965ce9b", "lon": -77.02513416666666, "rental_uris": {"ios": "https://dc.lft.to/lastmile_qr_scan", "android": "https://dc.lft.to/lastmile_qr_scan"}}, {"name": "ead3ce24ada72683f96aeecee21c1eab", "fusion_lat": 0.0, "type": "electric_scooter", "lat": 38.901332333333336, "is_reserved": 0, "is_disabled": 0, "fusion_lon": 0.0, "bike_id": "ead3ce24ada72683f96aeecee21c1eab", "lon": -77.03174016666667, "rental_uris": {"ios": "https://dc.lft.to/lastmile_qr_scan", "android": "https://dc.lft.to/lastmile_qr_scan"}}, {"name": "2f41dbaae44b950a2c7cdfc12e13d33f", "fusion_lat": 0.0, "type": "electric_scooter", "lat": 38.90819483333333, "is_reserved": 0, "is_disabled": 0, "fusion_lon": 0.0, "bike_id": "2f41dbaae44b950a2c7cdfc12e13d33f", "lon": -77.03669183333334, "rental_uris": {"ios": "https://dc.lft.to/lastmile_qr_scan", "android": "https://dc.lft.to/lastmile_qr_scan"}}, {"name": "113a8276f9475390e3517f6a9a18334e", "fusion_lat": 0.0, "type": "electric_scooter", "lat": 38.92835933333333, "is_reserved": 0, "is_disabled": 0, "fusion_lon": 0.0, "bike_id": "113a8276f9475390e3517f6a9a18334e", "lon": -77.05426033333333, "rental_uris": {"ios": "https://dc.lft.to/lastmile_qr_scan", "android": "https://dc.lft.to/lastmile_qr_scan"}}, {"name": "d7fdf470784d01a6764ea2e2fb9486b2", "fusion_lat": 0.0, "type": "electric_scooter", "lat": 38.89887083333333, "is_reserved": 0, "is_disabled": 0, "fusion_lon": 0.0, "bike_id": "d7fdf470784d01a6764ea2e2fb9486b2", "lon": -77.03276383333333, "rental_uris": {"ios": "https://dc.lft.to/lastmile_qr_scan", "android": "https://dc.lft.to/lastmile_qr_scan"}}, {"name": "5716d209b02ea3dac231b058e6c85cf2", "fusion_lat": 0.0, "type": "electric_scooter", "lat": 38.86501116666667, "is_reserved": 0, "is_disabled": 0, "fusion_lon": 0.0, "bike_id": "5716d209b02ea3dac231b058e6c85cf2", "lon": -76.99004916666667, "rental_uris": {"ios": "https://dc.lft.to/lastmile_qr_scan", "android": "https://dc.lft.to/lastmile_qr_scan"}}, {"name": "467e31ea58c5a69c383e4a7b0ff57c85", "fusion_lat": 0.0, "type": "electric_bike", "lat": 38.827257833333334, "is_reserved": 0, "is_disabled": 0, "fusion_lon": 0.0, "bike_id": "467e31ea58c5a69c383e4a7b0ff57c85", "lon": -77.00861383333333, "rental_uris": {"ios": "https://dc.lft.to/lastmile_qr_scan", "android": "https://dc.lft.to/lastmile_qr_scan"}}, {"name": "e049af223ce0e9c1ff853fe233a46fe4", "fusion_lat": 0.0, "type": "electric_scooter", "lat": 38.918914666666666, "is_reserved": 0, "is_disabled": 0, "fusion_lon": 0.0, "bike_id": "e049af223ce0e9c1ff853fe233a46fe4", "lon": -77.05287916666667, "rental_uris": {"ios": "https://dc.lft.to/lastmile_qr_scan", "android": "https://dc.lft.to/lastmile_qr_scan"}}, {"name": "24da7e0a03578f574405dc7a4fa2cc1b", "fusion_lat": 0.0, "type": "electric_scooter", "lat": 38.92613216666667, "is_reserved": 0, "is_disabled": 0, "fusion_lon": 0.0, "bike_id": "24da7e0a03578f574405dc7a4fa2cc1b", "lon": -77.021622, "rental_uris": {"ios": "https://dc.lft.to/lastmile_qr_scan", "android": "https://dc.lft.to/lastmile_qr_scan"}}, {"name": "a25a6d4721c825b29d646161c32029ed", "fusion_lat": 0.0, "type": "electric_scooter", "lat": 38.89492883333333, "is_reserved": 0, "is_disabled": 0, "fusion_lon": 0.0, "bike_id": "a25a6d4721c825b29d646161c32029ed", "lon": -77.02382733333333, "rental_uris": {"ios": "https://dc.lft.to/lastmile_qr_scan", "android": "https://dc.lft.to/lastmile_qr_scan"}}, {"name": "c4c946dd226b4fedf08aada358bf5cdb", "fusion_lat": 0.0, "type": "electric_scooter", "lat": 38.90563, "is_reserved": 0, "is_disabled": 0, "fusion_lon": 0.0, "bike_id": "c4c946dd226b4fedf08aada358bf5cdb", "lon": -77.005718, "rental_uris": {"ios": "https://dc.lft.to/lastmile_qr_scan", "android": "https://dc.lft.to/lastmile_qr_scan"}}, {"name": "8903374a9456c8584accc8406d6ee432", "fusion_lat": 0.0, "type": "electric_bike", "lat": 38.898452666666664, "is_reserved": 0, "is_disabled": 0, "fusion_lon": 0.0, "bike_id": "8903374a9456c8584accc8406d6ee432", "lon": -77.01732666666666, "rental_uris": {"ios": "https://dc.lft.to/lastmile_qr_scan", "android": "https://dc.lft.to/lastmile_qr_scan"}}, {"name": "8aef97a3e950be41db12acb38d2e7492", "fusion_lat": 0.0, "type": "electric_scooter", "lat": 38.89504016666667, "is_reserved": 0, "is_disabled": 0, "fusion_lon": 0.0, "bike_id": "8aef97a3e950be41db12acb38d2e7492", "lon": -76.94890166666667, "rental_uris": {"ios": "https://dc.lft.to/lastmile_qr_scan", "android": "https://dc.lft.to/lastmile_qr_scan"}}, {"name": "811d70f05ba59a5ca27a7f5281219f82", "fusion_lat": 0.0, "type": "electric_bike", "lat": 38.9353855, "is_reserved": 0, "is_disabled": 0, "fusion_lon": 0.0, "bike_id": "811d70f05ba59a5ca27a7f5281219f82", "lon": -77.07295616666667, "rental_uris": {"ios": "https://dc.lft.to/lastmile_qr_scan", "android": "https://dc.lft.to/lastmile_qr_scan"}}, {"name": "022bdbd92577861fb40d246a668c1525", "fusion_lat": 0.0, "type": "electric_bike", "lat": 38.9435765, "is_reserved": 0, "is_disabled": 0, "fusion_lon": 0.0, "bike_id": "022bdbd92577861fb40d246a668c1525", "lon": -77.003443, "rental_uris": {"ios": "https://dc.lft.to/lastmile_qr_scan", "android": "https://dc.lft.to/lastmile_qr_scan"}}, {"name": "f0438ed4bd76ccb5629338c929a79a5b", "fusion_lat": 0.0, "type": "electric_bike", "lat": 38.99221266666667, "is_reserved": 0, "is_disabled": 0, "fusion_lon": 0.0, "bike_id": "f0438ed4bd76ccb5629338c929a79a5b", "lon": -76.87818716666666, "rental_uris": {"ios": "https://dc.lft.to/lastmile_qr_scan", "android": "https://dc.lft.to/lastmile_qr_scan"}}, {"name": "d827558ae3a60f93b1579d2cbfb13b4d", "fusion_lat": 0.0, "type": "electric_scooter", "lat": 38.8848705, "is_reserved": 0, "is_disabled": 0, "fusion_lon": 0.0, "bike_id": "d827558ae3a60f93b1579d2cbfb13b4d", "lon": -77.00729033333333, "rental_uris": {"ios": "https://dc.lft.to/lastmile_qr_scan", "android": "https://dc.lft.to/lastmile_qr_scan"}}, {"name": "3e0731560f81fb7300f4f6a80fb977aa", "fusion_lat": 0.0, "type": "electric_scooter", "lat": 38.90829633333333, "is_reserved": 0, "is_disabled": 0, "fusion_lon": 0.0, "bike_id": "3e0731560f81fb7300f4f6a80fb977aa", "lon": -77.03190783333334, "rental_uris": {"ios": "https://dc.lft.to/lastmile_qr_scan", "android": "https://dc.lft.to/lastmile_qr_scan"}}, {"name": "7ba76fc7c7143f9df242aeab7fa3c7e5", "fusion_lat": 0.0, "type": "electric_scooter", "lat": 38.9111815, "is_reserved": 0, "is_disabled": 0, "fusion_lon": 0.0, "bike_id": "7ba76fc7c7143f9df242aeab7fa3c7e5", "lon": -77.03731466666666, "rental_uris": {"ios": "https://dc.lft.to/lastmile_qr_scan", "android": "https://dc.lft.to/lastmile_qr_scan"}}, {"name": "7e455366c745803262e6409de4ee1d72", "fusion_lat": 0.0, "type": "electric_scooter", "lat": 38.898442, "is_reserved": 0, "is_disabled": 0, "fusion_lon": 0.0, "bike_id": "7e455366c745803262e6409de4ee1d72", "lon": -77.04834166666667, "rental_uris": {"ios": "https://dc.lft.to/lastmile_qr_scan", "android": "https://dc.lft.to/lastmile_qr_scan"}}, {"name": "f270f2e18891b89616170dbfb3efe8de", "fusion_lat": 0.0, "type": "electric_scooter", "lat": 38.90761583333333, "is_reserved": 0, "is_disabled": 0, "fusion_lon": 0.0, "bike_id": "f270f2e18891b89616170dbfb3efe8de", "lon": -77.0434905, "rental_uris": {"ios": "https://dc.lft.to/lastmile_qr_scan", "android": "https://dc.lft.to/lastmile_qr_scan"}}, {"name": "73da1780e874306cb6975ae939f056e3", "fusion_lat": 0.0, "type": "electric_scooter", "lat": 38.920226166666666, "is_reserved": 0, "is_disabled": 0, "fusion_lon": 0.0, "bike_id": "73da1780e874306cb6975ae939f056e3", "lon": -77.0187865, "rental_uris": {"ios": "https://dc.lft.to/lastmile_qr_scan", "android": "https://dc.lft.to/lastmile_qr_scan"}}, {"name": "93abb8dbc58fa668c42ce86ec49eb798", "fusion_lat": 0.0, "type": "electric_scooter", "lat": 38.90136066666667, "is_reserved": 0, "is_disabled": 0, "fusion_lon": 0.0, "bike_id": "93abb8dbc58fa668c42ce86ec49eb798", "lon": -77.044927, "rental_uris": {"ios": "https://dc.lft.to/lastmile_qr_scan", "android": "https://dc.lft.to/lastmile_qr_scan"}}, {"name": "ae04a2e9ce135dbe209a096c299ee2f8", "fusion_lat": 0.0, "type": "electric_scooter", "lat": 38.88735766666667, "is_reserved": 0, "is_disabled": 0, "fusion_lon": 0.0, "bike_id": "ae04a2e9ce135dbe209a096c299ee2f8", "lon": -77.02213816666666, "rental_uris": {"ios": "https://dc.lft.to/lastmile_qr_scan", "android": "https://dc.lft.to/lastmile_qr_scan"}}, {"name": "e36ae4e479f5d9dd504dcb08595d6677", "fusion_lat": 0.0, "type": "electric_bike", "lat": 38.80224483333333, "is_reserved": 0, "is_disabled": 0, "fusion_lon": 0.0, "bike_id": "e36ae4e479f5d9dd504dcb08595d6677", "lon": -77.07917866666666, "rental_uris": {"ios": "https://dc.lft.to/lastmile_qr_scan", "android": "https://dc.lft.to/lastmile_qr_scan"}}, {"name": "7901909e592a27e39c64a304c0c43277", "fusion_lat": 0.0, "type": "electric_scooter", "lat": 38.906427666666666, "is_reserved": 0, "is_disabled": 0, "fusion_lon": 0.0, "bike_id": "7901909e592a27e39c64a304c0c43277", "lon": -77.0250175, "rental_uris": {"ios": "https://dc.lft.to/lastmile_qr_scan", "android": "https://dc.lft.to/lastmile_qr_scan"}}, {"name": "98496bfb57ce8643dba9b03ce3fb4085", "fusion_lat": 0.0, "type": "electric_scooter", "lat": 38.9033125, "is_reserved": 0, "is_disabled": 0, "fusion_lon": 0.0, "bike_id": "98496bfb57ce8643dba9b03ce3fb4085", "lon": -76.99854316666666, "rental_uris": {"ios": "https://dc.lft.to/lastmile_qr_scan", "android": "https://dc.lft.to/lastmile_qr_scan"}}, {"name": "9f9b1ee482db7f91772fcd39c974f4e9", "fusion_lat": 0.0, "type": "electric_scooter", "lat": 38.90245616666667, "is_reserved": 0, "is_disabled": 0, "fusion_lon": 0.0, "bike_id": "9f9b1ee482db7f91772fcd39c974f4e9", "lon": -77.04384916666666, "rental_uris": {"ios": "https://dc.lft.to/lastmile_qr_scan", "android": "https://dc.lft.to/lastmile_qr_scan"}}, {"name": "2cd8a14abd09b5d710ab226e59c246a7", "fusion_lat": 0.0, "type": "electric_scooter", "lat": 38.93879916666667, "is_reserved": 0, "is_disabled": 0, "fusion_lon": 0.0, "bike_id": "2cd8a14abd09b5d710ab226e59c246a7", "lon": -77.02470733333334, "rental_uris": {"ios": "https://dc.lft.to/lastmile_qr_scan", "android": "https://dc.lft.to/lastmile_qr_scan"}}, {"name": "9c17644753503e6a1044c074481d3f51", "fusion_lat": 0.0, "type": "electric_scooter", "lat": 38.8952115, "is_reserved": 0, "is_disabled": 0, "fusion_lon": 0.0, "bike_id": "9c17644753503e6a1044c074481d3f51", "lon": -77.0428835, "rental_uris": {"ios": "https://dc.lft.to/lastmile_qr_scan", "android": "https://dc.lft.to/lastmile_qr_scan"}}, {"name": "c79df32b7302dadebd75c876cb9189e2", "fusion_lat": 0.0, "type": "electric_scooter", "lat": 38.89970616666667, "is_reserved": 0, "is_disabled": 0, "fusion_lon": 0.0, "bike_id": "c79df32b7302dadebd75c876cb9189e2", "lon": -77.03162383333333, "rental_uris": {"ios": "https://dc.lft.to/lastmile_qr_scan", "android": "https://dc.lft.to/lastmile_qr_scan"}}, {"name": "e94e2efff2590b9698cd5b4f61b2a338", "fusion_lat": 0.0, "type": "electric_scooter", "lat": 38.934103666666665, "is_reserved": 0, "is_disabled": 0, "fusion_lon": 0.0, "bike_id": "e94e2efff2590b9698cd5b4f61b2a338", "lon": -77.07245883333333, "rental_uris": {"ios": "https://dc.lft.to/lastmile_qr_scan", "android": "https://dc.lft.to/lastmile_qr_scan"}}, {"name": "039e02177c31f700f9766403fa3fa952", "fusion_lat": 0.0, "type": "electric_scooter", "lat": 38.892193166666665, "is_reserved": 0, "is_disabled": 0, "fusion_lon": 0.0, "bike_id": "039e02177c31f700f9766403fa3fa952", "lon": -77.03090383333333, "rental_uris": {"ios": "https://dc.lft.to/lastmile_qr_scan", "android": "https://dc.lft.to/lastmile_qr_scan"}}, {"name": "d42a0370b5443434e54d1ebf41b47df5", "fusion_lat": 0.0, "type": "electric_scooter", "lat": 38.897215333333335, "is_reserved": 0, "is_disabled": 0, "fusion_lon": 0.0, "bike_id": "d42a0370b5443434e54d1ebf41b47df5", "lon": -77.03100966666666, "rental_uris": {"ios": "https://dc.lft.to/lastmile_qr_scan", "android": "https://dc.lft.to/lastmile_qr_scan"}}, {"name": "4021ba87f1cb6725d02fc43952e66658", "fusion_lat": 0.0, "type": "electric_scooter", "lat": 38.94441283333333, "is_reserved": 0, "is_disabled": 0, "fusion_lon": 0.0, "bike_id": "4021ba87f1cb6725d02fc43952e66658", "lon": -77.063531, "rental_uris": {"ios": "https://dc.lft.to/lastmile_qr_scan", "android": "https://dc.lft.to/lastmile_qr_scan"}}, {"name": "5b2aab4a58baa90da55ff520344aca10", "fusion_lat": 0.0, "type": "electric_scooter", "lat": 38.89729883333333, "is_reserved": 0, "is_disabled": 0, "fusion_lon": 0.0, "bike_id": "5b2aab4a58baa90da55ff520344aca10", "lon": -77.04710533333333, "rental_uris": {"ios": "https://dc.lft.to/lastmile_qr_scan", "android": "https://dc.lft.to/lastmile_qr_scan"}}, {"name": "75c18caf0203f8927cde9448dcca1513", "fusion_lat": 0.0, "type": "electric_scooter", "lat": 38.90739833333333, "is_reserved": 0, "is_disabled": 0, "fusion_lon": 0.0, "bike_id": "75c18caf0203f8927cde9448dcca1513", "lon": -77.032107, "rental_uris": {"ios": "https://dc.lft.to/lastmile_qr_scan", "android": "https://dc.lft.to/lastmile_qr_scan"}}, {"name": "aad58288efd0077f502bceacc234216c", "fusion_lat": 0.0, "type": "electric_scooter", "lat": 38.906781, "is_reserved": 0, "is_disabled": 0, "fusion_lon": 0.0, "bike_id": "aad58288efd0077f502bceacc234216c", "lon": -77.01093416666667, "rental_uris": {"ios": "https://dc.lft.to/lastmile_qr_scan", "android": "https://dc.lft.to/lastmile_qr_scan"}}, {"name": "9e3f0cf56902d5e7dd7f33c7185b6822", "fusion_lat": 0.0, "type": "electric_bike", "lat": 38.90681433333334, "is_reserved": 0, "is_disabled": 0, "fusion_lon": 0.0, "bike_id": "9e3f0cf56902d5e7dd7f33c7185b6822", "lon": -76.95190383333333, "rental_uris": {"ios": "https://dc.lft.to/lastmile_qr_scan", "android": "https://dc.lft.to/lastmile_qr_scan"}}, {"name": "e102028e7021208f2e6575b8ccd553ae", "fusion_lat": 0.0, "type": "electric_scooter", "lat": 38.91247933333333, "is_reserved": 0, "is_disabled": 0, "fusion_lon": 0.0, "bike_id": "e102028e7021208f2e6575b8ccd553ae", "lon": -77.03843116666667, "rental_uris": {"ios": "https://dc.lft.to/lastmile_qr_scan", "android": "https://dc.lft.to/lastmile_qr_scan"}}, {"name": "22cb81eaf2d817bd708d9812de9c6b04", "fusion_lat": 0.0, "type": "electric_scooter", "lat": 38.9037335, "is_reserved": 0, "is_disabled": 0, "fusion_lon": 0.0, "bike_id": "22cb81eaf2d817bd708d9812de9c6b04", "lon": -77.01099916666666, "rental_uris": {"ios": "https://dc.lft.to/lastmile_qr_scan", "android": "https://dc.lft.to/lastmile_qr_scan"}}, {"name": "30fa2253b7ce15c6eebb5b7a71c29656", "fusion_lat": 0.0, "type": "electric_bike", "lat": 38.850595, "is_reserved": 0, "is_disabled": 0, "fusion_lon": 0.0, "bike_id": "30fa2253b7ce15c6eebb5b7a71c29656", "lon": -76.97328433333334, "rental_uris": {"ios": "https://dc.lft.to/lastmile_qr_scan", "android": "https://dc.lft.to/lastmile_qr_scan"}}, {"name": "f6ffcbc8d38f0504300a0af62e551b0a", "fusion_lat": 0.0, "type": "electric_scooter", "lat": 38.92240666666667, "is_reserved": 0, "is_disabled": 0, "fusion_lon": 0.0, "bike_id": "f6ffcbc8d38f0504300a0af62e551b0a", "lon": -77.038923, "rental_uris": {"ios": "https://dc.lft.to/lastmile_qr_scan", "android": "https://dc.lft.to/lastmile_qr_scan"}}, {"name": "6eef728a47fe99063366510b0e5a8834", "fusion_lat": 0.0, "type": "electric_scooter", "lat": 38.913443666666666, "is_reserved": 0, "is_disabled": 0, "fusion_lon": 0.0, "bike_id": "6eef728a47fe99063366510b0e5a8834", "lon": -77.0456755, "rental_uris": {"ios": "https://dc.lft.to/lastmile_qr_scan", "android": "https://dc.lft.to/lastmile_qr_scan"}}, {"name": "725c8b42d128a812844b8119d696b741", "fusion_lat": 0.0, "type": "electric_scooter", "lat": 38.90316133333334, "is_reserved": 0, "is_disabled": 0, "fusion_lon": 0.0, "bike_id": "725c8b42d128a812844b8119d696b741", "lon": -77.03654366666666, "rental_uris": {"ios": "https://dc.lft.to/lastmile_qr_scan", "android": "https://dc.lft.to/lastmile_qr_scan"}}, {"name": "c65737658879cabb8a0c974e6d98f527", "fusion_lat": 0.0, "type": "electric_scooter", "lat": 38.903163, "is_reserved": 0, "is_disabled": 0, "fusion_lon": 0.0, "bike_id": "c65737658879cabb8a0c974e6d98f527", "lon": -77.0345565, "rental_uris": {"ios": "https://dc.lft.to/lastmile_qr_scan", "android": "https://dc.lft.to/lastmile_qr_scan"}}, {"name": "4378ba8d67be415a4b9ebdef6d991577", "fusion_lat": 0.0, "type": "electric_scooter", "lat": 38.9234135, "is_reserved": 0, "is_disabled": 0, "fusion_lon": 0.0, "bike_id": "4378ba8d67be415a4b9ebdef6d991577", "lon": -77.05097316666667, "rental_uris": {"ios": "https://dc.lft.to/lastmile_qr_scan", "android": "https://dc.lft.to/lastmile_qr_scan"}}, {"name": "f7c5931695a15f2694f3cffdb113fe93", "fusion_lat": 0.0, "type": "electric_scooter", "lat": 38.904135333333336, "is_reserved": 0, "is_disabled": 0, "fusion_lon": 0.0, "bike_id": "f7c5931695a15f2694f3cffdb113fe93", "lon": -77.0405295, "rental_uris": {"ios": "https://dc.lft.to/lastmile_qr_scan", "android": "https://dc.lft.to/lastmile_qr_scan"}}, {"name": "83b9dc2d237111fa8571ae5d4106cd03", "fusion_lat": 0.0, "type": "electric_scooter", "lat": 38.942210833333334, "is_reserved": 0, "is_disabled": 0, "fusion_lon": 0.0, "bike_id": "83b9dc2d237111fa8571ae5d4106cd03", "lon": -77.07682333333334, "rental_uris": {"ios": "https://dc.lft.to/lastmile_qr_scan", "android": "https://dc.lft.to/lastmile_qr_scan"}}, {"name": "e61e100a68470c5deb79f52512ad679d", "fusion_lat": 0.0, "type": "electric_scooter", "lat": 38.937735333333336, "is_reserved": 0, "is_disabled": 0, "fusion_lon": 0.0, "bike_id": "e61e100a68470c5deb79f52512ad679d", "lon": -77.03260133333333, "rental_uris": {"ios": "https://dc.lft.to/lastmile_qr_scan", "android": "https://dc.lft.to/lastmile_qr_scan"}}, {"name": "d50efeffcaddfe8ff3c9795d390bb964", "fusion_lat": 0.0, "type": "electric_scooter", "lat": 38.89621316666667, "is_reserved": 0, "is_disabled": 0, "fusion_lon": 0.0, "bike_id": "d50efeffcaddfe8ff3c9795d390bb964", "lon": -77.029878, "rental_uris": {"ios": "https://dc.lft.to/lastmile_qr_scan", "android": "https://dc.lft.to/lastmile_qr_scan"}}, {"name": "19071dc179b77a46320c231b62013211", "fusion_lat": 0.0, "type": "electric_scooter", "lat": 38.90691433333333, "is_reserved": 0, "is_disabled": 0, "fusion_lon": 0.0, "bike_id": "19071dc179b77a46320c231b62013211", "lon": -77.03192883333334, "rental_uris": {"ios": "https://dc.lft.to/lastmile_qr_scan", "android": "https://dc.lft.to/lastmile_qr_scan"}}, {"name": "4969ac9c784d99e9023dfb7cddd78c69", "fusion_lat": 0.0, "type": "electric_scooter", "lat": 38.89473516666666, "is_reserved": 0, "is_disabled": 0, "fusion_lon": 0.0, "bike_id": "4969ac9c784d99e9023dfb7cddd78c69", "lon": -76.98596, "rental_uris": {"ios": "https://dc.lft.to/lastmile_qr_scan", "android": "https://dc.lft.to/lastmile_qr_scan"}}, {"name": "92490f025267d9cf6d82029958460672", "fusion_lat": 0.0, "type": "electric_scooter", "lat": 38.91691566666667, "is_reserved": 0, "is_disabled": 0, "fusion_lon": 0.0, "bike_id": "92490f025267d9cf6d82029958460672", "lon": -77.00808883333333, "rental_uris": {"ios": "https://dc.lft.to/lastmile_qr_scan", "android": "https://dc.lft.to/lastmile_qr_scan"}}, {"name": "334bccd20b8f782b370bc4fcee792b84", "fusion_lat": 0.0, "type": "electric_scooter", "lat": 38.92530416666666, "is_reserved": 0, "is_disabled": 0, "fusion_lon": 0.0, "bike_id": "334bccd20b8f782b370bc4fcee792b84", "lon": -77.02637416666667, "rental_uris": {"ios": "https://dc.lft.to/lastmile_qr_scan", "android": "https://dc.lft.to/lastmile_qr_scan"}}, {"name": "6a23b64d907cda406e06f01be345c89b", "fusion_lat": 0.0, "type": "electric_scooter", "lat": 38.92887616666667, "is_reserved": 0, "is_disabled": 0, "fusion_lon": 0.0, "bike_id": "6a23b64d907cda406e06f01be345c89b", "lon": -77.02315433333334, "rental_uris": {"ios": "https://dc.lft.to/lastmile_qr_scan", "android": "https://dc.lft.to/lastmile_qr_scan"}}, {"name": "656015d6e179c23ca5e0845d3c0ce931", "fusion_lat": 0.0, "type": "electric_scooter", "lat": 38.92634066666667, "is_reserved": 0, "is_disabled": 0, "fusion_lon": 0.0, "bike_id": "656015d6e179c23ca5e0845d3c0ce931", "lon": -77.0369175, "rental_uris": {"ios": "https://dc.lft.to/lastmile_qr_scan", "android": "https://dc.lft.to/lastmile_qr_scan"}}, {"name": "ee4dd0002740c8c7e82088f17817bf63", "fusion_lat": 0.0, "type": "electric_scooter", "lat": 38.937608833333336, "is_reserved": 0, "is_disabled": 0, "fusion_lon": 0.0, "bike_id": "ee4dd0002740c8c7e82088f17817bf63", "lon": -77.0328485, "rental_uris": {"ios": "https://dc.lft.to/lastmile_qr_scan", "android": "https://dc.lft.to/lastmile_qr_scan"}}, {"name": "242c7f4319e7f57807db741a6124d009", "fusion_lat": 0.0, "type": "electric_scooter", "lat": 38.89960283333333, "is_reserved": 0, "is_disabled": 0, "fusion_lon": 0.0, "bike_id": "242c7f4319e7f57807db741a6124d009", "lon": -77.01494533333333, "rental_uris": {"ios": "https://dc.lft.to/lastmile_qr_scan", "android": "https://dc.lft.to/lastmile_qr_scan"}}, {"name": "51800edfb2bfe3dcb730571c7aba1258", "fusion_lat": 0.0, "type": "electric_scooter", "lat": 38.91269333333334, "is_reserved": 0, "is_disabled": 0, "fusion_lon": 0.0, "bike_id": "51800edfb2bfe3dcb730571c7aba1258", "lon": -77.03385216666666, "rental_uris": {"ios": "https://dc.lft.to/lastmile_qr_scan", "android": "https://dc.lft.to/lastmile_qr_scan"}}, {"name": "643c7ee1f007c8545a48c07bcb1ef7ec", "fusion_lat": 0.0, "type": "electric_scooter", "lat": 38.9025875, "is_reserved": 0, "is_disabled": 0, "fusion_lon": 0.0, "bike_id": "643c7ee1f007c8545a48c07bcb1ef7ec", "lon": -76.99602316666666, "rental_uris": {"ios": "https://dc.lft.to/lastmile_qr_scan", "android": "https://dc.lft.to/lastmile_qr_scan"}}, {"name": "9830a3242ee8b888731f692666a1ec20", "fusion_lat": 0.0, "type": "electric_scooter", "lat": 38.889137833333336, "is_reserved": 0, "is_disabled": 0, "fusion_lon": 0.0, "bike_id": "9830a3242ee8b888731f692666a1ec20", "lon": -76.95372, "rental_uris": {"ios": "https://dc.lft.to/lastmile_qr_scan", "android": "https://dc.lft.to/lastmile_qr_scan"}}, {"name": "0fa00039d06aa5edc772d443bc3d4f94", "fusion_lat": 0.0, "type": "electric_scooter", "lat": 38.891974833333336, "is_reserved": 0, "is_disabled": 0, "fusion_lon": 0.0, "bike_id": "0fa00039d06aa5edc772d443bc3d4f94", "lon": -77.0023445, "rental_uris": {"ios": "https://dc.lft.to/lastmile_qr_scan", "android": "https://dc.lft.to/lastmile_qr_scan"}}, {"name": "efd342dfafd6205206274cb9e84367a3", "fusion_lat": 0.0, "type": "electric_scooter", "lat": 38.902656, "is_reserved": 0, "is_disabled": 0, "fusion_lon": 0.0, "bike_id": "efd342dfafd6205206274cb9e84367a3", "lon": -77.0384055, "rental_uris": {"ios": "https://dc.lft.to/lastmile_qr_scan", "android": "https://dc.lft.to/lastmile_qr_scan"}}, {"name": "e9ebe00ff17edab8c1a129a4cb863225", "fusion_lat": 0.0, "type": "electric_scooter", "lat": 38.934729833333336, "is_reserved": 0, "is_disabled": 0, "fusion_lon": 0.0, "bike_id": "e9ebe00ff17edab8c1a129a4cb863225", "lon": -77.0284655, "rental_uris": {"ios": "https://dc.lft.to/lastmile_qr_scan", "android": "https://dc.lft.to/lastmile_qr_scan"}}, {"name": "8753cfb5b4e3acfa052f555c24df5df1", "fusion_lat": 0.0, "type": "electric_scooter", "lat": 38.934145666666666, "is_reserved": 0, "is_disabled": 0, "fusion_lon": 0.0, "bike_id": "8753cfb5b4e3acfa052f555c24df5df1", "lon": -77.07248683333333, "rental_uris": {"ios": "https://dc.lft.to/lastmile_qr_scan", "android": "https://dc.lft.to/lastmile_qr_scan"}}, {"name": "678c21c6baf7618cc1f49a4bd6c1b2fc", "fusion_lat": 0.0, "type": "electric_scooter", "lat": 38.911836666666666, "is_reserved": 0, "is_disabled": 0, "fusion_lon": 0.0, "bike_id": "678c21c6baf7618cc1f49a4bd6c1b2fc", "lon": -77.04541333333333, "rental_uris": {"ios": "https://dc.lft.to/lastmile_qr_scan", "android": "https://dc.lft.to/lastmile_qr_scan"}}, {"name": "f2de8561c52f3a622dba2b2620592bcf", "fusion_lat": 0.0, "type": "electric_scooter", "lat": 38.904781, "is_reserved": 0, "is_disabled": 0, "fusion_lon": 0.0, "bike_id": "f2de8561c52f3a622dba2b2620592bcf", "lon": -77.02938366666666, "rental_uris": {"ios": "https://dc.lft.to/lastmile_qr_scan", "android": "https://dc.lft.to/lastmile_qr_scan"}}, {"name": "d6a9a59b86f787af15bfd64bda634262", "fusion_lat": 0.0, "type": "electric_scooter", "lat": 38.923099, "is_reserved": 0, "is_disabled": 0, "fusion_lon": 0.0, "bike_id": "d6a9a59b86f787af15bfd64bda634262", "lon": -77.02979466666666, "rental_uris": {"ios": "https://dc.lft.to/lastmile_qr_scan", "android": "https://dc.lft.to/lastmile_qr_scan"}}, {"name": "57535e0e59f3f0fca6191cfdcd33770a", "fusion_lat": 0.0, "type": "electric_scooter", "lat": 38.9226175, "is_reserved": 0, "is_disabled": 0, "fusion_lon": 0.0, "bike_id": "57535e0e59f3f0fca6191cfdcd33770a", "lon": -77.03403983333334, "rental_uris": {"ios": "https://dc.lft.to/lastmile_qr_scan", "android": "https://dc.lft.to/lastmile_qr_scan"}}, {"name": "a11553f3563caf792807df657cb20278", "fusion_lat": 0.0, "type": "electric_scooter", "lat": 38.954047, "is_reserved": 0, "is_disabled": 0, "fusion_lon": 0.0, "bike_id": "a11553f3563caf792807df657cb20278", "lon": -77.02749566666667, "rental_uris": {"ios": "https://dc.lft.to/lastmile_qr_scan", "android": "https://dc.lft.to/lastmile_qr_scan"}}, {"name": "7d1d8434373f1ba0dd2034683e025af0", "fusion_lat": 0.0, "type": "electric_bike", "lat": 39.030371, "is_reserved": 0, "is_disabled": 0, "fusion_lon": 0.0, "bike_id": "7d1d8434373f1ba0dd2034683e025af0", "lon": -77.09480666666667, "rental_uris": {"ios": "https://dc.lft.to/lastmile_qr_scan", "android": "https://dc.lft.to/lastmile_qr_scan"}}, {"name": "65c67bd3a1ab7f9298b1c06b93e381fa", "fusion_lat": 0.0, "type": "electric_scooter", "lat": 38.90553366666666, "is_reserved": 0, "is_disabled": 0, "fusion_lon": 0.0, "bike_id": "65c67bd3a1ab7f9298b1c06b93e381fa", "lon": -77.04996633333333, "rental_uris": {"ios": "https://dc.lft.to/lastmile_qr_scan", "android": "https://dc.lft.to/lastmile_qr_scan"}}, {"name": "515f6b4433fb188ba177d1f6a99c188c", "fusion_lat": 0.0, "type": "electric_scooter", "lat": 38.90573633333333, "is_reserved": 0, "is_disabled": 0, "fusion_lon": 0.0, "bike_id": "515f6b4433fb188ba177d1f6a99c188c", "lon": -77.04072666666667, "rental_uris": {"ios": "https://dc.lft.to/lastmile_qr_scan", "android": "https://dc.lft.to/lastmile_qr_scan"}}, {"name": "9c86d640a8ac20703e9221ff194cfd83", "fusion_lat": 0.0, "type": "electric_bike", "lat": 38.89657483333333, "is_reserved": 0, "is_disabled": 0, "fusion_lon": 0.0, "bike_id": "9c86d640a8ac20703e9221ff194cfd83", "lon": -77.02586183333334, "rental_uris": {"ios": "https://dc.lft.to/lastmile_qr_scan", "android": "https://dc.lft.to/lastmile_qr_scan"}}, {"name": "f8261f842383bbed8ea6766dcd69c90a", "fusion_lat": 0.0, "type": "electric_scooter", "lat": 38.918403, "is_reserved": 0, "is_disabled": 0, "fusion_lon": 0.0, "bike_id": "f8261f842383bbed8ea6766dcd69c90a", "lon": -77.06145883333333, "rental_uris": {"ios": "https://dc.lft.to/lastmile_qr_scan", "android": "https://dc.lft.to/lastmile_qr_scan"}}, {"name": "cf51f6ce12fa59163cda8d56a646a5c9", "fusion_lat": 0.0, "type": "electric_scooter", "lat": 38.858444, "is_reserved": 0, "is_disabled": 0, "fusion_lon": 0.0, "bike_id": "cf51f6ce12fa59163cda8d56a646a5c9", "lon": -76.95884916666667, "rental_uris": {"ios": "https://dc.lft.to/lastmile_qr_scan", "android": "https://dc.lft.to/lastmile_qr_scan"}}, {"name": "f30cf59a43d18c2d5bf935ebf2f0a5d6", "fusion_lat": 0.0, "type": "electric_bike", "lat": 38.904957333333336, "is_reserved": 0, "is_disabled": 0, "fusion_lon": 0.0, "bike_id": "f30cf59a43d18c2d5bf935ebf2f0a5d6", "lon": -77.05926033333333, "rental_uris": {"ios": "https://dc.lft.to/lastmile_qr_scan", "android": "https://dc.lft.to/lastmile_qr_scan"}}, {"name": "629a1aa3a96d62249870a1f6f5b6e14b", "fusion_lat": 0.0, "type": "electric_bike", "lat": 38.942285166666665, "is_reserved": 0, "is_disabled": 0, "fusion_lon": 0.0, "bike_id": "629a1aa3a96d62249870a1f6f5b6e14b", "lon": -77.01386666666667, "rental_uris": {"ios": "https://dc.lft.to/lastmile_qr_scan", "android": "https://dc.lft.to/lastmile_qr_scan"}}, {"name": "2e7ce670431a00431a05175b995af6f8", "fusion_lat": 0.0, "type": "electric_scooter", "lat": 38.932906, "is_reserved": 0, "is_disabled": 0, "fusion_lon": 0.0, "bike_id": "2e7ce670431a00431a05175b995af6f8", "lon": -77.03981616666667, "rental_uris": {"ios": "https://dc.lft.to/lastmile_qr_scan", "android": "https://dc.lft.to/lastmile_qr_scan"}}, {"name": "f2d313c6202c22722e34a672d1e08532", "fusion_lat": 0.0, "type": "electric_scooter", "lat": 38.88679483333333, "is_reserved": 0, "is_disabled": 0, "fusion_lon": 0.0, "bike_id": "f2d313c6202c22722e34a672d1e08532", "lon": -76.957631, "rental_uris": {"ios": "https://dc.lft.to/lastmile_qr_scan", "android": "https://dc.lft.to/lastmile_qr_scan"}}, {"name": "5753fbaee5dd9924775c47592bf1da61", "fusion_lat": 0.0, "type": "electric_scooter", "lat": 38.91104683333333, "is_reserved": 0, "is_disabled": 0, "fusion_lon": 0.0, "bike_id": "5753fbaee5dd9924775c47592bf1da61", "lon": -77.0315065, "rental_uris": {"ios": "https://dc.lft.to/lastmile_qr_scan", "android": "https://dc.lft.to/lastmile_qr_scan"}}, {"name": "a5eb360acdbf3fb4c840d3b37da6b319", "fusion_lat": 0.0, "type": "electric_scooter", "lat": 38.907735333333335, "is_reserved": 0, "is_disabled": 0, "fusion_lon": 0.0, "bike_id": "a5eb360acdbf3fb4c840d3b37da6b319", "lon": -77.071661, "rental_uris": {"ios": "https://dc.lft.to/lastmile_qr_scan", "android": "https://dc.lft.to/lastmile_qr_scan"}}, {"name": "f4d605e7ec033df0126fb086677216fa", "fusion_lat": 0.0, "type": "electric_bike", "lat": 38.83818083333333, "is_reserved": 0, "is_disabled": 0, "fusion_lon": 0.0, "bike_id": "f4d605e7ec033df0126fb086677216fa", "lon": -76.99678166666666, "rental_uris": {"ios": "https://dc.lft.to/lastmile_qr_scan", "android": "https://dc.lft.to/lastmile_qr_scan"}}, {"name": "41c3c29510d51904adce3a469ecfcfd6", "fusion_lat": 0.0, "type": "electric_scooter", "lat": 38.8945125, "is_reserved": 0, "is_disabled": 0, "fusion_lon": 0.0, "bike_id": "41c3c29510d51904adce3a469ecfcfd6", "lon": -77.01922966666666, "rental_uris": {"ios": "https://dc.lft.to/lastmile_qr_scan", "android": "https://dc.lft.to/lastmile_qr_scan"}}, {"name": "b90dba7863f726fa1d40e56e285fcbe6", "fusion_lat": 0.0, "type": "electric_scooter", "lat": 38.937796666666664, "is_reserved": 0, "is_disabled": 0, "fusion_lon": 0.0, "bike_id": "b90dba7863f726fa1d40e56e285fcbe6", "lon": -77.0599675, "rental_uris": {"ios": "https://dc.lft.to/lastmile_qr_scan", "android": "https://dc.lft.to/lastmile_qr_scan"}}, {"name": "e9c5135ceb0ec6102d1f33bdb75c2cb7", "fusion_lat": 0.0, "type": "electric_scooter", "lat": 38.8973745, "is_reserved": 0, "is_disabled": 0, "fusion_lon": 0.0, "bike_id": "e9c5135ceb0ec6102d1f33bdb75c2cb7", "lon": -76.938475, "rental_uris": {"ios": "https://dc.lft.to/lastmile_qr_scan", "android": "https://dc.lft.to/lastmile_qr_scan"}}, {"name": "f7dc675843ea169b007ae1dd1c012059", "fusion_lat": 0.0, "type": "electric_scooter", "lat": 38.89480783333333, "is_reserved": 0, "is_disabled": 0, "fusion_lon": 0.0, "bike_id": "f7dc675843ea169b007ae1dd1c012059", "lon": -76.99515766666667, "rental_uris": {"ios": "https://dc.lft.to/lastmile_qr_scan", "android": "https://dc.lft.to/lastmile_qr_scan"}}, {"name": "a415f00e4e1e92b4476f8bf1951da0ae", "fusion_lat": 0.0, "type": "electric_scooter", "lat": 38.92150266666667, "is_reserved": 0, "is_disabled": 0, "fusion_lon": 0.0, "bike_id": "a415f00e4e1e92b4476f8bf1951da0ae", "lon": -77.04229833333333, "rental_uris": {"ios": "https://dc.lft.to/lastmile_qr_scan", "android": "https://dc.lft.to/lastmile_qr_scan"}}, {"name": "1bbf2efc30ccd95d81f0d2aa04fe53d2", "fusion_lat": 0.0, "type": "electric_scooter", "lat": 38.900376666666666, "is_reserved": 0, "is_disabled": 0, "fusion_lon": 0.0, "bike_id": "1bbf2efc30ccd95d81f0d2aa04fe53d2", "lon": -77.00209366666667, "rental_uris": {"ios": "https://dc.lft.to/lastmile_qr_scan", "android": "https://dc.lft.to/lastmile_qr_scan"}}, {"name": "a2cbc94f3db63f87a4eda13d795d1e81", "fusion_lat": 0.0, "type": "electric_scooter", "lat": 38.907227166666665, "is_reserved": 0, "is_disabled": 0, "fusion_lon": 0.0, "bike_id": "a2cbc94f3db63f87a4eda13d795d1e81", "lon": -77.03191916666667, "rental_uris": {"ios": "https://dc.lft.to/lastmile_qr_scan", "android": "https://dc.lft.to/lastmile_qr_scan"}}, {"name": "a6b50bcf64cce13888a8110cbd676a65", "fusion_lat": 0.0, "type": "electric_scooter", "lat": 38.8991485, "is_reserved": 0, "is_disabled": 0, "fusion_lon": 0.0, "bike_id": "a6b50bcf64cce13888a8110cbd676a65", "lon": -77.01497316666666, "rental_uris": {"ios": "https://dc.lft.to/lastmile_qr_scan", "android": "https://dc.lft.to/lastmile_qr_scan"}}, {"name": "8af86e3b8cb2f7bec091f2658504241e", "fusion_lat": 0.0, "type": "electric_scooter", "lat": 38.8620335, "is_reserved": 0, "is_disabled": 0, "fusion_lon": 0.0, "bike_id": "8af86e3b8cb2f7bec091f2658504241e", "lon": -76.99469033333334, "rental_uris": {"ios": "https://dc.lft.to/lastmile_qr_scan", "android": "https://dc.lft.to/lastmile_qr_scan"}}, {"name": "5b336cfe0be9cce27df754e7569fddee", "fusion_lat": 0.0, "type": "electric_scooter", "lat": 38.901217333333335, "is_reserved": 0, "is_disabled": 0, "fusion_lon": 0.0, "bike_id": "5b336cfe0be9cce27df754e7569fddee", "lon": -77.03186833333334, "rental_uris": {"ios": "https://dc.lft.to/lastmile_qr_scan", "android": "https://dc.lft.to/lastmile_qr_scan"}}, {"name": "2e249507051ca1f6c3e87c4a57540c17", "fusion_lat": 0.0, "type": "electric_bike", "lat": 38.8151235, "is_reserved": 0, "is_disabled": 0, "fusion_lon": 0.0, "bike_id": "2e249507051ca1f6c3e87c4a57540c17", "lon": -77.12659566666666, "rental_uris": {"ios": "https://dc.lft.to/lastmile_qr_scan", "android": "https://dc.lft.to/lastmile_qr_scan"}}, {"name": "7b42934f625d6e5f98116e7c99ddd9b7", "fusion_lat": 0.0, "type": "electric_scooter", "lat": 38.911879666666664, "is_reserved": 0, "is_disabled": 0, "fusion_lon": 0.0, "bike_id": "7b42934f625d6e5f98116e7c99ddd9b7", "lon": -77.03257716666667, "rental_uris": {"ios": "https://dc.lft.to/lastmile_qr_scan", "android": "https://dc.lft.to/lastmile_qr_scan"}}, {"name": "f4a31ca6207c627dec75255dc264d3d9", "fusion_lat": 0.0, "type": "electric_scooter", "lat": 38.928826, "is_reserved": 0, "is_disabled": 0, "fusion_lon": 0.0, "bike_id": "f4a31ca6207c627dec75255dc264d3d9", "lon": -77.032909, "rental_uris": {"ios": "https://dc.lft.to/lastmile_qr_scan", "android": "https://dc.lft.to/lastmile_qr_scan"}}, {"name": "175ae40c9c430f19c1a055c3f2843db8", "fusion_lat": 0.0, "type": "electric_scooter", "lat": 38.895505, "is_reserved": 0, "is_disabled": 0, "fusion_lon": 0.0, "bike_id": "175ae40c9c430f19c1a055c3f2843db8", "lon": -76.94882883333334, "rental_uris": {"ios": "https://dc.lft.to/lastmile_qr_scan", "android": "https://dc.lft.to/lastmile_qr_scan"}}, {"name": "0347385fd6d4773e59f1885aca46aeea", "fusion_lat": 0.0, "type": "electric_scooter", "lat": 38.923264833333334, "is_reserved": 0, "is_disabled": 0, "fusion_lon": 0.0, "bike_id": "0347385fd6d4773e59f1885aca46aeea", "lon": -77.04303266666666, "rental_uris": {"ios": "https://dc.lft.to/lastmile_qr_scan", "android": "https://dc.lft.to/lastmile_qr_scan"}}, {"name": "0e8059fcb1ffcb78d3fb6dd9341110d5", "fusion_lat": 0.0, "type": "electric_scooter", "lat": 38.90441883333333, "is_reserved": 0, "is_disabled": 0, "fusion_lon": 0.0, "bike_id": "0e8059fcb1ffcb78d3fb6dd9341110d5", "lon": -76.99620983333334, "rental_uris": {"ios": "https://dc.lft.to/lastmile_qr_scan", "android": "https://dc.lft.to/lastmile_qr_scan"}}, {"name": "00f9f5973cd812774d6234a8f2156f0c", "fusion_lat": 0.0, "type": "electric_scooter", "lat": 38.880630833333335, "is_reserved": 0, "is_disabled": 0, "fusion_lon": 0.0, "bike_id": "00f9f5973cd812774d6234a8f2156f0c", "lon": -76.93533983333333, "rental_uris": {"ios": "https://dc.lft.to/lastmile_qr_scan", "android": "https://dc.lft.to/lastmile_qr_scan"}}, {"name": "b911ea186bdc623d17c8c76e52276acb", "fusion_lat": 0.0, "type": "electric_scooter", "lat": 38.895814333333334, "is_reserved": 0, "is_disabled": 0, "fusion_lon": 0.0, "bike_id": "b911ea186bdc623d17c8c76e52276acb", "lon": -76.93719433333334, "rental_uris": {"ios": "https://dc.lft.to/lastmile_qr_scan", "android": "https://dc.lft.to/lastmile_qr_scan"}}, {"name": "bdb0051fc0f97e6ba86e72225b3fac45", "fusion_lat": 0.0, "type": "electric_scooter", "lat": 38.877495833333334, "is_reserved": 0, "is_disabled": 0, "fusion_lon": 0.0, "bike_id": "bdb0051fc0f97e6ba86e72225b3fac45", "lon": -76.99423133333333, "rental_uris": {"ios": "https://dc.lft.to/lastmile_qr_scan", "android": "https://dc.lft.to/lastmile_qr_scan"}}, {"name": "559a3fd9246af0b1319fabf83784253d", "fusion_lat": 0.0, "type": "electric_scooter", "lat": 38.909727, "is_reserved": 0, "is_disabled": 0, "fusion_lon": 0.0, "bike_id": "559a3fd9246af0b1319fabf83784253d", "lon": -77.04552616666666, "rental_uris": {"ios": "https://dc.lft.to/lastmile_qr_scan", "android": "https://dc.lft.to/lastmile_qr_scan"}}, {"name": "1806d1ddc7c838f132b56cc0d08ad8ce", "fusion_lat": 0.0, "type": "electric_scooter", "lat": 38.9031505, "is_reserved": 0, "is_disabled": 0, "fusion_lon": 0.0, "bike_id": "1806d1ddc7c838f132b56cc0d08ad8ce", "lon": -77.03482266666667, "rental_uris": {"ios": "https://dc.lft.to/lastmile_qr_scan", "android": "https://dc.lft.to/lastmile_qr_scan"}}, {"name": "e74319ed71e79db40fbd068ef5093804", "fusion_lat": 0.0, "type": "electric_scooter", "lat": 38.856112333333336, "is_reserved": 0, "is_disabled": 0, "fusion_lon": 0.0, "bike_id": "e74319ed71e79db40fbd068ef5093804", "lon": -76.98018983333333, "rental_uris": {"ios": "https://dc.lft.to/lastmile_qr_scan", "android": "https://dc.lft.to/lastmile_qr_scan"}}, {"name": "e707837bc3700d7ad67bc7d2f18f487c", "fusion_lat": 0.0, "type": "electric_scooter", "lat": 38.909969, "is_reserved": 0, "is_disabled": 0, "fusion_lon": 0.0, "bike_id": "e707837bc3700d7ad67bc7d2f18f487c", "lon": -76.994112, "rental_uris": {"ios": "https://dc.lft.to/lastmile_qr_scan", "android": "https://dc.lft.to/lastmile_qr_scan"}}, {"name": "1ef9da35f33a74073603f8f73971155b", "fusion_lat": 0.0, "type": "electric_scooter", "lat": 38.90662016666667, "is_reserved": 0, "is_disabled": 0, "fusion_lon": 0.0, "bike_id": "1ef9da35f33a74073603f8f73971155b", "lon": -77.00585816666667, "rental_uris": {"ios": "https://dc.lft.to/lastmile_qr_scan", "android": "https://dc.lft.to/lastmile_qr_scan"}}, {"name": "6332422f3e3b536945e7ef008ce4cb55", "fusion_lat": 0.0, "type": "electric_scooter", "lat": 38.898506166666664, "is_reserved": 0, "is_disabled": 0, "fusion_lon": 0.0, "bike_id": "6332422f3e3b536945e7ef008ce4cb55", "lon": -77.03172466666666, "rental_uris": {"ios": "https://dc.lft.to/lastmile_qr_scan", "android": "https://dc.lft.to/lastmile_qr_scan"}}, {"name": "092868b365888f0232556dfe6375b5da", "fusion_lat": 0.0, "type": "electric_scooter", "lat": 38.84290216666667, "is_reserved": 0, "is_disabled": 0, "fusion_lon": 0.0, "bike_id": "092868b365888f0232556dfe6375b5da", "lon": -76.99948883333333, "rental_uris": {"ios": "https://dc.lft.to/lastmile_qr_scan", "android": "https://dc.lft.to/lastmile_qr_scan"}}, {"name": "3f38732dd22aeea8044c8c89a734e3dd", "fusion_lat": 0.0, "type": "electric_scooter", "lat": 38.91261, "is_reserved": 0, "is_disabled": 0, "fusion_lon": 0.0, "bike_id": "3f38732dd22aeea8044c8c89a734e3dd", "lon": -77.06083066666666, "rental_uris": {"ios": "https://dc.lft.to/lastmile_qr_scan", "android": "https://dc.lft.to/lastmile_qr_scan"}}, {"name": "89080e9b8b6c9427152ee73ab053ae0a", "fusion_lat": 0.0, "type": "electric_scooter", "lat": 38.912113, "is_reserved": 0, "is_disabled": 0, "fusion_lon": 0.0, "bike_id": "89080e9b8b6c9427152ee73ab053ae0a", "lon": -77.076093, "rental_uris": {"ios": "https://dc.lft.to/lastmile_qr_scan", "android": "https://dc.lft.to/lastmile_qr_scan"}}, {"name": "98ba77201b464a5f4439a1883fec9948", "fusion_lat": 0.0, "type": "electric_bike", "lat": 38.920026666666665, "is_reserved": 0, "is_disabled": 0, "fusion_lon": 0.0, "bike_id": "98ba77201b464a5f4439a1883fec9948", "lon": -76.97492083333333, "rental_uris": {"ios": "https://dc.lft.to/lastmile_qr_scan", "android": "https://dc.lft.to/lastmile_qr_scan"}}, {"name": "e77961a931f11977e2b011f36ece5a03", "fusion_lat": 0.0, "type": "electric_scooter", "lat": 38.918234, "is_reserved": 0, "is_disabled": 0, "fusion_lon": 0.0, "bike_id": "e77961a931f11977e2b011f36ece5a03", "lon": -77.0120895, "rental_uris": {"ios": "https://dc.lft.to/lastmile_qr_scan", "android": "https://dc.lft.to/lastmile_qr_scan"}}, {"name": "8087672822818a78178b32447a777864", "fusion_lat": 0.0, "type": "electric_scooter", "lat": 38.885004333333335, "is_reserved": 0, "is_disabled": 0, "fusion_lon": 0.0, "bike_id": "8087672822818a78178b32447a777864", "lon": -77.02206533333333, "rental_uris": {"ios": "https://dc.lft.to/lastmile_qr_scan", "android": "https://dc.lft.to/lastmile_qr_scan"}}, {"name": "c1c04463e16f0cd41bce7fed5ccb120c", "fusion_lat": 0.0, "type": "electric_scooter", "lat": 38.909582, "is_reserved": 0, "is_disabled": 0, "fusion_lon": 0.0, "bike_id": "c1c04463e16f0cd41bce7fed5ccb120c", "lon": -77.03865216666667, "rental_uris": {"ios": "https://dc.lft.to/lastmile_qr_scan", "android": "https://dc.lft.to/lastmile_qr_scan"}}, {"name": "ca78e89ae114dbe6d9e3cea30b9b84d3", "fusion_lat": 0.0, "type": "electric_scooter", "lat": 38.924818333333334, "is_reserved": 0, "is_disabled": 0, "fusion_lon": 0.0, "bike_id": "ca78e89ae114dbe6d9e3cea30b9b84d3", "lon": -77.0521575, "rental_uris": {"ios": "https://dc.lft.to/lastmile_qr_scan", "android": "https://dc.lft.to/lastmile_qr_scan"}}, {"name": "8561bf8167fd9efced8306528057662d", "fusion_lat": 0.0, "type": "electric_scooter", "lat": 38.8851255, "is_reserved": 0, "is_disabled": 0, "fusion_lon": 0.0, "bike_id": "8561bf8167fd9efced8306528057662d", "lon": -77.03352033333333, "rental_uris": {"ios": "https://dc.lft.to/lastmile_qr_scan", "android": "https://dc.lft.to/lastmile_qr_scan"}}, {"name": "411b74333cfaec91f0403ebcc81d8f18", "fusion_lat": 0.0, "type": "electric_scooter", "lat": 38.917456666666666, "is_reserved": 0, "is_disabled": 0, "fusion_lon": 0.0, "bike_id": "411b74333cfaec91f0403ebcc81d8f18", "lon": -77.03643916666667, "rental_uris": {"ios": "https://dc.lft.to/lastmile_qr_scan", "android": "https://dc.lft.to/lastmile_qr_scan"}}, {"name": "5a9cdfc93a276f7f568506af7a6b2980", "fusion_lat": 0.0, "type": "electric_scooter", "lat": 38.91846366666667, "is_reserved": 0, "is_disabled": 0, "fusion_lon": 0.0, "bike_id": "5a9cdfc93a276f7f568506af7a6b2980", "lon": -77.044545, "rental_uris": {"ios": "https://dc.lft.to/lastmile_qr_scan", "android": "https://dc.lft.to/lastmile_qr_scan"}}, {"name": "5846c6e671b5f92339e595aa67eb8623", "fusion_lat": 0.0, "type": "electric_scooter", "lat": 38.903422666666664, "is_reserved": 0, "is_disabled": 0, "fusion_lon": 0.0, "bike_id": "5846c6e671b5f92339e595aa67eb8623", "lon": -76.97565366666667, "rental_uris": {"ios": "https://dc.lft.to/lastmile_qr_scan", "android": "https://dc.lft.to/lastmile_qr_scan"}}, {"name": "a65cf9459f0154fe46a726186b9944d8", "fusion_lat": 0.0, "type": "electric_scooter", "lat": 38.91725266666667, "is_reserved": 0, "is_disabled": 0, "fusion_lon": 0.0, "bike_id": "a65cf9459f0154fe46a726186b9944d8", "lon": -77.00009366666667, "rental_uris": {"ios": "https://dc.lft.to/lastmile_qr_scan", "android": "https://dc.lft.to/lastmile_qr_scan"}}, {"name": "142835378a201be0702308ec5fae57fc", "fusion_lat": 0.0, "type": "electric_scooter", "lat": 38.8982565, "is_reserved": 0, "is_disabled": 0, "fusion_lon": 0.0, "bike_id": "142835378a201be0702308ec5fae57fc", "lon": -77.0334515, "rental_uris": {"ios": "https://dc.lft.to/lastmile_qr_scan", "android": "https://dc.lft.to/lastmile_qr_scan"}}, {"name": "78b85c4d036dc7334708bb93d1444641", "fusion_lat": 0.0, "type": "electric_scooter", "lat": 38.90010216666667, "is_reserved": 0, "is_disabled": 0, "fusion_lon": 0.0, "bike_id": "78b85c4d036dc7334708bb93d1444641", "lon": -77.044918, "rental_uris": {"ios": "https://dc.lft.to/lastmile_qr_scan", "android": "https://dc.lft.to/lastmile_qr_scan"}}, {"name": "b0430c70d9ed76d69f33525ad3ad2269", "fusion_lat": 0.0, "type": "electric_scooter", "lat": 38.919098166666664, "is_reserved": 0, "is_disabled": 0, "fusion_lon": 0.0, "bike_id": "b0430c70d9ed76d69f33525ad3ad2269", "lon": -77.02136516666667, "rental_uris": {"ios": "https://dc.lft.to/lastmile_qr_scan", "android": "https://dc.lft.to/lastmile_qr_scan"}}, {"name": "128f42f16d76bfda26aa742ed90ac7c9", "fusion_lat": 0.0, "type": "electric_scooter", "lat": 38.911067, "is_reserved": 0, "is_disabled": 0, "fusion_lon": 0.0, "bike_id": "128f42f16d76bfda26aa742ed90ac7c9", "lon": -77.03146833333334, "rental_uris": {"ios": "https://dc.lft.to/lastmile_qr_scan", "android": "https://dc.lft.to/lastmile_qr_scan"}}, {"name": "3988540fde8540ab8ed113eb07e0ebd4", "fusion_lat": 0.0, "type": "electric_scooter", "lat": 38.880038166666665, "is_reserved": 0, "is_disabled": 0, "fusion_lon": 0.0, "bike_id": "3988540fde8540ab8ed113eb07e0ebd4", "lon": -76.98541883333333, "rental_uris": {"ios": "https://dc.lft.to/lastmile_qr_scan", "android": "https://dc.lft.to/lastmile_qr_scan"}}, {"name": "cb9e07e87abdc485cf4a8e0b8f1df0a5", "fusion_lat": 0.0, "type": "electric_scooter", "lat": 38.91235266666666, "is_reserved": 0, "is_disabled": 0, "fusion_lon": 0.0, "bike_id": "cb9e07e87abdc485cf4a8e0b8f1df0a5", "lon": -77.0384425, "rental_uris": {"ios": "https://dc.lft.to/lastmile_qr_scan", "android": "https://dc.lft.to/lastmile_qr_scan"}}, {"name": "a8b8be854f90214e9bc0b8fef4916e1e", "fusion_lat": 0.0, "type": "electric_bike", "lat": 38.86266716666667, "is_reserved": 0, "is_disabled": 0, "fusion_lon": 0.0, "bike_id": "a8b8be854f90214e9bc0b8fef4916e1e", "lon": -77.05964533333334, "rental_uris": {"ios": "https://dc.lft.to/lastmile_qr_scan", "android": "https://dc.lft.to/lastmile_qr_scan"}}, {"name": "46ba9c7ea01d07500787e1c625b07e6e", "fusion_lat": 0.0, "type": "electric_scooter", "lat": 38.900579, "is_reserved": 0, "is_disabled": 0, "fusion_lon": 0.0, "bike_id": "46ba9c7ea01d07500787e1c625b07e6e", "lon": -77.050245, "rental_uris": {"ios": "https://dc.lft.to/lastmile_qr_scan", "android": "https://dc.lft.to/lastmile_qr_scan"}}, {"name": "e319046151cb2783d5b40bd1c05ff5ae", "fusion_lat": 0.0, "type": "electric_scooter", "lat": 38.89587816666667, "is_reserved": 0, "is_disabled": 0, "fusion_lon": 0.0, "bike_id": "e319046151cb2783d5b40bd1c05ff5ae", "lon": -76.99361566666667, "rental_uris": {"ios": "https://dc.lft.to/lastmile_qr_scan", "android": "https://dc.lft.to/lastmile_qr_scan"}}, {"name": "aabe0e3879c9cc47f90658522001ccb2", "fusion_lat": 0.0, "type": "electric_scooter", "lat": 38.91267966666667, "is_reserved": 0, "is_disabled": 0, "fusion_lon": 0.0, "bike_id": "aabe0e3879c9cc47f90658522001ccb2", "lon": -77.038267, "rental_uris": {"ios": "https://dc.lft.to/lastmile_qr_scan", "android": "https://dc.lft.to/lastmile_qr_scan"}}, {"name": "01e8d7a987e34a11bb520b887b977348", "fusion_lat": 0.0, "type": "electric_scooter", "lat": 38.92975883333333, "is_reserved": 0, "is_disabled": 0, "fusion_lon": 0.0, "bike_id": "01e8d7a987e34a11bb520b887b977348", "lon": -77.014512, "rental_uris": {"ios": "https://dc.lft.to/lastmile_qr_scan", "android": "https://dc.lft.to/lastmile_qr_scan"}}, {"name": "af7698080d910cc3105d7b8f384d4529", "fusion_lat": 0.0, "type": "electric_scooter", "lat": 38.88837266666667, "is_reserved": 0, "is_disabled": 0, "fusion_lon": 0.0, "bike_id": "af7698080d910cc3105d7b8f384d4529", "lon": -77.04907433333334, "rental_uris": {"ios": "https://dc.lft.to/lastmile_qr_scan", "android": "https://dc.lft.to/lastmile_qr_scan"}}, {"name": "6aacf3626ab7225bcd7ffeaaa58c59bb", "fusion_lat": 0.0, "type": "electric_scooter", "lat": 38.915644, "is_reserved": 0, "is_disabled": 0, "fusion_lon": 0.0, "bike_id": "6aacf3626ab7225bcd7ffeaaa58c59bb", "lon": -77.038332, "rental_uris": {"ios": "https://dc.lft.to/lastmile_qr_scan", "android": "https://dc.lft.to/lastmile_qr_scan"}}, {"name": "3ca4a61bd259c2b6eedec82c52496e9f", "fusion_lat": 0.0, "type": "electric_scooter", "lat": 38.86655116666667, "is_reserved": 0, "is_disabled": 0, "fusion_lon": 0.0, "bike_id": "3ca4a61bd259c2b6eedec82c52496e9f", "lon": -76.99012966666666, "rental_uris": {"ios": "https://dc.lft.to/lastmile_qr_scan", "android": "https://dc.lft.to/lastmile_qr_scan"}}, {"name": "d7a7f18561d36eb402ea35c62fd86230", "fusion_lat": 0.0, "type": "electric_scooter", "lat": 38.8962145, "is_reserved": 0, "is_disabled": 0, "fusion_lon": 0.0, "bike_id": "d7a7f18561d36eb402ea35c62fd86230", "lon": -77.02378916666666, "rental_uris": {"ios": "https://dc.lft.to/lastmile_qr_scan", "android": "https://dc.lft.to/lastmile_qr_scan"}}, {"name": "bb596dcfa4d761c4feed4488645dd7f7", "fusion_lat": 0.0, "type": "electric_scooter", "lat": 38.943092666666665, "is_reserved": 0, "is_disabled": 0, "fusion_lon": 0.0, "bike_id": "bb596dcfa4d761c4feed4488645dd7f7", "lon": -77.02486283333333, "rental_uris": {"ios": "https://dc.lft.to/lastmile_qr_scan", "android": "https://dc.lft.to/lastmile_qr_scan"}},