{"data": {"bikes": [{"rental_uris": {"ios": "https://dc.lft.to/lastmile_qr_scan", "android": "https://dc.lft.to/lastmile_qr_scan"}, "lon": -77.07273883333333, "type": "electric_scooter", "fusion_lat": 0.0, "lat": 38.93481716666667, "name": "fad56baa7e6118749e9affdc9b13ab18", "fusion_lon": 0.0, "bike_id": "fad56baa7e6118749e9affdc9b13ab18", "is_disabled": 0, "is_reserved": 0}, {"rental_uris": {"ios": "https://dc.lft.to/lastmile_qr_scan", "android": "https://dc.lft.to/lastmile_qr_scan"}, "lon": -77.05308533333333, "type": "electric_scooter", "fusion_lat": 0.0, "lat": 38.923528, "name": "24385cf7076fd615cc40f1c051b7927f", "fusion_lon": 0.0, "bike_id": "24385cf7076fd615cc40f1c051b7927f", "is_disabled": 0, "is_reserved": 0}, {"rental_uris": {"ios": "https://dc.lft.to/lastmile_qr_scan", "android": "https://dc.lft.to/lastmile_qr_scan"}, "lon": -77.02193916666667, "type": "electric_scooter", "fusion_lat": 0.0, "lat": 38.89629083333333, "name": "e92b52a3e7a09da61788403d33df004d", "fusion_lon": 0.0, "bike_id": "e92b52a3e7a09da61788403d33df004d", "is_disabled": 0, "is_reserved": 0}, {"rental_uris": {"ios": "https://dc.lft.to/lastmile_qr_scan", "android": "https://dc.lft.to/lastmile_qr_scan"}, "lon": -77.03883583333334, "type": "electric_scooter", "fusion_lat": 0.0, "lat": 38.9082355, "name": "65e648472c7c2c2333eb5afbb472a70c", "fusion_lon": 0.0, "bike_id": "65e648472c7c2c2333eb5afbb472a70c", "is_disabled": 0, "is_reserved": 0}, {"rental_uris": {"ios": "https://dc.lft.to/lastmile_qr_scan", "android": "https://dc.lft.to/lastmile_qr_scan"}, "lon": -77.01188633333334, "type": "electric_scooter", "fusion_lat": 0.0, "lat": 38.90026666666667, "name": "b2a57b4e8875a8d25a4fbbac687677c2", "fusion_lon": 0.0, "bike_id": "b2a57b4e8875a8d25a4fbbac687677c2", "is_disabled": 0, "is_reserved": 0}, {"rental_uris": {"ios": "https://dc.lft.to/lastmile_qr_scan", "android": "https://dc.lft.to/lastmile_qr_scan"}, "lon": -77.0234545, "type": "electric_scooter", "fusion_lat": 0.0, "lat": 38.9620525, "name": "28a00a8a3428d10b7ac9b01d1126aee5", "fusion_lon": 0.0, "bike_id": "28a00a8a3428d10b7ac9b01d1126aee5", "is_disabled": 0, "is_reserved": 0}, {"rental_uris": {"ios": "https://dc.lft.to/lastmile_qr_scan", "android": "https://dc.lft.to/lastmile_qr_scan"}, "lon": -77.05722716666666, "type": "electric_scooter", "fusion_lat": 0.0, "lat": 38.933731, "name": "6a7c8099a29ae8908ebc417230f5a83e", "fusion_lon": 0.0, "bike_id": "6a7c8099a29ae8908ebc417230f5a83e", "is_disabled": 0, "is_reserved": 0}, {"rental_uris": {"ios": "https://dc.lft.to/lastmile_qr_scan", "android": "https://dc.lft.to/lastmile_qr_scan"}, "lon": -77.00566766666667, "type": "electric_scooter", "fusion_lat": 0.0, "lat": 38.92722283333333, "name": "448afdeac47f52c4c88c4cd1bd1193f7", "fusion_lon": 0.0, "bike_id": "448afdeac47f52c4c88c4cd1bd1193f7", "is_disabled": 0, "is_reserved": 0}, {"rental_uris": {"ios": "https://dc.lft.to/lastmile_qr_scan", "android": "https://dc.lft.to/lastmile_qr_scan"}, "lon": -77.0052285, "type": "electric_scooter", "fusion_lat": 0.0, "lat": 38.929041166666664, "name": "726606a946fa65e0ccf9a8cc85c56c15", "fusion_lon": 0.0, "bike_id": "726606a946fa65e0ccf9a8cc85c56c15", "is_disabled": 0, "is_reserved": 0}, {"rental_uris": {"ios": "https://dc.lft.to/lastmile_qr_scan", "android": "https://dc.lft.to/lastmile_qr_scan"}, "lon": -77.06343433333333, "type": "electric_scooter", "fusion_lat": 0.0, "lat": 38.9444975, "name": "9ac9408d23bda19d2723fdfc4ae9219a", "fusion_lon": 0.0, "bike_id": "9ac9408d23bda19d2723fdfc4ae9219a", "is_disabled": 0, "is_reserved": 0}, {"rental_uris": {"ios": "https://dc.lft.to/lastmile_qr_scan", "android": "https://dc.lft.to/lastmile_qr_scan"}, "lon": -77.048172, "type": "electric_scooter", "fusion_lat": 0.0, "lat": 38.897343666666664, "name": "a9c1807466b656ca2594863c123a11ab", "fusion_lon": 0.0, "bike_id": "a9c1807466b656ca2594863c123a11ab", "is_disabled": 0, "is_reserved": 0}, {"rental_uris": {"ios": "https://dc.lft.to/lastmile_qr_scan", "android": "https://dc.lft.to/lastmile_qr_scan"}, "lon": -77.039576, "type": "electric_scooter", "fusion_lat": 0.0, "lat": 38.914883333333336, "name": "5f850f727b707bb8a5f9e1cf49893cad", "fusion_lon": 0.0, "bike_id": "5f850f727b707bb8a5f9e1cf49893cad", "is_disabled": 0, "is_reserved": 0}, {"rental_uris": {"ios": "https://dc.lft.to/lastmile_qr_scan", "android": "https://dc.lft.to/lastmile_qr_scan"}, "lon": -77.03029816666667, "type": "electric_scooter", "fusion_lat": 0.0, "lat": 38.93109966666667, "name": "93749732f3baabe8f87903e8a946a563", "fusion_lon": 0.0, "bike_id": "93749732f3baabe8f87903e8a946a563", "is_disabled": 0, "is_reserved": 0}, {"rental_uris": {"ios": "https://dc.lft.to/lastmile_qr_scan", "android": "https://dc.lft.to/lastmile_qr_scan"}, "lon": -77.03540516666666, "type": "electric_scooter", "fusion_lat": 0.0, "lat": 38.9259685, "name": "73a9dd873c706af8a38eeb33ec3f5470", "fusion_lon": 0.0, "bike_id": "73a9dd873c706af8a38eeb33ec3f5470", "is_disabled": 0, "is_reserved": 0}, {"rental_uris": {"ios": "https://dc.lft.to/lastmile_qr_scan", "android": "https://dc.lft.to/lastmile_qr_scan"}, "lon": -77.00196516666666, "type": "electric_scooter", "fusion_lat": 0.0, "lat": 38.90034716666667, "name": "2e6e5aabc78cfe9b62893eaf3710c464", "fusion_lon": 0.0, "bike_id": "2e6e5aabc78cfe9b62893eaf3710c464", "is_disabled": 0, "is_reserved": 0}, {"rental_uris": {"ios": "https://dc.lft.to/lastmile_qr_scan", "android": "https://dc.lft.to/lastmile_qr_scan"}, "lon": -77.00768366666667, "type": "electric_scooter", "fusion_lat": 0.0, "lat": 38.90652866666667, "name": "8f20cadfa2bb6e387a813bba2741ffcf", "fusion_lon": 0.0, "bike_id": "8f20cadfa2bb6e387a813bba2741ffcf", "is_disabled": 0, "is_reserved": 0}, {"rental_uris": {"ios": "https://dc.lft.to/lastmile_qr_scan", "android": "https://dc.lft.to/lastmile_qr_scan"}, "lon": -77.03828466666667, "type": "electric_scooter", "fusion_lat": 0.0, "lat": 38.90864583333333, "name": "021f462f5941c924ed9d29d9392c9ca3", "fusion_lon": 0.0, "bike_id": "021f462f5941c924ed9d29d9392c9ca3", "is_disabled": 0, "is_reserved": 0}, {"rental_uris": {"ios": "https://dc.lft.to/lastmile_qr_scan", "android": "https://dc.lft.to/lastmile_qr_scan"}, "lon": -76.98884433333333, "type": "electric_scooter", "fusion_lat": 0.0, "lat": 38.86660833333333, "name": "537a93e1c22bab05e1455bd487b9e2bd", "fusion_lon": 0.0, "bike_id": "537a93e1c22bab05e1455bd487b9e2bd", "is_disabled": 0, "is_reserved": 0}, {"rental_uris": {"ios": "https://dc.lft.to/lastmile_qr_scan", "android": "https://dc.lft.to/lastmile_qr_scan"}, "lon": -77.02524333333334, "type": "electric_scooter", "fusion_lat": 0.0, "lat": 38.92490683333333, "name": "895386eb189c2ed2f2aabf0cfe23222e", "fusion_lon": 0.0, "bike_id": "895386eb189c2ed2f2aabf0cfe23222e", "is_disabled": 0, "is_reserved": 0}, {"rental_uris": {"ios": "https://dc.lft.to/lastmile_qr_scan", "android": "https://dc.lft.to/lastmile_qr_scan"}, "lon": -77.03709316666666, "type": "electric_scooter", "fusion_lat": 0.0, "lat": 38.92635466666667, "name": "43473ed798c7797cee81a57643e562a9", "fusion_lon": 0.0, "bike_id": "43473ed798c7797cee81a57643e562a9", "is_disabled": 0, "is_reserved": 0}, {"rental_uris": {"ios": "https://dc.lft.to/lastmile_qr_scan", "android": "https://dc.lft.to/lastmile_qr_scan"}, "lon": -77.00784616666667, "type": "electric_scooter", "fusion_lat": 0.0, "lat": 38.9119305, "name": "00cf46d0f5bc7b3a05a30b89cc0b6531", "fusion_lon": 0.0, "bike_id": "00cf46d0f5bc7b3a05a30b89cc0b6531", "is_disabled": 0, "is_reserved": 0}, {"rental_uris": {"ios": "https://dc.lft.to/lastmile_qr_scan", "android": "https://dc.lft.to/lastmile_qr_scan"}, "lon": -77.00225983333333, "type": "electric_scooter", "fusion_lat": 0.0, "lat": 38.900343, "name": "68f229a0bfff4950d4ab8cc7a86274e9", "fusion_lon": 0.0, "bike_id": "68f229a0bfff4950d4ab8cc7a86274e9", "is_disabled": 0, "is_reserved": 0}, {"rental_uris": {"ios": "https://dc.lft.to/lastmile_qr_scan", "android": "https://dc.lft.to/lastmile_qr_scan"}, "lon": -77.00337933333333, "type": "electric_bike", "fusion_lat": 0.0, "lat": 38.919829666666665, "name": "970a3ac0292cc373dc2514b6ebd8b90a", "fusion_lon": 0.0, "bike_id": "970a3ac0292cc373dc2514b6ebd8b90a", "is_disabled": 0, "is_reserved": 0}, {"rental_uris": {"ios": "https://dc.lft.to/lastmile_qr_scan", "android": "https://dc.lft.to/lastmile_qr_scan"}, "lon": -77.03870016666667, "type": "electric_scooter", "fusion_lat": 0.0, "lat": 38.91263433333334, "name": "d845ba26497912d63b54f4b3199c8a39", "fusion_lon": 0.0, "bike_id": "d845ba26497912d63b54f4b3199c8a39", "is_disabled": 0, "is_reserved": 0}, {"rental_uris": {"ios": "https://dc.lft.to/lastmile_qr_scan", "android": "https://dc.lft.to/lastmile_qr_scan"}, "lon": -77.06671816666666, "type": "electric_scooter", "fusion_lat": 0.0, "lat": 38.914066, "name": "4045d976bd7c1a1da1d7c7fae4fe75cc", "fusion_lon": 0.0, "bike_id": "4045d976bd7c1a1da1d7c7fae4fe75cc", "is_disabled": 0, "is_reserved": 0}, {"rental_uris": {"ios": "https://dc.lft.to/lastmile_qr_scan", "android": "https://dc.lft.to/lastmile_qr_scan"}, "lon": -77.01540433333334, "type": "electric_scooter", "fusion_lat": 0.0, "lat": 38.87281483333334, "name": "34e7e5c0882c8fb557ab140f03bd151b", "fusion_lon": 0.0, "bike_id": "34e7e5c0882c8fb557ab140f03bd151b", "is_disabled": 0, "is_reserved": 0}, {"rental_uris": {"ios": "https://dc.lft.to/lastmile_qr_scan", "android": "https://dc.lft.to/lastmile_qr_scan"}, "lon": -77.06602466666666, "type": "electric_scooter", "fusion_lat": 0.0, "lat": 38.90526466666667, "name": "aa9dd09c2c7a5314b25c9e456e7d9016", "fusion_lon": 0.0, "bike_id": "aa9dd09c2c7a5314b25c9e456e7d9016", "is_disabled": 0, "is_reserved": 0}, {"rental_uris": {"ios": "https://dc.lft.to/lastmile_qr_scan", "android": "https://dc.lft.to/lastmile_qr_scan"}, "lon": -77.043875, "type": "electric_scooter", "fusion_lat": 0.0, "lat": 38.910881833333335, "name": "45230e738beec3e0569d92a88541cfcf", "fusion_lon": 0.0, "bike_id": "45230e738beec3e0569d92a88541cfcf", "is_disabled": 0, "is_reserved": 0}, {"rental_uris": {"ios": "https://dc.lft.to/lastmile_qr_scan", "android": "https://dc.lft.to/lastmile_qr_scan"}, "lon": -77.05270916666667, "type": "electric_scooter", "fusion_lat": 0.0, "lat": 38.898432, "name": "920c94b6b1fdc2b1897e2b6cf1b21547", "fusion_lon": 0.0, "bike_id": "920c94b6b1fdc2b1897e2b6cf1b21547", "is_disabled": 0, "is_reserved": 0}, {"rental_uris": {"ios": "https://dc.lft.to/lastmile_qr_scan", "android": "https://dc.lft.to/lastmile_qr_scan"}, "lon": -77.05022083333333, "type": "electric_scooter", "fusion_lat": 0.0, "lat": 38.92357116666667, "name": "27665bc586536ad60f7cdb5836e4ffd0", "fusion_lon": 0.0, "bike_id": "27665bc586536ad60f7cdb5836e4ffd0", "is_disabled": 0, "is_reserved": 0}, {"rental_uris": {"ios": "https://dc.lft.to/lastmile_qr_scan", "android": "https://dc.lft.to/lastmile_qr_scan"}, "lon": -77.023851, "type": "electric_bike", "fusion_lat": 0.0, "lat": 38.994393333333335, "name": "4a5788e96425babeb14763c277fe53f5", "fusion_lon": 0.0, "bike_id": "4a5788e96425babeb14763c277fe53f5", "is_disabled": 0, "is_reserved": 0}, {"rental_uris": {"ios": "https://dc.lft.to/lastmile_qr_scan", "android": "https://dc.lft.to/lastmile_qr_scan"}, "lon": -77.03967966666667, "type": "electric_scooter", "fusion_lat": 0.0, "lat": 38.902804833333334, "name": "2d881c7b176d503e71960c6cfccd1b6b", "fusion_lon": 0.0, "bike_id": "2d881c7b176d503e71960c6cfccd1b6b", "is_disabled": 0, "is_reserved": 0}, {"rental_uris": {"ios": "https://dc.lft.to/lastmile_qr_scan", "android": "https://dc.lft.to/lastmile_qr_scan"}, "lon": -77.05758016666667, "type": "electric_bike", "fusion_lat": 0.0, "lat": 38.92487233333333, "name": "c0aee09ec631eb7e1013bbc58b1493b2", "fusion_lon": 0.0, "bike_id": "c0aee09ec631eb7e1013bbc58b1493b2", "is_disabled": 0, "is_reserved": 0}, {"rental_uris": {"ios": "https://dc.lft.to/lastmile_qr_scan", "android": "https://dc.lft.to/lastmile_qr_scan"}, "lon": -77.02962183333334, "type": "electric_scooter", "fusion_lat": 0.0, "lat": 38.90498516666667, "name": "b142baad35502ec30bd51c3cf7065100", "fusion_lon": 0.0, "bike_id": "b142baad35502ec30bd51c3cf7065100", "is_disabled": 0, "is_reserved": 0}, {"rental_uris": {"ios": "https://dc.lft.to/lastmile_qr_scan", "android": "https://dc.lft.to/lastmile_qr_scan"}, "lon": -77.07043966666667, "type": "electric_bike", "fusion_lat": 0.0, "lat": 38.824470166666664, "name": "634a81fedd4daa5d464c39616729cf04", "fusion_lon": 0.0, "bike_id": "634a81fedd4daa5d464c39616729cf04", "is_disabled": 0, "is_reserved": 0}, {"rental_uris": {"ios": "https://dc.lft.to/lastmile_qr_scan", "android": "https://dc.lft.to/lastmile_qr_scan"}, "lon": -77.01764316666667, "type": "electric_scooter", "fusion_lat": 0.0, "lat": 38.8773155, "name": "e65d05a88a716e69ab2f73114d053b6a", "fusion_lon": 0.0, "bike_id": "e65d05a88a716e69ab2f73114d053b6a", "is_disabled": 0, "is_reserved": 0}, {"rental_uris": {"ios": "https://dc.lft.to/lastmile_qr_scan", "android": "https://dc.lft.to/lastmile_qr_scan"}, "lon": -77.0310925, "type": "electric_scooter", "fusion_lat": 0.0, "lat": 38.9119385, "name": "1e32e41b319ca2514ac6d6fd4dce9548", "fusion_lon": 0.0, "bike_id": "1e32e41b319ca2514ac6d6fd4dce9548", "is_disabled": 0, "is_reserved": 0}, {"rental_uris": {"ios": "https://dc.lft.to/lastmile_qr_scan", "android": "https://dc.lft.to/lastmile_qr_scan"}, "lon": -77.12812316666667, "type": "electric_bike", "fusion_lat": 0.0, "lat": 38.865277, "name": "64264831093a7e2600d8232a580fe7ef", "fusion_lon": 0.0, "bike_id": "64264831093a7e2600d8232a580fe7ef", "is_disabled": 0, "is_reserved": 0}, {"rental_uris": {"ios": "https://dc.lft.to/lastmile_qr_scan", "android": "https://dc.lft.to/lastmile_qr_scan"}, "lon": -77.0400975, "type": "electric_scooter", "fusion_lat": 0.0, "lat": 38.9099345, "name": "7f6128c034efad04bd6ad8f5ca640761", "fusion_lon": 0.0, "bike_id": "7f6128c034efad04bd6ad8f5ca640761", "is_disabled": 0, "is_reserved": 0}, {"rental_uris": {"ios": "https://dc.lft.to/lastmile_qr_scan", "android": "https://dc.lft.to/lastmile_qr_scan"}, "lon": -77.02222383333333, "type": "electric_scooter", "fusion_lat": 0.0, "lat": 38.89355916666667, "name": "3fc9220104793d7390615ecf8b59247e", "fusion_lon": 0.0, "bike_id": "3fc9220104793d7390615ecf8b59247e", "is_disabled": 0, "is_reserved": 0}, {"rental_uris": {"ios": "https://dc.lft.to/lastmile_qr_scan", "android": "https://dc.lft.to/lastmile_qr_scan"}, "lon": -76.91598233333333, "type": "electric_bike", "fusion_lat": 0.0, "lat": 38.87980183333333, "name": "d9913ac6345ba592d04995b5d58de62d", "fusion_lon": 0.0, "bike_id": "d9913ac6345ba592d04995b5d58de62d", "is_disabled": 0, "is_reserved": 0}, {"rental_uris": {"ios": "https://dc.lft.to/lastmile_qr_scan", "android": "https://dc.lft.to/lastmile_qr_scan"}, "lon": -77.06891266666666, "type": "electric_scooter", "fusion_lat": 0.0, "lat": 38.9403075, "name": "7f412feb27eb261229cc89c8d4a74491", "fusion_lon": 0.0, "bike_id": "7f412feb27eb261229cc89c8d4a74491", "is_disabled": 0, "is_reserved": 0}, {"rental_uris": {"ios": "https://dc.lft.to/lastmile_qr_scan", "android": "https://dc.lft.to/lastmile_qr_scan"}, "lon": -77.063954, "type": "electric_scooter", "fusion_lat": 0.0, "lat": 38.92911083333333, "name": "8a32f6390772be9c4fb57acaa55f8940", "fusion_lon": 0.0, "bike_id": "8a32f6390772be9c4fb57acaa55f8940", "is_disabled": 0, "is_reserved": 0}, {"rental_uris": {"ios": "https://dc.lft.to/lastmile_qr_scan", "android": "https://dc.lft.to/lastmile_qr_scan"}, "lon": -77.02475666666666, "type": "electric_scooter", "fusion_lat": 0.0, "lat": 38.918178, "name": "a0bddb084ea92c7fb84d944944e600e5", "fusion_lon": 0.0, "bike_id": "a0bddb084ea92c7fb84d944944e600e5", "is_disabled": 0, "is_reserved": 0}, {"rental_uris": {"ios": "https://dc.lft.to/lastmile_qr_scan", "android": "https://dc.lft.to/lastmile_qr_scan"}, "lon": -77.12979283333334, "type": "electric_bike", "fusion_lat": 0.0, "lat": 38.7998995, "name": "ebd89d0f4133d739070c0ae13133795a", "fusion_lon": 0.0, "bike_id": "ebd89d0f4133d739070c0ae13133795a", "is_disabled": 0, "is_reserved": 0}, {"rental_uris": {"ios": "https://dc.lft.to/lastmile_qr_scan", "android": "https://dc.lft.to/lastmile_qr_scan"}, "lon": -76.94439566666667, "type": "electric_bike", "fusion_lat": 0.0, "lat": 38.90297366666667, "name": "5fe6ded5a19d095cdbdb18054f10afed", "fusion_lon": 0.0, "bike_id": "5fe6ded5a19d095cdbdb18054f10afed", "is_disabled": 0, "is_reserved": 0}, {"rental_uris": {"ios": "https://dc.lft.to/lastmile_qr_scan", "android": "https://dc.lft.to/lastmile_qr_scan"}, "lon": -77.00582, "type": "electric_scooter", "fusion_lat": 0.0, "lat": 38.898285, "name": "29e719ed955735f216f00097b35f38cf", "fusion_lon": 0.0, "bike_id": "29e719ed955735f216f00097b35f38cf", "is_disabled": 0, "is_reserved": 0}, {"rental_uris": {"ios": "https://dc.lft.to/lastmile_qr_scan", "android": "https://dc.lft.to/lastmile_qr_scan"}, "lon": -77.00168616666667, "type": "electric_scooter", "fusion_lat": 0.0, "lat": 38.9074055, "name": "31cac0315e2129a6b31a2bea34cb0155", "fusion_lon": 0.0, "bike_id": "31cac0315e2129a6b31a2bea34cb0155", "is_disabled": 0, "is_reserved": 0}, {"rental_uris": {"ios": "https://dc.lft.to/lastmile_qr_scan", "android": "https://dc.lft.to/lastmile_qr_scan"}, "lon": -76.97218666666667, "type": "electric_bike", "fusion_lat": 0.0, "lat": 38.844824333333335, "name": "f8d447b6e4fb862bfbccbf9c53448464", "fusion_lon": 0.0, "bike_id": "f8d447b6e4fb862bfbccbf9c53448464", "is_disabled": 0, "is_reserved": 0}, {"rental_uris": {"ios": "https://dc.lft.to/lastmile_qr_scan", "android": "https://dc.lft.to/lastmile_qr_scan"}, "lon": -77.02223366666666, "type": "electric_scooter", "fusion_lat": 0.0, "lat": 38.9125475, "name": "2d4c26a1640b3d62f3185593e09b6b30", "fusion_lon": 0.0, "bike_id": "2d4c26a1640b3d62f3185593e09b6b30", "is_disabled": 0, "is_reserved": 0}, {"rental_uris": {"ios": "https://dc.lft.to/lastmile_qr_scan", "android": "https://dc.lft.to/lastmile_qr_scan"}, "lon": -76.977019, "type": "electric_scooter", "fusion_lat": 0.0, "lat": 38.898981166666665, "name": "e5e20b0f9d83765bddc979bb3ff47c49", "fusion_lon": 0.0, "bike_id": "e5e20b0f9d83765bddc979bb3ff47c49", "is_disabled": 0, "is_reserved": 0}, {"rental_uris": {"ios": "https://dc.lft.to/lastmile_qr_scan", "android": "https://dc.lft.to/lastmile_qr_scan"}, "lon": -77.02310733333333, "type": "electric_scooter", "fusion_lat": 0.0, "lat": 38.928848, "name": "1d92d1818ba837a2d2716dbbdfcef43c", "fusion_lon": 0.0, "bike_id": "1d92d1818ba837a2d2716dbbdfcef43c", "is_disabled": 0, "is_reserved": 0}, {"rental_uris": {"ios": "https://dc.lft.to/lastmile_qr_scan", "android": "https://dc.lft.to/lastmile_qr_scan"}, "lon": -76.90980883333333, "type": "electric_bike", "fusion_lat": 0.0, "lat": 38.85433166666667, "name": "76f9cb41a0b7a0d8b0cff94f743844ad", "fusion_lon": 0.0, "bike_id": "76f9cb41a0b7a0d8b0cff94f743844ad", "is_disabled": 0, "is_reserved": 0}, {"rental_uris": {"ios": "https://dc.lft.to/lastmile_qr_scan", "android": "https://dc.lft.to/lastmile_qr_scan"}, "lon": -76.98259683333333, "type": "electric_scooter", "fusion_lat": 0.0, "lat": 38.90866883333333, "name": "f5037773b615aae24e5d61ba72420c3d", "fusion_lon": 0.0, "bike_id": "f5037773b615aae24e5d61ba72420c3d", "is_disabled": 0, "is_reserved": 0}, {"rental_uris": {"ios": "https://dc.lft.to/lastmile_qr_scan", "android": "https://dc.lft.to/lastmile_qr_scan"}, "lon": -77.01938183333333, "type": "electric_scooter", "fusion_lat": 0.0, "lat": 38.902422333333334, "name": "58e34edf70ece40d8517250bc28bf7ac", "fusion_lon": 0.0, "bike_id": "58e34edf70ece40d8517250bc28bf7ac", "is_disabled": 0, "is_reserved": 0}, {"rental_uris": {"ios": "https://dc.lft.to/lastmile_qr_scan", "android": "https://dc.lft.to/lastmile_qr_scan"}, "lon": -77.0187385, "type": "electric_scooter", "fusion_lat": 0.0, "lat": 38.887497833333335, "name": "177ca4f4249695d597651b19ca3a0a1b", "fusion_lon": 0.0, "bike_id": "177ca4f4249695d597651b19ca3a0a1b", "is_disabled": 0, "is_reserved": 0}, {"rental_uris": {"ios": "https://dc.lft.to/lastmile_qr_scan", "android": "https://dc.lft.to/lastmile_qr_scan"}, "lon": -77.00978433333333, "type": "electric_scooter", "fusion_lat": 0.0, "lat": 38.919237333333335, "name": "23ad679d40a62096048303205d409f2e", "fusion_lon": 0.0, "bike_id": "23ad679d40a62096048303205d409f2e", "is_disabled": 0, "is_reserved": 0}, {"rental_uris": {"ios": "https://dc.lft.to/lastmile_qr_scan", "android": "https://dc.lft.to/lastmile_qr_scan"}, "lon": -77.0418845, "type": "electric_scooter", "fusion_lat": 0.0, "lat": 38.9200695, "name": "ecc9283125e80f5207359f713fb01d16", "fusion_lon": 0.0, "bike_id": "ecc9283125e80f5207359f713fb01d16", "is_disabled": 0, "is_reserved": 0}, {"rental_uris": {"ios": "https://dc.lft.to/lastmile_qr_scan", "android": "https://dc.lft.to/lastmile_qr_scan"}, "lon": -77.02185416666667, "type": "electric_scooter", "fusion_lat": 0.0, "lat": 38.939509666666666, "name": "ebe8a211b8f1ba2a629601da401b8c8d", "fusion_lon": 0.0, "bike_id": "ebe8a211b8f1ba2a629601da401b8c8d", "is_disabled": 0, "is_reserved": 0}, {"rental_uris": {"ios": "https://dc.lft.to/lastmile_qr_scan", "android": "https://dc.lft.to/lastmile_qr_scan"}, "lon": -77.045432, "type": "electric_scooter", "fusion_lat": 0.0, "lat": 38.933908, "name": "d27986db59a000627585448256179caa", "fusion_lon": 0.0, "bike_id": "d27986db59a000627585448256179caa", "is_disabled": 0, "is_reserved": 0}, {"rental_uris": {"ios": "https://dc.lft.to/lastmile_qr_scan", "android": "https://dc.lft.to/lastmile_qr_scan"}, "lon": -77.02551233333334, "type": "electric_scooter", "fusion_lat": 0.0, "lat": 38.92469233333333, "name": "6dbc9690d87d61d253fcaee4674f5d06", "fusion_lon": 0.0, "bike_id": "6dbc9690d87d61d253fcaee4674f5d06", "is_disabled": 0, "is_reserved": 0}, {"rental_uris": {"ios": "https://dc.lft.to/lastmile_qr_scan", "android": "https://dc.lft.to/lastmile_qr_scan"}, "lon": -77.03011666666667, "type": "electric_scooter", "fusion_lat": 0.0, "lat": 38.910115, "name": "ae0cb0b0eefeb8418db66a9372c99458", "fusion_lon": 0.0, "bike_id": "ae0cb0b0eefeb8418db66a9372c99458", "is_disabled": 0, "is_reserved": 0}, {"rental_uris": {"ios": "https://dc.lft.to/lastmile_qr_scan", "android": "https://dc.lft.to/lastmile_qr_scan"}, "lon": -76.9488975, "type": "electric_scooter", "fusion_lat": 0.0, "lat": 38.89528083333333, "name": "fd39fd05cd6d1b57d2de9a87351050d1", "fusion_lon": 0.0, "bike_id": "fd39fd05cd6d1b57d2de9a87351050d1", "is_disabled": 0, "is_reserved": 0}, {"rental_uris": {"ios": "https://dc.lft.to/lastmile_qr_scan", "android": "https://dc.lft.to/lastmile_qr_scan"}, "lon": -77.040076, "type": "electric_scooter", "fusion_lat": 0.0, "lat": 38.888882, "name": "c32d17bdb5b745eb79b4bd4121920f89", "fusion_lon": 0.0, "bike_id": "c32d17bdb5b745eb79b4bd4121920f89", "is_disabled": 0, "is_reserved": 0}, {"rental_uris": {"ios": "https://dc.lft.to/lastmile_qr_scan", "android": "https://dc.lft.to/lastmile_qr_scan"}, "lon": -77.03187666666666, "type": "electric_scooter", "fusion_lat": 0.0, "lat": 38.9132995, "name": "fdacd701d1bc07107d0def49487248d5", "fusion_lon": 0.0, "bike_id": "fdacd701d1bc07107d0def49487248d5", "is_disabled": 0, "is_reserved": 0}, {"rental_uris": {"ios": "https://dc.lft.to/lastmile_qr_scan", "android": "https://dc.lft.to/lastmile_qr_scan"}, "lon": -76.98178266666666, "type": "electric_scooter", "fusion_lat": 0.0, "lat": 38.895859, "name": "b3905fd27f8afaf05c0e6939ae372741", "fusion_lon": 0.0, "bike_id": "b3905fd27f8afaf05c0e6939ae372741", "is_disabled": 0, "is_reserved": 0}, {"rental_uris": {"ios": "https://dc.lft.to/lastmile_qr_scan", "android": "https://dc.lft.to/lastmile_qr_scan"}, "lon": -76.963042, "type": "electric_bike", "fusion_lat": 0.0, "lat": 38.9270775, "name": "ea4ded55348c9cf70f93c63128c4c19c", "fusion_lon": 0.0, "bike_id": "ea4ded55348c9cf70f93c63128c4c19c", "is_disabled": 0, "is_reserved": 0}, {"rental_uris": {"ios": "https://dc.lft.to/lastmile_qr_scan", "android": "https://dc.lft.to/lastmile_qr_scan"}, "lon": -76.93158216666667, "type": "electric_scooter", "fusion_lat": 0.0, "lat": 38.89881466666667, "name": "10688437fd385a5857abdaf93a5fac0b", "fusion_lon": 0.0, "bike_id": "10688437fd385a5857abdaf93a5fac0b", "is_disabled": 0, "is_reserved": 0}, {"rental_uris": {"ios": "https://dc.lft.to/lastmile_qr_scan", "android": "https://dc.lft.to/lastmile_qr_scan"}, "lon": -77.01190816666667, "type": "electric_scooter", "fusion_lat": 0.0, "lat": 38.9001065, "name": "12defd271540d1d345e93135e0f39774", "fusion_lon": 0.0, "bike_id": "12defd271540d1d345e93135e0f39774", "is_disabled": 0, "is_reserved": 0}, {"rental_uris": {"ios": "https://dc.lft.to/lastmile_qr_scan", "android": "https://dc.lft.to/lastmile_qr_scan"}, "lon": -77.03487583333333, "type": "electric_scooter", "fusion_lat": 0.0, "lat": 38.919302333333334, "name": "e7e89ca9acdb5c33c3307b00aca85dbc", "fusion_lon": 0.0, "bike_id": "e7e89ca9acdb5c33c3307b00aca85dbc", "is_disabled": 0, "is_reserved": 0}, {"rental_uris": {"ios": "https://dc.lft.to/lastmile_qr_scan", "android": "https://dc.lft.to/lastmile_qr_scan"}, "lon": -77.002124, "type": "electric_scooter", "fusion_lat": 0.0, "lat": 38.900372, "name": "40362582abda0999b143200fff9c911d", "fusion_lon": 0.0, "bike_id": "40362582abda0999b143200fff9c911d", "is_disabled": 0, "is_reserved": 0}, {"rental_uris": {"ios": "https://dc.lft.to/lastmile_qr_scan", "android": "https://dc.lft.to/lastmile_qr_scan"}, "lon": -77.04456516666667, "type": "electric_scooter", "fusion_lat": 0.0, "lat": 38.911190500000004, "name": "b58f947b0340750689864a0c72154eb6", "fusion_lon": 0.0, "bike_id": "b58f947b0340750689864a0c72154eb6", "is_disabled": 0, "is_reserved": 0}, {"rental_uris": {"ios": "https://dc.lft.to/lastmile_qr_scan", "android": "https://dc.lft.to/lastmile_qr_scan"}, "lon": -77.02524766666667, "type": "electric_scooter", "fusion_lat": 0.0, "lat": 38.932884666666666, "name": "08241a6e6a3121ecfa2686ccb4ec025e", "fusion_lon": 0.0, "bike_id": "08241a6e6a3121ecfa2686ccb4ec025e", "is_disabled": 0, "is_reserved": 0}, {"rental_uris": {"ios": "https://dc.lft.to/lastmile_qr_scan", "android": "https://dc.lft.to/lastmile_qr_scan"}, "lon": -77.033731, "type": "electric_scooter", "fusion_lat": 0.0, "lat": 38.92891266666667, "name": "7d3b53387607a42a8c0b0e13eab41823", "fusion_lon": 0.0, "bike_id": "7d3b53387607a42a8c0b0e13eab41823", "is_disabled": 0, "is_reserved": 0}, {"rental_uris": {"ios": "https://dc.lft.to/lastmile_qr_scan", "android": "https://dc.lft.to/lastmile_qr_scan"}, "lon": -76.98167833333333, "type": "electric_scooter", "fusion_lat": 0.0, "lat": 38.900033666666666, "name": "d2293f44c8d9b8aeea50ecc6b89e4121", "fusion_lon": 0.0, "bike_id": "d2293f44c8d9b8aeea50ecc6b89e4121", "is_disabled": 0, "is_reserved": 0}, {"rental_uris": {"ios": "https://dc.lft.to/lastmile_qr_scan", "android": "https://dc.lft.to/lastmile_qr_scan"}, "lon": -77.05004833333334, "type": "electric_scooter", "fusion_lat": 0.0, "lat": 38.89229266666667, "name": "6ac15464da3fa7b360407560d9ab298a", "fusion_lon": 0.0, "bike_id": "6ac15464da3fa7b360407560d9ab298a", "is_disabled": 0, "is_reserved": 0}, {"rental_uris": {"ios": "https://dc.lft.to/lastmile_qr_scan", "android": "https://dc.lft.to/lastmile_qr_scan"}, "lon": -77.0500155, "type": "electric_scooter", "fusion_lat": 0.0, "lat": 38.89228166666667, "name": "c475478bb6b1594b88153b2d1fb0429c", "fusion_lon": 0.0, "bike_id": "c475478bb6b1594b88153b2d1fb0429c", "is_disabled": 0, "is_reserved": 0}, {"rental_uris": {"ios": "https://dc.lft.to/lastmile_qr_scan", "android": "https://dc.lft.to/lastmile_qr_scan"}, "lon": -77.02198683333333, "type": "electric_scooter", "fusion_lat": 0.0, "lat": 38.8950745, "name": "7abe8b4d4029ab65154769a49af28121", "fusion_lon": 0.0, "bike_id": "7abe8b4d4029ab65154769a49af28121", "is_disabled": 0, "is_reserved": 0}, {"rental_uris": {"ios": "https://dc.lft.to/lastmile_qr_scan", "android": "https://dc.lft.to/lastmile_qr_scan"}, "lon": -77.02411133333334, "type": "electric_scooter", "fusion_lat": 0.0, "lat": 38.9169835, "name": "67b34745995fbaf544ceda8f3c1e7d8a", "fusion_lon": 0.0, "bike_id": "67b34745995fbaf544ceda8f3c1e7d8a", "is_disabled": 0, "is_reserved": 0}, {"rental_uris": {"ios": "https://dc.lft.to/lastmile_qr_scan", "android": "https://dc.lft.to/lastmile_qr_scan"}, "lon": -77.025145, "type": "electric_scooter", "fusion_lat": 0.0, "lat": 38.93092, "name": "11baec05d2eff8ac718398daeda82a56", "fusion_lon": 0.0, "bike_id": "11baec05d2eff8ac718398daeda82a56", "is_disabled": 0, "is_reserved": 0}, {"rental_uris": {"ios": "https://dc.lft.to/lastmile_qr_scan", "android": "https://dc.lft.to/lastmile_qr_scan"}, "lon": -77.0312585, "type": "electric_scooter", "fusion_lat": 0.0, "lat": 38.923773, "name": "dc52fa592d239011f4162e51c0ab9d56", "fusion_lon": 0.0, "bike_id": "dc52fa592d239011f4162e51c0ab9d56", "is_disabled": 0, "is_reserved": 0}, {"rental_uris": {"ios": "https://dc.lft.to/lastmile_qr_scan", "android": "https://dc.lft.to/lastmile_qr_scan"}, "lon": -76.9383295, "type": "electric_scooter", "fusion_lat": 0.0, "lat": 38.89762566666667, "name": "15bae2bbeeab99083ce45f54126970d7", "fusion_lon": 0.0, "bike_id": "15bae2bbeeab99083ce45f54126970d7", "is_disabled": 0, "is_reserved": 0}, {"rental_uris": {"ios": "https://dc.lft.to/lastmile_qr_scan", "android": "https://dc.lft.to/lastmile_qr_scan"}, "lon": -77.0011345, "type": "electric_scooter", "fusion_lat": 0.0, "lat": 38.8943615, "name": "2830be9d4bbd5ab30d24432d55db4b30", "fusion_lon": 0.0, "bike_id": "2830be9d4bbd5ab30d24432d55db4b30", "is_disabled": 0, "is_reserved": 0}, {"rental_uris": {"ios": "https://dc.lft.to/lastmile_qr_scan", "android": "https://dc.lft.to/lastmile_qr_scan"}, "lon": -77.03426466666667, "type": "electric_scooter", "fusion_lat": 0.0, "lat": 38.919149166666664, "name": "ae30d2c1d75790d954ccfc23cd8305cd", "fusion_lon": 0.0, "bike_id": "ae30d2c1d75790d954ccfc23cd8305cd", "is_disabled": 0, "is_reserved": 0}, {"rental_uris": {"ios": "https://dc.lft.to/lastmile_qr_scan", "android": "https://dc.lft.to/lastmile_qr_scan"}, "lon": -77.04420483333334, "type": "electric_scooter", "fusion_lat": 0.0, "lat": 38.921222, "name": "bb3788137133eb9b7749f884e36b5f24", "fusion_lon": 0.0, "bike_id": "bb3788137133eb9b7749f884e36b5f24", "is_disabled": 0, "is_reserved": 0}, {"rental_uris": {"ios": "https://dc.lft.to/lastmile_qr_scan", "android": "https://dc.lft.to/lastmile_qr_scan"}, "lon": -77.034324, "type": "electric_scooter", "fusion_lat": 0.0, "lat": 38.91924916666667, "name": "304ea68957bb6d420e8b1250c4a6cfb4", "fusion_lon": 0.0, "bike_id": "304ea68957bb6d420e8b1250c4a6cfb4", "is_disabled": 0, "is_reserved": 0}, {"rental_uris": {"ios": "https://dc.lft.to/lastmile_qr_scan", "android": "https://dc.lft.to/lastmile_qr_scan"}, "lon": -77.02717833333334, "type": "electric_scooter", "fusion_lat": 0.0, "lat": 38.89219833333333, "name": "907f3fc4a57ff528fcc01f4fe80e2fe2", "fusion_lon": 0.0, "bike_id": "907f3fc4a57ff528fcc01f4fe80e2fe2", "is_disabled": 0, "is_reserved": 0}, {"rental_uris": {"ios": "https://dc.lft.to/lastmile_qr_scan", "android": "https://dc.lft.to/lastmile_qr_scan"}, "lon": -76.99485783333333, "type": "electric_scooter", "fusion_lat": 0.0, "lat": 38.932028333333335, "name": "68af26cdc23f798a5b0b092bf978113f", "fusion_lon": 0.0, "bike_id": "68af26cdc23f798a5b0b092bf978113f", "is_disabled": 0, "is_reserved": 0}, {"rental_uris": {"ios": "https://dc.lft.to/lastmile_qr_scan", "android": "https://dc.lft.to/lastmile_qr_scan"}, "lon": -77.022124, "type": "electric_scooter", "fusion_lat": 0.0, "lat": 38.9056935, "name": "842be9d4aa8db0452f8ad1bbe74735b3", "fusion_lon": 0.0, "bike_id": "842be9d4aa8db0452f8ad1bbe74735b3", "is_disabled": 0, "is_reserved": 0}, {"rental_uris": {"ios": "https://dc.lft.to/lastmile_qr_scan", "android": "https://dc.lft.to/lastmile_qr_scan"}, "lon": -77.03919383333333, "type": "electric_scooter", "fusion_lat": 0.0, "lat": 38.898434, "name": "70986e856d84b8bf844e0e2020096c92", "fusion_lon": 0.0, "bike_id": "70986e856d84b8bf844e0e2020096c92", "is_disabled": 0, "is_reserved": 0}, {"rental_uris": {"ios": "https://dc.lft.to/lastmile_qr_scan", "android": "https://dc.lft.to/lastmile_qr_scan"}, "lon": -77.03477633333334, "type": "electric_scooter", "fusion_lat": 0.0, "lat": 38.902561166666665, "name": "dfacb5744e38fc99b3de433b7816bdbf", "fusion_lon": 0.0, "bike_id": "dfacb5744e38fc99b3de433b7816bdbf", "is_disabled": 0, "is_reserved": 0}, {"rental_uris": {"ios": "https://dc.lft.to/lastmile_qr_scan", "android": "https://dc.lft.to/lastmile_qr_scan"}, "lon": -77.02130716666667, "type": "electric_scooter", "fusion_lat": 0.0, "lat": 38.9097405, "name": "b4ca4cf9c212add575ec4707167066d6", "fusion_lon": 0.0, "bike_id": "b4ca4cf9c212add575ec4707167066d6", "is_disabled": 0, "is_reserved": 0}, {"rental_uris": {"ios": "https://dc.lft.to/lastmile_qr_scan", "android": "https://dc.lft.to/lastmile_qr_scan"}, "lon": -77.0679235, "type": "electric_scooter", "fusion_lat": 0.0, "lat": 38.95197566666667, "name": "f112025770f84638863a51abf5bcc999", "fusion_lon": 0.0, "bike_id": "f112025770f84638863a51abf5bcc999", "is_disabled": 0, "is_reserved": 0}, {"rental_uris": {"ios": "https://dc.lft.to/lastmile_qr_scan", "android": "https://dc.lft.to/lastmile_qr_scan"}, "lon": -77.0021035, "type": "electric_scooter", "fusion_lat": 0.0, "lat": 38.902203, "name": "e44dbdb6e090d2c29f4ec01817a6581c", "fusion_lon": 0.0, "bike_id": "e44dbdb6e090d2c29f4ec01817a6581c", "is_disabled": 0, "is_reserved": 0}, {"rental_uris": {"ios": "https://dc.lft.to/lastmile_qr_scan", "android": "https://dc.lft.to/lastmile_qr_scan"}, "lon": -77.032673, "type": "electric_scooter", "fusion_lat": 0.0, "lat": 38.932329833333334, "name": "9d9dbd04b08ea588a589b261e64babae", "fusion_lon": 0.0, "bike_id": "9d9dbd04b08ea588a589b261e64babae", "is_disabled": 0, "is_reserved": 0}, {"rental_uris": {"ios": "https://dc.lft.to/lastmile_qr_scan", "android": "https://dc.lft.to/lastmile_qr_scan"}, "lon": -77.02508216666666, "type": "electric_scooter", "fusion_lat": 0.0, "lat": 38.918093666666664, "name": "298e22a2cc98bdaac2128005e769de81", "fusion_lon": 0.0, "bike_id": "298e22a2cc98bdaac2128005e769de81", "is_disabled": 0, "is_reserved": 0}, {"rental_uris": {"ios": "https://dc.lft.to/lastmile_qr_scan", "android": "https://dc.lft.to/lastmile_qr_scan"}, "lon": -77.007348, "type": "electric_scooter", "fusion_lat": 0.0, "lat": 38.955200833333336, "name": "dcce4b18b439037bc50b301cc5f06b70", "fusion_lon": 0.0, "bike_id": "dcce4b18b439037bc50b301cc5f06b70", "is_disabled": 0, "is_reserved": 0}, {"rental_uris": {"ios": "https://dc.lft.to/lastmile_qr_scan", "android": "https://dc.lft.to/lastmile_qr_scan"}, "lon": -76.99308, "type": "electric_scooter", "fusion_lat": 0.0, "lat": 38.925537166666665, "name": "9721e97032c4cf009f05083bbf850a3e", "fusion_lon": 0.0, "bike_id": "9721e97032c4cf009f05083bbf850a3e", "is_disabled": 0, "is_reserved": 0}, {"rental_uris": {"ios": "https://dc.lft.to/lastmile_qr_scan", "android": "https://dc.lft.to/lastmile_qr_scan"}, "lon": -77.02349183333334, "type": "electric_scooter", "fusion_lat": 0.0, "lat": 38.922768166666664, "name": "386c86ad4d1b277aca264f42698e6232", "fusion_lon": 0.0, "bike_id": "386c86ad4d1b277aca264f42698e6232", "is_disabled": 0, "is_reserved": 0}, {"rental_uris": {"ios": "https://dc.lft.to/lastmile_qr_scan", "android": "https://dc.lft.to/lastmile_qr_scan"}, "lon": -77.031892, "type": "electric_scooter", "fusion_lat": 0.0, "lat": 38.909964333333335, "name": "5a2944eb31e1484d513697029f243495", "fusion_lon": 0.0, "bike_id": "5a2944eb31e1484d513697029f243495", "is_disabled": 0, "is_reserved": 0}, {"rental_uris": {"ios": "https://dc.lft.to/lastmile_qr_scan", "android": "https://dc.lft.to/lastmile_qr_scan"}, "lon": -77.03257966666666, "type": "electric_scooter", "fusion_lat": 0.0, "lat": 38.9181395, "name": "f28ea2dddb0b371b655759a3709cde00", "fusion_lon": 0.0, "bike_id": "f28ea2dddb0b371b655759a3709cde00", "is_disabled": 0, "is_reserved": 0}, {"rental_uris": {"ios": "https://dc.lft.to/lastmile_qr_scan", "android": "https://dc.lft.to/lastmile_qr_scan"}, "lon": -77.04521383333334, "type": "electric_scooter", "fusion_lat": 0.0, "lat": 38.909707833333336, "name": "97f59dc9cb5cf82fb6ccc921fbe83c2c", "fusion_lon": 0.0, "bike_id": "97f59dc9cb5cf82fb6ccc921fbe83c2c", "is_disabled": 0, "is_reserved": 0}, {"rental_uris": {"ios": "https://dc.lft.to/lastmile_qr_scan", "android": "https://dc.lft.to/lastmile_qr_scan"}, "lon": -77.05591316666667, "type": "electric_scooter", "fusion_lat": 0.0, "lat": 38.9277935, "name": "baeb7e6eee4a72efc09e798352925c51", "fusion_lon": 0.0, "bike_id": "baeb7e6eee4a72efc09e798352925c51", "is_disabled": 0, "is_reserved": 0}, {"rental_uris": {"ios": "https://dc.lft.to/lastmile_qr_scan", "android": "https://dc.lft.to/lastmile_qr_scan"}, "lon": -77.03342216666667, "type": "electric_scooter", "fusion_lat": 0.0, "lat": 38.885092666666665, "name": "31da02a47ab7a0ab3989b44b6cbf4b41", "fusion_lon": 0.0, "bike_id": "31da02a47ab7a0ab3989b44b6cbf4b41", "is_disabled": 0, "is_reserved": 0}, {"rental_uris": {"ios": "https://dc.lft.to/lastmile_qr_scan", "android": "https://dc.lft.to/lastmile_qr_scan"}, "lon": -77.0319825, "type": "electric_scooter", "fusion_lat": 0.0, "lat": 38.913123166666665, "name": "7e25153cb002ccbe359d47a9468d44c3", "fusion_lon": 0.0, "bike_id": "7e25153cb002ccbe359d47a9468d44c3", "is_disabled": 0, "is_reserved": 0}, {"rental_uris": {"ios": "https://dc.lft.to/lastmile_qr_scan", "android": "https://dc.lft.to/lastmile_qr_scan"}, "lon": -76.99485033333333, "type": "electric_scooter", "fusion_lat": 0.0, "lat": 38.86237916666666, "name": "bb96db81b4188e92aa13149d685fd7cc", "fusion_lon": 0.0, "bike_id": "bb96db81b4188e92aa13149d685fd7cc", "is_disabled": 0, "is_reserved": 0}, {"rental_uris": {"ios": "https://dc.lft.to/lastmile_qr_scan", "android": "https://dc.lft.to/lastmile_qr_scan"}, "lon": -77.04000333333333, "type": "electric_scooter", "fusion_lat": 0.0, "lat": 38.8889025, "name": "cef0d6bd95abbe48b8477e36cb6c11c7", "fusion_lon": 0.0, "bike_id": "cef0d6bd95abbe48b8477e36cb6c11c7", "is_disabled": 0, "is_reserved": 0}, {"rental_uris": {"ios": "https://dc.lft.to/lastmile_qr_scan", "android": "https://dc.lft.to/lastmile_qr_scan"}, "lon": -77.04356516666667, "type": "electric_scooter", "fusion_lat": 0.0, "lat": 38.902682, "name": "c63539edf62385dd37459c4c83c304d9", "fusion_lon": 0.0, "bike_id": "c63539edf62385dd37459c4c83c304d9", "is_disabled": 0, "is_reserved": 0}, {"rental_uris": {"ios": "https://dc.lft.to/lastmile_qr_scan", "android": "https://dc.lft.to/lastmile_qr_scan"}, "lon": -77.038235, "type": "electric_scooter", "fusion_lat": 0.0, "lat": 38.92059783333333, "name": "671cd099b307e74749407e8d228a1cdc", "fusion_lon": 0.0, "bike_id": "671cd099b307e74749407e8d228a1cdc", "is_disabled": 0, "is_reserved": 0}, {"rental_uris": {"ios": "https://dc.lft.to/lastmile_qr_scan", "android": "https://dc.lft.to/lastmile_qr_scan"}, "lon": -77.09520083333334, "type": "electric_bike", "fusion_lat": 0.0, "lat": 38.838131, "name": "d20929279494686209352a651ed6a035", "fusion_lon": 0.0, "bike_id": "d20929279494686209352a651ed6a035", "is_disabled": 0, "is_reserved": 0}, {"rental_uris": {"ios": "https://dc.lft.to/lastmile_qr_scan", "android": "https://dc.lft.to/lastmile_qr_scan"}, "lon": -77.04500433333334, "type": "electric_scooter", "fusion_lat": 0.0, "lat": 38.91599933333333, "name": "7ce19204a9e6c52f09a7db299508596c", "fusion_lon": 0.0, "bike_id": "7ce19204a9e6c52f09a7db299508596c", "is_disabled": 0, "is_reserved": 0}, {"rental_uris": {"ios": "https://dc.lft.to/lastmile_qr_scan", "android": "https://dc.lft.to/lastmile_qr_scan"}, "lon": -77.022191, "type": "electric_scooter", "fusion_lat": 0.0, "lat": 38.89197033333333, "name": "7e9119b632e11fe1f2b8f0995409b895", "fusion_lon": 0.0, "bike_id": "7e9119b632e11fe1f2b8f0995409b895", "is_disabled": 0, "is_reserved": 0}, {"rental_uris": {"ios": "https://dc.lft.to/lastmile_qr_scan", "android": "https://dc.lft.to/lastmile_qr_scan"}, "lon": -77.03199133333334, "type": "electric_scooter", "fusion_lat": 0.0, "lat": 38.917397, "name": "5342090148387d78f44baccba2db426f", "fusion_lon": 0.0, "bike_id": "5342090148387d78f44baccba2db426f", "is_disabled": 0, "is_reserved": 0}, {"rental_uris": {"ios": "https://dc.lft.to/lastmile_qr_scan", "android": "https://dc.lft.to/lastmile_qr_scan"}, "lon": -77.02842983333333, "type": "electric_scooter", "fusion_lat": 0.0, "lat": 38.89411583333333, "name": "cc313e5d4ca9c3f6e4f071438a43a2fb", "fusion_lon": 0.0, "bike_id": "cc313e5d4ca9c3f6e4f071438a43a2fb", "is_disabled": 0, "is_reserved": 0}, {"rental_uris": {"ios": "https://dc.lft.to/lastmile_qr_scan", "android": "https://dc.lft.to/lastmile_qr_scan"}, "lon": -76.95818083333333, "type": "electric_scooter", "fusion_lat": 0.0, "lat": 38.890608, "name": "11b3a10ccec49ab5c4c2500019eb8961", "fusion_lon": 0.0, "bike_id": "11b3a10ccec49ab5c4c2500019eb8961", "is_disabled": 0, "is_reserved": 0}, {"rental_uris": {"ios": "https://dc.lft.to/lastmile_qr_scan", "android": "https://dc.lft.to/lastmile_qr_scan"}, "lon": -77.0356565, "type": "electric_scooter", "fusion_lat": 0.0, "lat": 38.918152166666665, "name": "19aedec8324e8f5b2c7964df7508f2f1", "fusion_lon": 0.0, "bike_id": "19aedec8324e8f5b2c7964df7508f2f1", "is_disabled": 0, "is_reserved": 0}, {"rental_uris": {"ios": "https://dc.lft.to/lastmile_qr_scan", "android": "https://dc.lft.to/lastmile_qr_scan"}, "lon": -77.03146433333333, "type": "electric_scooter", "fusion_lat": 0.0, "lat": 38.914054, "name": "c62678fd43e7f4b268fe44b11d55463b", "fusion_lon": 0.0, "bike_id": "c62678fd43e7f4b268fe44b11d55463b", "is_disabled": 0, "is_reserved": 0}, {"rental_uris": {"ios": "https://dc.lft.to/lastmile_qr_scan", "android": "https://dc.lft.to/lastmile_qr_scan"}, "lon": -77.03472, "type": "electric_scooter", "fusion_lat": 0.0, "lat": 38.93437183333333, "name": "90ce1cd252dc1b0ff6a95df18a95a6e9", "fusion_lon": 0.0, "bike_id": "90ce1cd252dc1b0ff6a95df18a95a6e9", "is_disabled": 0, "is_reserved": 0}, {"rental_uris": {"ios": "https://dc.lft.to/lastmile_qr_scan", "android": "https://dc.lft.to/lastmile_qr_scan"}, "lon": -76.98996016666666, "type": "electric_scooter", "fusion_lat": 0.0, "lat": 38.9038885, "name": "6affe221cb997be5c5482cd366648cb3", "fusion_lon": 0.0, "bike_id": "6affe221cb997be5c5482cd366648cb3", "is_disabled": 0, "is_reserved": 0}, {"rental_uris": {"ios": "https://dc.lft.to/lastmile_qr_scan", "android": "https://dc.lft.to/lastmile_qr_scan"}, "lon": -77.010223, "type": "electric_scooter", "fusion_lat": 0.0, "lat": 38.918116166666664, "name": "ff03ac5d7b649603004b202d385cdbc4", "fusion_lon": 0.0, "bike_id": "ff03ac5d7b649603004b202d385cdbc4", "is_disabled": 0, "is_reserved": 0}, {"rental_uris": {"ios": "https://dc.lft.to/lastmile_qr_scan", "android": "https://dc.lft.to/lastmile_qr_scan"}, "lon": -76.99837383333333, "type": "electric_scooter", "fusion_lat": 0.0, "lat": 38.90038166666667, "name": "b30b717f2712e56f8b278981ef777788", "fusion_lon": 0.0, "bike_id": "b30b717f2712e56f8b278981ef777788", "is_disabled": 0, "is_reserved": 0}, {"rental_uris": {"ios": "https://dc.lft.to/lastmile_qr_scan", "android": "https://dc.lft.to/lastmile_qr_scan"}, "lon": -77.0375635, "type": "electric_scooter", "fusion_lat": 0.0, "lat": 38.91261166666666, "name": "e1ec80399b2921a291921e818de65d48", "fusion_lon": 0.0, "bike_id": "e1ec80399b2921a291921e818de65d48", "is_disabled": 0, "is_reserved": 0}, {"rental_uris": {"ios": "https://dc.lft.to/lastmile_qr_scan", "android": "https://dc.lft.to/lastmile_qr_scan"}, "lon": -76.9830745, "type": "electric_scooter", "fusion_lat": 0.0, "lat": 38.89974266666667, "name": "cffab4377f9d3143a206dee23f90638b", "fusion_lon": 0.0, "bike_id": "cffab4377f9d3143a206dee23f90638b", "is_disabled": 0, "is_reserved": 0}, {"rental_uris": {"ios": "https://dc.lft.to/lastmile_qr_scan", "android": "https://dc.lft.to/lastmile_qr_scan"}, "lon": -77.05755683333334, "type": "electric_scooter", "fusion_lat": 0.0, "lat": 38.93419633333333, "name": "d95802504a65d34cbcedf1c10d5dcf48", "fusion_lon": 0.0, "bike_id": "d95802504a65d34cbcedf1c10d5dcf48", "is_disabled": 0, "is_reserved": 0}, {"rental_uris": {"ios": "https://dc.lft.to/lastmile_qr_scan", "android": "https://dc.lft.to/lastmile_qr_scan"}, "lon": -76.99552316666667, "type": "electric_scooter", "fusion_lat": 0.0, "lat": 38.862356, "name": "fc8ac9726114b33c5db782a421eb34ca", "fusion_lon": 0.0, "bike_id": "fc8ac9726114b33c5db782a421eb34ca", "is_disabled": 0, "is_reserved": 0}, {"rental_uris": {"ios": "https://dc.lft.to/lastmile_qr_scan", "android": "https://dc.lft.to/lastmile_qr_scan"}, "lon": -77.05916383333333, "type": "electric_scooter", "fusion_lat": 0.0, "lat": 38.909607333333334, "name": "54e66cc02d5be3ee928d14693ab37274", "fusion_lon": 0.0, "bike_id": "54e66cc02d5be3ee928d14693ab37274", "is_disabled": 0, "is_reserved": 0}, {"rental_uris": {"ios": "https://dc.lft.to/lastmile_qr_scan", "android": "https://dc.lft.to/lastmile_qr_scan"}, "lon": -77.01995416666666, "type": "electric_scooter", "fusion_lat": 0.0, "lat": 38.93779033333333, "name": "fe1cefa04559c605a076df8159e50021", "fusion_lon": 0.0, "bike_id": "fe1cefa04559c605a076df8159e50021", "is_disabled": 0, "is_reserved": 0}, {"rental_uris": {"ios": "https://dc.lft.to/lastmile_qr_scan", "android": "https://dc.lft.to/lastmile_qr_scan"}, "lon": -77.015031, "type": "electric_scooter", "fusion_lat": 0.0, "lat": 38.9160495, "name": "097452fc2a34849359f9512ce5351d2e", "fusion_lon": 0.0, "bike_id": "097452fc2a34849359f9512ce5351d2e", "is_disabled": 0, "is_reserved": 0}, {"rental_uris": {"ios": "https://dc.lft.to/lastmile_qr_scan", "android": "https://dc.lft.to/lastmile_qr_scan"}, "lon": -77.02978833333333, "type": "electric_bike", "fusion_lat": 0.0, "lat": 38.9369875, "name": "bcd79b8e783730d5992b6b481afd97a4", "fusion_lon": 0.0, "bike_id": "bcd79b8e783730d5992b6b481afd97a4", "is_disabled": 0, "is_reserved": 0}, {"rental_uris": {"ios": "https://dc.lft.to/lastmile_qr_scan", "android": "https://dc.lft.to/lastmile_qr_scan"}, "lon": -77.07360833333334, "type": "electric_scooter", "fusion_lat": 0.0, "lat": 38.937411, "name": "395f90bda9084a9bd4b739019fb6ab51", "fusion_lon": 0.0, "bike_id": "395f90bda9084a9bd4b739019fb6ab51", "is_disabled": 0, "is_reserved": 0}, {"rental_uris": {"ios": "https://dc.lft.to/lastmile_qr_scan", "android": "https://dc.lft.to/lastmile_qr_scan"}, "lon": -77.0292875, "type": "electric_scooter", "fusion_lat": 0.0, "lat": 38.88219483333334, "name": "0204efc9cf4ba4ce61835223ed2f826f", "fusion_lon": 0.0, "bike_id": "0204efc9cf4ba4ce61835223ed2f826f", "is_disabled": 0, "is_reserved": 0}, {"rental_uris": {"ios": "https://dc.lft.to/lastmile_qr_scan", "android": "https://dc.lft.to/lastmile_qr_scan"}, "lon": -76.993351, "type": "electric_bike", "fusion_lat": 0.0, "lat": 38.9619575, "name": "59b2696246bfbf55388d1389d52830df", "fusion_lon": 0.0, "bike_id": "59b2696246bfbf55388d1389d52830df", "is_disabled": 0, "is_reserved": 0}, {"rental_uris": {"ios": "https://dc.lft.to/lastmile_qr_scan", "android": "https://dc.lft.to/lastmile_qr_scan"}, "lon": -77.01870433333333, "type": "electric_scooter", "fusion_lat": 0.0, "lat": 38.948938, "name": "6d8c2d6879ae991b646c97a9a910916f", "fusion_lon": 0.0, "bike_id": "6d8c2d6879ae991b646c97a9a910916f", "is_disabled": 0, "is_reserved": 0}, {"rental_uris": {"ios": "https://dc.lft.to/lastmile_qr_scan", "android": "https://dc.lft.to/lastmile_qr_scan"}, "lon": -77.04219783333333, "type": "electric_scooter", "fusion_lat": 0.0, "lat": 38.91119366666667, "name": "7284ed8b57047e23272ddc45e873e064", "fusion_lon": 0.0, "bike_id": "7284ed8b57047e23272ddc45e873e064", "is_disabled": 0, "is_reserved": 0}, {"rental_uris": {"ios": "https://dc.lft.to/lastmile_qr_scan", "android": "https://dc.lft.to/lastmile_qr_scan"}, "lon": -77.05555516666666, "type": "electric_scooter", "fusion_lat": 0.0, "lat": 38.899843833333335, "name": "90b17ddd7d6eb1305511fd911ea7a066", "fusion_lon": 0.0, "bike_id": "90b17ddd7d6eb1305511fd911ea7a066", "is_disabled": 0, "is_reserved": 0}, {"rental_uris": {"ios": "https://dc.lft.to/lastmile_qr_scan", "android": "https://dc.lft.to/lastmile_qr_scan"}, "lon": -76.97629116666667, "type": "electric_scooter", "fusion_lat": 0.0, "lat": 38.90572483333333, "name": "937cb75587d55a1a427243c37e2bcdc6", "fusion_lon": 0.0, "bike_id": "937cb75587d55a1a427243c37e2bcdc6", "is_disabled": 0, "is_reserved": 0}, {"rental_uris": {"ios": "https://dc.lft.to/lastmile_qr_scan", "android": "https://dc.lft.to/lastmile_qr_scan"}, "lon": -77.048254, "type": "electric_scooter", "fusion_lat": 0.0, "lat": 38.89731716666667, "name": "6976f07d59bc9923d6886f62a5a94a36", "fusion_lon": 0.0, "bike_id": "6976f07d59bc9923d6886f62a5a94a36", "is_disabled": 0, "is_reserved": 0}, {"rental_uris": {"ios": "https://dc.lft.to/lastmile_qr_scan", "android": "https://dc.lft.to/lastmile_qr_scan"}, "lon": -77.06643566666666, "type": "electric_scooter", "fusion_lat": 0.0, "lat": 38.91381416666667, "name": "c99957ad6dff7f7d0adf8c6c30e0b2cb", "fusion_lon": 0.0, "bike_id": "c99957ad6dff7f7d0adf8c6c30e0b2cb", "is_disabled": 0, "is_reserved": 0}, {"rental_uris": {"ios": "https://dc.lft.to/lastmile_qr_scan", "android": "https://dc.lft.to/lastmile_qr_scan"}, "lon": -77.0317815, "type": "electric_scooter", "fusion_lat": 0.0, "lat": 38.9084955, "name": "ec510cabfa1867abb3db6191754e06fe", "fusion_lon": 0.0, "bike_id": "ec510cabfa1867abb3db6191754e06fe", "is_disabled": 0, "is_reserved": 0}, {"rental_uris": {"ios": "https://dc.lft.to/lastmile_qr_scan", "android": "https://dc.lft.to/lastmile_qr_scan"}, "lon": -76.965282, "type": "electric_scooter", "fusion_lat": 0.0, "lat": 38.87629733333333, "name": "12e429301a223a5758d5e9bc2b6ba6a5", "fusion_lon": 0.0, "bike_id": "12e429301a223a5758d5e9bc2b6ba6a5", "is_disabled": 0, "is_reserved": 0}, {"rental_uris": {"ios": "https://dc.lft.to/lastmile_qr_scan", "android": "https://dc.lft.to/lastmile_qr_scan"}, "lon": -77.04609816666667, "type": "electric_scooter", "fusion_lat": 0.0, "lat": 38.902766, "name": "4a21edf280b1bfeec9657dda762b13f9", "fusion_lon": 0.0, "bike_id": "4a21edf280b1bfeec9657dda762b13f9", "is_disabled": 0, "is_reserved": 0}, {"rental_uris": {"ios": "https://dc.lft.to/lastmile_qr_scan", "android": "https://dc.lft.to/lastmile_qr_scan"}, "lon": -77.10694316666667, "type": "electric_bike", "fusion_lat": 0.0, "lat": 38.8553915, "name": "f1594e1356c76d823db78dc34775920c", "fusion_lon": 0.0, "bike_id": "f1594e1356c76d823db78dc34775920c", "is_disabled": 0, "is_reserved": 0}, {"rental_uris": {"ios": "https://dc.lft.to/lastmile_qr_scan", "android": "https://dc.lft.to/lastmile_qr_scan"}, "lon": -76.97612466666666, "type": "electric_scooter", "fusion_lat": 0.0, "lat": 38.90386316666667, "name": "9de5d89c8f2bed72ca927d245618b439", "fusion_lon": 0.0, "bike_id": "9de5d89c8f2bed72ca927d245618b439", "is_disabled": 0, "is_reserved": 0}, {"rental_uris": {"ios": "https://dc.lft.to/lastmile_qr_scan", "android": "https://dc.lft.to/lastmile_qr_scan"}, "lon": -76.87825316666667, "type": "electric_bike", "fusion_lat": 0.0, "lat": 38.992353, "name": "c62ed515f56f5314b4c3fc9272082875", "fusion_lon": 0.0, "bike_id": "c62ed515f56f5314b4c3fc9272082875", "is_disabled": 0, "is_reserved": 0}, {"rental_uris": {"ios": "https://dc.lft.to/lastmile_qr_scan", "android": "https://dc.lft.to/lastmile_qr_scan"}, "lon": -77.03820766666666, "type": "electric_scooter", "fusion_lat": 0.0, "lat": 38.921721166666664, "name": "18064d006cd214445a67e1c7fd7973e1", "fusion_lon": 0.0, "bike_id": "18064d006cd214445a67e1c7fd7973e1", "is_disabled": 0, "is_reserved": 0}, {"rental_uris": {"ios": "https://dc.lft.to/lastmile_qr_scan", "android": "https://dc.lft.to/lastmile_qr_scan"}, "lon": -77.024734, "type": "electric_scooter", "fusion_lat": 0.0, "lat": 38.918177, "name": "d891a8f6caea0764b4610cac2f712d40", "fusion_lon": 0.0, "bike_id": "d891a8f6caea0764b4610cac2f712d40", "is_disabled": 0, "is_reserved": 0}, {"rental_uris": {"ios": "https://dc.lft.to/lastmile_qr_scan", "android": "https://dc.lft.to/lastmile_qr_scan"}, "lon": -76.977448, "type": "electric_scooter", "fusion_lat": 0.0, "lat": 38.900080833333334, "name": "fd06698f2c88ebc81e285db41385f5d5", "fusion_lon": 0.0, "bike_id": "fd06698f2c88ebc81e285db41385f5d5", "is_disabled": 0, "is_reserved": 0}, {"rental_uris": {"ios": "https://dc.lft.to/lastmile_qr_scan", "android": "https://dc.lft.to/lastmile_qr_scan"}, "lon": -77.0379055, "type": "electric_scooter", "fusion_lat": 0.0, "lat": 38.9263645, "name": "84658c0e81c291971b28050f98d7bcb1", "fusion_lon": 0.0, "bike_id": "84658c0e81c291971b28050f98d7bcb1", "is_disabled": 0, "is_reserved": 0}, {"rental_uris": {"ios": "https://dc.lft.to/lastmile_qr_scan", "android": "https://dc.lft.to/lastmile_qr_scan"}, "lon": -76.9463495, "type": "electric_scooter", "fusion_lat": 0.0, "lat": 38.89833083333333, "name": "b146cceb2bb617b2fdc2267124255296", "fusion_lon": 0.0, "bike_id": "b146cceb2bb617b2fdc2267124255296", "is_disabled": 0, "is_reserved": 0}, {"rental_uris": {"ios": "https://dc.lft.to/lastmile_qr_scan", "android": "https://dc.lft.to/lastmile_qr_scan"}, "lon": -76.95760283333334, "type": "electric_bike", "fusion_lat": 0.0, "lat": 38.88417783333333, "name": "f4a9ab0b8842d3381ba5671abeb79c5e", "fusion_lon": 0.0, "bike_id": "f4a9ab0b8842d3381ba5671abeb79c5e", "is_disabled": 0, "is_reserved": 0}, {"rental_uris": {"ios": "https://dc.lft.to/lastmile_qr_scan", "android": "https://dc.lft.to/lastmile_qr_scan"}, "lon": -76.99515616666666, "type": "electric_scooter", "fusion_lat": 0.0, "lat": 38.88372233333333, "name": "a5f157ff3a01cf14fac75a3f74ab287a", "fusion_lon": 0.0, "bike_id": "a5f157ff3a01cf14fac75a3f74ab287a", "is_disabled": 0, "is_reserved": 0}, {"rental_uris": {"ios": "https://dc.lft.to/lastmile_qr_scan", "android": "https://dc.lft.to/lastmile_qr_scan"}, "lon": -76.927129, "type": "electric_scooter", "fusion_lat": 0.0, "lat": 38.88768866666667, "name": "c9925beecdff7c820e6c851cd576b3fc", "fusion_lon": 0.0, "bike_id": "c9925beecdff7c820e6c851cd576b3fc", "is_disabled": 0, "is_reserved": 0}, {"rental_uris": {"ios": "https://dc.lft.to/lastmile_qr_scan", "android": "https://dc.lft.to/lastmile_qr_scan"}, "lon": -76.98902033333333, "type": "electric_scooter", "fusion_lat": 0.0, "lat": 38.86694466666667, "name": "b6ff996401a73aa98855985b4b4a8c1d", "fusion_lon": 0.0, "bike_id": "b6ff996401a73aa98855985b4b4a8c1d", "is_disabled": 0, "is_reserved": 0}, {"rental_uris": {"ios": "https://dc.lft.to/lastmile_qr_scan", "android": "https://dc.lft.to/lastmile_qr_scan"}, "lon": -77.00577916666667, "type": "electric_scooter", "fusion_lat": 0.0, "lat": 38.88075416666667, "name": "659fb5e975bda558bd2cd44aba4816fa", "fusion_lon": 0.0, "bike_id": "659fb5e975bda558bd2cd44aba4816fa", "is_disabled": 0, "is_reserved": 0}, {"rental_uris": {"ios": "https://dc.lft.to/lastmile_qr_scan", "android": "https://dc.lft.to/lastmile_qr_scan"}, "lon": -77.06646233333333, "type": "electric_scooter", "fusion_lat": 0.0, "lat": 38.926886, "name": "ea781cfb6c1aaff995c9bc2371652bbe", "fusion_lon": 0.0, "bike_id": "ea781cfb6c1aaff995c9bc2371652bbe", "is_disabled": 0, "is_reserved": 0}, {"rental_uris": {"ios": "https://dc.lft.to/lastmile_qr_scan", "android": "https://dc.lft.to/lastmile_qr_scan"}, "lon": -77.0173985, "type": "electric_scooter", "fusion_lat": 0.0, "lat": 38.8820545, "name": "3fc37f835815bbc941a70a617a0f3004", "fusion_lon": 0.0, "bike_id": "3fc37f835815bbc941a70a617a0f3004", "is_disabled": 0, "is_reserved": 0}, {"rental_uris": {"ios": "https://dc.lft.to/lastmile_qr_scan", "android": "https://dc.lft.to/lastmile_qr_scan"}, "lon": -77.052077, "type": "electric_scooter", "fusion_lat": 0.0, "lat": 38.924368333333334, "name": "90b2fe5290b767afffc5f59f5a78621b", "fusion_lon": 0.0, "bike_id": "90b2fe5290b767afffc5f59f5a78621b", "is_disabled": 0, "is_reserved": 0}, {"rental_uris": {"ios": "https://dc.lft.to/lastmile_qr_scan", "android": "https://dc.lft.to/lastmile_qr_scan"}, "lon": -77.04882, "type": "electric_scooter", "fusion_lat": 0.0, "lat": 38.9035575, "name": "154c411433bcfe936a2e949ec9b4df3e", "fusion_lon": 0.0, "bike_id": "154c411433bcfe936a2e949ec9b4df3e", "is_disabled": 0, "is_reserved": 0}, {"rental_uris": {"ios": "https://dc.lft.to/lastmile_qr_scan", "android": "https://dc.lft.to/lastmile_qr_scan"}, "lon": -77.02342533333334, "type": "electric_scooter", "fusion_lat": 0.0, "lat": 38.929417666666666, "name": "08101fbec0592bac9be17eff56c56565", "fusion_lon": 0.0, "bike_id": "08101fbec0592bac9be17eff56c56565", "is_disabled": 0, "is_reserved": 0}, {"rental_uris": {"ios": "https://dc.lft.to/lastmile_qr_scan", "android": "https://dc.lft.to/lastmile_qr_scan"}, "lon": -77.06631833333333, "type": "electric_scooter", "fusion_lat": 0.0, "lat": 38.9280435, "name": "edd48e6239ce2ca96156561a25c39d3a", "fusion_lon": 0.0, "bike_id": "edd48e6239ce2ca96156561a25c39d3a", "is_disabled": 0, "is_reserved": 0}, {"rental_uris": {"ios": "https://dc.lft.to/lastmile_qr_scan", "android": "https://dc.lft.to/lastmile_qr_scan"}, "lon": -76.99015116666666, "type": "electric_scooter", "fusion_lat": 0.0, "lat": 38.86106733333333, "name": "37024293065c91223c5668c70c42c2c9", "fusion_lon": 0.0, "bike_id": "37024293065c91223c5668c70c42c2c9", "is_disabled": 0, "is_reserved": 0}, {"rental_uris": {"ios": "https://dc.lft.to/lastmile_qr_scan", "android": "https://dc.lft.to/lastmile_qr_scan"}, "lon": -76.99765116666667, "type": "electric_scooter", "fusion_lat": 0.0, "lat": 38.9003455, "name": "79d0bca125fa4235322d272a0cdc3444", "fusion_lon": 0.0, "bike_id": "79d0bca125fa4235322d272a0cdc3444", "is_disabled": 0, "is_reserved": 0}, {"rental_uris": {"ios": "https://dc.lft.to/lastmile_qr_scan", "android": "https://dc.lft.to/lastmile_qr_scan"}, "lon": -77.030697, "type": "electric_scooter", "fusion_lat": 0.0, "lat": 38.90574983333333, "name": "ad63f322fcacb5e7aedf6b58e5876b05", "fusion_lon": 0.0, "bike_id": "ad63f322fcacb5e7aedf6b58e5876b05", "is_disabled": 0, "is_reserved": 0}, {"rental_uris": {"ios": "https://dc.lft.to/lastmile_qr_scan", "android": "https://dc.lft.to/lastmile_qr_scan"}, "lon": -77.03180533333334, "type": "electric_scooter", "fusion_lat": 0.0, "lat": 38.919254333333335, "name": "fcf5ee66a200a4cb5dded013c105f00b", "fusion_lon": 0.0, "bike_id": "fcf5ee66a200a4cb5dded013c105f00b", "is_disabled": 0, "is_reserved": 0}, {"rental_uris": {"ios": "https://dc.lft.to/lastmile_qr_scan", "android": "https://dc.lft.to/lastmile_qr_scan"}, "lon": -77.02783466666666, "type": "electric_scooter", "fusion_lat": 0.0, "lat": 38.926818833333336, "name": "39d34edf482ae288bca1717f87534eda", "fusion_lon": 0.0, "bike_id": "39d34edf482ae288bca1717f87534eda", "is_disabled": 0, "is_reserved": 0}, {"rental_uris": {"ios": "https://dc.lft.to/lastmile_qr_scan", "android": "https://dc.lft.to/lastmile_qr_scan"}, "lon": -76.94760533333333, "type": "electric_scooter", "fusion_lat": 0.0, "lat": 38.90055783333333, "name": "942f5d3c974c4e5cc646f5a38003b0ad", "fusion_lon": 0.0, "bike_id": "942f5d3c974c4e5cc646f5a38003b0ad", "is_disabled": 0, "is_reserved": 0}, {"rental_uris": {"ios": "https://dc.lft.to/lastmile_qr_scan", "android": "https://dc.lft.to/lastmile_qr_scan"}, "lon": -77.04678016666666, "type": "electric_scooter", "fusion_lat": 0.0, "lat": 38.897299333333336, "name": "b1b6dec9ad5103cfb52c1172bf6af69a", "fusion_lon": 0.0, "bike_id": "b1b6dec9ad5103cfb52c1172bf6af69a", "is_disabled": 0, "is_reserved": 0}, {"rental_uris": {"ios": "https://dc.lft.to/lastmile_qr_scan", "android": "https://dc.lft.to/lastmile_qr_scan"}, "lon": -76.98000516666667, "type": "electric_bike", "fusion_lat": 0.0, "lat": 38.90250533333333, "name": "dbd039d61a573740929ac0ac5cb16465", "fusion_lon": 0.0, "bike_id": "dbd039d61a573740929ac0ac5cb16465", "is_disabled": 0, "is_reserved": 0}, {"rental_uris": {"ios": "https://dc.lft.to/lastmile_qr_scan", "android": "https://dc.lft.to/lastmile_qr_scan"}, "lon": -77.021325, "type": "electric_scooter", "fusion_lat": 0.0, "lat": 38.937631, "name": "c4b33f4786ee1642269dd3da6f01a899", "fusion_lon": 0.0, "bike_id": "c4b33f4786ee1642269dd3da6f01a899", "is_disabled": 0, "is_reserved": 0}, {"rental_uris": {"ios": "https://dc.lft.to/lastmile_qr_scan", "android": "https://dc.lft.to/lastmile_qr_scan"}, "lon": -77.03308516666667, "type": "electric_scooter", "fusion_lat": 0.0, "lat": 38.9265155, "name": "de59294e63720ff9bb9f9665396236a8", "fusion_lon": 0.0, "bike_id": "de59294e63720ff9bb9f9665396236a8", "is_disabled": 0, "is_reserved": 0}, {"rental_uris": {"ios": "https://dc.lft.to/lastmile_qr_scan", "android": "https://dc.lft.to/lastmile_qr_scan"}, "lon": -76.97667416666667, "type": "electric_scooter", "fusion_lat": 0.0, "lat": 38.898945499999996, "name": "da44d56d49a2cf46b1478f9eb4ae9eb1", "fusion_lon": 0.0, "bike_id": "da44d56d49a2cf46b1478f9eb4ae9eb1", "is_disabled": 0, "is_reserved": 0}, {"rental_uris": {"ios": "https://dc.lft.to/lastmile_qr_scan", "android": "https://dc.lft.to/lastmile_qr_scan"}, "lon": -77.02381516666667, "type": "electric_scooter", "fusion_lat": 0.0, "lat": 38.9524545, "name": "52102f43ca46adf4cfa223703735aca8", "fusion_lon": 0.0, "bike_id": "52102f43ca46adf4cfa223703735aca8", "is_disabled": 0, "is_reserved": 0}, {"rental_uris": {"ios": "https://dc.lft.to/lastmile_qr_scan", "android": "https://dc.lft.to/lastmile_qr_scan"}, "lon": -77.0100465, "type": "electric_scooter", "fusion_lat": 0.0, "lat": 38.86717266666667, "name": "19c0f0cab9ac2746594388de3c1e31fa", "fusion_lon": 0.0, "bike_id": "19c0f0cab9ac2746594388de3c1e31fa", "is_disabled": 0, "is_reserved": 0}, {"rental_uris": {"ios": "https://dc.lft.to/lastmile_qr_scan", "android": "https://dc.lft.to/lastmile_qr_scan"}, "lon": -77.0298525, "type": "electric_scooter", "fusion_lat": 0.0, "lat": 38.945190333333336, "name": "c79cb08e175d626bc27a02533656d402", "fusion_lon": 0.0, "bike_id": "c79cb08e175d626bc27a02533656d402", "is_disabled": 0, "is_reserved": 0}, {"rental_uris": {"ios": "https://dc.lft.to/lastmile_qr_scan", "android": "https://dc.lft.to/lastmile_qr_scan"}, "lon": -77.03282766666666, "type": "electric_scooter", "fusion_lat": 0.0, "lat": 38.919903, "name": "52d3d7e340bac9621e50c35a700439eb", "fusion_lon": 0.0, "bike_id": "52d3d7e340bac9621e50c35a700439eb", "is_disabled": 0, "is_reserved": 0}, {"rental_uris": {"ios": "https://dc.lft.to/lastmile_qr_scan", "android": "https://dc.lft.to/lastmile_qr_scan"}, "lon": -77.041552, "type": "electric_scooter", "fusion_lat": 0.0, "lat": 38.914859666666665, "name": "4da3bdf402380fa3465e1d759aa1c376", "fusion_lon": 0.0, "bike_id": "4da3bdf402380fa3465e1d759aa1c376", "is_disabled": 0, "is_reserved": 0}, {"rental_uris": {"ios": "https://dc.lft.to/lastmile_qr_scan", "android": "https://dc.lft.to/lastmile_qr_scan"}, "lon": -77.0257045, "type": "electric_scooter", "fusion_lat": 0.0, "lat": 38.972466, "name": "7fcaaa7190e36236c49baa804d0eaf54", "fusion_lon": 0.0, "bike_id": "7fcaaa7190e36236c49baa804d0eaf54", "is_disabled": 0, "is_reserved": 0}, {"rental_uris": {"ios": "https://dc.lft.to/lastmile_qr_scan", "android": "https://dc.lft.to/lastmile_qr_scan"}, "lon": -77.08934083333334, "type": "electric_bike", "fusion_lat": 0.0, "lat": 38.84087666666667, "name": "ee0978182edb4e727dcf2296618bac4f", "fusion_lon": 0.0, "bike_id": "ee0978182edb4e727dcf2296618bac4f", "is_disabled": 0, "is_reserved": 0}, {"rental_uris": {"ios": "https://dc.lft.to/lastmile_qr_scan", "android": "https://dc.lft.to/lastmile_qr_scan"}, "lon": -77.03959916666666, "type": "electric_scooter", "fusion_lat": 0.0, "lat": 38.9261575, "name": "daf27d561514affac77d5612f8e30a1c", "fusion_lon": 0.0, "bike_id": "daf27d561514affac77d5612f8e30a1c", "is_disabled": 0, "is_reserved": 0}, {"rental_uris": {"ios": "https://dc.lft.to/lastmile_qr_scan", "android": "https://dc.lft.to/lastmile_qr_scan"}, "lon": -77.02616583333334, "type": "electric_scooter", "fusion_lat": 0.0, "lat": 38.95186733333333, "name": "2646843344feab0cd6b6c442b1f781f0", "fusion_lon": 0.0, "bike_id": "2646843344feab0cd6b6c442b1f781f0", "is_disabled": 0, "is_reserved": 0}, {"rental_uris": {"ios": "https://dc.lft.to/lastmile_qr_scan", "android": "https://dc.lft.to/lastmile_qr_scan"}, "lon": -77.0298795, "type": "electric_scooter", "fusion_lat": 0.0, "lat": 38.95626933333333, "name": "41c3251110bd2d12e7aaba5461d5ea27", "fusion_lon": 0.0, "bike_id": "41c3251110bd2d12e7aaba5461d5ea27", "is_disabled": 0, "is_reserved": 0}, {"rental_uris": {"ios": "https://dc.lft.to/lastmile_qr_scan", "android": "https://dc.lft.to/lastmile_qr_scan"}, "lon": -77.05752133333333, "type": "electric_scooter", "fusion_lat": 0.0, "lat": 38.9246465, "name": "b17823438739fd49e80c25b32721db31", "fusion_lon": 0.0, "bike_id": "b17823438739fd49e80c25b32721db31", "is_disabled": 0, "is_reserved": 0}, {"rental_uris": {"ios": "https://dc.lft.to/lastmile_qr_scan", "android": "https://dc.lft.to/lastmile_qr_scan"}, "lon": -77.04075783333333, "type": "electric_bike", "fusion_lat": 0.0, "lat": 38.812372333333336, "name": "1f721de8b5cb0e2cf7f6b8b7c9cffbdd", "fusion_lon": 0.0, "bike_id": "1f721de8b5cb0e2cf7f6b8b7c9cffbdd", "is_disabled": 0, "is_reserved": 0}, {"rental_uris": {"ios": "https://dc.lft.to/lastmile_qr_scan", "android": "https://dc.lft.to/lastmile_qr_scan"}, "lon": -76.99384133333334, "type": "electric_scooter", "fusion_lat": 0.0, "lat": 38.900588166666665, "name": "ec214841e2886a412483c740cff8167e", "fusion_lon": 0.0, "bike_id": "ec214841e2886a412483c740cff8167e", "is_disabled": 0, "is_reserved": 0}, {"rental_uris": {"ios": "https://dc.lft.to/lastmile_qr_scan", "android": "https://dc.lft.to/lastmile_qr_scan"}, "lon": -77.06466833333333, "type": "electric_scooter", "fusion_lat": 0.0, "lat": 38.94670716666667, "name": "66bb408a63dabeeec570f6f23b15ace6", "fusion_lon": 0.0, "bike_id": "66bb408a63dabeeec570f6f23b15ace6", "is_disabled": 0, "is_reserved": 0}, {"rental_uris": {"ios": "https://dc.lft.to/lastmile_qr_scan", "android": "https://dc.lft.to/lastmile_qr_scan"}, "lon": -77.0297995, "type": "electric_scooter", "fusion_lat": 0.0, "lat": 38.9460495, "name": "9838c5cb84d0262cf1923b7cf830fc20", "fusion_lon": 0.0, "bike_id": "9838c5cb84d0262cf1923b7cf830fc20", "is_disabled": 0, "is_reserved": 0}, {"rental_uris": {"ios": "https://dc.lft.to/lastmile_qr_scan", "android": "https://dc.lft.to/lastmile_qr_scan"}, "lon": -76.93888233333334, "type": "electric_bike", "fusion_lat": 0.0, "lat": 38.88330533333333, "name": "fff2defd4a60493d0d3bd3a3ac7adf92", "fusion_lon": 0.0, "bike_id": "fff2defd4a60493d0d3bd3a3ac7adf92", "is_disabled": 0, "is_reserved": 0}, {"rental_uris": {"ios": "https://dc.lft.to/lastmile_qr_scan", "android": "https://dc.lft.to/lastmile_qr_scan"}, "lon": -77.052232, "type": "electric_scooter", "fusion_lat": 0.0, "lat": 38.924965666666665, "name": "5861b168bc6b1b0a8eaad5efdadbe9ac", "fusion_lon": 0.0, "bike_id": "5861b168bc6b1b0a8eaad5efdadbe9ac", "is_disabled": 0, "is_reserved": 0}, {"rental_uris": {"ios": "https://dc.lft.to/lastmile_qr_scan", "android": "https://dc.lft.to/lastmile_qr_scan"}, "lon": -77.058835, "type": "electric_scooter", "fusion_lat": 0.0, "lat": 38.936365, "name": "e5c54629b355eea81c92c27f08667392", "fusion_lon": 0.0, "bike_id": "e5c54629b355eea81c92c27f08667392", "is_disabled": 0, "is_reserved": 0}, {"rental_uris": {"ios": "https://dc.lft.to/lastmile_qr_scan", "android": "https://dc.lft.to/lastmile_qr_scan"}, "lon": -77.03477033333333, "type": "electric_scooter", "fusion_lat": 0.0, "lat": 38.934497, "name": "00018a9cd6e4295c5a9341faf344967a", "fusion_lon": 0.0, "bike_id": "00018a9cd6e4295c5a9341faf344967a", "is_disabled": 0, "is_reserved": 0}, {"rental_uris": {"ios": "https://dc.lft.to/lastmile_qr_scan", "android": "https://dc.lft.to/lastmile_qr_scan"}, "lon": -77.00724133333334, "type": "electric_scooter", "fusion_lat": 0.0, "lat": 38.884913166666664, "name": "885e267e5623505a7397e20e13b9fc61", "fusion_lon": 0.0, "bike_id": "885e267e5623505a7397e20e13b9fc61", "is_disabled": 0, "is_reserved": 0}, {"rental_uris": {"ios": "https://dc.lft.to/lastmile_qr_scan", "android": "https://dc.lft.to/lastmile_qr_scan"}, "lon": -77.0022305, "type": "electric_scooter", "fusion_lat": 0.0, "lat": 38.90030866666667, "name": "8c68f74fb99ed17a2085d42afb78c8db", "fusion_lon": 0.0, "bike_id": "8c68f74fb99ed17a2085d42afb78c8db", "is_disabled": 0, "is_reserved": 0}, {"rental_uris": {"ios": "https://dc.lft.to/lastmile_qr_scan", "android": "https://dc.lft.to/lastmile_qr_scan"}, "lon": -77.04786566666667, "type": "electric_scooter", "fusion_lat": 0.0, "lat": 38.892245833333334, "name": "2d86dbe02d8388938b950e88b44e5cd0", "fusion_lon": 0.0, "bike_id": "2d86dbe02d8388938b950e88b44e5cd0", "is_disabled": 0, "is_reserved": 0}, {"rental_uris": {"ios": "https://dc.lft.to/lastmile_qr_scan", "android": "https://dc.lft.to/lastmile_qr_scan"}, "lon": -77.0334675, "type": "electric_scooter", "fusion_lat": 0.0, "lat": 38.88508916666667, "name": "f4a2524378426ae15d2f927df6be7654", "fusion_lon": 0.0, "bike_id": "f4a2524378426ae15d2f927df6be7654", "is_disabled": 0, "is_reserved": 0}, {"rental_uris": {"ios": "https://dc.lft.to/lastmile_qr_scan", "android": "https://dc.lft.to/lastmile_qr_scan"}, "lon": -77.02098166666667, "type": "electric_scooter", "fusion_lat": 0.0, "lat": 38.93117683333333, "name": "e1f78861bce8bf290e31203fc8a1a8d8", "fusion_lon": 0.0, "bike_id": "e1f78861bce8bf290e31203fc8a1a8d8", "is_disabled": 0, "is_reserved": 0}, {"rental_uris": {"ios": "https://dc.lft.to/lastmile_qr_scan", "android": "https://dc.lft.to/lastmile_qr_scan"}, "lon": -77.17853783333334, "type": "electric_bike", "fusion_lat": 0.0, "lat": 39.088991, "name": "27188545b34f24202dab8b003ecc1baf", "fusion_lon": 0.0, "bike_id": "27188545b34f24202dab8b003ecc1baf", "is_disabled": 0, "is_reserved": 0}, {"rental_uris": {"ios": "https://dc.lft.to/lastmile_qr_scan", "android": "https://dc.lft.to/lastmile_qr_scan"}, "lon": -77.00667433333334, "type": "electric_scooter", "fusion_lat": 0.0, "lat": 38.87486616666666, "name": "269d4d6cfe8fc946673f2eb4b31e30dd", "fusion_lon": 0.0, "bike_id": "269d4d6cfe8fc946673f2eb4b31e30dd", "is_disabled": 0, "is_reserved": 0}, {"rental_uris": {"ios": "https://dc.lft.to/lastmile_qr_scan", "android": "https://dc.lft.to/lastmile_qr_scan"}, "lon": -77.08542783333333, "type": "electric_bike", "fusion_lat": 0.0, "lat": 38.85622566666667, "name": "2e36454d50c69f01400bc32115b1c18d", "fusion_lon": 0.0, "bike_id": "2e36454d50c69f01400bc32115b1c18d", "is_disabled": 0, "is_reserved": 0}, {"rental_uris": {"ios": "https://dc.lft.to/lastmile_qr_scan", "android": "https://dc.lft.to/lastmile_qr_scan"}, "lon": -77.02980333333333, "type": "electric_scooter", "fusion_lat": 0.0, "lat": 38.96229483333333, "name": "422d3e39831899bd568f91793c2853c8", "fusion_lon": 0.0, "bike_id": "422d3e39831899bd568f91793c2853c8", "is_disabled": 0, "is_reserved": 0}, {"rental_uris": {"ios": "https://dc.lft.to/lastmile_qr_scan", "android": "https://dc.lft.to/lastmile_qr_scan"}, "lon": -77.02630116666667, "type": "electric_bike", "fusion_lat": 0.0, "lat": 38.96227716666667, "name": "bc6b6ae22f1b2373e553469140773c71", "fusion_lon": 0.0, "bike_id": "bc6b6ae22f1b2373e553469140773c71", "is_disabled": 0, "is_reserved": 0}, {"rental_uris": {"ios": "https://dc.lft.to/lastmile_qr_scan", "android": "https://dc.lft.to/lastmile_qr_scan"}, "lon": -77.04102933333333, "type": "electric_scooter", "fusion_lat": 0.0, "lat": 38.918578, "name": "ffc64b0a4cab3d500fa4a9a8c5eb0cb6", "fusion_lon": 0.0, "bike_id": "ffc64b0a4cab3d500fa4a9a8c5eb0cb6", "is_disabled": 0, "is_reserved": 0}, {"rental_uris": {"ios": "https://dc.lft.to/lastmile_qr_scan", "android": "https://dc.lft.to/lastmile_qr_scan"}, "lon": -77.04420366666666, "type": "electric_scooter", "fusion_lat": 0.0, "lat": 38.892231, "name": "d69d87edf9d4eb8273b35b5871863815", "fusion_lon": 0.0, "bike_id": "d69d87edf9d4eb8273b35b5871863815", "is_disabled": 0, "is_reserved": 0}, {"rental_uris": {"ios": "https://dc.lft.to/lastmile_qr_scan", "android": "https://dc.lft.to/lastmile_qr_scan"}, "lon": -77.038283, "type": "electric_scooter", "fusion_lat": 0.0, "lat": 38.9111365, "name": "6e9e8e8418ee4a9745194d07f9151b07", "fusion_lon": 0.0, "bike_id": "6e9e8e8418ee4a9745194d07f9151b07", "is_disabled": 0, "is_reserved": 0}, {"rental_uris": {"ios": "https://dc.lft.to/lastmile_qr_scan", "android": "https://dc.lft.to/lastmile_qr_scan"}, "lon": -76.96527966666666, "type": "electric_scooter", "fusion_lat": 0.0, "lat": 38.876278, "name": "d742a31c126c791546f40943ed1551b9", "fusion_lon": 0.0, "bike_id": "d742a31c126c791546f40943ed1551b9", "is_disabled": 0, "is_reserved": 0}, {"rental_uris": {"ios": "https://dc.lft.to/lastmile_qr_scan", "android": "https://dc.lft.to/lastmile_qr_scan"}, "lon": -77.0418465, "type": "electric_scooter", "fusion_lat": 0.0, "lat": 38.912705, "name": "59df582e56ee5c81eba1de11a551c6a1", "fusion_lon": 0.0, "bike_id": "59df582e56ee5c81eba1de11a551c6a1", "is_disabled": 0, "is_reserved": 0}, {"rental_uris": {"ios": "https://dc.lft.to/lastmile_qr_scan", "android": "https://dc.lft.to/lastmile_qr_scan"}, "lon": -77.01601733333334, "type": "electric_scooter", "fusion_lat": 0.0, "lat": 38.899745833333334, "name": "a1dc8b163ec9cf6e3d592f9fd881ccc1", "fusion_lon": 0.0, "bike_id": "a1dc8b163ec9cf6e3d592f9fd881ccc1", "is_disabled": 0, "is_reserved": 0}, {"rental_uris": {"ios": "https://dc.lft.to/lastmile_qr_scan", "android": "https://dc.lft.to/lastmile_qr_scan"}, "lon": -77.03301633333334, "type": "electric_scooter", "fusion_lat": 0.0, "lat": 38.91118083333333, "name": "7d7b5fc3a095dd081ac48d17894cafb1", "fusion_lon": 0.0, "bike_id": "7d7b5fc3a095dd081ac48d17894cafb1", "is_disabled": 0, "is_reserved": 0}, {"rental_uris": {"ios": "https://dc.lft.to/lastmile_qr_scan", "android": "https://dc.lft.to/lastmile_qr_scan"}, "lon": -77.01112666666667, "type": "electric_scooter", "fusion_lat": 0.0, "lat": 38.9036415, "name": "521613346cc5a0d52bb8eae1e12bb2ad", "fusion_lon": 0.0, "bike_id": "521613346cc5a0d52bb8eae1e12bb2ad", "is_disabled": 0, "is_reserved": 0}, {"rental_uris": {"ios": "https://dc.lft.to/lastmile_qr_scan", "android": "https://dc.lft.to/lastmile_qr_scan"}, "lon": -77.015132, "type": "electric_scooter", "fusion_lat": 0.0, "lat": 38.91612, "name": "694dd9a44e0022220189c34c8880b5a7", "fusion_lon": 0.0, "bike_id": "694dd9a44e0022220189c34c8880b5a7", "is_disabled": 0, "is_reserved": 0}, {"rental_uris": {"ios": "https://dc.lft.to/lastmile_qr_scan", "android": "https://dc.lft.to/lastmile_qr_scan"}, "lon": -77.0280205, "type": "electric_scooter", "fusion_lat": 0.0, "lat": 38.89914316666667, "name": "578cd6cdb553826a0417185f25aafbfc", "fusion_lon": 0.0, "bike_id": "578cd6cdb553826a0417185f25aafbfc", "is_disabled": 0, "is_reserved": 0}, {"rental_uris": {"ios": "https://dc.lft.to/lastmile_qr_scan", "android": "https://dc.lft.to/lastmile_qr_scan"}, "lon": -77.04271966666667, "type": "electric_scooter", "fusion_lat": 0.0, "lat": 38.923102, "name": "6b70e47d0c71936a2034939ad13597b9", "fusion_lon": 0.0, "bike_id": "6b70e47d0c71936a2034939ad13597b9", "is_disabled": 0, "is_reserved": 0}, {"rental_uris": {"ios": "https://dc.lft.to/lastmile_qr_scan", "android": "https://dc.lft.to/lastmile_qr_scan"}, "lon": -77.0295555, "type": "electric_scooter", "fusion_lat": 0.0, "lat": 38.90503483333333, "name": "f7eb3310a4907ed97fef2f3c3bb7efa2", "fusion_lon": 0.0, "bike_id": "f7eb3310a4907ed97fef2f3c3bb7efa2", "is_disabled": 0, "is_reserved": 0}, {"rental_uris": {"ios": "https://dc.lft.to/lastmile_qr_scan", "android": "https://dc.lft.to/lastmile_qr_scan"}, "lon": -76.96553633333333, "type": "electric_bike", "fusion_lat": 0.0, "lat": 38.95100766666667, "name": "c5ae5eaf97e64b60f90e5b54b110b9f1", "fusion_lon": 0.0, "bike_id": "c5ae5eaf97e64b60f90e5b54b110b9f1", "is_disabled": 0, "is_reserved": 0}, {"rental_uris": {"ios": "https://dc.lft.to/lastmile_qr_scan", "android": "https://dc.lft.to/lastmile_qr_scan"}, "lon": -77.00072033333333, "type": "electric_scooter", "fusion_lat": 0.0, "lat": 38.90052466666667, "name": "a49b1f3b397bea288a045c0c3e332cac", "fusion_lon": 0.0, "bike_id": "a49b1f3b397bea288a045c0c3e332cac", "is_disabled": 0, "is_reserved": 0}, {"rental_uris": {"ios": "https://dc.lft.to/lastmile_qr_scan", "android": "https://dc.lft.to/lastmile_qr_scan"}, "lon": -77.051666, "type": "electric_scooter", "fusion_lat": 0.0, "lat": 38.897763833333336, "name": "a101da3cc7fb88880723dd13033daa08", "fusion_lon": 0.0, "bike_id": "a101da3cc7fb88880723dd13033daa08", "is_disabled": 0, "is_reserved": 0}, {"rental_uris": {"ios": "https://dc.lft.to/lastmile_qr_scan", "android": "https://dc.lft.to/lastmile_qr_scan"}, "lon": -77.014032, "type": "electric_scooter", "fusion_lat": 0.0, "lat": 38.928604666666665, "name": "b4e579d602f6d98e938027df06019d6e", "fusion_lon": 0.0, "bike_id": "b4e579d602f6d98e938027df06019d6e", "is_disabled": 0, "is_reserved": 0}, {"rental_uris": {"ios": "https://dc.lft.to/lastmile_qr_scan", "android": "https://dc.lft.to/lastmile_qr_scan"}, "lon": -77.00264766666666, "type": "electric_scooter", "fusion_lat": 0.0, "lat": 38.87748416666667, "name": "d51cd7a6ffb5f6c1a9361bfbb54372b1", "fusion_lon": 0.0, "bike_id": "d51cd7a6ffb5f6c1a9361bfbb54372b1", "is_disabled": 0, "is_reserved": 0}, {"rental_uris": {"ios": "https://dc.lft.to/lastmile_qr_scan", "android": "https://dc.lft.to/lastmile_qr_scan"}, "lon": -77.02173433333333, "type": "electric_scooter", "fusion_lat": 0.0, "lat": 38.880359166666665, "name": "304db804a2f42567d2189e780e026c56", "fusion_lon": 0.0, "bike_id": "304db804a2f42567d2189e780e026c56", "is_disabled": 0, "is_reserved": 0}, {"rental_uris": {"ios": "https://dc.lft.to/lastmile_qr_scan", "android": "https://dc.lft.to/lastmile_qr_scan"}, "lon": -77.00320116666667, "type": "electric_scooter", "fusion_lat": 0.0, "lat": 38.90133383333333, "name": "6b47ff9f63adfbe54e0c09f9a4a83972", "fusion_lon": 0.0, "bike_id": "6b47ff9f63adfbe54e0c09f9a4a83972", "is_disabled": 0, "is_reserved": 0}, {"rental_uris": {"ios": "https://dc.lft.to/lastmile_qr_scan", "android": "https://dc.lft.to/lastmile_qr_scan"}, "lon": -76.98967016666667, "type": "electric_scooter", "fusion_lat": 0.0, "lat": 38.902452, "name": "f0f460ebcceefb4d1986039f456dae7f", "fusion_lon": 0.0, "bike_id": "f0f460ebcceefb4d1986039f456dae7f", "is_disabled": 0, "is_reserved": 0}, {"rental_uris": {"ios": "https://dc.lft.to/lastmile_qr_scan", "android": "https://dc.lft.to/lastmile_qr_scan"}, "lon": -77.03177816666667, "type": "electric_scooter", "fusion_lat": 0.0, "lat": 38.91464083333334, "name": "86493c838aef5ea1fe887ce5871d30f9", "fusion_lon": 0.0, "bike_id": "86493c838aef5ea1fe887ce5871d30f9", "is_disabled": 0, "is_reserved": 0}, {"rental_uris": {"ios": "https://dc.lft.to/lastmile_qr_scan", "android": "https://dc.lft.to/lastmile_qr_scan"}, "lon": -76.94637, "type": "electric_scooter", "fusion_lat": 0.0, "lat": 38.89833016666667, "name": "8f9a4ec628803ea86de24a5191e9bf08", "fusion_lon": 0.0, "bike_id": "8f9a4ec628803ea86de24a5191e9bf08", "is_disabled": 0, "is_reserved": 0}, {"rental_uris": {"ios": "https://dc.lft.to/lastmile_qr_scan", "android": "https://dc.lft.to/lastmile_qr_scan"}, "lon": -77.04681466666666, "type": "electric_scooter", "fusion_lat": 0.0, "lat": 38.897323666666665, "name": "906675a3f77370b1d7184bc7f44a0993", "fusion_lon": 0.0, "bike_id": "906675a3f77370b1d7184bc7f44a0993", "is_disabled": 0, "is_reserved": 0}, {"rental_uris": {"ios": "https://dc.lft.to/lastmile_qr_scan", "android": "https://dc.lft.to/lastmile_qr_scan"}, "lon": -77.028466, "type": "electric_scooter", "fusion_lat": 0.0, "lat": 38.934165666666665, "name": "473ad048781b273e5fe406bd53492a81", "fusion_lon": 0.0, "bike_id": "473ad048781b273e5fe406bd53492a81", "is_disabled": 0, "is_reserved": 0}, {"rental_uris": {"ios": "https://dc.lft.to/lastmile_qr_scan", "android": "https://dc.lft.to/lastmile_qr_scan"}, "lon": -77.00022966666667, "type": "electric_scooter", "fusion_lat": 0.0, "lat": 38.90836566666667, "name": "ee8e0b4cacbf1747af1e8247c21a5d4d", "fusion_lon": 0.0, "bike_id": "ee8e0b4cacbf1747af1e8247c21a5d4d", "is_disabled": 0, "is_reserved": 0}, {"rental_uris": {"ios": "https://dc.lft.to/lastmile_qr_scan", "android": "https://dc.lft.to/lastmile_qr_scan"}, "lon": -77.01391083333333, "type": "electric_scooter", "fusion_lat": 0.0, "lat": 38.9285905, "name": "8cc3afbffa335eb5f03794bcad210a89", "fusion_lon": 0.0, "bike_id": "8cc3afbffa335eb5f03794bcad210a89", "is_disabled": 0, "is_reserved": 0}, {"rental_uris": {"ios": "https://dc.lft.to/lastmile_qr_scan", "android": "https://dc.lft.to/lastmile_qr_scan"}, "lon": -77.0361115, "type": "electric_scooter", "fusion_lat": 0.0, "lat": 38.934751, "name": "18f4dde1675efb0b2398762e82e6b05e", "fusion_lon": 0.0, "bike_id": "18f4dde1675efb0b2398762e82e6b05e", "is_disabled": 0, "is_reserved": 0}, {"rental_uris": {"ios": "https://dc.lft.to/lastmile_qr_scan", "android": "https://dc.lft.to/lastmile_qr_scan"}, "lon": -77.02007066666667, "type": "electric_scooter", "fusion_lat": 0.0, "lat": 38.91310216666667, "name": "545e2c4bbcd826d599fc6654ee834487", "fusion_lon": 0.0, "bike_id": "545e2c4bbcd826d599fc6654ee834487", "is_disabled": 0, "is_reserved": 0}, {"rental_uris": {"ios": "https://dc.lft.to/lastmile_qr_scan", "android": "https://dc.lft.to/lastmile_qr_scan"}, "lon": -77.045481, "type": "electric_scooter", "fusion_lat": 0.0, "lat": 38.934033, "name": "3b27067f9a102ffe2ac967b0857bb648", "fusion_lon": 0.0, "bike_id": "3b27067f9a102ffe2ac967b0857bb648", "is_disabled": 0, "is_reserved": 0}, {"rental_uris": {"ios": "https://dc.lft.to/lastmile_qr_scan", "android": "https://dc.lft.to/lastmile_qr_scan"}, "lon": -77.00615783333333, "type": "electric_scooter", "fusion_lat": 0.0, "lat": 38.90270233333333, "name": "7f5568e8e862c86f1c8b5f44fb96bfdc", "fusion_lon": 0.0, "bike_id": "7f5568e8e862c86f1c8b5f44fb96bfdc", "is_disabled": 0, "is_reserved": 0}, {"rental_uris": {"ios": "https://dc.lft.to/lastmile_qr_scan", "android": "https://dc.lft.to/lastmile_qr_scan"}, "lon": -77.02702, "type": "electric_scooter", "fusion_lat": 0.0, "lat": 38.95004016666667, "name": "13048222fbe7a08d795c09d9ccc335b9", "fusion_lon": 0.0, "bike_id": "13048222fbe7a08d795c09d9ccc335b9", "is_disabled": 0, "is_reserved": 0}, {"rental_uris": {"ios": "https://dc.lft.to/lastmile_qr_scan", "android": "https://dc.lft.to/lastmile_qr_scan"}, "lon": -77.04261783333334, "type": "electric_scooter", "fusion_lat": 0.0, "lat": 38.92061483333333, "name": "1657d9b6bc29afbfda8ff65a7990cfbc", "fusion_lon": 0.0, "bike_id": "1657d9b6bc29afbfda8ff65a7990cfbc", "is_disabled": 0, "is_reserved": 0}, {"rental_uris": {"ios": "https://dc.lft.to/lastmile_qr_scan", "android": "https://dc.lft.to/lastmile_qr_scan"}, "lon": -77.0078255, "type": "electric_scooter", "fusion_lat": 0.0, "lat": 38.897330833333335, "name": "e86f9f2c2ffd3100eb48b2371fb8ccec", "fusion_lon": 0.0, "bike_id": "e86f9f2c2ffd3100eb48b2371fb8ccec", "is_disabled": 0, "is_reserved": 0}, {"rental_uris": {"ios": "https://dc.lft.to/lastmile_qr_scan", "android": "https://dc.lft.to/lastmile_qr_scan"}, "lon": -77.03389733333333, "type": "electric_scooter", "fusion_lat": 0.0, "lat": 38.8865795, "name": "f554b3389cddf5be855c36b56001460a", "fusion_lon": 0.0, "bike_id": "f554b3389cddf5be855c36b56001460a", "is_disabled": 0, "is_reserved": 0}, {"rental_uris": {"ios": "https://dc.lft.to/lastmile_qr_scan", "android": "https://dc.lft.to/lastmile_qr_scan"}, "lon": -77.1290005, "type": "electric_bike", "fusion_lat": 0.0, "lat": 38.86375566666667, "name": "53045bbf6862fd55c6b07c888374a241", "fusion_lon": 0.0, "bike_id": "53045bbf6862fd55c6b07c888374a241", "is_disabled": 0, "is_reserved": 0}, {"rental_uris": {"ios": "https://dc.lft.to/lastmile_qr_scan", "android": "https://dc.lft.to/lastmile_qr_scan"}, "lon": -77.020851, "type": "electric_scooter", "fusion_lat": 0.0, "lat": 38.881849333333335, "name": "02797b6c016f10c83ce301bacd56f355", "fusion_lon": 0.0, "bike_id": "02797b6c016f10c83ce301bacd56f355", "is_disabled": 0, "is_reserved": 0}, {"rental_uris": {"ios": "https://dc.lft.to/lastmile_qr_scan", "android": "https://dc.lft.to/lastmile_qr_scan"}, "lon": -77.0212905, "type": "electric_scooter", "fusion_lat": 0.0, "lat": 38.8947045, "name": "8ee33fe70bed6f670628b2a44527ff2c", "fusion_lon": 0.0, "bike_id": "8ee33fe70bed6f670628b2a44527ff2c", "is_disabled": 0, "is_reserved": 0}, {"rental_uris": {"ios": "https://dc.lft.to/lastmile_qr_scan", "android": "https://dc.lft.to/lastmile_qr_scan"}, "lon": -77.0529175, "type": "electric_scooter", "fusion_lat": 0.0, "lat": 38.927944, "name": "d01aee63a570a68f80a8fb1f3e04ea70", "fusion_lon": 0.0, "bike_id": "d01aee63a570a68f80a8fb1f3e04ea70", "is_disabled": 0, "is_reserved": 0}, {"rental_uris": {"ios": "https://dc.lft.to/lastmile_qr_scan", "android": "https://dc.lft.to/lastmile_qr_scan"}, "lon": -77.02602516666667, "type": "electric_scooter", "fusion_lat": 0.0, "lat": 38.975888833333336, "name": "3269467b67713a23b25f390f47d80b0a", "fusion_lon": 0.0, "bike_id": "3269467b67713a23b25f390f47d80b0a", "is_disabled": 0, "is_reserved": 0}, {"rental_uris": {"ios": "https://dc.lft.to/lastmile_qr_scan", "android": "https://dc.lft.to/lastmile_qr_scan"}, "lon": -77.02695116666666, "type": "electric_scooter", "fusion_lat": 0.0, "lat": 38.906417833333336, "name": "2ac1788a6ffc76c13271e4cf595ff061", "fusion_lon": 0.0, "bike_id": "2ac1788a6ffc76c13271e4cf595ff061", "is_disabled": 0, "is_reserved": 0}, {"rental_uris": {"ios": "https://dc.lft.to/lastmile_qr_scan", "android": "https://dc.lft.to/lastmile_qr_scan"}, "lon": -77.053557, "type": "electric_scooter", "fusion_lat": 0.0, "lat": 38.9279535, "name": "c6dae5fedfd2df4e1a6e820c049974eb", "fusion_lon": 0.0, "bike_id": "c6dae5fedfd2df4e1a6e820c049974eb", "is_disabled": 0, "is_reserved": 0}, {"rental_uris": {"ios": "https://dc.lft.to/lastmile_qr_scan", "android": "https://dc.lft.to/lastmile_qr_scan"}, "lon": -77.02374166666667, "type": "electric_scooter", "fusion_lat": 0.0, "lat": 38.916018666666666, "name": "e5c4152acba08bf0033fa799460eeb6c", "fusion_lon": 0.0, "bike_id": "e5c4152acba08bf0033fa799460eeb6c", "is_disabled": 0, "is_reserved": 0}, {"rental_uris": {"ios": "https://dc.lft.to/lastmile_qr_scan", "android": "https://dc.lft.to/lastmile_qr_scan"}, "lon": -77.05220883333334, "type": "electric_scooter", "fusion_lat": 0.0, "lat": 38.92496633333333, "name": "f3c8ea079a10d5859a4c88f3f6b7b992", "fusion_lon": 0.0, "bike_id": "f3c8ea079a10d5859a4c88f3f6b7b992", "is_disabled": 0, "is_reserved": 0}, {"rental_uris": {"ios": "https://dc.lft.to/lastmile_qr_scan", "android": "https://dc.lft.to/lastmile_qr_scan"}, "lon": -77.02695966666667, "type": "electric_scooter", "fusion_lat": 0.0, "lat": 38.908721166666666, "name": "f3881f69c74f20257e232fd230b77d94", "fusion_lon": 0.0, "bike_id": "f3881f69c74f20257e232fd230b77d94", "is_disabled": 0, "is_reserved": 0}, {"rental_uris": {"ios": "https://dc.lft.to/lastmile_qr_scan", "android": "https://dc.lft.to/lastmile_qr_scan"}, "lon": -77.0513385, "type": "electric_scooter", "fusion_lat": 0.0, "lat": 38.897753, "name": "219f3578450211089721e0d2d7e3609f", "fusion_lon": 0.0, "bike_id": "219f3578450211089721e0d2d7e3609f", "is_disabled": 0, "is_reserved": 0}, {"rental_uris": {"ios": "https://dc.lft.to/lastmile_qr_scan", "android": "https://dc.lft.to/lastmile_qr_scan"}, "lon": -77.01818166666666, "type": "electric_scooter", "fusion_lat": 0.0, "lat": 38.877120833333336, "name": "5b89d28a87effe9e98f3c1934bc3151d", "fusion_lon": 0.0, "bike_id": "5b89d28a87effe9e98f3c1934bc3151d", "is_disabled": 0, "is_reserved": 0}, {"rental_uris": {"ios": "https://dc.lft.to/lastmile_qr_scan", "android": "https://dc.lft.to/lastmile_qr_scan"}, "lon": -77.0487495, "type": "electric_scooter", "fusion_lat": 0.0, "lat": 38.906065166666664, "name": "04dde8f53a64a604cdc2868958da79b6", "fusion_lon": 0.0, "bike_id": "04dde8f53a64a604cdc2868958da79b6", "is_disabled": 0, "is_reserved": 0}, {"rental_uris": {"ios": "https://dc.lft.to/lastmile_qr_scan", "android": "https://dc.lft.to/lastmile_qr_scan"}, "lon": -77.03863116666666, "type": "electric_scooter", "fusion_lat": 0.0, "lat": 38.915522333333335, "name": "15eefb3682597df53cf539fc86944a48", "fusion_lon": 0.0, "bike_id": "15eefb3682597df53cf539fc86944a48", "is_disabled": 0, "is_reserved": 0}, {"rental_uris": {"ios": "https://dc.lft.to/lastmile_qr_scan", "android": "https://dc.lft.to/lastmile_qr_scan"}, "lon": -77.04513066666667, "type": "electric_scooter", "fusion_lat": 0.0, "lat": 38.90782166666666, "name": "e5e453ad813dfab5df8ee2c922bcb72a", "fusion_lon": 0.0, "bike_id": "e5e453ad813dfab5df8ee2c922bcb72a", "is_disabled": 0, "is_reserved": 0}, {"rental_uris": {"ios": "https://dc.lft.to/lastmile_qr_scan", "android": "https://dc.lft.to/lastmile_qr_scan"}, "lon": -77.04043116666666, "type": "electric_scooter", "fusion_lat": 0.0, "lat": 38.9188165, "name": "6ad3c4861df5d8c9d28fc575538962e9", "fusion_lon": 0.0, "bike_id": "6ad3c4861df5d8c9d28fc575538962e9", "is_disabled": 0, "is_reserved": 0}, {"rental_uris": {"ios": "https://dc.lft.to/lastmile_qr_scan", "android": "https://dc.lft.to/lastmile_qr_scan"}, "lon": -77.00595233333334, "type": "electric_scooter", "fusion_lat": 0.0, "lat": 38.90641016666667, "name": "d81843b3443c0b93de74fb92ef6682e9", "fusion_lon": 0.0, "bike_id": "d81843b3443c0b93de74fb92ef6682e9", "is_disabled": 0, "is_reserved": 0}, {"rental_uris": {"ios": "https://dc.lft.to/lastmile_qr_scan", "android": "https://dc.lft.to/lastmile_qr_scan"}, "lon": -76.93195616666667, "type": "electric_scooter", "fusion_lat": 0.0, "lat": 38.8899375, "name": "7edf2a09f8b510eca5f8f4779861a420", "fusion_lon": 0.0, "bike_id": "7edf2a09f8b510eca5f8f4779861a420", "is_disabled": 0, "is_reserved": 0}, {"rental_uris": {"ios": "https://dc.lft.to/lastmile_qr_scan", "android": "https://dc.lft.to/lastmile_qr_scan"}, "lon": -77.01780483333333, "type": "electric_scooter", "fusion_lat": 0.0, "lat": 38.9040575, "name": "0d8c25db8a6de4712a3f70d7c41021c7", "fusion_lon": 0.0, "bike_id": "0d8c25db8a6de4712a3f70d7c41021c7", "is_disabled": 0, "is_reserved": 0}, {"rental_uris": {"ios": "https://dc.lft.to/lastmile_qr_scan", "android": "https://dc.lft.to/lastmile_qr_scan"}, "lon": -76.97342616666667, "type": "electric_scooter", "fusion_lat": 0.0, "lat": 38.865105666666665, "name": "077ccf684da95edefbb8e97efd57578c", "fusion_lon": 0.0, "bike_id": "077ccf684da95edefbb8e97efd57578c", "is_disabled": 0, "is_reserved": 0}, {"rental_uris": {"ios": "https://dc.lft.to/lastmile_qr_scan", "android": "https://dc.lft.to/lastmile_qr_scan"}, "lon": -77.0298525, "type": "electric_scooter", "fusion_lat": 0.0, "lat": 38.924737666666665, "name": "7b7624d494a9ce05773fadeb96d9c934", "fusion_lon": 0.0, "bike_id": "7b7624d494a9ce05773fadeb96d9c934", "is_disabled": 0, "is_reserved": 0}, {"rental_uris": {"ios": "https://dc.lft.to/lastmile_qr_scan", "android": "https://dc.lft.to/lastmile_qr_scan"}, "lon": -77.01507166666667, "type": "electric_scooter", "fusion_lat": 0.0, "lat": 38.901556666666664, "name": "48dfea6d0acbdae14f8344aa20afee32", "fusion_lon": 0.0, "bike_id": "48dfea6d0acbdae14f8344aa20afee32", "is_disabled": 0, "is_reserved": 0}, {"rental_uris": {"ios": "https://dc.lft.to/lastmile_qr_scan", "android": "https://dc.lft.to/lastmile_qr_scan"}, "lon": -77.03661116666666, "type": "electric_scooter", "fusion_lat": 0.0, "lat": 38.92302633333333, "name": "17cf0f52208804ee90c56928d8d4cd2c", "fusion_lon": 0.0, "bike_id": "17cf0f52208804ee90c56928d8d4cd2c", "is_disabled": 0, "is_reserved": 0}, {"rental_uris": {"ios": "https://dc.lft.to/lastmile_qr_scan", "android": "https://dc.lft.to/lastmile_qr_scan"}, "lon": -77.00878416666667, "type": "electric_scooter", "fusion_lat": 0.0, "lat": 38.905704166666666, "name": "15100f833c5d4e1150b60bd78e6d9643", "fusion_lon": 0.0, "bike_id": "15100f833c5d4e1150b60bd78e6d9643", "is_disabled": 0, "is_reserved": 0}, {"rental_uris": {"ios": "https://dc.lft.to/lastmile_qr_scan", "android": "https://dc.lft.to/lastmile_qr_scan"}, "lon": -76.98700733333334, "type": "electric_scooter", "fusion_lat": 0.0, "lat": 38.901493, "name": "c9d9d2f9e8d9777d48a04878e32cfa48", "fusion_lon": 0.0, "bike_id": "c9d9d2f9e8d9777d48a04878e32cfa48", "is_disabled": 0, "is_reserved": 0}, {"rental_uris": {"ios": "https://dc.lft.to/lastmile_qr_scan", "android": "https://dc.lft.to/lastmile_qr_scan"}, "lon": -77.02178533333333, "type": "electric_scooter", "fusion_lat": 0.0, "lat": 38.89251216666667, "name": "257b1d2e3cf49d9b2cd0deacd22c371d", "fusion_lon": 0.0, "bike_id": "257b1d2e3cf49d9b2cd0deacd22c371d", "is_disabled": 0, "is_reserved": 0}, {"rental_uris": {"ios": "https://dc.lft.to/lastmile_qr_scan", "android": "https://dc.lft.to/lastmile_qr_scan"}, "lon": -77.0320505, "type": "electric_scooter", "fusion_lat": 0.0, "lat": 38.91998366666667, "name": "5d8bc0ed4800214c55723ffa43992835", "fusion_lon": 0.0, "bike_id": "5d8bc0ed4800214c55723ffa43992835", "is_disabled": 0, "is_reserved": 0}, {"rental_uris": {"ios": "https://dc.lft.to/lastmile_qr_scan", "android": "https://dc.lft.to/lastmile_qr_scan"}, "lon": -76.949302, "type": "electric_scooter", "fusion_lat": 0.0, "lat": 38.894839833333336, "name": "f731744e79a07c10cd1dc656b83d761e", "fusion_lon": 0.0, "bike_id": "f731744e79a07c10cd1dc656b83d761e", "is_disabled": 0, "is_reserved": 0}, {"rental_uris": {"ios": "https://dc.lft.to/lastmile_qr_scan", "android": "https://dc.lft.to/lastmile_qr_scan"}, "lon": -77.01352633333333, "type": "electric_scooter", "fusion_lat": 0.0, "lat": 38.871242, "name": "013c84861de00b811d1bae6d09dd9f30", "fusion_lon": 0.0, "bike_id": "013c84861de00b811d1bae6d09dd9f30", "is_disabled": 0, "is_reserved": 0}, {"rental_uris": {"ios": "https://dc.lft.to/lastmile_qr_scan", "android": "https://dc.lft.to/lastmile_qr_scan"}, "lon": -77.09136616666666, "type": "electric_bike", "fusion_lat": 0.0, "lat": 38.80413983333333, "name": "75964cb367fec43dc513cd0181fcc7d4", "fusion_lon": 0.0, "bike_id": "75964cb367fec43dc513cd0181fcc7d4", "is_disabled": 0, "is_reserved": 0}, {"rental_uris": {"ios": "https://dc.lft.to/lastmile_qr_scan", "android": "https://dc.lft.to/lastmile_qr_scan"}, "lon": -77.02823533333333, "type": "electric_bike", "fusion_lat": 0.0, "lat": 38.965028333333336, "name": "dee8885dc105774065950f59a45e04be", "fusion_lon": 0.0, "bike_id": "dee8885dc105774065950f59a45e04be", "is_disabled": 0, "is_reserved": 0}, {"rental_uris": {"ios": "https://dc.lft.to/lastmile_qr_scan", "android": "https://dc.lft.to/lastmile_qr_scan"}, "lon": -77.013597, "type": "electric_scooter", "fusion_lat": 0.0, "lat": 38.919887333333335, "name": "6729987e5690fce1e40a512f3da3ac0c", "fusion_lon": 0.0, "bike_id": "6729987e5690fce1e40a512f3da3ac0c", "is_disabled": 0, "is_reserved": 0}, {"rental_uris": {"ios": "https://dc.lft.to/lastmile_qr_scan", "android": "https://dc.lft.to/lastmile_qr_scan"}, "lon": -77.0500055, "type": "electric_scooter", "fusion_lat": 0.0, "lat": 38.89230466666667, "name": "bf51a2a580207a522c1e19f5d159e738", "fusion_lon": 0.0, "bike_id": "bf51a2a580207a522c1e19f5d159e738", "is_disabled": 0, "is_reserved": 0}, {"rental_uris": {"ios": "https://dc.lft.to/lastmile_qr_scan", "android": "https://dc.lft.to/lastmile_qr_scan"}, "lon": -77.02328616666667, "type": "electric_scooter", "fusion_lat": 0.0, "lat": 38.89395116666667, "name": "8ccd814cdb78e204518da27a77e71e06", "fusion_lon": 0.0, "bike_id": "8ccd814cdb78e204518da27a77e71e06", "is_disabled": 0, "is_reserved": 0}, {"rental_uris": {"ios": "https://dc.lft.to/lastmile_qr_scan", "android": "https://dc.lft.to/lastmile_qr_scan"}, "lon": -77.01316133333333, "type": "electric_scooter", "fusion_lat": 0.0, "lat": 38.8973785, "name": "4f5fd5719b3c685f7f501c9a0edb9cf3", "fusion_lon": 0.0, "bike_id": "4f5fd5719b3c685f7f501c9a0edb9cf3", "is_disabled": 0, "is_reserved": 0}, {"rental_uris": {"ios": "https://dc.lft.to/lastmile_qr_scan", "android": "https://dc.lft.to/lastmile_qr_scan"}, "lon": -77.022174, "type": "electric_scooter", "fusion_lat": 0.0, "lat": 38.90831466666667, "name": "6037cf4fce2a963b92106981b9b0ac66", "fusion_lon": 0.0, "bike_id": "6037cf4fce2a963b92106981b9b0ac66", "is_disabled": 0, "is_reserved": 0}, {"rental_uris": {"ios": "https://dc.lft.to/lastmile_qr_scan", "android": "https://dc.lft.to/lastmile_qr_scan"}, "lon": -77.02197466666667, "type": "electric_scooter", "fusion_lat": 0.0, "lat": 38.93131833333333, "name": "415d4dd75a723d6bf8ee9d46fd1347db", "fusion_lon": 0.0, "bike_id": "415d4dd75a723d6bf8ee9d46fd1347db", "is_disabled": 0, "is_reserved": 0}, {"rental_uris": {"ios": "https://dc.lft.to/lastmile_qr_scan", "android": "https://dc.lft.to/lastmile_qr_scan"}, "lon": -77.02201766666667, "type": "electric_scooter", "fusion_lat": 0.0, "lat": 38.887186, "name": "8e6dce2958caa006b40555f6f5793f1f", "fusion_lon": 0.0, "bike_id": "8e6dce2958caa006b40555f6f5793f1f", "is_disabled": 0, "is_reserved": 0}, {"rental_uris": {"ios": "https://dc.lft.to/lastmile_qr_scan", "android": "https://dc.lft.to/lastmile_qr_scan"}, "lon": -76.952447, "type": "electric_bike", "fusion_lat": 0.0, "lat": 38.907032, "name": "e5208da4b76262c65ae4b224c42911eb", "fusion_lon": 0.0, "bike_id": "e5208da4b76262c65ae4b224c42911eb", "is_disabled": 0, "is_reserved": 0}, {"rental_uris": {"ios": "https://dc.lft.to/lastmile_qr_scan", "android": "https://dc.lft.to/lastmile_qr_scan"}, "lon": -77.04148833333333, "type": "electric_scooter", "fusion_lat": 0.0, "lat": 38.92358433333333, "name": "84517b274c1f1e2afc0ec9ea2bf0d372", "fusion_lon": 0.0, "bike_id": "84517b274c1f1e2afc0ec9ea2bf0d372", "is_disabled": 0, "is_reserved": 0}, {"rental_uris": {"ios": "https://dc.lft.to/lastmile_qr_scan", "android": "https://dc.lft.to/lastmile_qr_scan"}, "lon": -76.9805765, "type": "electric_bike", "fusion_lat": 0.0, "lat": 38.89975233333333, "name": "2409bf37a68acce2b78bcb10d3c4e0d9", "fusion_lon": 0.0, "bike_id": "2409bf37a68acce2b78bcb10d3c4e0d9", "is_disabled": 0, "is_reserved": 0}, {"rental_uris": {"ios": "https://dc.lft.to/lastmile_qr_scan", "android": "https://dc.lft.to/lastmile_qr_scan"}, "lon": -77.0435555, "type": "electric_scooter", "fusion_lat": 0.0, "lat": 38.93158233333333, "name": "eb5eb821927d970f4837d4462fbde4dd", "fusion_lon": 0.0, "bike_id": "eb5eb821927d970f4837d4462fbde4dd", "is_disabled": 0, "is_reserved": 0}, {"rental_uris": {"ios": "https://dc.lft.to/lastmile_qr_scan", "android": "https://dc.lft.to/lastmile_qr_scan"}, "lon": -77.03852566666667, "type": "electric_scooter", "fusion_lat": 0.0, "lat": 38.90255483333333, "name": "e9b25d5c4924ff3c510e42342a06f544", "fusion_lon": 0.0, "bike_id": "e9b25d5c4924ff3c510e42342a06f544", "is_disabled": 0, "is_reserved": 0}, {"rental_uris": {"ios": "https://dc.lft.to/lastmile_qr_scan", "android": "https://dc.lft.to/lastmile_qr_scan"}, "lon": -77.09214733333333, "type": "electric_scooter", "fusion_lat": 0.0, "lat": 38.917042333333335, "name": "f2c2b8df65c5222d72b30b41b5e810db", "fusion_lon": 0.0, "bike_id": "f2c2b8df65c5222d72b30b41b5e810db", "is_disabled": 0, "is_reserved": 0}, {"rental_uris": {"ios": "https://dc.lft.to/lastmile_qr_scan", "android": "https://dc.lft.to/lastmile_qr_scan"}, "lon": -77.02835583333334, "type": "electric_scooter", "fusion_lat": 0.0, "lat": 38.887691, "name": "9a574547547ec92d5b6c5ab99455a717", "fusion_lon": 0.0, "bike_id": "9a574547547ec92d5b6c5ab99455a717", "is_disabled": 0, "is_reserved": 0}, {"rental_uris": {"ios": "https://dc.lft.to/lastmile_qr_scan", "android": "https://dc.lft.to/lastmile_qr_scan"}, "lon": -77.01441466666667, "type": "electric_scooter", "fusion_lat": 0.0, "lat": 38.92991833333333, "name": "ccfb0799fbd28effd60a193dd7c7d76c", "fusion_lon": 0.0, "bike_id": "ccfb0799fbd28effd60a193dd7c7d76c", "is_disabled": 0, "is_reserved": 0}, {"rental_uris": {"ios": "https://dc.lft.to/lastmile_qr_scan", "android": "https://dc.lft.to/lastmile_qr_scan"}, "lon": -77.03262416666666, "type": "electric_scooter", "fusion_lat": 0.0, "lat": 38.93823366666667, "name": "4e597fa3d6a9bed2c10e975fc639638e", "fusion_lon": 0.0, "bike_id": "4e597fa3d6a9bed2c10e975fc639638e", "is_disabled": 0, "is_reserved": 0}, {"rental_uris": {"ios": "https://dc.lft.to/lastmile_qr_scan", "android": "https://dc.lft.to/lastmile_qr_scan"}, "lon": -77.034481, "type": "electric_scooter", "fusion_lat": 0.0, "lat": 38.9183725, "name": "adba592ab19a539b796636ed1da666af", "fusion_lon": 0.0, "bike_id": "adba592ab19a539b796636ed1da666af", "is_disabled": 0, "is_reserved": 0}, {"rental_uris": {"ios": "https://dc.lft.to/lastmile_qr_scan", "android": "https://dc.lft.to/lastmile_qr_scan"},