{"data": {"bikes": [{"bike_id": "1f2714a816f9278d37967f68888621f0", "type": "electric_scooter", "is_disabled": 0, "lat": 38.93636983333333, "rental_uris": {"ios": "https://dc.lft.to/lastmile_qr_scan", "android": "https://dc.lft.to/lastmile_qr_scan"}, "is_reserved": 0, "fusion_lon": 0.0, "fusion_lat": 0.0, "lon": -77.05885916666666, "name": "1f2714a816f9278d37967f68888621f0"}, {"bike_id": "b45f412f7fc361c2a97a9be67f4a91ff", "type": "electric_scooter", "is_disabled": 0, "lat": 38.870673333333336, "rental_uris": {"ios": "https://dc.lft.to/lastmile_qr_scan", "android": "https://dc.lft.to/lastmile_qr_scan"}, "is_reserved": 0, "fusion_lon": 0.0, "fusion_lat": 0.0, "lon": -76.98133566666667, "name": "b45f412f7fc361c2a97a9be67f4a91ff"}, {"bike_id": "6481623c0af3e54160b6ff82beb11ae5", "type": "electric_scooter", "is_disabled": 0, "lat": 38.9261485, "rental_uris": {"ios": "https://dc.lft.to/lastmile_qr_scan", "android": "https://dc.lft.to/lastmile_qr_scan"}, "is_reserved": 0, "fusion_lon": 0.0, "fusion_lat": 0.0, "lon": -77.02160483333333, "name": "6481623c0af3e54160b6ff82beb11ae5"}, {"bike_id": "84bcd7386460897befe87f68e0ecc99e", "type": "electric_scooter", "is_disabled": 0, "lat": 38.93315183333333, "rental_uris": {"ios": "https://dc.lft.to/lastmile_qr_scan", "android": "https://dc.lft.to/lastmile_qr_scan"}, "is_reserved": 0, "fusion_lon": 0.0, "fusion_lat": 0.0, "lon": -77.07238266666667, "name": "84bcd7386460897befe87f68e0ecc99e"}, {"bike_id": "a9ea34cc4a1592e42f5992cfde071160", "type": "electric_bike", "is_disabled": 0, "lat": 39.0550055, "rental_uris": {"ios": "https://dc.lft.to/lastmile_qr_scan", "android": "https://dc.lft.to/lastmile_qr_scan"}, "is_reserved": 0, "fusion_lon": 0.0, "fusion_lat": 0.0, "lon": -77.04649466666666, "name": "a9ea34cc4a1592e42f5992cfde071160"}, {"bike_id": "14c9f680f12840f6cf5df79c19351c5c", "type": "electric_scooter", "is_disabled": 0, "lat": 38.90621266666667, "rental_uris": {"ios": "https://dc.lft.to/lastmile_qr_scan", "android": "https://dc.lft.to/lastmile_qr_scan"}, "is_reserved": 0, "fusion_lon": 0.0, "fusion_lat": 0.0, "lon": -77.04011916666667, "name": "14c9f680f12840f6cf5df79c19351c5c"}, {"bike_id": "c69f761237553325b7547c829a2ad5e3", "type": "electric_bike", "is_disabled": 0, "lat": 38.92969766666667, "rental_uris": {"ios": "https://dc.lft.to/lastmile_qr_scan", "android": "https://dc.lft.to/lastmile_qr_scan"}, "is_reserved": 0, "fusion_lon": 0.0, "fusion_lat": 0.0, "lon": -77.18563283333333, "name": "c69f761237553325b7547c829a2ad5e3"}, {"bike_id": "4a68d06c4c1b8e0a9e82848058ac37e2", "type": "electric_scooter", "is_disabled": 0, "lat": 38.93247366666667, "rental_uris": {"ios": "https://dc.lft.to/lastmile_qr_scan", "android": "https://dc.lft.to/lastmile_qr_scan"}, "is_reserved": 0, "fusion_lon": 0.0, "fusion_lat": 0.0, "lon": -77.0199535, "name": "4a68d06c4c1b8e0a9e82848058ac37e2"}, {"bike_id": "27d9150bd2a5fdb8667bc86de5733eeb", "type": "electric_scooter", "is_disabled": 0, "lat": 38.93525183333333, "rental_uris": {"ios": "https://dc.lft.to/lastmile_qr_scan", "android": "https://dc.lft.to/lastmile_qr_scan"}, "is_reserved": 0, "fusion_lon": 0.0, "fusion_lat": 0.0, "lon": -77.03092, "name": "27d9150bd2a5fdb8667bc86de5733eeb"}, {"bike_id": "35289666388cbf32f7935850a4497bfc", "type": "electric_scooter", "is_disabled": 0, "lat": 38.91913816666667, "rental_uris": {"ios": "https://dc.lft.to/lastmile_qr_scan", "android": "https://dc.lft.to/lastmile_qr_scan"}, "is_reserved": 0, "fusion_lon": 0.0, "fusion_lat": 0.0, "lon": -77.03180616666667, "name": "35289666388cbf32f7935850a4497bfc"}, {"bike_id": "6771bbfec0307edd9bb71fba8582d165", "type": "electric_scooter", "is_disabled": 0, "lat": 38.90286566666666, "rental_uris": {"ios": "https://dc.lft.to/lastmile_qr_scan", "android": "https://dc.lft.to/lastmile_qr_scan"}, "is_reserved": 0, "fusion_lon": 0.0, "fusion_lat": 0.0, "lon": -77.05798083333333, "name": "6771bbfec0307edd9bb71fba8582d165"}, {"bike_id": "e8f312fd29d16495c1fcbef2c95883c6", "type": "electric_bike", "is_disabled": 0, "lat": 39.037444, "rental_uris": {"ios": "https://dc.lft.to/lastmile_qr_scan", "android": "https://dc.lft.to/lastmile_qr_scan"}, "is_reserved": 0, "fusion_lon": 0.0, "fusion_lat": 0.0, "lon": -77.0547925, "name": "e8f312fd29d16495c1fcbef2c95883c6"}, {"bike_id": "011dbda4474df428dc4e9d1e6b0c4a72", "type": "electric_scooter", "is_disabled": 0, "lat": 38.92876066666667, "rental_uris": {"ios": "https://dc.lft.to/lastmile_qr_scan", "android": "https://dc.lft.to/lastmile_qr_scan"}, "is_reserved": 0, "fusion_lon": 0.0, "fusion_lat": 0.0, "lon": -77.013602, "name": "011dbda4474df428dc4e9d1e6b0c4a72"}, {"bike_id": "52207a64857a7895f422fc445b280d61", "type": "electric_bike", "is_disabled": 0, "lat": 39.05498033333333, "rental_uris": {"ios": "https://dc.lft.to/lastmile_qr_scan", "android": "https://dc.lft.to/lastmile_qr_scan"}, "is_reserved": 0, "fusion_lon": 0.0, "fusion_lat": 0.0, "lon": -77.11786766666667, "name": "52207a64857a7895f422fc445b280d61"}, {"bike_id": "4c888049f51e1db44370261445e6a5c7", "type": "electric_scooter", "is_disabled": 0, "lat": 38.9039195, "rental_uris": {"ios": "https://dc.lft.to/lastmile_qr_scan", "android": "https://dc.lft.to/lastmile_qr_scan"}, "is_reserved": 0, "fusion_lon": 0.0, "fusion_lat": 0.0, "lon": -77.00574333333333, "name": "4c888049f51e1db44370261445e6a5c7"}, {"bike_id": "32c421260d60f8b028ae4af82a4dbbc4", "type": "electric_scooter", "is_disabled": 0, "lat": 38.90542516666667, "rental_uris": {"ios": "https://dc.lft.to/lastmile_qr_scan", "android": "https://dc.lft.to/lastmile_qr_scan"}, "is_reserved": 0, "fusion_lon": 0.0, "fusion_lat": 0.0, "lon": -77.06892316666666, "name": "32c421260d60f8b028ae4af82a4dbbc4"}, {"bike_id": "908c42f94ce22bd61bc675f29d52211f", "type": "electric_scooter", "is_disabled": 0, "lat": 38.8874495, "rental_uris": {"ios": "https://dc.lft.to/lastmile_qr_scan", "android": "https://dc.lft.to/lastmile_qr_scan"}, "is_reserved": 0, "fusion_lon": 0.0, "fusion_lat": 0.0, "lon": -76.99624916666667, "name": "908c42f94ce22bd61bc675f29d52211f"}, {"bike_id": "d84625162a81ab01ac3570f6ab652bcb", "type": "electric_scooter", "is_disabled": 0, "lat": 38.90976933333334, "rental_uris": {"ios": "https://dc.lft.to/lastmile_qr_scan", "android": "https://dc.lft.to/lastmile_qr_scan"}, "is_reserved": 0, "fusion_lon": 0.0, "fusion_lat": 0.0, "lon": -77.02183816666667, "name": "d84625162a81ab01ac3570f6ab652bcb"}, {"bike_id": "47a53f22e84b5c30e22a808eac60a553", "type": "electric_bike", "is_disabled": 0, "lat": 38.90829883333333, "rental_uris": {"ios": "https://dc.lft.to/lastmile_qr_scan", "android": "https://dc.lft.to/lastmile_qr_scan"}, "is_reserved": 0, "fusion_lon": 0.0, "fusion_lat": 0.0, "lon": -76.94156283333334, "name": "47a53f22e84b5c30e22a808eac60a553"}, {"bike_id": "43bbcecd37fe132043da7c25e6be7ca7", "type": "electric_scooter", "is_disabled": 0, "lat": 38.876510333333336, "rental_uris": {"ios": "https://dc.lft.to/lastmile_qr_scan", "android": "https://dc.lft.to/lastmile_qr_scan"}, "is_reserved": 0, "fusion_lon": 0.0, "fusion_lat": 0.0, "lon": -76.96506666666667, "name": "43bbcecd37fe132043da7c25e6be7ca7"}, {"bike_id": "1cbc2ec2dcb46571d625d22b7b663dd0", "type": "electric_bike", "is_disabled": 0, "lat": 38.908615166666664, "rental_uris": {"ios": "https://dc.lft.to/lastmile_qr_scan", "android": "https://dc.lft.to/lastmile_qr_scan"}, "is_reserved": 0, "fusion_lon": 0.0, "fusion_lat": 0.0, "lon": -76.99144516666667, "name": "1cbc2ec2dcb46571d625d22b7b663dd0"}, {"bike_id": "46247e2f36d3fdc3b7f73207eb00593a", "type": "electric_scooter", "is_disabled": 0, "lat": 38.90812433333333, "rental_uris": {"ios": "https://dc.lft.to/lastmile_qr_scan", "android": "https://dc.lft.to/lastmile_qr_scan"}, "is_reserved": 0, "fusion_lon": 0.0, "fusion_lat": 0.0, "lon": -77.03452916666667, "name": "46247e2f36d3fdc3b7f73207eb00593a"}, {"bike_id": "abe984ee4542a8203d2efdf34541aaca", "type": "electric_scooter", "is_disabled": 0, "lat": 38.921411666666664, "rental_uris": {"ios": "https://dc.lft.to/lastmile_qr_scan", "android": "https://dc.lft.to/lastmile_qr_scan"}, "is_reserved": 0, "fusion_lon": 0.0, "fusion_lat": 0.0, "lon": -77.04133066666667, "name": "abe984ee4542a8203d2efdf34541aaca"}, {"bike_id": "e071f6953c26722bdea97556f62ea8ef", "type": "electric_scooter", "is_disabled": 0, "lat": 38.905624, "rental_uris": {"ios": "https://dc.lft.to/lastmile_qr_scan", "android": "https://dc.lft.to/lastmile_qr_scan"}, "is_reserved": 0, "fusion_lon": 0.0, "fusion_lat": 0.0, "lon": -77.022154, "name": "e071f6953c26722bdea97556f62ea8ef"}, {"bike_id": "ab399d3b4e1aa1bba0df7c144b00ee18", "type": "electric_scooter", "is_disabled": 0, "lat": 38.923115833333334, "rental_uris": {"ios": "https://dc.lft.to/lastmile_qr_scan", "android": "https://dc.lft.to/lastmile_qr_scan"}, "is_reserved": 0, "fusion_lon": 0.0, "fusion_lat": 0.0, "lon": -77.03917683333333, "name": "ab399d3b4e1aa1bba0df7c144b00ee18"}, {"bike_id": "5e08d4ce34532c1bebbdfdbb658ed37f", "type": "electric_scooter", "is_disabled": 0, "lat": 38.90230533333333, "rental_uris": {"ios": "https://dc.lft.to/lastmile_qr_scan", "android": "https://dc.lft.to/lastmile_qr_scan"}, "is_reserved": 0, "fusion_lon": 0.0, "fusion_lat": 0.0, "lon": -77.06124933333334, "name": "5e08d4ce34532c1bebbdfdbb658ed37f"}, {"bike_id": "3136f49f9596076a31def8bf9fd7ad0d", "type": "electric_scooter", "is_disabled": 0, "lat": 38.90039483333334, "rental_uris": {"ios": "https://dc.lft.to/lastmile_qr_scan", "android": "https://dc.lft.to/lastmile_qr_scan"}, "is_reserved": 0, "fusion_lon": 0.0, "fusion_lat": 0.0, "lon": -77.00204883333333, "name": "3136f49f9596076a31def8bf9fd7ad0d"}, {"bike_id": "2c2f07d688f944aedcb67b2bf8292cb9", "type": "electric_scooter", "is_disabled": 0, "lat": 38.89332516666666, "rental_uris": {"ios": "https://dc.lft.to/lastmile_qr_scan", "android": "https://dc.lft.to/lastmile_qr_scan"}, "is_reserved": 0, "fusion_lon": 0.0, "fusion_lat": 0.0, "lon": -77.0317875, "name": "2c2f07d688f944aedcb67b2bf8292cb9"}, {"bike_id": "6c6032e73f5704b937952dee683c9571", "type": "electric_scooter", "is_disabled": 0, "lat": 38.9073965, "rental_uris": {"ios": "https://dc.lft.to/lastmile_qr_scan", "android": "https://dc.lft.to/lastmile_qr_scan"}, "is_reserved": 0, "fusion_lon": 0.0, "fusion_lat": 0.0, "lon": -77.029515, "name": "6c6032e73f5704b937952dee683c9571"}, {"bike_id": "08dbbfde65351c6d37d9373b9dae87e1", "type": "electric_scooter", "is_disabled": 0, "lat": 38.918179, "rental_uris": {"ios": "https://dc.lft.to/lastmile_qr_scan", "android": "https://dc.lft.to/lastmile_qr_scan"}, "is_reserved": 0, "fusion_lon": 0.0, "fusion_lat": 0.0, "lon": -77.03675933333334, "name": "08dbbfde65351c6d37d9373b9dae87e1"}, {"bike_id": "7dbdd0219173683f2b6afae83d552ac5", "type": "electric_scooter", "is_disabled": 0, "lat": 38.903113833333336, "rental_uris": {"ios": "https://dc.lft.to/lastmile_qr_scan", "android": "https://dc.lft.to/lastmile_qr_scan"}, "is_reserved": 0, "fusion_lon": 0.0, "fusion_lat": 0.0, "lon": -76.98354233333333, "name": "7dbdd0219173683f2b6afae83d552ac5"}, {"bike_id": "e7ed770aa728f9f971114561acc48803", "type": "electric_scooter", "is_disabled": 0, "lat": 38.90775516666667, "rental_uris": {"ios": "https://dc.lft.to/lastmile_qr_scan", "android": "https://dc.lft.to/lastmile_qr_scan"}, "is_reserved": 0, "fusion_lon": 0.0, "fusion_lat": 0.0, "lon": -77.01212066666666, "name": "e7ed770aa728f9f971114561acc48803"}, {"bike_id": "b73aeb12855edfd878dbd89d1529592c", "type": "electric_scooter", "is_disabled": 0, "lat": 38.92753366666667, "rental_uris": {"ios": "https://dc.lft.to/lastmile_qr_scan", "android": "https://dc.lft.to/lastmile_qr_scan"}, "is_reserved": 0, "fusion_lon": 0.0, "fusion_lat": 0.0, "lon": -77.02433883333333, "name": "b73aeb12855edfd878dbd89d1529592c"}, {"bike_id": "ad18072b93bae98e243913351749151a", "type": "electric_scooter", "is_disabled": 0, "lat": 38.91541683333333, "rental_uris": {"ios": "https://dc.lft.to/lastmile_qr_scan", "android": "https://dc.lft.to/lastmile_qr_scan"}, "is_reserved": 0, "fusion_lon": 0.0, "fusion_lat": 0.0, "lon": -77.01268233333333, "name": "ad18072b93bae98e243913351749151a"}, {"bike_id": "370e9fbf5d70d7801539f4822f810449", "type": "electric_scooter", "is_disabled": 0, "lat": 38.936162833333334, "rental_uris": {"ios": "https://dc.lft.to/lastmile_qr_scan", "android": "https://dc.lft.to/lastmile_qr_scan"}, "is_reserved": 0, "fusion_lon": 0.0, "fusion_lat": 0.0, "lon": -77.067541, "name": "370e9fbf5d70d7801539f4822f810449"}, {"bike_id": "8ca0d4c6d43206e99ed151d28102030c", "type": "electric_scooter", "is_disabled": 0, "lat": 38.936865166666664, "rental_uris": {"ios": "https://dc.lft.to/lastmile_qr_scan", "android": "https://dc.lft.to/lastmile_qr_scan"}, "is_reserved": 0, "fusion_lon": 0.0, "fusion_lat": 0.0, "lon": -77.0194355, "name": "8ca0d4c6d43206e99ed151d28102030c"}, {"bike_id": "0ce8c2e8cbc6fdcff230cfae36639902", "type": "electric_scooter", "is_disabled": 0, "lat": 38.9359855, "rental_uris": {"ios": "https://dc.lft.to/lastmile_qr_scan", "android": "https://dc.lft.to/lastmile_qr_scan"}, "is_reserved": 0, "fusion_lon": 0.0, "fusion_lat": 0.0, "lon": -77.038112, "name": "0ce8c2e8cbc6fdcff230cfae36639902"}, {"bike_id": "1725bb50d25b110b2f9907122dd2318f", "type": "electric_scooter", "is_disabled": 0, "lat": 38.924118666666665, "rental_uris": {"ios": "https://dc.lft.to/lastmile_qr_scan", "android": "https://dc.lft.to/lastmile_qr_scan"}, "is_reserved": 0, "fusion_lon": 0.0, "fusion_lat": 0.0, "lon": -77.02010016666667, "name": "1725bb50d25b110b2f9907122dd2318f"}, {"bike_id": "b0241467edf45027fdec4fd6ae5a10e4", "type": "electric_scooter", "is_disabled": 0, "lat": 38.898916166666666, "rental_uris": {"ios": "https://dc.lft.to/lastmile_qr_scan", "android": "https://dc.lft.to/lastmile_qr_scan"}, "is_reserved": 0, "fusion_lon": 0.0, "fusion_lat": 0.0, "lon": -77.0216135, "name": "b0241467edf45027fdec4fd6ae5a10e4"}, {"bike_id": "5a7091c1a82d5b65de20dfeed9e7634c", "type": "electric_scooter", "is_disabled": 0, "lat": 38.9053745, "rental_uris": {"ios": "https://dc.lft.to/lastmile_qr_scan", "android": "https://dc.lft.to/lastmile_qr_scan"}, "is_reserved": 0, "fusion_lon": 0.0, "fusion_lat": 0.0, "lon": -77.00563516666666, "name": "5a7091c1a82d5b65de20dfeed9e7634c"}, {"bike_id": "c1c8105df48a7f3d07441ff8ae8117cb", "type": "electric_bike", "is_disabled": 0, "lat": 38.8729425, "rental_uris": {"ios": "https://dc.lft.to/lastmile_qr_scan", "android": "https://dc.lft.to/lastmile_qr_scan"}, "is_reserved": 0, "fusion_lon": 0.0, "fusion_lat": 0.0, "lon": -77.13921283333333, "name": "c1c8105df48a7f3d07441ff8ae8117cb"}, {"bike_id": "884f45e208757c7f002af3ba2c81b35a", "type": "electric_scooter", "is_disabled": 0, "lat": 38.90970383333333, "rental_uris": {"ios": "https://dc.lft.to/lastmile_qr_scan", "android": "https://dc.lft.to/lastmile_qr_scan"}, "is_reserved": 0, "fusion_lon": 0.0, "fusion_lat": 0.0, "lon": -77.03368316666666, "name": "884f45e208757c7f002af3ba2c81b35a"}, {"bike_id": "37fbff3cace6816979503fb39c5b3f04", "type": "electric_scooter", "is_disabled": 0, "lat": 38.94488583333333, "rental_uris": {"ios": "https://dc.lft.to/lastmile_qr_scan", "android": "https://dc.lft.to/lastmile_qr_scan"}, "is_reserved": 0, "fusion_lon": 0.0, "fusion_lat": 0.0, "lon": -77.064038, "name": "37fbff3cace6816979503fb39c5b3f04"}, {"bike_id": "0924aa516eef218c409e8f4329a4e70d", "type": "electric_scooter", "is_disabled": 0, "lat": 38.873371166666665, "rental_uris": {"ios": "https://dc.lft.to/lastmile_qr_scan", "android": "https://dc.lft.to/lastmile_qr_scan"}, "is_reserved": 0, "fusion_lon": 0.0, "fusion_lat": 0.0, "lon": -76.96786666666667, "name": "0924aa516eef218c409e8f4329a4e70d"}, {"bike_id": "2c5b01663c80f52bad5cd368f438a087", "type": "electric_bike", "is_disabled": 0, "lat": 38.973963833333336, "rental_uris": {"ios": "https://dc.lft.to/lastmile_qr_scan", "android": "https://dc.lft.to/lastmile_qr_scan"}, "is_reserved": 0, "fusion_lon": 0.0, "fusion_lat": 0.0, "lon": -77.06450766666667, "name": "2c5b01663c80f52bad5cd368f438a087"}, {"bike_id": "efb533b951dbce1599fa24bd97500e2a", "type": "electric_scooter", "is_disabled": 0, "lat": 38.95627016666667, "rental_uris": {"ios": "https://dc.lft.to/lastmile_qr_scan", "android": "https://dc.lft.to/lastmile_qr_scan"}, "is_reserved": 0, "fusion_lon": 0.0, "fusion_lat": 0.0, "lon": -77.03616233333334, "name": "efb533b951dbce1599fa24bd97500e2a"}, {"bike_id": "d65abd8a1920cef7343799b7e7ac8f6e", "type": "electric_scooter", "is_disabled": 0, "lat": 38.91055333333333, "rental_uris": {"ios": "https://dc.lft.to/lastmile_qr_scan", "android": "https://dc.lft.to/lastmile_qr_scan"}, "is_reserved": 0, "fusion_lon": 0.0, "fusion_lat": 0.0, "lon": -77.0435525, "name": "d65abd8a1920cef7343799b7e7ac8f6e"}, {"bike_id": "2e61d84c92749699c0d662ca05e47141", "type": "electric_scooter", "is_disabled": 0, "lat": 38.879261666666665, "rental_uris": {"ios": "https://dc.lft.to/lastmile_qr_scan", "android": "https://dc.lft.to/lastmile_qr_scan"}, "is_reserved": 0, "fusion_lon": 0.0, "fusion_lat": 0.0, "lon": -77.00878333333333, "name": "2e61d84c92749699c0d662ca05e47141"}, {"bike_id": "69a40b547b3fb2cfc292febb26564323", "type": "electric_scooter", "is_disabled": 0, "lat": 38.937585166666665, "rental_uris": {"ios": "https://dc.lft.to/lastmile_qr_scan", "android": "https://dc.lft.to/lastmile_qr_scan"}, "is_reserved": 0, "fusion_lon": 0.0, "fusion_lat": 0.0, "lon": -77.024774, "name": "69a40b547b3fb2cfc292febb26564323"}, {"bike_id": "53f915a3bd1469c1ae910ca9ed7d98d0", "type": "electric_scooter", "is_disabled": 0, "lat": 38.92514716666667, "rental_uris": {"ios": "https://dc.lft.to/lastmile_qr_scan", "android": "https://dc.lft.to/lastmile_qr_scan"}, "is_reserved": 0, "fusion_lon": 0.0, "fusion_lat": 0.0, "lon": -77.05232266666667, "name": "53f915a3bd1469c1ae910ca9ed7d98d0"}, {"bike_id": "22cc685b113a32d4aadb57ed09ddd027", "type": "electric_scooter", "is_disabled": 0, "lat": 38.93132266666667, "rental_uris": {"ios": "https://dc.lft.to/lastmile_qr_scan", "android": "https://dc.lft.to/lastmile_qr_scan"}, "is_reserved": 0, "fusion_lon": 0.0, "fusion_lat": 0.0, "lon": -77.02801183333334, "name": "22cc685b113a32d4aadb57ed09ddd027"}, {"bike_id": "a861040d7da82a80a10e71b250fd81e9", "type": "electric_scooter", "is_disabled": 0, "lat": 38.923318, "rental_uris": {"ios": "https://dc.lft.to/lastmile_qr_scan", "android": "https://dc.lft.to/lastmile_qr_scan"}, "is_reserved": 0, "fusion_lon": 0.0, "fusion_lat": 0.0, "lon": -77.03784033333334, "name": "a861040d7da82a80a10e71b250fd81e9"}, {"bike_id": "5097c005b267e83c01f32ce1f22dfcdf", "type": "electric_scooter", "is_disabled": 0, "lat": 38.902781833333336, "rental_uris": {"ios": "https://dc.lft.to/lastmile_qr_scan", "android": "https://dc.lft.to/lastmile_qr_scan"}, "is_reserved": 0, "fusion_lon": 0.0, "fusion_lat": 0.0, "lon": -77.0037045, "name": "5097c005b267e83c01f32ce1f22dfcdf"}, {"bike_id": "e211cf1c5f1dec6dbbbcab4ad42f7364", "type": "electric_scooter", "is_disabled": 0, "lat": 38.901192, "rental_uris": {"ios": "https://dc.lft.to/lastmile_qr_scan", "android": "https://dc.lft.to/lastmile_qr_scan"}, "is_reserved": 0, "fusion_lon": 0.0, "fusion_lat": 0.0, "lon": -76.929535, "name": "e211cf1c5f1dec6dbbbcab4ad42f7364"}, {"bike_id": "bdc8475fd64932306b8f82ca7329436e", "type": "electric_scooter", "is_disabled": 0, "lat": 38.93984283333333, "rental_uris": {"ios": "https://dc.lft.to/lastmile_qr_scan", "android": "https://dc.lft.to/lastmile_qr_scan"}, "is_reserved": 0, "fusion_lon": 0.0, "fusion_lat": 0.0, "lon": -77.0287315, "name": "bdc8475fd64932306b8f82ca7329436e"}, {"bike_id": "f835fff6198eecfeaea234d2a55273c1", "type": "electric_scooter", "is_disabled": 0, "lat": 38.887453, "rental_uris": {"ios": "https://dc.lft.to/lastmile_qr_scan", "android": "https://dc.lft.to/lastmile_qr_scan"}, "is_reserved": 0, "fusion_lon": 0.0, "fusion_lat": 0.0, "lon": -77.02726083333333, "name": "f835fff6198eecfeaea234d2a55273c1"}, {"bike_id": "32de160182564e8ad829bf53c1ea1a9f", "type": "electric_bike", "is_disabled": 0, "lat": 38.803990666666664, "rental_uris": {"ios": "https://dc.lft.to/lastmile_qr_scan", "android": "https://dc.lft.to/lastmile_qr_scan"}, "is_reserved": 0, "fusion_lon": 0.0, "fusion_lat": 0.0, "lon": -77.05557716666667, "name": "32de160182564e8ad829bf53c1ea1a9f"}, {"bike_id": "4a23281d7bdb4ade9a674809b28d3442", "type": "electric_scooter", "is_disabled": 0, "lat": 38.899454166666665, "rental_uris": {"ios": "https://dc.lft.to/lastmile_qr_scan", "android": "https://dc.lft.to/lastmile_qr_scan"}, "is_reserved": 0, "fusion_lon": 0.0, "fusion_lat": 0.0, "lon": -77.047454, "name": "4a23281d7bdb4ade9a674809b28d3442"}, {"bike_id": "1998099206299af9fe615b33e456f58b", "type": "electric_scooter", "is_disabled": 0, "lat": 38.9390675, "rental_uris": {"ios": "https://dc.lft.to/lastmile_qr_scan", "android": "https://dc.lft.to/lastmile_qr_scan"}, "is_reserved": 0, "fusion_lon": 0.0, "fusion_lat": 0.0, "lon": -77.0332475, "name": "1998099206299af9fe615b33e456f58b"}, {"bike_id": "d795debb7bf4dd8f84642e962037f665", "type": "electric_bike", "is_disabled": 0, "lat": 38.864882333333334, "rental_uris": {"ios": "https://dc.lft.to/lastmile_qr_scan", "android": "https://dc.lft.to/lastmile_qr_scan"}, "is_reserved": 0, "fusion_lon": 0.0, "fusion_lat": 0.0, "lon": -76.97754416666666, "name": "d795debb7bf4dd8f84642e962037f665"}, {"bike_id": "b20a9c986ecd6d095d6fdc0b9a277b93", "type": "electric_scooter", "is_disabled": 0, "lat": 38.917574333333334, "rental_uris": {"ios": "https://dc.lft.to/lastmile_qr_scan", "android": "https://dc.lft.to/lastmile_qr_scan"}, "is_reserved": 0, "fusion_lon": 0.0, "fusion_lat": 0.0, "lon": -77.02805883333333, "name": "b20a9c986ecd6d095d6fdc0b9a277b93"}, {"bike_id": "63cdc5dd61daf866e2a13ccb7ef9b4a4", "type": "electric_scooter", "is_disabled": 0, "lat": 38.9004955, "rental_uris": {"ios": "https://dc.lft.to/lastmile_qr_scan", "android": "https://dc.lft.to/lastmile_qr_scan"}, "is_reserved": 0, "fusion_lon": 0.0, "fusion_lat": 0.0, "lon": -77.003682, "name": "63cdc5dd61daf866e2a13ccb7ef9b4a4"}, {"bike_id": "de8b98f84098a4aeeab9b2d174e5e621", "type": "electric_scooter", "is_disabled": 0, "lat": 38.9418465, "rental_uris": {"ios": "https://dc.lft.to/lastmile_qr_scan", "android": "https://dc.lft.to/lastmile_qr_scan"}, "is_reserved": 0, "fusion_lon": 0.0, "fusion_lat": 0.0, "lon": -77.02488466666667, "name": "de8b98f84098a4aeeab9b2d174e5e621"}, {"bike_id": "eb2a556c791de6d756a5e9413cee5229", "type": "electric_scooter", "is_disabled": 0, "lat": 38.92220783333333, "rental_uris": {"ios": "https://dc.lft.to/lastmile_qr_scan", "android": "https://dc.lft.to/lastmile_qr_scan"}, "is_reserved": 0, "fusion_lon": 0.0, "fusion_lat": 0.0, "lon": -77.03461516666667, "name": "eb2a556c791de6d756a5e9413cee5229"}, {"bike_id": "11f1f69ead6164b1d2853af651324b11", "type": "electric_scooter", "is_disabled": 0, "lat": 38.893099166666666, "rental_uris": {"ios": "https://dc.lft.to/lastmile_qr_scan", "android": "https://dc.lft.to/lastmile_qr_scan"}, "is_reserved": 0, "fusion_lon": 0.0, "fusion_lat": 0.0, "lon": -77.02612433333333, "name": "11f1f69ead6164b1d2853af651324b11"}, {"bike_id": "cbf82d33d2ed3da608f78e76c0f71602", "type": "electric_scooter", "is_disabled": 0, "lat": 38.870707833333334, "rental_uris": {"ios": "https://dc.lft.to/lastmile_qr_scan", "android": "https://dc.lft.to/lastmile_qr_scan"}, "is_reserved": 0, "fusion_lon": 0.0, "fusion_lat": 0.0, "lon": -76.981268, "name": "cbf82d33d2ed3da608f78e76c0f71602"}, {"bike_id": "4c60b98cb93dd2396b66c4571a8d323f", "type": "electric_scooter", "is_disabled": 0, "lat": 38.866292, "rental_uris": {"ios": "https://dc.lft.to/lastmile_qr_scan", "android": "https://dc.lft.to/lastmile_qr_scan"}, "is_reserved": 0, "fusion_lon": 0.0, "fusion_lat": 0.0, "lon": -76.98717333333333, "name": "4c60b98cb93dd2396b66c4571a8d323f"}, {"bike_id": "480673eebe5f85ecd23ea5bae26cd8c5", "type": "electric_scooter", "is_disabled": 0, "lat": 38.9149145, "rental_uris": {"ios": "https://dc.lft.to/lastmile_qr_scan", "android": "https://dc.lft.to/lastmile_qr_scan"}, "is_reserved": 0, "fusion_lon": 0.0, "fusion_lat": 0.0, "lon": -77.02501083333334, "name": "480673eebe5f85ecd23ea5bae26cd8c5"}, {"bike_id": "e52488a8effe6f9671a5a32a85a910ce", "type": "electric_scooter", "is_disabled": 0, "lat": 38.942041333333336, "rental_uris": {"ios": "https://dc.lft.to/lastmile_qr_scan", "android": "https://dc.lft.to/lastmile_qr_scan"}, "is_reserved": 0, "fusion_lon": 0.0, "fusion_lat": 0.0, "lon": -77.025419, "name": "e52488a8effe6f9671a5a32a85a910ce"}, {"bike_id": "3f823ef4e66b6321e5518689f654d3fa", "type": "electric_scooter", "is_disabled": 0, "lat": 38.85810983333333, "rental_uris": {"ios": "https://dc.lft.to/lastmile_qr_scan", "android": "https://dc.lft.to/lastmile_qr_scan"}, "is_reserved": 0, "fusion_lon": 0.0, "fusion_lat": 0.0, "lon": -76.989257, "name": "3f823ef4e66b6321e5518689f654d3fa"}, {"bike_id": "6bcd7d241f4213e7227a193ee55f60f2", "type": "electric_scooter", "is_disabled": 0, "lat": 38.895366833333334, "rental_uris": {"ios": "https://dc.lft.to/lastmile_qr_scan", "android": "https://dc.lft.to/lastmile_qr_scan"}, "is_reserved": 0, "fusion_lon": 0.0, "fusion_lat": 0.0, "lon": -77.011414, "name": "6bcd7d241f4213e7227a193ee55f60f2"}, {"bike_id": "0f14e57d9a8a8eb2a2c96d1ced475869", "type": "electric_scooter", "is_disabled": 0, "lat": 38.91115516666667, "rental_uris": {"ios": "https://dc.lft.to/lastmile_qr_scan", "android": "https://dc.lft.to/lastmile_qr_scan"}, "is_reserved": 0, "fusion_lon": 0.0, "fusion_lat": 0.0, "lon": -77.0447655, "name": "0f14e57d9a8a8eb2a2c96d1ced475869"}, {"bike_id": "057e33fa4dd67f2ef7be1bd7bb73352a", "type": "electric_scooter", "is_disabled": 0, "lat": 38.901566, "rental_uris": {"ios": "https://dc.lft.to/lastmile_qr_scan", "android": "https://dc.lft.to/lastmile_qr_scan"}, "is_reserved": 0, "fusion_lon": 0.0, "fusion_lat": 0.0, "lon": -77.05904366666667, "name": "057e33fa4dd67f2ef7be1bd7bb73352a"}, {"bike_id": "e579a6c6ff6d9aba2fc0937b8fa4bde7", "type": "electric_scooter", "is_disabled": 0, "lat": 38.917638333333336, "rental_uris": {"ios": "https://dc.lft.to/lastmile_qr_scan", "android": "https://dc.lft.to/lastmile_qr_scan"}, "is_reserved": 0, "fusion_lon": 0.0, "fusion_lat": 0.0, "lon": -77.047666, "name": "e579a6c6ff6d9aba2fc0937b8fa4bde7"}, {"bike_id": "9b699ede967a2d342a227e3a80cbb717", "type": "electric_scooter", "is_disabled": 0, "lat": 38.9000675, "rental_uris": {"ios": "https://dc.lft.to/lastmile_qr_scan", "android": "https://dc.lft.to/lastmile_qr_scan"}, "is_reserved": 0, "fusion_lon": 0.0, "fusion_lat": 0.0, "lon": -77.04666233333333, "name": "9b699ede967a2d342a227e3a80cbb717"}, {"bike_id": "486a590c330b8ea1c9d1c35445d33295", "type": "electric_scooter", "is_disabled": 0, "lat": 38.9028645, "rental_uris": {"ios": "https://dc.lft.to/lastmile_qr_scan", "android": "https://dc.lft.to/lastmile_qr_scan"}, "is_reserved": 0, "fusion_lon": 0.0, "fusion_lat": 0.0, "lon": -77.0235825, "name": "486a590c330b8ea1c9d1c35445d33295"}, {"bike_id": "f8eb200e8092f6ecd4a48203464f1af5", "type": "electric_scooter", "is_disabled": 0, "lat": 38.91354233333333, "rental_uris": {"ios": "https://dc.lft.to/lastmile_qr_scan", "android": "https://dc.lft.to/lastmile_qr_scan"}, "is_reserved": 0, "fusion_lon": 0.0, "fusion_lat": 0.0, "lon": -77.02578016666666, "name": "f8eb200e8092f6ecd4a48203464f1af5"}, {"bike_id": "86422e9e63ff330dbbf322634871797c", "type": "electric_scooter", "is_disabled": 0, "lat": 38.8961455, "rental_uris": {"ios": "https://dc.lft.to/lastmile_qr_scan", "android": "https://dc.lft.to/lastmile_qr_scan"}, "is_reserved": 0, "fusion_lon": 0.0, "fusion_lat": 0.0, "lon": -76.98164366666667, "name": "86422e9e63ff330dbbf322634871797c"}, {"bike_id": "84a27d5ba3fcea31d9a4c3854ed020b4", "type": "electric_scooter", "is_disabled": 0, "lat": 38.9027465, "rental_uris": {"ios": "https://dc.lft.to/lastmile_qr_scan", "android": "https://dc.lft.to/lastmile_qr_scan"}, "is_reserved": 0, "fusion_lon": 0.0, "fusion_lat": 0.0, "lon": -77.01903, "name": "84a27d5ba3fcea31d9a4c3854ed020b4"}, {"bike_id": "a54f973ba7d3ba189ba4737d953956ac", "type": "electric_scooter", "is_disabled": 0, "lat": 38.91576, "rental_uris": {"ios": "https://dc.lft.to/lastmile_qr_scan", "android": "https://dc.lft.to/lastmile_qr_scan"}, "is_reserved": 0, "fusion_lon": 0.0, "fusion_lat": 0.0, "lon": -77.01997683333333, "name": "a54f973ba7d3ba189ba4737d953956ac"}, {"bike_id": "f2f604c9d26b5d2869b90461a585db36", "type": "electric_scooter", "is_disabled": 0, "lat": 38.915734, "rental_uris": {"ios": "https://dc.lft.to/lastmile_qr_scan", "android": "https://dc.lft.to/lastmile_qr_scan"}, "is_reserved": 0, "fusion_lon": 0.0, "fusion_lat": 0.0, "lon": -77.02058833333334, "name": "f2f604c9d26b5d2869b90461a585db36"}, {"bike_id": "b2a48f935a0ceb8114ba217e434eefd9", "type": "electric_scooter", "is_disabled": 0, "lat": 38.906839833333336, "rental_uris": {"ios": "https://dc.lft.to/lastmile_qr_scan", "android": "https://dc.lft.to/lastmile_qr_scan"}, "is_reserved": 0, "fusion_lon": 0.0, "fusion_lat": 0.0, "lon": -77.0269375, "name": "b2a48f935a0ceb8114ba217e434eefd9"}, {"bike_id": "d167987cb9577adb85b3c6a3b4bc1b0e", "type": "electric_bike", "is_disabled": 0, "lat": 38.859372, "rental_uris": {"ios": "https://dc.lft.to/lastmile_qr_scan", "android": "https://dc.lft.to/lastmile_qr_scan"}, "is_reserved": 0, "fusion_lon": 0.0, "fusion_lat": 0.0, "lon": -77.11829716666666, "name": "d167987cb9577adb85b3c6a3b4bc1b0e"}, {"bike_id": "ea25d30b7ef8fb7b25605912f1526341", "type": "electric_bike", "is_disabled": 0, "lat": 38.823696166666664, "rental_uris": {"ios": "https://dc.lft.to/lastmile_qr_scan", "android": "https://dc.lft.to/lastmile_qr_scan"}, "is_reserved": 0, "fusion_lon": 0.0, "fusion_lat": 0.0, "lon": -77.0021795, "name": "ea25d30b7ef8fb7b25605912f1526341"}, {"bike_id": "37c1b278671c6e58566b85285d95c9f5", "type": "electric_bike", "is_disabled": 0, "lat": 38.87085616666667, "rental_uris": {"ios": "https://dc.lft.to/lastmile_qr_scan", "android": "https://dc.lft.to/lastmile_qr_scan"}, "is_reserved": 0, "fusion_lon": 0.0, "fusion_lat": 0.0, "lon": -77.01210566666667, "name": "37c1b278671c6e58566b85285d95c9f5"}, {"bike_id": "4f3bf74953041275d56a976717a40646", "type": "electric_bike", "is_disabled": 0, "lat": 38.89817166666667, "rental_uris": {"ios": "https://dc.lft.to/lastmile_qr_scan", "android": "https://dc.lft.to/lastmile_qr_scan"}, "is_reserved": 0, "fusion_lon": 0.0, "fusion_lat": 0.0, "lon": -76.99074, "name": "4f3bf74953041275d56a976717a40646"}, {"bike_id": "857db88d7007078a6b35554113be9fed", "type": "electric_scooter", "is_disabled": 0, "lat": 38.905916, "rental_uris": {"ios": "https://dc.lft.to/lastmile_qr_scan", "android": "https://dc.lft.to/lastmile_qr_scan"}, "is_reserved": 0, "fusion_lon": 0.0, "fusion_lat": 0.0, "lon": -77.06803483333333, "name": "857db88d7007078a6b35554113be9fed"}, {"bike_id": "7bdc522a38833e600b1a52b183921e6c", "type": "electric_scooter", "is_disabled": 0, "lat": 38.919454333333334, "rental_uris": {"ios": "https://dc.lft.to/lastmile_qr_scan", "android": "https://dc.lft.to/lastmile_qr_scan"}, "is_reserved": 0, "fusion_lon": 0.0, "fusion_lat": 0.0, "lon": -77.02510383333333, "name": "7bdc522a38833e600b1a52b183921e6c"}, {"bike_id": "513182a728f5eb95912136d5ca7d06d8", "type": "electric_scooter", "is_disabled": 0, "lat": 38.932027, "rental_uris": {"ios": "https://dc.lft.to/lastmile_qr_scan", "android": "https://dc.lft.to/lastmile_qr_scan"}, "is_reserved": 0, "fusion_lon": 0.0, "fusion_lat": 0.0, "lon": -77.036613, "name": "513182a728f5eb95912136d5ca7d06d8"}, {"bike_id": "08ce82b9b51d76dfe57f97ca14281bcf", "type": "electric_scooter", "is_disabled": 0, "lat": 38.91827683333333, "rental_uris": {"ios": "https://dc.lft.to/lastmile_qr_scan", "android": "https://dc.lft.to/lastmile_qr_scan"}, "is_reserved": 0, "fusion_lon": 0.0, "fusion_lat": 0.0, "lon": -77.04560183333334, "name": "08ce82b9b51d76dfe57f97ca14281bcf"}, {"bike_id": "6939284040b470164ee20b8d6bb48bb6", "type": "electric_scooter", "is_disabled": 0, "lat": 38.926373, "rental_uris": {"ios": "https://dc.lft.to/lastmile_qr_scan", "android": "https://dc.lft.to/lastmile_qr_scan"}, "is_reserved": 0, "fusion_lon": 0.0, "fusion_lat": 0.0, "lon": -77.0216835, "name": "6939284040b470164ee20b8d6bb48bb6"}, {"bike_id": "3b8e28fe7d0556798d055a41a054ac71", "type": "electric_scooter", "is_disabled": 0, "lat": 38.927861, "rental_uris": {"ios": "https://dc.lft.to/lastmile_qr_scan", "android": "https://dc.lft.to/lastmile_qr_scan"}, "is_reserved": 0, "fusion_lon": 0.0, "fusion_lat": 0.0, "lon": -77.05266383333333, "name": "3b8e28fe7d0556798d055a41a054ac71"}, {"bike_id": "9d557357d32297488b0e919d372931ac", "type": "electric_scooter", "is_disabled": 0, "lat": 38.92513866666667, "rental_uris": {"ios": "https://dc.lft.to/lastmile_qr_scan", "android": "https://dc.lft.to/lastmile_qr_scan"}, "is_reserved": 0, "fusion_lon": 0.0, "fusion_lat": 0.0, "lon": -77.00884416666666, "name": "9d557357d32297488b0e919d372931ac"}, {"bike_id": "168de788f380093eed1bc1b0024523f8", "type": "electric_scooter", "is_disabled": 0, "lat": 38.91101333333334, "rental_uris": {"ios": "https://dc.lft.to/lastmile_qr_scan", "android": "https://dc.lft.to/lastmile_qr_scan"}, "is_reserved": 0, "fusion_lon": 0.0, "fusion_lat": 0.0, "lon": -77.02448583333333, "name": "168de788f380093eed1bc1b0024523f8"}, {"bike_id": "6148d434f4f8953b8911c0b71fe52071", "type": "electric_scooter", "is_disabled": 0, "lat": 38.92783716666667, "rental_uris": {"ios": "https://dc.lft.to/lastmile_qr_scan", "android": "https://dc.lft.to/lastmile_qr_scan"}, "is_reserved": 0, "fusion_lon": 0.0, "fusion_lat": 0.0, "lon": -77.05413066666667, "name": "6148d434f4f8953b8911c0b71fe52071"}, {"bike_id": "d713feea6dc1389ceba19590786a5bb0", "type": "electric_scooter", "is_disabled": 0, "lat": 38.943589833333334, "rental_uris": {"ios": "https://dc.lft.to/lastmile_qr_scan", "android": "https://dc.lft.to/lastmile_qr_scan"}, "is_reserved": 0, "fusion_lon": 0.0, "fusion_lat": 0.0, "lon": -77.06135516666667, "name": "d713feea6dc1389ceba19590786a5bb0"}, {"bike_id": "68f8ed6ad3464c39bab8075a0721bfef", "type": "electric_scooter", "is_disabled": 0, "lat": 38.86698066666666, "rental_uris": {"ios": "https://dc.lft.to/lastmile_qr_scan", "android": "https://dc.lft.to/lastmile_qr_scan"}, "is_reserved": 0, "fusion_lon": 0.0, "fusion_lat": 0.0, "lon": -76.9871345, "name": "68f8ed6ad3464c39bab8075a0721bfef"}, {"bike_id": "76deed101d097e73f90695b933b7076c", "type": "electric_scooter", "is_disabled": 0, "lat": 38.90643, "rental_uris": {"ios": "https://dc.lft.to/lastmile_qr_scan", "android": "https://dc.lft.to/lastmile_qr_scan"}, "is_reserved": 0, "fusion_lon": 0.0, "fusion_lat": 0.0, "lon": -77.0059125, "name": "76deed101d097e73f90695b933b7076c"}, {"bike_id": "db4f9c75a68b9a92bdc88b8e5429f256", "type": "electric_scooter", "is_disabled": 0, "lat": 38.913416166666664, "rental_uris": {"ios": "https://dc.lft.to/lastmile_qr_scan", "android": "https://dc.lft.to/lastmile_qr_scan"}, "is_reserved": 0, "fusion_lon": 0.0, "fusion_lat": 0.0, "lon": -77.03177233333334, "name": "db4f9c75a68b9a92bdc88b8e5429f256"}, {"bike_id": "828a3b7bcb79470f55f14e1d14430a9c", "type": "electric_scooter", "is_disabled": 0, "lat": 38.86203883333334, "rental_uris": {"ios": "https://dc.lft.to/lastmile_qr_scan", "android": "https://dc.lft.to/lastmile_qr_scan"}, "is_reserved": 0, "fusion_lon": 0.0, "fusion_lat": 0.0, "lon": -76.99467566666667, "name": "828a3b7bcb79470f55f14e1d14430a9c"}, {"bike_id": "e32d218f0d53dfb00393c796114c26c0", "type": "electric_scooter", "is_disabled": 0, "lat": 38.9236385, "rental_uris": {"ios": "https://dc.lft.to/lastmile_qr_scan", "android": "https://dc.lft.to/lastmile_qr_scan"}, "is_reserved": 0, "fusion_lon": 0.0, "fusion_lat": 0.0, "lon": -77.05129766666667, "name": "e32d218f0d53dfb00393c796114c26c0"}, {"bike_id": "b762a02a1daac55dc5a9e5fe3a9e4ebb", "type": "electric_scooter", "is_disabled": 0, "lat": 38.86679733333333, "rental_uris": {"ios": "https://dc.lft.to/lastmile_qr_scan", "android": "https://dc.lft.to/lastmile_qr_scan"}, "is_reserved": 0, "fusion_lon": 0.0, "fusion_lat": 0.0, "lon": -76.98536616666667, "name": "b762a02a1daac55dc5a9e5fe3a9e4ebb"}, {"bike_id": "b12745d826e2d984453b6b6a5359d6f8", "type": "electric_scooter", "is_disabled": 0, "lat": 38.907315833333335, "rental_uris": {"ios": "https://dc.lft.to/lastmile_qr_scan", "android": "https://dc.lft.to/lastmile_qr_scan"}, "is_reserved": 0, "fusion_lon": 0.0, "fusion_lat": 0.0, "lon": -77.04339483333334, "name": "b12745d826e2d984453b6b6a5359d6f8"}, {"bike_id": "ec0fb39f66dcbd7c067de57c25947205", "type": "electric_scooter", "is_disabled": 0, "lat": 38.947167, "rental_uris": {"ios": "https://dc.lft.to/lastmile_qr_scan", "android": "https://dc.lft.to/lastmile_qr_scan"}, "is_reserved": 0, "fusion_lon": 0.0, "fusion_lat": 0.0, "lon": -77.02782083333334, "name": "ec0fb39f66dcbd7c067de57c25947205"}, {"bike_id": "8a25602f6b96ba97f407e418ab46368e", "type": "electric_scooter", "is_disabled": 0, "lat": 38.89719616666667, "rental_uris": {"ios": "https://dc.lft.to/lastmile_qr_scan", "android": "https://dc.lft.to/lastmile_qr_scan"}, "is_reserved": 0, "fusion_lon": 0.0, "fusion_lat": 0.0, "lon": -77.00899566666666, "name": "8a25602f6b96ba97f407e418ab46368e"}, {"bike_id": "410914bdb4b964ff9846a2bad3c7cf16", "type": "electric_scooter", "is_disabled": 0, "lat": 38.882642, "rental_uris": {"ios": "https://dc.lft.to/lastmile_qr_scan", "android": "https://dc.lft.to/lastmile_qr_scan"}, "is_reserved": 0, "fusion_lon": 0.0, "fusion_lat": 0.0, "lon": -76.99506433333333, "name": "410914bdb4b964ff9846a2bad3c7cf16"}, {"bike_id": "c35a435fd385808a1dcc7608b27feea4", "type": "electric_scooter", "is_disabled": 0, "lat": 38.916197333333336, "rental_uris": {"ios": "https://dc.lft.to/lastmile_qr_scan", "android": "https://dc.lft.to/lastmile_qr_scan"}, "is_reserved": 0, "fusion_lon": 0.0, "fusion_lat": 0.0, "lon": -77.02107216666667, "name": "c35a435fd385808a1dcc7608b27feea4"}, {"bike_id": "d29d6b71c9c4c0810e198aaba09d6750", "type": "electric_scooter", "is_disabled": 0, "lat": 38.8843415, "rental_uris": {"ios": "https://dc.lft.to/lastmile_qr_scan", "android": "https://dc.lft.to/lastmile_qr_scan"}, "is_reserved": 0, "fusion_lon": 0.0, "fusion_lat": 0.0, "lon": -76.95749933333333, "name": "d29d6b71c9c4c0810e198aaba09d6750"}, {"bike_id": "ab5d1897d010ee8c0efab4f45200eb44", "type": "electric_scooter", "is_disabled": 0, "lat": 38.93107216666667, "rental_uris": {"ios": "https://dc.lft.to/lastmile_qr_scan", "android": "https://dc.lft.to/lastmile_qr_scan"}, "is_reserved": 0, "fusion_lon": 0.0, "fusion_lat": 0.0, "lon": -77.0380865, "name": "ab5d1897d010ee8c0efab4f45200eb44"}, {"bike_id": "6fed1dc1d8cffb4eccc519ea44b82766", "type": "electric_scooter", "is_disabled": 0, "lat": 38.936548, "rental_uris": {"ios": "https://dc.lft.to/lastmile_qr_scan", "android": "https://dc.lft.to/lastmile_qr_scan"}, "is_reserved": 0, "fusion_lon": 0.0, "fusion_lat": 0.0, "lon": -77.02639383333333, "name": "6fed1dc1d8cffb4eccc519ea44b82766"}, {"bike_id": "152c34f07a5e4812e5276b9d2040f0b9", "type": "electric_scooter", "is_disabled": 0, "lat": 38.91824233333333, "rental_uris": {"ios": "https://dc.lft.to/lastmile_qr_scan", "android": "https://dc.lft.to/lastmile_qr_scan"}, "is_reserved": 0, "fusion_lon": 0.0, "fusion_lat": 0.0, "lon": -77.02423016666667, "name": "152c34f07a5e4812e5276b9d2040f0b9"}, {"bike_id": "d66f37400eab1c00231e39d6c860762d", "type": "electric_scooter", "is_disabled": 0, "lat": 38.9144345, "rental_uris": {"ios": "https://dc.lft.to/lastmile_qr_scan", "android": "https://dc.lft.to/lastmile_qr_scan"}, "is_reserved": 0, "fusion_lon": 0.0, "fusion_lat": 0.0, "lon": -77.0228835, "name": "d66f37400eab1c00231e39d6c860762d"}, {"bike_id": "b3641be4673f694993ee4e17594a84b3", "type": "electric_scooter", "is_disabled": 0, "lat": 38.8885035, "rental_uris": {"ios": "https://dc.lft.to/lastmile_qr_scan", "android": "https://dc.lft.to/lastmile_qr_scan"}, "is_reserved": 0, "fusion_lon": 0.0, "fusion_lat": 0.0, "lon": -76.92679883333334, "name": "b3641be4673f694993ee4e17594a84b3"}, {"bike_id": "8bb274bfab1c5322bf88e221631fd7c1", "type": "electric_scooter", "is_disabled": 0, "lat": 38.91816566666667, "rental_uris": {"ios": "https://dc.lft.to/lastmile_qr_scan", "android": "https://dc.lft.to/lastmile_qr_scan"}, "is_reserved": 0, "fusion_lon": 0.0, "fusion_lat": 0.0, "lon": -77.02780633333333, "name": "8bb274bfab1c5322bf88e221631fd7c1"}, {"bike_id": "551ccece060e969f09be3b9bad7b086e", "type": "electric_bike", "is_disabled": 0, "lat": 38.869379, "rental_uris": {"ios": "https://dc.lft.to/lastmile_qr_scan", "android": "https://dc.lft.to/lastmile_qr_scan"}, "is_reserved": 0, "fusion_lon": 0.0, "fusion_lat": 0.0, "lon": -77.09468033333333, "name": "551ccece060e969f09be3b9bad7b086e"}, {"bike_id": "f377b8025217a0d2d4b52f9caef1c440", "type": "electric_scooter", "is_disabled": 0, "lat": 38.918242166666666, "rental_uris": {"ios": "https://dc.lft.to/lastmile_qr_scan", "android": "https://dc.lft.to/lastmile_qr_scan"}, "is_reserved": 0, "fusion_lon": 0.0, "fusion_lat": 0.0, "lon": -77.02423616666667, "name": "f377b8025217a0d2d4b52f9caef1c440"}, {"bike_id": "749e5a2444bc3be1e41a7d92f64adf4f", "type": "electric_scooter", "is_disabled": 0, "lat": 38.86700833333333, "rental_uris": {"ios": "https://dc.lft.to/lastmile_qr_scan", "android": "https://dc.lft.to/lastmile_qr_scan"}, "is_reserved": 0, "fusion_lon": 0.0, "fusion_lat": 0.0, "lon": -76.98714166666667, "name": "749e5a2444bc3be1e41a7d92f64adf4f"}, {"bike_id": "d2b67c02a9d1db0027060e2c0e626b5a", "type": "electric_scooter", "is_disabled": 0, "lat": 38.9155385, "rental_uris": {"ios": "https://dc.lft.to/lastmile_qr_scan", "android": "https://dc.lft.to/lastmile_qr_scan"}, "is_reserved": 0, "fusion_lon": 0.0, "fusion_lat": 0.0, "lon": -77.02337333333334, "name": "d2b67c02a9d1db0027060e2c0e626b5a"}, {"bike_id": "42c9a361ad490d510aa95663adb66924", "type": "electric_scooter", "is_disabled": 0, "lat": 38.9268705, "rental_uris": {"ios": "https://dc.lft.to/lastmile_qr_scan", "android": "https://dc.lft.to/lastmile_qr_scan"}, "is_reserved": 0, "fusion_lon": 0.0, "fusion_lat": 0.0, "lon": -77.02781366666666, "name": "42c9a361ad490d510aa95663adb66924"}, {"bike_id": "f4ad4477db08165fd254aba28f2aa61e", "type": "electric_scooter", "is_disabled": 0, "lat": 38.914112, "rental_uris": {"ios": "https://dc.lft.to/lastmile_qr_scan", "android": "https://dc.lft.to/lastmile_qr_scan"}, "is_reserved": 0, "fusion_lon": 0.0, "fusion_lat": 0.0, "lon": -77.0446205, "name": "f4ad4477db08165fd254aba28f2aa61e"}, {"bike_id": "e3afd59cc95b33a821adf3a6ada0bbc6", "type": "electric_scooter", "is_disabled": 0, "lat": 38.8747565, "rental_uris": {"ios": "https://dc.lft.to/lastmile_qr_scan", "android": "https://dc.lft.to/lastmile_qr_scan"}, "is_reserved": 0, "fusion_lon": 0.0, "fusion_lat": 0.0, "lon": -77.010682, "name": "e3afd59cc95b33a821adf3a6ada0bbc6"}, {"bike_id": "8b0ce05850a83a7bbe1d9b9d30ca9a11", "type": "electric_scooter", "is_disabled": 0, "lat": 38.898857166666666, "rental_uris": {"ios": "https://dc.lft.to/lastmile_qr_scan", "android": "https://dc.lft.to/lastmile_qr_scan"}, "is_reserved": 0, "fusion_lon": 0.0, "fusion_lat": 0.0, "lon": -76.97696566666667, "name": "8b0ce05850a83a7bbe1d9b9d30ca9a11"}, {"bike_id": "0871840af2392340266953035349874d", "type": "electric_scooter", "is_disabled": 0, "lat": 38.92541583333333, "rental_uris": {"ios": "https://dc.lft.to/lastmile_qr_scan", "android": "https://dc.lft.to/lastmile_qr_scan"}, "is_reserved": 0, "fusion_lon": 0.0, "fusion_lat": 0.0, "lon": -77.04129133333333, "name": "0871840af2392340266953035349874d"}, {"bike_id": "f966e5c6524de8ea9f415015fb7a64fa", "type": "electric_scooter", "is_disabled": 0, "lat": 38.9060725, "rental_uris": {"ios": "https://dc.lft.to/lastmile_qr_scan", "android": "https://dc.lft.to/lastmile_qr_scan"}, "is_reserved": 0, "fusion_lon": 0.0, "fusion_lat": 0.0, "lon": -77.02106433333333, "name": "f966e5c6524de8ea9f415015fb7a64fa"}, {"bike_id": "33be8993b39d6067ff3b5e21c189d8c5", "type": "electric_bike", "is_disabled": 0, "lat": 38.95102266666667, "rental_uris": {"ios": "https://dc.lft.to/lastmile_qr_scan", "android": "https://dc.lft.to/lastmile_qr_scan"}, "is_reserved": 0, "fusion_lon": 0.0, "fusion_lat": 0.0, "lon": -77.05513, "name": "33be8993b39d6067ff3b5e21c189d8c5"}, {"bike_id": "7c45dc7cb96da06e8487dc4676e5109e", "type": "electric_scooter", "is_disabled": 0, "lat": 38.905820166666665, "rental_uris": {"ios": "https://dc.lft.to/lastmile_qr_scan", "android": "https://dc.lft.to/lastmile_qr_scan"}, "is_reserved": 0, "fusion_lon": 0.0, "fusion_lat": 0.0, "lon": -77.02605516666667, "name": "7c45dc7cb96da06e8487dc4676e5109e"}, {"bike_id": "2c0621bce31b12f6a1d48b3c26272ba0", "type": "electric_scooter", "is_disabled": 0, "lat": 38.90597416666667, "rental_uris": {"ios": "https://dc.lft.to/lastmile_qr_scan", "android": "https://dc.lft.to/lastmile_qr_scan"}, "is_reserved": 0, "fusion_lon": 0.0, "fusion_lat": 0.0, "lon": -77.04121183333334, "name": "2c0621bce31b12f6a1d48b3c26272ba0"}, {"bike_id": "975cad813e064e433aed0f5288f6681f", "type": "electric_scooter", "is_disabled": 0, "lat": 38.91335466666666, "rental_uris": {"ios": "https://dc.lft.to/lastmile_qr_scan", "android": "https://dc.lft.to/lastmile_qr_scan"}, "is_reserved": 0, "fusion_lon": 0.0, "fusion_lat": 0.0, "lon": -77.03181533333333, "name": "975cad813e064e433aed0f5288f6681f"}, {"bike_id": "e6ac6ea084090fd782b94369ae9be36b", "type": "electric_scooter", "is_disabled": 0, "lat": 38.93238233333334, "rental_uris": {"ios": "https://dc.lft.to/lastmile_qr_scan", "android": "https://dc.lft.to/lastmile_qr_scan"}, "is_reserved": 0, "fusion_lon": 0.0, "fusion_lat": 0.0, "lon": -77.0385575, "name": "e6ac6ea084090fd782b94369ae9be36b"}, {"bike_id": "d869548c884b0028f49400970d384eb9", "type": "electric_scooter", "is_disabled": 0, "lat": 38.90723, "rental_uris": {"ios": "https://dc.lft.to/lastmile_qr_scan", "android": "https://dc.lft.to/lastmile_qr_scan"}, "is_reserved": 0, "fusion_lon": 0.0, "fusion_lat": 0.0, "lon": -77.02493816666667, "name": "d869548c884b0028f49400970d384eb9"}, {"bike_id": "012f057b2f596ac2e82275f207542334", "type": "electric_scooter", "is_disabled": 0, "lat": 38.92355283333333, "rental_uris": {"ios": "https://dc.lft.to/lastmile_qr_scan", "android": "https://dc.lft.to/lastmile_qr_scan"}, "is_reserved": 0, "fusion_lon": 0.0, "fusion_lat": 0.0, "lon": -77.02456116666667, "name": "012f057b2f596ac2e82275f207542334"}, {"bike_id": "bca9c7c264de750f5a3e5d8c09f5a123", "type": "electric_bike", "is_disabled": 0, "lat": 38.95408666666667, "rental_uris": {"ios": "https://dc.lft.to/lastmile_qr_scan", "android": "https://dc.lft.to/lastmile_qr_scan"}, "is_reserved": 0, "fusion_lon": 0.0, "fusion_lat": 0.0, "lon": -76.98057283333333, "name": "bca9c7c264de750f5a3e5d8c09f5a123"}, {"bike_id": "c9d747c41dea46bfcd9768e69c1cd241", "type": "electric_scooter", "is_disabled": 0, "lat": 38.90405883333333, "rental_uris": {"ios": "https://dc.lft.to/lastmile_qr_scan", "android": "https://dc.lft.to/lastmile_qr_scan"}, "is_reserved": 0, "fusion_lon": 0.0, "fusion_lat": 0.0, "lon": -77.04045683333334, "name": "c9d747c41dea46bfcd9768e69c1cd241"}, {"bike_id": "dac1ef53c3b1a238ab386a9479890bc5", "type": "electric_scooter", "is_disabled": 0, "lat": 38.8892165, "rental_uris": {"ios": "https://dc.lft.to/lastmile_qr_scan", "android": "https://dc.lft.to/lastmile_qr_scan"}, "is_reserved": 0, "fusion_lon": 0.0, "fusion_lat": 0.0, "lon": -76.99130616666666, "name": "dac1ef53c3b1a238ab386a9479890bc5"}, {"bike_id": "bd7e7302e6a74d10441e0a7f8c1042c0", "type": "electric_scooter", "is_disabled": 0, "lat": 38.917154833333335, "rental_uris": {"ios": "https://dc.lft.to/lastmile_qr_scan", "android": "https://dc.lft.to/lastmile_qr_scan"}, "is_reserved": 0, "fusion_lon": 0.0, "fusion_lat": 0.0, "lon": -77.04158116666666, "name": "bd7e7302e6a74d10441e0a7f8c1042c0"}, {"bike_id": "430bc450d47b81caacaa11159896084e", "type": "electric_bike", "is_disabled": 0, "lat": 38.83828116666667, "rental_uris": {"ios": "https://dc.lft.to/lastmile_qr_scan", "android": "https://dc.lft.to/lastmile_qr_scan"}, "is_reserved": 0, "fusion_lon": 0.0, "fusion_lat": 0.0, "lon": -77.00273466666667, "name": "430bc450d47b81caacaa11159896084e"}, {"bike_id": "a40faa3b8e6b5f4ca5bce5707e0bccb6", "type": "electric_scooter", "is_disabled": 0, "lat": 38.907762, "rental_uris": {"ios": "https://dc.lft.to/lastmile_qr_scan", "android": "https://dc.lft.to/lastmile_qr_scan"}, "is_reserved": 0, "fusion_lon": 0.0, "fusion_lat": 0.0, "lon": -77.071371, "name": "a40faa3b8e6b5f4ca5bce5707e0bccb6"}, {"bike_id": "f0a5fca3847489b3b0a909260bf9667b", "type": "electric_scooter", "is_disabled": 0, "lat": 38.892880166666664, "rental_uris": {"ios": "https://dc.lft.to/lastmile_qr_scan", "android": "https://dc.lft.to/lastmile_qr_scan"}, "is_reserved": 0, "fusion_lon": 0.0, "fusion_lat": 0.0, "lon": -77.02415583333334, "name": "f0a5fca3847489b3b0a909260bf9667b"}, {"bike_id": "9fca761e6f51aebc10108c723d9f03ec", "type": "electric_scooter", "is_disabled": 0, "lat": 38.91116733333333, "rental_uris": {"ios": "https://dc.lft.to/lastmile_qr_scan", "android": "https://dc.lft.to/lastmile_qr_scan"}, "is_reserved": 0, "fusion_lon": 0.0, "fusion_lat": 0.0, "lon": -77.03917083333333, "name": "9fca761e6f51aebc10108c723d9f03ec"}, {"bike_id": "78c0199218c0396523df696ad8806182", "type": "electric_bike", "is_disabled": 0, "lat": 38.9524965, "rental_uris": {"ios": "https://dc.lft.to/lastmile_qr_scan", "android": "https://dc.lft.to/lastmile_qr_scan"}, "is_reserved": 0, "fusion_lon": 0.0, "fusion_lat": 0.0, "lon": -76.976782, "name": "78c0199218c0396523df696ad8806182"}, {"bike_id": "f77c932cd9721d1d4973cdb67ef59851", "type": "electric_bike", "is_disabled": 0, "lat": 38.955929166666664, "rental_uris": {"ios": "https://dc.lft.to/lastmile_qr_scan", "android": "https://dc.lft.to/lastmile_qr_scan"}, "is_reserved": 0, "fusion_lon": 0.0, "fusion_lat": 0.0, "lon": -77.08795416666666, "name": "f77c932cd9721d1d4973cdb67ef59851"}, {"bike_id": "82bc25c755d286c0904d5dd27461f60f", "type": "electric_scooter", "is_disabled": 0, "lat": 38.92316233333333, "rental_uris": {"ios": "https://dc.lft.to/lastmile_qr_scan", "android": "https://dc.lft.to/lastmile_qr_scan"}, "is_reserved": 0, "fusion_lon": 0.0, "fusion_lat": 0.0, "lon": -77.042119, "name": "82bc25c755d286c0904d5dd27461f60f"}, {"bike_id": "e3bcf4fb97bff889dcfd8253e0d86b07", "type": "electric_scooter", "is_disabled": 0, "lat": 38.971996833333336, "rental_uris": {"ios": "https://dc.lft.to/lastmile_qr_scan", "android": "https://dc.lft.to/lastmile_qr_scan"}, "is_reserved": 0, "fusion_lon": 0.0, "fusion_lat": 0.0, "lon": -77.0269105, "name": "e3bcf4fb97bff889dcfd8253e0d86b07"}, {"bike_id": "01f573f4045efc54d1b37b5152b0decb", "type": "electric_scooter", "is_disabled": 0, "lat": 38.935310333333334, "rental_uris": {"ios": "https://dc.lft.to/lastmile_qr_scan", "android": "https://dc.lft.to/lastmile_qr_scan"}, "is_reserved": 0, "fusion_lon": 0.0, "fusion_lat": 0.0, "lon": -77.02979633333334, "name": "01f573f4045efc54d1b37b5152b0decb"}, {"bike_id": "89d5f794b789cef3ae5fcda2bc081a5b", "type": "electric_scooter", "is_disabled": 0, "lat": 38.9065245, "rental_uris": {"ios": "https://dc.lft.to/lastmile_qr_scan", "android": "https://dc.lft.to/lastmile_qr_scan"}, "is_reserved": 0, "fusion_lon": 0.0, "fusion_lat": 0.0, "lon": -77.01009566666667, "name": "89d5f794b789cef3ae5fcda2bc081a5b"}, {"bike_id": "34fc74aca84ae02db447e67bb1f6e86d", "type": "electric_scooter", "is_disabled": 0, "lat": 38.9055465, "rental_uris": {"ios": "https://dc.lft.to/lastmile_qr_scan", "android": "https://dc.lft.to/lastmile_qr_scan"}, "is_reserved": 0, "fusion_lon": 0.0, "fusion_lat": 0.0, "lon": -77.05017066666667, "name": "34fc74aca84ae02db447e67bb1f6e86d"}, {"bike_id": "a855bffbb86774a187285ccb7c3da4d4", "type": "electric_scooter", "is_disabled": 0, "lat": 38.9354345, "rental_uris": {"ios": "https://dc.lft.to/lastmile_qr_scan", "android": "https://dc.lft.to/lastmile_qr_scan"}, "is_reserved": 0, "fusion_lon": 0.0, "fusion_lat": 0.0, "lon": -77.05833, "name": "a855bffbb86774a187285ccb7c3da4d4"}, {"bike_id": "eac21628e169e7cedc121491a1a7b0fe", "type": "electric_bike", "is_disabled": 0, "lat": 38.892199, "rental_uris": {"ios": "https://dc.lft.to/lastmile_qr_scan", "android": "https://dc.lft.to/lastmile_qr_scan"}, "is_reserved": 0, "fusion_lon": 0.0, "fusion_lat": 0.0, "lon": -76.97081666666666, "name": "eac21628e169e7cedc121491a1a7b0fe"}, {"bike_id": "baf6fe69f2e17b5e28d416ed2b10f265", "type": "electric_scooter", "is_disabled": 0, "lat": 38.923771, "rental_uris": {"ios": "https://dc.lft.to/lastmile_qr_scan", "android": "https://dc.lft.to/lastmile_qr_scan"}, "is_reserved": 0, "fusion_lon": 0.0, "fusion_lat": 0.0, "lon": -77.05252966666667, "name": "baf6fe69f2e17b5e28d416ed2b10f265"}, {"bike_id": "1d3b6f6c206d95576011de63813c984a", "type": "electric_scooter", "is_disabled": 0, "lat": 38.91243866666667, "rental_uris": {"ios": "https://dc.lft.to/lastmile_qr_scan", "android": "https://dc.lft.to/lastmile_qr_scan"}, "is_reserved": 0, "fusion_lon": 0.0, "fusion_lat": 0.0, "lon": -77.032103, "name": "1d3b6f6c206d95576011de63813c984a"}, {"bike_id": "f00bb14176ad1bc662ae9417b9700ee9", "type": "electric_scooter", "is_disabled": 0, "lat": 38.92218366666667, "rental_uris": {"ios": "https://dc.lft.to/lastmile_qr_scan", "android": "https://dc.lft.to/lastmile_qr_scan"}, "is_reserved": 0, "fusion_lon": 0.0, "fusion_lat": 0.0, "lon": -77.03288883333333, "name": "f00bb14176ad1bc662ae9417b9700ee9"}, {"bike_id": "6dd885de27421adc15c0aedf8163058b", "type": "electric_scooter", "is_disabled": 0, "lat": 38.91778933333333, "rental_uris": {"ios": "https://dc.lft.to/lastmile_qr_scan", "android": "https://dc.lft.to/lastmile_qr_scan"}, "is_reserved": 0, "fusion_lon": 0.0, "fusion_lat": 0.0, "lon": -77.04411433333334, "name": "6dd885de27421adc15c0aedf8163058b"}, {"bike_id": "615c03433c55e0e7fdb9dadde3ce22c0", "type": "electric_scooter", "is_disabled": 0, "lat": 38.905591, "rental_uris": {"ios": "https://dc.lft.to/lastmile_qr_scan", "android": "https://dc.lft.to/lastmile_qr_scan"}, "is_reserved": 0, "fusion_lon": 0.0, "fusion_lat": 0.0, "lon": -77.038187, "name": "615c03433c55e0e7fdb9dadde3ce22c0"}, {"bike_id": "45efd6f7ea86efe181179d7a8b1d0bb8", "type": "electric_scooter", "is_disabled": 0, "lat": 38.919206833333334, "rental_uris": {"ios": "https://dc.lft.to/lastmile_qr_scan", "android": "https://dc.lft.to/lastmile_qr_scan"}, "is_reserved": 0, "fusion_lon": 0.0, "fusion_lat": 0.0, "lon": -77.03361083333333, "name": "45efd6f7ea86efe181179d7a8b1d0bb8"}, {"bike_id": "0984aea38d9a8ae5f189bdcd1ab3ec8e", "type": "electric_scooter", "is_disabled": 0, "lat": 38.92275866666667, "rental_uris": {"ios": "https://dc.lft.to/lastmile_qr_scan", "android": "https://dc.lft.to/lastmile_qr_scan"}, "is_reserved": 0, "fusion_lon": 0.0, "fusion_lat": 0.0, "lon": -77.04288366666667, "name": "0984aea38d9a8ae5f189bdcd1ab3ec8e"}, {"bike_id": "174a4bf4ff4f6e7261f0cd3b07a02f5f", "type": "electric_bike", "is_disabled": 0, "lat": 38.897417833333336, "rental_uris": {"ios": "https://dc.lft.to/lastmile_qr_scan", "android": "https://dc.lft.to/lastmile_qr_scan"}, "is_reserved": 0, "fusion_lon": 0.0, "fusion_lat": 0.0, "lon": -76.920462, "name": "174a4bf4ff4f6e7261f0cd3b07a02f5f"}, {"bike_id": "8c295775b619a6ce24a30e1013ff93ce", "type": "electric_scooter", "is_disabled": 0, "lat": 38.9182385, "rental_uris": {"ios": "https://dc.lft.to/lastmile_qr_scan", "android": "https://dc.lft.to/lastmile_qr_scan"}, "is_reserved": 0, "fusion_lon": 0.0, "fusion_lat": 0.0, "lon": -77.04944366666666, "name": "8c295775b619a6ce24a30e1013ff93ce"}, {"bike_id": "60cef10bf91598f0100ee58a29abba43", "type": "electric_scooter", "is_disabled": 0, "lat": 38.915217, "rental_uris": {"ios": "https://dc.lft.to/lastmile_qr_scan", "android": "https://dc.lft.to/lastmile_qr_scan"}, "is_reserved": 0, "fusion_lon": 0.0, "fusion_lat": 0.0, "lon": -77.012282, "name": "60cef10bf91598f0100ee58a29abba43"}, {"bike_id": "e476d0fa035df229f1224ac51f22a555", "type": "electric_scooter", "is_disabled": 0, "lat": 38.860057, "rental_uris": {"ios": "https://dc.lft.to/lastmile_qr_scan", "android": "https://dc.lft.to/lastmile_qr_scan"}, "is_reserved": 0, "fusion_lon": 0.0, "fusion_lat": 0.0, "lon": -76.98519383333333, "name": "e476d0fa035df229f1224ac51f22a555"}, {"bike_id": "2f45a77beec31c05f69b26323c2f57e1", "type": "electric_scooter", "is_disabled": 0, "lat": 38.89193383333333, "rental_uris": {"ios": "https://dc.lft.to/lastmile_qr_scan", "android": "https://dc.lft.to/lastmile_qr_scan"}, "is_reserved": 0, "fusion_lon": 0.0, "fusion_lat": 0.0, "lon": -77.029813, "name": "2f45a77beec31c05f69b26323c2f57e1"}, {"bike_id": "fa21b686d9a729f9e6902817bf2598d0", "type": "electric_scooter", "is_disabled": 0, "lat": 38.9059285, "rental_uris": {"ios": "https://dc.lft.to/lastmile_qr_scan", "android": "https://dc.lft.to/lastmile_qr_scan"}, "is_reserved": 0, "fusion_lon": 0.0, "fusion_lat": 0.0, "lon": -77.07009916666667, "name": "fa21b686d9a729f9e6902817bf2598d0"}, {"bike_id": "658f224293d802f0ec6802df450b1f75", "type": "electric_scooter", "is_disabled": 0, "lat": 38.91928683333333, "rental_uris": {"ios": "https://dc.lft.to/lastmile_qr_scan", "android": "https://dc.lft.to/lastmile_qr_scan"}, "is_reserved": 0, "fusion_lon": 0.0, "fusion_lat": 0.0, "lon": -77.0462565, "name": "658f224293d802f0ec6802df450b1f75"}, {"bike_id": "fa57daa29074125d09a0fe351397798f", "type": "electric_scooter", "is_disabled": 0, "lat": 38.96418516666667, "rental_uris": {"ios": "https://dc.lft.to/lastmile_qr_scan", "android": "https://dc.lft.to/lastmile_qr_scan"}, "is_reserved": 0, "fusion_lon": 0.0, "fusion_lat": 0.0, "lon": -77.024272, "name": "fa57daa29074125d09a0fe351397798f"}, {"bike_id": "64a217e6e760404fb624bd931c181c2f", "type": "electric_scooter", "is_disabled": 0, "lat": 38.92905116666667, "rental_uris": {"ios": "https://dc.lft.to/lastmile_qr_scan", "android": "https://dc.lft.to/lastmile_qr_scan"}, "is_reserved": 0, "fusion_lon": 0.0, "fusion_lat": 0.0, "lon": -77.0326225, "name": "64a217e6e760404fb624bd931c181c2f"}, {"bike_id": "d34552940e9743905abbd4250de0f4ea", "type": "electric_scooter", "is_disabled": 0, "lat": 38.9029185, "rental_uris": {"ios": "https://dc.lft.to/lastmile_qr_scan", "android": "https://dc.lft.to/lastmile_qr_scan"}, "is_reserved": 0, "fusion_lon": 0.0, "fusion_lat": 0.0, "lon": -77.03868766666666, "name": "d34552940e9743905abbd4250de0f4ea"}, {"bike_id": "ee12f27f065e6067b8bc55ab11b47d1c", "type": "electric_scooter", "is_disabled": 0, "lat": 38.90555416666667, "rental_uris": {"ios": "https://dc.lft.to/lastmile_qr_scan", "android": "https://dc.lft.to/lastmile_qr_scan"}, "is_reserved": 0, "fusion_lon": 0.0, "fusion_lat": 0.0, "lon": -77.030276, "name": "ee12f27f065e6067b8bc55ab11b47d1c"}, {"bike_id": "e8c46478dda7e8d20d9ce0556637babb", "type": "electric_scooter", "is_disabled": 0, "lat": 38.89258233333334, "rental_uris": {"ios": "https://dc.lft.to/lastmile_qr_scan", "android": "https://dc.lft.to/lastmile_qr_scan"}, "is_reserved": 0, "fusion_lon": 0.0, "fusion_lat": 0.0, "lon": -77.046744, "name": "e8c46478dda7e8d20d9ce0556637babb"}, {"bike_id": "bf01b05d0c15667cc96dd7c5de0a0a82", "type": "electric_scooter", "is_disabled": 0, "lat": 38.9226775, "rental_uris": {"ios": "https://dc.lft.to/lastmile_qr_scan", "android": "https://dc.lft.to/lastmile_qr_scan"}, "is_reserved": 0, "fusion_lon": 0.0, "fusion_lat": 0.0, "lon": -77.0339555, "name": "bf01b05d0c15667cc96dd7c5de0a0a82"}, {"bike_id": "634ab080b8acf3ca27c224d4fc57d6fd", "type": "electric_scooter", "is_disabled": 0, "lat": 38.90020033333333, "rental_uris": {"ios": "https://dc.lft.to/lastmile_qr_scan", "android": "https://dc.lft.to/lastmile_qr_scan"}, "is_reserved": 0, "fusion_lon": 0.0, "fusion_lat": 0.0, "lon": -77.03512216666667, "name": "634ab080b8acf3ca27c224d4fc57d6fd"}, {"bike_id": "dab6bc53362c15f6a9a42858088038df", "type": "electric_scooter", "is_disabled": 0, "lat": 38.901219, "rental_uris": {"ios": "https://dc.lft.to/lastmile_qr_scan", "android": "https://dc.lft.to/lastmile_qr_scan"}, "is_reserved": 0, "fusion_lon": 0.0, "fusion_lat": 0.0, "lon": -77.040613, "name": "dab6bc53362c15f6a9a42858088038df"}, {"bike_id": "63389c8b3bb2aae41d01a39aa3d45a6c", "type": "electric_scooter", "is_disabled": 0, "lat": 38.90723033333333, "rental_uris": {"ios": "https://dc.lft.to/lastmile_qr_scan", "android": "https://dc.lft.to/lastmile_qr_scan"}, "is_reserved": 0, "fusion_lon": 0.0, "fusion_lat": 0.0, "lon": -77.04152083333334, "name": "63389c8b3bb2aae41d01a39aa3d45a6c"}, {"bike_id": "4280cb6e25445552a0fb488f6234964d", "type": "electric_scooter", "is_disabled": 0, "lat": 38.91754733333333, "rental_uris": {"ios": "https://dc.lft.to/lastmile_qr_scan", "android": "https://dc.lft.to/lastmile_qr_scan"}, "is_reserved": 0, "fusion_lon": 0.0, "fusion_lat": 0.0, "lon": -77.03663683333333, "name": "4280cb6e25445552a0fb488f6234964d"}, {"bike_id": "f10d13ce8d696c5a9a785f1c250d81cc", "type": "electric_scooter", "is_disabled": 0, "lat": 38.89078466666667, "rental_uris": {"ios": "https://dc.lft.to/lastmile_qr_scan", "android": "https://dc.lft.to/lastmile_qr_scan"}, "is_reserved": 0, "fusion_lon": 0.0, "fusion_lat": 0.0, "lon": -77.01505566666667, "name": "f10d13ce8d696c5a9a785f1c250d81cc"}, {"bike_id": "d245f3e18a0e2e5b31cf974b27117e15", "type": "electric_scooter", "is_disabled": 0, "lat": 38.9260795, "rental_uris": {"ios": "https://dc.lft.to/lastmile_qr_scan", "android": "https://dc.lft.to/lastmile_qr_scan"}, "is_reserved": 0, "fusion_lon": 0.0, "fusion_lat": 0.0, "lon": -77.102368, "name": "d245f3e18a0e2e5b31cf974b27117e15"}, {"bike_id": "20ac26b135c257c880d0bf01ccecd721", "type": "electric_scooter", "is_disabled": 0, "lat": 38.91245716666667, "rental_uris": {"ios": "https://dc.lft.to/lastmile_qr_scan", "android": "https://dc.lft.to/lastmile_qr_scan"}, "is_reserved": 0, "fusion_lon": 0.0, "fusion_lat": 0.0, "lon": -77.0297585, "name": "20ac26b135c257c880d0bf01ccecd721"}, {"bike_id": "6d23955a3cf2369848d4259b086ec74f", "type": "electric_scooter", "is_disabled": 0, "lat": 38.91710233333333, "rental_uris": {"ios": "https://dc.lft.to/lastmile_qr_scan", "android": "https://dc.lft.to/lastmile_qr_scan"}, "is_reserved": 0, "fusion_lon": 0.0, "fusion_lat": 0.0, "lon": -77.024186, "name": "6d23955a3cf2369848d4259b086ec74f"}, {"bike_id": "22909ca741a61f6c68abbf70d4a01d23", "type": "electric_scooter", "is_disabled": 0, "lat": 38.898421166666665, "rental_uris": {"ios": "https://dc.lft.to/lastmile_qr_scan", "android": "https://dc.lft.to/lastmile_qr_scan"}, "is_reserved": 0, "fusion_lon": 0.0, "fusion_lat": 0.0, "lon": -76.94632316666667, "name": "22909ca741a61f6c68abbf70d4a01d23"}, {"bike_id": "e9219fae1fa1928870e529cafacc4069", "type": "electric_scooter", "is_disabled": 0, "lat": 38.90153266666667, "rental_uris": {"ios": "https://dc.lft.to/lastmile_qr_scan", "android": "https://dc.lft.to/lastmile_qr_scan"}, "is_reserved": 0, "fusion_lon": 0.0, "fusion_lat": 0.0, "lon": -77.05101666666667, "name": "e9219fae1fa1928870e529cafacc4069"}, {"bike_id": "69d6ede01697973007c853d2e9a812e5", "type": "electric_scooter", "is_disabled": 0, "lat": 38.877246, "rental_uris": {"ios": "https://dc.lft.to/lastmile_qr_scan", "android": "https://dc.lft.to/lastmile_qr_scan"}, "is_reserved": 0, "fusion_lon": 0.0, "fusion_lat": 0.0, "lon": -77.017595, "name": "69d6ede01697973007c853d2e9a812e5"}, {"bike_id": "cafd0b72a563bc78110f8a1cd6764d17", "type": "electric_scooter", "is_disabled": 0, "lat": 38.90374033333333, "rental_uris": {"ios": "https://dc.lft.to/lastmile_qr_scan", "android": "https://dc.lft.to/lastmile_qr_scan"}, "is_reserved": 0, "fusion_lon": 0.0, "fusion_lat": 0.0, "lon": -77.04491316666666, "name": "cafd0b72a563bc78110f8a1cd6764d17"}, {"bike_id": "e0ad3efe4dd46857891a4fc9e07208e4", "type": "electric_scooter", "is_disabled": 0, "lat": 38.91761016666667, "rental_uris": {"ios": "https://dc.lft.to/lastmile_qr_scan", "android": "https://dc.lft.to/lastmile_qr_scan"}, "is_reserved": 0, "fusion_lon": 0.0, "fusion_lat": 0.0, "lon": -77.03175916666666, "name": "e0ad3efe4dd46857891a4fc9e07208e4"}, {"bike_id": "50457b0bce37a7c65befa5039d0161b5", "type": "electric_bike", "is_disabled": 0, "lat": 38.7960895, "rental_uris": {"ios": "https://dc.lft.to/lastmile_qr_scan", "android": "https://dc.lft.to/lastmile_qr_scan"}, "is_reserved": 0, "fusion_lon": 0.0, "fusion_lat": 0.0, "lon": -76.99743683333334, "name": "50457b0bce37a7c65befa5039d0161b5"}, {"bike_id": "e43c1ac36cf67700cc8e484ba82b0bb6", "type": "electric_scooter", "is_disabled": 0, "lat": 38.912735166666664, "rental_uris": {"ios": "https://dc.lft.to/lastmile_qr_scan", "android": "https://dc.lft.to/lastmile_qr_scan"}, "is_reserved": 0, "fusion_lon": 0.0, "fusion_lat": 0.0, "lon": -77.01220583333334, "name": "e43c1ac36cf67700cc8e484ba82b0bb6"}, {"bike_id": "e860f125f9406a6960113df4191aacfe", "type": "electric_scooter", "is_disabled": 0, "lat": 38.8868065, "rental_uris": {"ios": "https://dc.lft.to/lastmile_qr_scan", "android": "https://dc.lft.to/lastmile_qr_scan"}, "is_reserved": 0, "fusion_lon": 0.0, "fusion_lat": 0.0, "lon": -76.99144966666667, "name": "e860f125f9406a6960113df4191aacfe"}, {"bike_id": "d47cbd1c121b63ca790bf71e42c995bd", "type": "electric_scooter", "is_disabled": 0, "lat": 38.904972, "rental_uris": {"ios": "https://dc.lft.to/lastmile_qr_scan", "android": "https://dc.lft.to/lastmile_qr_scan"}, "is_reserved": 0, "fusion_lon": 0.0, "fusion_lat": 0.0, "lon": -77.02591833333334, "name": "d47cbd1c121b63ca790bf71e42c995bd"}, {"bike_id": "3a4ec0bd0c61b6fc571c4e3345b574a8", "type": "electric_scooter", "is_disabled": 0, "lat": 38.883919, "rental_uris": {"ios": "https://dc.lft.to/lastmile_qr_scan", "android": "https://dc.lft.to/lastmile_qr_scan"}, "is_reserved": 0, "fusion_lon": 0.0, "fusion_lat": 0.0, "lon": -76.95447516666667, "name": "3a4ec0bd0c61b6fc571c4e3345b574a8"}, {"bike_id": "a824d488fa66cebfb9a4e71b98a0dbbe", "type": "electric_scooter", "is_disabled": 0, "lat": 38.88886083333333, "rental_uris": {"ios": "https://dc.lft.to/lastmile_qr_scan", "android": "https://dc.lft.to/lastmile_qr_scan"}, "is_reserved": 0, "fusion_lon": 0.0, "fusion_lat": 0.0, "lon": -76.9478075, "name": "a824d488fa66cebfb9a4e71b98a0dbbe"}, {"bike_id": "04462d62d0136fbf1d333f5ecd0d2ca0", "type": "electric_scooter", "is_disabled": 0, "lat": 38.903751666666665, "rental_uris": {"ios": "https://dc.lft.to/lastmile_qr_scan", "android": "https://dc.lft.to/lastmile_qr_scan"}, "is_reserved": 0, "fusion_lon": 0.0, "fusion_lat": 0.0, "lon": -77.0269685, "name": "04462d62d0136fbf1d333f5ecd0d2ca0"}, {"bike_id": "e6be7040f2b3efd7c0bb4bc2460444bf", "type": "electric_scooter", "is_disabled": 0, "lat": 38.900202166666666, "rental_uris": {"ios": "https://dc.lft.to/lastmile_qr_scan", "android": "https://dc.lft.to/lastmile_qr_scan"}, "is_reserved": 0, "fusion_lon": 0.0, "fusion_lat": 0.0, "lon": -77.01184983333333, "name": "e6be7040f2b3efd7c0bb4bc2460444bf"}, {"bike_id": "1ce657455e5edaab49efa55b50d8f523", "type": "electric_scooter", "is_disabled": 0, "lat": 38.924541166666664, "rental_uris": {"ios": "https://dc.lft.to/lastmile_qr_scan", "android": "https://dc.lft.to/lastmile_qr_scan"}, "is_reserved": 0, "fusion_lon": 0.0, "fusion_lat": 0.0, "lon": -77.033389, "name": "1ce657455e5edaab49efa55b50d8f523"}, {"bike_id": "bf17e434d50ac9417d3ba5cd82acebf1", "type": "electric_bike", "is_disabled": 0, "lat": 38.9310565, "rental_uris": {"ios": "https://dc.lft.to/lastmile_qr_scan", "android": "https://dc.lft.to/lastmile_qr_scan"}, "is_reserved": 0, "fusion_lon": 0.0, "fusion_lat": 0.0, "lon": -77.07069283333334, "name": "bf17e434d50ac9417d3ba5cd82acebf1"}, {"bike_id": "c3bad289cdb73e6a7bcb3ae351d8c344", "type": "electric_scooter", "is_disabled": 0, "lat": 38.94213033333333, "rental_uris": {"ios": "https://dc.lft.to/lastmile_qr_scan", "android": "https://dc.lft.to/lastmile_qr_scan"}, "is_reserved": 0, "fusion_lon": 0.0, "fusion_lat": 0.0, "lon": -77.02580683333333, "name": "c3bad289cdb73e6a7bcb3ae351d8c344"}, {"bike_id": "fd53c2a9bb3f6f65aeb3913d9eb236a4", "type": "electric_scooter", "is_disabled": 0, "lat": 38.898750166666666, "rental_uris": {"ios": "https://dc.lft.to/lastmile_qr_scan", "android": "https://dc.lft.to/lastmile_qr_scan"}, "is_reserved": 0, "fusion_lon": 0.0, "fusion_lat": 0.0, "lon": -76.93185133333333, "name": "fd53c2a9bb3f6f65aeb3913d9eb236a4"}, {"bike_id": "dec596178c43a86a81a49388caaefa60", "type": "electric_scooter", "is_disabled": 0, "lat": 38.9037765, "rental_uris": {"ios": "https://dc.lft.to/lastmile_qr_scan", "android": "https://dc.lft.to/lastmile_qr_scan"}, "is_reserved": 0, "fusion_lon": 0.0, "fusion_lat": 0.0, "lon": -77.045005, "name": "dec596178c43a86a81a49388caaefa60"}, {"bike_id": "f84dfc433e5844589a53d2aaadb435e3", "type": "electric_scooter", "is_disabled": 0, "lat": 38.903997833333335, "rental_uris": {"ios": "https://dc.lft.to/lastmile_qr_scan", "android": "https://dc.lft.to/lastmile_qr_scan"}, "is_reserved": 0, "fusion_lon": 0.0, "fusion_lat": 0.0, "lon": -77.06306383333333, "name": "f84dfc433e5844589a53d2aaadb435e3"}, {"bike_id": "d21ded2f5d94e55dd4b998b4bb578df0", "type": "electric_scooter", "is_disabled": 0, "lat": 38.93639916666667, "rental_uris": {"ios": "https://dc.lft.to/lastmile_qr_scan", "android": "https://dc.lft.to/lastmile_qr_scan"}, "is_reserved": 0, "fusion_lon": 0.0, "fusion_lat": 0.0, "lon": -77.05885966666666, "name": "d21ded2f5d94e55dd4b998b4bb578df0"}, {"bike_id": "ff9483bdc9dbb423f22911e9b583a23e", "type": "electric_scooter", "is_disabled": 0, "lat": 38.9248985, "rental_uris": {"ios": "https://dc.lft.to/lastmile_qr_scan", "android": "https://dc.lft.to/lastmile_qr_scan"}, "is_reserved": 0, "fusion_lon": 0.0, "fusion_lat": 0.0, "lon": -77.05759566666667, "name": "ff9483bdc9dbb423f22911e9b583a23e"}, {"bike_id": "396b72d8a43ec1ca770e11b8f3150a40", "type": "electric_scooter", "is_disabled": 0, "lat": 38.90647666666667, "rental_uris": {"ios": "https://dc.lft.to/lastmile_qr_scan", "android": "https://dc.lft.to/lastmile_qr_scan"}, "is_reserved": 0, "fusion_lon": 0.0, "fusion_lat": 0.0, "lon": -77.01436166666667, "name": "396b72d8a43ec1ca770e11b8f3150a40"}, {"bike_id": "ea26a690c00570035f8030856feb4e59", "type": "electric_scooter", "is_disabled": 0, "lat": 38.90562383333334, "rental_uris": {"ios": "https://dc.lft.to/lastmile_qr_scan", "android": "https://dc.lft.to/lastmile_qr_scan"}, "is_reserved": 0, "fusion_lon": 0.0, "fusion_lat": 0.0, "lon": -77.03821216666667, "name": "ea26a690c00570035f8030856feb4e59"}, {"bike_id": "b95a32dfac123fb9e57a074486cb926d", "type": "electric_scooter", "is_disabled": 0, "lat": 38.91065866666667, "rental_uris": {"ios": "https://dc.lft.to/lastmile_qr_scan", "android": "https://dc.lft.to/lastmile_qr_scan"}, "is_reserved": 0, "fusion_lon": 0.0, "fusion_lat": 0.0, "lon": -77.037133, "name": "b95a32dfac123fb9e57a074486cb926d"}, {"bike_id": "1eb95f502297fd18e7033baf6411c052", "type": "electric_scooter", "is_disabled": 0, "lat": 38.92717, "rental_uris": {"ios": "https://dc.lft.to/lastmile_qr_scan", "android": "https://dc.lft.to/lastmile_qr_scan"}, "is_reserved": 0, "fusion_lon": 0.0, "fusion_lat": 0.0, "lon": -77.02091616666667, "name": "1eb95f502297fd18e7033baf6411c052"}, {"bike_id": "fb612dc9f4efa0b022651625b63dc2a6", "type": "electric_scooter", "is_disabled": 0, "lat": 38.90968066666667, "rental_uris": {"ios": "https://dc.lft.to/lastmile_qr_scan", "android": "https://dc.lft.to/lastmile_qr_scan"}, "is_reserved": 0, "fusion_lon": 0.0, "fusion_lat": 0.0, "lon": -77.0231305, "name": "fb612dc9f4efa0b022651625b63dc2a6"}, {"bike_id": "5152846f22bd3d677711a54c0aa8864b", "type": "electric_scooter", "is_disabled": 0, "lat": 38.927614166666665, "rental_uris": {"ios": "https://dc.lft.to/lastmile_qr_scan", "android": "https://dc.lft.to/lastmile_qr_scan"}, "is_reserved": 0, "fusion_lon": 0.0, "fusion_lat": 0.0, "lon": -77.03275566666667, "name": "5152846f22bd3d677711a54c0aa8864b"}, {"bike_id": "4d29278417a1fb0106cac3652bc73755", "type": "electric_scooter", "is_disabled": 0, "lat": 38.91706816666667, "rental_uris": {"ios": "https://dc.lft.to/lastmile_qr_scan", "android": "https://dc.lft.to/lastmile_qr_scan"}, "is_reserved": 0, "fusion_lon": 0.0, "fusion_lat": 0.0, "lon": -77.03110533333333, "name": "4d29278417a1fb0106cac3652bc73755"}, {"bike_id": "9e0b0a71aab1ebebe553f1511cca4df3", "type": "electric_scooter", "is_disabled": 0, "lat": 38.92011466666666, "rental_uris": {"ios": "https://dc.lft.to/lastmile_qr_scan", "android": "https://dc.lft.to/lastmile_qr_scan"}, "is_reserved": 0, "fusion_lon": 0.0, "fusion_lat": 0.0, "lon": -77.02388133333334, "name": "9e0b0a71aab1ebebe553f1511cca4df3"}, {"bike_id": "877a457c9b8668c00e08a64c7109e99e", "type": "electric_scooter", "is_disabled": 0, "lat": 38.8973095, "rental_uris": {"ios": "https://dc.lft.to/lastmile_qr_scan", "android": "https://dc.lft.to/lastmile_qr_scan"}, "is_reserved": 0, "fusion_lon": 0.0, "fusion_lat": 0.0, "lon": -77.00368416666667, "name": "877a457c9b8668c00e08a64c7109e99e"}, {"bike_id": "200b07bff0fa7a4efd3bf02f908d19d7", "type": "electric_scooter", "is_disabled": 0, "lat": 38.84314333333333, "rental_uris": {"ios": "https://dc.lft.to/lastmile_qr_scan", "android": "https://dc.lft.to/lastmile_qr_scan"}, "is_reserved": 0, "fusion_lon": 0.0, "fusion_lat": 0.0, "lon": -76.9992985, "name": "200b07bff0fa7a4efd3bf02f908d19d7"}, {"bike_id": "2f751c32263dcf8c41d04a11de7e8977", "type": "electric_scooter", "is_disabled": 0, "lat": 38.897867833333336, "rental_uris": {"ios": "https://dc.lft.to/lastmile_qr_scan", "android": "https://dc.lft.to/lastmile_qr_scan"}, "is_reserved": 0, "fusion_lon": 0.0, "fusion_lat": 0.0, "lon": -77.02958133333334, "name": "2f751c32263dcf8c41d04a11de7e8977"}, {"bike_id": "68465b5b901bb7abd7dd6bb07162406c", "type": "electric_bike", "is_disabled": 0, "lat": 38.99091133333334, "rental_uris": {"ios": "https://dc.lft.to/lastmile_qr_scan", "android": "https://dc.lft.to/lastmile_qr_scan"}, "is_reserved": 0, "fusion_lon": 0.0, "fusion_lat": 0.0, "lon": -76.87496033333333, "name": "68465b5b901bb7abd7dd6bb07162406c"}, {"bike_id": "04f66e8b8cf4e099470afedb89b18a7f", "type": "electric_scooter", "is_disabled": 0, "lat": 38.895083, "rental_uris": {"ios": "https://dc.lft.to/lastmile_qr_scan", "android": "https://dc.lft.to/lastmile_qr_scan"}, "is_reserved": 0, "fusion_lon": 0.0, "fusion_lat": 0.0, "lon": -76.98845033333333, "name": "04f66e8b8cf4e099470afedb89b18a7f"}, {"bike_id": "2ffde0c5f8cf88e13c36ab503da3d353", "type": "electric_scooter", "is_disabled": 0, "lat": 38.905056, "rental_uris": {"ios": "https://dc.lft.to/lastmile_qr_scan", "android": "https://dc.lft.to/lastmile_qr_scan"}, "is_reserved": 0, "fusion_lon": 0.0, "fusion_lat": 0.0, "lon": -77.060196, "name": "2ffde0c5f8cf88e13c36ab503da3d353"}, {"bike_id": "b9785146bac697cd6a4134dd6e4bf2fa", "type": "electric_scooter", "is_disabled": 0, "lat": 38.8887965, "rental_uris": {"ios": "https://dc.lft.to/lastmile_qr_scan", "android": "https://dc.lft.to/lastmile_qr_scan"}, "is_reserved": 0, "fusion_lon": 0.0, "fusion_lat": 0.0, "lon": -76.99035516666666, "name": "b9785146bac697cd6a4134dd6e4bf2fa"}, {"bike_id": "1c4ff47807a46ef11956e48478adb035", "type": "electric_scooter", "is_disabled": 0, "lat": 38.925265833333334, "rental_uris": {"ios": "https://dc.lft.to/lastmile_qr_scan", "android": "https://dc.lft.to/lastmile_qr_scan"}, "is_reserved": 0, "fusion_lon": 0.0, "fusion_lat": 0.0, "lon": -77.07720966666666, "name": "1c4ff47807a46ef11956e48478adb035"}, {"bike_id": "0186bd3ef8858f4d7335747bedc92931", "type": "electric_scooter", "is_disabled": 0, "lat": 38.89229916666667, "rental_uris": {"ios": "https://dc.lft.to/lastmile_qr_scan", "android": "https://dc.lft.to/lastmile_qr_scan"}, "is_reserved": 0, "fusion_lon": 0.0, "fusion_lat": 0.0, "lon": -77.04998166666667, "name": "0186bd3ef8858f4d7335747bedc92931"}, {"bike_id": "ad20d7d789b14373869ba51f84703065", "type": "electric_scooter", "is_disabled": 0, "lat": 38.924088, "rental_uris": {"ios": "https://dc.lft.to/lastmile_qr_scan", "android": "https://dc.lft.to/lastmile_qr_scan"}, "is_reserved": 0, "fusion_lon": 0.0, "fusion_lat": 0.0, "lon": -77.02741416666667, "name": "ad20d7d789b14373869ba51f84703065"}, {"bike_id": "816310ee237df93e4e5f964b21142ba3", "type": "electric_scooter", "is_disabled": 0, "lat": 38.92708916666667, "rental_uris": {"ios": "https://dc.lft.to/lastmile_qr_scan", "android": "https://dc.lft.to/lastmile_qr_scan"}, "is_reserved": 0, "fusion_lon": 0.0, "fusion_lat": 0.0, "lon": -77.03726683333333, "name": "816310ee237df93e4e5f964b21142ba3"}, {"bike_id": "498dfd60d31474b37a6b8b4081008970", "type": "electric_scooter", "is_disabled": 0, "lat": 38.9161125, "rental_uris": {"ios": "https://dc.lft.to/lastmile_qr_scan", "android": "https://dc.lft.to/lastmile_qr_scan"}, "is_reserved": 0, "fusion_lon": 0.0, "fusion_lat": 0.0, "lon": -77.02957416666666, "name": "498dfd60d31474b37a6b8b4081008970"}, {"bike_id": "e5fda462b482c63e979746adb63569fb", "type": "electric_scooter", "is_disabled": 0, "lat": 38.95856166666667, "rental_uris": {"ios": "https://dc.lft.to/lastmile_qr_scan", "android": "https://dc.lft.to/lastmile_qr_scan"}, "is_reserved": 0, "fusion_lon": 0.0, "fusion_lat": 0.0, "lon": -77.02797733333334, "name": "e5fda462b482c63e979746adb63569fb"}, {"bike_id": "8638b64b0cbacb209bb56df97e930b58", "type": "electric_scooter", "is_disabled": 0, "lat": 38.9162925, "rental_uris": {"ios": "https://dc.lft.to/lastmile_qr_scan", "android": "https://dc.lft.to/lastmile_qr_scan"}, "is_reserved": 0, "fusion_lon": 0.0, "fusion_lat": 0.0, "lon": -77.03959933333333, "name": "8638b64b0cbacb209bb56df97e930b58"}, {"bike_id": "a331d5ea7fdd9e5704f6b9adb5d97bf1", "type": "electric_scooter", "is_disabled": 0, "lat": 38.91003516666667, "rental_uris": {"ios": "https://dc.lft.to/lastmile_qr_scan", "android": "https://dc.lft.to/lastmile_qr_scan"}, "is_reserved": 0, "fusion_lon": 0.0, "fusion_lat": 0.0, "lon": -77.04009116666667, "name": "a331d5ea7fdd9e5704f6b9adb5d97bf1"}, {"bike_id": "b3df2de24d5c7a7b4fef558fc4e387d3", "type": "electric_scooter", "is_disabled": 0, "lat": 38.928281166666665, "rental_uris": {"ios": "https://dc.lft.to/lastmile_qr_scan", "android": "https://dc.lft.to/lastmile_qr_scan"}, "is_reserved": 0, "fusion_lon": 0.0, "fusion_lat": 0.0, "lon": -77.03291533333334, "name": "b3df2de24d5c7a7b4fef558fc4e387d3"}, {"bike_id": "db0520a709c70ce171ac4fbc19ba2e5c", "type": "electric_scooter", "is_disabled": 0, "lat": 38.9281825, "rental_uris": {"ios": "https://dc.lft.to/lastmile_qr_scan", "android": "https://dc.lft.to/lastmile_qr_scan"}, "is_reserved": 0, "fusion_lon": 0.0, "fusion_lat": 0.0, "lon": -77.0281215, "name": "db0520a709c70ce171ac4fbc19ba2e5c"}, {"bike_id": "0aabe8876600bee3d132f8f85939cc93", "type": "electric_scooter", "is_disabled": 0, "lat": 38.899344166666666, "rental_uris": {"ios": "https://dc.lft.to/lastmile_qr_scan", "android": "https://dc.lft.to/lastmile_qr_scan"}, "is_reserved": 0, "fusion_lon": 0.0, "fusion_lat": 0.0, "lon": -77.00356433333333, "name": "0aabe8876600bee3d132f8f85939cc93"}, {"bike_id": "05e571334c4ecc6430b7e91057b739df", "type": "electric_scooter", "is_disabled": 0, "lat": 38.9053445, "rental_uris": {"ios": "https://dc.lft.to/lastmile_qr_scan", "android": "https://dc.lft.to/lastmile_qr_scan"}, "is_reserved": 0, "fusion_lon": 0.0, "fusion_lat": 0.0, "lon": -77.05682383333334, "name": "05e571334c4ecc6430b7e91057b739df"}, {"bike_id": "8d7b3590ce82ece6d6eb995d284633c7", "type": "electric_scooter", "is_disabled": 0, "lat": 38.899139166666664, "rental_uris": {"ios": "https://dc.lft.to/lastmile_qr_scan", "android": "https://dc.lft.to/lastmile_qr_scan"}, "is_reserved": 0, "fusion_lon": 0.0, "fusion_lat": 0.0, "lon": -76.93366383333333, "name": "8d7b3590ce82ece6d6eb995d284633c7"}, {"bike_id": "9cfda033be3bcde6723abfa6b6024710", "type": "electric_scooter", "is_disabled": 0, "lat": 38.92838166666667, "rental_uris": {"ios": "https://dc.lft.to/lastmile_qr_scan", "android": "https://dc.lft.to/lastmile_qr_scan"}, "is_reserved": 0, "fusion_lon": 0.0, "fusion_lat": 0.0, "lon": -77.03706633333333, "name": "9cfda033be3bcde6723abfa6b6024710"}, {"bike_id": "8c8c4c5eadde01e2c2e4a73614541c74", "type": "electric_scooter", "is_disabled": 0, "lat": 38.934368, "rental_uris": {"ios": "https://dc.lft.to/lastmile_qr_scan", "android": "https://dc.lft.to/lastmile_qr_scan"}, "is_reserved": 0, "fusion_lon": 0.0, "fusion_lat": 0.0, "lon": -77.045431, "name": "8c8c4c5eadde01e2c2e4a73614541c74"}, {"bike_id": "6cde1c0f89185f27c28c35a2f5cc84ce", "type": "electric_scooter", "is_disabled": 0, "lat": 38.931318, "rental_uris": {"ios": "https://dc.lft.to/lastmile_qr_scan", "android": "https://dc.lft.to/lastmile_qr_scan"}, "is_reserved": 0, "fusion_lon": 0.0, "fusion_lat": 0.0, "lon": -77.03854733333333, "name": "6cde1c0f89185f27c28c35a2f5cc84ce"}, {"bike_id": "68872be58323719a3360ad7e4fe3f642", "type": "electric_bike", "is_disabled": 0, "lat": 38.87882783333333, "rental_uris": {"ios": "https://dc.lft.to/lastmile_qr_scan", "android": "https://dc.lft.to/lastmile_qr_scan"}, "is_reserved": 0, "fusion_lon": 0.0, "fusion_lat": 0.0, "lon": -77.09612283333334, "name": "68872be58323719a3360ad7e4fe3f642"}, {"bike_id": "d26f407714b8e0a6ed2dcaf299c6edb3", "type": "electric_scooter", "is_disabled": 0, "lat": 38.917540333333335, "rental_uris": {"ios": "https://dc.lft.to/lastmile_qr_scan", "android": "https://dc.lft.to/lastmile_qr_scan"}, "is_reserved": 0, "fusion_lon": 0.0, "fusion_lat": 0.0, "lon": -77.02805716666667, "name": "d26f407714b8e0a6ed2dcaf299c6edb3"}, {"bike_id": "a1c8fdba4cc7675a9cc4c2ec1e89df71", "type": "electric_scooter", "is_disabled": 0, "lat": 38.892337833333336, "rental_uris": {"ios": "https://dc.lft.to/lastmile_qr_scan", "android": "https://dc.lft.to/lastmile_qr_scan"}, "is_reserved": 0, "fusion_lon": 0.0, "fusion_lat": 0.0, "lon": -77.0337325, "name": "a1c8fdba4cc7675a9cc4c2ec1e89df71"}, {"bike_id": "90a837c7706893cb2984dbf707d24207", "type": "electric_scooter", "is_disabled": 0, "lat": 38.905062666666666, "rental_uris": {"ios": "https://dc.lft.to/lastmile_qr_scan", "android": "https://dc.lft.to/lastmile_qr_scan"}, "is_reserved": 0, "fusion_lon": 0.0, "fusion_lat": 0.0, "lon": -77.01991016666666, "name": "90a837c7706893cb2984dbf707d24207"}, {"bike_id": "858ecd0373931d12481d1e78d4e48f72", "type": "electric_scooter", "is_disabled": 0, "lat": 38.932084333333336, "rental_uris": {"ios": "https://dc.lft.to/lastmile_qr_scan", "android": "https://dc.lft.to/lastmile_qr_scan"}, "is_reserved": 0, "fusion_lon": 0.0, "fusion_lat": 0.0, "lon": -77.03666833333334, "name": "858ecd0373931d12481d1e78d4e48f72"}, {"bike_id": "bb3332d305047839f88ef1ee8dfb688f", "type": "electric_scooter", "is_disabled": 0, "lat": 38.920871166666664, "rental_uris": {"ios": "https://dc.lft.to/lastmile_qr_scan", "android": "https://dc.lft.to/lastmile_qr_scan"}, "is_reserved": 0, "fusion_lon": 0.0, "fusion_lat": 0.0, "lon": -77.02533833333334, "name": "bb3332d305047839f88ef1ee8dfb688f"}, {"bike_id": "f1ac5433f7cdd6ab1ac553184758577b", "type": "electric_scooter", "is_disabled": 0, "lat": 38.91031916666667, "rental_uris": {"ios": "https://dc.lft.to/lastmile_qr_scan", "android": "https://dc.lft.to/lastmile_qr_scan"}, "is_reserved": 0, "fusion_lon": 0.0, "fusion_lat": 0.0, "lon": -77.0384555, "name": "f1ac5433f7cdd6ab1ac553184758577b"}, {"bike_id": "219f6a500b9d838a6275792cfa52372c", "type": "electric_scooter", "is_disabled": 0, "lat": 38.901254, "rental_uris": {"ios": "https://dc.lft.to/lastmile_qr_scan", "android": "https://dc.lft.to/lastmile_qr_scan"}, "is_reserved": 0, "fusion_lon": 0.0, "fusion_lat": 0.0, "lon": -77.0451835, "name": "219f6a500b9d838a6275792cfa52372c"}, {"bike_id": "38be05194f13b2ac3d7f4722cb0613a9", "type": "electric_scooter", "is_disabled": 0, "lat": 38.906874, "rental_uris": {"ios": "https://dc.lft.to/lastmile_qr_scan", "android": "https://dc.lft.to/lastmile_qr_scan"}, "is_reserved": 0, "fusion_lon": 0.0, "fusion_lat": 0.0, "lon": -77.02696883333333, "name": "38be05194f13b2ac3d7f4722cb0613a9"}, {"bike_id": "acd93672352a783f2fb7982999f9ce76", "type": "electric_scooter", "is_disabled": 0, "lat": 38.91578033333333, "rental_uris": {"ios": "https://dc.lft.to/lastmile_qr_scan", "android": "https://dc.lft.to/lastmile_qr_scan"}, "is_reserved": 0, "fusion_lon": 0.0, "fusion_lat": 0.0, "lon": -77.020021, "name": "acd93672352a783f2fb7982999f9ce76"}, {"bike_id": "bea8d04209b3d1c737319487b1fe24ea", "type": "electric_scooter", "is_disabled": 0, "lat": 38.9082165, "rental_uris": {"ios": "https://dc.lft.to/lastmile_qr_scan", "android": "https://dc.lft.to/lastmile_qr_scan"}, "is_reserved": 0, "fusion_lon": 0.0, "fusion_lat": 0.0, "lon": -77.04343533333333, "name": "bea8d04209b3d1c737319487b1fe24ea"}, {"bike_id": "ed5d4fc9d19a6cff35d3d5803f1341c8", "type": "electric_scooter", "is_disabled": 0, "lat": 38.90289166666667, "rental_uris": {"ios": "https://dc.lft.to/lastmile_qr_scan", "android": "https://dc.lft.to/lastmile_qr_scan"}, "is_reserved": 0, "fusion_lon": 0.0, "fusion_lat": 0.0, "lon": -77.0387325, "name": "ed5d4fc9d19a6cff35d3d5803f1341c8"}, {"bike_id": "336efbe1332dcb2c502ea6694a7fc5d8", "type": "electric_scooter", "is_disabled": 0, "lat": 38.9297165, "rental_uris": {"ios": "https://dc.lft.to/lastmile_qr_scan", "android": "https://dc.lft.to/lastmile_qr_scan"}, "is_reserved": 0, "fusion_lon": 0.0, "fusion_lat": 0.0, "lon": -77.03940916666667, "name": "336efbe1332dcb2c502ea6694a7fc5d8"}, {"bike_id": "46912c950f61b7666b03240f1016c2f4", "type": "electric_scooter", "is_disabled": 0, "lat": 38.931869, "rental_uris": {"ios": "https://dc.lft.to/lastmile_qr_scan", "android": "https://dc.lft.to/lastmile_qr_scan"}, "is_reserved": 0, "fusion_lon": 0.0, "fusion_lat": 0.0, "lon": -77.03656233333334, "name": "46912c950f61b7666b03240f1016c2f4"}, {"bike_id": "6c97b490bc5ff239bbc576d9869733e7", "type": "electric_scooter", "is_disabled": 0, "lat": 38.907280166666666, "rental_uris": {"ios": "https://dc.lft.to/lastmile_qr_scan", "android": "https://dc.lft.to/lastmile_qr_scan"}, "is_reserved": 0, "fusion_lon": 0.0, "fusion_lat": 0.0, "lon": -77.01488083333334, "name": "6c97b490bc5ff239bbc576d9869733e7"}, {"bike_id": "98f3806aa81242fe677ab5616f187028", "type": "electric_scooter", "is_disabled": 0, "lat": 38.906688833333334, "rental_uris": {"ios": "https://dc.lft.to/lastmile_qr_scan", "android": "https://dc.lft.to/lastmile_qr_scan"}, "is_reserved": 0, "fusion_lon": 0.0, "fusion_lat": 0.0, "lon": -77.071914, "name": "98f3806aa81242fe677ab5616f187028"}, {"bike_id": "3c10a17e8880bdbc298f469f9a984455", "type": "electric_scooter", "is_disabled": 0, "lat": 38.92325533333333, "rental_uris": {"ios": "https://dc.lft.to/lastmile_qr_scan", "android": "https://dc.lft.to/lastmile_qr_scan"}, "is_reserved": 0, "fusion_lon": 0.0, "fusion_lat": 0.0, "lon": -77.0381215, "name": "3c10a17e8880bdbc298f469f9a984455"}, {"bike_id": "30c4378b7b2c3091f48048504b6c925d", "type": "electric_scooter", "is_disabled": 0, "lat": 38.905580666666665, "rental_uris": {"ios": "https://dc.lft.to/lastmile_qr_scan", "android": "https://dc.lft.to/lastmile_qr_scan"}, "is_reserved": 0, "fusion_lon": 0.0, "fusion_lat": 0.0, "lon": -77.0059155, "name": "30c4378b7b2c3091f48048504b6c925d"}, {"bike_id": "c498655810b1085d3ccc93aa26e49c55", "type": "electric_scooter", "is_disabled": 0, "lat": 38.942121, "rental_uris": {"ios": "https://dc.lft.to/lastmile_qr_scan", "android": "https://dc.lft.to/lastmile_qr_scan"}, "is_reserved": 0, "fusion_lon": 0.0, "fusion_lat": 0.0, "lon": -77.02590566666667, "name": "c498655810b1085d3ccc93aa26e49c55"}, {"bike_id": "edbdde89fcae4353bd7387b85bf3b2f4", "type": "electric_bike", "is_disabled": 0, "lat": 39.056352833333335, "rental_uris": {"ios": "https://dc.lft.to/lastmile_qr_scan", "android": "https://dc.lft.to/lastmile_qr_scan"}, "is_reserved": 0, "fusion_lon": 0.0, "fusion_lat": 0.0, "lon": -77.12528633333334, "name": "edbdde89fcae4353bd7387b85bf3b2f4"}, {"bike_id": "b26b89687a7afb04deef81883d850fa0", "type": "electric_scooter", "is_disabled": 0, "lat": 38.94758383333333, "rental_uris": {"ios": "https://dc.lft.to/lastmile_qr_scan", "android": "https://dc.lft.to/lastmile_qr_scan"}, "is_reserved": 0, "fusion_lon": 0.0, "fusion_lat": 0.0, "lon": -77.07932916666667, "name": "b26b89687a7afb04deef81883d850fa0"}, {"bike_id": "26f7e1837378d6e3678bf5e178892580", "type": "electric_scooter", "is_disabled": 0, "lat": 38.89883966666667, "rental_uris": {"ios": "https://dc.lft.to/lastmile_qr_scan", "android": "https://dc.lft.to/lastmile_qr_scan"}, "is_reserved": 0, "fusion_lon": 0.0, "fusion_lat": 0.0, "lon": -77.02011183333333, "name": "26f7e1837378d6e3678bf5e178892580"}, {"bike_id": "4aec155d3cc00f34323b7f6acd7a611d", "type": "electric_scooter", "is_disabled": 0, "lat": 38.92988533333333, "rental_uris": {"ios": "https://dc.lft.to/lastmile_qr_scan", "android": "https://dc.lft.to/lastmile_qr_scan"}, "is_reserved": 0, "fusion_lon": 0.0, "fusion_lat": 0.0, "lon": -77.0347155, "name": "4aec155d3cc00f34323b7f6acd7a611d"}, {"bike_id": "f733ffba01971a2034c288c23cf72152", "type": "electric_scooter", "is_disabled": 0, "lat": 38.906883666666666, "rental_uris": {"ios": "https://dc.lft.to/lastmile_qr_scan", "android": "https://dc.lft.to/lastmile_qr_scan"}, "is_reserved": 0, "fusion_lon": 0.0, "fusion_lat": 0.0, "lon": -77.06342116666667, "name": "f733ffba01971a2034c288c23cf72152"}, {"bike_id": "ab8202672a7dbd22a62e7cc7b3adedbd", "type": "electric_scooter", "is_disabled": 0, "lat": 38.90051116666667, "rental_uris": {"ios": "https://dc.lft.to/lastmile_qr_scan", "android": "https://dc.lft.to/lastmile_qr_scan"}, "is_reserved": 0, "fusion_lon": 0.0, "fusion_lat": 0.0, "lon": -77.02402133333334, "name": "ab8202672a7dbd22a62e7cc7b3adedbd"}, {"bike_id": "2f5e3a5793c0e577a62cac099ca8064b", "type": "electric_scooter", "is_disabled": 0, "lat": 38.89523833333333, "rental_uris": {"ios": "https://dc.lft.to/lastmile_qr_scan", "android": "https://dc.lft.to/lastmile_qr_scan"}, "is_reserved": 0, "fusion_lon": 0.0, "fusion_lat": 0.0, "lon": -77.0021325, "name": "2f5e3a5793c0e577a62cac099ca8064b"}, {"bike_id": "0adbadc805bb379133608b9775700e66", "type": "electric_scooter", "is_disabled": 0, "lat": 38.92333383333333, "rental_uris": {"ios": "https://dc.lft.to/lastmile_qr_scan", "android": "https://dc.lft.to/lastmile_qr_scan"}, "is_reserved": 0, "fusion_lon": 0.0, "fusion_lat": 0.0, "lon": -77.0537675, "name": "0adbadc805bb379133608b9775700e66"}, {"bike_id": "a71a8b494946b5992f6e9f7fd6509565", "type": "electric_scooter", "is_disabled": 0, "lat": 38.92291066666667, "rental_uris": {"ios": "https://dc.lft.to/lastmile_qr_scan", "android": "https://dc.lft.to/lastmile_qr_scan"}, "is_reserved": 0, "fusion_lon": 0.0, "fusion_lat": 0.0, "lon": -77.02075483333333, "name": "a71a8b494946b5992f6e9f7fd6509565"}, {"bike_id": "18bfdacc53b2fbea003e655a5cea4b0e", "type": "electric_scooter", "is_disabled": 0, "lat": 38.90529433333333, "rental_uris": {"ios": "https://dc.lft.to/lastmile_qr_scan", "android": "https://dc.lft.to/lastmile_qr_scan"}, "is_reserved": 0, "fusion_lon": 0.0, "fusion_lat": 0.0, "lon": -77.022078, "name": "18bfdacc53b2fbea003e655a5cea4b0e"}, {"bike_id": "00e319d064a88e4641fb2489519c9a6d", "type": "electric_scooter", "is_disabled": 0, "lat": 38.902493666666665, "rental_uris": {"ios": "https://dc.lft.to/lastmile_qr_scan", "android": "https://dc.lft.to/lastmile_qr_scan"}, "is_reserved": 0, "fusion_lon": 0.0, "fusion_lat": 0.0, "lon": -77.0448035, "name": "00e319d064a88e4641fb2489519c9a6d"}, {"bike_id": "e82273dcb77f5cf50613c13f11ee968f", "type": "electric_scooter", "is_disabled": 0, "lat": 38.8911525, "rental_uris": {"ios": "https://dc.lft.to/lastmile_qr_scan", "android": "https://dc.lft.to/lastmile_qr_scan"}, "is_reserved": 0, "fusion_lon": 0.0, "fusion_lat": 0.0, "lon": -76.991581, "name": "e82273dcb77f5cf50613c13f11ee968f"}, {"bike_id": "0fd49e4b6721a57702d048e7733c5bd7", "type": "electric_scooter", "is_disabled": 0, "lat": 38.90119816666667, "rental_uris": {"ios": "https://dc.lft.to/lastmile_qr_scan", "android": "https://dc.lft.to/lastmile_qr_scan"}, "is_reserved": 0, "fusion_lon": 0.0, "fusion_lat": 0.0, "lon": -77.038394, "name": "0fd49e4b6721a57702d048e7733c5bd7"}, {"bike_id": "afa59c8a2ebaabc5a330e7b973a636b2", "type": "electric_scooter", "is_disabled": 0, "lat": 38.918997833333336, "rental_uris": {"ios": "https://dc.lft.to/lastmile_qr_scan", "android": "https://dc.lft.to/lastmile_qr_scan"}, "is_reserved": 0, "fusion_lon": 0.0, "fusion_lat": 0.0, "lon": -77.04612433333334, "name": "afa59c8a2ebaabc5a330e7b973a636b2"}, {"bike_id": "ae5729325676aa318883faaaabaffc3d", "type": "electric_scooter", "is_disabled": 0, "lat": 38.8621875, "rental_uris": {"ios": "https://dc.lft.to/lastmile_qr_scan", "android": "https://dc.lft.to/lastmile_qr_scan"}, "is_reserved": 0, "fusion_lon": 0.0, "fusion_lat": 0.0, "lon": -76.99488983333333, "name": "ae5729325676aa318883faaaabaffc3d"}, {"bike_id": "77e531da8b0922fed9cebfa206fff650", "type": "electric_scooter", "is_disabled": 0, "lat": 38.930194666666665, "rental_uris": {"ios": "https://dc.lft.to/lastmile_qr_scan", "android": "https://dc.lft.to/lastmile_qr_scan"}, "is_reserved": 0, "fusion_lon": 0.0, "fusion_lat": 0.0, "lon": -77.06627466666667, "name": "77e531da8b0922fed9cebfa206fff650"}, {"bike_id": "c937eae1815d65338c0af7d16ed013a7", "type": "electric_scooter", "is_disabled": 0, "lat": 38.914773833333335, "rental_uris": {"ios": "https://dc.lft.to/lastmile_qr_scan", "android": "https://dc.lft.to/lastmile_qr_scan"}, "is_reserved": 0, "fusion_lon": 0.0, "fusion_lat": 0.0, "lon": -77.00284483333333, "name": "c937eae1815d65338c0af7d16ed013a7"}, {"bike_id": "c46b02365f66bbba475a23922e1d7720", "type": "electric_scooter", "is_disabled": 0, "lat": 38.939563166666666, "rental_uris": {"ios": "https://dc.lft.to/lastmile_qr_scan", "android": "https://dc.lft.to/lastmile_qr_scan"}, "is_reserved": 0, "fusion_lon": 0.0, "fusion_lat": 0.0, "lon": -77.07247966666667, "name": "c46b02365f66bbba475a23922e1d7720"}, {"bike_id": "cbb6e76a0bfa69182477ebadb6049f1a", "type": "electric_scooter", "is_disabled": 0, "lat": 38.906505333333335, "rental_uris": {"ios": "https://dc.lft.to/lastmile_qr_scan", "android": "https://dc.lft.to/lastmile_qr_scan"}, "is_reserved": 0, "fusion_lon": 0.0, "fusion_lat": 0.0, "lon": -77.024976, "name": "cbb6e76a0bfa69182477ebadb6049f1a"}, {"bike_id": "7b648a02ebaa1832570d9c45532fe113", "type": "electric_scooter", "is_disabled": 0, "lat": 38.918286, "rental_uris": {"ios": "https://dc.lft.to/lastmile_qr_scan", "android": "https://dc.lft.to/lastmile_qr_scan"}, "is_reserved": 0, "fusion_lon": 0.0, "fusion_lat": 0.0, "lon": -77.04001283333334, "name": "7b648a02ebaa1832570d9c45532fe113"}, {"bike_id": "be2bd76a4cd0ab4dfc7c26b36488e89b", "type": "electric_scooter", "is_disabled": 0, "lat": 38.905620166666665, "rental_uris": {"ios": "https://dc.lft.to/lastmile_qr_scan", "android": "https://dc.lft.to/lastmile_qr_scan"}, "is_reserved": 0, "fusion_lon": 0.0, "fusion_lat": 0.0, "lon": -77.02217216666666, "name": "be2bd76a4cd0ab4dfc7c26b36488e89b"}, {"bike_id": "1aa810c2c21fd0cde2dc79fe11d08cb0", "type": "electric_scooter", "is_disabled": 0, "lat": 38.922771166666664, "rental_uris": {"ios": "https://dc.lft.to/lastmile_qr_scan", "android": "https://dc.lft.to/lastmile_qr_scan"}, "is_reserved": 0, "fusion_lon": 0.0, "fusion_lat": 0.0, "lon": -76.99460483333333, "name": "1aa810c2c21fd0cde2dc79fe11d08cb0"}, {"bike_id": "385508c5fc99d66abd80164fef6aca0a", "type": "electric_scooter", "is_disabled": 0, "lat": 38.8715135, "rental_uris": {"ios": "https://dc.lft.to/lastmile_qr_scan", "android": "https://dc.lft.to/lastmile_qr_scan"}, "is_reserved": 0, "fusion_lon": 0.0, "fusion_lat": 0.0, "lon": -77.007091, "name": "385508c5fc99d66abd80164fef6aca0a"}, {"bike_id": "52437eb020a4b4d5b80e57507709c6c0", "type": "electric_bike", "is_disabled": 0, "lat": 38.962062333333336, "rental_uris": {"ios": "https://dc.lft.to/lastmile_qr_scan", "android": "https://dc.lft.to/lastmile_qr_scan"}, "is_reserved": 0, "fusion_lon": 0.0, "fusion_lat": 0.0, "lon": -77.02785416666667, "name": "52437eb020a4b4d5b80e57507709c6c0"}, {"bike_id": "394b9375d404011c2fb81419ecd0fdba", "type": "electric_scooter", "is_disabled": 0, "lat": 38.917079333333334, "rental_uris": {"ios": "https://dc.lft.to/lastmile_qr_scan", "android": "https://dc.lft.to/lastmile_qr_scan"}, "is_reserved": 0, "fusion_lon": 0.0, "fusion_lat": 0.0, "lon": -77.09578416666666, "name": "394b9375d404011c2fb81419ecd0fdba"}, {"bike_id": "7a1a9aab8c2ea4f5e81b2a8885d2b801", "type": "electric_bike", "is_disabled": 0, "lat": 38.9041105, "rental_uris": {"ios": "https://dc.lft.to/lastmile_qr_scan", "android": "https://dc.lft.to/lastmile_qr_scan"}, "is_reserved": 0, "fusion_lon": 0.0, "fusion_lat": 0.0, "lon": -77.0435525, "name": "7a1a9aab8c2ea4f5e81b2a8885d2b801"}, {"bike_id": "e67c3f31a404255419bc8ad644ceac47", "type": "electric_scooter", "is_disabled": 0, "lat": 38.92323916666667, "rental_uris": {"ios": "https://dc.lft.to/lastmile_qr_scan", "android": "https://dc.lft.to/lastmile_qr_scan"}, "is_reserved": 0, "fusion_lon": 0.0, "fusion_lat": 0.0, "lon": -77.0214295, "name": "e67c3f31a404255419bc8ad644ceac47"}, {"bike_id": "6e30ab3efd63eb39d5b3db6804f9d0fc", "type": "electric_scooter", "is_disabled": 0, "lat": 38.89217, "rental_uris": {"ios": "https://dc.lft.to/lastmile_qr_scan", "android": "https://dc.lft.to/lastmile_qr_scan"}, "is_reserved": 0, "fusion_lon": 0.0, "fusion_lat": 0.0, "lon": -77.02443433333333, "name": "6e30ab3efd63eb39d5b3db6804f9d0fc"}, {"bike_id": "98cd83d587886c98582394662113d88d", "type": "electric_scooter", "is_disabled": 0, "lat": 38.957367, "rental_uris": {"ios": "https://dc.lft.to/lastmile_qr_scan", "android": "https://dc.lft.to/lastmile_qr_scan"}, "is_reserved": 0, "fusion_lon": 0.0, "fusion_lat": 0.0, "lon": -77.02402566666666, "name": "98cd83d587886c98582394662113d88d"}, {"bike_id": "ba138c76bdbac79b32fed6aacd3cc2c8", "type": "electric_scooter", "is_disabled": 0, "lat": 38.933252, "rental_uris": {"ios": "https://dc.lft.to/lastmile_qr_scan", "android": "https://dc.lft.to/lastmile_qr_scan"}, "is_reserved": 0, "fusion_lon": 0.0, "fusion_lat": 0.0, "lon": -77.03257266666667, "name": "ba138c76bdbac79b32fed6aacd3cc2c8"}, {"bike_id": "fef54ffaa2c1e95ae6f575e0b71f2665", "type": "electric_scooter", "is_disabled": 0, "lat": 38.9050805, "rental_uris": {"ios": "https://dc.lft.to/lastmile_qr_scan", "android": "https://dc.lft.to/lastmile_qr_scan"}, "is_reserved": 0, "fusion_lon": 0.0, "fusion_lat": 0.0, "lon": -77.025015, "name": "fef54ffaa2c1e95ae6f575e0b71f2665"}, {"bike_id": "ed1ffb9b3a7aeb15b74fae7f1a7d7207", "type": "electric_scooter", "is_disabled": 0, "lat": 38.923715333333334, "rental_uris": {"ios": "https://dc.lft.to/lastmile_qr_scan", "android": "https://dc.lft.to/lastmile_qr_scan"}, "is_reserved": 0, "fusion_lon": 0.0, "fusion_lat": 0.0, "lon": -77.02536866666667, "name": "ed1ffb9b3a7aeb15b74fae7f1a7d7207"}, {"bike_id": "df9a31414d63f0d6fc221a61262c4f0c", "type": "electric_scooter", "is_disabled": 0, "lat": 38.939210333333335, "rental_uris": {"ios": "https://dc.lft.to/lastmile_qr_scan", "android": "https://dc.lft.to/lastmile_qr_scan"}, "is_reserved": 0, "fusion_lon": 0.0, "fusion_lat": 0.0, "lon": -77.032678, "name": "df9a31414d63f0d6fc221a61262c4f0c"}, {"bike_id": "7afdbe33f40e20d567a3e18c3b2ae60b", "type": "electric_scooter", "is_disabled": 0, "lat": 38.921756333333335, "rental_uris": {"ios": "https://dc.lft.to/lastmile_qr_scan", "android": "https://dc.lft.to/lastmile_qr_scan"}, "is_reserved": 0, "fusion_lon": 0.0, "fusion_lat": 0.0, "lon": -77.01916466666667, "name": "7afdbe33f40e20d567a3e18c3b2ae60b"}, {"bike_id": "57a1897f0ba262955a7865ee3bd53c80", "type": "electric_scooter", "is_disabled": 0, "lat": 38.9515355, "rental_uris": {"ios": "https://dc.lft.to/lastmile_qr_scan", "android": "https://dc.lft.to/lastmile_qr_scan"}, "is_reserved": 0, "fusion_lon": 0.0, "fusion_lat": 0.0, "lon": -77.01869383333333, "name": "57a1897f0ba262955a7865ee3bd53c80"},