{"data": {"bikes": [{"fusion_lat": 0.0, "name": "5b112df6b11174fe9524be87ccdf557e", "is_disabled": 0, "rental_uris": {"android": "https://dc.lft.to/lastmile_qr_scan", "ios": "https://dc.lft.to/lastmile_qr_scan"}, "fusion_lon": 0.0, "lat": 38.89741866666667, "bike_id": "5b112df6b11174fe9524be87ccdf557e", "type": "electric_scooter", "is_reserved": 0, "lon": -77.00329583333334}, {"fusion_lat": 0.0, "name": "b80e3904bd5db0c878cf79565ebaba07", "is_disabled": 0, "rental_uris": {"android": "https://dc.lft.to/lastmile_qr_scan", "ios": "https://dc.lft.to/lastmile_qr_scan"}, "fusion_lon": 0.0, "lat": 38.88501566666667, "bike_id": "b80e3904bd5db0c878cf79565ebaba07", "type": "electric_scooter", "is_reserved": 0, "lon": -77.01502683333334}, {"fusion_lat": 0.0, "name": "e4c3c4cadc5dbff4784030adc142753f", "is_disabled": 0, "rental_uris": {"android": "https://dc.lft.to/lastmile_qr_scan", "ios": "https://dc.lft.to/lastmile_qr_scan"}, "fusion_lon": 0.0, "lat": 38.89331966666666, "bike_id": "e4c3c4cadc5dbff4784030adc142753f", "type": "electric_scooter", "is_reserved": 0, "lon": -77.02242933333333}, {"fusion_lat": 0.0, "name": "74efb05ecdab385bb234cbf04a607731", "is_disabled": 0, "rental_uris": {"android": "https://dc.lft.to/lastmile_qr_scan", "ios": "https://dc.lft.to/lastmile_qr_scan"}, "fusion_lon": 0.0, "lat": 38.88724933333334, "bike_id": "74efb05ecdab385bb234cbf04a607731", "type": "electric_scooter", "is_reserved": 0, "lon": -76.983559}, {"fusion_lat": 0.0, "name": "2e427df5e8c5b3033e0355d715b2b71f", "is_disabled": 0, "rental_uris": {"android": "https://dc.lft.to/lastmile_qr_scan", "ios": "https://dc.lft.to/lastmile_qr_scan"}, "fusion_lon": 0.0, "lat": 38.93654933333333, "bike_id": "2e427df5e8c5b3033e0355d715b2b71f", "type": "electric_scooter", "is_reserved": 0, "lon": -77.030456}, {"fusion_lat": 0.0, "name": "69d434cdfaeed64ee2b72a8bf7b4b9a5", "is_disabled": 0, "rental_uris": {"android": "https://dc.lft.to/lastmile_qr_scan", "ios": "https://dc.lft.to/lastmile_qr_scan"}, "fusion_lon": 0.0, "lat": 38.942273166666666, "bike_id": "69d434cdfaeed64ee2b72a8bf7b4b9a5", "type": "electric_scooter", "is_reserved": 0, "lon": -77.01384033333333}, {"fusion_lat": 0.0, "name": "8f60fb222734594b3889395c4f77132d", "is_disabled": 0, "rental_uris": {"android": "https://dc.lft.to/lastmile_qr_scan", "ios": "https://dc.lft.to/lastmile_qr_scan"}, "fusion_lon": 0.0, "lat": 38.90104016666667, "bike_id": "8f60fb222734594b3889395c4f77132d", "type": "electric_scooter", "is_reserved": 0, "lon": -77.05168916666666}, {"fusion_lat": 0.0, "name": "e4829ccd4725ded26cef0e43ab8d41db", "is_disabled": 0, "rental_uris": {"android": "https://dc.lft.to/lastmile_qr_scan", "ios": "https://dc.lft.to/lastmile_qr_scan"}, "fusion_lon": 0.0, "lat": 38.90222833333333, "bike_id": "e4829ccd4725ded26cef0e43ab8d41db", "type": "electric_scooter", "is_reserved": 0, "lon": -77.05942683333333}, {"fusion_lat": 0.0, "name": "ce6abe4168a4a6749a9b875a0f0bcfe0", "is_disabled": 0, "rental_uris": {"android": "https://dc.lft.to/lastmile_qr_scan", "ios": "https://dc.lft.to/lastmile_qr_scan"}, "fusion_lon": 0.0, "lat": 38.91325766666667, "bike_id": "ce6abe4168a4a6749a9b875a0f0bcfe0", "type": "electric_scooter", "is_reserved": 0, "lon": -77.03180783333333}, {"fusion_lat": 0.0, "name": "52e579aa223c222b2ad339b7db90e3b3", "is_disabled": 0, "rental_uris": {"android": "https://dc.lft.to/lastmile_qr_scan", "ios": "https://dc.lft.to/lastmile_qr_scan"}, "fusion_lon": 0.0, "lat": 38.9207995, "bike_id": "52e579aa223c222b2ad339b7db90e3b3", "type": "electric_bike", "is_reserved": 0, "lon": -76.989465}, {"fusion_lat": 0.0, "name": "aba256cdc7f72aacac7cf63549049f6f", "is_disabled": 0, "rental_uris": {"android": "https://dc.lft.to/lastmile_qr_scan", "ios": "https://dc.lft.to/lastmile_qr_scan"}, "fusion_lon": 0.0, "lat": 38.90622583333333, "bike_id": "aba256cdc7f72aacac7cf63549049f6f", "type": "electric_scooter", "is_reserved": 0, "lon": -77.0413165}, {"fusion_lat": 0.0, "name": "60836cc2c912427541dbadcd6f56fc60", "is_disabled": 0, "rental_uris": {"android": "https://dc.lft.to/lastmile_qr_scan", "ios": "https://dc.lft.to/lastmile_qr_scan"}, "fusion_lon": 0.0, "lat": 38.85777783333333, "bike_id": "60836cc2c912427541dbadcd6f56fc60", "type": "electric_scooter", "is_reserved": 0, "lon": -76.97295783333334}, {"fusion_lat": 0.0, "name": "9c22fe36ec0cbcadc837e03ffbd9c162", "is_disabled": 0, "rental_uris": {"android": "https://dc.lft.to/lastmile_qr_scan", "ios": "https://dc.lft.to/lastmile_qr_scan"}, "fusion_lon": 0.0, "lat": 38.906516833333335, "bike_id": "9c22fe36ec0cbcadc837e03ffbd9c162", "type": "electric_scooter", "is_reserved": 0, "lon": -77.02945533333333}, {"fusion_lat": 0.0, "name": "72f8d3a8f56debbb1b7b9381af6c9916", "is_disabled": 0, "rental_uris": {"android": "https://dc.lft.to/lastmile_qr_scan", "ios": "https://dc.lft.to/lastmile_qr_scan"}, "fusion_lon": 0.0, "lat": 38.91941116666667, "bike_id": "72f8d3a8f56debbb1b7b9381af6c9916", "type": "electric_scooter", "is_reserved": 0, "lon": -77.0249785}, {"fusion_lat": 0.0, "name": "6b8665cf76d1cb50fe39c7632aa3d817", "is_disabled": 0, "rental_uris": {"android": "https://dc.lft.to/lastmile_qr_scan", "ios": "https://dc.lft.to/lastmile_qr_scan"}, "fusion_lon": 0.0, "lat": 38.903841166666666, "bike_id": "6b8665cf76d1cb50fe39c7632aa3d817", "type": "electric_scooter", "is_reserved": 0, "lon": -77.0613445}, {"fusion_lat": 0.0, "name": "fa72e3bead5f52661dd2d0cba39a35f1", "is_disabled": 0, "rental_uris": {"android": "https://dc.lft.to/lastmile_qr_scan", "ios": "https://dc.lft.to/lastmile_qr_scan"}, "fusion_lon": 0.0, "lat": 38.900719333333335, "bike_id": "fa72e3bead5f52661dd2d0cba39a35f1", "type": "electric_scooter", "is_reserved": 0, "lon": -77.04807133333334}, {"fusion_lat": 0.0, "name": "c68563e83100202b1235cff4bff31eaa", "is_disabled": 0, "rental_uris": {"android": "https://dc.lft.to/lastmile_qr_scan", "ios": "https://dc.lft.to/lastmile_qr_scan"}, "fusion_lon": 0.0, "lat": 38.845074, "bike_id": "c68563e83100202b1235cff4bff31eaa", "type": "electric_bike", "is_reserved": 0, "lon": -76.9935205}, {"fusion_lat": 0.0, "name": "38a9be478e9b2a6a5d3e7a4249c4f051", "is_disabled": 0, "rental_uris": {"android": "https://dc.lft.to/lastmile_qr_scan", "ios": "https://dc.lft.to/lastmile_qr_scan"}, "fusion_lon": 0.0, "lat": 38.9354775, "bike_id": "38a9be478e9b2a6a5d3e7a4249c4f051", "type": "electric_scooter", "is_reserved": 0, "lon": -77.0326045}, {"fusion_lat": 0.0, "name": "961018acd89000d018692c1518d8b3aa", "is_disabled": 0, "rental_uris": {"android": "https://dc.lft.to/lastmile_qr_scan", "ios": "https://dc.lft.to/lastmile_qr_scan"}, "fusion_lon": 0.0, "lat": 38.925310833333334, "bike_id": "961018acd89000d018692c1518d8b3aa", "type": "electric_scooter", "is_reserved": 0, "lon": -77.05565016666667}, {"fusion_lat": 0.0, "name": "46b7ab65bb3c15e942c14c105a54e548", "is_disabled": 0, "rental_uris": {"android": "https://dc.lft.to/lastmile_qr_scan", "ios": "https://dc.lft.to/lastmile_qr_scan"}, "fusion_lon": 0.0, "lat": 38.900626833333334, "bike_id": "46b7ab65bb3c15e942c14c105a54e548", "type": "electric_scooter", "is_reserved": 0, "lon": -76.9338755}, {"fusion_lat": 0.0, "name": "ad84746b4cbf58cc78a291407e67c82b", "is_disabled": 0, "rental_uris": {"android": "https://dc.lft.to/lastmile_qr_scan", "ios": "https://dc.lft.to/lastmile_qr_scan"}, "fusion_lon": 0.0, "lat": 38.91913366666667, "bike_id": "ad84746b4cbf58cc78a291407e67c82b", "type": "electric_scooter", "is_reserved": 0, "lon": -77.03582983333334}, {"fusion_lat": 0.0, "name": "c977de7aabac30ebccfde1463b0c4326", "is_disabled": 0, "rental_uris": {"android": "https://dc.lft.to/lastmile_qr_scan", "ios": "https://dc.lft.to/lastmile_qr_scan"}, "fusion_lon": 0.0, "lat": 38.95628083333333, "bike_id": "c977de7aabac30ebccfde1463b0c4326", "type": "electric_scooter", "is_reserved": 0, "lon": -77.02835983333334}, {"fusion_lat": 0.0, "name": "04b07b77bd1336ff9a55c7488f42b78a", "is_disabled": 0, "rental_uris": {"android": "https://dc.lft.to/lastmile_qr_scan", "ios": "https://dc.lft.to/lastmile_qr_scan"}, "fusion_lon": 0.0, "lat": 38.9035525, "bike_id": "04b07b77bd1336ff9a55c7488f42b78a", "type": "electric_scooter", "is_reserved": 0, "lon": -77.03156933333334}, {"fusion_lat": 0.0, "name": "b9181ca8ab8f7e99dd6dc7efe93aa44d", "is_disabled": 0, "rental_uris": {"android": "https://dc.lft.to/lastmile_qr_scan", "ios": "https://dc.lft.to/lastmile_qr_scan"}, "fusion_lon": 0.0, "lat": 38.927951666666665, "bike_id": "b9181ca8ab8f7e99dd6dc7efe93aa44d", "type": "electric_scooter", "is_reserved": 0, "lon": -77.023959}, {"fusion_lat": 0.0, "name": "d4826e7b1a6199489264e96f5d36bb19", "is_disabled": 0, "rental_uris": {"android": "https://dc.lft.to/lastmile_qr_scan", "ios": "https://dc.lft.to/lastmile_qr_scan"}, "fusion_lon": 0.0, "lat": 38.90250616666667, "bike_id": "d4826e7b1a6199489264e96f5d36bb19", "type": "electric_scooter", "is_reserved": 0, "lon": -77.03881316666667}, {"fusion_lat": 0.0, "name": "4b1cb9ee9121d5f8367264cc61949160", "is_disabled": 0, "rental_uris": {"android": "https://dc.lft.to/lastmile_qr_scan", "ios": "https://dc.lft.to/lastmile_qr_scan"}, "fusion_lon": 0.0, "lat": 38.90724866666667, "bike_id": "4b1cb9ee9121d5f8367264cc61949160", "type": "electric_scooter", "is_reserved": 0, "lon": -77.029848}, {"fusion_lat": 0.0, "name": "93d38fc0d1f6ed76bc879123d51504d6", "is_disabled": 0, "rental_uris": {"android": "https://dc.lft.to/lastmile_qr_scan", "ios": "https://dc.lft.to/lastmile_qr_scan"}, "fusion_lon": 0.0, "lat": 38.88714783333333, "bike_id": "93d38fc0d1f6ed76bc879123d51504d6", "type": "electric_scooter", "is_reserved": 0, "lon": -77.01776033333333}, {"fusion_lat": 0.0, "name": "a7a12ccdc4ef2112ba4ad8fd6768d622", "is_disabled": 0, "rental_uris": {"android": "https://dc.lft.to/lastmile_qr_scan", "ios": "https://dc.lft.to/lastmile_qr_scan"}, "fusion_lon": 0.0, "lat": 38.900277, "bike_id": "a7a12ccdc4ef2112ba4ad8fd6768d622", "type": "electric_scooter", "is_reserved": 0, "lon": -76.98847416666666}, {"fusion_lat": 0.0, "name": "a96cd133948eec20e0c4d7ecc5fa4922", "is_disabled": 0, "rental_uris": {"android": "https://dc.lft.to/lastmile_qr_scan", "ios": "https://dc.lft.to/lastmile_qr_scan"}, "fusion_lon": 0.0, "lat": 38.8676315, "bike_id": "a96cd133948eec20e0c4d7ecc5fa4922", "type": "electric_scooter", "is_reserved": 0, "lon": -76.982707}, {"fusion_lat": 0.0, "name": "284dbc0f7e31a04b41ba78912e000a64", "is_disabled": 0, "rental_uris": {"android": "https://dc.lft.to/lastmile_qr_scan", "ios": "https://dc.lft.to/lastmile_qr_scan"}, "fusion_lon": 0.0, "lat": 38.8745835, "bike_id": "284dbc0f7e31a04b41ba78912e000a64", "type": "electric_scooter", "is_reserved": 0, "lon": -77.00064533333334}, {"fusion_lat": 0.0, "name": "b76c26368ae9a4a90314ca9d6a776484", "is_disabled": 0, "rental_uris": {"android": "https://dc.lft.to/lastmile_qr_scan", "ios": "https://dc.lft.to/lastmile_qr_scan"}, "fusion_lon": 0.0, "lat": 38.89671633333333, "bike_id": "b76c26368ae9a4a90314ca9d6a776484", "type": "electric_scooter", "is_reserved": 0, "lon": -77.03350133333333}, {"fusion_lat": 0.0, "name": "c4edd6eaa6e578ae03d282ba581680fd", "is_disabled": 0, "rental_uris": {"android": "https://dc.lft.to/lastmile_qr_scan", "ios": "https://dc.lft.to/lastmile_qr_scan"}, "fusion_lon": 0.0, "lat": 38.8890775, "bike_id": "c4edd6eaa6e578ae03d282ba581680fd", "type": "electric_scooter", "is_reserved": 0, "lon": -76.97734666666666}, {"fusion_lat": 0.0, "name": "bde39f26a5912c8ca03ccb097d7ee331", "is_disabled": 0, "rental_uris": {"android": "https://dc.lft.to/lastmile_qr_scan", "ios": "https://dc.lft.to/lastmile_qr_scan"}, "fusion_lon": 0.0, "lat": 38.8973765, "bike_id": "bde39f26a5912c8ca03ccb097d7ee331", "type": "electric_scooter", "is_reserved": 0, "lon": -77.0436505}, {"fusion_lat": 0.0, "name": "8257a5b6d22d169a61b710303ab53c71", "is_disabled": 0, "rental_uris": {"android": "https://dc.lft.to/lastmile_qr_scan", "ios": "https://dc.lft.to/lastmile_qr_scan"}, "fusion_lon": 0.0, "lat": 38.84280733333333, "bike_id": "8257a5b6d22d169a61b710303ab53c71", "type": "electric_bike", "is_reserved": 0, "lon": -77.04519516666667}, {"fusion_lat": 0.0, "name": "f00e028898292524ead2f88705a761c7", "is_disabled": 0, "rental_uris": {"android": "https://dc.lft.to/lastmile_qr_scan", "ios": "https://dc.lft.to/lastmile_qr_scan"}, "fusion_lon": 0.0, "lat": 38.8866085, "bike_id": "f00e028898292524ead2f88705a761c7", "type": "electric_bike", "is_reserved": 0, "lon": -77.16234116666666}, {"fusion_lat": 0.0, "name": "95e49338bb642a9b2b3148aaf5d37b28", "is_disabled": 0, "rental_uris": {"android": "https://dc.lft.to/lastmile_qr_scan", "ios": "https://dc.lft.to/lastmile_qr_scan"}, "fusion_lon": 0.0, "lat": 38.897354666666665, "bike_id": "95e49338bb642a9b2b3148aaf5d37b28", "type": "electric_scooter", "is_reserved": 0, "lon": -77.00975966666667}, {"fusion_lat": 0.0, "name": "8bda7cda323acee3a2e7627140305226", "is_disabled": 0, "rental_uris": {"android": "https://dc.lft.to/lastmile_qr_scan", "ios": "https://dc.lft.to/lastmile_qr_scan"}, "fusion_lon": 0.0, "lat": 38.928353, "bike_id": "8bda7cda323acee3a2e7627140305226", "type": "electric_scooter", "is_reserved": 0, "lon": -77.03276966666667}, {"fusion_lat": 0.0, "name": "8876840e257d0b9f4d40550b1b0ebf6a", "is_disabled": 0, "rental_uris": {"android": "https://dc.lft.to/lastmile_qr_scan", "ios": "https://dc.lft.to/lastmile_qr_scan"}, "fusion_lon": 0.0, "lat": 38.92250583333333, "bike_id": "8876840e257d0b9f4d40550b1b0ebf6a", "type": "electric_scooter", "is_reserved": 0, "lon": -77.04209633333333}, {"fusion_lat": 0.0, "name": "45c2173d7b6b6b33adc4b71bffb75a8c", "is_disabled": 0, "rental_uris": {"android": "https://dc.lft.to/lastmile_qr_scan", "ios": "https://dc.lft.to/lastmile_qr_scan"}, "fusion_lon": 0.0, "lat": 38.9039715, "bike_id": "45c2173d7b6b6b33adc4b71bffb75a8c", "type": "electric_scooter", "is_reserved": 0, "lon": -77.03832733333333}, {"fusion_lat": 0.0, "name": "843dcbbd09d40962c48a4b28375895b3", "is_disabled": 0, "rental_uris": {"android": "https://dc.lft.to/lastmile_qr_scan", "ios": "https://dc.lft.to/lastmile_qr_scan"}, "fusion_lon": 0.0, "lat": 38.90976466666667, "bike_id": "843dcbbd09d40962c48a4b28375895b3", "type": "electric_scooter", "is_reserved": 0, "lon": -77.04483466666667}, {"fusion_lat": 0.0, "name": "85f7e0304d6fd7c6a576a42bab2b93a6", "is_disabled": 0, "rental_uris": {"android": "https://dc.lft.to/lastmile_qr_scan", "ios": "https://dc.lft.to/lastmile_qr_scan"}, "fusion_lon": 0.0, "lat": 38.90002616666666, "bike_id": "85f7e0304d6fd7c6a576a42bab2b93a6", "type": "electric_scooter", "is_reserved": 0, "lon": -76.93156766666667}, {"fusion_lat": 0.0, "name": "374a3a6c1028e9da016675ce4bce77ba", "is_disabled": 0, "rental_uris": {"android": "https://dc.lft.to/lastmile_qr_scan", "ios": "https://dc.lft.to/lastmile_qr_scan"}, "fusion_lon": 0.0, "lat": 38.8531135, "bike_id": "374a3a6c1028e9da016675ce4bce77ba", "type": "electric_bike", "is_reserved": 0, "lon": -77.0460495}, {"fusion_lat": 0.0, "name": "79e4ed1851a73d33f90cb8dfa9bcd182", "is_disabled": 0, "rental_uris": {"android": "https://dc.lft.to/lastmile_qr_scan", "ios": "https://dc.lft.to/lastmile_qr_scan"}, "fusion_lon": 0.0, "lat": 38.92945483333333, "bike_id": "79e4ed1851a73d33f90cb8dfa9bcd182", "type": "electric_scooter", "is_reserved": 0, "lon": -77.03477566666666}, {"fusion_lat": 0.0, "name": "82ad7a5e73dc207f5724a3006de5e5a3", "is_disabled": 0, "rental_uris": {"android": "https://dc.lft.to/lastmile_qr_scan", "ios": "https://dc.lft.to/lastmile_qr_scan"}, "fusion_lon": 0.0, "lat": 38.9241505, "bike_id": "82ad7a5e73dc207f5724a3006de5e5a3", "type": "electric_scooter", "is_reserved": 0, "lon": -77.05061383333333}, {"fusion_lat": 0.0, "name": "ec0eb0b958152be837a8762aae9e994e", "is_disabled": 0, "rental_uris": {"android": "https://dc.lft.to/lastmile_qr_scan", "ios": "https://dc.lft.to/lastmile_qr_scan"}, "fusion_lon": 0.0, "lat": 38.873999, "bike_id": "ec0eb0b958152be837a8762aae9e994e", "type": "electric_scooter", "is_reserved": 0, "lon": -76.9999795}, {"fusion_lat": 0.0, "name": "699be9f95f0fe512f2cdaa180bfb8c84", "is_disabled": 0, "rental_uris": {"android": "https://dc.lft.to/lastmile_qr_scan", "ios": "https://dc.lft.to/lastmile_qr_scan"}, "fusion_lon": 0.0, "lat": 38.916959166666665, "bike_id": "699be9f95f0fe512f2cdaa180bfb8c84", "type": "electric_scooter", "is_reserved": 0, "lon": -77.02892933333334}, {"fusion_lat": 0.0, "name": "4c7e867b28e72648d18970e59252d26b", "is_disabled": 0, "rental_uris": {"android": "https://dc.lft.to/lastmile_qr_scan", "ios": "https://dc.lft.to/lastmile_qr_scan"}, "fusion_lon": 0.0, "lat": 38.92747583333333, "bike_id": "4c7e867b28e72648d18970e59252d26b", "type": "electric_scooter", "is_reserved": 0, "lon": -77.0243285}, {"fusion_lat": 0.0, "name": "06facd83d2b20a3372d171da1f96398f", "is_disabled": 0, "rental_uris": {"android": "https://dc.lft.to/lastmile_qr_scan", "ios": "https://dc.lft.to/lastmile_qr_scan"}, "fusion_lon": 0.0, "lat": 39.052554666666666, "bike_id": "06facd83d2b20a3372d171da1f96398f", "type": "electric_bike", "is_reserved": 0, "lon": -77.08067433333333}, {"fusion_lat": 0.0, "name": "3bd341b0537702457aac3849f773bfe2", "is_disabled": 0, "rental_uris": {"android": "https://dc.lft.to/lastmile_qr_scan", "ios": "https://dc.lft.to/lastmile_qr_scan"}, "fusion_lon": 0.0, "lat": 38.899224333333336, "bike_id": "3bd341b0537702457aac3849f773bfe2", "type": "electric_scooter", "is_reserved": 0, "lon": -77.003574}, {"fusion_lat": 0.0, "name": "10910ef59aa1fd21e96f3457f79a9d37", "is_disabled": 0, "rental_uris": {"android": "https://dc.lft.to/lastmile_qr_scan", "ios": "https://dc.lft.to/lastmile_qr_scan"}, "fusion_lon": 0.0, "lat": 38.883142166666666, "bike_id": "10910ef59aa1fd21e96f3457f79a9d37", "type": "electric_scooter", "is_reserved": 0, "lon": -77.0176015}, {"fusion_lat": 0.0, "name": "c27c82db1b59a6fe33793aea76f76569", "is_disabled": 0, "rental_uris": {"android": "https://dc.lft.to/lastmile_qr_scan", "ios": "https://dc.lft.to/lastmile_qr_scan"}, "fusion_lon": 0.0, "lat": 38.8962185, "bike_id": "c27c82db1b59a6fe33793aea76f76569", "type": "electric_scooter", "is_reserved": 0, "lon": -77.00917133333333}, {"fusion_lat": 0.0, "name": "b39d7a2939d1c89b257cf37167b02981", "is_disabled": 0, "rental_uris": {"android": "https://dc.lft.to/lastmile_qr_scan", "ios": "https://dc.lft.to/lastmile_qr_scan"}, "fusion_lon": 0.0, "lat": 38.935116, "bike_id": "b39d7a2939d1c89b257cf37167b02981", "type": "electric_scooter", "is_reserved": 0, "lon": -77.0726695}, {"fusion_lat": 0.0, "name": "e3ebd4e48708a2f266731cb91b06f776", "is_disabled": 0, "rental_uris": {"android": "https://dc.lft.to/lastmile_qr_scan", "ios": "https://dc.lft.to/lastmile_qr_scan"}, "fusion_lon": 0.0, "lat": 38.9073375, "bike_id": "e3ebd4e48708a2f266731cb91b06f776", "type": "electric_scooter", "is_reserved": 0, "lon": -77.01090066666667}, {"fusion_lat": 0.0, "name": "7b63562770f2d557728ed47e9b63cbf6", "is_disabled": 0, "rental_uris": {"android": "https://dc.lft.to/lastmile_qr_scan", "ios": "https://dc.lft.to/lastmile_qr_scan"}, "fusion_lon": 0.0, "lat": 38.898761, "bike_id": "7b63562770f2d557728ed47e9b63cbf6", "type": "electric_scooter", "is_reserved": 0, "lon": -76.93185066666666}, {"fusion_lat": 0.0, "name": "f6668a3121351df5b7bd4fb9357e883d", "is_disabled": 0, "rental_uris": {"android": "https://dc.lft.to/lastmile_qr_scan", "ios": "https://dc.lft.to/lastmile_qr_scan"}, "fusion_lon": 0.0, "lat": 38.862425, "bike_id": "f6668a3121351df5b7bd4fb9357e883d", "type": "electric_scooter", "is_reserved": 0, "lon": -76.99497083333333}, {"fusion_lat": 0.0, "name": "7680dd1cdcb8f844c0499a6fed4f09fd", "is_disabled": 0, "rental_uris": {"android": "https://dc.lft.to/lastmile_qr_scan", "ios": "https://dc.lft.to/lastmile_qr_scan"}, "fusion_lon": 0.0, "lat": 38.90010016666667, "bike_id": "7680dd1cdcb8f844c0499a6fed4f09fd", "type": "electric_scooter", "is_reserved": 0, "lon": -77.03325283333334}, {"fusion_lat": 0.0, "name": "ab5a5913ed453d6c03b4cccf6f2483f1", "is_disabled": 0, "rental_uris": {"android": "https://dc.lft.to/lastmile_qr_scan", "ios": "https://dc.lft.to/lastmile_qr_scan"}, "fusion_lon": 0.0, "lat": 38.88340266666667, "bike_id": "ab5a5913ed453d6c03b4cccf6f2483f1", "type": "electric_scooter", "is_reserved": 0, "lon": -77.01735633333334}, {"fusion_lat": 0.0, "name": "2bf9959b8ab4f2d0a6ab63874c5bf8c6", "is_disabled": 0, "rental_uris": {"android": "https://dc.lft.to/lastmile_qr_scan", "ios": "https://dc.lft.to/lastmile_qr_scan"}, "fusion_lon": 0.0, "lat": 38.908159833333336, "bike_id": "2bf9959b8ab4f2d0a6ab63874c5bf8c6", "type": "electric_scooter", "is_reserved": 0, "lon": -77.03426416666667}, {"fusion_lat": 0.0, "name": "fee69e0b5ce01e958868b2b6beb77c23", "is_disabled": 0, "rental_uris": {"android": "https://dc.lft.to/lastmile_qr_scan", "ios": "https://dc.lft.to/lastmile_qr_scan"}, "fusion_lon": 0.0, "lat": 38.897975333333335, "bike_id": "fee69e0b5ce01e958868b2b6beb77c23", "type": "electric_scooter", "is_reserved": 0, "lon": -77.01188616666667}, {"fusion_lat": 0.0, "name": "29df94ebddf98ef5e79fa53769dd41a5", "is_disabled": 0, "rental_uris": {"android": "https://dc.lft.to/lastmile_qr_scan", "ios": "https://dc.lft.to/lastmile_qr_scan"}, "fusion_lon": 0.0, "lat": 38.928954166666664, "bike_id": "29df94ebddf98ef5e79fa53769dd41a5", "type": "electric_bike", "is_reserved": 0, "lon": -77.23179983333333}, {"fusion_lat": 0.0, "name": "9012705c052a5d36de0139e86b92d35a", "is_disabled": 0, "rental_uris": {"android": "https://dc.lft.to/lastmile_qr_scan", "ios": "https://dc.lft.to/lastmile_qr_scan"}, "fusion_lon": 0.0, "lat": 38.908436, "bike_id": "9012705c052a5d36de0139e86b92d35a", "type": "electric_scooter", "is_reserved": 0, "lon": -77.02694533333333}, {"fusion_lat": 0.0, "name": "d4351eb71fd625f6f1eb6497f21dc1b7", "is_disabled": 0, "rental_uris": {"android": "https://dc.lft.to/lastmile_qr_scan", "ios": "https://dc.lft.to/lastmile_qr_scan"}, "fusion_lon": 0.0, "lat": 38.95281283333333, "bike_id": "d4351eb71fd625f6f1eb6497f21dc1b7", "type": "electric_scooter", "is_reserved": 0, "lon": -77.06872133333333}, {"fusion_lat": 0.0, "name": "e5326d5731c4b9a7c773dd4f628322cb", "is_disabled": 0, "rental_uris": {"android": "https://dc.lft.to/lastmile_qr_scan", "ios": "https://dc.lft.to/lastmile_qr_scan"}, "fusion_lon": 0.0, "lat": 38.92331516666667, "bike_id": "e5326d5731c4b9a7c773dd4f628322cb", "type": "electric_scooter", "is_reserved": 0, "lon": -77.04303166666666}, {"fusion_lat": 0.0, "name": "eeb8120194983bf3677abd92353645f7", "is_disabled": 0, "rental_uris": {"android": "https://dc.lft.to/lastmile_qr_scan", "ios": "https://dc.lft.to/lastmile_qr_scan"}, "fusion_lon": 0.0, "lat": 38.90378533333333, "bike_id": "eeb8120194983bf3677abd92353645f7", "type": "electric_scooter", "is_reserved": 0, "lon": -77.0177035}, {"fusion_lat": 0.0, "name": "d5b37515f74c5b767541cfe833b3a835", "is_disabled": 0, "rental_uris": {"android": "https://dc.lft.to/lastmile_qr_scan", "ios": "https://dc.lft.to/lastmile_qr_scan"}, "fusion_lon": 0.0, "lat": 38.911219333333335, "bike_id": "d5b37515f74c5b767541cfe833b3a835", "type": "electric_scooter", "is_reserved": 0, "lon": -77.04233233333333}, {"fusion_lat": 0.0, "name": "627c3f61032e8750853ea9a62bd86b9e", "is_disabled": 0, "rental_uris": {"android": "https://dc.lft.to/lastmile_qr_scan", "ios": "https://dc.lft.to/lastmile_qr_scan"}, "fusion_lon": 0.0, "lat": 38.928762666666664, "bike_id": "627c3f61032e8750853ea9a62bd86b9e", "type": "electric_scooter", "is_reserved": 0, "lon": -77.02668433333334}, {"fusion_lat": 0.0, "name": "043ff1ccfc6492c6c221b739686ec350", "is_disabled": 0, "rental_uris": {"android": "https://dc.lft.to/lastmile_qr_scan", "ios": "https://dc.lft.to/lastmile_qr_scan"}, "fusion_lon": 0.0, "lat": 38.93878016666667, "bike_id": "043ff1ccfc6492c6c221b739686ec350", "type": "electric_scooter", "is_reserved": 0, "lon": -77.02918683333333}, {"fusion_lat": 0.0, "name": "3509b3463c7b7537a4f4b894234b7bd5", "is_disabled": 0, "rental_uris": {"android": "https://dc.lft.to/lastmile_qr_scan", "ios": "https://dc.lft.to/lastmile_qr_scan"}, "fusion_lon": 0.0, "lat": 38.92447666666666, "bike_id": "3509b3463c7b7537a4f4b894234b7bd5", "type": "electric_scooter", "is_reserved": 0, "lon": -77.0340355}, {"fusion_lat": 0.0, "name": "99fb843531b30065e3c072a6ee473231", "is_disabled": 0, "rental_uris": {"android": "https://dc.lft.to/lastmile_qr_scan", "ios": "https://dc.lft.to/lastmile_qr_scan"}, "fusion_lon": 0.0, "lat": 38.905688166666664, "bike_id": "99fb843531b30065e3c072a6ee473231", "type": "electric_scooter", "is_reserved": 0, "lon": -77.02488633333333}, {"fusion_lat": 0.0, "name": "8c9120b9904a8b635f089f24d81409b6", "is_disabled": 0, "rental_uris": {"android": "https://dc.lft.to/lastmile_qr_scan", "ios": "https://dc.lft.to/lastmile_qr_scan"}, "fusion_lon": 0.0, "lat": 38.93425516666667, "bike_id": "8c9120b9904a8b635f089f24d81409b6", "type": "electric_scooter", "is_reserved": 0, "lon": -77.04004216666667}, {"fusion_lat": 0.0, "name": "4c30af8814ba646d20b9a1329d8b9a6c", "is_disabled": 0, "rental_uris": {"android": "https://dc.lft.to/lastmile_qr_scan", "ios": "https://dc.lft.to/lastmile_qr_scan"}, "fusion_lon": 0.0, "lat": 38.931139333333334, "bike_id": "4c30af8814ba646d20b9a1329d8b9a6c", "type": "electric_scooter", "is_reserved": 0, "lon": -77.02135183333333}, {"fusion_lat": 0.0, "name": "dc8661c7437cb851011ba02df456846b", "is_disabled": 0, "rental_uris": {"android": "https://dc.lft.to/lastmile_qr_scan", "ios": "https://dc.lft.to/lastmile_qr_scan"}, "fusion_lon": 0.0, "lat": 38.935800666666665, "bike_id": "dc8661c7437cb851011ba02df456846b", "type": "electric_scooter", "is_reserved": 0, "lon": -77.02123716666667}, {"fusion_lat": 0.0, "name": "4f4c86732e4b00dcf18018a6fe95d3db", "is_disabled": 0, "rental_uris": {"android": "https://dc.lft.to/lastmile_qr_scan", "ios": "https://dc.lft.to/lastmile_qr_scan"}, "fusion_lon": 0.0, "lat": 38.91215283333333, "bike_id": "4f4c86732e4b00dcf18018a6fe95d3db", "type": "electric_scooter", "is_reserved": 0, "lon": -77.01213233333333}, {"fusion_lat": 0.0, "name": "fd3648a58f41b1a83802d35b32b91bca", "is_disabled": 0, "rental_uris": {"android": "https://dc.lft.to/lastmile_qr_scan", "ios": "https://dc.lft.to/lastmile_qr_scan"}, "fusion_lon": 0.0, "lat": 38.92792883333333, "bike_id": "fd3648a58f41b1a83802d35b32b91bca", "type": "electric_scooter", "is_reserved": 0, "lon": -77.03151966666667}, {"fusion_lat": 0.0, "name": "e8f467d62c61c949df70377f9747dcb1", "is_disabled": 0, "rental_uris": {"android": "https://dc.lft.to/lastmile_qr_scan", "ios": "https://dc.lft.to/lastmile_qr_scan"}, "fusion_lon": 0.0, "lat": 38.905035833333336, "bike_id": "e8f467d62c61c949df70377f9747dcb1", "type": "electric_scooter", "is_reserved": 0, "lon": -77.06117716666667}, {"fusion_lat": 0.0, "name": "6c22d4b8d8e95aef7fe4ed73808984c4", "is_disabled": 0, "rental_uris": {"android": "https://dc.lft.to/lastmile_qr_scan", "ios": "https://dc.lft.to/lastmile_qr_scan"}, "fusion_lon": 0.0, "lat": 38.8894585, "bike_id": "6c22d4b8d8e95aef7fe4ed73808984c4", "type": "electric_scooter", "is_reserved": 0, "lon": -76.99163466666667}, {"fusion_lat": 0.0, "name": "5768f804906fb0a74ba21a84889d7fd6", "is_disabled": 0, "rental_uris": {"android": "https://dc.lft.to/lastmile_qr_scan", "ios": "https://dc.lft.to/lastmile_qr_scan"}, "fusion_lon": 0.0, "lat": 38.918371, "bike_id": "5768f804906fb0a74ba21a84889d7fd6", "type": "electric_scooter", "is_reserved": 0, "lon": -77.0230055}, {"fusion_lat": 0.0, "name": "fcaf2537ec70a3b27548c1066b9df8b0", "is_disabled": 0, "rental_uris": {"android": "https://dc.lft.to/lastmile_qr_scan", "ios": "https://dc.lft.to/lastmile_qr_scan"}, "fusion_lon": 0.0, "lat": 38.91696266666667, "bike_id": "fcaf2537ec70a3b27548c1066b9df8b0", "type": "electric_scooter", "is_reserved": 0, "lon": -77.03745416666666}, {"fusion_lat": 0.0, "name": "a3fe5c90589def9738b3cc213eb7821a", "is_disabled": 0, "rental_uris": {"android": "https://dc.lft.to/lastmile_qr_scan", "ios": "https://dc.lft.to/lastmile_qr_scan"}, "fusion_lon": 0.0, "lat": 38.973456, "bike_id": "a3fe5c90589def9738b3cc213eb7821a", "type": "electric_bike", "is_reserved": 0, "lon": -77.0179625}, {"fusion_lat": 0.0, "name": "1ccfc93c5f9c3cf9b9ac4d652481091b", "is_disabled": 0, "rental_uris": {"android": "https://dc.lft.to/lastmile_qr_scan", "ios": "https://dc.lft.to/lastmile_qr_scan"}, "fusion_lon": 0.0, "lat": 38.92679283333333, "bike_id": "1ccfc93c5f9c3cf9b9ac4d652481091b", "type": "electric_scooter", "is_reserved": 0, "lon": -77.02788733333334}, {"fusion_lat": 0.0, "name": "4cab97c12ca0cbd9b04a6afaa238eaed", "is_disabled": 0, "rental_uris": {"android": "https://dc.lft.to/lastmile_qr_scan", "ios": "https://dc.lft.to/lastmile_qr_scan"}, "fusion_lon": 0.0, "lat": 38.9068415, "bike_id": "4cab97c12ca0cbd9b04a6afaa238eaed", "type": "electric_bike", "is_reserved": 0, "lon": -76.9449295}, {"fusion_lat": 0.0, "name": "6fc20cd9fddce03ab69b5e408c2b96cc", "is_disabled": 0, "rental_uris": {"android": "https://dc.lft.to/lastmile_qr_scan", "ios": "https://dc.lft.to/lastmile_qr_scan"}, "fusion_lon": 0.0, "lat": 38.911190166666664, "bike_id": "6fc20cd9fddce03ab69b5e408c2b96cc", "type": "electric_scooter", "is_reserved": 0, "lon": -77.00435133333333}, {"fusion_lat": 0.0, "name": "cd9e7f27d65f1b86fc669743408776c0", "is_disabled": 0, "rental_uris": {"android": "https://dc.lft.to/lastmile_qr_scan", "ios": "https://dc.lft.to/lastmile_qr_scan"}, "fusion_lon": 0.0, "lat": 38.98463016666667, "bike_id": "cd9e7f27d65f1b86fc669743408776c0", "type": "electric_bike", "is_reserved": 0, "lon": -76.97057333333333}, {"fusion_lat": 0.0, "name": "3531553e92accf7c69c767e35f52b3bb", "is_disabled": 0, "rental_uris": {"android": "https://dc.lft.to/lastmile_qr_scan", "ios": "https://dc.lft.to/lastmile_qr_scan"}, "fusion_lon": 0.0, "lat": 38.8876845, "bike_id": "3531553e92accf7c69c767e35f52b3bb", "type": "electric_scooter", "is_reserved": 0, "lon": -76.97746366666667}, {"fusion_lat": 0.0, "name": "88bd7fdd872499d6e7b9c3e79e096bd5", "is_disabled": 0, "rental_uris": {"android": "https://dc.lft.to/lastmile_qr_scan", "ios": "https://dc.lft.to/lastmile_qr_scan"}, "fusion_lon": 0.0, "lat": 38.89039116666667, "bike_id": "88bd7fdd872499d6e7b9c3e79e096bd5", "type": "electric_scooter", "is_reserved": 0, "lon": -77.029758}, {"fusion_lat": 0.0, "name": "87ce01fc2bf617743adcc70bdd4d7430", "is_disabled": 0, "rental_uris": {"android": "https://dc.lft.to/lastmile_qr_scan", "ios": "https://dc.lft.to/lastmile_qr_scan"}, "fusion_lon": 0.0, "lat": 38.901506499999996, "bike_id": "87ce01fc2bf617743adcc70bdd4d7430", "type": "electric_scooter", "is_reserved": 0, "lon": -76.93066316666666}, {"fusion_lat": 0.0, "name": "200ad4de961790044cdeeea333365f0d", "is_disabled": 0, "rental_uris": {"android": "https://dc.lft.to/lastmile_qr_scan", "ios": "https://dc.lft.to/lastmile_qr_scan"}, "fusion_lon": 0.0, "lat": 38.90584166666667, "bike_id": "200ad4de961790044cdeeea333365f0d", "type": "electric_scooter", "is_reserved": 0, "lon": -77.04433183333333}, {"fusion_lat": 0.0, "name": "84f144ddadd2ac340d75f8a78db44967", "is_disabled": 0, "rental_uris": {"android": "https://dc.lft.to/lastmile_qr_scan", "ios": "https://dc.lft.to/lastmile_qr_scan"}, "fusion_lon": 0.0, "lat": 38.86655433333333, "bike_id": "84f144ddadd2ac340d75f8a78db44967", "type": "electric_scooter", "is_reserved": 0, "lon": -76.9851585}, {"fusion_lat": 0.0, "name": "5bfaf97e4c72a6c03e279fbe284f40e8", "is_disabled": 0, "rental_uris": {"android": "https://dc.lft.to/lastmile_qr_scan", "ios": "https://dc.lft.to/lastmile_qr_scan"}, "fusion_lon": 0.0, "lat": 38.89993833333333, "bike_id": "5bfaf97e4c72a6c03e279fbe284f40e8", "type": "electric_scooter", "is_reserved": 0, "lon": -77.0409185}, {"fusion_lat": 0.0, "name": "eb84c2d9dae4879927b1fbb9d9eb0cdc", "is_disabled": 0, "rental_uris": {"android": "https://dc.lft.to/lastmile_qr_scan", "ios": "https://dc.lft.to/lastmile_qr_scan"}, "fusion_lon": 0.0, "lat": 38.918357666666665, "bike_id": "eb84c2d9dae4879927b1fbb9d9eb0cdc", "type": "electric_scooter", "is_reserved": 0, "lon": -77.04166083333334}, {"fusion_lat": 0.0, "name": "4b6d72535564a46426d6f106c4175750", "is_disabled": 0, "rental_uris": {"android": "https://dc.lft.to/lastmile_qr_scan", "ios": "https://dc.lft.to/lastmile_qr_scan"}, "fusion_lon": 0.0, "lat": 38.8652055, "bike_id": "4b6d72535564a46426d6f106c4175750", "type": "electric_bike", "is_reserved": 0, "lon": -76.97333033333334}, {"fusion_lat": 0.0, "name": "09a4a333f23f1c3051f2bbede3d0cf1c", "is_disabled": 0, "rental_uris": {"android": "https://dc.lft.to/lastmile_qr_scan", "ios": "https://dc.lft.to/lastmile_qr_scan"}, "fusion_lon": 0.0, "lat": 38.926099, "bike_id": "09a4a333f23f1c3051f2bbede3d0cf1c", "type": "electric_scooter", "is_reserved": 0, "lon": -77.03963083333333}, {"fusion_lat": 0.0, "name": "10e0412992c0dfe192e0dcbdb053ae3d", "is_disabled": 0, "rental_uris": {"android": "https://dc.lft.to/lastmile_qr_scan", "ios": "https://dc.lft.to/lastmile_qr_scan"}, "fusion_lon": 0.0, "lat": 38.932733166666665, "bike_id": "10e0412992c0dfe192e0dcbdb053ae3d", "type": "electric_scooter", "is_reserved": 0, "lon": -77.04533216666667}, {"fusion_lat": 0.0, "name": "8a62d90ad86871537c9a12c6c4a8c1ae", "is_disabled": 0, "rental_uris": {"android": "https://dc.lft.to/lastmile_qr_scan", "ios": "https://dc.lft.to/lastmile_qr_scan"}, "fusion_lon": 0.0, "lat": 38.877076833333334, "bike_id": "8a62d90ad86871537c9a12c6c4a8c1ae", "type": "electric_scooter", "is_reserved": 0, "lon": -77.01769483333334}, {"fusion_lat": 0.0, "name": "860ecaf52a1c5a4f7c60827c4aaedb07", "is_disabled": 0, "rental_uris": {"android": "https://dc.lft.to/lastmile_qr_scan", "ios": "https://dc.lft.to/lastmile_qr_scan"}, "fusion_lon": 0.0, "lat": 38.90552116666667, "bike_id": "860ecaf52a1c5a4f7c60827c4aaedb07", "type": "electric_scooter", "is_reserved": 0, "lon": -77.031253}, {"fusion_lat": 0.0, "name": "75997c31fb4286db6018e73e097dd022", "is_disabled": 0, "rental_uris": {"android": "https://dc.lft.to/lastmile_qr_scan", "ios": "https://dc.lft.to/lastmile_qr_scan"}, "fusion_lon": 0.0, "lat": 38.9097595, "bike_id": "75997c31fb4286db6018e73e097dd022", "type": "electric_scooter", "is_reserved": 0, "lon": -77.033971}, {"fusion_lat": 0.0, "name": "c28afdafb45e71bc365381141641eb03", "is_disabled": 0, "rental_uris": {"android": "https://dc.lft.to/lastmile_qr_scan", "ios": "https://dc.lft.to/lastmile_qr_scan"}, "fusion_lon": 0.0, "lat": 38.9210075, "bike_id": "c28afdafb45e71bc365381141641eb03", "type": "electric_scooter", "is_reserved": 0, "lon": -77.07470666666667}, {"fusion_lat": 0.0, "name": "7261961f6f5cb60d7ee296fa3731be8f", "is_disabled": 0, "rental_uris": {"android": "https://dc.lft.to/lastmile_qr_scan", "ios": "https://dc.lft.to/lastmile_qr_scan"}, "fusion_lon": 0.0, "lat": 38.903583833333336, "bike_id": "7261961f6f5cb60d7ee296fa3731be8f", "type": "electric_scooter", "is_reserved": 0, "lon": -77.06267633333333}, {"fusion_lat": 0.0, "name": "e9c409a932fb0f271dd0e0411a9512a8", "is_disabled": 0, "rental_uris": {"android": "https://dc.lft.to/lastmile_qr_scan", "ios": "https://dc.lft.to/lastmile_qr_scan"}, "fusion_lon": 0.0, "lat": 38.873758333333335, "bike_id": "e9c409a932fb0f271dd0e0411a9512a8", "type": "electric_scooter", "is_reserved": 0, "lon": -77.0008945}, {"fusion_lat": 0.0, "name": "943fdb73e26aaa4494703e76d9ec30b4", "is_disabled": 0, "rental_uris": {"android": "https://dc.lft.to/lastmile_qr_scan", "ios": "https://dc.lft.to/lastmile_qr_scan"}, "fusion_lon": 0.0, "lat": 38.934359666666666, "bike_id": "943fdb73e26aaa4494703e76d9ec30b4", "type": "electric_scooter", "is_reserved": 0, "lon": -77.03448933333334}, {"fusion_lat": 0.0, "name": "7c449d926bcc52529015cdac06d47fd9", "is_disabled": 0, "rental_uris": {"android": "https://dc.lft.to/lastmile_qr_scan", "ios": "https://dc.lft.to/lastmile_qr_scan"}, "fusion_lon": 0.0, "lat": 38.925571, "bike_id": "7c449d926bcc52529015cdac06d47fd9", "type": "electric_scooter", "is_reserved": 0, "lon": -76.9830415}, {"fusion_lat": 0.0, "name": "82a50ee60f2f08d435d3217d642d011d", "is_disabled": 0, "rental_uris": {"android": "https://dc.lft.to/lastmile_qr_scan", "ios": "https://dc.lft.to/lastmile_qr_scan"}, "fusion_lon": 0.0, "lat": 38.9178205, "bike_id": "82a50ee60f2f08d435d3217d642d011d", "type": "electric_scooter", "is_reserved": 0, "lon": -77.02312116666667}, {"fusion_lat": 0.0, "name": "0db36a624a469c0b96e69fe45cdd9e45", "is_disabled": 0, "rental_uris": {"android": "https://dc.lft.to/lastmile_qr_scan", "ios": "https://dc.lft.to/lastmile_qr_scan"}, "fusion_lon": 0.0, "lat": 38.900404, "bike_id": "0db36a624a469c0b96e69fe45cdd9e45", "type": "electric_scooter", "is_reserved": 0, "lon": -77.00195883333333}, {"fusion_lat": 0.0, "name": "d8dff7414f8255ccaa47cd59d148bf3d", "is_disabled": 0, "rental_uris": {"android": "https://dc.lft.to/lastmile_qr_scan", "ios": "https://dc.lft.to/lastmile_qr_scan"}, "fusion_lon": 0.0, "lat": 38.8923035, "bike_id": "d8dff7414f8255ccaa47cd59d148bf3d", "type": "electric_scooter", "is_reserved": 0, "lon": -77.05002383333333}, {"fusion_lat": 0.0, "name": "6275b4edf07a131e763c689a3c0614cf", "is_disabled": 0, "rental_uris": {"android": "https://dc.lft.to/lastmile_qr_scan", "ios": "https://dc.lft.to/lastmile_qr_scan"}, "fusion_lon": 0.0, "lat": 38.910266, "bike_id": "6275b4edf07a131e763c689a3c0614cf", "type": "electric_scooter", "is_reserved": 0, "lon": -77.04307333333334}, {"fusion_lat": 0.0, "name": "7fda7335906fe1a10f60a6a5c6921d13", "is_disabled": 0, "rental_uris": {"android": "https://dc.lft.to/lastmile_qr_scan", "ios": "https://dc.lft.to/lastmile_qr_scan"}, "fusion_lon": 0.0, "lat": 38.80675383333333, "bike_id": "7fda7335906fe1a10f60a6a5c6921d13", "type": "electric_bike", "is_reserved": 0, "lon": -77.069176}, {"fusion_lat": 0.0, "name": "721e22ed04a80a139aa68e5f0496e12b", "is_disabled": 0, "rental_uris": {"android": "https://dc.lft.to/lastmile_qr_scan", "ios": "https://dc.lft.to/lastmile_qr_scan"}, "fusion_lon": 0.0, "lat": 38.90720916666667, "bike_id": "721e22ed04a80a139aa68e5f0496e12b", "type": "electric_scooter", "is_reserved": 0, "lon": -77.04340766666667}, {"fusion_lat": 0.0, "name": "91e3c9d7a7dd314a2bab6f44bb54faf6", "is_disabled": 0, "rental_uris": {"android": "https://dc.lft.to/lastmile_qr_scan", "ios": "https://dc.lft.to/lastmile_qr_scan"}, "fusion_lon": 0.0, "lat": 38.884514, "bike_id": "91e3c9d7a7dd314a2bab6f44bb54faf6", "type": "electric_scooter", "is_reserved": 0, "lon": -76.99390933333333}, {"fusion_lat": 0.0, "name": "33ffba86b81b2936bbbea2a21ef2af74", "is_disabled": 0, "rental_uris": {"android": "https://dc.lft.to/lastmile_qr_scan", "ios": "https://dc.lft.to/lastmile_qr_scan"}, "fusion_lon": 0.0, "lat": 38.90281133333333, "bike_id": "33ffba86b81b2936bbbea2a21ef2af74", "type": "electric_scooter", "is_reserved": 0, "lon": -77.01792716666667}, {"fusion_lat": 0.0, "name": "cfb87cb909dc62cebe38c796a599ba10", "is_disabled": 0, "rental_uris": {"android": "https://dc.lft.to/lastmile_qr_scan", "ios": "https://dc.lft.to/lastmile_qr_scan"}, "fusion_lon": 0.0, "lat": 38.911758166666665, "bike_id": "cfb87cb909dc62cebe38c796a599ba10", "type": "electric_scooter", "is_reserved": 0, "lon": -77.03190166666667}, {"fusion_lat": 0.0, "name": "1c427cf21944f2157f838ff4e70c9f01", "is_disabled": 0, "rental_uris": {"android": "https://dc.lft.to/lastmile_qr_scan", "ios": "https://dc.lft.to/lastmile_qr_scan"}, "fusion_lon": 0.0, "lat": 38.95631866666667, "bike_id": "1c427cf21944f2157f838ff4e70c9f01", "type": "electric_bike", "is_reserved": 0, "lon": -76.93874583333333}, {"fusion_lat": 0.0, "name": "61043873162de17471027cd07858c32d", "is_disabled": 0, "rental_uris": {"android": "https://dc.lft.to/lastmile_qr_scan", "ios": "https://dc.lft.to/lastmile_qr_scan"}, "fusion_lon": 0.0, "lat": 38.8546265, "bike_id": "61043873162de17471027cd07858c32d", "type": "electric_scooter", "is_reserved": 0, "lon": -76.97229933333334}, {"fusion_lat": 0.0, "name": "65189d955b0a30cc909fdcb1ec0befff", "is_disabled": 0, "rental_uris": {"android": "https://dc.lft.to/lastmile_qr_scan", "ios": "https://dc.lft.to/lastmile_qr_scan"}, "fusion_lon": 0.0, "lat": 38.896383666666665, "bike_id": "65189d955b0a30cc909fdcb1ec0befff", "type": "electric_scooter", "is_reserved": 0, "lon": -77.0092035}, {"fusion_lat": 0.0, "name": "1bd729ff70b73ba824932b0e225d4a14", "is_disabled": 0, "rental_uris": {"android": "https://dc.lft.to/lastmile_qr_scan", "ios": "https://dc.lft.to/lastmile_qr_scan"}, "fusion_lon": 0.0, "lat": 38.88477833333334, "bike_id": "1bd729ff70b73ba824932b0e225d4a14", "type": "electric_scooter", "is_reserved": 0, "lon": -76.9960315}, {"fusion_lat": 0.0, "name": "c9a8096c021edf7ef4cdabeba05f19f8", "is_disabled": 0, "rental_uris": {"android": "https://dc.lft.to/lastmile_qr_scan", "ios": "https://dc.lft.to/lastmile_qr_scan"}, "fusion_lon": 0.0, "lat": 38.96371633333333, "bike_id": "c9a8096c021edf7ef4cdabeba05f19f8", "type": "electric_scooter", "is_reserved": 0, "lon": -77.02051716666666}, {"fusion_lat": 0.0, "name": "35fca3964122f064a85505cf20401023", "is_disabled": 0, "rental_uris": {"android": "https://dc.lft.to/lastmile_qr_scan", "ios": "https://dc.lft.to/lastmile_qr_scan"}, "fusion_lon": 0.0, "lat": 38.928515, "bike_id": "35fca3964122f064a85505cf20401023", "type": "electric_scooter", "is_reserved": 0, "lon": -77.024399}, {"fusion_lat": 0.0, "name": "c95c6288481015f81e268b3b81158d31", "is_disabled": 0, "rental_uris": {"android": "https://dc.lft.to/lastmile_qr_scan", "ios": "https://dc.lft.to/lastmile_qr_scan"}, "fusion_lon": 0.0, "lat": 38.9213465, "bike_id": "c95c6288481015f81e268b3b81158d31", "type": "electric_scooter", "is_reserved": 0, "lon": -77.0096025}, {"fusion_lat": 0.0, "name": "1eb1364ae0b58f3a4d31c55283d7374d", "is_disabled": 0, "rental_uris": {"android": "https://dc.lft.to/lastmile_qr_scan", "ios": "https://dc.lft.to/lastmile_qr_scan"}, "fusion_lon": 0.0, "lat": 38.88769283333333, "bike_id": "1eb1364ae0b58f3a4d31c55283d7374d", "type": "electric_scooter", "is_reserved": 0, "lon": -76.97750866666667}, {"fusion_lat": 0.0, "name": "0a9b9748f8cfd062b146c2a19e073766", "is_disabled": 0, "rental_uris": {"android": "https://dc.lft.to/lastmile_qr_scan", "ios": "https://dc.lft.to/lastmile_qr_scan"}, "fusion_lon": 0.0, "lat": 38.8737645, "bike_id": "0a9b9748f8cfd062b146c2a19e073766", "type": "electric_scooter", "is_reserved": 0, "lon": -77.00086583333334}, {"fusion_lat": 0.0, "name": "b7d399ab2aff2c640bcf15c44a7ac529", "is_disabled": 0, "rental_uris": {"android": "https://dc.lft.to/lastmile_qr_scan", "ios": "https://dc.lft.to/lastmile_qr_scan"}, "fusion_lon": 0.0, "lat": 38.87714966666667, "bike_id": "b7d399ab2aff2c640bcf15c44a7ac529", "type": "electric_scooter", "is_reserved": 0, "lon": -77.01761733333333}, {"fusion_lat": 0.0, "name": "a4e12cf61eb2533c2474db552fc1af52", "is_disabled": 0, "rental_uris": {"android": "https://dc.lft.to/lastmile_qr_scan", "ios": "https://dc.lft.to/lastmile_qr_scan"}, "fusion_lon": 0.0, "lat": 38.917116166666666, "bike_id": "a4e12cf61eb2533c2474db552fc1af52", "type": "electric_scooter", "is_reserved": 0, "lon": -77.03224966666667}, {"fusion_lat": 0.0, "name": "51a1afdbacf711ab89b9ce06215a196c", "is_disabled": 0, "rental_uris": {"android": "https://dc.lft.to/lastmile_qr_scan", "ios": "https://dc.lft.to/lastmile_qr_scan"}, "fusion_lon": 0.0, "lat": 38.88611483333333, "bike_id": "51a1afdbacf711ab89b9ce06215a196c", "type": "electric_scooter", "is_reserved": 0, "lon": -77.015588}, {"fusion_lat": 0.0, "name": "65e549778fa9bf7420c8520a65eab031", "is_disabled": 0, "rental_uris": {"android": "https://dc.lft.to/lastmile_qr_scan", "ios": "https://dc.lft.to/lastmile_qr_scan"}, "fusion_lon": 0.0, "lat": 38.916616166666664, "bike_id": "65e549778fa9bf7420c8520a65eab031", "type": "electric_scooter", "is_reserved": 0, "lon": -77.038507}, {"fusion_lat": 0.0, "name": "1c9e07eff2aaa1b685042789035142d7", "is_disabled": 0, "rental_uris": {"android": "https://dc.lft.to/lastmile_qr_scan", "ios": "https://dc.lft.to/lastmile_qr_scan"}, "fusion_lon": 0.0, "lat": 38.90280166666667, "bike_id": "1c9e07eff2aaa1b685042789035142d7", "type": "electric_bike", "is_reserved": 0, "lon": -77.0374705}, {"fusion_lat": 0.0, "name": "e668decc5843772a04582e286dfbfcac", "is_disabled": 0, "rental_uris": {"android": "https://dc.lft.to/lastmile_qr_scan", "ios": "https://dc.lft.to/lastmile_qr_scan"}, "fusion_lon": 0.0, "lat": 38.892307, "bike_id": "e668decc5843772a04582e286dfbfcac", "type": "electric_scooter", "is_reserved": 0, "lon": -77.0171335}, {"fusion_lat": 0.0, "name": "80f67ff6cbe0ca6fdf78535bd0694dba", "is_disabled": 0, "rental_uris": {"android": "https://dc.lft.to/lastmile_qr_scan", "ios": "https://dc.lft.to/lastmile_qr_scan"}, "fusion_lon": 0.0, "lat": 38.9097085, "bike_id": "80f67ff6cbe0ca6fdf78535bd0694dba", "type": "electric_scooter", "is_reserved": 0, "lon": -77.00895883333334}, {"fusion_lat": 0.0, "name": "1c8bc1baa0478c9692973d6dc9a580ae", "is_disabled": 0, "rental_uris": {"android": "https://dc.lft.to/lastmile_qr_scan", "ios": "https://dc.lft.to/lastmile_qr_scan"}, "fusion_lon": 0.0, "lat": 38.924856166666665, "bike_id": "1c8bc1baa0478c9692973d6dc9a580ae", "type": "electric_scooter", "is_reserved": 0, "lon": -77.0263585}, {"fusion_lat": 0.0, "name": "6414d2645fea59d0b99138aa296fa277", "is_disabled": 0, "rental_uris": {"android": "https://dc.lft.to/lastmile_qr_scan", "ios": "https://dc.lft.to/lastmile_qr_scan"}, "fusion_lon": 0.0, "lat": 38.87877433333333, "bike_id": "6414d2645fea59d0b99138aa296fa277", "type": "electric_scooter", "is_reserved": 0, "lon": -77.023149}, {"fusion_lat": 0.0, "name": "22e139e8923f3fd2039f03788ab9112a", "is_disabled": 0, "rental_uris": {"android": "https://dc.lft.to/lastmile_qr_scan", "ios": "https://dc.lft.to/lastmile_qr_scan"}, "fusion_lon": 0.0, "lat": 38.931956166666666, "bike_id": "22e139e8923f3fd2039f03788ab9112a", "type": "electric_bike", "is_reserved": 0, "lon": -77.2292855}, {"fusion_lat": 0.0, "name": "8387a9b28b2c586195f4e8d4fae8e023", "is_disabled": 0, "rental_uris": {"android": "https://dc.lft.to/lastmile_qr_scan", "ios": "https://dc.lft.to/lastmile_qr_scan"}, "fusion_lon": 0.0, "lat": 38.9225035, "bike_id": "8387a9b28b2c586195f4e8d4fae8e023", "type": "electric_scooter", "is_reserved": 0, "lon": -77.07476133333333}, {"fusion_lat": 0.0, "name": "e1209f3943f0dae047920d2202fae2ee", "is_disabled": 0, "rental_uris": {"android": "https://dc.lft.to/lastmile_qr_scan", "ios": "https://dc.lft.to/lastmile_qr_scan"}, "fusion_lon": 0.0, "lat": 38.92058566666667, "bike_id": "e1209f3943f0dae047920d2202fae2ee", "type": "electric_scooter", "is_reserved": 0, "lon": -77.04260616666667}, {"fusion_lat": 0.0, "name": "028804751bb83384b1e99bb4df04baea", "is_disabled": 0, "rental_uris": {"android": "https://dc.lft.to/lastmile_qr_scan", "ios": "https://dc.lft.to/lastmile_qr_scan"}, "fusion_lon": 0.0, "lat": 38.93519283333333, "bike_id": "028804751bb83384b1e99bb4df04baea", "type": "electric_scooter", "is_reserved": 0, "lon": -77.033481}, {"fusion_lat": 0.0, "name": "5fe7ae502217ac3ea1864343f4965f57", "is_disabled": 0, "rental_uris": {"android": "https://dc.lft.to/lastmile_qr_scan", "ios": "https://dc.lft.to/lastmile_qr_scan"}, "fusion_lon": 0.0, "lat": 38.90274866666667, "bike_id": "5fe7ae502217ac3ea1864343f4965f57", "type": "electric_scooter", "is_reserved": 0, "lon": -77.018833}, {"fusion_lat": 0.0, "name": "4747a4c5b840f857e7d2d7c16c7ad9f0", "is_disabled": 0, "rental_uris": {"android": "https://dc.lft.to/lastmile_qr_scan", "ios": "https://dc.lft.to/lastmile_qr_scan"}, "fusion_lon": 0.0, "lat": 38.903528333333334, "bike_id": "4747a4c5b840f857e7d2d7c16c7ad9f0", "type": "electric_scooter", "is_reserved": 0, "lon": -76.97476583333334}, {"fusion_lat": 0.0, "name": "1a696f1523668d0cd3fffb128888f80b", "is_disabled": 0, "rental_uris": {"android": "https://dc.lft.to/lastmile_qr_scan", "ios": "https://dc.lft.to/lastmile_qr_scan"}, "fusion_lon": 0.0, "lat": 38.88314333333334, "bike_id": "1a696f1523668d0cd3fffb128888f80b", "type": "electric_scooter", "is_reserved": 0, "lon": -77.01378983333333}, {"fusion_lat": 0.0, "name": "67fbdd18341f811a200ccf156efaf517", "is_disabled": 0, "rental_uris": {"android": "https://dc.lft.to/lastmile_qr_scan", "ios": "https://dc.lft.to/lastmile_qr_scan"}, "fusion_lon": 0.0, "lat": 38.887393833333334, "bike_id": "67fbdd18341f811a200ccf156efaf517", "type": "electric_scooter", "is_reserved": 0, "lon": -77.014716}, {"fusion_lat": 0.0, "name": "8eca3262124dec5534b505656013d546", "is_disabled": 0, "rental_uris": {"android": "https://dc.lft.to/lastmile_qr_scan", "ios": "https://dc.lft.to/lastmile_qr_scan"}, "fusion_lon": 0.0, "lat": 38.903127166666664, "bike_id": "8eca3262124dec5534b505656013d546", "type": "electric_scooter", "is_reserved": 0, "lon": -77.05798566666667}, {"fusion_lat": 0.0, "name": "9e32b5befa83b4ec90d21c5c022c9f32", "is_disabled": 0, "rental_uris": {"android": "https://dc.lft.to/lastmile_qr_scan", "ios": "https://dc.lft.to/lastmile_qr_scan"}, "fusion_lon": 0.0, "lat": 38.909785, "bike_id": "9e32b5befa83b4ec90d21c5c022c9f32", "type": "electric_scooter", "is_reserved": 0, "lon": -77.04875733333333}, {"fusion_lat": 0.0, "name": "8e03e3d0ed94cf7eda9694540dbabf35", "is_disabled": 0, "rental_uris": {"android": "https://dc.lft.to/lastmile_qr_scan", "ios": "https://dc.lft.to/lastmile_qr_scan"}, "fusion_lon": 0.0, "lat": 38.91817433333333, "bike_id": "8e03e3d0ed94cf7eda9694540dbabf35", "type": "electric_scooter", "is_reserved": 0, "lon": -77.02474183333334}, {"fusion_lat": 0.0, "name": "eec0c9334a6d0177ba08bd63520d80c0", "is_disabled": 0, "rental_uris": {"android": "https://dc.lft.to/lastmile_qr_scan", "ios": "https://dc.lft.to/lastmile_qr_scan"}, "fusion_lon": 0.0, "lat": 38.90191033333333, "bike_id": "eec0c9334a6d0177ba08bd63520d80c0", "type": "electric_scooter", "is_reserved": 0, "lon": -77.02395783333333}, {"fusion_lat": 0.0, "name": "4e3b5054eb1215e4e04186ac22e8fc1f", "is_disabled": 0, "rental_uris": {"android": "https://dc.lft.to/lastmile_qr_scan", "ios": "https://dc.lft.to/lastmile_qr_scan"}, "fusion_lon": 0.0, "lat": 38.9073285, "bike_id": "4e3b5054eb1215e4e04186ac22e8fc1f", "type": "electric_scooter", "is_reserved": 0, "lon": -77.00954533333334}, {"fusion_lat": 0.0, "name": "686018d5a46d7f64d6401ba112ae1894", "is_disabled": 0, "rental_uris": {"android": "https://dc.lft.to/lastmile_qr_scan", "ios": "https://dc.lft.to/lastmile_qr_scan"}, "fusion_lon": 0.0, "lat": 38.88020233333334, "bike_id": "686018d5a46d7f64d6401ba112ae1894", "type": "electric_scooter", "is_reserved": 0, "lon": -76.93117083333334}, {"fusion_lat": 0.0, "name": "d06d4391487b7d31b189071104162f0c", "is_disabled": 0, "rental_uris": {"android": "https://dc.lft.to/lastmile_qr_scan", "ios": "https://dc.lft.to/lastmile_qr_scan"}, "fusion_lon": 0.0, "lat": 38.88353216666667, "bike_id": "d06d4391487b7d31b189071104162f0c", "type": "electric_scooter", "is_reserved": 0, "lon": -76.99497166666667}, {"fusion_lat": 0.0, "name": "57a5ce8e763b2b4fdf36436445e64f0a", "is_disabled": 0, "rental_uris": {"android": "https://dc.lft.to/lastmile_qr_scan", "ios": "https://dc.lft.to/lastmile_qr_scan"}, "fusion_lon": 0.0, "lat": 38.90157966666666, "bike_id": "57a5ce8e763b2b4fdf36436445e64f0a", "type": "electric_scooter", "is_reserved": 0, "lon": -77.01892416666666}, {"fusion_lat": 0.0, "name": "77e287dedd2d332373e6dc74fed34353", "is_disabled": 0, "rental_uris": {"android": "https://dc.lft.to/lastmile_qr_scan", "ios": "https://dc.lft.to/lastmile_qr_scan"}, "fusion_lon": 0.0, "lat": 38.88874583333333, "bike_id": "77e287dedd2d332373e6dc74fed34353", "type": "electric_scooter", "is_reserved": 0, "lon": -76.98454316666667}, {"fusion_lat": 0.0, "name": "bfa6b619e98fa64dee50504d01d9e749", "is_disabled": 0, "rental_uris": {"android": "https://dc.lft.to/lastmile_qr_scan", "ios": "https://dc.lft.to/lastmile_qr_scan"}, "fusion_lon": 0.0, "lat": 38.907049666666666, "bike_id": "bfa6b619e98fa64dee50504d01d9e749", "type": "electric_scooter", "is_reserved": 0, "lon": -77.035101}, {"fusion_lat": 0.0, "name": "411737f698028dfd85415eed0afcb0e2", "is_disabled": 0, "rental_uris": {"android": "https://dc.lft.to/lastmile_qr_scan", "ios": "https://dc.lft.to/lastmile_qr_scan"}, "fusion_lon": 0.0, "lat": 38.91967066666667, "bike_id": "411737f698028dfd85415eed0afcb0e2", "type": "electric_scooter", "is_reserved": 0, "lon": -77.00111933333334}, {"fusion_lat": 0.0, "name": "9804e638fb2ca631909dffecb4bd6739", "is_disabled": 0, "rental_uris": {"android": "https://dc.lft.to/lastmile_qr_scan", "ios": "https://dc.lft.to/lastmile_qr_scan"}, "fusion_lon": 0.0, "lat": 38.855118833333336, "bike_id": "9804e638fb2ca631909dffecb4bd6739", "type": "electric_bike", "is_reserved": 0, "lon": -77.105367}, {"fusion_lat": 0.0, "name": "42960cecefb04b1b6a897d05534b2b14", "is_disabled": 0, "rental_uris": {"android": "https://dc.lft.to/lastmile_qr_scan", "ios": "https://dc.lft.to/lastmile_qr_scan"}, "fusion_lon": 0.0, "lat": 38.909737166666666, "bike_id": "42960cecefb04b1b6a897d05534b2b14", "type": "electric_scooter", "is_reserved": 0, "lon": -77.033982}, {"fusion_lat": 0.0, "name": "a777b4a60995029f4f6da3bfc35e20bf", "is_disabled": 0, "rental_uris": {"android": "https://dc.lft.to/lastmile_qr_scan", "ios": "https://dc.lft.to/lastmile_qr_scan"}, "fusion_lon": 0.0, "lat": 38.901797333333334, "bike_id": "a777b4a60995029f4f6da3bfc35e20bf", "type": "electric_scooter", "is_reserved": 0, "lon": -76.9290485}, {"fusion_lat": 0.0, "name": "e944c1eca7bbbcca05e0b0c5ce1ce771", "is_disabled": 0, "rental_uris": {"android": "https://dc.lft.to/lastmile_qr_scan", "ios": "https://dc.lft.to/lastmile_qr_scan"}, "fusion_lon": 0.0, "lat": 38.993646, "bike_id": "e944c1eca7bbbcca05e0b0c5ce1ce771", "type": "electric_bike", "is_reserved": 0, "lon": -77.02594983333333}, {"fusion_lat": 0.0, "name": "a9a6901451d2c058bf2fd012b5a7a049", "is_disabled": 0, "rental_uris": {"android": "https://dc.lft.to/lastmile_qr_scan", "ios": "https://dc.lft.to/lastmile_qr_scan"}, "fusion_lon": 0.0, "lat": 38.928306, "bike_id": "a9a6901451d2c058bf2fd012b5a7a049", "type": "electric_scooter", "is_reserved": 0, "lon": -77.054401}, {"fusion_lat": 0.0, "name": "1779e129eafbfb0dcd886268b811871d", "is_disabled": 0, "rental_uris": {"android": "https://dc.lft.to/lastmile_qr_scan", "ios": "https://dc.lft.to/lastmile_qr_scan"}, "fusion_lon": 0.0, "lat": 38.92047316666667, "bike_id": "1779e129eafbfb0dcd886268b811871d", "type": "electric_scooter", "is_reserved": 0, "lon": -77.002098}, {"fusion_lat": 0.0, "name": "8a28cea9b21c73862534257358c378f4", "is_disabled": 0, "rental_uris": {"android": "https://dc.lft.to/lastmile_qr_scan", "ios": "https://dc.lft.to/lastmile_qr_scan"}, "fusion_lon": 0.0, "lat": 38.90313116666667, "bike_id": "8a28cea9b21c73862534257358c378f4", "type": "electric_scooter", "is_reserved": 0, "lon": -76.978017}, {"fusion_lat": 0.0, "name": "f2c2dae0d745619ad819ae45f0be00a2", "is_disabled": 0, "rental_uris": {"android": "https://dc.lft.to/lastmile_qr_scan", "ios": "https://dc.lft.to/lastmile_qr_scan"}, "fusion_lon": 0.0, "lat": 38.946256166666664, "bike_id": "f2c2dae0d745619ad819ae45f0be00a2", "type": "electric_scooter", "is_reserved": 0, "lon": -77.03287433333334}, {"fusion_lat": 0.0, "name": "9a81dc6983f24b2801b0d494aebfccba", "is_disabled": 0, "rental_uris": {"android": "https://dc.lft.to/lastmile_qr_scan", "ios": "https://dc.lft.to/lastmile_qr_scan"}, "fusion_lon": 0.0, "lat": 38.928499, "bike_id": "9a81dc6983f24b2801b0d494aebfccba", "type": "electric_scooter", "is_reserved": 0, "lon": -76.997762}, {"fusion_lat": 0.0, "name": "f79dc92b54ab94b2d2b7d19bdfdabe7d", "is_disabled": 0, "rental_uris": {"android": "https://dc.lft.to/lastmile_qr_scan", "ios": "https://dc.lft.to/lastmile_qr_scan"}, "fusion_lon": 0.0, "lat": 38.92220433333333, "bike_id": "f79dc92b54ab94b2d2b7d19bdfdabe7d", "type": "electric_scooter", "is_reserved": 0, "lon": -77.0412455}, {"fusion_lat": 0.0, "name": "61df121a1a0f1a5cdc64ddd681f75383", "is_disabled": 0, "rental_uris": {"android": "https://dc.lft.to/lastmile_qr_scan", "ios": "https://dc.lft.to/lastmile_qr_scan"}, "fusion_lon": 0.0, "lat": 38.89985316666667, "bike_id": "61df121a1a0f1a5cdc64ddd681f75383", "type": "electric_scooter", "is_reserved": 0, "lon": -77.02928166666666}, {"fusion_lat": 0.0, "name": "fbd7425d56b3832bc793a116e4f5c600", "is_disabled": 0, "rental_uris": {"android": "https://dc.lft.to/lastmile_qr_scan", "ios": "https://dc.lft.to/lastmile_qr_scan"}, "fusion_lon": 0.0, "lat": 38.923523333333335, "bike_id": "fbd7425d56b3832bc793a116e4f5c600", "type": "electric_scooter", "is_reserved": 0, "lon": -77.01950333333333}, {"fusion_lat": 0.0, "name": "13df8027644f5459a5e7bfb58b179e46", "is_disabled": 0, "rental_uris": {"android": "https://dc.lft.to/lastmile_qr_scan", "ios": "https://dc.lft.to/lastmile_qr_scan"}, "fusion_lon": 0.0, "lat": 38.898389333333334, "bike_id": "13df8027644f5459a5e7bfb58b179e46", "type": "electric_scooter", "is_reserved": 0, "lon": -77.02488183333334}, {"fusion_lat": 0.0, "name": "5b57e9c82d777d7028c0c1088fc9dd38", "is_disabled": 0, "rental_uris": {"android": "https://dc.lft.to/lastmile_qr_scan", "ios": "https://dc.lft.to/lastmile_qr_scan"}, "fusion_lon": 0.0, "lat": 38.898560833333335, "bike_id": "5b57e9c82d777d7028c0c1088fc9dd38", "type": "electric_scooter", "is_reserved": 0, "lon": -77.0285975}, {"fusion_lat": 0.0, "name": "a5c5cee98e1bd89aa828b6ffa41b2bb6", "is_disabled": 0, "rental_uris": {"android": "https://dc.lft.to/lastmile_qr_scan", "ios": "https://dc.lft.to/lastmile_qr_scan"}, "fusion_lon": 0.0, "lat": 38.94229133333333, "bike_id": "a5c5cee98e1bd89aa828b6ffa41b2bb6", "type": "electric_scooter", "is_reserved": 0, "lon": -77.02341166666666}, {"fusion_lat": 0.0, "name": "2e30516049ddb6b3e2287ba0fea44d0e", "is_disabled": 0, "rental_uris": {"android": "https://dc.lft.to/lastmile_qr_scan", "ios": "https://dc.lft.to/lastmile_qr_scan"}, "fusion_lon": 0.0, "lat": 38.931152833333336, "bike_id": "2e30516049ddb6b3e2287ba0fea44d0e", "type": "electric_scooter", "is_reserved": 0, "lon": -77.03816533333334}, {"fusion_lat": 0.0, "name": "9ef91a136e622981205cee5947d7de65", "is_disabled": 0, "rental_uris": {"android": "https://dc.lft.to/lastmile_qr_scan", "ios": "https://dc.lft.to/lastmile_qr_scan"}, "fusion_lon": 0.0, "lat": 38.93798916666667, "bike_id": "9ef91a136e622981205cee5947d7de65", "type": "electric_scooter", "is_reserved": 0, "lon": -77.0686155}, {"fusion_lat": 0.0, "name": "3b343ee8dc56a76d630c2069a0698ec5", "is_disabled": 0, "rental_uris": {"android": "https://dc.lft.to/lastmile_qr_scan", "ios": "https://dc.lft.to/lastmile_qr_scan"}, "fusion_lon": 0.0, "lat": 38.901499666666666, "bike_id": "3b343ee8dc56a76d630c2069a0698ec5", "type": "electric_scooter", "is_reserved": 0, "lon": -77.03324066666667}, {"fusion_lat": 0.0, "name": "0247611e33ba0d2ae07ba2279b371b5d", "is_disabled": 0, "rental_uris": {"android": "https://dc.lft.to/lastmile_qr_scan", "ios": "https://dc.lft.to/lastmile_qr_scan"}, "fusion_lon": 0.0, "lat": 39.010783333333336, "bike_id": "0247611e33ba0d2ae07ba2279b371b5d", "type": "electric_bike", "is_reserved": 0, "lon": -76.91065566666667}, {"fusion_lat": 0.0, "name": "3d42384b8c5fb408e788d230ed15dc2d", "is_disabled": 0, "rental_uris": {"android": "https://dc.lft.to/lastmile_qr_scan", "ios": "https://dc.lft.to/lastmile_qr_scan"}, "fusion_lon": 0.0, "lat": 38.91700083333333, "bike_id": "3d42384b8c5fb408e788d230ed15dc2d", "type": "electric_bike", "is_reserved": 0, "lon": -77.03382033333334}, {"fusion_lat": 0.0, "name": "dfe6fc0bc9d0703148d5f483d9ecdbac", "is_disabled": 0, "rental_uris": {"android": "https://dc.lft.to/lastmile_qr_scan", "ios": "https://dc.lft.to/lastmile_qr_scan"}, "fusion_lon": 0.0, "lat": 38.92414616666667, "bike_id": "dfe6fc0bc9d0703148d5f483d9ecdbac", "type": "electric_scooter", "is_reserved": 0, "lon": -77.02007566666667}, {"fusion_lat": 0.0, "name": "78167a53a5c943446cab38a8afb75e24", "is_disabled": 0, "rental_uris": {"android": "https://dc.lft.to/lastmile_qr_scan", "ios": "https://dc.lft.to/lastmile_qr_scan"}, "fusion_lon": 0.0, "lat": 38.92921166666667, "bike_id": "78167a53a5c943446cab38a8afb75e24", "type": "electric_scooter", "is_reserved": 0, "lon": -77.026375}, {"fusion_lat": 0.0, "name": "2f4ac5b42776eda4e0d62d9c711d36f6", "is_disabled": 0, "rental_uris": {"android": "https://dc.lft.to/lastmile_qr_scan", "ios": "https://dc.lft.to/lastmile_qr_scan"}, "fusion_lon": 0.0, "lat": 38.9168145, "bike_id": "2f4ac5b42776eda4e0d62d9c711d36f6", "type": "electric_scooter", "is_reserved": 0, "lon": -77.0296965}, {"fusion_lat": 0.0, "name": "3e6a9891b625dcbdf3513abcd2c9f0f4", "is_disabled": 0, "rental_uris": {"android": "https://dc.lft.to/lastmile_qr_scan", "ios": "https://dc.lft.to/lastmile_qr_scan"}, "fusion_lon": 0.0, "lat": 38.935235166666665, "bike_id": "3e6a9891b625dcbdf3513abcd2c9f0f4", "type": "electric_scooter", "is_reserved": 0, "lon": -77.08703833333334}, {"fusion_lat": 0.0, "name": "3d3e62f6a6b4a60b2751f70c4502e777", "is_disabled": 0, "rental_uris": {"android": "https://dc.lft.to/lastmile_qr_scan", "ios": "https://dc.lft.to/lastmile_qr_scan"}, "fusion_lon": 0.0, "lat": 38.957295, "bike_id": "3d3e62f6a6b4a60b2751f70c4502e777", "type": "electric_scooter", "is_reserved": 0, "lon": -77.02404266666667}, {"fusion_lat": 0.0, "name": "057f00544eeb3967f6fffb586281f68b", "is_disabled": 0, "rental_uris": {"android": "https://dc.lft.to/lastmile_qr_scan", "ios": "https://dc.lft.to/lastmile_qr_scan"}, "fusion_lon": 0.0, "lat": 38.89745683333334, "bike_id": "057f00544eeb3967f6fffb586281f68b", "type": "electric_scooter", "is_reserved": 0, "lon": -77.00008266666667}, {"fusion_lat": 0.0, "name": "936610e95f74a92cc610c8277209f496", "is_disabled": 0, "rental_uris": {"android": "https://dc.lft.to/lastmile_qr_scan", "ios": "https://dc.lft.to/lastmile_qr_scan"}, "fusion_lon": 0.0, "lat": 38.87635616666667, "bike_id": "936610e95f74a92cc610c8277209f496", "type": "electric_scooter", "is_reserved": 0, "lon": -77.00121716666666}, {"fusion_lat": 0.0, "name": "ea43c082c3c82a0b5d345e96ea06c391", "is_disabled": 0, "rental_uris": {"android": "https://dc.lft.to/lastmile_qr_scan", "ios": "https://dc.lft.to/lastmile_qr_scan"}, "fusion_lon": 0.0, "lat": 38.918318, "bike_id": "ea43c082c3c82a0b5d345e96ea06c391", "type": "electric_scooter", "is_reserved": 0, "lon": -77.02395283333334}, {"fusion_lat": 0.0, "name": "ebda2c05987b42fb3a43872f24059c08", "is_disabled": 0, "rental_uris": {"android": "https://dc.lft.to/lastmile_qr_scan", "ios": "https://dc.lft.to/lastmile_qr_scan"}, "fusion_lon": 0.0, "lat": 38.900298666666664, "bike_id": "ebda2c05987b42fb3a43872f24059c08", "type": "electric_scooter", "is_reserved": 0, "lon": -77.01189666666667}, {"fusion_lat": 0.0, "name": "e7f3c7498756144f637569331d991f70", "is_disabled": 0, "rental_uris": {"android": "https://dc.lft.to/lastmile_qr_scan", "ios": "https://dc.lft.to/lastmile_qr_scan"}, "fusion_lon": 0.0, "lat": 38.9017695, "bike_id": "e7f3c7498756144f637569331d991f70", "type": "electric_scooter", "is_reserved": 0, "lon": -76.94146916666666}, {"fusion_lat": 0.0, "name": "76d73cec05a8f3e066a0a5695f8deac8", "is_disabled": 0, "rental_uris": {"android": "https://dc.lft.to/lastmile_qr_scan", "ios": "https://dc.lft.to/lastmile_qr_scan"}, "fusion_lon": 0.0, "lat": 38.93064283333333, "bike_id": "76d73cec05a8f3e066a0a5695f8deac8", "type": "electric_scooter", "is_reserved": 0, "lon": -77.03945016666667}, {"fusion_lat": 0.0, "name": "b9d66ec1a39f25eaf3d871620bee360b", "is_disabled": 0, "rental_uris": {"android": "https://dc.lft.to/lastmile_qr_scan", "ios": "https://dc.lft.to/lastmile_qr_scan"}, "fusion_lon": 0.0, "lat": 38.907317666666664, "bike_id": "b9d66ec1a39f25eaf3d871620bee360b", "type": "electric_scooter", "is_reserved": 0, "lon": -77.04314716666667}, {"fusion_lat": 0.0, "name": "2049e63d4642be2f30221e0342ead05b", "is_disabled": 0, "rental_uris": {"android": "https://dc.lft.to/lastmile_qr_scan", "ios": "https://dc.lft.to/lastmile_qr_scan"}, "fusion_lon": 0.0, "lat": 38.881220166666665, "bike_id": "2049e63d4642be2f30221e0342ead05b", "type": "electric_scooter", "is_reserved": 0, "lon": -76.99281533333334}, {"fusion_lat": 0.0, "name": "d062bfcfd823f221313a88252f6c4e6f", "is_disabled": 0, "rental_uris": {"android": "https://dc.lft.to/lastmile_qr_scan", "ios": "https://dc.lft.to/lastmile_qr_scan"}, "fusion_lon": 0.0, "lat": 38.90517333333333, "bike_id": "d062bfcfd823f221313a88252f6c4e6f", "type": "electric_scooter", "is_reserved": 0, "lon": -77.03492766666666}, {"fusion_lat": 0.0, "name": "a2231818a0959e6082ad4faf21cad218", "is_disabled": 0, "rental_uris": {"android": "https://dc.lft.to/lastmile_qr_scan", "ios": "https://dc.lft.to/lastmile_qr_scan"}, "fusion_lon": 0.0, "lat": 38.945169166666666, "bike_id": "a2231818a0959e6082ad4faf21cad218", "type": "electric_bike", "is_reserved": 0, "lon": -77.0067875}, {"fusion_lat": 0.0, "name": "a6bd862fb525cd1660be1d32149c996a", "is_disabled": 0, "rental_uris": {"android": "https://dc.lft.to/lastmile_qr_scan", "ios": "https://dc.lft.to/lastmile_qr_scan"}, "fusion_lon": 0.0, "lat": 38.88621283333333, "bike_id": "a6bd862fb525cd1660be1d32149c996a", "type": "electric_scooter", "is_reserved": 0, "lon": -77.0195065}, {"fusion_lat": 0.0, "name": "eb8e244c6a7ca4ca50bd8bce950c6de3", "is_disabled": 0, "rental_uris": {"android": "https://dc.lft.to/lastmile_qr_scan", "ios": "https://dc.lft.to/lastmile_qr_scan"}, "fusion_lon": 0.0, "lat": 38.92683983333333, "bike_id": "eb8e244c6a7ca4ca50bd8bce950c6de3", "type": "electric_scooter", "is_reserved": 0, "lon": -77.0086045}, {"fusion_lat": 0.0, "name": "bbb1eb04640898f84b6fdba5aa97a605", "is_disabled": 0, "rental_uris": {"android": "https://dc.lft.to/lastmile_qr_scan", "ios": "https://dc.lft.to/lastmile_qr_scan"}, "fusion_lon": 0.0, "lat": 38.899671, "bike_id": "bbb1eb04640898f84b6fdba5aa97a605", "type": "electric_scooter", "is_reserved": 0, "lon": -77.00683266666667}, {"fusion_lat": 0.0, "name": "3a40e8347c4b5d7d7b5338eaff0f7bcd", "is_disabled": 0, "rental_uris": {"android": "https://dc.lft.to/lastmile_qr_scan", "ios": "https://dc.lft.to/lastmile_qr_scan"}, "fusion_lon": 0.0, "lat": 38.886107333333335, "bike_id": "3a40e8347c4b5d7d7b5338eaff0f7bcd", "type": "electric_scooter", "is_reserved": 0, "lon": -77.01249033333333}, {"fusion_lat": 0.0, "name": "4697337b2087b6a9cc195a3dbbd93a42", "is_disabled": 0, "rental_uris": {"android": "https://dc.lft.to/lastmile_qr_scan", "ios": "https://dc.lft.to/lastmile_qr_scan"}, "fusion_lon": 0.0, "lat": 38.908933, "bike_id": "4697337b2087b6a9cc195a3dbbd93a42", "type": "electric_scooter", "is_reserved": 0, "lon": -76.99863416666666}, {"fusion_lat": 0.0, "name": "6bba21f78aca590d0a408ac70cfe878e", "is_disabled": 0, "rental_uris": {"android": "https://dc.lft.to/lastmile_qr_scan", "ios": "https://dc.lft.to/lastmile_qr_scan"}, "fusion_lon": 0.0, "lat": 38.90513083333333, "bike_id": "6bba21f78aca590d0a408ac70cfe878e", "type": "electric_scooter", "is_reserved": 0, "lon": -77.06886583333333}, {"fusion_lat": 0.0, "name": "37e986b088a0002f609dbda09eb8f911", "is_disabled": 0, "rental_uris": {"android": "https://dc.lft.to/lastmile_qr_scan", "ios": "https://dc.lft.to/lastmile_qr_scan"}, "fusion_lon": 0.0, "lat": 38.93220483333333, "bike_id": "37e986b088a0002f609dbda09eb8f911", "type": "electric_scooter", "is_reserved": 0, "lon": -77.035186}, {"fusion_lat": 0.0, "name": "045eb964a804b1b8b4f0e239f8f50881", "is_disabled": 0, "rental_uris": {"android": "https://dc.lft.to/lastmile_qr_scan", "ios": "https://dc.lft.to/lastmile_qr_scan"}, "fusion_lon": 0.0, "lat": 38.9231655, "bike_id": "045eb964a804b1b8b4f0e239f8f50881", "type": "electric_scooter", "is_reserved": 0, "lon": -77.02905116666666}, {"fusion_lat": 0.0, "name": "9093f80956c14d17bc1d2db5c8d26941", "is_disabled": 0, "rental_uris": {"android": "https://dc.lft.to/lastmile_qr_scan", "ios": "https://dc.lft.to/lastmile_qr_scan"}, "fusion_lon": 0.0, "lat": 38.9171895, "bike_id": "9093f80956c14d17bc1d2db5c8d26941", "type": "electric_scooter", "is_reserved": 0, "lon": -77.0288375}, {"fusion_lat": 0.0, "name": "95190a00c0b9dcdfd5b461fb15d46ca1", "is_disabled": 0, "rental_uris": {"android": "https://dc.lft.to/lastmile_qr_scan", "ios": "https://dc.lft.to/lastmile_qr_scan"}, "fusion_lon": 0.0, "lat": 38.900679333333336, "bike_id": "95190a00c0b9dcdfd5b461fb15d46ca1", "type": "electric_scooter", "is_reserved": 0, "lon": -77.05423933333333}, {"fusion_lat": 0.0, "name": "f00c17aaf2b154b771cbd19981ce8b7e", "is_disabled": 0, "rental_uris": {"android": "https://dc.lft.to/lastmile_qr_scan", "ios": "https://dc.lft.to/lastmile_qr_scan"}, "fusion_lon": 0.0, "lat": 38.9192025, "bike_id": "f00c17aaf2b154b771cbd19981ce8b7e", "type": "electric_scooter", "is_reserved": 0, "lon": -77.00975033333333}, {"fusion_lat": 0.0, "name": "3ddec875438c30b12bff3669c6892c08", "is_disabled": 0, "rental_uris": {"android": "https://dc.lft.to/lastmile_qr_scan", "ios": "https://dc.lft.to/lastmile_qr_scan"}, "fusion_lon": 0.0, "lat": 38.916538, "bike_id": "3ddec875438c30b12bff3669c6892c08", "type": "electric_scooter", "is_reserved": 0, "lon": -77.02812566666667}, {"fusion_lat": 0.0, "name": "dd5ebfa4d9bebc1c2139b308262f7fdb", "is_disabled": 0, "rental_uris": {"android": "https://dc.lft.to/lastmile_qr_scan", "ios": "https://dc.lft.to/lastmile_qr_scan"}, "fusion_lon": 0.0, "lat": 38.99224383333333, "bike_id": "dd5ebfa4d9bebc1c2139b308262f7fdb", "type": "electric_bike", "is_reserved": 0, "lon": -76.9443515}, {"fusion_lat": 0.0, "name": "b8a4347d30a054f3a212860d381f4512", "is_disabled": 0, "rental_uris": {"android": "https://dc.lft.to/lastmile_qr_scan", "ios": "https://dc.lft.to/lastmile_qr_scan"}, "fusion_lon": 0.0, "lat": 38.917277, "bike_id": "b8a4347d30a054f3a212860d381f4512", "type": "electric_scooter", "is_reserved": 0, "lon": -77.02396816666666}, {"fusion_lat": 0.0, "name": "fa1e9004e09120d0200aa1b3dc4fcfa0", "is_disabled": 0, "rental_uris": {"android": "https://dc.lft.to/lastmile_qr_scan", "ios": "https://dc.lft.to/lastmile_qr_scan"}, "fusion_lon": 0.0, "lat": 38.915215333333336, "bike_id": "fa1e9004e09120d0200aa1b3dc4fcfa0", "type": "electric_scooter", "is_reserved": 0, "lon": -77.01327033333334}, {"fusion_lat": 0.0, "name": "66b07bfa77f28c140e20bd92b31a77cf", "is_disabled": 0, "rental_uris": {"android": "https://dc.lft.to/lastmile_qr_scan", "ios": "https://dc.lft.to/lastmile_qr_scan"}, "fusion_lon": 0.0, "lat": 38.92238066666667, "bike_id": "66b07bfa77f28c140e20bd92b31a77cf", "type": "electric_scooter", "is_reserved": 0, "lon": -77.04646716666667}, {"fusion_lat": 0.0, "name": "34a1fd83a05e1bfbf6aa161d8309e1d7", "is_disabled": 0, "rental_uris": {"android": "https://dc.lft.to/lastmile_qr_scan", "ios": "https://dc.lft.to/lastmile_qr_scan"}, "fusion_lon": 0.0, "lat": 38.95285833333333, "bike_id": "34a1fd83a05e1bfbf6aa161d8309e1d7", "type": "electric_scooter", "is_reserved": 0, "lon": -77.03648133333333}, {"fusion_lat": 0.0, "name": "beaa73c1c75445ef6b151902f9837971", "is_disabled": 0, "rental_uris": {"android": "https://dc.lft.to/lastmile_qr_scan", "ios": "https://dc.lft.to/lastmile_qr_scan"}, "fusion_lon": 0.0, "lat": 38.85519216666667, "bike_id": "beaa73c1c75445ef6b151902f9837971", "type": "electric_bike", "is_reserved": 0, "lon": -77.12012066666666}, {"fusion_lat": 0.0, "name": "9f1aaae2712b5b0f682200db6088312f", "is_disabled": 0, "rental_uris": {"android": "https://dc.lft.to/lastmile_qr_scan", "ios": "https://dc.lft.to/lastmile_qr_scan"}, "fusion_lon": 0.0, "lat": 38.901430166666664, "bike_id": "9f1aaae2712b5b0f682200db6088312f", "type": "electric_scooter", "is_reserved": 0, "lon": -76.99047283333333}, {"fusion_lat": 0.0, "name": "83b378971000cf3366c10947f6aaa9d8", "is_disabled": 0, "rental_uris": {"android": "https://dc.lft.to/lastmile_qr_scan", "ios": "https://dc.lft.to/lastmile_qr_scan"}, "fusion_lon": 0.0, "lat": 38.90685116666667, "bike_id": "83b378971000cf3366c10947f6aaa9d8", "type": "electric_scooter", "is_reserved": 0, "lon": -77.02693733333334}, {"fusion_lat": 0.0, "name": "9fae7f30545200e2777b7486665b6131", "is_disabled": 0, "rental_uris": {"android": "https://dc.lft.to/lastmile_qr_scan", "ios": "https://dc.lft.to/lastmile_qr_scan"}, "fusion_lon": 0.0, "lat": 38.90398283333333, "bike_id": "9fae7f30545200e2777b7486665b6131", "type": "electric_bike", "is_reserved": 0, "lon": -77.02210216666667}, {"fusion_lat": 0.0, "name": "2fce020f6ebd35f21e7bf966d8830872", "is_disabled": 0, "rental_uris": {"android": "https://dc.lft.to/lastmile_qr_scan", "ios": "https://dc.lft.to/lastmile_qr_scan"}, "fusion_lon": 0.0, "lat": 38.8950095, "bike_id": "2fce020f6ebd35f21e7bf966d8830872", "type": "electric_scooter", "is_reserved": 0, "lon": -77.00318466666667}, {"fusion_lat": 0.0, "name": "62fc3cd26035197f10c7189acd1a03e8", "is_disabled": 0, "rental_uris": {"android": "https://dc.lft.to/lastmile_qr_scan", "ios": "https://dc.lft.to/lastmile_qr_scan"}, "fusion_lon": 0.0, "lat": 38.9360395, "bike_id": "62fc3cd26035197f10c7189acd1a03e8", "type": "electric_scooter", "is_reserved": 0, "lon": -77.03785216666667}, {"fusion_lat": 0.0, "name": "5b45a2fbd7d4de1223deeb038d8ed2f6", "is_disabled": 0, "rental_uris": {"android": "https://dc.lft.to/lastmile_qr_scan", "ios": "https://dc.lft.to/lastmile_qr_scan"}, "fusion_lon": 0.0, "lat": 38.9078375, "bike_id": "5b45a2fbd7d4de1223deeb038d8ed2f6", "type": "electric_scooter", "is_reserved": 0, "lon": -77.01121083333334}, {"fusion_lat": 0.0, "name": "ef6df327f21a93294c1c6eb80600622b", "is_disabled": 0, "rental_uris": {"android": "https://dc.lft.to/lastmile_qr_scan", "ios": "https://dc.lft.to/lastmile_qr_scan"}, "fusion_lon": 0.0, "lat": 38.8973445, "bike_id": "ef6df327f21a93294c1c6eb80600622b", "type": "electric_scooter", "is_reserved": 0, "lon": -76.947005}, {"fusion_lat": 0.0, "name": "d857883075835c4a922674bb228238d5", "is_disabled": 0, "rental_uris": {"android": "https://dc.lft.to/lastmile_qr_scan", "ios": "https://dc.lft.to/lastmile_qr_scan"}, "fusion_lon": 0.0, "lat": 38.9234265, "bike_id": "d857883075835c4a922674bb228238d5", "type": "electric_scooter", "is_reserved": 0, "lon": -77.02440333333334}, {"fusion_lat": 0.0, "name": "ee1257a526c40abb90aa4899c68ffa55", "is_disabled": 0, "rental_uris": {"android": "https://dc.lft.to/lastmile_qr_scan", "ios": "https://dc.lft.to/lastmile_qr_scan"}, "fusion_lon": 0.0, "lat": 38.895959, "bike_id": "ee1257a526c40abb90aa4899c68ffa55", "type": "electric_scooter", "is_reserved": 0, "lon": -77.027085}, {"fusion_lat": 0.0, "name": "4a2b029641b213d150df0a1cbe4f2c78", "is_disabled": 0, "rental_uris": {"android": "https://dc.lft.to/lastmile_qr_scan", "ios": "https://dc.lft.to/lastmile_qr_scan"}, "fusion_lon": 0.0, "lat": 38.907203833333334, "bike_id": "4a2b029641b213d150df0a1cbe4f2c78", "type": "electric_scooter", "is_reserved": 0, "lon": -77.0513355}, {"fusion_lat": 0.0, "name": "c01040c85943e44eadbc51afebf661a8", "is_disabled": 0, "rental_uris": {"android": "https://dc.lft.to/lastmile_qr_scan", "ios": "https://dc.lft.to/lastmile_qr_scan"}, "fusion_lon": 0.0, "lat": 38.89911033333333, "bike_id": "c01040c85943e44eadbc51afebf661a8", "type": "electric_scooter", "is_reserved": 0, "lon": -77.0417255}, {"fusion_lat": 0.0, "name": "30c40a43c8f8dada05d3ce459487b00f", "is_disabled": 0, "rental_uris": {"android": "https://dc.lft.to/lastmile_qr_scan", "ios": "https://dc.lft.to/lastmile_qr_scan"}, "fusion_lon": 0.0, "lat": 38.904127333333335, "bike_id": "30c40a43c8f8dada05d3ce459487b00f", "type": "electric_scooter", "is_reserved": 0, "lon": -76.973298}, {"fusion_lat": 0.0, "name": "4e9cea21305d429ee0933a2b353b5651", "is_disabled": 0, "rental_uris": {"android": "https://dc.lft.to/lastmile_qr_scan", "ios": "https://dc.lft.to/lastmile_qr_scan"}, "fusion_lon": 0.0, "lat": 38.87767633333333, "bike_id": "4e9cea21305d429ee0933a2b353b5651", "type": "electric_scooter", "is_reserved": 0, "lon": -76.99382366666667}, {"fusion_lat": 0.0, "name": "b0573765ae6ceeed0de1f452c88579d5", "is_disabled": 0, "rental_uris": {"android": "https://dc.lft.to/lastmile_qr_scan", "ios": "https://dc.lft.to/lastmile_qr_scan"}, "fusion_lon": 0.0, "lat": 38.933092, "bike_id": "b0573765ae6ceeed0de1f452c88579d5", "type": "electric_scooter", "is_reserved": 0, "lon": -77.0307705}, {"fusion_lat": 0.0, "name": "1a30b3a5ed2136af9e10a40c390ca7f7", "is_disabled": 0, "rental_uris": {"android": "https://dc.lft.to/lastmile_qr_scan", "ios": "https://dc.lft.to/lastmile_qr_scan"}, "fusion_lon": 0.0, "lat": 38.90579533333333, "bike_id": "1a30b3a5ed2136af9e10a40c390ca7f7", "type": "electric_scooter", "is_reserved": 0, "lon": -77.0385885}, {"fusion_lat": 0.0, "name": "3d982732af236e1bc0dc19d6ea82d1b8", "is_disabled": 0, "rental_uris": {"android": "https://dc.lft.to/lastmile_qr_scan", "ios": "https://dc.lft.to/lastmile_qr_scan"}, "fusion_lon": 0.0, "lat": 38.9003585, "bike_id": "3d982732af236e1bc0dc19d6ea82d1b8", "type": "electric_scooter", "is_reserved": 0, "lon": -77.039938}, {"fusion_lat": 0.0, "name": "ef21adb43a89ac7fe39c57b1f244a295", "is_disabled": 0, "rental_uris": {"android": "https://dc.lft.to/lastmile_qr_scan", "ios": "https://dc.lft.to/lastmile_qr_scan"}, "fusion_lon": 0.0, "lat": 38.910973, "bike_id": "ef21adb43a89ac7fe39c57b1f244a295", "type": "electric_scooter", "is_reserved": 0, "lon": -77.00360566666667}, {"fusion_lat": 0.0, "name": "3eaa75bdb831a10d67ba2b9dcedd2eaa", "is_disabled": 0, "rental_uris": {"android": "https://dc.lft.to/lastmile_qr_scan", "ios": "https://dc.lft.to/lastmile_qr_scan"}, "fusion_lon": 0.0, "lat": 38.9225225, "bike_id": "3eaa75bdb831a10d67ba2b9dcedd2eaa", "type": "electric_scooter", "is_reserved": 0, "lon": -77.01847166666667}, {"fusion_lat": 0.0, "name": "52fac8535e36fc93989548093ea14799", "is_disabled": 0, "rental_uris": {"android": "https://dc.lft.to/lastmile_qr_scan", "ios": "https://dc.lft.to/lastmile_qr_scan"}, "fusion_lon": 0.0, "lat": 38.892107833333334, "bike_id": "52fac8535e36fc93989548093ea14799", "type": "electric_scooter", "is_reserved": 0, "lon": -76.977019}, {"fusion_lat": 0.0, "name": "920a35b2cc1543200175516e56721223", "is_disabled": 0, "rental_uris": {"android": "https://dc.lft.to/lastmile_qr_scan", "ios": "https://dc.lft.to/lastmile_qr_scan"}, "fusion_lon": 0.0, "lat": 38.86214, "bike_id": "920a35b2cc1543200175516e56721223", "type": "electric_bike", "is_reserved": 0, "lon": -76.99573666666667}, {"fusion_lat": 0.0, "name": "5fc5436bbcffcc975294bc42ff6852f9", "is_disabled": 0, "rental_uris": {"android": "https://dc.lft.to/lastmile_qr_scan", "ios": "https://dc.lft.to/lastmile_qr_scan"}, "fusion_lon": 0.0, "lat": 38.9052545, "bike_id": "5fc5436bbcffcc975294bc42ff6852f9", "type": "electric_scooter", "is_reserved": 0, "lon": -77.0566075}, {"fusion_lat": 0.0, "name": "10f1b6f8836a066358c6ee304c6dcc83", "is_disabled": 0, "rental_uris": {"android": "https://dc.lft.to/lastmile_qr_scan", "ios": "https://dc.lft.to/lastmile_qr_scan"}, "fusion_lon": 0.0, "lat": 38.90829166666666, "bike_id": "10f1b6f8836a066358c6ee304c6dcc83", "type": "electric_scooter", "is_reserved": 0, "lon": -76.98422633333334}, {"fusion_lat": 0.0, "name": "0ea2228803dfc9bd9174c282b5a78957", "is_disabled": 0, "rental_uris": {"android": "https://dc.lft.to/lastmile_qr_scan", "ios": "https://dc.lft.to/lastmile_qr_scan"}, "fusion_lon": 0.0, "lat": 38.91664383333333, "bike_id": "0ea2228803dfc9bd9174c282b5a78957", "type": "electric_scooter", "is_reserved": 0, "lon": -77.03847816666666}, {"fusion_lat": 0.0, "name": "56feb6a25e99708b89c9ef0dd7566a64", "is_disabled": 0, "rental_uris": {"android": "https://dc.lft.to/lastmile_qr_scan", "ios": "https://dc.lft.to/lastmile_qr_scan"}, "fusion_lon": 0.0, "lat": 38.910401666666665, "bike_id": "56feb6a25e99708b89c9ef0dd7566a64", "type": "electric_scooter", "is_reserved": 0, "lon": -77.04096866666667}, {"fusion_lat": 0.0, "name": "9f1a940c6a2a4b99749bec0fa3d69e12", "is_disabled": 0, "rental_uris": {"android": "https://dc.lft.to/lastmile_qr_scan", "ios": "https://dc.lft.to/lastmile_qr_scan"}, "fusion_lon": 0.0, "lat": 38.91125016666667, "bike_id": "9f1a940c6a2a4b99749bec0fa3d69e12", "type": "electric_scooter", "is_reserved": 0, "lon": -77.02197933333333}, {"fusion_lat": 0.0, "name": "24fd4ad68f80b15359804991570fbf28", "is_disabled": 0, "rental_uris": {"android": "https://dc.lft.to/lastmile_qr_scan", "ios": "https://dc.lft.to/lastmile_qr_scan"}, "fusion_lon": 0.0, "lat": 38.905562, "bike_id": "24fd4ad68f80b15359804991570fbf28", "type": "electric_scooter", "is_reserved": 0, "lon": -77.04649166666667}, {"fusion_lat": 0.0, "name": "3f90406f36bc23ec96aff92be28fc0f8", "is_disabled": 0, "rental_uris": {"android": "https://dc.lft.to/lastmile_qr_scan", "ios": "https://dc.lft.to/lastmile_qr_scan"}, "fusion_lon": 0.0, "lat": 38.90622966666667, "bike_id": "3f90406f36bc23ec96aff92be28fc0f8", "type": "electric_scooter", "is_reserved": 0, "lon": -77.0241035}, {"fusion_lat": 0.0, "name": "0c466c342eef5ce16edbc4e48604c074", "is_disabled": 0, "rental_uris": {"android": "https://dc.lft.to/lastmile_qr_scan", "ios": "https://dc.lft.to/lastmile_qr_scan"}, "fusion_lon": 0.0, "lat": 38.93397316666667, "bike_id": "0c466c342eef5ce16edbc4e48604c074", "type": "electric_scooter", "is_reserved": 0, "lon": -77.05745133333333}, {"fusion_lat": 0.0, "name": "04d80ea28332ec16b9d7f24a530f7d41", "is_disabled": 0, "rental_uris": {"android": "https://dc.lft.to/lastmile_qr_scan", "ios": "https://dc.lft.to/lastmile_qr_scan"}, "fusion_lon": 0.0, "lat": 38.920761166666665, "bike_id": "04d80ea28332ec16b9d7f24a530f7d41", "type": "electric_scooter", "is_reserved": 0, "lon": -77.02424983333333}, {"fusion_lat": 0.0, "name": "f3eb155bc1e58de4ad49ec3f377ed150", "is_disabled": 0, "rental_uris": {"android": "https://dc.lft.to/lastmile_qr_scan", "ios": "https://dc.lft.to/lastmile_qr_scan"}, "fusion_lon": 0.0, "lat": 38.86304033333333, "bike_id": "f3eb155bc1e58de4ad49ec3f377ed150", "type": "electric_bike", "is_reserved": 0, "lon": -77.05472016666667}, {"fusion_lat": 0.0, "name": "33cfc58cd1750c6b8ee03e1978eed24d", "is_disabled": 0, "rental_uris": {"android": "https://dc.lft.to/lastmile_qr_scan", "ios": "https://dc.lft.to/lastmile_qr_scan"}, "fusion_lon": 0.0, "lat": 38.950557833333335, "bike_id": "33cfc58cd1750c6b8ee03e1978eed24d", "type": "electric_scooter", "is_reserved": 0, "lon": -77.080314}, {"fusion_lat": 0.0, "name": "f9715166ca8c75481d9c0dd445cc702b", "is_disabled": 0, "rental_uris": {"android": "https://dc.lft.to/lastmile_qr_scan", "ios": "https://dc.lft.to/lastmile_qr_scan"}, "fusion_lon": 0.0, "lat": 38.88595216666667, "bike_id": "f9715166ca8c75481d9c0dd445cc702b", "type": "electric_scooter", "is_reserved": 0, "lon": -77.01722483333333}, {"fusion_lat": 0.0, "name": "ce928dfd3953a855fc3a8a0c2f7c539f", "is_disabled": 0, "rental_uris": {"android": "https://dc.lft.to/lastmile_qr_scan", "ios": "https://dc.lft.to/lastmile_qr_scan"}, "fusion_lon": 0.0, "lat": 38.896151, "bike_id": "ce928dfd3953a855fc3a8a0c2f7c539f", "type": "electric_bike", "is_reserved": 0, "lon": -76.907377}, {"fusion_lat": 0.0, "name": "5dae678fac7c7900c6c73af1ea8cd8a4", "is_disabled": 0, "rental_uris": {"android": "https://dc.lft.to/lastmile_qr_scan", "ios": "https://dc.lft.to/lastmile_qr_scan"}, "fusion_lon": 0.0, "lat": 38.916587, "bike_id": "5dae678fac7c7900c6c73af1ea8cd8a4", "type": "electric_scooter", "is_reserved": 0, "lon": -77.02819566666666}, {"fusion_lat": 0.0, "name": "42f3306bbeb4a29a4d80216a6c46675f", "is_disabled": 0, "rental_uris": {"android": "https://dc.lft.to/lastmile_qr_scan", "ios": "https://dc.lft.to/lastmile_qr_scan"}, "fusion_lon": 0.0, "lat": 38.87879566666667, "bike_id": "42f3306bbeb4a29a4d80216a6c46675f", "type": "electric_scooter", "is_reserved": 0, "lon": -77.02227366666666}, {"fusion_lat": 0.0, "name": "20908ecb01cdced8a1f5f5df6297971e", "is_disabled": 0, "rental_uris": {"android": "https://dc.lft.to/lastmile_qr_scan", "ios": "https://dc.lft.to/lastmile_qr_scan"}, "fusion_lon": 0.0, "lat": 38.92748733333333, "bike_id": "20908ecb01cdced8a1f5f5df6297971e", "type": "electric_scooter", "is_reserved": 0, "lon": -77.0253485}, {"fusion_lat": 0.0, "name": "4e9bf514e8b981cef97d4f2b1c9e8e41", "is_disabled": 0, "rental_uris": {"android": "https://dc.lft.to/lastmile_qr_scan", "ios": "https://dc.lft.to/lastmile_qr_scan"}, "fusion_lon": 0.0, "lat": 38.92675033333333, "bike_id": "4e9bf514e8b981cef97d4f2b1c9e8e41", "type": "electric_scooter", "is_reserved": 0, "lon": -77.0149455}, {"fusion_lat": 0.0, "name": "c8aad75a1e391ce1f66ad768d0144ffd", "is_disabled": 0, "rental_uris": {"android": "https://dc.lft.to/lastmile_qr_scan", "ios": "https://dc.lft.to/lastmile_qr_scan"}, "fusion_lon": 0.0, "lat": 38.92336233333333, "bike_id": "c8aad75a1e391ce1f66ad768d0144ffd", "type": "electric_scooter", "is_reserved": 0, "lon": -77.052972}, {"fusion_lat": 0.0, "name": "65628565a768500c465197d3174b2219", "is_disabled": 0, "rental_uris": {"android": "https://dc.lft.to/lastmile_qr_scan", "ios": "https://dc.lft.to/lastmile_qr_scan"}, "fusion_lon": 0.0, "lat": 38.89219466666667, "bike_id": "65628565a768500c465197d3174b2219", "type": "electric_scooter", "is_reserved": 0, "lon": -77.04865933333333}, {"fusion_lat": 0.0, "name": "a9a7e805353e68c3a22f7a5afcfa9b6f", "is_disabled": 0, "rental_uris": {"android": "https://dc.lft.to/lastmile_qr_scan", "ios": "https://dc.lft.to/lastmile_qr_scan"}, "fusion_lon": 0.0, "lat": 38.855959166666665, "bike_id": "a9a7e805353e68c3a22f7a5afcfa9b6f", "type": "electric_scooter", "is_reserved": 0, "lon": -76.97268766666667}, {"fusion_lat": 0.0, "name": "7a9872436f5645941e0075d380cc68a6", "is_disabled": 0, "rental_uris": {"android": "https://dc.lft.to/lastmile_qr_scan", "ios": "https://dc.lft.to/lastmile_qr_scan"}, "fusion_lon": 0.0, "lat": 38.898248333333335, "bike_id": "7a9872436f5645941e0075d380cc68a6", "type": "electric_scooter", "is_reserved": 0, "lon": -77.04650283333334}, {"fusion_lat": 0.0, "name": "a354e03eed389d495f7ad1966965043b", "is_disabled": 0, "rental_uris": {"android": "https://dc.lft.to/lastmile_qr_scan", "ios": "https://dc.lft.to/lastmile_qr_scan"}, "fusion_lon": 0.0, "lat": 38.89638583333333, "bike_id": "a354e03eed389d495f7ad1966965043b", "type": "electric_scooter", "is_reserved": 0, "lon": -77.0239695}, {"fusion_lat": 0.0, "name": "0760ae85ed93184a6fe9f1e734a2c5cf", "is_disabled": 0, "rental_uris": {"android": "https://dc.lft.to/lastmile_qr_scan", "ios": "https://dc.lft.to/lastmile_qr_scan"}, "fusion_lon": 0.0, "lat": 38.93766333333333, "bike_id": "0760ae85ed93184a6fe9f1e734a2c5cf", "type": "electric_scooter", "is_reserved": 0, "lon": -77.02076483333333}, {"fusion_lat": 0.0, "name": "47d65208044cc66d13691cace53f063d", "is_disabled": 0, "rental_uris": {"android": "https://dc.lft.to/lastmile_qr_scan", "ios": "https://dc.lft.to/lastmile_qr_scan"}, "fusion_lon": 0.0, "lat": 38.89013516666667, "bike_id": "47d65208044cc66d13691cace53f063d", "type": "electric_scooter", "is_reserved": 0, "lon": -76.93741583333333}, {"fusion_lat": 0.0, "name": "6a68a37a207ece3847e100b19a60b478", "is_disabled": 0, "rental_uris": {"android": "https://dc.lft.to/lastmile_qr_scan", "ios": "https://dc.lft.to/lastmile_qr_scan"}, "fusion_lon": 0.0, "lat": 38.92603883333334, "bike_id": "6a68a37a207ece3847e100b19a60b478", "type": "electric_scooter", "is_reserved": 0, "lon": -77.039636}, {"fusion_lat": 0.0, "name": "d657d695c14e32ddfe2d1609e5fa8bbf", "is_disabled": 0, "rental_uris": {"android": "https://dc.lft.to/lastmile_qr_scan", "ios": "https://dc.lft.to/lastmile_qr_scan"}, "fusion_lon": 0.0, "lat": 38.9181905, "bike_id": "d657d695c14e32ddfe2d1609e5fa8bbf", "type": "electric_scooter", "is_reserved": 0, "lon": -77.025298}, {"fusion_lat": 0.0, "name": "b63458f3e14ab6b7003f790b5db70cb3", "is_disabled": 0, "rental_uris": {"android": "https://dc.lft.to/lastmile_qr_scan", "ios": "https://dc.lft.to/lastmile_qr_scan"}, "fusion_lon": 0.0, "lat": 38.80754483333333, "bike_id": "b63458f3e14ab6b7003f790b5db70cb3", "type": "electric_bike", "is_reserved": 0, "lon": -77.0945075}, {"fusion_lat": 0.0, "name": "b38c358b41630be9cd479836fd2a5e60", "is_disabled": 0, "rental_uris": {"android": "https://dc.lft.to/lastmile_qr_scan", "ios": "https://dc.lft.to/lastmile_qr_scan"}, "fusion_lon": 0.0, "lat": 38.89944066666666, "bike_id": "b38c358b41630be9cd479836fd2a5e60", "type": "electric_scooter", "is_reserved": 0, "lon": -77.05002266666666}, {"fusion_lat": 0.0, "name": "8bfd16e0d13d530cd615ad52d012950d", "is_disabled": 0, "rental_uris": {"android": "https://dc.lft.to/lastmile_qr_scan", "ios": "https://dc.lft.to/lastmile_qr_scan"}, "fusion_lon": 0.0, "lat": 38.900282833333335, "bike_id": "8bfd16e0d13d530cd615ad52d012950d", "type": "electric_scooter", "is_reserved": 0, "lon": -77.03626783333333}, {"fusion_lat": 0.0, "name": "4def44407753fd957b8a3fb167aa7292", "is_disabled": 0, "rental_uris": {"android": "https://dc.lft.to/lastmile_qr_scan", "ios": "https://dc.lft.to/lastmile_qr_scan"}, "fusion_lon": 0.0, "lat": 38.941565, "bike_id": "4def44407753fd957b8a3fb167aa7292", "type": "electric_bike", "is_reserved": 0, "lon": -77.0019445}, {"fusion_lat": 0.0, "name": "5bc38f3942d2a98ab0ce20f7908b1fb2", "is_disabled": 0, "rental_uris": {"android": "https://dc.lft.to/lastmile_qr_scan", "ios": "https://dc.lft.to/lastmile_qr_scan"}, "fusion_lon": 0.0, "lat": 38.987682, "bike_id": "5bc38f3942d2a98ab0ce20f7908b1fb2", "type": "electric_bike", "is_reserved": 0, "lon": -77.140574}, {"fusion_lat": 0.0, "name": "59c530893bbcc039297c34521c50e7ad", "is_disabled": 0, "rental_uris": {"android": "https://dc.lft.to/lastmile_qr_scan", "ios": "https://dc.lft.to/lastmile_qr_scan"}, "fusion_lon": 0.0, "lat": 38.9041345, "bike_id": "59c530893bbcc039297c34521c50e7ad", "type": "electric_scooter", "is_reserved": 0, "lon": -76.97329866666666}, {"fusion_lat": 0.0, "name": "be4fc15536a0ffcce8d761be52ff38e0", "is_disabled": 0, "rental_uris": {"android": "https://dc.lft.to/lastmile_qr_scan", "ios": "https://dc.lft.to/lastmile_qr_scan"}, "fusion_lon": 0.0, "lat": 38.957451, "bike_id": "be4fc15536a0ffcce8d761be52ff38e0", "type": "electric_bike", "is_reserved": 0, "lon": -77.00225483333334}, {"fusion_lat": 0.0, "name": "e88a6801f9c3a17a8a50d6d3719a8b22", "is_disabled": 0, "rental_uris": {"android": "https://dc.lft.to/lastmile_qr_scan", "ios": "https://dc.lft.to/lastmile_qr_scan"}, "fusion_lon": 0.0, "lat": 38.9275355, "bike_id": "e88a6801f9c3a17a8a50d6d3719a8b22", "type": "electric_scooter", "is_reserved": 0, "lon": -77.03300933333334}, {"fusion_lat": 0.0, "name": "ed9636213c49f5e9ed298139e0eafa5f", "is_disabled": 0, "rental_uris": {"android": "https://dc.lft.to/lastmile_qr_scan", "ios": "https://dc.lft.to/lastmile_qr_scan"}, "fusion_lon": 0.0, "lat": 38.9070575, "bike_id": "ed9636213c49f5e9ed298139e0eafa5f", "type": "electric_scooter", "is_reserved": 0, "lon": -77.02403866666667}, {"fusion_lat": 0.0, "name": "02eeac9db92ef6449f46b89c01fc95bc", "is_disabled": 0, "rental_uris": {"android": "https://dc.lft.to/lastmile_qr_scan", "ios": "https://dc.lft.to/lastmile_qr_scan"}, "fusion_lon": 0.0, "lat": 38.876601, "bike_id": "02eeac9db92ef6449f46b89c01fc95bc", "type": "electric_scooter", "is_reserved": 0, "lon": -77.0091645}, {"fusion_lat": 0.0, "name": "3f91420571952b02fa490977f836c997", "is_disabled": 0, "rental_uris": {"android": "https://dc.lft.to/lastmile_qr_scan", "ios": "https://dc.lft.to/lastmile_qr_scan"}, "fusion_lon": 0.0, "lat": 38.9291625, "bike_id": "3f91420571952b02fa490977f836c997", "type": "electric_scooter", "is_reserved": 0, "lon": -77.02338483333334}, {"fusion_lat": 0.0, "name": "d786d783732be780ab52c67780bd4f42", "is_disabled": 0, "rental_uris": {"android": "https://dc.lft.to/lastmile_qr_scan", "ios": "https://dc.lft.to/lastmile_qr_scan"}, "fusion_lon": 0.0, "lat": 38.914547, "bike_id": "d786d783732be780ab52c67780bd4f42", "type": "electric_scooter", "is_reserved": 0, "lon": -77.03208866666667}, {"fusion_lat": 0.0, "name": "3a73e2d4c241b9a2652929a4cfc886dd", "is_disabled": 0, "rental_uris": {"android": "https://dc.lft.to/lastmile_qr_scan", "ios": "https://dc.lft.to/lastmile_qr_scan"}, "fusion_lon": 0.0, "lat": 38.958823833333334, "bike_id": "3a73e2d4c241b9a2652929a4cfc886dd", "type": "electric_scooter", "is_reserved": 0, "lon": -77.011694}, {"fusion_lat": 0.0, "name": "e78db7a5c436fd8b6dbbb70cd9f5440e", "is_disabled": 0, "rental_uris": {"android": "https://dc.lft.to/lastmile_qr_scan", "ios": "https://dc.lft.to/lastmile_qr_scan"}, "fusion_lon": 0.0, "lat": 38.88230433333333, "bike_id": "e78db7a5c436fd8b6dbbb70cd9f5440e", "type": "electric_scooter", "is_reserved": 0, "lon": -77.02614033333333}, {"fusion_lat": 0.0, "name": "b030a2b6c50790fcfdfbc6b2798b8d24", "is_disabled": 0, "rental_uris": {"android": "https://dc.lft.to/lastmile_qr_scan", "ios": "https://dc.lft.to/lastmile_qr_scan"}, "fusion_lon": 0.0, "lat": 38.915619, "bike_id": "b030a2b6c50790fcfdfbc6b2798b8d24", "type": "electric_scooter", "is_reserved": 0, "lon": -77.03227}, {"fusion_lat": 0.0, "name": "a399f991b3c991b26aeaa13ea5579cfc", "is_disabled": 0, "rental_uris": {"android": "https://dc.lft.to/lastmile_qr_scan", "ios": "https://dc.lft.to/lastmile_qr_scan"}, "fusion_lon": 0.0, "lat": 38.879128, "bike_id": "a399f991b3c991b26aeaa13ea5579cfc", "type": "electric_scooter", "is_reserved": 0, "lon": -77.00884433333333}, {"fusion_lat": 0.0, "name": "d438ff267de617dbcbd25fd0b6918062", "is_disabled": 0, "rental_uris": {"android": "https://dc.lft.to/lastmile_qr_scan", "ios": "https://dc.lft.to/lastmile_qr_scan"}, "fusion_lon": 0.0, "lat": 38.91548016666667, "bike_id": "d438ff267de617dbcbd25fd0b6918062", "type": "electric_scooter", "is_reserved": 0, "lon": -77.03236133333333}, {"fusion_lat": 0.0, "name": "51240a5fdaa13f7d749c33493b1fca7e", "is_disabled": 0, "rental_uris": {"android": "https://dc.lft.to/lastmile_qr_scan", "ios": "https://dc.lft.to/lastmile_qr_scan"}, "fusion_lon": 0.0, "lat": 38.929693, "bike_id": "51240a5fdaa13f7d749c33493b1fca7e", "type": "electric_scooter", "is_reserved": 0, "lon": -77.05519983333333}, {"fusion_lat": 0.0, "name": "97283face2f9c9d326784da7c752fa40", "is_disabled": 0, "rental_uris": {"android": "https://dc.lft.to/lastmile_qr_scan", "ios": "https://dc.lft.to/lastmile_qr_scan"}, "fusion_lon": 0.0, "lat": 38.924840333333336, "bike_id": "97283face2f9c9d326784da7c752fa40", "type": "electric_scooter", "is_reserved": 0, "lon": -77.02653483333333}, {"fusion_lat": 0.0, "name": "60bcaf891ce9411dcba0d4331bf64370", "is_disabled": 0, "rental_uris": {"android": "https://dc.lft.to/lastmile_qr_scan", "ios": "https://dc.lft.to/lastmile_qr_scan"}, "fusion_lon": 0.0, "lat": 38.910293833333334, "bike_id": "60bcaf891ce9411dcba0d4331bf64370", "type": "electric_scooter", "is_reserved": 0, "lon": -77.0150955}, {"fusion_lat": 0.0, "name": "65a22bd8164be0ec4db158e2466dded4", "is_disabled": 0, "rental_uris": {"android": "https://dc.lft.to/lastmile_qr_scan", "ios": "https://dc.lft.to/lastmile_qr_scan"}, "fusion_lon": 0.0, "lat": 38.88750066666667, "bike_id": "65a22bd8164be0ec4db158e2466dded4", "type": "electric_scooter", "is_reserved": 0, "lon": -77.02575966666667}, {"fusion_lat": 0.0, "name": "1485ad12cb5456202cdafa810c4352d1", "is_disabled": 0, "rental_uris": {"android": "https://dc.lft.to/lastmile_qr_scan", "ios": "https://dc.lft.to/lastmile_qr_scan"}, "fusion_lon": 0.0, "lat": 38.916616833333336, "bike_id": "1485ad12cb5456202cdafa810c4352d1", "type": "electric_scooter", "is_reserved": 0, "lon": -77.04392316666667}, {"fusion_lat": 0.0, "name": "c36bdf3f0642f7386420cddb4b911067", "is_disabled": 0, "rental_uris": {"android": "https://dc.lft.to/lastmile_qr_scan", "ios": "https://dc.lft.to/lastmile_qr_scan"}, "fusion_lon": 0.0, "lat": 38.898611, "bike_id": "c36bdf3f0642f7386420cddb4b911067", "type": "electric_scooter", "is_reserved": 0, "lon": -77.02813583333334}, {"fusion_lat": 0.0, "name": "65b7eef3a24830a10dcc35c86c4c7ee1", "is_disabled": 0, "rental_uris": {"android": "https://dc.lft.to/lastmile_qr_scan", "ios": "https://dc.lft.to/lastmile_qr_scan"}, "fusion_lon": 0.0, "lat": 38.92400333333333, "bike_id": "65b7eef3a24830a10dcc35c86c4c7ee1", "type": "electric_scooter", "is_reserved": 0, "lon": -77.024141}, {"fusion_lat": 0.0, "name": "4506bd0e19e12721bd20c21d6d47321a", "is_disabled": 0, "rental_uris": {"android": "https://dc.lft.to/lastmile_qr_scan", "ios": "https://dc.lft.to/lastmile_qr_scan"}, "fusion_lon": 0.0, "lat": 38.91700783333334, "bike_id": "4506bd0e19e12721bd20c21d6d47321a", "type": "electric_scooter", "is_reserved": 0, "lon": -77.03594516666666}, {"fusion_lat": 0.0, "name": "6dcfe6a847d36ed832b0a021ab8b376f", "is_disabled": 0, "rental_uris": {"android": "https://dc.lft.to/lastmile_qr_scan", "ios": "https://dc.lft.to/lastmile_qr_scan"}, "fusion_lon": 0.0, "lat": 38.916166, "bike_id": "6dcfe6a847d36ed832b0a021ab8b376f", "type": "electric_scooter", "is_reserved": 0, "lon": -77.02954283333334}, {"fusion_lat": 0.0, "name": "beed4ba7b82db9c2caf5fbf152258e81", "is_disabled": 0, "rental_uris": {"android": "https://dc.lft.to/lastmile_qr_scan", "ios": "https://dc.lft.to/lastmile_qr_scan"}, "fusion_lon": 0.0, "lat": 39.05632416666667, "bike_id": "beed4ba7b82db9c2caf5fbf152258e81", "type": "electric_bike", "is_reserved": 0, "lon": -77.125267}, {"fusion_lat": 0.0, "name": "a9412e9262b4925f3ac2dcb4eebbe124", "is_disabled": 0, "rental_uris": {"android": "https://dc.lft.to/lastmile_qr_scan", "ios": "https://dc.lft.to/lastmile_qr_scan"}, "fusion_lon": 0.0, "lat": 38.9338265, "bike_id": "a9412e9262b4925f3ac2dcb4eebbe124", "type": "electric_scooter", "is_reserved": 0, "lon": -77.0268565}, {"fusion_lat": 0.0, "name": "965b8fc3a2785924cc8e0e87eb404c2c", "is_disabled": 0, "rental_uris": {"android": "https://dc.lft.to/lastmile_qr_scan", "ios": "https://dc.lft.to/lastmile_qr_scan"}, "fusion_lon": 0.0, "lat": 38.92177866666667, "bike_id": "965b8fc3a2785924cc8e0e87eb404c2c", "type": "electric_scooter", "is_reserved": 0, "lon": -76.99789416666667}, {"fusion_lat": 0.0, "name": "bdcd8b40a8cda8d662b2071a29ffc24c", "is_disabled": 0, "rental_uris": {"android": "https://dc.lft.to/lastmile_qr_scan", "ios": "https://dc.lft.to/lastmile_qr_scan"}, "fusion_lon": 0.0, "lat": 38.905122666666664, "bike_id": "bdcd8b40a8cda8d662b2071a29ffc24c", "type": "electric_scooter", "is_reserved": 0, "lon": -77.0687265}, {"fusion_lat": 0.0, "name": "732ee05cddf8ca9090c81dc01bc3c9ef", "is_disabled": 0, "rental_uris": {"android": "https://dc.lft.to/lastmile_qr_scan", "ios": "https://dc.lft.to/lastmile_qr_scan"}, "fusion_lon": 0.0, "lat": 38.9192415, "bike_id": "732ee05cddf8ca9090c81dc01bc3c9ef", "type": "electric_scooter", "is_reserved": 0, "lon": -77.03425816666666}, {"fusion_lat": 0.0, "name": "5c9530b9c0e6b6b73463ea860ff91330", "is_disabled": 0, "rental_uris": {"android": "https://dc.lft.to/lastmile_qr_scan", "ios": "https://dc.lft.to/lastmile_qr_scan"}, "fusion_lon": 0.0, "lat": 38.9126865, "bike_id": "5c9530b9c0e6b6b73463ea860ff91330", "type": "electric_scooter", "is_reserved": 0, "lon": -77.04931233333333}, {"fusion_lat": 0.0, "name": "0524b8a0484dc81e27468070224a91cc", "is_disabled": 0, "rental_uris": {"android": "https://dc.lft.to/lastmile_qr_scan", "ios": "https://dc.lft.to/lastmile_qr_scan"}, "fusion_lon": 0.0, "lat": 38.90457416666667, "bike_id": "0524b8a0484dc81e27468070224a91cc", "type": "electric_scooter", "is_reserved": 0, "lon": -77.03358433333334}, {"fusion_lat": 0.0, "name": "253015423f1cb7476d124274ba7c33e7", "is_disabled": 0, "rental_uris": {"android": "https://dc.lft.to/lastmile_qr_scan", "ios": "https://dc.lft.to/lastmile_qr_scan"}, "fusion_lon": 0.0, "lat": 38.8900625, "bike_id": "253015423f1cb7476d124274ba7c33e7", "type": "electric_scooter", "is_reserved": 0, "lon": -76.93747233333333}, {"fusion_lat": 0.0, "name": "1b3f928e48a780a38d2774d69a47d961", "is_disabled": 0, "rental_uris": {"android": "https://dc.lft.to/lastmile_qr_scan", "ios": "https://dc.lft.to/lastmile_qr_scan"}, "fusion_lon": 0.0, "lat": 38.913625, "bike_id": "1b3f928e48a780a38d2774d69a47d961", "type": "electric_scooter", "is_reserved": 0, "lon": -77.04872383333333}, {"fusion_lat": 0.0, "name": "3cc3e26f381fc5a554d39170825bc99c", "is_disabled": 0, "rental_uris": {"android": "https://dc.lft.to/lastmile_qr_scan", "ios": "https://dc.lft.to/lastmile_qr_scan"}, "fusion_lon": 0.0, "lat": 38.88892833333333, "bike_id": "3cc3e26f381fc5a554d39170825bc99c", "type": "electric_scooter", "is_reserved": 0, "lon": -77.01509966666667},