{"data": {"bikes": [{"is_disabled": 0, "fusion_lon": 0.0, "fusion_lat": 0.0, "lat": 38.99225366666667, "type": "electric_bike", "lon": -76.8777165, "bike_id": "6509079a0c5156bac7a468a7ddddfbe9", "rental_uris": {"android": "https://dc.lft.to/lastmile_qr_scan", "ios": "https://dc.lft.to/lastmile_qr_scan"}, "name": "6509079a0c5156bac7a468a7ddddfbe9", "is_reserved": 0}, {"is_disabled": 0, "fusion_lon": 0.0, "fusion_lat": 0.0, "lat": 38.88740716666667, "type": "electric_scooter", "lon": -77.02858383333333, "bike_id": "be9ba0f5c873da04385e3d4a1260e07c", "rental_uris": {"android": "https://dc.lft.to/lastmile_qr_scan", "ios": "https://dc.lft.to/lastmile_qr_scan"}, "name": "be9ba0f5c873da04385e3d4a1260e07c", "is_reserved": 0}, {"is_disabled": 0, "fusion_lon": 0.0, "fusion_lat": 0.0, "lat": 38.908283833333336, "type": "electric_bike", "lon": -76.9415775, "bike_id": "19bc872db93a82a266f3de0fc0c5ad57", "rental_uris": {"android": "https://dc.lft.to/lastmile_qr_scan", "ios": "https://dc.lft.to/lastmile_qr_scan"}, "name": "19bc872db93a82a266f3de0fc0c5ad57", "is_reserved": 0}, {"is_disabled": 0, "fusion_lon": 0.0, "fusion_lat": 0.0, "lat": 38.889731, "type": "electric_bike", "lon": -76.9486275, "bike_id": "4b3a5fa771b1ee5ea58095bed0603086", "rental_uris": {"android": "https://dc.lft.to/lastmile_qr_scan", "ios": "https://dc.lft.to/lastmile_qr_scan"}, "name": "4b3a5fa771b1ee5ea58095bed0603086", "is_reserved": 0}, {"is_disabled": 0, "fusion_lon": 0.0, "fusion_lat": 0.0, "lat": 38.88821766666667, "type": "electric_bike", "lon": -77.12743383333333, "bike_id": "bf843b33dfc31357f3a86a06c3cc45d2", "rental_uris": {"android": "https://dc.lft.to/lastmile_qr_scan", "ios": "https://dc.lft.to/lastmile_qr_scan"}, "name": "bf843b33dfc31357f3a86a06c3cc45d2", "is_reserved": 0}, {"is_disabled": 0, "fusion_lon": 0.0, "fusion_lat": 0.0, "lat": 38.91838466666667, "type": "electric_scooter", "lon": -77.02294383333333, "bike_id": "242d26fa10e70aeab5dec056611a699d", "rental_uris": {"android": "https://dc.lft.to/lastmile_qr_scan", "ios": "https://dc.lft.to/lastmile_qr_scan"}, "name": "242d26fa10e70aeab5dec056611a699d", "is_reserved": 0}, {"is_disabled": 0, "fusion_lon": 0.0, "fusion_lat": 0.0, "lat": 38.9078805, "type": "electric_scooter", "lon": -77.03260616666667, "bike_id": "ddf0c1f7f99d7a822ab3632b5ab5343f", "rental_uris": {"android": "https://dc.lft.to/lastmile_qr_scan", "ios": "https://dc.lft.to/lastmile_qr_scan"}, "name": "ddf0c1f7f99d7a822ab3632b5ab5343f", "is_reserved": 0}, {"is_disabled": 0, "fusion_lon": 0.0, "fusion_lat": 0.0, "lat": 38.90359816666667, "type": "electric_scooter", "lon": -77.0436025, "bike_id": "e796d4e90305c95179e8548764f40a9d", "rental_uris": {"android": "https://dc.lft.to/lastmile_qr_scan", "ios": "https://dc.lft.to/lastmile_qr_scan"}, "name": "e796d4e90305c95179e8548764f40a9d", "is_reserved": 0}, {"is_disabled": 0, "fusion_lon": 0.0, "fusion_lat": 0.0, "lat": 38.9757025, "type": "electric_bike", "lon": -76.96407316666667, "bike_id": "446b0460100b9cb7ad8aeb3d560a35da", "rental_uris": {"android": "https://dc.lft.to/lastmile_qr_scan", "ios": "https://dc.lft.to/lastmile_qr_scan"}, "name": "446b0460100b9cb7ad8aeb3d560a35da", "is_reserved": 0}, {"is_disabled": 0, "fusion_lon": 0.0, "fusion_lat": 0.0, "lat": 38.93295066666667, "type": "electric_scooter", "lon": -77.0239105, "bike_id": "00b0953878f2bd6abef3097cf48ff3a3", "rental_uris": {"android": "https://dc.lft.to/lastmile_qr_scan", "ios": "https://dc.lft.to/lastmile_qr_scan"}, "name": "00b0953878f2bd6abef3097cf48ff3a3", "is_reserved": 0}, {"is_disabled": 0, "fusion_lon": 0.0, "fusion_lat": 0.0, "lat": 38.90874866666667, "type": "electric_scooter", "lon": -77.02693216666667, "bike_id": "2943d7af282295f2de337139ebdf9f06", "rental_uris": {"android": "https://dc.lft.to/lastmile_qr_scan", "ios": "https://dc.lft.to/lastmile_qr_scan"}, "name": "2943d7af282295f2de337139ebdf9f06", "is_reserved": 0}, {"is_disabled": 0, "fusion_lon": 0.0, "fusion_lat": 0.0, "lat": 38.90713783333333, "type": "electric_scooter", "lon": -77.02712233333334, "bike_id": "a8daf212929df2d1047f35900a9c13ae", "rental_uris": {"android": "https://dc.lft.to/lastmile_qr_scan", "ios": "https://dc.lft.to/lastmile_qr_scan"}, "name": "a8daf212929df2d1047f35900a9c13ae", "is_reserved": 0}, {"is_disabled": 0, "fusion_lon": 0.0, "fusion_lat": 0.0, "lat": 38.84510566666667, "type": "electric_bike", "lon": -76.9721535, "bike_id": "62a21ca9587e5390279c1ec5ce24a749", "rental_uris": {"android": "https://dc.lft.to/lastmile_qr_scan", "ios": "https://dc.lft.to/lastmile_qr_scan"}, "name": "62a21ca9587e5390279c1ec5ce24a749", "is_reserved": 0}, {"is_disabled": 0, "fusion_lon": 0.0, "fusion_lat": 0.0, "lat": 38.90904916666667, "type": "electric_scooter", "lon": -77.027162, "bike_id": "254a86c5f471a4af352978d8c645d916", "rental_uris": {"android": "https://dc.lft.to/lastmile_qr_scan", "ios": "https://dc.lft.to/lastmile_qr_scan"}, "name": "254a86c5f471a4af352978d8c645d916", "is_reserved": 0}, {"is_disabled": 0, "fusion_lon": 0.0, "fusion_lat": 0.0, "lat": 38.919882, "type": "electric_scooter", "lon": -77.0415645, "bike_id": "40c1b600e9701ed4937f4397ded80bac", "rental_uris": {"android": "https://dc.lft.to/lastmile_qr_scan", "ios": "https://dc.lft.to/lastmile_qr_scan"}, "name": "40c1b600e9701ed4937f4397ded80bac", "is_reserved": 0}, {"is_disabled": 0, "fusion_lon": 0.0, "fusion_lat": 0.0, "lat": 38.916516333333334, "type": "electric_scooter", "lon": -77.02813333333333, "bike_id": "c5af2be3d1d24104c7e976b9d25a7dd8", "rental_uris": {"android": "https://dc.lft.to/lastmile_qr_scan", "ios": "https://dc.lft.to/lastmile_qr_scan"}, "name": "c5af2be3d1d24104c7e976b9d25a7dd8", "is_reserved": 0}, {"is_disabled": 0, "fusion_lon": 0.0, "fusion_lat": 0.0, "lat": 38.9000685, "type": "electric_scooter", "lon": -77.0416245, "bike_id": "98baac6ba620978801e748f498858cd3", "rental_uris": {"android": "https://dc.lft.to/lastmile_qr_scan", "ios": "https://dc.lft.to/lastmile_qr_scan"}, "name": "98baac6ba620978801e748f498858cd3", "is_reserved": 0}, {"is_disabled": 0, "fusion_lon": 0.0, "fusion_lat": 0.0, "lat": 38.92403266666667, "type": "electric_bike", "lon": -77.04260333333333, "bike_id": "00f88257131b7fb1f7bffa3e02328be5", "rental_uris": {"android": "https://dc.lft.to/lastmile_qr_scan", "ios": "https://dc.lft.to/lastmile_qr_scan"}, "name": "00f88257131b7fb1f7bffa3e02328be5", "is_reserved": 0}, {"is_disabled": 0, "fusion_lon": 0.0, "fusion_lat": 0.0, "lat": 38.9987055, "type": "electric_bike", "lon": -77.02895016666666, "bike_id": "56e7873e405310316eab6b34d0a3d1d7", "rental_uris": {"android": "https://dc.lft.to/lastmile_qr_scan", "ios": "https://dc.lft.to/lastmile_qr_scan"}, "name": "56e7873e405310316eab6b34d0a3d1d7", "is_reserved": 0}, {"is_disabled": 0, "fusion_lon": 0.0, "fusion_lat": 0.0, "lat": 38.90814066666667, "type": "electric_scooter", "lon": -77.03442833333334, "bike_id": "331607bc0ce5e7275249ac5cba54cfd8", "rental_uris": {"android": "https://dc.lft.to/lastmile_qr_scan", "ios": "https://dc.lft.to/lastmile_qr_scan"}, "name": "331607bc0ce5e7275249ac5cba54cfd8", "is_reserved": 0}, {"is_disabled": 0, "fusion_lon": 0.0, "fusion_lat": 0.0, "lat": 38.951280833333335, "type": "electric_scooter", "lon": -77.01396383333334, "bike_id": "81a0574cbaf5db1f9f8f4782c0d57308", "rental_uris": {"android": "https://dc.lft.to/lastmile_qr_scan", "ios": "https://dc.lft.to/lastmile_qr_scan"}, "name": "81a0574cbaf5db1f9f8f4782c0d57308", "is_reserved": 0}, {"is_disabled": 0, "fusion_lon": 0.0, "fusion_lat": 0.0, "lat": 38.94075933333333, "type": "electric_scooter", "lon": -77.02114983333334, "bike_id": "a612e358c50aa07e62dcd2f8b736f651", "rental_uris": {"android": "https://dc.lft.to/lastmile_qr_scan", "ios": "https://dc.lft.to/lastmile_qr_scan"}, "name": "a612e358c50aa07e62dcd2f8b736f651", "is_reserved": 0}, {"is_disabled": 0, "fusion_lon": 0.0, "fusion_lat": 0.0, "lat": 38.94450466666667, "type": "electric_scooter", "lon": -77.0634465, "bike_id": "6b21102210c5e81394a9e2206c0e19a3", "rental_uris": {"android": "https://dc.lft.to/lastmile_qr_scan", "ios": "https://dc.lft.to/lastmile_qr_scan"}, "name": "6b21102210c5e81394a9e2206c0e19a3", "is_reserved": 0}, {"is_disabled": 0, "fusion_lon": 0.0, "fusion_lat": 0.0, "lat": 38.90958333333333, "type": "electric_scooter", "lon": -77.01566133333333, "bike_id": "9653b6d15590674718fe3baf6ffa0431", "rental_uris": {"android": "https://dc.lft.to/lastmile_qr_scan", "ios": "https://dc.lft.to/lastmile_qr_scan"}, "name": "9653b6d15590674718fe3baf6ffa0431", "is_reserved": 0}, {"is_disabled": 0, "fusion_lon": 0.0, "fusion_lat": 0.0, "lat": 38.900298166666666, "type": "electric_scooter", "lon": -77.002045, "bike_id": "7c2c0271ae5441dd7450c21128b914f3", "rental_uris": {"android": "https://dc.lft.to/lastmile_qr_scan", "ios": "https://dc.lft.to/lastmile_qr_scan"}, "name": "7c2c0271ae5441dd7450c21128b914f3", "is_reserved": 0}, {"is_disabled": 0, "fusion_lon": 0.0, "fusion_lat": 0.0, "lat": 38.918017, "type": "electric_scooter", "lon": -77.040339, "bike_id": "2b14ae8dced78848624df627e500636e", "rental_uris": {"android": "https://dc.lft.to/lastmile_qr_scan", "ios": "https://dc.lft.to/lastmile_qr_scan"}, "name": "2b14ae8dced78848624df627e500636e", "is_reserved": 0}, {"is_disabled": 0, "fusion_lon": 0.0, "fusion_lat": 0.0, "lat": 38.915583833333336, "type": "electric_scooter", "lon": -77.03271716666667, "bike_id": "8bf97da1bd70e7a7fb7eea5a01dba98a", "rental_uris": {"android": "https://dc.lft.to/lastmile_qr_scan", "ios": "https://dc.lft.to/lastmile_qr_scan"}, "name": "8bf97da1bd70e7a7fb7eea5a01dba98a", "is_reserved": 0}, {"is_disabled": 0, "fusion_lon": 0.0, "fusion_lat": 0.0, "lat": 38.92755966666667, "type": "electric_scooter", "lon": -77.00591983333334, "bike_id": "137392d0f41b2be5c469bfb7312d99a9", "rental_uris": {"android": "https://dc.lft.to/lastmile_qr_scan", "ios": "https://dc.lft.to/lastmile_qr_scan"}, "name": "137392d0f41b2be5c469bfb7312d99a9", "is_reserved": 0}, {"is_disabled": 0, "fusion_lon": 0.0, "fusion_lat": 0.0, "lat": 38.914163333333335, "type": "electric_scooter", "lon": -77.02234, "bike_id": "aa01bbe94116ed0d8467ddc770ddbdbb", "rental_uris": {"android": "https://dc.lft.to/lastmile_qr_scan", "ios": "https://dc.lft.to/lastmile_qr_scan"}, "name": "aa01bbe94116ed0d8467ddc770ddbdbb", "is_reserved": 0}, {"is_disabled": 0, "fusion_lon": 0.0, "fusion_lat": 0.0, "lat": 38.9193535, "type": "electric_scooter", "lon": -76.98074183333334, "bike_id": "43d6156d8c67c1bed624fd1db5185327", "rental_uris": {"android": "https://dc.lft.to/lastmile_qr_scan", "ios": "https://dc.lft.to/lastmile_qr_scan"}, "name": "43d6156d8c67c1bed624fd1db5185327", "is_reserved": 0}, {"is_disabled": 0, "fusion_lon": 0.0, "fusion_lat": 0.0, "lat": 38.8550945, "type": "electric_bike", "lon": -76.9583885, "bike_id": "1abb896667a47139b7c4c30337b9d087", "rental_uris": {"android": "https://dc.lft.to/lastmile_qr_scan", "ios": "https://dc.lft.to/lastmile_qr_scan"}, "name": "1abb896667a47139b7c4c30337b9d087", "is_reserved": 0}, {"is_disabled": 0, "fusion_lon": 0.0, "fusion_lat": 0.0, "lat": 38.876564333333334, "type": "electric_scooter", "lon": -77.00609883333334, "bike_id": "1858b7692dc6db2b9b21cc94142a9ed5", "rental_uris": {"android": "https://dc.lft.to/lastmile_qr_scan", "ios": "https://dc.lft.to/lastmile_qr_scan"}, "name": "1858b7692dc6db2b9b21cc94142a9ed5", "is_reserved": 0}, {"is_disabled": 0, "fusion_lon": 0.0, "fusion_lat": 0.0, "lat": 38.923351333333336, "type": "electric_scooter", "lon": -77.04308166666667, "bike_id": "2e6fef48690d67233c3efb951b616d3e", "rental_uris": {"android": "https://dc.lft.to/lastmile_qr_scan", "ios": "https://dc.lft.to/lastmile_qr_scan"}, "name": "2e6fef48690d67233c3efb951b616d3e", "is_reserved": 0}, {"is_disabled": 0, "fusion_lon": 0.0, "fusion_lat": 0.0, "lat": 38.91704466666667, "type": "electric_scooter", "lon": -77.024648, "bike_id": "bb9dbbed7df74adc7afebf9785bf0ce1", "rental_uris": {"android": "https://dc.lft.to/lastmile_qr_scan", "ios": "https://dc.lft.to/lastmile_qr_scan"}, "name": "bb9dbbed7df74adc7afebf9785bf0ce1", "is_reserved": 0}, {"is_disabled": 0, "fusion_lon": 0.0, "fusion_lat": 0.0, "lat": 38.908294, "type": "electric_scooter", "lon": -76.99697516666667, "bike_id": "2b2d2860200ef4745b03d41951b2aadf", "rental_uris": {"android": "https://dc.lft.to/lastmile_qr_scan", "ios": "https://dc.lft.to/lastmile_qr_scan"}, "name": "2b2d2860200ef4745b03d41951b2aadf", "is_reserved": 0}, {"is_disabled": 0, "fusion_lon": 0.0, "fusion_lat": 0.0, "lat": 38.90767683333333, "type": "electric_scooter", "lon": -77.02715383333333, "bike_id": "a107f695ee565c5744dcb3b3f658c18d", "rental_uris": {"android": "https://dc.lft.to/lastmile_qr_scan", "ios": "https://dc.lft.to/lastmile_qr_scan"}, "name": "a107f695ee565c5744dcb3b3f658c18d", "is_reserved": 0}, {"is_disabled": 0, "fusion_lon": 0.0, "fusion_lat": 0.0, "lat": 38.8691295, "type": "electric_bike", "lon": -77.131818, "bike_id": "a8ad848a9112838e336011bf45c51fc2", "rental_uris": {"android": "https://dc.lft.to/lastmile_qr_scan", "ios": "https://dc.lft.to/lastmile_qr_scan"}, "name": "a8ad848a9112838e336011bf45c51fc2", "is_reserved": 0}, {"is_disabled": 0, "fusion_lon": 0.0, "fusion_lat": 0.0, "lat": 38.910273, "type": "electric_scooter", "lon": -77.00761333333334, "bike_id": "81317a17326a8bab430c4615cf7f0cdf", "rental_uris": {"android": "https://dc.lft.to/lastmile_qr_scan", "ios": "https://dc.lft.to/lastmile_qr_scan"}, "name": "81317a17326a8bab430c4615cf7f0cdf", "is_reserved": 0}, {"is_disabled": 0, "fusion_lon": 0.0, "fusion_lat": 0.0, "lat": 38.899098333333335, "type": "electric_scooter", "lon": -77.02943333333333, "bike_id": "9ce4f0be53bf10bcc8515216587bd46a", "rental_uris": {"android": "https://dc.lft.to/lastmile_qr_scan", "ios": "https://dc.lft.to/lastmile_qr_scan"}, "name": "9ce4f0be53bf10bcc8515216587bd46a", "is_reserved": 0}, {"is_disabled": 0, "fusion_lon": 0.0, "fusion_lat": 0.0, "lat": 38.947889, "type": "electric_bike", "lon": -77.080664, "bike_id": "e27b2b3954b0d3ae5927732bd12a0ace", "rental_uris": {"android": "https://dc.lft.to/lastmile_qr_scan", "ios": "https://dc.lft.to/lastmile_qr_scan"}, "name": "e27b2b3954b0d3ae5927732bd12a0ace", "is_reserved": 0}, {"is_disabled": 0, "fusion_lon": 0.0, "fusion_lat": 0.0, "lat": 38.919882, "type": "electric_bike", "lon": -76.97315366666666, "bike_id": "774b96d01084def05bf18484085d551f", "rental_uris": {"android": "https://dc.lft.to/lastmile_qr_scan", "ios": "https://dc.lft.to/lastmile_qr_scan"}, "name": "774b96d01084def05bf18484085d551f", "is_reserved": 0}, {"is_disabled": 0, "fusion_lon": 0.0, "fusion_lat": 0.0, "lat": 38.89834616666667, "type": "electric_scooter", "lon": -76.946333, "bike_id": "9352481ce9454adfabd2aabe9b52b19b", "rental_uris": {"android": "https://dc.lft.to/lastmile_qr_scan", "ios": "https://dc.lft.to/lastmile_qr_scan"}, "name": "9352481ce9454adfabd2aabe9b52b19b", "is_reserved": 0}, {"is_disabled": 0, "fusion_lon": 0.0, "fusion_lat": 0.0, "lat": 38.90297283333334, "type": "electric_scooter", "lon": -77.0336545, "bike_id": "44c6222a1cf7f8525d53e68d149ca499", "rental_uris": {"android": "https://dc.lft.to/lastmile_qr_scan", "ios": "https://dc.lft.to/lastmile_qr_scan"}, "name": "44c6222a1cf7f8525d53e68d149ca499", "is_reserved": 0}, {"is_disabled": 0, "fusion_lon": 0.0, "fusion_lat": 0.0, "lat": 38.89562866666667, "type": "electric_scooter", "lon": -77.02301233333333, "bike_id": "3c197866b7f1de2cdfb22297d7feed67", "rental_uris": {"android": "https://dc.lft.to/lastmile_qr_scan", "ios": "https://dc.lft.to/lastmile_qr_scan"}, "name": "3c197866b7f1de2cdfb22297d7feed67", "is_reserved": 0}, {"is_disabled": 0, "fusion_lon": 0.0, "fusion_lat": 0.0, "lat": 38.90226583333333, "type": "electric_scooter", "lon": -77.03454233333333, "bike_id": "d4b5a8aaf440f3bf779d626953e9cf5f", "rental_uris": {"android": "https://dc.lft.to/lastmile_qr_scan", "ios": "https://dc.lft.to/lastmile_qr_scan"}, "name": "d4b5a8aaf440f3bf779d626953e9cf5f", "is_reserved": 0}, {"is_disabled": 0, "fusion_lon": 0.0, "fusion_lat": 0.0, "lat": 38.881878, "type": "electric_scooter", "lon": -77.0129975, "bike_id": "06dced5cc6fc5ce4a982401070c53b8b", "rental_uris": {"android": "https://dc.lft.to/lastmile_qr_scan", "ios": "https://dc.lft.to/lastmile_qr_scan"}, "name": "06dced5cc6fc5ce4a982401070c53b8b", "is_reserved": 0}, {"is_disabled": 0, "fusion_lon": 0.0, "fusion_lat": 0.0, "lat": 38.93006283333333, "type": "electric_scooter", "lon": -77.02203133333333, "bike_id": "2c7bcbff60abe6b5cf8b757793c110e0", "rental_uris": {"android": "https://dc.lft.to/lastmile_qr_scan", "ios": "https://dc.lft.to/lastmile_qr_scan"}, "name": "2c7bcbff60abe6b5cf8b757793c110e0", "is_reserved": 0}, {"is_disabled": 0, "fusion_lon": 0.0, "fusion_lat": 0.0, "lat": 38.91586733333333, "type": "electric_bike", "lon": -76.97150483333333, "bike_id": "24703ac67e72e9147275907828456af6", "rental_uris": {"android": "https://dc.lft.to/lastmile_qr_scan", "ios": "https://dc.lft.to/lastmile_qr_scan"}, "name": "24703ac67e72e9147275907828456af6", "is_reserved": 0}, {"is_disabled": 0, "fusion_lon": 0.0, "fusion_lat": 0.0, "lat": 38.97539866666666, "type": "electric_bike", "lon": -76.995297, "bike_id": "7aa9fc9d462112f5f346fbf6e6609154", "rental_uris": {"android": "https://dc.lft.to/lastmile_qr_scan", "ios": "https://dc.lft.to/lastmile_qr_scan"}, "name": "7aa9fc9d462112f5f346fbf6e6609154", "is_reserved": 0}, {"is_disabled": 0, "fusion_lon": 0.0, "fusion_lat": 0.0, "lat": 38.914824, "type": "electric_scooter", "lon": -77.034678, "bike_id": "1ab0d345c2c3c9c1a587976fd0207e0a", "rental_uris": {"android": "https://dc.lft.to/lastmile_qr_scan", "ios": "https://dc.lft.to/lastmile_qr_scan"}, "name": "1ab0d345c2c3c9c1a587976fd0207e0a", "is_reserved": 0}, {"is_disabled": 0, "fusion_lon": 0.0, "fusion_lat": 0.0, "lat": 39.0884155, "type": "electric_bike", "lon": -77.177977, "bike_id": "8a69ef9e1453c35c40cd983522ec0dce", "rental_uris": {"android": "https://dc.lft.to/lastmile_qr_scan", "ios": "https://dc.lft.to/lastmile_qr_scan"}, "name": "8a69ef9e1453c35c40cd983522ec0dce", "is_reserved": 0}, {"is_disabled": 0, "fusion_lon": 0.0, "fusion_lat": 0.0, "lat": 38.892058, "type": "electric_scooter", "lon": -76.98809483333334, "bike_id": "785db83a81319693598015ce414a165c", "rental_uris": {"android": "https://dc.lft.to/lastmile_qr_scan", "ios": "https://dc.lft.to/lastmile_qr_scan"}, "name": "785db83a81319693598015ce414a165c", "is_reserved": 0}, {"is_disabled": 0, "fusion_lon": 0.0, "fusion_lat": 0.0, "lat": 38.9227905, "type": "electric_scooter", "lon": -77.0297565, "bike_id": "957ea9d2df7165a44253052643dd6184", "rental_uris": {"android": "https://dc.lft.to/lastmile_qr_scan", "ios": "https://dc.lft.to/lastmile_qr_scan"}, "name": "957ea9d2df7165a44253052643dd6184", "is_reserved": 0}, {"is_disabled": 0, "fusion_lon": 0.0, "fusion_lat": 0.0, "lat": 38.90021733333333, "type": "electric_scooter", "lon": -77.04339316666666, "bike_id": "654517341786fa076d13a321b642ab89", "rental_uris": {"android": "https://dc.lft.to/lastmile_qr_scan", "ios": "https://dc.lft.to/lastmile_qr_scan"}, "name": "654517341786fa076d13a321b642ab89", "is_reserved": 0}, {"is_disabled": 0, "fusion_lon": 0.0, "fusion_lat": 0.0, "lat": 38.9133075, "type": "electric_scooter", "lon": -77.03274166666667, "bike_id": "3172c032392439599c7411becd64b3d2", "rental_uris": {"android": "https://dc.lft.to/lastmile_qr_scan", "ios": "https://dc.lft.to/lastmile_qr_scan"}, "name": "3172c032392439599c7411becd64b3d2", "is_reserved": 0}, {"is_disabled": 0, "fusion_lon": 0.0, "fusion_lat": 0.0, "lat": 38.883934333333336, "type": "electric_scooter", "lon": -76.95416833333333, "bike_id": "b829880314265d8accb85c57881acac3", "rental_uris": {"android": "https://dc.lft.to/lastmile_qr_scan", "ios": "https://dc.lft.to/lastmile_qr_scan"}, "name": "b829880314265d8accb85c57881acac3", "is_reserved": 0}, {"is_disabled": 0, "fusion_lon": 0.0, "fusion_lat": 0.0, "lat": 38.917981166666664, "type": "electric_scooter", "lon": -77.03456483333333, "bike_id": "d6bcd1ec652c138d5811bc5ccd03bdf1", "rental_uris": {"android": "https://dc.lft.to/lastmile_qr_scan", "ios": "https://dc.lft.to/lastmile_qr_scan"}, "name": "d6bcd1ec652c138d5811bc5ccd03bdf1", "is_reserved": 0}, {"is_disabled": 0, "fusion_lon": 0.0, "fusion_lat": 0.0, "lat": 38.9064685, "type": "electric_scooter", "lon": -77.04877983333333, "bike_id": "2cc442b22bd655790d97e4bcbdacb6c2", "rental_uris": {"android": "https://dc.lft.to/lastmile_qr_scan", "ios": "https://dc.lft.to/lastmile_qr_scan"}, "name": "2cc442b22bd655790d97e4bcbdacb6c2", "is_reserved": 0}, {"is_disabled": 0, "fusion_lon": 0.0, "fusion_lat": 0.0, "lat": 38.944243666666665, "type": "electric_scooter", "lon": -77.06065116666667, "bike_id": "984c979a6b9590fc92ee294d45495189", "rental_uris": {"android": "https://dc.lft.to/lastmile_qr_scan", "ios": "https://dc.lft.to/lastmile_qr_scan"}, "name": "984c979a6b9590fc92ee294d45495189", "is_reserved": 0}, {"is_disabled": 0, "fusion_lon": 0.0, "fusion_lat": 0.0, "lat": 38.91638433333333, "type": "electric_scooter", "lon": -77.05056366666666, "bike_id": "c21aee1f413d78a24bf2bd8b788b37bc", "rental_uris": {"android": "https://dc.lft.to/lastmile_qr_scan", "ios": "https://dc.lft.to/lastmile_qr_scan"}, "name": "c21aee1f413d78a24bf2bd8b788b37bc", "is_reserved": 0}, {"is_disabled": 0, "fusion_lon": 0.0, "fusion_lat": 0.0, "lat": 38.91344616666667, "type": "electric_scooter", "lon": -77.03193416666667, "bike_id": "6931dae1dbc0992c4bf979e03373c883", "rental_uris": {"android": "https://dc.lft.to/lastmile_qr_scan", "ios": "https://dc.lft.to/lastmile_qr_scan"}, "name": "6931dae1dbc0992c4bf979e03373c883", "is_reserved": 0}, {"is_disabled": 0, "fusion_lon": 0.0, "fusion_lat": 0.0, "lat": 38.9093405, "type": "electric_scooter", "lon": -76.99216233333334, "bike_id": "63decd167ae4bc73f2c059b943fdd24a", "rental_uris": {"android": "https://dc.lft.to/lastmile_qr_scan", "ios": "https://dc.lft.to/lastmile_qr_scan"}, "name": "63decd167ae4bc73f2c059b943fdd24a", "is_reserved": 0}, {"is_disabled": 0, "fusion_lon": 0.0, "fusion_lat": 0.0, "lat": 38.905226666666664, "type": "electric_scooter", "lon": -77.02979483333333, "bike_id": "3c562aa34f8b8a7c4f347a7d77b068bb", "rental_uris": {"android": "https://dc.lft.to/lastmile_qr_scan", "ios": "https://dc.lft.to/lastmile_qr_scan"}, "name": "3c562aa34f8b8a7c4f347a7d77b068bb", "is_reserved": 0}, {"is_disabled": 0, "fusion_lon": 0.0, "fusion_lat": 0.0, "lat": 38.89468, "type": "electric_scooter", "lon": -77.02270333333334, "bike_id": "6b3d6acba1a120e9959ab0cac5446c31", "rental_uris": {"android": "https://dc.lft.to/lastmile_qr_scan", "ios": "https://dc.lft.to/lastmile_qr_scan"}, "name": "6b3d6acba1a120e9959ab0cac5446c31", "is_reserved": 0}, {"is_disabled": 0, "fusion_lon": 0.0, "fusion_lat": 0.0, "lat": 38.911532, "type": "electric_scooter", "lon": -76.98502166666667, "bike_id": "7f9c7ca72ac448759f0f00b9bfac078f", "rental_uris": {"android": "https://dc.lft.to/lastmile_qr_scan", "ios": "https://dc.lft.to/lastmile_qr_scan"}, "name": "7f9c7ca72ac448759f0f00b9bfac078f", "is_reserved": 0}, {"is_disabled": 0, "fusion_lon": 0.0, "fusion_lat": 0.0, "lat": 38.894662, "type": "electric_scooter", "lon": -76.97720483333333, "bike_id": "ee589f5a4174e959746f3929004401bf", "rental_uris": {"android": "https://dc.lft.to/lastmile_qr_scan", "ios": "https://dc.lft.to/lastmile_qr_scan"}, "name": "ee589f5a4174e959746f3929004401bf", "is_reserved": 0}, {"is_disabled": 0, "fusion_lon": 0.0, "fusion_lat": 0.0, "lat": 38.91513283333333, "type": "electric_scooter", "lon": -77.0198535, "bike_id": "8668e4242350cf593920925090190333", "rental_uris": {"android": "https://dc.lft.to/lastmile_qr_scan", "ios": "https://dc.lft.to/lastmile_qr_scan"}, "name": "8668e4242350cf593920925090190333", "is_reserved": 0}, {"is_disabled": 0, "fusion_lon": 0.0, "fusion_lat": 0.0, "lat": 38.910529, "type": "electric_scooter", "lon": -77.043467, "bike_id": "89212cfcc9f6864457a79038fe63b400", "rental_uris": {"android": "https://dc.lft.to/lastmile_qr_scan", "ios": "https://dc.lft.to/lastmile_qr_scan"}, "name": "89212cfcc9f6864457a79038fe63b400", "is_reserved": 0}, {"is_disabled": 0, "fusion_lon": 0.0, "fusion_lat": 0.0, "lat": 38.90762466666666, "type": "electric_scooter", "lon": -77.03212916666666, "bike_id": "66a7887b52d2581baa42ba6a721eafcf", "rental_uris": {"android": "https://dc.lft.to/lastmile_qr_scan", "ios": "https://dc.lft.to/lastmile_qr_scan"}, "name": "66a7887b52d2581baa42ba6a721eafcf", "is_reserved": 0}, {"is_disabled": 0, "fusion_lon": 0.0, "fusion_lat": 0.0, "lat": 38.901062333333336, "type": "electric_scooter", "lon": -77.01972483333333, "bike_id": "7915598a025293edcbccd5206a1a3374", "rental_uris": {"android": "https://dc.lft.to/lastmile_qr_scan", "ios": "https://dc.lft.to/lastmile_qr_scan"}, "name": "7915598a025293edcbccd5206a1a3374", "is_reserved": 0}, {"is_disabled": 0, "fusion_lon": 0.0, "fusion_lat": 0.0, "lat": 38.91990233333333, "type": "electric_scooter", "lon": -77.032771, "bike_id": "00c229d24c9623c666d5e96a49942b63", "rental_uris": {"android": "https://dc.lft.to/lastmile_qr_scan", "ios": "https://dc.lft.to/lastmile_qr_scan"}, "name": "00c229d24c9623c666d5e96a49942b63", "is_reserved": 0}, {"is_disabled": 0, "fusion_lon": 0.0, "fusion_lat": 0.0, "lat": 38.935994666666666, "type": "electric_scooter", "lon": -77.03659416666666, "bike_id": "0a6bb59d3edc2d2721e049630d00416b", "rental_uris": {"android": "https://dc.lft.to/lastmile_qr_scan", "ios": "https://dc.lft.to/lastmile_qr_scan"}, "name": "0a6bb59d3edc2d2721e049630d00416b", "is_reserved": 0}, {"is_disabled": 0, "fusion_lon": 0.0, "fusion_lat": 0.0, "lat": 38.941946, "type": "electric_scooter", "lon": -77.0241615, "bike_id": "e8d114adcb759b9dd0894ecf1db4eba6", "rental_uris": {"android": "https://dc.lft.to/lastmile_qr_scan", "ios": "https://dc.lft.to/lastmile_qr_scan"}, "name": "e8d114adcb759b9dd0894ecf1db4eba6", "is_reserved": 0}, {"is_disabled": 0, "fusion_lon": 0.0, "fusion_lat": 0.0, "lat": 38.905331333333336, "type": "electric_scooter", "lon": -77.00705316666667, "bike_id": "d001760e488e2a8be3cd109a58e0362c", "rental_uris": {"android": "https://dc.lft.to/lastmile_qr_scan", "ios": "https://dc.lft.to/lastmile_qr_scan"}, "name": "d001760e488e2a8be3cd109a58e0362c", "is_reserved": 0}, {"is_disabled": 0, "fusion_lon": 0.0, "fusion_lat": 0.0, "lat": 38.902648, "type": "electric_scooter", "lon": -77.04253133333333, "bike_id": "3b3a062a013367261c842c21f986851c", "rental_uris": {"android": "https://dc.lft.to/lastmile_qr_scan", "ios": "https://dc.lft.to/lastmile_qr_scan"}, "name": "3b3a062a013367261c842c21f986851c", "is_reserved": 0}, {"is_disabled": 0, "fusion_lon": 0.0, "fusion_lat": 0.0, "lat": 39.105639333333336, "type": "electric_bike", "lon": -77.1526805, "bike_id": "72189d9ffe1adaa941f1185995d031ce", "rental_uris": {"android": "https://dc.lft.to/lastmile_qr_scan", "ios": "https://dc.lft.to/lastmile_qr_scan"}, "name": "72189d9ffe1adaa941f1185995d031ce", "is_reserved": 0}, {"is_disabled": 0, "fusion_lon": 0.0, "fusion_lat": 0.0, "lat": 38.89372983333333, "type": "electric_scooter", "lon": -76.95000916666666, "bike_id": "69e066470886fcdf07acac3257a4a8ce", "rental_uris": {"android": "https://dc.lft.to/lastmile_qr_scan", "ios": "https://dc.lft.to/lastmile_qr_scan"}, "name": "69e066470886fcdf07acac3257a4a8ce", "is_reserved": 0}, {"is_disabled": 0, "fusion_lon": 0.0, "fusion_lat": 0.0, "lat": 38.919753, "type": "electric_scooter", "lon": -77.00018516666667, "bike_id": "249d9c77de8efd22dee8bece3d21734c", "rental_uris": {"android": "https://dc.lft.to/lastmile_qr_scan", "ios": "https://dc.lft.to/lastmile_qr_scan"}, "name": "249d9c77de8efd22dee8bece3d21734c", "is_reserved": 0}, {"is_disabled": 0, "fusion_lon": 0.0, "fusion_lat": 0.0, "lat": 38.887469833333334, "type": "electric_bike", "lon": -76.900914, "bike_id": "822b28700d855c97c6164567efd5c75a", "rental_uris": {"android": "https://dc.lft.to/lastmile_qr_scan", "ios": "https://dc.lft.to/lastmile_qr_scan"}, "name": "822b28700d855c97c6164567efd5c75a", "is_reserved": 0}, {"is_disabled": 0, "fusion_lon": 0.0, "fusion_lat": 0.0, "lat": 38.929557833333334, "type": "electric_scooter", "lon": -77.03278966666667, "bike_id": "d4bfddde8af087c6f7d87daff859443f", "rental_uris": {"android": "https://dc.lft.to/lastmile_qr_scan", "ios": "https://dc.lft.to/lastmile_qr_scan"}, "name": "d4bfddde8af087c6f7d87daff859443f", "is_reserved": 0}, {"is_disabled": 0, "fusion_lon": 0.0, "fusion_lat": 0.0, "lat": 38.92096016666667, "type": "electric_scooter", "lon": -76.99418066666667, "bike_id": "20b45072b508629397090133be22fb89", "rental_uris": {"android": "https://dc.lft.to/lastmile_qr_scan", "ios": "https://dc.lft.to/lastmile_qr_scan"}, "name": "20b45072b508629397090133be22fb89", "is_reserved": 0}, {"is_disabled": 0, "fusion_lon": 0.0, "fusion_lat": 0.0, "lat": 38.913332, "type": "electric_scooter", "lon": -77.03037866666666, "bike_id": "6ad67f6d3e72bf2ac4ede57788c29b8b", "rental_uris": {"android": "https://dc.lft.to/lastmile_qr_scan", "ios": "https://dc.lft.to/lastmile_qr_scan"}, "name": "6ad67f6d3e72bf2ac4ede57788c29b8b", "is_reserved": 0}, {"is_disabled": 0, "fusion_lon": 0.0, "fusion_lat": 0.0, "lat": 38.928707333333335, "type": "electric_scooter", "lon": -77.03296866666666, "bike_id": "88d861079c0b0e8b61fe7cc67b88c710", "rental_uris": {"android": "https://dc.lft.to/lastmile_qr_scan", "ios": "https://dc.lft.to/lastmile_qr_scan"}, "name": "88d861079c0b0e8b61fe7cc67b88c710", "is_reserved": 0}, {"is_disabled": 0, "fusion_lon": 0.0, "fusion_lat": 0.0, "lat": 38.92447216666667, "type": "electric_bike", "lon": -76.96836216666667, "bike_id": "2e272ff2159abc922f6e1a1614e9e0f7", "rental_uris": {"android": "https://dc.lft.to/lastmile_qr_scan", "ios": "https://dc.lft.to/lastmile_qr_scan"}, "name": "2e272ff2159abc922f6e1a1614e9e0f7", "is_reserved": 0}, {"is_disabled": 0, "fusion_lon": 0.0, "fusion_lat": 0.0, "lat": 38.90680533333333, "type": "electric_scooter", "lon": -76.97999716666666, "bike_id": "321a015188223fee167376ebdf82175f", "rental_uris": {"android": "https://dc.lft.to/lastmile_qr_scan", "ios": "https://dc.lft.to/lastmile_qr_scan"}, "name": "321a015188223fee167376ebdf82175f", "is_reserved": 0}, {"is_disabled": 0, "fusion_lon": 0.0, "fusion_lat": 0.0, "lat": 38.91045033333333, "type": "electric_scooter", "lon": -77.04011783333333, "bike_id": "4d7902046fe39f1f5e70ffb4142c89f1", "rental_uris": {"android": "https://dc.lft.to/lastmile_qr_scan", "ios": "https://dc.lft.to/lastmile_qr_scan"}, "name": "4d7902046fe39f1f5e70ffb4142c89f1", "is_reserved": 0}, {"is_disabled": 0, "fusion_lon": 0.0, "fusion_lat": 0.0, "lat": 38.902394, "type": "electric_scooter", "lon": -77.0617655, "bike_id": "690cbba29f1c77fbcddf417d930628aa", "rental_uris": {"android": "https://dc.lft.to/lastmile_qr_scan", "ios": "https://dc.lft.to/lastmile_qr_scan"}, "name": "690cbba29f1c77fbcddf417d930628aa", "is_reserved": 0}, {"is_disabled": 0, "fusion_lon": 0.0, "fusion_lat": 0.0, "lat": 38.8580575, "type": "electric_scooter", "lon": -76.98654, "bike_id": "ca7b919ba122fe1155a15ff59d0d42f6", "rental_uris": {"android": "https://dc.lft.to/lastmile_qr_scan", "ios": "https://dc.lft.to/lastmile_qr_scan"}, "name": "ca7b919ba122fe1155a15ff59d0d42f6", "is_reserved": 0}, {"is_disabled": 0, "fusion_lon": 0.0, "fusion_lat": 0.0, "lat": 38.9009625, "type": "electric_scooter", "lon": -77.0181125, "bike_id": "74f962c26e5f0e43ac2338585514f7cf", "rental_uris": {"android": "https://dc.lft.to/lastmile_qr_scan", "ios": "https://dc.lft.to/lastmile_qr_scan"}, "name": "74f962c26e5f0e43ac2338585514f7cf", "is_reserved": 0}, {"is_disabled": 0, "fusion_lon": 0.0, "fusion_lat": 0.0, "lat": 38.929772166666666, "type": "electric_scooter", "lon": -77.02065666666667, "bike_id": "159f2d3c62629f9743e96274948beb9c", "rental_uris": {"android": "https://dc.lft.to/lastmile_qr_scan", "ios": "https://dc.lft.to/lastmile_qr_scan"}, "name": "159f2d3c62629f9743e96274948beb9c", "is_reserved": 0}, {"is_disabled": 0, "fusion_lon": 0.0, "fusion_lat": 0.0, "lat": 38.907049666666666, "type": "electric_scooter", "lon": -77.00750266666667, "bike_id": "a61d061d4d2335ec81a26998c3547022", "rental_uris": {"android": "https://dc.lft.to/lastmile_qr_scan", "ios": "https://dc.lft.to/lastmile_qr_scan"}, "name": "a61d061d4d2335ec81a26998c3547022", "is_reserved": 0}, {"is_disabled": 0, "fusion_lon": 0.0, "fusion_lat": 0.0, "lat": 38.9274725, "type": "electric_scooter", "lon": -77.016182, "bike_id": "6afe0e7d8fe53d56828133d48fc8aa93", "rental_uris": {"android": "https://dc.lft.to/lastmile_qr_scan", "ios": "https://dc.lft.to/lastmile_qr_scan"}, "name": "6afe0e7d8fe53d56828133d48fc8aa93", "is_reserved": 0}, {"is_disabled": 0, "fusion_lon": 0.0, "fusion_lat": 0.0, "lat": 38.94201116666667, "type": "electric_scooter", "lon": -77.02591666666666, "bike_id": "e20cccf5eab8102b0a67f7c20db404ab", "rental_uris": {"android": "https://dc.lft.to/lastmile_qr_scan", "ios": "https://dc.lft.to/lastmile_qr_scan"}, "name": "e20cccf5eab8102b0a67f7c20db404ab", "is_reserved": 0}, {"is_disabled": 0, "fusion_lon": 0.0, "fusion_lat": 0.0, "lat": 38.96415833333333, "type": "electric_scooter", "lon": -77.07527816666666, "bike_id": "10ac6d748e4da82a954736c44a99e516", "rental_uris": {"android": "https://dc.lft.to/lastmile_qr_scan", "ios": "https://dc.lft.to/lastmile_qr_scan"}, "name": "10ac6d748e4da82a954736c44a99e516", "is_reserved": 0}, {"is_disabled": 0, "fusion_lon": 0.0, "fusion_lat": 0.0, "lat": 38.9219665, "type": "electric_scooter", "lon": -76.997063, "bike_id": "4c074e5b713c520423f91c8225134c82", "rental_uris": {"android": "https://dc.lft.to/lastmile_qr_scan", "ios": "https://dc.lft.to/lastmile_qr_scan"}, "name": "4c074e5b713c520423f91c8225134c82", "is_reserved": 0}, {"is_disabled": 0, "fusion_lon": 0.0, "fusion_lat": 0.0, "lat": 38.917678333333335, "type": "electric_scooter", "lon": -77.03442266666667, "bike_id": "e42e6503e7e044368ce0ad1af6c0e6e7", "rental_uris": {"android": "https://dc.lft.to/lastmile_qr_scan", "ios": "https://dc.lft.to/lastmile_qr_scan"}, "name": "e42e6503e7e044368ce0ad1af6c0e6e7", "is_reserved": 0}, {"is_disabled": 0, "fusion_lon": 0.0, "fusion_lat": 0.0, "lat": 38.90335183333333, "type": "electric_bike", "lon": -76.9753305, "bike_id": "015551e442e041d625c05bb06db26ca0", "rental_uris": {"android": "https://dc.lft.to/lastmile_qr_scan", "ios": "https://dc.lft.to/lastmile_qr_scan"}, "name": "015551e442e041d625c05bb06db26ca0", "is_reserved": 0}, {"is_disabled": 0, "fusion_lon": 0.0, "fusion_lat": 0.0, "lat": 38.934934, "type": "electric_scooter", "lon": -77.02723383333333, "bike_id": "cf68fd64ba933d1912fff1d4db153e95", "rental_uris": {"android": "https://dc.lft.to/lastmile_qr_scan", "ios": "https://dc.lft.to/lastmile_qr_scan"}, "name": "cf68fd64ba933d1912fff1d4db153e95", "is_reserved": 0}, {"is_disabled": 0, "fusion_lon": 0.0, "fusion_lat": 0.0, "lat": 38.91595083333333, "type": "electric_scooter", "lon": -77.0235355, "bike_id": "448da923b4d9da08ee28b6fcf3228865", "rental_uris": {"android": "https://dc.lft.to/lastmile_qr_scan", "ios": "https://dc.lft.to/lastmile_qr_scan"}, "name": "448da923b4d9da08ee28b6fcf3228865", "is_reserved": 0}, {"is_disabled": 0, "fusion_lon": 0.0, "fusion_lat": 0.0, "lat": 38.88579516666667, "type": "electric_scooter", "lon": -77.012281, "bike_id": "95cd7cd630ed0a09dd3b061e5d0b39fb", "rental_uris": {"android": "https://dc.lft.to/lastmile_qr_scan", "ios": "https://dc.lft.to/lastmile_qr_scan"}, "name": "95cd7cd630ed0a09dd3b061e5d0b39fb", "is_reserved": 0}, {"is_disabled": 0, "fusion_lon": 0.0, "fusion_lat": 0.0, "lat": 38.91571966666667, "type": "electric_scooter", "lon": -77.04007466666667, "bike_id": "b9f2f87003e58bea82a6c79db0c3392d", "rental_uris": {"android": "https://dc.lft.to/lastmile_qr_scan", "ios": "https://dc.lft.to/lastmile_qr_scan"}, "name": "b9f2f87003e58bea82a6c79db0c3392d", "is_reserved": 0}, {"is_disabled": 0, "fusion_lon": 0.0, "fusion_lat": 0.0, "lat": 38.91644383333333, "type": "electric_scooter", "lon": -77.04773716666666, "bike_id": "a4809f047a372e48d62d8cf2e0cd9625", "rental_uris": {"android": "https://dc.lft.to/lastmile_qr_scan", "ios": "https://dc.lft.to/lastmile_qr_scan"}, "name": "a4809f047a372e48d62d8cf2e0cd9625", "is_reserved": 0}, {"is_disabled": 0, "fusion_lon": 0.0, "fusion_lat": 0.0, "lat": 38.908961, "type": "electric_scooter", "lon": -77.0029375, "bike_id": "ba60fe106aba987d068b6280e69c33e8", "rental_uris": {"android": "https://dc.lft.to/lastmile_qr_scan", "ios": "https://dc.lft.to/lastmile_qr_scan"}, "name": "ba60fe106aba987d068b6280e69c33e8", "is_reserved": 0}, {"is_disabled": 0, "fusion_lon": 0.0, "fusion_lat": 0.0, "lat": 38.92863666666667, "type": "electric_scooter", "lon": -77.033067, "bike_id": "698e783be816c6be10cf315b3eb19b0b", "rental_uris": {"android": "https://dc.lft.to/lastmile_qr_scan", "ios": "https://dc.lft.to/lastmile_qr_scan"}, "name": "698e783be816c6be10cf315b3eb19b0b", "is_reserved": 0}, {"is_disabled": 0, "fusion_lon": 0.0, "fusion_lat": 0.0, "lat": 38.9235615, "type": "electric_scooter", "lon": -77.03233316666666, "bike_id": "e132fd1bc3803a9845160ed5c22967a6", "rental_uris": {"android": "https://dc.lft.to/lastmile_qr_scan", "ios": "https://dc.lft.to/lastmile_qr_scan"}, "name": "e132fd1bc3803a9845160ed5c22967a6", "is_reserved": 0}, {"is_disabled": 0, "fusion_lon": 0.0, "fusion_lat": 0.0, "lat": 38.904790166666665, "type": "electric_scooter", "lon": -77.035816, "bike_id": "d6b38851a9f9c03a8a1c34891f9d6cdc", "rental_uris": {"android": "https://dc.lft.to/lastmile_qr_scan", "ios": "https://dc.lft.to/lastmile_qr_scan"}, "name": "d6b38851a9f9c03a8a1c34891f9d6cdc", "is_reserved": 0}, {"is_disabled": 0, "fusion_lon": 0.0, "fusion_lat": 0.0, "lat": 38.93078883333333, "type": "electric_scooter", "lon": -77.03120483333333, "bike_id": "da2176d98db2669958a596da97813951", "rental_uris": {"android": "https://dc.lft.to/lastmile_qr_scan", "ios": "https://dc.lft.to/lastmile_qr_scan"}, "name": "da2176d98db2669958a596da97813951", "is_reserved": 0}, {"is_disabled": 0, "fusion_lon": 0.0, "fusion_lat": 0.0, "lat": 38.94751316666667, "type": "electric_scooter", "lon": -77.01796933333334, "bike_id": "d57346eff8786bc0bb9a2b81bc4fee93", "rental_uris": {"android": "https://dc.lft.to/lastmile_qr_scan", "ios": "https://dc.lft.to/lastmile_qr_scan"}, "name": "d57346eff8786bc0bb9a2b81bc4fee93", "is_reserved": 0}, {"is_disabled": 0, "fusion_lon": 0.0, "fusion_lat": 0.0, "lat": 38.94578683333334, "type": "electric_bike", "lon": -76.987785, "bike_id": "3eb6fd9fcdaa8a116eec74c75bd7ca8b", "rental_uris": {"android": "https://dc.lft.to/lastmile_qr_scan", "ios": "https://dc.lft.to/lastmile_qr_scan"}, "name": "3eb6fd9fcdaa8a116eec74c75bd7ca8b", "is_reserved": 0}, {"is_disabled": 0, "fusion_lon": 0.0, "fusion_lat": 0.0, "lat": 38.91047433333333, "type": "electric_scooter", "lon": -77.06455966666667, "bike_id": "b79c0e954a2af592af22f722799e3ef6", "rental_uris": {"android": "https://dc.lft.to/lastmile_qr_scan", "ios": "https://dc.lft.to/lastmile_qr_scan"}, "name": "b79c0e954a2af592af22f722799e3ef6", "is_reserved": 0}, {"is_disabled": 0, "fusion_lon": 0.0, "fusion_lat": 0.0, "lat": 38.873997, "type": "electric_scooter", "lon": -77.002065, "bike_id": "7f17dc6df177a5792939e483797274cc", "rental_uris": {"android": "https://dc.lft.to/lastmile_qr_scan", "ios": "https://dc.lft.to/lastmile_qr_scan"}, "name": "7f17dc6df177a5792939e483797274cc", "is_reserved": 0}, {"is_disabled": 0, "fusion_lon": 0.0, "fusion_lat": 0.0, "lat": 38.907916, "type": "electric_scooter", "lon": -77.0014295, "bike_id": "f3b27ea13b42bb8e0c2a96dd3e1f0cf0", "rental_uris": {"android": "https://dc.lft.to/lastmile_qr_scan", "ios": "https://dc.lft.to/lastmile_qr_scan"}, "name": "f3b27ea13b42bb8e0c2a96dd3e1f0cf0", "is_reserved": 0}, {"is_disabled": 0, "fusion_lon": 0.0, "fusion_lat": 0.0, "lat": 38.90939783333334, "type": "electric_scooter", "lon": -77.03204183333334, "bike_id": "e01519d1412b070886a8e3aa538e4b44", "rental_uris": {"android": "https://dc.lft.to/lastmile_qr_scan", "ios": "https://dc.lft.to/lastmile_qr_scan"}, "name": "e01519d1412b070886a8e3aa538e4b44", "is_reserved": 0}, {"is_disabled": 0, "fusion_lon": 0.0, "fusion_lat": 0.0, "lat": 38.90416283333333, "type": "electric_scooter", "lon": -77.02888183333333, "bike_id": "3453ee789de0b80debb817fade83c6f0", "rental_uris": {"android": "https://dc.lft.to/lastmile_qr_scan", "ios": "https://dc.lft.to/lastmile_qr_scan"}, "name": "3453ee789de0b80debb817fade83c6f0", "is_reserved": 0}, {"is_disabled": 0, "fusion_lon": 0.0, "fusion_lat": 0.0, "lat": 38.93638816666667, "type": "electric_bike", "lon": -76.954609, "bike_id": "a35f0a41e5273ecdefd56c0c4bf4a692", "rental_uris": {"android": "https://dc.lft.to/lastmile_qr_scan", "ios": "https://dc.lft.to/lastmile_qr_scan"}, "name": "a35f0a41e5273ecdefd56c0c4bf4a692", "is_reserved": 0}, {"is_disabled": 0, "fusion_lon": 0.0, "fusion_lat": 0.0, "lat": 38.904322, "type": "electric_scooter", "lon": -77.03472183333334, "bike_id": "81bf2b9e2e0d8be815f934c8a76de151", "rental_uris": {"android": "https://dc.lft.to/lastmile_qr_scan", "ios": "https://dc.lft.to/lastmile_qr_scan"}, "name": "81bf2b9e2e0d8be815f934c8a76de151", "is_reserved": 0}, {"is_disabled": 0, "fusion_lon": 0.0, "fusion_lat": 0.0, "lat": 38.905520333333335, "type": "electric_scooter", "lon": -77.02965616666667, "bike_id": "9fd018f7b3e24992535713f76a224bfc", "rental_uris": {"android": "https://dc.lft.to/lastmile_qr_scan", "ios": "https://dc.lft.to/lastmile_qr_scan"}, "name": "9fd018f7b3e24992535713f76a224bfc", "is_reserved": 0}, {"is_disabled": 0, "fusion_lon": 0.0, "fusion_lat": 0.0, "lat": 38.905431666666665, "type": "electric_scooter", "lon": -77.02957016666667, "bike_id": "ef472235fd7efd005799999360590fc7", "rental_uris": {"android": "https://dc.lft.to/lastmile_qr_scan", "ios": "https://dc.lft.to/lastmile_qr_scan"}, "name": "ef472235fd7efd005799999360590fc7", "is_reserved": 0}, {"is_disabled": 0, "fusion_lon": 0.0, "fusion_lat": 0.0, "lat": 38.93191516666667, "type": "electric_scooter", "lon": -77.0283535, "bike_id": "7d72d0e65f0c03e1dd5056b2ef1f91ce", "rental_uris": {"android": "https://dc.lft.to/lastmile_qr_scan", "ios": "https://dc.lft.to/lastmile_qr_scan"}, "name": "7d72d0e65f0c03e1dd5056b2ef1f91ce", "is_reserved": 0}, {"is_disabled": 0, "fusion_lon": 0.0, "fusion_lat": 0.0, "lat": 38.90180266666667, "type": "electric_scooter", "lon": -76.92825083333334, "bike_id": "58239a543d4d014cc96624e64680247b", "rental_uris": {"android": "https://dc.lft.to/lastmile_qr_scan", "ios": "https://dc.lft.to/lastmile_qr_scan"}, "name": "58239a543d4d014cc96624e64680247b", "is_reserved": 0}, {"is_disabled": 0, "fusion_lon": 0.0, "fusion_lat": 0.0, "lat": 38.917077666666664, "type": "electric_scooter", "lon": -77.0323245, "bike_id": "4ffbf13d2c16a808f18eb1991ff67b60", "rental_uris": {"android": "https://dc.lft.to/lastmile_qr_scan", "ios": "https://dc.lft.to/lastmile_qr_scan"}, "name": "4ffbf13d2c16a808f18eb1991ff67b60", "is_reserved": 0}, {"is_disabled": 0, "fusion_lon": 0.0, "fusion_lat": 0.0, "lat": 38.91879816666667, "type": "electric_scooter", "lon": -77.047236, "bike_id": "da1a9a7d25fd4a8203255528fe27d2f7", "rental_uris": {"android": "https://dc.lft.to/lastmile_qr_scan", "ios": "https://dc.lft.to/lastmile_qr_scan"}, "name": "da1a9a7d25fd4a8203255528fe27d2f7", "is_reserved": 0}, {"is_disabled": 0, "fusion_lon": 0.0, "fusion_lat": 0.0, "lat": 38.947976833333335, "type": "electric_scooter", "lon": -77.092753, "bike_id": "d61b5518b859ab5b32a9114fdfd59883", "rental_uris": {"android": "https://dc.lft.to/lastmile_qr_scan", "ios": "https://dc.lft.to/lastmile_qr_scan"}, "name": "d61b5518b859ab5b32a9114fdfd59883", "is_reserved": 0}, {"is_disabled": 0, "fusion_lon": 0.0, "fusion_lat": 0.0, "lat": 38.865678333333335, "type": "electric_scooter", "lon": -76.99042333333334, "bike_id": "04f77ee49a27b5c61a07366d7502a58f", "rental_uris": {"android": "https://dc.lft.to/lastmile_qr_scan", "ios": "https://dc.lft.to/lastmile_qr_scan"}, "name": "04f77ee49a27b5c61a07366d7502a58f", "is_reserved": 0}, {"is_disabled": 0, "fusion_lon": 0.0, "fusion_lat": 0.0, "lat": 38.905168, "type": "electric_scooter", "lon": -77.02979283333333, "bike_id": "42fb85b601a7a6b90580e10f5909d414", "rental_uris": {"android": "https://dc.lft.to/lastmile_qr_scan", "ios": "https://dc.lft.to/lastmile_qr_scan"}, "name": "42fb85b601a7a6b90580e10f5909d414", "is_reserved": 0}, {"is_disabled": 0, "fusion_lon": 0.0, "fusion_lat": 0.0, "lat": 38.899596, "type": "electric_scooter", "lon": -77.04617583333334, "bike_id": "09d7eb27edc6d83c2ba8c46b374f30fb", "rental_uris": {"android": "https://dc.lft.to/lastmile_qr_scan", "ios": "https://dc.lft.to/lastmile_qr_scan"}, "name": "09d7eb27edc6d83c2ba8c46b374f30fb", "is_reserved": 0}, {"is_disabled": 0, "fusion_lon": 0.0, "fusion_lat": 0.0, "lat": 38.896129, "type": "electric_scooter", "lon": -76.99635216666667, "bike_id": "c34e72580b6b0f72406192af42371b60", "rental_uris": {"android": "https://dc.lft.to/lastmile_qr_scan", "ios": "https://dc.lft.to/lastmile_qr_scan"}, "name": "c34e72580b6b0f72406192af42371b60", "is_reserved": 0}, {"is_disabled": 0, "fusion_lon": 0.0, "fusion_lat": 0.0, "lat": 38.91568133333333, "type": "electric_scooter", "lon": -77.03275483333333, "bike_id": "e4a9d3b820a58169b59221ed9de852a8", "rental_uris": {"android": "https://dc.lft.to/lastmile_qr_scan", "ios": "https://dc.lft.to/lastmile_qr_scan"}, "name": "e4a9d3b820a58169b59221ed9de852a8", "is_reserved": 0}, {"is_disabled": 0, "fusion_lon": 0.0, "fusion_lat": 0.0, "lat": 38.912569166666664, "type": "electric_scooter", "lon": -77.0326825, "bike_id": "dff9b2417fb4a8e3050078f0becb847d", "rental_uris": {"android": "https://dc.lft.to/lastmile_qr_scan", "ios": "https://dc.lft.to/lastmile_qr_scan"}, "name": "dff9b2417fb4a8e3050078f0becb847d", "is_reserved": 0}, {"is_disabled": 0, "fusion_lon": 0.0, "fusion_lat": 0.0, "lat": 38.909739333333334, "type": "electric_scooter", "lon": -77.03173783333334, "bike_id": "123369f769d45297742784cb94ef54a8", "rental_uris": {"android": "https://dc.lft.to/lastmile_qr_scan", "ios": "https://dc.lft.to/lastmile_qr_scan"}, "name": "123369f769d45297742784cb94ef54a8", "is_reserved": 0}, {"is_disabled": 0, "fusion_lon": 0.0, "fusion_lat": 0.0, "lat": 38.9187115, "type": "electric_bike", "lon": -76.96123466666667, "bike_id": "5475b11d0ee5cc081c39c2c771f3bb8b", "rental_uris": {"android": "https://dc.lft.to/lastmile_qr_scan", "ios": "https://dc.lft.to/lastmile_qr_scan"}, "name": "5475b11d0ee5cc081c39c2c771f3bb8b", "is_reserved": 0}, {"is_disabled": 0, "fusion_lon": 0.0, "fusion_lat": 0.0, "lat": 38.91852883333333, "type": "electric_scooter", "lon": -77.04165516666667, "bike_id": "62473d42ee05fc46031b481efdca8a70", "rental_uris": {"android": "https://dc.lft.to/lastmile_qr_scan", "ios": "https://dc.lft.to/lastmile_qr_scan"}, "name": "62473d42ee05fc46031b481efdca8a70", "is_reserved": 0}, {"is_disabled": 0, "fusion_lon": 0.0, "fusion_lat": 0.0, "lat": 38.901401666666665, "type": "electric_scooter", "lon": -77.01787066666667, "bike_id": "0342828f9f99a671ef208d75f67cfe58", "rental_uris": {"android": "https://dc.lft.to/lastmile_qr_scan", "ios": "https://dc.lft.to/lastmile_qr_scan"}, "name": "0342828f9f99a671ef208d75f67cfe58", "is_reserved": 0}, {"is_disabled": 0, "fusion_lon": 0.0, "fusion_lat": 0.0, "lat": 38.892233833333336, "type": "electric_scooter", "lon": -77.03337616666667, "bike_id": "577a9e3986af749d4adcc854aa6f5fac", "rental_uris": {"android": "https://dc.lft.to/lastmile_qr_scan", "ios": "https://dc.lft.to/lastmile_qr_scan"}, "name": "577a9e3986af749d4adcc854aa6f5fac", "is_reserved": 0}, {"is_disabled": 0, "fusion_lon": 0.0, "fusion_lat": 0.0, "lat": 38.91818983333334, "type": "electric_scooter", "lon": -77.01214683333333, "bike_id": "fc2ed053ac49d1067da18d970dcb02f6", "rental_uris": {"android": "https://dc.lft.to/lastmile_qr_scan", "ios": "https://dc.lft.to/lastmile_qr_scan"}, "name": "fc2ed053ac49d1067da18d970dcb02f6", "is_reserved": 0}, {"is_disabled": 0, "fusion_lon": 0.0, "fusion_lat": 0.0, "lat": 38.920501333333334, "type": "electric_scooter", "lon": -77.026115, "bike_id": "5fa1a54f3f60cccc1789a1709686b740", "rental_uris": {"android": "https://dc.lft.to/lastmile_qr_scan", "ios": "https://dc.lft.to/lastmile_qr_scan"}, "name": "5fa1a54f3f60cccc1789a1709686b740", "is_reserved": 0}, {"is_disabled": 0, "fusion_lon": 0.0, "fusion_lat": 0.0, "lat": 38.905477166666664, "type": "electric_scooter", "lon": -77.03345666666667, "bike_id": "c492096595dac039ac5fe0d2a7e58f3b", "rental_uris": {"android": "https://dc.lft.to/lastmile_qr_scan", "ios": "https://dc.lft.to/lastmile_qr_scan"}, "name": "c492096595dac039ac5fe0d2a7e58f3b", "is_reserved": 0}, {"is_disabled": 0, "fusion_lon": 0.0, "fusion_lat": 0.0, "lat": 38.845113166666664, "type": "electric_bike", "lon": -77.0780355, "bike_id": "249002c3c37ef8ff48001eeb47fa8f3a", "rental_uris": {"android": "https://dc.lft.to/lastmile_qr_scan", "ios": "https://dc.lft.to/lastmile_qr_scan"}, "name": "249002c3c37ef8ff48001eeb47fa8f3a", "is_reserved": 0}, {"is_disabled": 0, "fusion_lon": 0.0, "fusion_lat": 0.0, "lat": 38.910954333333336, "type": "electric_scooter", "lon": -77.03186833333334, "bike_id": "c12aecc7fcca906f9948a709784c9d1a", "rental_uris": {"android": "https://dc.lft.to/lastmile_qr_scan", "ios": "https://dc.lft.to/lastmile_qr_scan"}, "name": "c12aecc7fcca906f9948a709784c9d1a", "is_reserved": 0}, {"is_disabled": 0, "fusion_lon": 0.0, "fusion_lat": 0.0, "lat": 38.908297833333336, "type": "electric_scooter", "lon": -76.99680316666667, "bike_id": "2b3c7706e8dfbcc55acdf5af89cb2e98", "rental_uris": {"android": "https://dc.lft.to/lastmile_qr_scan", "ios": "https://dc.lft.to/lastmile_qr_scan"}, "name": "2b3c7706e8dfbcc55acdf5af89cb2e98", "is_reserved": 0}, {"is_disabled": 0, "fusion_lon": 0.0, "fusion_lat": 0.0, "lat": 38.901784666666664, "type": "electric_scooter", "lon": -77.03911533333333, "bike_id": "a965c62eb1dc5e8f78ff92f91002163f", "rental_uris": {"android": "https://dc.lft.to/lastmile_qr_scan", "ios": "https://dc.lft.to/lastmile_qr_scan"}, "name": "a965c62eb1dc5e8f78ff92f91002163f", "is_reserved": 0}, {"is_disabled": 0, "fusion_lon": 0.0, "fusion_lat": 0.0, "lat": 38.901978, "type": "electric_scooter", "lon": -77.02408016666666, "bike_id": "9c68c367d42a824f35a3e2dfc3b30891", "rental_uris": {"android": "https://dc.lft.to/lastmile_qr_scan", "ios": "https://dc.lft.to/lastmile_qr_scan"}, "name": "9c68c367d42a824f35a3e2dfc3b30891", "is_reserved": 0}, {"is_disabled": 0, "fusion_lon": 0.0, "fusion_lat": 0.0, "lat": 38.88011316666667, "type": "electric_bike", "lon": -76.91592366666667, "bike_id": "b5ef1f9751d87589f78a4992767dd31c", "rental_uris": {"android": "https://dc.lft.to/lastmile_qr_scan", "ios": "https://dc.lft.to/lastmile_qr_scan"}, "name": "b5ef1f9751d87589f78a4992767dd31c", "is_reserved": 0}, {"is_disabled": 0, "fusion_lon": 0.0, "fusion_lat": 0.0, "lat": 38.86893033333333, "type": "electric_scooter", "lon": -76.98314266666667, "bike_id": "174e2695cbc837cebd6f97ce45d5866c", "rental_uris": {"android": "https://dc.lft.to/lastmile_qr_scan", "ios": "https://dc.lft.to/lastmile_qr_scan"}, "name": "174e2695cbc837cebd6f97ce45d5866c", "is_reserved": 0}, {"is_disabled": 0, "fusion_lon": 0.0, "fusion_lat": 0.0, "lat": 38.9238955, "type": "electric_scooter", "lon": -77.04065833333334, "bike_id": "5ae5983c856fd27c7b63918beda1cebb", "rental_uris": {"android": "https://dc.lft.to/lastmile_qr_scan", "ios": "https://dc.lft.to/lastmile_qr_scan"}, "name": "5ae5983c856fd27c7b63918beda1cebb", "is_reserved": 0}, {"is_disabled": 0, "fusion_lon": 0.0, "fusion_lat": 0.0, "lat": 38.8598905, "type": "electric_bike", "lon": -76.97054633333333, "bike_id": "682242469db48e59b68e49bc56bc2907", "rental_uris": {"android": "https://dc.lft.to/lastmile_qr_scan", "ios": "https://dc.lft.to/lastmile_qr_scan"}, "name": "682242469db48e59b68e49bc56bc2907", "is_reserved": 0}, {"is_disabled": 0, "fusion_lon": 0.0, "fusion_lat": 0.0, "lat": 38.882923166666664, "type": "electric_scooter", "lon": -77.01636133333334, "bike_id": "ed45c954cac0d0170e39a2dd0c69e76c", "rental_uris": {"android": "https://dc.lft.to/lastmile_qr_scan", "ios": "https://dc.lft.to/lastmile_qr_scan"}, "name": "ed45c954cac0d0170e39a2dd0c69e76c", "is_reserved": 0}, {"is_disabled": 0, "fusion_lon": 0.0, "fusion_lat": 0.0, "lat": 38.886007166666666, "type": "electric_scooter", "lon": -77.0058395, "bike_id": "aa584a73ed1a4a2187d25156838b228b", "rental_uris": {"android": "https://dc.lft.to/lastmile_qr_scan", "ios": "https://dc.lft.to/lastmile_qr_scan"}, "name": "aa584a73ed1a4a2187d25156838b228b", "is_reserved": 0}, {"is_disabled": 0, "fusion_lon": 0.0, "fusion_lat": 0.0, "lat": 38.994549, "type": "electric_bike", "lon": -76.90816516666666, "bike_id": "ba27b96510e1418107e7c88e54807d9f", "rental_uris": {"android": "https://dc.lft.to/lastmile_qr_scan", "ios": "https://dc.lft.to/lastmile_qr_scan"}, "name": "ba27b96510e1418107e7c88e54807d9f", "is_reserved": 0}, {"is_disabled": 0, "fusion_lon": 0.0, "fusion_lat": 0.0, "lat": 38.91463183333333, "type": "electric_scooter", "lon": -77.02802083333333, "bike_id": "93396e6d72c98b3eb9c542af18a3a982", "rental_uris": {"android": "https://dc.lft.to/lastmile_qr_scan", "ios": "https://dc.lft.to/lastmile_qr_scan"}, "name": "93396e6d72c98b3eb9c542af18a3a982", "is_reserved": 0}, {"is_disabled": 0, "fusion_lon": 0.0, "fusion_lat": 0.0, "lat": 38.901326, "type": "electric_scooter", "lon": -76.95162333333333, "bike_id": "579ea0371924202efb31ddd78ea4e953", "rental_uris": {"android": "https://dc.lft.to/lastmile_qr_scan", "ios": "https://dc.lft.to/lastmile_qr_scan"}, "name": "579ea0371924202efb31ddd78ea4e953", "is_reserved": 0}, {"is_disabled": 0, "fusion_lon": 0.0, "fusion_lat": 0.0, "lat": 38.905071666666664, "type": "electric_scooter", "lon": -76.98845533333333, "bike_id": "3a9249ab90a4fe87d64a338d27bf5753", "rental_uris": {"android": "https://dc.lft.to/lastmile_qr_scan", "ios": "https://dc.lft.to/lastmile_qr_scan"}, "name": "3a9249ab90a4fe87d64a338d27bf5753", "is_reserved": 0}, {"is_disabled": 0, "fusion_lon": 0.0, "fusion_lat": 0.0, "lat": 38.88764166666667, "type": "electric_scooter", "lon": -76.95675083333333, "bike_id": "d40e93ade2d107437126f203c535b317", "rental_uris": {"android": "https://dc.lft.to/lastmile_qr_scan", "ios": "https://dc.lft.to/lastmile_qr_scan"}, "name": "d40e93ade2d107437126f203c535b317", "is_reserved": 0}, {"is_disabled": 0, "fusion_lon": 0.0, "fusion_lat": 0.0, "lat": 38.88730783333333, "type": "electric_scooter", "lon": -77.02827483333333, "bike_id": "601a6eeff7a5228f43756a92aba14fff", "rental_uris": {"android": "https://dc.lft.to/lastmile_qr_scan", "ios": "https://dc.lft.to/lastmile_qr_scan"}, "name": "601a6eeff7a5228f43756a92aba14fff", "is_reserved": 0}, {"is_disabled": 0, "fusion_lon": 0.0, "fusion_lat": 0.0, "lat": 38.92619966666667, "type": "electric_scooter", "lon": -77.05703183333334, "bike_id": "2f08e658644aa956f64db934dc2fd920", "rental_uris": {"android": "https://dc.lft.to/lastmile_qr_scan", "ios": "https://dc.lft.to/lastmile_qr_scan"}, "name": "2f08e658644aa956f64db934dc2fd920", "is_reserved": 0}, {"is_disabled": 0, "fusion_lon": 0.0, "fusion_lat": 0.0, "lat": 38.936080833333335, "type": "electric_scooter", "lon": -77.05863833333333, "bike_id": "1ae1fbfbb5a4c158fc76e938417dddcb", "rental_uris": {"android": "https://dc.lft.to/lastmile_qr_scan", "ios": "https://dc.lft.to/lastmile_qr_scan"}, "name": "1ae1fbfbb5a4c158fc76e938417dddcb", "is_reserved": 0}, {"is_disabled": 0, "fusion_lon": 0.0, "fusion_lat": 0.0, "lat": 38.905347, "type": "electric_scooter", "lon": -76.9878345, "bike_id": "e24ed598d980657449130eb63507de2e", "rental_uris": {"android": "https://dc.lft.to/lastmile_qr_scan", "ios": "https://dc.lft.to/lastmile_qr_scan"}, "name": "e24ed598d980657449130eb63507de2e", "is_reserved": 0}, {"is_disabled": 0, "fusion_lon": 0.0, "fusion_lat": 0.0, "lat": 38.8987445, "type": "electric_scooter", "lon": -76.9318775, "bike_id": "b894f4b7ed2d0e6e7cd8fc395bc001d4", "rental_uris": {"android": "https://dc.lft.to/lastmile_qr_scan", "ios": "https://dc.lft.to/lastmile_qr_scan"}, "name": "b894f4b7ed2d0e6e7cd8fc395bc001d4", "is_reserved": 0}, {"is_disabled": 0, "fusion_lon": 0.0, "fusion_lat": 0.0, "lat": 38.91044516666667, "type": "electric_scooter", "lon": -77.04044783333333, "bike_id": "0f38587393e44f80475323d35b2eb6ba", "rental_uris": {"android": "https://dc.lft.to/lastmile_qr_scan", "ios": "https://dc.lft.to/lastmile_qr_scan"}, "name": "0f38587393e44f80475323d35b2eb6ba", "is_reserved": 0}, {"is_disabled": 0, "fusion_lon": 0.0, "fusion_lat": 0.0, "lat": 38.959594833333334, "type": "electric_bike", "lon": -76.981663, "bike_id": "9d8959cb05ac8248b9d23c1f30ad0f21", "rental_uris": {"android": "https://dc.lft.to/lastmile_qr_scan", "ios": "https://dc.lft.to/lastmile_qr_scan"}, "name": "9d8959cb05ac8248b9d23c1f30ad0f21", "is_reserved": 0}, {"is_disabled": 0, "fusion_lon": 0.0, "fusion_lat": 0.0, "lat": 38.92472266666667, "type": "electric_scooter", "lon": -77.0372565, "bike_id": "24a5b21c1e9a45931b7f3688d472b8c8", "rental_uris": {"android": "https://dc.lft.to/lastmile_qr_scan", "ios": "https://dc.lft.to/lastmile_qr_scan"}, "name": "24a5b21c1e9a45931b7f3688d472b8c8", "is_reserved": 0}, {"is_disabled": 0, "fusion_lon": 0.0, "fusion_lat": 0.0, "lat": 38.88682383333333, "type": "electric_scooter", "lon": -76.95479466666667, "bike_id": "3181cd6e8a9cda4f7b7b0cec9f603272", "rental_uris": {"android": "https://dc.lft.to/lastmile_qr_scan", "ios": "https://dc.lft.to/lastmile_qr_scan"}, "name": "3181cd6e8a9cda4f7b7b0cec9f603272", "is_reserved": 0}, {"is_disabled": 0, "fusion_lon": 0.0, "fusion_lat": 0.0, "lat": 38.94471733333334, "type": "electric_bike", "lon": -77.006465, "bike_id": "bc8567003d8c0799b822a0e008cd230c", "rental_uris": {"android": "https://dc.lft.to/lastmile_qr_scan", "ios": "https://dc.lft.to/lastmile_qr_scan"}, "name": "bc8567003d8c0799b822a0e008cd230c", "is_reserved": 0}, {"is_disabled": 0, "fusion_lon": 0.0, "fusion_lat": 0.0, "lat": 38.917109833333335, "type": "electric_scooter", "lon": -77.03202816666666, "bike_id": "6ccf17864d9753f10c933088642fb937", "rental_uris": {"android": "https://dc.lft.to/lastmile_qr_scan", "ios": "https://dc.lft.to/lastmile_qr_scan"}, "name": "6ccf17864d9753f10c933088642fb937", "is_reserved": 0}, {"is_disabled": 0, "fusion_lon": 0.0, "fusion_lat": 0.0, "lat": 38.90667883333333, "type": "electric_scooter", "lon": -77.07569583333333, "bike_id": "f7d8dd72eacc317d643b82592e1f2d1c", "rental_uris": {"android": "https://dc.lft.to/lastmile_qr_scan", "ios": "https://dc.lft.to/lastmile_qr_scan"}, "name": "f7d8dd72eacc317d643b82592e1f2d1c", "is_reserved": 0}, {"is_disabled": 0, "fusion_lon": 0.0, "fusion_lat": 0.0, "lat": 38.9001525, "type": "electric_scooter", "lon": -77.03975516666667, "bike_id": "5f2ab62790581dffef0238552c6046f7", "rental_uris": {"android": "https://dc.lft.to/lastmile_qr_scan", "ios": "https://dc.lft.to/lastmile_qr_scan"}, "name": "5f2ab62790581dffef0238552c6046f7", "is_reserved": 0}, {"is_disabled": 0, "fusion_lon": 0.0, "fusion_lat": 0.0, "lat": 38.900189, "type": "electric_scooter", "lon": -77.05236216666667, "bike_id": "ed9092c1d233bca0d7730ec4d4f5932c", "rental_uris": {"android": "https://dc.lft.to/lastmile_qr_scan", "ios": "https://dc.lft.to/lastmile_qr_scan"}, "name": "ed9092c1d233bca0d7730ec4d4f5932c", "is_reserved": 0}, {"is_disabled": 0, "fusion_lon": 0.0, "fusion_lat": 0.0, "lat": 38.9051725, "type": "electric_scooter", "lon": -77.05034783333333, "bike_id": "73b04a7452db61911b33fb830efd819f", "rental_uris": {"android": "https://dc.lft.to/lastmile_qr_scan", "ios": "https://dc.lft.to/lastmile_qr_scan"}, "name": "73b04a7452db61911b33fb830efd819f", "is_reserved": 0}, {"is_disabled": 0, "fusion_lon": 0.0, "fusion_lat": 0.0, "lat": 38.9281095, "type": "electric_scooter", "lon": -77.0235115, "bike_id": "3c1eb49fa2915358e0910e6e0ca1770d", "rental_uris": {"android": "https://dc.lft.to/lastmile_qr_scan", "ios": "https://dc.lft.to/lastmile_qr_scan"}, "name": "3c1eb49fa2915358e0910e6e0ca1770d", "is_reserved": 0}, {"is_disabled": 0, "fusion_lon": 0.0, "fusion_lat": 0.0, "lat": 38.945574666666666, "type": "electric_bike", "lon": -77.05113483333334, "bike_id": "62697755a99e2c92d4cd954706d15500", "rental_uris": {"android": "https://dc.lft.to/lastmile_qr_scan", "ios": "https://dc.lft.to/lastmile_qr_scan"}, "name": "62697755a99e2c92d4cd954706d15500", "is_reserved": 0}, {"is_disabled": 0, "fusion_lon": 0.0, "fusion_lat": 0.0, "lat": 38.934285, "type": "electric_scooter", "lon": -77.05840816666667, "bike_id": "057ea69e93b2f864d039cb46080e1fb2", "rental_uris": {"android": "https://dc.lft.to/lastmile_qr_scan", "ios": "https://dc.lft.to/lastmile_qr_scan"}, "name": "057ea69e93b2f864d039cb46080e1fb2", "is_reserved": 0}, {"is_disabled": 0, "fusion_lon": 0.0, "fusion_lat": 0.0, "lat": 38.91592583333333, "type": "electric_scooter", "lon": -77.02126716666666, "bike_id": "f03460213ca1c7a3ae5af6468c6aedd2", "rental_uris": {"android": "https://dc.lft.to/lastmile_qr_scan", "ios": "https://dc.lft.to/lastmile_qr_scan"}, "name": "f03460213ca1c7a3ae5af6468c6aedd2", "is_reserved": 0}, {"is_disabled": 0, "fusion_lon": 0.0, "fusion_lat": 0.0, "lat": 38.9138475, "type": "electric_scooter", "lon": -77.01708333333333, "bike_id": "a9e0a965463518a946881d7883845179", "rental_uris": {"android": "https://dc.lft.to/lastmile_qr_scan", "ios": "https://dc.lft.to/lastmile_qr_scan"}, "name": "a9e0a965463518a946881d7883845179", "is_reserved": 0}, {"is_disabled": 0, "fusion_lon": 0.0, "fusion_lat": 0.0, "lat": 38.900279, "type": "electric_scooter", "lon": -77.0333115, "bike_id": "0e162a82be433b598ded719010a88af0", "rental_uris": {"android": "https://dc.lft.to/lastmile_qr_scan", "ios": "https://dc.lft.to/lastmile_qr_scan"}, "name": "0e162a82be433b598ded719010a88af0", "is_reserved": 0}, {"is_disabled": 0, "fusion_lon": 0.0, "fusion_lat": 0.0, "lat": 38.91677166666667, "type": "electric_scooter", "lon": -77.02315433333334, "bike_id": "8abb0c90c3d864ae9c150b0d25711d98", "rental_uris": {"android": "https://dc.lft.to/lastmile_qr_scan", "ios": "https://dc.lft.to/lastmile_qr_scan"}, "name": "8abb0c90c3d864ae9c150b0d25711d98", "is_reserved": 0}, {"is_disabled": 0, "fusion_lon": 0.0, "fusion_lat": 0.0, "lat": 38.945143, "type": "electric_bike", "lon": -77.0067665, "bike_id": "846127c99dddad87d77896c8a1f809e0", "rental_uris": {"android": "https://dc.lft.to/lastmile_qr_scan", "ios": "https://dc.lft.to/lastmile_qr_scan"}, "name": "846127c99dddad87d77896c8a1f809e0", "is_reserved": 0}, {"is_disabled": 0, "fusion_lon": 0.0, "fusion_lat": 0.0, "lat": 38.898484, "type": "electric_scooter", "lon": -76.99033866666667, "bike_id": "bb134c42bc60b0e2d63e6fa623929af9", "rental_uris": {"android": "https://dc.lft.to/lastmile_qr_scan", "ios": "https://dc.lft.to/lastmile_qr_scan"}, "name": "bb134c42bc60b0e2d63e6fa623929af9", "is_reserved": 0}, {"is_disabled": 0, "fusion_lon": 0.0, "fusion_lat": 0.0, "lat": 38.89606466666667, "type": "electric_scooter", "lon": -77.00921616666666, "bike_id": "96fc10c81814202c47ab379371c90495", "rental_uris": {"android": "https://dc.lft.to/lastmile_qr_scan", "ios": "https://dc.lft.to/lastmile_qr_scan"}, "name": "96fc10c81814202c47ab379371c90495", "is_reserved": 0}, {"is_disabled": 0, "fusion_lon": 0.0, "fusion_lat": 0.0, "lat": 38.903837, "type": "electric_bike", "lon": -76.99550483333333, "bike_id": "ae7a62c3e36ff3d11647af14424e1daf", "rental_uris": {"android": "https://dc.lft.to/lastmile_qr_scan", "ios": "https://dc.lft.to/lastmile_qr_scan"}, "name": "ae7a62c3e36ff3d11647af14424e1daf", "is_reserved": 0}, {"is_disabled": 0, "fusion_lon": 0.0, "fusion_lat": 0.0, "lat": 38.91523633333333, "type": "electric_scooter", "lon": -77.01983866666667, "bike_id": "925c67e093b12c54f2e0522867bffaf7", "rental_uris": {"android": "https://dc.lft.to/lastmile_qr_scan", "ios": "https://dc.lft.to/lastmile_qr_scan"}, "name": "925c67e093b12c54f2e0522867bffaf7", "is_reserved": 0}, {"is_disabled": 0, "fusion_lon": 0.0, "fusion_lat": 0.0, "lat": 38.933408666666665, "type": "electric_scooter", "lon": -77.07260433333333, "bike_id": "0dba08ea10e476f7b720f3e52de05072", "rental_uris": {"android": "https://dc.lft.to/lastmile_qr_scan", "ios": "https://dc.lft.to/lastmile_qr_scan"}, "name": "0dba08ea10e476f7b720f3e52de05072", "is_reserved": 0}, {"is_disabled": 0, "fusion_lon": 0.0, "fusion_lat": 0.0, "lat": 38.865675833333334, "type": "electric_bike", "lon": -76.97330666666667, "bike_id": "27ed9ac52c1b2aeaca5de7f5b48917ef", "rental_uris": {"android": "https://dc.lft.to/lastmile_qr_scan", "ios": "https://dc.lft.to/lastmile_qr_scan"}, "name": "27ed9ac52c1b2aeaca5de7f5b48917ef", "is_reserved": 0}, {"is_disabled": 0, "fusion_lon": 0.0, "fusion_lat": 0.0, "lat": 38.9203035, "type": "electric_scooter", "lon": -77.01147033333334, "bike_id": "92e43dee2e59f76e839923b196d30c0a", "rental_uris": {"android": "https://dc.lft.to/lastmile_qr_scan", "ios": "https://dc.lft.to/lastmile_qr_scan"}, "name": "92e43dee2e59f76e839923b196d30c0a", "is_reserved": 0}, {"is_disabled": 0, "fusion_lon": 0.0, "fusion_lat": 0.0, "lat": 38.926743, "type": "electric_scooter", "lon": -77.03216333333333, "bike_id": "45f76f2b68b08734adf6d81ddbaefb9a", "rental_uris": {"android": "https://dc.lft.to/lastmile_qr_scan", "ios": "https://dc.lft.to/lastmile_qr_scan"}, "name": "45f76f2b68b08734adf6d81ddbaefb9a", "is_reserved": 0}, {"is_disabled": 0, "fusion_lon": 0.0, "fusion_lat": 0.0, "lat": 38.86352516666667, "type": "electric_scooter", "lon": -76.9906525, "bike_id": "292d56260b6e810c5a4b4878982095b7", "rental_uris": {"android": "https://dc.lft.to/lastmile_qr_scan", "ios": "https://dc.lft.to/lastmile_qr_scan"}, "name": "292d56260b6e810c5a4b4878982095b7", "is_reserved": 0}, {"is_disabled": 0, "fusion_lon": 0.0, "fusion_lat": 0.0, "lat": 38.94006666666667, "type": "electric_scooter", "lon": -77.060445, "bike_id": "9581a4d3058aeceb8461145d155c85cc", "rental_uris": {"android": "https://dc.lft.to/lastmile_qr_scan", "ios": "https://dc.lft.to/lastmile_qr_scan"}, "name": "9581a4d3058aeceb8461145d155c85cc", "is_reserved": 0}, {"is_disabled": 0, "fusion_lon": 0.0, "fusion_lat": 0.0, "lat": 38.934901333333336, "type": "electric_scooter", "lon": -77.02605766666667, "bike_id": "ec4f34f3f6c54d25b898aff5e02d14c6", "rental_uris": {"android": "https://dc.lft.to/lastmile_qr_scan", "ios": "https://dc.lft.to/lastmile_qr_scan"}, "name": "ec4f34f3f6c54d25b898aff5e02d14c6", "is_reserved": 0}, {"is_disabled": 0, "fusion_lon": 0.0, "fusion_lat": 0.0, "lat": 38.90643333333333, "type": "electric_scooter", "lon": -77.04333616666666, "bike_id": "d74c42f770d8b5271038157ee94d258f", "rental_uris": {"android": "https://dc.lft.to/lastmile_qr_scan", "ios": "https://dc.lft.to/lastmile_qr_scan"}, "name": "d74c42f770d8b5271038157ee94d258f", "is_reserved": 0}, {"is_disabled": 0, "fusion_lon": 0.0, "fusion_lat": 0.0, "lat": 38.86696833333333, "type": "electric_scooter", "lon": -76.98712533333334, "bike_id": "45cfcb3aca08262e4aa6216b892393e1", "rental_uris": {"android": "https://dc.lft.to/lastmile_qr_scan", "ios": "https://dc.lft.to/lastmile_qr_scan"}, "name": "45cfcb3aca08262e4aa6216b892393e1", "is_reserved": 0}, {"is_disabled": 0, "fusion_lon": 0.0, "fusion_lat": 0.0, "lat": 38.9172425, "type": "electric_scooter", "lon": -77.034698, "bike_id": "6cea4d02eebbb3b87d7063356571b40a", "rental_uris": {"android": "https://dc.lft.to/lastmile_qr_scan", "ios": "https://dc.lft.to/lastmile_qr_scan"}, "name": "6cea4d02eebbb3b87d7063356571b40a", "is_reserved": 0}, {"is_disabled": 0, "fusion_lon": 0.0, "fusion_lat": 0.0, "lat": 38.9261475, "type": "electric_scooter", "lon": -77.03689933333334, "bike_id": "a5c6773e5681f909e7cd5c3e6e5d9502", "rental_uris": {"android": "https://dc.lft.to/lastmile_qr_scan", "ios": "https://dc.lft.to/lastmile_qr_scan"}, "name": "a5c6773e5681f909e7cd5c3e6e5d9502", "is_reserved": 0}, {"is_disabled": 0, "fusion_lon": 0.0, "fusion_lat": 0.0, "lat": 38.912842833333336, "type": "electric_scooter", "lon": -77.03843916666666, "bike_id": "4ce160ae06c2811fb00c16898f11fa97", "rental_uris": {"android": "https://dc.lft.to/lastmile_qr_scan", "ios": "https://dc.lft.to/lastmile_qr_scan"}, "name": "4ce160ae06c2811fb00c16898f11fa97", "is_reserved": 0}, {"is_disabled": 0, "fusion_lon": 0.0, "fusion_lat": 0.0, "lat": 38.898309166666664, "type": "electric_scooter", "lon": -76.94630533333333, "bike_id": "ffacba97e77437dba3b2365498580754", "rental_uris": {"android": "https://dc.lft.to/lastmile_qr_scan", "ios": "https://dc.lft.to/lastmile_qr_scan"}, "name": "ffacba97e77437dba3b2365498580754", "is_reserved": 0}, {"is_disabled": 0, "fusion_lon": 0.0, "fusion_lat": 0.0, "lat": 38.91070766666667, "type": "electric_scooter", "lon": -77.02092566666667, "bike_id": "e54b9516a54c2187acd0f5a2e9ebd9ca", "rental_uris": {"android": "https://dc.lft.to/lastmile_qr_scan", "ios": "https://dc.lft.to/lastmile_qr_scan"}, "name": "e54b9516a54c2187acd0f5a2e9ebd9ca", "is_reserved": 0}, {"is_disabled": 0, "fusion_lon": 0.0, "fusion_lat": 0.0, "lat": 38.985961, "type": "electric_bike", "lon": -77.03756316666667, "bike_id": "026285fa761d0687e245bbfa6fedadcc", "rental_uris": {"android": "https://dc.lft.to/lastmile_qr_scan", "ios": "https://dc.lft.to/lastmile_qr_scan"}, "name": "026285fa761d0687e245bbfa6fedadcc", "is_reserved": 0}, {"is_disabled": 0, "fusion_lon": 0.0, "fusion_lat": 0.0, "lat": 38.941095, "type": "electric_scooter", "lon": -77.061343, "bike_id": "ce2c843f4ea97a7557f9882e4867939a", "rental_uris": {"android": "https://dc.lft.to/lastmile_qr_scan", "ios": "https://dc.lft.to/lastmile_qr_scan"}, "name": "ce2c843f4ea97a7557f9882e4867939a", "is_reserved": 0}, {"is_disabled": 0, "fusion_lon": 0.0, "fusion_lat": 0.0, "lat": 38.96733616666667, "type": "electric_scooter", "lon": -77.02764566666667, "bike_id": "0be3c9e097c4ec136660b7865d27511e", "rental_uris": {"android": "https://dc.lft.to/lastmile_qr_scan", "ios": "https://dc.lft.to/lastmile_qr_scan"}, "name": "0be3c9e097c4ec136660b7865d27511e", "is_reserved": 0}, {"is_disabled": 0, "fusion_lon": 0.0, "fusion_lat": 0.0, "lat": 38.923815, "type": "electric_scooter", "lon": -77.02907616666667, "bike_id": "d17f490c5a3f3a4d4896cbc4cefa68de", "rental_uris": {"android": "https://dc.lft.to/lastmile_qr_scan", "ios": "https://dc.lft.to/lastmile_qr_scan"}, "name": "d17f490c5a3f3a4d4896cbc4cefa68de", "is_reserved": 0}, {"is_disabled": 0, "fusion_lon": 0.0, "fusion_lat": 0.0, "lat": 38.92071583333333, "type": "electric_scooter", "lon": -77.034964, "bike_id": "d8df97976638109a0760d1acb875ee65", "rental_uris": {"android": "https://dc.lft.to/lastmile_qr_scan", "ios": "https://dc.lft.to/lastmile_qr_scan"}, "name": "d8df97976638109a0760d1acb875ee65", "is_reserved": 0}, {"is_disabled": 0, "fusion_lon": 0.0, "fusion_lat": 0.0, "lat": 38.909562666666666, "type": "electric_scooter", "lon": -77.02170416666667, "bike_id": "0fd515a1e4a3df64ea336c4c46b13723", "rental_uris": {"android": "https://dc.lft.to/lastmile_qr_scan", "ios": "https://dc.lft.to/lastmile_qr_scan"}, "name": "0fd515a1e4a3df64ea336c4c46b13723", "is_reserved": 0}, {"is_disabled": 0, "fusion_lon": 0.0, "fusion_lat": 0.0, "lat": 38.92441733333333, "type": "electric_scooter", "lon": -77.0261235, "bike_id": "3972a184712c4f7c55721dff76e01399", "rental_uris": {"android": "https://dc.lft.to/lastmile_qr_scan", "ios": "https://dc.lft.to/lastmile_qr_scan"}, "name": "3972a184712c4f7c55721dff76e01399", "is_reserved": 0}, {"is_disabled": 0, "fusion_lon": 0.0, "fusion_lat": 0.0, "lat": 38.89726016666667, "type": "electric_scooter", "lon": -77.047176, "bike_id": "ec6bd726c05c0f9d9b8803c7f55ca31b", "rental_uris": {"android": "https://dc.lft.to/lastmile_qr_scan", "ios": "https://dc.lft.to/lastmile_qr_scan"}, "name": "ec6bd726c05c0f9d9b8803c7f55ca31b", "is_reserved": 0}, {"is_disabled": 0, "fusion_lon": 0.0, "fusion_lat": 0.0, "lat": 38.89530833333333, "type": "electric_scooter", "lon": -77.03209866666667, "bike_id": "b28af82a943e8f9fc977abdf3251da45", "rental_uris": {"android": "https://dc.lft.to/lastmile_qr_scan", "ios": "https://dc.lft.to/lastmile_qr_scan"}, "name": "b28af82a943e8f9fc977abdf3251da45", "is_reserved": 0}, {"is_disabled": 0, "fusion_lon": 0.0, "fusion_lat": 0.0, "lat": 38.9211175, "type": "electric_scooter", "lon": -77.04387016666666, "bike_id": "3409b1149ec9cc69f11c57986d973c75", "rental_uris": {"android": "https://dc.lft.to/lastmile_qr_scan", "ios": "https://dc.lft.to/lastmile_qr_scan"}, "name": "3409b1149ec9cc69f11c57986d973c75", "is_reserved": 0}, {"is_disabled": 0, "fusion_lon": 0.0, "fusion_lat": 0.0, "lat": 38.9065145, "type": "electric_scooter", "lon": -77.01186683333333, "bike_id": "fed934ede10ed0c26b6b998d9f36bf02", "rental_uris": {"android": "https://dc.lft.to/lastmile_qr_scan", "ios": "https://dc.lft.to/lastmile_qr_scan"}, "name": "fed934ede10ed0c26b6b998d9f36bf02", "is_reserved": 0}, {"is_disabled": 0, "fusion_lon": 0.0, "fusion_lat": 0.0, "lat": 38.846153666666666, "type": "electric_scooter", "lon": -76.99630566666667, "bike_id": "89e5ad58764441f73ddc38b65a322201", "rental_uris": {"android": "https://dc.lft.to/lastmile_qr_scan", "ios": "https://dc.lft.to/lastmile_qr_scan"}, "name": "89e5ad58764441f73ddc38b65a322201", "is_reserved": 0}, {"is_disabled": 0, "fusion_lon": 0.0, "fusion_lat": 0.0, "lat": 38.9213025, "type": "electric_scooter", "lon": -77.02176216666666, "bike_id": "07ea9b123574d44eae3fda1ed7b88252", "rental_uris": {"android": "https://dc.lft.to/lastmile_qr_scan", "ios": "https://dc.lft.to/lastmile_qr_scan"}, "name": "07ea9b123574d44eae3fda1ed7b88252", "is_reserved": 0}, {"is_disabled": 0, "fusion_lon": 0.0, "fusion_lat": 0.0, "lat": 39.00015066666667, "type": "electric_bike", "lon": -76.8728565, "bike_id": "31032fcdacbe9df4bf4b0b927a21bf71", "rental_uris": {"android": "https://dc.lft.to/lastmile_qr_scan", "ios": "https://dc.lft.to/lastmile_qr_scan"}, "name": "31032fcdacbe9df4bf4b0b927a21bf71", "is_reserved": 0}, {"is_disabled": 0, "fusion_lon": 0.0, "fusion_lat": 0.0, "lat": 38.918167333333336, "type": "electric_scooter", "lon": -77.0401175, "bike_id": "dc0934cf00be73dbfd2400873bd466ff", "rental_uris": {"android": "https://dc.lft.to/lastmile_qr_scan", "ios": "https://dc.lft.to/lastmile_qr_scan"}, "name": "dc0934cf00be73dbfd2400873bd466ff", "is_reserved": 0}, {"is_disabled": 0, "fusion_lon": 0.0, "fusion_lat": 0.0, "lat": 38.9254975, "type": "electric_scooter", "lon": -77.052954, "bike_id": "0ca7bc22d214d4fda097fd0d9752214e", "rental_uris": {"android": "https://dc.lft.to/lastmile_qr_scan", "ios": "https://dc.lft.to/lastmile_qr_scan"}, "name": "0ca7bc22d214d4fda097fd0d9752214e", "is_reserved": 0}, {"is_disabled": 0, "fusion_lon": 0.0, "fusion_lat": 0.0, "lat": 38.91710416666667, "type": "electric_scooter", "lon": -77.0284615, "bike_id": "8a82fd11fd71d5fcddf8404d982586ae", "rental_uris": {"android": "https://dc.lft.to/lastmile_qr_scan", "ios": "https://dc.lft.to/lastmile_qr_scan"}, "name": "8a82fd11fd71d5fcddf8404d982586ae", "is_reserved": 0}, {"is_disabled": 0, "fusion_lon": 0.0, "fusion_lat": 0.0, "lat": 38.8287425, "type": "electric_bike", "lon": -77.11215766666666, "bike_id": "841c12508a4636af5d46ea0d9c2add0b", "rental_uris": {"android": "https://dc.lft.to/lastmile_qr_scan", "ios": "https://dc.lft.to/lastmile_qr_scan"}, "name": "841c12508a4636af5d46ea0d9c2add0b", "is_reserved": 0}, {"is_disabled": 0, "fusion_lon": 0.0, "fusion_lat": 0.0, "lat": 38.915638, "type": "electric_scooter", "lon": -77.03236516666666, "bike_id": "7b925b358ef635bd043add6f6a428cf3", "rental_uris": {"android": "https://dc.lft.to/lastmile_qr_scan", "ios": "https://dc.lft.to/lastmile_qr_scan"}, "name": "7b925b358ef635bd043add6f6a428cf3", "is_reserved": 0}, {"is_disabled": 0, "fusion_lon": 0.0, "fusion_lat": 0.0, "lat": 38.90244233333333, "type": "electric_scooter", "lon": -77.06092116666666, "bike_id": "f3478523be15c083c2b7a5b7d3782f60", "rental_uris": {"android": "https://dc.lft.to/lastmile_qr_scan", "ios": "https://dc.lft.to/lastmile_qr_scan"}, "name": "f3478523be15c083c2b7a5b7d3782f60", "is_reserved": 0}, {"is_disabled": 0, "fusion_lon": 0.0, "fusion_lat": 0.0, "lat": 38.91750566666666, "type": "electric_scooter", "lon": -77.03197, "bike_id": "cdadc614a5bee7ff8752c9bb1c099ae5", "rental_uris": {"android": "https://dc.lft.to/lastmile_qr_scan", "ios": "https://dc.lft.to/lastmile_qr_scan"}, "name": "cdadc614a5bee7ff8752c9bb1c099ae5", "is_reserved": 0}, {"is_disabled": 0, "fusion_lon": 0.0, "fusion_lat": 0.0, "lat": 38.89390066666667, "type": "electric_scooter", "lon": -76.94998633333333, "bike_id": "95a822f4868f6221655ed41a6fa124c2", "rental_uris": {"android": "https://dc.lft.to/lastmile_qr_scan", "ios": "https://dc.lft.to/lastmile_qr_scan"}, "name": "95a822f4868f6221655ed41a6fa124c2", "is_reserved": 0}, {"is_disabled": 0, "fusion_lon": 0.0, "fusion_lat": 0.0, "lat": 38.89595966666667, "type": "electric_scooter", "lon": -77.0092815, "bike_id": "fa1f5d19fa42d0cdc85dca10cd945cc1", "rental_uris": {"android": "https://dc.lft.to/lastmile_qr_scan", "ios": "https://dc.lft.to/lastmile_qr_scan"}, "name": "fa1f5d19fa42d0cdc85dca10cd945cc1", "is_reserved": 0}, {"is_disabled": 0, "fusion_lon": 0.0, "fusion_lat": 0.0, "lat": 38.8895495, "type": "electric_scooter", "lon": -76.99147366666666, "bike_id": "2388f5e9e0ab3a7cb0e6681cebaab6e2", "rental_uris": {"android": "https://dc.lft.to/lastmile_qr_scan", "ios": "https://dc.lft.to/lastmile_qr_scan"}, "name": "2388f5e9e0ab3a7cb0e6681cebaab6e2", "is_reserved": 0}, {"is_disabled": 0, "fusion_lon": 0.0, "fusion_lat": 0.0, "lat": 38.9103125, "type": "electric_scooter", "lon": -77.0380185, "bike_id": "70260624052effcf74f6a1e7cc79b187", "rental_uris": {"android": "https://dc.lft.to/lastmile_qr_scan", "ios": "https://dc.lft.to/lastmile_qr_scan"}, "name": "70260624052effcf74f6a1e7cc79b187", "is_reserved": 0}, {"is_disabled": 0, "fusion_lon": 0.0, "fusion_lat": 0.0, "lat": 38.9284085, "type": "electric_scooter", "lon": -77.05541416666667, "bike_id": "4556c54abb3bee93203ba7c74b4a3ec0", "rental_uris": {"android": "https://dc.lft.to/lastmile_qr_scan", "ios": "https://dc.lft.to/lastmile_qr_scan"}, "name": "4556c54abb3bee93203ba7c74b4a3ec0", "is_reserved": 0}, {"is_disabled": 0, "fusion_lon": 0.0, "fusion_lat": 0.0, "lat": 38.8885075, "type": "electric_bike", "lon": -76.97702783333334, "bike_id": "77586b495fa606db20ebd2528a56c015", "rental_uris": {"android": "https://dc.lft.to/lastmile_qr_scan", "ios": "https://dc.lft.to/lastmile_qr_scan"}, "name": "77586b495fa606db20ebd2528a56c015", "is_reserved": 0}, {"is_disabled": 0, "fusion_lon": 0.0, "fusion_lat": 0.0, "lat": 38.89743033333333, "type": "electric_scooter", "lon": -77.04716066666667, "bike_id": "705770c80a1341eefc00f4209a0394df", "rental_uris": {"android": "https://dc.lft.to/lastmile_qr_scan", "ios": "https://dc.lft.to/lastmile_qr_scan"}, "name": "705770c80a1341eefc00f4209a0394df", "is_reserved": 0}, {"is_disabled": 0, "fusion_lon": 0.0, "fusion_lat": 0.0, "lat": 39.054598666666664, "type": "electric_bike", "lon": -77.14323233333333, "bike_id": "f187027b1d02aca991b546b91fa27aaf", "rental_uris": {"android": "https://dc.lft.to/lastmile_qr_scan", "ios": "https://dc.lft.to/lastmile_qr_scan"}, "name": "f187027b1d02aca991b546b91fa27aaf", "is_reserved": 0}, {"is_disabled": 0, "fusion_lon": 0.0, "fusion_lat": 0.0, "lat": 38.908560333333334, "type": "electric_scooter", "lon": -77.0550895, "bike_id": "3081636ee671637d5ffca6534dae79e3", "rental_uris": {"android": "https://dc.lft.to/lastmile_qr_scan", "ios": "https://dc.lft.to/lastmile_qr_scan"}, "name": "3081636ee671637d5ffca6534dae79e3", "is_reserved": 0}, {"is_disabled": 0, "fusion_lon": 0.0, "fusion_lat": 0.0, "lat": 38.776194833333335, "type": "electric_bike", "lon": -77.0835225, "bike_id": "875090472a4b4b7bc4acc46278040386", "rental_uris": {"android": "https://dc.lft.to/lastmile_qr_scan", "ios": "https://dc.lft.to/lastmile_qr_scan"}, "name": "875090472a4b4b7bc4acc46278040386", "is_reserved": 0}, {"is_disabled": 0, "fusion_lon": 0.0, "fusion_lat": 0.0, "lat": 38.887448666666664, "type": "electric_scooter", "lon": -77.01431283333334, "bike_id": "c01a7bb1dc1c463b7822817707835125", "rental_uris": {"android": "https://dc.lft.to/lastmile_qr_scan", "ios": "https://dc.lft.to/lastmile_qr_scan"}, "name": "c01a7bb1dc1c463b7822817707835125", "is_reserved": 0}, {"is_disabled": 0, "fusion_lon": 0.0, "fusion_lat": 0.0, "lat": 38.86806383333333, "type": "electric_scooter", "lon": -77.0117425, "bike_id": "3e0cd907ee25d5772e2bccea4b898b05", "rental_uris": {"android": "https://dc.lft.to/lastmile_qr_scan", "ios": "https://dc.lft.to/lastmile_qr_scan"}, "name": "3e0cd907ee25d5772e2bccea4b898b05", "is_reserved": 0}, {"is_disabled": 0, "fusion_lon": 0.0, "fusion_lat": 0.0, "lat": 38.89530216666667, "type": "electric_scooter", "lon": -77.03348516666667, "bike_id": "11b4895f226ee75379393271b174db1d", "rental_uris": {"android": "https://dc.lft.to/lastmile_qr_scan", "ios": "https://dc.lft.to/lastmile_qr_scan"}, "name": "11b4895f226ee75379393271b174db1d", "is_reserved": 0}, {"is_disabled": 0, "fusion_lon": 0.0, "fusion_lat": 0.0, "lat": 38.93531883333333, "type": "electric_scooter", "lon": -77.02070466666666, "bike_id": "47758bf32cc3627ed0dd133de466fb3d", "rental_uris": {"android": "https://dc.lft.to/lastmile_qr_scan", "ios": "https://dc.lft.to/lastmile_qr_scan"}, "name": "47758bf32cc3627ed0dd133de466fb3d", "is_reserved": 0}, {"is_disabled": 0, "fusion_lon": 0.0, "fusion_lat": 0.0, "lat": 38.9040765, "type": "electric_scooter", "lon": -76.990625, "bike_id": "ffa50bafc340aac9e37e76a8fec5516e", "rental_uris": {"android": "https://dc.lft.to/lastmile_qr_scan", "ios": "https://dc.lft.to/lastmile_qr_scan"}, "name": "ffa50bafc340aac9e37e76a8fec5516e", "is_reserved": 0}, {"is_disabled": 0, "fusion_lon": 0.0, "fusion_lat": 0.0, "lat": 38.90520816666667, "type": "electric_scooter", "lon": -77.0490375, "bike_id": "38445e89edc1c5ea786aa239f61a7d1d", "rental_uris": {"android": "https://dc.lft.to/lastmile_qr_scan", "ios": "https://dc.lft.to/lastmile_qr_scan"}, "name": "38445e89edc1c5ea786aa239f61a7d1d", "is_reserved": 0}, {"is_disabled": 0, "fusion_lon": 0.0, "fusion_lat": 0.0, "lat": 38.90464083333333, "type": "electric_scooter", "lon": -77.04865816666667, "bike_id": "bc82cd49231865a5453d984cf55ac1da", "rental_uris": {"android": "https://dc.lft.to/lastmile_qr_scan", "ios": "https://dc.lft.to/lastmile_qr_scan"}, "name": "bc82cd49231865a5453d984cf55ac1da", "is_reserved": 0}, {"is_disabled": 0, "fusion_lon": 0.0, "fusion_lat": 0.0, "lat": 38.911178, "type": "electric_scooter", "lon": -77.02237966666667, "bike_id": "f40e173af51523c556a7da58ad221e3c", "rental_uris": {"android": "https://dc.lft.to/lastmile_qr_scan", "ios": "https://dc.lft.to/lastmile_qr_scan"}, "name": "f40e173af51523c556a7da58ad221e3c", "is_reserved": 0}, {"is_disabled": 0, "fusion_lon": 0.0, "fusion_lat": 0.0, "lat": 38.94199666666667, "type": "electric_scooter", "lon": -77.0257765, "bike_id": "492860f29a8ec4e0afae29218f749fe6", "rental_uris": {"android": "https://dc.lft.to/lastmile_qr_scan", "ios": "https://dc.lft.to/lastmile_qr_scan"}, "name": "492860f29a8ec4e0afae29218f749fe6", "is_reserved": 0}, {"is_disabled": 0, "fusion_lon": 0.0, "fusion_lat": 0.0, "lat": 38.949698166666664, "type": "electric_scooter", "lon": -77.06762666666667, "bike_id": "11a71bbd5ef250ea705bee946c2f7e39", "rental_uris": {"android": "https://dc.lft.to/lastmile_qr_scan", "ios": "https://dc.lft.to/lastmile_qr_scan"}, "name": "11a71bbd5ef250ea705bee946c2f7e39", "is_reserved": 0}, {"is_disabled": 0, "fusion_lon": 0.0, "fusion_lat": 0.0, "lat": 38.91974166666667, "type": "electric_scooter", "lon": -76.97324083333334, "bike_id": "75718a4fc80e6e73f15c14a539ad2fab", "rental_uris": {"android": "https://dc.lft.to/lastmile_qr_scan", "ios": "https://dc.lft.to/lastmile_qr_scan"}, "name": "75718a4fc80e6e73f15c14a539ad2fab", "is_reserved": 0}, {"is_disabled": 0, "fusion_lon": 0.0, "fusion_lat": 0.0, "lat": 38.93314733333333, "type": "electric_scooter", "lon": -77.02936733333334, "bike_id": "4dd731c5f6fa1d8435f3e49a2bc99d9e", "rental_uris": {"android": "https://dc.lft.to/lastmile_qr_scan", "ios": "https://dc.lft.to/lastmile_qr_scan"}, "name": "4dd731c5f6fa1d8435f3e49a2bc99d9e", "is_reserved": 0}, {"is_disabled": 0, "fusion_lon": 0.0, "fusion_lat": 0.0, "lat": 38.99995466666667, "type": "electric_bike", "lon": -76.91803616666667, "bike_id": "14cfb7f09f244395794e41f8f5246a57", "rental_uris": {"android": "https://dc.lft.to/lastmile_qr_scan", "ios": "https://dc.lft.to/lastmile_qr_scan"}, "name": "14cfb7f09f244395794e41f8f5246a57", "is_reserved": 0}, {"is_disabled": 0, "fusion_lon": 0.0, "fusion_lat": 0.0, "lat": 38.876692, "type": "electric_scooter", "lon": -76.93195966666667, "bike_id": "555b13e0e3469a1576b79b8aa66dcd57", "rental_uris": {"android": "https://dc.lft.to/lastmile_qr_scan", "ios": "https://dc.lft.to/lastmile_qr_scan"}, "name": "555b13e0e3469a1576b79b8aa66dcd57", "is_reserved": 0}, {"is_disabled": 0, "fusion_lon": 0.0, "fusion_lat": 0.0, "lat": 38.911254, "type": "electric_scooter", "lon": -77.03732616666667, "bike_id": "c5ba8244fa1e118020ecc874f5d404e0", "rental_uris": {"android": "https://dc.lft.to/lastmile_qr_scan", "ios": "https://dc.lft.to/lastmile_qr_scan"}, "name": "c5ba8244fa1e118020ecc874f5d404e0", "is_reserved": 0}, {"is_disabled": 0, "fusion_lon": 0.0, "fusion_lat": 0.0, "lat": 38.89727383333334, "type": "electric_scooter", "lon": -77.04815816666667, "bike_id": "2c14e47957fb381e2331beeb9cfbe344", "rental_uris": {"android": "https://dc.lft.to/lastmile_qr_scan", "ios": "https://dc.lft.to/lastmile_qr_scan"}, "name": "2c14e47957fb381e2331beeb9cfbe344", "is_reserved": 0}, {"is_disabled": 0, "fusion_lon": 0.0, "fusion_lat": 0.0, "lat": 38.9499925, "type": "electric_bike", "lon": -77.35309533333333, "bike_id": "34a5217a692fcc5dadde0e11732c4b46", "rental_uris": {"android": "https://dc.lft.to/lastmile_qr_scan", "ios": "https://dc.lft.to/lastmile_qr_scan"}, "name": "34a5217a692fcc5dadde0e11732c4b46", "is_reserved": 0}, {"is_disabled": 0, "fusion_lon": 0.0, "fusion_lat": 0.0, "lat": 38.9802345, "type": "electric_bike", "lon": -76.92918716666667, "bike_id": "c9b51bda00c0005ebff66634c078af26", "rental_uris": {"android": "https://dc.lft.to/lastmile_qr_scan", "ios": "https://dc.lft.to/lastmile_qr_scan"}, "name": "c9b51bda00c0005ebff66634c078af26", "is_reserved": 0}, {"is_disabled": 0, "fusion_lon": 0.0, "fusion_lat": 0.0, "lat": 38.8957215, "type": "electric_scooter", "lon": -77.00455416666667, "bike_id": "468a2c5cfa922453e80c35d387c91074", "rental_uris": {"android": "https://dc.lft.to/lastmile_qr_scan", "ios": "https://dc.lft.to/lastmile_qr_scan"}, "name": "468a2c5cfa922453e80c35d387c91074", "is_reserved": 0}, {"is_disabled": 0, "fusion_lon": 0.0, "fusion_lat": 0.0, "lat": 38.902826, "type": "electric_scooter", "lon": -77.02431366666667, "bike_id": "1a6594a8bf76739787e62660b9ec7b20", "rental_uris": {"android": "https://dc.lft.to/lastmile_qr_scan", "ios": "https://dc.lft.to/lastmile_qr_scan"}, "name": "1a6594a8bf76739787e62660b9ec7b20", "is_reserved": 0}, {"is_disabled": 0, "fusion_lon": 0.0, "fusion_lat": 0.0, "lat": 38.8930865, "type": "electric_scooter", "lon": -77.02202666666666, "bike_id": "15c69783666f02a431f8bad157a15cc7", "rental_uris": {"android": "https://dc.lft.to/lastmile_qr_scan", "ios": "https://dc.lft.to/lastmile_qr_scan"}, "name": "15c69783666f02a431f8bad157a15cc7", "is_reserved": 0}, {"is_disabled": 0, "fusion_lon": 0.0, "fusion_lat": 0.0, "lat": 38.9156565, "type": "electric_scooter", "lon": -77.01208266666667, "bike_id": "eef60dd58eab065211b8d820f7d52f63", "rental_uris": {"android": "https://dc.lft.to/lastmile_qr_scan", "ios": "https://dc.lft.to/lastmile_qr_scan"}, "name": "eef60dd58eab065211b8d820f7d52f63", "is_reserved": 0}, {"is_disabled": 0, "fusion_lon": 0.0, "fusion_lat": 0.0, "lat": 38.858694, "type": "electric_scooter", "lon": -76.99033116666666, "bike_id": "6810827230808cc259150b8df94bbabf", "rental_uris": {"android": "https://dc.lft.to/lastmile_qr_scan", "ios": "https://dc.lft.to/lastmile_qr_scan"}, "name": "6810827230808cc259150b8df94bbabf", "is_reserved": 0}, {"is_disabled": 0, "fusion_lon": 0.0, "fusion_lat": 0.0, "lat": 38.905297833333336, "type": "electric_scooter", "lon": -77.05088233333333, "bike_id": "80f951b0c26a9cdef29dbc8598291830", "rental_uris": {"android": "https://dc.lft.to/lastmile_qr_scan", "ios": "https://dc.lft.to/lastmile_qr_scan"}, "name": "80f951b0c26a9cdef29dbc8598291830", "is_reserved": 0}, {"is_disabled": 0, "fusion_lon": 0.0, "fusion_lat": 0.0, "lat": 38.89727516666667, "type": "electric_scooter", "lon": -77.02505266666667, "bike_id": "be645d30edb526119737268e0af5f8a1", "rental_uris": {"android": "https://dc.lft.to/lastmile_qr_scan", "ios": "https://dc.lft.to/lastmile_qr_scan"}, "name": "be645d30edb526119737268e0af5f8a1", "is_reserved": 0}, {"is_disabled": 0, "fusion_lon": 0.0, "fusion_lat": 0.0, "lat": 38.9203035, "type": "electric_scooter", "lon": -77.03207616666667, "bike_id": "40794d725e17695bfee7b81f45ddfb71", "rental_uris": {"android": "https://dc.lft.to/lastmile_qr_scan", "ios": "https://dc.lft.to/lastmile_qr_scan"}, "name": "40794d725e17695bfee7b81f45ddfb71", "is_reserved": 0}, {"is_disabled": 0, "fusion_lon": 0.0, "fusion_lat": 0.0, "lat": 38.8772575, "type": "electric_scooter", "lon": -77.000599, "bike_id": "00da9a895179085fecbf05a6faf709cb", "rental_uris": {"android": "https://dc.lft.to/lastmile_qr_scan", "ios": "https://dc.lft.to/lastmile_qr_scan"}, "name": "00da9a895179085fecbf05a6faf709cb", "is_reserved": 0}, {"is_disabled": 0, "fusion_lon": 0.0, "fusion_lat": 0.0, "lat": 38.89874183333333, "type": "electric_scooter", "lon": -76.93187833333333, "bike_id": "140f76e4986f38f00cde169a527e068a", "rental_uris": {"android": "https://dc.lft.to/lastmile_qr_scan", "ios": "https://dc.lft.to/lastmile_qr_scan"}, "name": "140f76e4986f38f00cde169a527e068a", "is_reserved": 0}, {"is_disabled": 0, "fusion_lon": 0.0, "fusion_lat": 0.0, "lat": 38.9096895, "type": "electric_scooter", "lon": -77.047646, "bike_id": "058733741f6ff828f535104469768ca0", "rental_uris": {"android": "https://dc.lft.to/lastmile_qr_scan", "ios": "https://dc.lft.to/lastmile_qr_scan"}, "name": "058733741f6ff828f535104469768ca0", "is_reserved": 0}, {"is_disabled": 0, "fusion_lon": 0.0, "fusion_lat": 0.0, "lat": 38.90704316666667, "type": "electric_scooter", "lon": -77.0631465, "bike_id": "3fe2baae4ac5c4162912c65267b53a47", "rental_uris": {"android": "https://dc.lft.to/lastmile_qr_scan", "ios": "https://dc.lft.to/lastmile_qr_scan"}, "name": "3fe2baae4ac5c4162912c65267b53a47", "is_reserved": 0}, {"is_disabled": 0, "fusion_lon": 0.0, "fusion_lat": 0.0, "lat": 38.92309233333334, "type": "electric_scooter", "lon": -77.04038083333333, "bike_id": "d4ab6ebf84cd1dd47c13dbb801b93b24", "rental_uris": {"android": "https://dc.lft.to/lastmile_qr_scan", "ios": "https://dc.lft.to/lastmile_qr_scan"}, "name": "d4ab6ebf84cd1dd47c13dbb801b93b24", "is_reserved": 0}, {"is_disabled": 0, "fusion_lon": 0.0, "fusion_lat": 0.0, "lat": 38.876258, "type": "electric_scooter", "lon": -77.01258183333333, "bike_id": "b10d933d8c0c360564a99df4f80d4f52", "rental_uris": {"android": "https://dc.lft.to/lastmile_qr_scan", "ios": "https://dc.lft.to/lastmile_qr_scan"}, "name": "b10d933d8c0c360564a99df4f80d4f52", "is_reserved": 0}, {"is_disabled": 0, "fusion_lon": 0.0, "fusion_lat": 0.0, "lat": 38.90384316666667, "type": "electric_scooter", "lon": -76.99005383333333, "bike_id": "8fce5e8a1165ecb5a9aa04d9f4f2b39a", "rental_uris": {"android": "https://dc.lft.to/lastmile_qr_scan", "ios": "https://dc.lft.to/lastmile_qr_scan"}, "name": "8fce5e8a1165ecb5a9aa04d9f4f2b39a", "is_reserved": 0}, {"is_disabled": 0, "fusion_lon": 0.0, "fusion_lat": 0.0, "lat": 38.92462333333334, "type": "electric_scooter", "lon": -77.02964216666666, "bike_id": "d5aff57c57fd9a87c380fdbf8684263d", "rental_uris": {"android": "https://dc.lft.to/lastmile_qr_scan", "ios": "https://dc.lft.to/lastmile_qr_scan"}, "name": "d5aff57c57fd9a87c380fdbf8684263d", "is_reserved": 0}, {"is_disabled": 0, "fusion_lon": 0.0, "fusion_lat": 0.0, "lat": 38.902741, "type": "electric_scooter", "lon": -77.02404133333333, "bike_id": "d4c8ec5723a808d31d52145dc9b8eceb", "rental_uris": {"android": "https://dc.lft.to/lastmile_qr_scan", "ios": "https://dc.lft.to/lastmile_qr_scan"}, "name": "d4c8ec5723a808d31d52145dc9b8eceb", "is_reserved": 0}, {"is_disabled": 0, "fusion_lon": 0.0, "fusion_lat": 0.0, "lat": 38.924567333333336, "type": "electric_bike", "lon": -76.9756155, "bike_id": "1970d1e25abfc3de3d1aa8a029ebe4eb", "rental_uris": {"android": "https://dc.lft.to/lastmile_qr_scan", "ios": "https://dc.lft.to/lastmile_qr_scan"}, "name": "1970d1e25abfc3de3d1aa8a029ebe4eb", "is_reserved": 0}, {"is_disabled": 0, "fusion_lon": 0.0, "fusion_lat": 0.0, "lat": 38.91709866666667, "type": "electric_scooter", "lon": -77.0250235, "bike_id": "f628c1b63b64aad4e395988ac5ca29bc", "rental_uris": {"android": "https://dc.lft.to/lastmile_qr_scan", "ios": "https://dc.lft.to/lastmile_qr_scan"}, "name": "f628c1b63b64aad4e395988ac5ca29bc", "is_reserved": 0}, {"is_disabled": 0, "fusion_lon": 0.0, "fusion_lat": 0.0, "lat": 38.93705283333333, "type": "electric_scooter", "lon": -77.02428466666667, "bike_id": "0c93860d30586070e203cf60590676fa", "rental_uris": {"android": "https://dc.lft.to/lastmile_qr_scan", "ios": "https://dc.lft.to/lastmile_qr_scan"}, "name": "0c93860d30586070e203cf60590676fa", "is_reserved": 0}, {"is_disabled": 0, "fusion_lon": 0.0, "fusion_lat": 0.0, "lat": 38.91416183333333, "type": "electric_scooter", "lon": -77.022338, "bike_id": "b5d0eacb395f9a5bac932a026b9d28c1", "rental_uris": {"android": "https://dc.lft.to/lastmile_qr_scan", "ios": "https://dc.lft.to/lastmile_qr_scan"}, "name": "b5d0eacb395f9a5bac932a026b9d28c1", "is_reserved": 0}, {"is_disabled": 0, "fusion_lon": 0.0, "fusion_lat": 0.0, "lat": 38.931546833333336, "type": "electric_scooter", "lon": -77.04368883333333, "bike_id": "77db0b0192eff6ad8d1c2219349ac00e", "rental_uris": {"android": "https://dc.lft.to/lastmile_qr_scan", "ios": "https://dc.lft.to/lastmile_qr_scan"}, "name": "77db0b0192eff6ad8d1c2219349ac00e", "is_reserved": 0}, {"is_disabled": 0, "fusion_lon": 0.0, "fusion_lat": 0.0, "lat": 38.91043583333333, "type": "electric_scooter", "lon": -77.02291566666666, "bike_id": "59649024de22a9928e6cbfb12a5ce484", "rental_uris": {"android": "https://dc.lft.to/lastmile_qr_scan", "ios": "https://dc.lft.to/lastmile_qr_scan"}, "name": "59649024de22a9928e6cbfb12a5ce484", "is_reserved": 0}, {"is_disabled": 0, "fusion_lon": 0.0, "fusion_lat": 0.0, "lat": 38.94626616666667, "type": "electric_bike", "lon": -76.934146, "bike_id": "a5a3e5325ab62c38fcdbb1607b3e4dbc", "rental_uris": {"android": "https://dc.lft.to/lastmile_qr_scan", "ios": "https://dc.lft.to/lastmile_qr_scan"}, "name": "a5a3e5325ab62c38fcdbb1607b3e4dbc", "is_reserved": 0}, {"is_disabled": 0, "fusion_lon": 0.0, "fusion_lat": 0.0, "lat": 38.955989833333334, "type": "electric_scooter", "lon": -77.00983566666666, "bike_id": "6ef3392239069c4d63c603e83fcdfb6b", "rental_uris": {"android": "https://dc.lft.to/lastmile_qr_scan", "ios": "https://dc.lft.to/lastmile_qr_scan"}, "name": "6ef3392239069c4d63c603e83fcdfb6b", "is_reserved": 0}, {"is_disabled": 0, "fusion_lon": 0.0, "fusion_lat": 0.0, "lat": 38.906654, "type": "electric_scooter", "lon": -77.04187466666667, "bike_id": "25cba9fd32b938cdb319639627d37637", "rental_uris": {"android": "https://dc.lft.to/lastmile_qr_scan", "ios": "https://dc.lft.to/lastmile_qr_scan"}, "name": "25cba9fd32b938cdb319639627d37637", "is_reserved": 0}, {"is_disabled": 0, "fusion_lon": 0.0, "fusion_lat": 0.0, "lat": 38.990882666666664, "type": "electric_bike", "lon": -76.87495766666666, "bike_id": "329995cbc1c3bace1fdb41a96179bc0f", "rental_uris": {"android": "https://dc.lft.to/lastmile_qr_scan", "ios": "https://dc.lft.to/lastmile_qr_scan"}, "name": "329995cbc1c3bace1fdb41a96179bc0f", "is_reserved": 0}, {"is_disabled": 0, "fusion_lon": 0.0, "fusion_lat": 0.0, "lat": 38.9457185, "type": "electric_bike", "lon": -76.96029616666667, "bike_id": "6e291f933f4eba4449a307edb80a65db", "rental_uris": {"android": "https://dc.lft.to/lastmile_qr_scan", "ios": "https://dc.lft.to/lastmile_qr_scan"}, "name": "6e291f933f4eba4449a307edb80a65db", "is_reserved": 0}, {"is_disabled": 0, "fusion_lon": 0.0, "fusion_lat": 0.0, "lat": 38.99060766666667, "type": "electric_bike", "lon": -77.10028466666667, "bike_id": "bd8e11f86b91491df15f0f895b42e5d1", "rental_uris": {"android": "https://dc.lft.to/lastmile_qr_scan", "ios": "https://dc.lft.to/lastmile_qr_scan"}, "name": "bd8e11f86b91491df15f0f895b42e5d1", "is_reserved": 0}, {"is_disabled": 0, "fusion_lon": 0.0, "fusion_lat": 0.0, "lat": 38.905255, "type": "electric_scooter", "lon": -77.06531283333334, "bike_id": "4c994c4427f58de5466f8de189c47135", "rental_uris": {"android": "https://dc.lft.to/lastmile_qr_scan", "ios": "https://dc.lft.to/lastmile_qr_scan"}, "name": "4c994c4427f58de5466f8de189c47135", "is_reserved": 0}, {"is_disabled": 0, "fusion_lon": 0.0, "fusion_lat": 0.0, "lat": 38.9110095, "type": "electric_scooter", "lon": -77.037411, "bike_id": "ed8a9fb912023b3350a25b2a1d940dd8", "rental_uris": {"android": "https://dc.lft.to/lastmile_qr_scan", "ios": "https://dc.lft.to/lastmile_qr_scan"}, "name": "ed8a9fb912023b3350a25b2a1d940dd8", "is_reserved": 0}, {"is_disabled": 0, "fusion_lon": 0.0, "fusion_lat": 0.0, "lat": 38.90015233333333, "type": "electric_scooter", "lon": -76.9934525, "bike_id": "9f923d5d6b88715e856611f411c82147", "rental_uris": {"android": "https://dc.lft.to/lastmile_qr_scan", "ios": "https://dc.lft.to/lastmile_qr_scan"}, "name": "9f923d5d6b88715e856611f411c82147", "is_reserved": 0}, {"is_disabled": 0, "fusion_lon": 0.0, "fusion_lat": 0.0, "lat": 38.96215733333333, "type": "electric_scooter", "lon": -77.028054, "bike_id": "a25b5d8439ce724c8877cd810a7524d1", "rental_uris": {"android": "https://dc.lft.to/lastmile_qr_scan", "ios": "https://dc.lft.to/lastmile_qr_scan"}, "name": "a25b5d8439ce724c8877cd810a7524d1", "is_reserved": 0}, {"is_disabled": 0, "fusion_lon": 0.0, "fusion_lat": 0.0, "lat": 38.928649166666666, "type": "electric_scooter", "lon": -77.01382983333333, "bike_id": "c28aa416d417d810d4c480166298c2a2", "rental_uris": {"android": "https://dc.lft.to/lastmile_qr_scan", "ios": "https://dc.lft.to/lastmile_qr_scan"}, "name": "c28aa416d417d810d4c480166298c2a2", "is_reserved": 0}, {"is_disabled": 0, "fusion_lon": 0.0, "fusion_lat": 0.0, "lat": 38.87491816666667, "type": "electric_bike", "lon": -77.04900016666667, "bike_id": "4a93a940a2bf5a70c8684feefb53fe9c", "rental_uris": {"android": "https://dc.lft.to/lastmile_qr_scan", "ios": "https://dc.lft.to/lastmile_qr_scan"}, "name": "4a93a940a2bf5a70c8684feefb53fe9c", "is_reserved": 0}, {"is_disabled": 0, "fusion_lon": 0.0, "fusion_lat": 0.0, "lat": 38.92305616666667, "type": "electric_scooter", "lon": -77.022569, "bike_id": "7bff5505ab11cf8e26f4dada73766eba", "rental_uris": {"android": "https://dc.lft.to/lastmile_qr_scan", "ios": "https://dc.lft.to/lastmile_qr_scan"}, "name": "7bff5505ab11cf8e26f4dada73766eba", "is_reserved": 0}, {"is_disabled": 0, "fusion_lon": 0.0, "fusion_lat": 0.0, "lat": 38.863582666666666, "type": "electric_scooter", "lon": -76.99074016666667, "bike_id": "41a7938d03eb52efa486219889e91d8e", "rental_uris": {"android": "https://dc.lft.to/lastmile_qr_scan", "ios": "https://dc.lft.to/lastmile_qr_scan"}, "name": "41a7938d03eb52efa486219889e91d8e", "is_reserved": 0}, {"is_disabled": 0, "fusion_lon": 0.0, "fusion_lat": 0.0, "lat": 38.91116666666667, "type": "electric_scooter", "lon": -77.04399883333333, "bike_id": "219dd691bfa351047b5b01d712e1a8a5", "rental_uris": {"android": "https://dc.lft.to/lastmile_qr_scan", "ios": "https://dc.lft.to/lastmile_qr_scan"}, "name": "219dd691bfa351047b5b01d712e1a8a5", "is_reserved": 0}, {"is_disabled": 0, "fusion_lon": 0.0, "fusion_lat": 0.0, "lat": 38.912689, "type": "electric_scooter", "lon": -77.0375245, "bike_id": "a396f7ec1cf485e0bb0c90cd48353728", "rental_uris": {"android": "https://dc.lft.to/lastmile_qr_scan", "ios": "https://dc.lft.to/lastmile_qr_scan"}, "name": "a396f7ec1cf485e0bb0c90cd48353728", "is_reserved": 0},