{"data": {"bikes": [{"rental_uris": {"android": "https://dc.lft.to/lastmile_qr_scan", "ios": "https://dc.lft.to/lastmile_qr_scan"}, "type": "electric_scooter", "lon": -77.0684985, "name": "fd46f0af406c14c1ec3ad4c755dfcbf8", "bike_id": "fd46f0af406c14c1ec3ad4c755dfcbf8", "fusion_lat": 0.0, "is_reserved": 0, "lat": 38.90400566666667, "fusion_lon": 0.0, "is_disabled": 0}, {"rental_uris": {"android": "https://dc.lft.to/lastmile_qr_scan", "ios": "https://dc.lft.to/lastmile_qr_scan"}, "type": "electric_scooter", "lon": -77.00339083333333, "name": "440559a0ded4a040cb84590e6f0e4d56", "bike_id": "440559a0ded4a040cb84590e6f0e4d56", "fusion_lat": 0.0, "is_reserved": 0, "lat": 38.8950365, "fusion_lon": 0.0, "is_disabled": 0}, {"rental_uris": {"android": "https://dc.lft.to/lastmile_qr_scan", "ios": "https://dc.lft.to/lastmile_qr_scan"}, "type": "electric_scooter", "lon": -77.04376283333333, "name": "6981f09cbe7126a409967d53d5ed0321", "bike_id": "6981f09cbe7126a409967d53d5ed0321", "fusion_lat": 0.0, "is_reserved": 0, "lat": 38.910530333333334, "fusion_lon": 0.0, "is_disabled": 0}, {"rental_uris": {"android": "https://dc.lft.to/lastmile_qr_scan", "ios": "https://dc.lft.to/lastmile_qr_scan"}, "type": "electric_scooter", "lon": -77.000731, "name": "e821006fa7f389512bdd6b8930080273", "bike_id": "e821006fa7f389512bdd6b8930080273", "fusion_lat": 0.0, "is_reserved": 0, "lat": 38.897427, "fusion_lon": 0.0, "is_disabled": 0}, {"rental_uris": {"android": "https://dc.lft.to/lastmile_qr_scan", "ios": "https://dc.lft.to/lastmile_qr_scan"}, "type": "electric_scooter", "lon": -77.02183033333333, "name": "83d07453f29399117030ea1047fa03a8", "bike_id": "83d07453f29399117030ea1047fa03a8", "fusion_lat": 0.0, "is_reserved": 0, "lat": 38.91115516666667, "fusion_lon": 0.0, "is_disabled": 0}, {"rental_uris": {"android": "https://dc.lft.to/lastmile_qr_scan", "ios": "https://dc.lft.to/lastmile_qr_scan"}, "type": "electric_bike", "lon": -76.87500933333334, "name": "9ec10a0c83132a861f96424034a47e61", "bike_id": "9ec10a0c83132a861f96424034a47e61", "fusion_lat": 0.0, "is_reserved": 0, "lat": 38.990863, "fusion_lon": 0.0, "is_disabled": 0}, {"rental_uris": {"android": "https://dc.lft.to/lastmile_qr_scan", "ios": "https://dc.lft.to/lastmile_qr_scan"}, "type": "electric_scooter", "lon": -77.03846333333334, "name": "acd5e26e143e04d16ed14b8b206160b2", "bike_id": "acd5e26e143e04d16ed14b8b206160b2", "fusion_lat": 0.0, "is_reserved": 0, "lat": 38.91206916666667, "fusion_lon": 0.0, "is_disabled": 0}, {"rental_uris": {"android": "https://dc.lft.to/lastmile_qr_scan", "ios": "https://dc.lft.to/lastmile_qr_scan"}, "type": "electric_scooter", "lon": -77.06559466666667, "name": "9d83023bf215db66076c80eabd224f99", "bike_id": "9d83023bf215db66076c80eabd224f99", "fusion_lat": 0.0, "is_reserved": 0, "lat": 38.905204499999996, "fusion_lon": 0.0, "is_disabled": 0}, {"rental_uris": {"android": "https://dc.lft.to/lastmile_qr_scan", "ios": "https://dc.lft.to/lastmile_qr_scan"}, "type": "electric_scooter", "lon": -77.02695016666667, "name": "35d25982809d206896871abcd3f02167", "bike_id": "35d25982809d206896871abcd3f02167", "fusion_lat": 0.0, "is_reserved": 0, "lat": 38.898656833333334, "fusion_lon": 0.0, "is_disabled": 0}, {"rental_uris": {"android": "https://dc.lft.to/lastmile_qr_scan", "ios": "https://dc.lft.to/lastmile_qr_scan"}, "type": "electric_scooter", "lon": -76.93160283333333, "name": "d691608a2c6a15a6478d61fa3071fd1d", "bike_id": "d691608a2c6a15a6478d61fa3071fd1d", "fusion_lat": 0.0, "is_reserved": 0, "lat": 38.89878233333334, "fusion_lon": 0.0, "is_disabled": 0}, {"rental_uris": {"android": "https://dc.lft.to/lastmile_qr_scan", "ios": "https://dc.lft.to/lastmile_qr_scan"}, "type": "electric_bike", "lon": -77.11225966666667, "name": "96fd3b9df7452bb2898ae99857026cb1", "bike_id": "96fd3b9df7452bb2898ae99857026cb1", "fusion_lat": 0.0, "is_reserved": 0, "lat": 38.8286755, "fusion_lon": 0.0, "is_disabled": 0}, {"rental_uris": {"android": "https://dc.lft.to/lastmile_qr_scan", "ios": "https://dc.lft.to/lastmile_qr_scan"}, "type": "electric_scooter", "lon": -77.02422683333333, "name": "586710993abc8d972a6518aefa453c76", "bike_id": "586710993abc8d972a6518aefa453c76", "fusion_lat": 0.0, "is_reserved": 0, "lat": 38.89222083333333, "fusion_lon": 0.0, "is_disabled": 0}, {"rental_uris": {"android": "https://dc.lft.to/lastmile_qr_scan", "ios": "https://dc.lft.to/lastmile_qr_scan"}, "type": "electric_scooter", "lon": -77.06536916666667, "name": "41d3416e69e822aeff9985fabdd15620", "bike_id": "41d3416e69e822aeff9985fabdd15620", "fusion_lat": 0.0, "is_reserved": 0, "lat": 38.950678833333335, "fusion_lon": 0.0, "is_disabled": 0}, {"rental_uris": {"android": "https://dc.lft.to/lastmile_qr_scan", "ios": "https://dc.lft.to/lastmile_qr_scan"}, "type": "electric_scooter", "lon": -77.02530716666666, "name": "7e1a8fee731badd4a62b44bc1df5214d", "bike_id": "7e1a8fee731badd4a62b44bc1df5214d", "fusion_lat": 0.0, "is_reserved": 0, "lat": 38.92091816666667, "fusion_lon": 0.0, "is_disabled": 0}, {"rental_uris": {"android": "https://dc.lft.to/lastmile_qr_scan", "ios": "https://dc.lft.to/lastmile_qr_scan"}, "type": "electric_bike", "lon": -77.01753216666667, "name": "c62a8b485e4189e30c462ac1d594fbb8", "bike_id": "c62a8b485e4189e30c462ac1d594fbb8", "fusion_lat": 0.0, "is_reserved": 0, "lat": 38.885569833333335, "fusion_lon": 0.0, "is_disabled": 0}, {"rental_uris": {"android": "https://dc.lft.to/lastmile_qr_scan", "ios": "https://dc.lft.to/lastmile_qr_scan"}, "type": "electric_scooter", "lon": -76.98659416666666, "name": "ea18f48c850f9642aab73a911198f105", "bike_id": "ea18f48c850f9642aab73a911198f105", "fusion_lat": 0.0, "is_reserved": 0, "lat": 38.9026975, "fusion_lon": 0.0, "is_disabled": 0}, {"rental_uris": {"android": "https://dc.lft.to/lastmile_qr_scan", "ios": "https://dc.lft.to/lastmile_qr_scan"}, "type": "electric_scooter", "lon": -77.05004783333334, "name": "ba884420d8434e8fe5eeb90e87442202", "bike_id": "ba884420d8434e8fe5eeb90e87442202", "fusion_lat": 0.0, "is_reserved": 0, "lat": 38.892262, "fusion_lon": 0.0, "is_disabled": 0}, {"rental_uris": {"android": "https://dc.lft.to/lastmile_qr_scan", "ios": "https://dc.lft.to/lastmile_qr_scan"}, "type": "electric_scooter", "lon": -76.98766033333334, "name": "edc58c7c5a96893095294391232691ee", "bike_id": "edc58c7c5a96893095294391232691ee", "fusion_lat": 0.0, "is_reserved": 0, "lat": 38.84457116666667, "fusion_lon": 0.0, "is_disabled": 0}, {"rental_uris": {"android": "https://dc.lft.to/lastmile_qr_scan", "ios": "https://dc.lft.to/lastmile_qr_scan"}, "type": "electric_bike", "lon": -77.1780975, "name": "094844e79d8e6e9fe5177a825d1288dc", "bike_id": "094844e79d8e6e9fe5177a825d1288dc", "fusion_lat": 0.0, "is_reserved": 0, "lat": 39.08835083333334, "fusion_lon": 0.0, "is_disabled": 0}, {"rental_uris": {"android": "https://dc.lft.to/lastmile_qr_scan", "ios": "https://dc.lft.to/lastmile_qr_scan"}, "type": "electric_scooter", "lon": -76.98887383333333, "name": "cf0d73f226a0bf41b336c77fa0615937", "bike_id": "cf0d73f226a0bf41b336c77fa0615937", "fusion_lat": 0.0, "is_reserved": 0, "lat": 38.866747833333335, "fusion_lon": 0.0, "is_disabled": 0}, {"rental_uris": {"android": "https://dc.lft.to/lastmile_qr_scan", "ios": "https://dc.lft.to/lastmile_qr_scan"}, "type": "electric_scooter", "lon": -77.03846483333334, "name": "89640b9fe1dd185bc5f154385e845858", "bike_id": "89640b9fe1dd185bc5f154385e845858", "fusion_lat": 0.0, "is_reserved": 0, "lat": 38.915643833333334, "fusion_lon": 0.0, "is_disabled": 0}, {"rental_uris": {"android": "https://dc.lft.to/lastmile_qr_scan", "ios": "https://dc.lft.to/lastmile_qr_scan"}, "type": "electric_scooter", "lon": -76.99403266666667, "name": "487acbf86a1c090012b7d5748798638f", "bike_id": "487acbf86a1c090012b7d5748798638f", "fusion_lat": 0.0, "is_reserved": 0, "lat": 38.885911666666665, "fusion_lon": 0.0, "is_disabled": 0}, {"rental_uris": {"android": "https://dc.lft.to/lastmile_qr_scan", "ios": "https://dc.lft.to/lastmile_qr_scan"}, "type": "electric_scooter", "lon": -76.99943283333333, "name": "3f1e52589a27024ef8d4e1567295737d", "bike_id": "3f1e52589a27024ef8d4e1567295737d", "fusion_lat": 0.0, "is_reserved": 0, "lat": 38.84318533333333, "fusion_lon": 0.0, "is_disabled": 0}, {"rental_uris": {"android": "https://dc.lft.to/lastmile_qr_scan", "ios": "https://dc.lft.to/lastmile_qr_scan"}, "type": "electric_scooter", "lon": -77.04996366666667, "name": "7b0d68ab4359ecadf51d54cc3cd60a35", "bike_id": "7b0d68ab4359ecadf51d54cc3cd60a35", "fusion_lat": 0.0, "is_reserved": 0, "lat": 38.89218866666667, "fusion_lon": 0.0, "is_disabled": 0}, {"rental_uris": {"android": "https://dc.lft.to/lastmile_qr_scan", "ios": "https://dc.lft.to/lastmile_qr_scan"}, "type": "electric_scooter", "lon": -77.07252166666666, "name": "cbd1dd199e5d273ca610b9b5a3ebc520", "bike_id": "cbd1dd199e5d273ca610b9b5a3ebc520", "fusion_lat": 0.0, "is_reserved": 0, "lat": 38.907796, "fusion_lon": 0.0, "is_disabled": 0}, {"rental_uris": {"android": "https://dc.lft.to/lastmile_qr_scan", "ios": "https://dc.lft.to/lastmile_qr_scan"}, "type": "electric_scooter", "lon": -77.03078166666667, "name": "54d5918ddf5b8e5b127112c88456904f", "bike_id": "54d5918ddf5b8e5b127112c88456904f", "fusion_lat": 0.0, "is_reserved": 0, "lat": 38.9223955, "fusion_lon": 0.0, "is_disabled": 0}, {"rental_uris": {"android": "https://dc.lft.to/lastmile_qr_scan", "ios": "https://dc.lft.to/lastmile_qr_scan"}, "type": "electric_scooter", "lon": -77.0204005, "name": "2f9105a4773018639686f610baf5fb5b", "bike_id": "2f9105a4773018639686f610baf5fb5b", "fusion_lat": 0.0, "is_reserved": 0, "lat": 38.89265183333333, "fusion_lon": 0.0, "is_disabled": 0}, {"rental_uris": {"android": "https://dc.lft.to/lastmile_qr_scan", "ios": "https://dc.lft.to/lastmile_qr_scan"}, "type": "electric_scooter", "lon": -77.029557, "name": "54fa2b34b15fe01757f41626d87acee1", "bike_id": "54fa2b34b15fe01757f41626d87acee1", "fusion_lat": 0.0, "is_reserved": 0, "lat": 38.906464166666666, "fusion_lon": 0.0, "is_disabled": 0}, {"rental_uris": {"android": "https://dc.lft.to/lastmile_qr_scan", "ios": "https://dc.lft.to/lastmile_qr_scan"}, "type": "electric_scooter", "lon": -77.02460216666667, "name": "be5b42d739ccc3c59c92130aff9fde91", "bike_id": "be5b42d739ccc3c59c92130aff9fde91", "fusion_lat": 0.0, "is_reserved": 0, "lat": 38.897203833333336, "fusion_lon": 0.0, "is_disabled": 0}, {"rental_uris": {"android": "https://dc.lft.to/lastmile_qr_scan", "ios": "https://dc.lft.to/lastmile_qr_scan"}, "type": "electric_scooter", "lon": -76.94636983333334, "name": "dd2670b05901c6c7e9a315a3edd998c3", "bike_id": "dd2670b05901c6c7e9a315a3edd998c3", "fusion_lat": 0.0, "is_reserved": 0, "lat": 38.898413166666664, "fusion_lon": 0.0, "is_disabled": 0}, {"rental_uris": {"android": "https://dc.lft.to/lastmile_qr_scan", "ios": "https://dc.lft.to/lastmile_qr_scan"}, "type": "electric_scooter", "lon": -77.04158866666667, "name": "46449a410a1e101a4b9d5b76046111e7", "bike_id": "46449a410a1e101a4b9d5b76046111e7", "fusion_lat": 0.0, "is_reserved": 0, "lat": 38.91746933333334, "fusion_lon": 0.0, "is_disabled": 0}, {"rental_uris": {"android": "https://dc.lft.to/lastmile_qr_scan", "ios": "https://dc.lft.to/lastmile_qr_scan"}, "type": "electric_scooter", "lon": -77.02356066666667, "name": "3213de7c734e551d2040d482bf6bf204", "bike_id": "3213de7c734e551d2040d482bf6bf204", "fusion_lat": 0.0, "is_reserved": 0, "lat": 38.8921835, "fusion_lon": 0.0, "is_disabled": 0}, {"rental_uris": {"android": "https://dc.lft.to/lastmile_qr_scan", "ios": "https://dc.lft.to/lastmile_qr_scan"}, "type": "electric_scooter", "lon": -76.98995983333333, "name": "85c93e0155f1f2bf53f7878ff5a8bd39", "bike_id": "85c93e0155f1f2bf53f7878ff5a8bd39", "fusion_lat": 0.0, "is_reserved": 0, "lat": 38.86433616666667, "fusion_lon": 0.0, "is_disabled": 0}, {"rental_uris": {"android": "https://dc.lft.to/lastmile_qr_scan", "ios": "https://dc.lft.to/lastmile_qr_scan"}, "type": "electric_scooter", "lon": -77.03220283333333, "name": "ec064360e52679853f22e9bdabf24eca", "bike_id": "ec064360e52679853f22e9bdabf24eca", "fusion_lat": 0.0, "is_reserved": 0, "lat": 38.92213266666667, "fusion_lon": 0.0, "is_disabled": 0}, {"rental_uris": {"android": "https://dc.lft.to/lastmile_qr_scan", "ios": "https://dc.lft.to/lastmile_qr_scan"}, "type": "electric_scooter", "lon": -76.9948635, "name": "a4038cc99a3dd60ffe40dafde5e7a89c", "bike_id": "a4038cc99a3dd60ffe40dafde5e7a89c", "fusion_lat": 0.0, "is_reserved": 0, "lat": 38.8773355, "fusion_lon": 0.0, "is_disabled": 0}, {"rental_uris": {"android": "https://dc.lft.to/lastmile_qr_scan", "ios": "https://dc.lft.to/lastmile_qr_scan"}, "type": "electric_scooter", "lon": -76.995788, "name": "b3239602c6025a7ee784bf9e78eaf4c7", "bike_id": "b3239602c6025a7ee784bf9e78eaf4c7", "fusion_lat": 0.0, "is_reserved": 0, "lat": 38.920327666666665, "fusion_lon": 0.0, "is_disabled": 0}, {"rental_uris": {"android": "https://dc.lft.to/lastmile_qr_scan", "ios": "https://dc.lft.to/lastmile_qr_scan"}, "type": "electric_scooter", "lon": -77.02157683333333, "name": "46ba9e318153f79b1783b02486affb46", "bike_id": "46ba9e318153f79b1783b02486affb46", "fusion_lat": 0.0, "is_reserved": 0, "lat": 38.8849355, "fusion_lon": 0.0, "is_disabled": 0}, {"rental_uris": {"android": "https://dc.lft.to/lastmile_qr_scan", "ios": "https://dc.lft.to/lastmile_qr_scan"}, "type": "electric_scooter", "lon": -77.002333, "name": "0f3cb8a0d0ed6f0ccc2659bcc2e39d45", "bike_id": "0f3cb8a0d0ed6f0ccc2659bcc2e39d45", "fusion_lat": 0.0, "is_reserved": 0, "lat": 38.87492116666667, "fusion_lon": 0.0, "is_disabled": 0}, {"rental_uris": {"android": "https://dc.lft.to/lastmile_qr_scan", "ios": "https://dc.lft.to/lastmile_qr_scan"}, "type": "electric_scooter", "lon": -77.04173583333333, "name": "15c2a9c1a9becc35e8db86b680e6a71e", "bike_id": "15c2a9c1a9becc35e8db86b680e6a71e", "fusion_lat": 0.0, "is_reserved": 0, "lat": 38.91333383333333, "fusion_lon": 0.0, "is_disabled": 0}, {"rental_uris": {"android": "https://dc.lft.to/lastmile_qr_scan", "ios": "https://dc.lft.to/lastmile_qr_scan"}, "type": "electric_scooter", "lon": -77.025152, "name": "ffcee526bd7e03a798cbc3488491a09a", "bike_id": "ffcee526bd7e03a798cbc3488491a09a", "fusion_lat": 0.0, "is_reserved": 0, "lat": 38.9014995, "fusion_lon": 0.0, "is_disabled": 0}, {"rental_uris": {"android": "https://dc.lft.to/lastmile_qr_scan", "ios": "https://dc.lft.to/lastmile_qr_scan"}, "type": "electric_scooter", "lon": -77.03298566666666, "name": "5ac12a7dbeebb58f1038db6eb0c36158", "bike_id": "5ac12a7dbeebb58f1038db6eb0c36158", "fusion_lat": 0.0, "is_reserved": 0, "lat": 38.95648083333333, "fusion_lon": 0.0, "is_disabled": 0}, {"rental_uris": {"android": "https://dc.lft.to/lastmile_qr_scan", "ios": "https://dc.lft.to/lastmile_qr_scan"}, "type": "electric_scooter", "lon": -77.019268, "name": "cab4f5f0b24b379152ba7bab5f9805f5", "bike_id": "cab4f5f0b24b379152ba7bab5f9805f5", "fusion_lat": 0.0, "is_reserved": 0, "lat": 38.9357265, "fusion_lon": 0.0, "is_disabled": 0}, {"rental_uris": {"android": "https://dc.lft.to/lastmile_qr_scan", "ios": "https://dc.lft.to/lastmile_qr_scan"}, "type": "electric_bike", "lon": -77.1099505, "name": "5766a2a010adfd26b1bad874b05c786e", "bike_id": "5766a2a010adfd26b1bad874b05c786e", "fusion_lat": 0.0, "is_reserved": 0, "lat": 38.87048983333333, "fusion_lon": 0.0, "is_disabled": 0}, {"rental_uris": {"android": "https://dc.lft.to/lastmile_qr_scan", "ios": "https://dc.lft.to/lastmile_qr_scan"}, "type": "electric_scooter", "lon": -77.034591, "name": "ae99f6692e0ddddeed2966f56977d7a5", "bike_id": "ae99f6692e0ddddeed2966f56977d7a5", "fusion_lat": 0.0, "is_reserved": 0, "lat": 38.9031345, "fusion_lon": 0.0, "is_disabled": 0}, {"rental_uris": {"android": "https://dc.lft.to/lastmile_qr_scan", "ios": "https://dc.lft.to/lastmile_qr_scan"}, "type": "electric_scooter", "lon": -77.0386425, "name": "9a67216a06be6beeffa6684e4f79decb", "bike_id": "9a67216a06be6beeffa6684e4f79decb", "fusion_lat": 0.0, "is_reserved": 0, "lat": 38.91805, "fusion_lon": 0.0, "is_disabled": 0}, {"rental_uris": {"android": "https://dc.lft.to/lastmile_qr_scan", "ios": "https://dc.lft.to/lastmile_qr_scan"}, "type": "electric_scooter", "lon": -76.99847716666666, "name": "92848f200c48f52d63807da65377179f", "bike_id": "92848f200c48f52d63807da65377179f", "fusion_lat": 0.0, "is_reserved": 0, "lat": 38.95361283333333, "fusion_lon": 0.0, "is_disabled": 0}, {"rental_uris": {"android": "https://dc.lft.to/lastmile_qr_scan", "ios": "https://dc.lft.to/lastmile_qr_scan"}, "type": "electric_scooter", "lon": -77.023495, "name": "9f252122a78d20f0e9c7f64faccb5e07", "bike_id": "9f252122a78d20f0e9c7f64faccb5e07", "fusion_lat": 0.0, "is_reserved": 0, "lat": 38.92986066666667, "fusion_lon": 0.0, "is_disabled": 0}, {"rental_uris": {"android": "https://dc.lft.to/lastmile_qr_scan", "ios": "https://dc.lft.to/lastmile_qr_scan"}, "type": "electric_scooter", "lon": -77.03164833333334, "name": "258e863777d7ae7a781d50571880c7ef", "bike_id": "258e863777d7ae7a781d50571880c7ef", "fusion_lat": 0.0, "is_reserved": 0, "lat": 38.92715116666667, "fusion_lon": 0.0, "is_disabled": 0}, {"rental_uris": {"android": "https://dc.lft.to/lastmile_qr_scan", "ios": "https://dc.lft.to/lastmile_qr_scan"}, "type": "electric_scooter", "lon": -77.02188833333334, "name": "f6d1116c81bbf41a0611afd7f29004ae", "bike_id": "f6d1116c81bbf41a0611afd7f29004ae", "fusion_lat": 0.0, "is_reserved": 0, "lat": 38.90588233333333, "fusion_lon": 0.0, "is_disabled": 0}, {"rental_uris": {"android": "https://dc.lft.to/lastmile_qr_scan", "ios": "https://dc.lft.to/lastmile_qr_scan"}, "type": "electric_scooter", "lon": -77.04770216666667, "name": "60a4ffe9378394cf2e3df710c63d374f", "bike_id": "60a4ffe9378394cf2e3df710c63d374f", "fusion_lat": 0.0, "is_reserved": 0, "lat": 38.917670666666666, "fusion_lon": 0.0, "is_disabled": 0}, {"rental_uris": {"android": "https://dc.lft.to/lastmile_qr_scan", "ios": "https://dc.lft.to/lastmile_qr_scan"}, "type": "electric_scooter", "lon": -77.00759483333333, "name": "72a3717dd9731797760031447eefd2d7", "bike_id": "72a3717dd9731797760031447eefd2d7", "fusion_lat": 0.0, "is_reserved": 0, "lat": 38.87641716666667, "fusion_lon": 0.0, "is_disabled": 0}, {"rental_uris": {"android": "https://dc.lft.to/lastmile_qr_scan", "ios": "https://dc.lft.to/lastmile_qr_scan"}, "type": "electric_scooter", "lon": -77.02004683333334, "name": "d5d19efe166458c0d9c25a6107681062", "bike_id": "d5d19efe166458c0d9c25a6107681062", "fusion_lat": 0.0, "is_reserved": 0, "lat": 38.913299333333335, "fusion_lon": 0.0, "is_disabled": 0}, {"rental_uris": {"android": "https://dc.lft.to/lastmile_qr_scan", "ios": "https://dc.lft.to/lastmile_qr_scan"}, "type": "electric_scooter", "lon": -77.026967, "name": "75e17876a857b6155294afb177f00098", "bike_id": "75e17876a857b6155294afb177f00098", "fusion_lat": 0.0, "is_reserved": 0, "lat": 38.91658816666666, "fusion_lon": 0.0, "is_disabled": 0}, {"rental_uris": {"android": "https://dc.lft.to/lastmile_qr_scan", "ios": "https://dc.lft.to/lastmile_qr_scan"}, "type": "electric_bike", "lon": -76.97981766666666, "name": "b7d0e97875a677b7acd69c57c8a258d5", "bike_id": "b7d0e97875a677b7acd69c57c8a258d5", "fusion_lat": 0.0, "is_reserved": 0, "lat": 38.95772316666667, "fusion_lon": 0.0, "is_disabled": 0}, {"rental_uris": {"android": "https://dc.lft.to/lastmile_qr_scan", "ios": "https://dc.lft.to/lastmile_qr_scan"}, "type": "electric_scooter", "lon": -77.0265375, "name": "a0070910bc27fdd25b5ec2f1666f6c59", "bike_id": "a0070910bc27fdd25b5ec2f1666f6c59", "fusion_lat": 0.0, "is_reserved": 0, "lat": 38.88105766666666, "fusion_lon": 0.0, "is_disabled": 0}, {"rental_uris": {"android": "https://dc.lft.to/lastmile_qr_scan", "ios": "https://dc.lft.to/lastmile_qr_scan"}, "type": "electric_scooter", "lon": -77.04347916666667, "name": "8c474312e6e4a62ffe636f0f698d7f67", "bike_id": "8c474312e6e4a62ffe636f0f698d7f67", "fusion_lat": 0.0, "is_reserved": 0, "lat": 38.91364683333333, "fusion_lon": 0.0, "is_disabled": 0}, {"rental_uris": {"android": "https://dc.lft.to/lastmile_qr_scan", "ios": "https://dc.lft.to/lastmile_qr_scan"}, "type": "electric_bike", "lon": -76.91125933333333, "name": "467e878d86895d58f644be04d9d9e9c1", "bike_id": "467e878d86895d58f644be04d9d9e9c1", "fusion_lat": 0.0, "is_reserved": 0, "lat": 39.010327, "fusion_lon": 0.0, "is_disabled": 0}, {"rental_uris": {"android": "https://dc.lft.to/lastmile_qr_scan", "ios": "https://dc.lft.to/lastmile_qr_scan"}, "type": "electric_scooter", "lon": -77.05265983333334, "name": "697f60ffa36dd73a1983948a66109c26", "bike_id": "697f60ffa36dd73a1983948a66109c26", "fusion_lat": 0.0, "is_reserved": 0, "lat": 38.92753833333333, "fusion_lon": 0.0, "is_disabled": 0}, {"rental_uris": {"android": "https://dc.lft.to/lastmile_qr_scan", "ios": "https://dc.lft.to/lastmile_qr_scan"}, "type": "electric_scooter", "lon": -77.01039433333334, "name": "1881474d97b2c11bfe0d7eaa28cc7c32", "bike_id": "1881474d97b2c11bfe0d7eaa28cc7c32", "fusion_lat": 0.0, "is_reserved": 0, "lat": 38.88446, "fusion_lon": 0.0, "is_disabled": 0}, {"rental_uris": {"android": "https://dc.lft.to/lastmile_qr_scan", "ios": "https://dc.lft.to/lastmile_qr_scan"}, "type": "electric_scooter", "lon": -76.98392016666666, "name": "d6d1ee5c943815a4f9fafe5eb03dbb98", "bike_id": "d6d1ee5c943815a4f9fafe5eb03dbb98", "fusion_lat": 0.0, "is_reserved": 0, "lat": 38.90965583333333, "fusion_lon": 0.0, "is_disabled": 0}, {"rental_uris": {"android": "https://dc.lft.to/lastmile_qr_scan", "ios": "https://dc.lft.to/lastmile_qr_scan"}, "type": "electric_scooter", "lon": -76.94150116666667, "name": "2e6b5d09bcba63e8df75ebe27e1b664e", "bike_id": "2e6b5d09bcba63e8df75ebe27e1b664e", "fusion_lat": 0.0, "is_reserved": 0, "lat": 38.89105883333333, "fusion_lon": 0.0, "is_disabled": 0}, {"rental_uris": {"android": "https://dc.lft.to/lastmile_qr_scan", "ios": "https://dc.lft.to/lastmile_qr_scan"}, "type": "electric_scooter", "lon": -77.02575233333333, "name": "79bab414cc8beafbf5468c19d2ca7d5e", "bike_id": "79bab414cc8beafbf5468c19d2ca7d5e", "fusion_lat": 0.0, "is_reserved": 0, "lat": 38.925701833333335, "fusion_lon": 0.0, "is_disabled": 0}, {"rental_uris": {"android": "https://dc.lft.to/lastmile_qr_scan", "ios": "https://dc.lft.to/lastmile_qr_scan"}, "type": "electric_scooter", "lon": -77.013564, "name": "2511b6d0adb828fee640dfe6138cbdaa", "bike_id": "2511b6d0adb828fee640dfe6138cbdaa", "fusion_lat": 0.0, "is_reserved": 0, "lat": 38.903862333333336, "fusion_lon": 0.0, "is_disabled": 0}, {"rental_uris": {"android": "https://dc.lft.to/lastmile_qr_scan", "ios": "https://dc.lft.to/lastmile_qr_scan"}, "type": "electric_scooter", "lon": -76.985972, "name": "4d47284ebd3e461b8e91eb8cdb3fbb1c", "bike_id": "4d47284ebd3e461b8e91eb8cdb3fbb1c", "fusion_lat": 0.0, "is_reserved": 0, "lat": 38.889663, "fusion_lon": 0.0, "is_disabled": 0}, {"rental_uris": {"android": "https://dc.lft.to/lastmile_qr_scan", "ios": "https://dc.lft.to/lastmile_qr_scan"}, "type": "electric_scooter", "lon": -76.99392066666667, "name": "3b41540e01d4629bd4e289135ccc2b80", "bike_id": "3b41540e01d4629bd4e289135ccc2b80", "fusion_lat": 0.0, "is_reserved": 0, "lat": 38.91010516666667, "fusion_lon": 0.0, "is_disabled": 0}, {"rental_uris": {"android": "https://dc.lft.to/lastmile_qr_scan", "ios": "https://dc.lft.to/lastmile_qr_scan"}, "type": "electric_scooter", "lon": -76.99749166666666, "name": "3da17ff71297c749bd62b7433f0d0f2b", "bike_id": "3da17ff71297c749bd62b7433f0d0f2b", "fusion_lat": 0.0, "is_reserved": 0, "lat": 38.93251983333333, "fusion_lon": 0.0, "is_disabled": 0}, {"rental_uris": {"android": "https://dc.lft.to/lastmile_qr_scan", "ios": "https://dc.lft.to/lastmile_qr_scan"}, "type": "electric_scooter", "lon": -77.02853466666667, "name": "14eed43e55b9176e3d3050ff1ba936f2", "bike_id": "14eed43e55b9176e3d3050ff1ba936f2", "fusion_lat": 0.0, "is_reserved": 0, "lat": 38.900180166666665, "fusion_lon": 0.0, "is_disabled": 0}, {"rental_uris": {"android": "https://dc.lft.to/lastmile_qr_scan", "ios": "https://dc.lft.to/lastmile_qr_scan"}, "type": "electric_scooter", "lon": -77.05143016666666, "name": "5a1b64ac40cf0ca0c831aa25a4c7a407", "bike_id": "5a1b64ac40cf0ca0c831aa25a4c7a407", "fusion_lat": 0.0, "is_reserved": 0, "lat": 38.9057295, "fusion_lon": 0.0, "is_disabled": 0}, {"rental_uris": {"android": "https://dc.lft.to/lastmile_qr_scan", "ios": "https://dc.lft.to/lastmile_qr_scan"}, "type": "electric_scooter", "lon": -77.0242495, "name": "4a5456602315d03873af5de04b41852c", "bike_id": "4a5456602315d03873af5de04b41852c", "fusion_lat": 0.0, "is_reserved": 0, "lat": 38.892181, "fusion_lon": 0.0, "is_disabled": 0}, {"rental_uris": {"android": "https://dc.lft.to/lastmile_qr_scan", "ios": "https://dc.lft.to/lastmile_qr_scan"}, "type": "electric_scooter", "lon": -77.04126783333334, "name": "9c2609aadb9edc701141425d51ae99e9", "bike_id": "9c2609aadb9edc701141425d51ae99e9", "fusion_lat": 0.0, "is_reserved": 0, "lat": 38.916304, "fusion_lon": 0.0, "is_disabled": 0}, {"rental_uris": {"android": "https://dc.lft.to/lastmile_qr_scan", "ios": "https://dc.lft.to/lastmile_qr_scan"}, "type": "electric_bike", "lon": -77.12263516666667, "name": "b3c2673d494efbffddd6487d8e264033", "bike_id": "b3c2673d494efbffddd6487d8e264033", "fusion_lat": 0.0, "is_reserved": 0, "lat": 38.8918465, "fusion_lon": 0.0, "is_disabled": 0}, {"rental_uris": {"android": "https://dc.lft.to/lastmile_qr_scan", "ios": "https://dc.lft.to/lastmile_qr_scan"}, "type": "electric_scooter", "lon": -77.01556466666666, "name": "34b20eab12fc77a87b02a6597ea79adf", "bike_id": "34b20eab12fc77a87b02a6597ea79adf", "fusion_lat": 0.0, "is_reserved": 0, "lat": 38.91468716666667, "fusion_lon": 0.0, "is_disabled": 0}, {"rental_uris": {"android": "https://dc.lft.to/lastmile_qr_scan", "ios": "https://dc.lft.to/lastmile_qr_scan"}, "type": "electric_scooter", "lon": -76.98496283333333, "name": "8997dfc04e26c8ac264c59c1e5d396e8", "bike_id": "8997dfc04e26c8ac264c59c1e5d396e8", "fusion_lat": 0.0, "is_reserved": 0, "lat": 38.900139333333335, "fusion_lon": 0.0, "is_disabled": 0}, {"rental_uris": {"android": "https://dc.lft.to/lastmile_qr_scan", "ios": "https://dc.lft.to/lastmile_qr_scan"}, "type": "electric_bike", "lon": -76.93535966666667, "name": "8b5dbe4a837061fb263389a2d083b390", "bike_id": "8b5dbe4a837061fb263389a2d083b390", "fusion_lat": 0.0, "is_reserved": 0, "lat": 38.955521833333336, "fusion_lon": 0.0, "is_disabled": 0}, {"rental_uris": {"android": "https://dc.lft.to/lastmile_qr_scan", "ios": "https://dc.lft.to/lastmile_qr_scan"}, "type": "electric_bike", "lon": -77.0768865, "name": "9d4cb6f79ee89a297337c550cd52bd52", "bike_id": "9d4cb6f79ee89a297337c550cd52bd52", "fusion_lat": 0.0, "is_reserved": 0, "lat": 38.83189466666666, "fusion_lon": 0.0, "is_disabled": 0}, {"rental_uris": {"android": "https://dc.lft.to/lastmile_qr_scan", "ios": "https://dc.lft.to/lastmile_qr_scan"}, "type": "electric_bike", "lon": -77.11231483333333, "name": "bace160534294b59e502588ac616383f", "bike_id": "bace160534294b59e502588ac616383f", "fusion_lat": 0.0, "is_reserved": 0, "lat": 38.82867016666667, "fusion_lon": 0.0, "is_disabled": 0}, {"rental_uris": {"android": "https://dc.lft.to/lastmile_qr_scan", "ios": "https://dc.lft.to/lastmile_qr_scan"}, "type": "electric_scooter", "lon": -77.00221466666666, "name": "12e10019cb34e14292dfdd7ec0674870", "bike_id": "12e10019cb34e14292dfdd7ec0674870", "fusion_lat": 0.0, "is_reserved": 0, "lat": 38.87741466666667, "fusion_lon": 0.0, "is_disabled": 0}, {"rental_uris": {"android": "https://dc.lft.to/lastmile_qr_scan", "ios": "https://dc.lft.to/lastmile_qr_scan"}, "type": "electric_scooter", "lon": -77.00111216666667, "name": "1013cc398337d095385689e6ded43c3b", "bike_id": "1013cc398337d095385689e6ded43c3b", "fusion_lat": 0.0, "is_reserved": 0, "lat": 38.899998, "fusion_lon": 0.0, "is_disabled": 0}, {"rental_uris": {"android": "https://dc.lft.to/lastmile_qr_scan", "ios": "https://dc.lft.to/lastmile_qr_scan"}, "type": "electric_scooter", "lon": -77.01102283333333, "name": "0c5385fce4bd3c4d084358cabe9e7f3f", "bike_id": "0c5385fce4bd3c4d084358cabe9e7f3f", "fusion_lat": 0.0, "is_reserved": 0, "lat": 38.9055165, "fusion_lon": 0.0, "is_disabled": 0}, {"rental_uris": {"android": "https://dc.lft.to/lastmile_qr_scan", "ios": "https://dc.lft.to/lastmile_qr_scan"}, "type": "electric_scooter", "lon": -77.02812366666667, "name": "27d62cc6b99d15fc719274c6e7d2e220", "bike_id": "27d62cc6b99d15fc719274c6e7d2e220", "fusion_lat": 0.0, "is_reserved": 0, "lat": 38.956141333333335, "fusion_lon": 0.0, "is_disabled": 0}, {"rental_uris": {"android": "https://dc.lft.to/lastmile_qr_scan", "ios": "https://dc.lft.to/lastmile_qr_scan"}, "type": "electric_scooter", "lon": -76.9916385, "name": "1b1b55756095c8ce6cf6a82d5bef7ab5", "bike_id": "1b1b55756095c8ce6cf6a82d5bef7ab5", "fusion_lat": 0.0, "is_reserved": 0, "lat": 38.87915533333333, "fusion_lon": 0.0, "is_disabled": 0}, {"rental_uris": {"android": "https://dc.lft.to/lastmile_qr_scan", "ios": "https://dc.lft.to/lastmile_qr_scan"}, "type": "electric_scooter", "lon": -77.04763116666666, "name": "2639775127de04b1a95cb8441d4d0971", "bike_id": "2639775127de04b1a95cb8441d4d0971", "fusion_lat": 0.0, "is_reserved": 0, "lat": 38.902304, "fusion_lon": 0.0, "is_disabled": 0}, {"rental_uris": {"android": "https://dc.lft.to/lastmile_qr_scan", "ios": "https://dc.lft.to/lastmile_qr_scan"}, "type": "electric_scooter", "lon": -77.0676965, "name": "1a9ee3fdb8b9efb27d4cb097567ab927", "bike_id": "1a9ee3fdb8b9efb27d4cb097567ab927", "fusion_lat": 0.0, "is_reserved": 0, "lat": 38.90354, "fusion_lon": 0.0, "is_disabled": 0}, {"rental_uris": {"android": "https://dc.lft.to/lastmile_qr_scan", "ios": "https://dc.lft.to/lastmile_qr_scan"}, "type": "electric_bike", "lon": -76.98739783333333, "name": "0aa1144935b634867d66612b1a552453", "bike_id": "0aa1144935b634867d66612b1a552453", "fusion_lat": 0.0, "is_reserved": 0, "lat": 38.94426716666667, "fusion_lon": 0.0, "is_disabled": 0}, {"rental_uris": {"android": "https://dc.lft.to/lastmile_qr_scan", "ios": "https://dc.lft.to/lastmile_qr_scan"}, "type": "electric_scooter", "lon": -77.04786416666667, "name": "5db4bf8b1e6ef7f0203203c5c843f9aa", "bike_id": "5db4bf8b1e6ef7f0203203c5c843f9aa", "fusion_lat": 0.0, "is_reserved": 0, "lat": 38.9022915, "fusion_lon": 0.0, "is_disabled": 0}, {"rental_uris": {"android": "https://dc.lft.to/lastmile_qr_scan", "ios": "https://dc.lft.to/lastmile_qr_scan"}, "type": "electric_scooter", "lon": -77.078637, "name": "9a8544bd7b71fe21c54fdfae81197437", "bike_id": "9a8544bd7b71fe21c54fdfae81197437", "fusion_lat": 0.0, "is_reserved": 0, "lat": 38.92461866666667, "fusion_lon": 0.0, "is_disabled": 0}, {"rental_uris": {"android": "https://dc.lft.to/lastmile_qr_scan", "ios": "https://dc.lft.to/lastmile_qr_scan"}, "type": "electric_scooter", "lon": -77.032814, "name": "2908dc755076447ebba7d754d897d3b4", "bike_id": "2908dc755076447ebba7d754d897d3b4", "fusion_lat": 0.0, "is_reserved": 0, "lat": 38.95645233333333, "fusion_lon": 0.0, "is_disabled": 0}, {"rental_uris": {"android": "https://dc.lft.to/lastmile_qr_scan", "ios": "https://dc.lft.to/lastmile_qr_scan"}, "type": "electric_scooter", "lon": -77.02402283333333, "name": "6c3a0f2449646d9834b09380e9688480", "bike_id": "6c3a0f2449646d9834b09380e9688480", "fusion_lat": 0.0, "is_reserved": 0, "lat": 38.907371, "fusion_lon": 0.0, "is_disabled": 0}, {"rental_uris": {"android": "https://dc.lft.to/lastmile_qr_scan", "ios": "https://dc.lft.to/lastmile_qr_scan"}, "type": "electric_scooter", "lon": -77.0044915, "name": "10f41356f979c973b545ce51d2a7611f", "bike_id": "10f41356f979c973b545ce51d2a7611f", "fusion_lat": 0.0, "is_reserved": 0, "lat": 38.907183833333335, "fusion_lon": 0.0, "is_disabled": 0}, {"rental_uris": {"android": "https://dc.lft.to/lastmile_qr_scan", "ios": "https://dc.lft.to/lastmile_qr_scan"}, "type": "electric_scooter", "lon": -77.03429916666667, "name": "6c84c6e1951d30d01cae98a5eb1ed14e", "bike_id": "6c84c6e1951d30d01cae98a5eb1ed14e", "fusion_lat": 0.0, "is_reserved": 0, "lat": 38.91683483333333, "fusion_lon": 0.0, "is_disabled": 0}, {"rental_uris": {"android": "https://dc.lft.to/lastmile_qr_scan", "ios": "https://dc.lft.to/lastmile_qr_scan"}, "type": "electric_scooter", "lon": -76.94769183333334, "name": "dd33dc77fbf6ef04b7009eff2917e72d", "bike_id": "dd33dc77fbf6ef04b7009eff2917e72d", "fusion_lat": 0.0, "is_reserved": 0, "lat": 38.89630783333333, "fusion_lon": 0.0, "is_disabled": 0}, {"rental_uris": {"android": "https://dc.lft.to/lastmile_qr_scan", "ios": "https://dc.lft.to/lastmile_qr_scan"}, "type": "electric_bike", "lon": -77.08943883333333, "name": "04c61cbf66fff3a9c85c01f030cb0189", "bike_id": "04c61cbf66fff3a9c85c01f030cb0189", "fusion_lat": 0.0, "is_reserved": 0, "lat": 38.84090466666667, "fusion_lon": 0.0, "is_disabled": 0}, {"rental_uris": {"android": "https://dc.lft.to/lastmile_qr_scan", "ios": "https://dc.lft.to/lastmile_qr_scan"}, "type": "electric_scooter", "lon": -76.94945366666667, "name": "e4f3fa9a19b43ed53f4f1f645e1578b8", "bike_id": "e4f3fa9a19b43ed53f4f1f645e1578b8", "fusion_lat": 0.0, "is_reserved": 0, "lat": 38.883196166666664, "fusion_lon": 0.0, "is_disabled": 0}, {"rental_uris": {"android": "https://dc.lft.to/lastmile_qr_scan", "ios": "https://dc.lft.to/lastmile_qr_scan"}, "type": "electric_scooter", "lon": -77.030004, "name": "3a6b0dcbb09465ceee62bf7e2ace73e4", "bike_id": "3a6b0dcbb09465ceee62bf7e2ace73e4", "fusion_lat": 0.0, "is_reserved": 0, "lat": 38.92479683333333, "fusion_lon": 0.0, "is_disabled": 0}, {"rental_uris": {"android": "https://dc.lft.to/lastmile_qr_scan", "ios": "https://dc.lft.to/lastmile_qr_scan"}, "type": "electric_bike", "lon": -77.02697183333333, "name": "ad7f52ac3b2e535542b9b6bbf31275e9", "bike_id": "ad7f52ac3b2e535542b9b6bbf31275e9", "fusion_lat": 0.0, "is_reserved": 0, "lat": 38.97369716666667, "fusion_lon": 0.0, "is_disabled": 0}, {"rental_uris": {"android": "https://dc.lft.to/lastmile_qr_scan", "ios": "https://dc.lft.to/lastmile_qr_scan"}, "type": "electric_bike", "lon": -76.9884415, "name": "06627f455ef3d6de722f758691ebece4", "bike_id": "06627f455ef3d6de722f758691ebece4", "fusion_lat": 0.0, "is_reserved": 0, "lat": 38.84270733333334, "fusion_lon": 0.0, "is_disabled": 0}, {"rental_uris": {"android": "https://dc.lft.to/lastmile_qr_scan", "ios": "https://dc.lft.to/lastmile_qr_scan"}, "type": "electric_bike", "lon": -77.085321, "name": "7bd15367f90b1671cb3c647fbf234501", "bike_id": "7bd15367f90b1671cb3c647fbf234501", "fusion_lat": 0.0, "is_reserved": 0, "lat": 38.85645, "fusion_lon": 0.0, "is_disabled": 0}, {"rental_uris": {"android": "https://dc.lft.to/lastmile_qr_scan", "ios": "https://dc.lft.to/lastmile_qr_scan"}, "type": "electric_scooter", "lon": -77.01114483333333, "name": "f1c70b8e6c070e35bdade6a87c1cae8a", "bike_id": "f1c70b8e6c070e35bdade6a87c1cae8a", "fusion_lat": 0.0, "is_reserved": 0, "lat": 38.903540666666665, "fusion_lon": 0.0, "is_disabled": 0}, {"rental_uris": {"android": "https://dc.lft.to/lastmile_qr_scan", "ios": "https://dc.lft.to/lastmile_qr_scan"}, "type": "electric_scooter", "lon": -77.032067, "name": "6d59fa79bb5e203ca3defd6633472270", "bike_id": "6d59fa79bb5e203ca3defd6633472270", "fusion_lat": 0.0, "is_reserved": 0, "lat": 38.922749, "fusion_lon": 0.0, "is_disabled": 0}, {"rental_uris": {"android": "https://dc.lft.to/lastmile_qr_scan", "ios": "https://dc.lft.to/lastmile_qr_scan"}, "type": "electric_scooter", "lon": -77.02549216666667, "name": "8f8b44b67e51a870b5b8096e29335b74", "bike_id": "8f8b44b67e51a870b5b8096e29335b74", "fusion_lat": 0.0, "is_reserved": 0, "lat": 38.89212533333333, "fusion_lon": 0.0, "is_disabled": 0}, {"rental_uris": {"android": "https://dc.lft.to/lastmile_qr_scan", "ios": "https://dc.lft.to/lastmile_qr_scan"}, "type": "electric_scooter", "lon": -77.04845133333333, "name": "909cef72e7bafafd6fbeb76a33b41c02", "bike_id": "909cef72e7bafafd6fbeb76a33b41c02", "fusion_lat": 0.0, "is_reserved": 0, "lat": 38.91324183333333, "fusion_lon": 0.0, "is_disabled": 0}, {"rental_uris": {"android": "https://dc.lft.to/lastmile_qr_scan", "ios": "https://dc.lft.to/lastmile_qr_scan"}, "type": "electric_scooter", "lon": -76.9484565, "name": "11650eca796b971a36520e4e282ddb85", "bike_id": "11650eca796b971a36520e4e282ddb85", "fusion_lat": 0.0, "is_reserved": 0, "lat": 38.89483666666667, "fusion_lon": 0.0, "is_disabled": 0}, {"rental_uris": {"android": "https://dc.lft.to/lastmile_qr_scan", "ios": "https://dc.lft.to/lastmile_qr_scan"}, "type": "electric_scooter", "lon": -77.03205733333333, "name": "9cbcdb8a21cbbb03fc2392e580219598", "bike_id": "9cbcdb8a21cbbb03fc2392e580219598", "fusion_lat": 0.0, "is_reserved": 0, "lat": 38.913359166666666, "fusion_lon": 0.0, "is_disabled": 0}, {"rental_uris": {"android": "https://dc.lft.to/lastmile_qr_scan", "ios": "https://dc.lft.to/lastmile_qr_scan"}, "type": "electric_scooter", "lon": -77.06032583333334, "name": "1adcd5abdb419cb576611d6e7163d147", "bike_id": "1adcd5abdb419cb576611d6e7163d147", "fusion_lat": 0.0, "is_reserved": 0, "lat": 38.93924766666667, "fusion_lon": 0.0, "is_disabled": 0}, {"rental_uris": {"android": "https://dc.lft.to/lastmile_qr_scan", "ios": "https://dc.lft.to/lastmile_qr_scan"}, "type": "electric_scooter", "lon": -77.02289533333334, "name": "ea46f448f5789d1e86bcf9575c2b5b0d", "bike_id": "ea46f448f5789d1e86bcf9575c2b5b0d", "fusion_lat": 0.0, "is_reserved": 0, "lat": 38.908902833333336, "fusion_lon": 0.0, "is_disabled": 0}, {"rental_uris": {"android": "https://dc.lft.to/lastmile_qr_scan", "ios": "https://dc.lft.to/lastmile_qr_scan"}, "type": "electric_scooter", "lon": -76.94123833333333, "name": "a988345c6d6591bcb5be029d83574614", "bike_id": "a988345c6d6591bcb5be029d83574614", "fusion_lat": 0.0, "is_reserved": 0, "lat": 38.90791183333333, "fusion_lon": 0.0, "is_disabled": 0}, {"rental_uris": {"android": "https://dc.lft.to/lastmile_qr_scan", "ios": "https://dc.lft.to/lastmile_qr_scan"}, "type": "electric_scooter", "lon": -77.05159916666666, "name": "1322d2f9f0a10ea1cfa6cb3539caabdf", "bike_id": "1322d2f9f0a10ea1cfa6cb3539caabdf", "fusion_lat": 0.0, "is_reserved": 0, "lat": 38.904317666666664, "fusion_lon": 0.0, "is_disabled": 0}, {"rental_uris": {"android": "https://dc.lft.to/lastmile_qr_scan", "ios": "https://dc.lft.to/lastmile_qr_scan"}, "type": "electric_scooter", "lon": -77.0230805, "name": "56fa3e562be38bfd5b9953424f9d5fd5", "bike_id": "56fa3e562be38bfd5b9953424f9d5fd5", "fusion_lat": 0.0, "is_reserved": 0, "lat": 38.91619166666667, "fusion_lon": 0.0, "is_disabled": 0}, {"rental_uris": {"android": "https://dc.lft.to/lastmile_qr_scan", "ios": "https://dc.lft.to/lastmile_qr_scan"}, "type": "electric_scooter", "lon": -77.04239166666666, "name": "e66421cd50c37e784a4d0004159ac211", "bike_id": "e66421cd50c37e784a4d0004159ac211", "fusion_lat": 0.0, "is_reserved": 0, "lat": 38.94551583333333, "fusion_lon": 0.0, "is_disabled": 0}, {"rental_uris": {"android": "https://dc.lft.to/lastmile_qr_scan", "ios": "https://dc.lft.to/lastmile_qr_scan"}, "type": "electric_scooter", "lon": -77.06393966666667, "name": "2fe3d22f128105c25cef7cc061ba0a6a", "bike_id": "2fe3d22f128105c25cef7cc061ba0a6a", "fusion_lat": 0.0, "is_reserved": 0, "lat": 38.929048, "fusion_lon": 0.0, "is_disabled": 0}, {"rental_uris": {"android": "https://dc.lft.to/lastmile_qr_scan", "ios": "https://dc.lft.to/lastmile_qr_scan"}, "type": "electric_scooter", "lon": -77.04364283333334, "name": "3237a94624c432293d37880c05301d4e", "bike_id": "3237a94624c432293d37880c05301d4e", "fusion_lat": 0.0, "is_reserved": 0, "lat": 38.9178035, "fusion_lon": 0.0, "is_disabled": 0}, {"rental_uris": {"android": "https://dc.lft.to/lastmile_qr_scan", "ios": "https://dc.lft.to/lastmile_qr_scan"}, "type": "electric_scooter", "lon": -77.0453265, "name": "6b1d2c09e23a89b33ef88fb1785b8f3e", "bike_id": "6b1d2c09e23a89b33ef88fb1785b8f3e", "fusion_lat": 0.0, "is_reserved": 0, "lat": 38.90095383333333, "fusion_lon": 0.0, "is_disabled": 0}, {"rental_uris": {"android": "https://dc.lft.to/lastmile_qr_scan", "ios": "https://dc.lft.to/lastmile_qr_scan"}, "type": "electric_scooter", "lon": -76.98914816666667, "name": "ee1b7451b68deca7afb8a0d2ce98fa41", "bike_id": "ee1b7451b68deca7afb8a0d2ce98fa41", "fusion_lat": 0.0, "is_reserved": 0, "lat": 38.90223533333333, "fusion_lon": 0.0, "is_disabled": 0}, {"rental_uris": {"android": "https://dc.lft.to/lastmile_qr_scan", "ios": "https://dc.lft.to/lastmile_qr_scan"}, "type": "electric_scooter", "lon": -76.94847433333334, "name": "68a4ec897ca9818ebf0ee120dad22185", "bike_id": "68a4ec897ca9818ebf0ee120dad22185", "fusion_lat": 0.0, "is_reserved": 0, "lat": 38.894852, "fusion_lon": 0.0, "is_disabled": 0}, {"rental_uris": {"android": "https://dc.lft.to/lastmile_qr_scan", "ios": "https://dc.lft.to/lastmile_qr_scan"}, "type": "electric_scooter", "lon": -77.04344266666666, "name": "7f6ef2055f33de82da295f5e2af09865", "bike_id": "7f6ef2055f33de82da295f5e2af09865", "fusion_lat": 0.0, "is_reserved": 0, "lat": 38.91352, "fusion_lon": 0.0, "is_disabled": 0}, {"rental_uris": {"android": "https://dc.lft.to/lastmile_qr_scan", "ios": "https://dc.lft.to/lastmile_qr_scan"}, "type": "electric_scooter", "lon": -77.03209033333333, "name": "d83856a481868c6e5c11dc88442451ac", "bike_id": "d83856a481868c6e5c11dc88442451ac", "fusion_lat": 0.0, "is_reserved": 0, "lat": 38.898581166666666, "fusion_lon": 0.0, "is_disabled": 0}, {"rental_uris": {"android": "https://dc.lft.to/lastmile_qr_scan", "ios": "https://dc.lft.to/lastmile_qr_scan"}, "type": "electric_scooter", "lon": -77.0277725, "name": "1ac922f879a710bfe027a00c2d1afaa8", "bike_id": "1ac922f879a710bfe027a00c2d1afaa8", "fusion_lat": 0.0, "is_reserved": 0, "lat": 38.93959916666667, "fusion_lon": 0.0, "is_disabled": 0}, {"rental_uris": {"android": "https://dc.lft.to/lastmile_qr_scan", "ios": "https://dc.lft.to/lastmile_qr_scan"}, "type": "electric_scooter", "lon": -76.948546, "name": "6b67ae8bd8c629eae6b1f3a2ac649006", "bike_id": "6b67ae8bd8c629eae6b1f3a2ac649006", "fusion_lat": 0.0, "is_reserved": 0, "lat": 38.88300733333333, "fusion_lon": 0.0, "is_disabled": 0}, {"rental_uris": {"android": "https://dc.lft.to/lastmile_qr_scan", "ios": "https://dc.lft.to/lastmile_qr_scan"}, "type": "electric_scooter", "lon": -77.0315595, "name": "bb3e299852dc814a1c9a3a1f3c1f9af7", "bike_id": "bb3e299852dc814a1c9a3a1f3c1f9af7", "fusion_lat": 0.0, "is_reserved": 0, "lat": 38.887401833333335, "fusion_lon": 0.0, "is_disabled": 0}, {"rental_uris": {"android": "https://dc.lft.to/lastmile_qr_scan", "ios": "https://dc.lft.to/lastmile_qr_scan"}, "type": "electric_bike", "lon": -77.022021, "name": "2981ed7f63bc7a491380498b443383dc", "bike_id": "2981ed7f63bc7a491380498b443383dc", "fusion_lat": 0.0, "is_reserved": 0, "lat": 38.918930333333336, "fusion_lon": 0.0, "is_disabled": 0}, {"rental_uris": {"android": "https://dc.lft.to/lastmile_qr_scan", "ios": "https://dc.lft.to/lastmile_qr_scan"}, "type": "electric_scooter", "lon": -77.0291335, "name": "f2989ac76a3ca08a81fd7ec805ecba3b", "bike_id": "f2989ac76a3ca08a81fd7ec805ecba3b", "fusion_lat": 0.0, "is_reserved": 0, "lat": 38.8983165, "fusion_lon": 0.0, "is_disabled": 0}, {"rental_uris": {"android": "https://dc.lft.to/lastmile_qr_scan", "ios": "https://dc.lft.to/lastmile_qr_scan"}, "type": "electric_scooter", "lon": -77.04247233333334, "name": "9443327132fa168f29ea8cc8591ecab6", "bike_id": "9443327132fa168f29ea8cc8591ecab6", "fusion_lat": 0.0, "is_reserved": 0, "lat": 38.922340166666665, "fusion_lon": 0.0, "is_disabled": 0}, {"rental_uris": {"android": "https://dc.lft.to/lastmile_qr_scan", "ios": "https://dc.lft.to/lastmile_qr_scan"}, "type": "electric_scooter", "lon": -77.05516733333333, "name": "7d74ad0d64b81e42855da57c60dd9c22", "bike_id": "7d74ad0d64b81e42855da57c60dd9c22", "fusion_lat": 0.0, "is_reserved": 0, "lat": 38.944084333333336, "fusion_lon": 0.0, "is_disabled": 0}, {"rental_uris": {"android": "https://dc.lft.to/lastmile_qr_scan", "ios": "https://dc.lft.to/lastmile_qr_scan"}, "type": "electric_scooter", "lon": -77.01216966666667, "name": "dc38ce811eb359eeac0950368e658029", "bike_id": "dc38ce811eb359eeac0950368e658029", "fusion_lat": 0.0, "is_reserved": 0, "lat": 38.91813416666667, "fusion_lon": 0.0, "is_disabled": 0}, {"rental_uris": {"android": "https://dc.lft.to/lastmile_qr_scan", "ios": "https://dc.lft.to/lastmile_qr_scan"}, "type": "electric_scooter", "lon": -77.03628633333334, "name": "9ca1452d939f041f8e44b1b807261127", "bike_id": "9ca1452d939f041f8e44b1b807261127", "fusion_lat": 0.0, "is_reserved": 0, "lat": 38.90268183333333, "fusion_lon": 0.0, "is_disabled": 0}, {"rental_uris": {"android": "https://dc.lft.to/lastmile_qr_scan", "ios": "https://dc.lft.to/lastmile_qr_scan"}, "type": "electric_scooter", "lon": -77.02956416666666, "name": "dc4610363cb5698a91e19583da107bc2", "bike_id": "dc4610363cb5698a91e19583da107bc2", "fusion_lat": 0.0, "is_reserved": 0, "lat": 38.9170775, "fusion_lon": 0.0, "is_disabled": 0}, {"rental_uris": {"android": "https://dc.lft.to/lastmile_qr_scan", "ios": "https://dc.lft.to/lastmile_qr_scan"}, "type": "electric_scooter", "lon": -76.99087333333334, "name": "c84bdd5e626a377e177515259d616007", "bike_id": "c84bdd5e626a377e177515259d616007", "fusion_lat": 0.0, "is_reserved": 0, "lat": 38.842769833333335, "fusion_lon": 0.0, "is_disabled": 0}, {"rental_uris": {"android": "https://dc.lft.to/lastmile_qr_scan", "ios": "https://dc.lft.to/lastmile_qr_scan"}, "type": "electric_scooter", "lon": -76.97022633333333, "name": "6b5ff049722bb22a12ab63d8a2888521", "bike_id": "6b5ff049722bb22a12ab63d8a2888521", "fusion_lat": 0.0, "is_reserved": 0, "lat": 38.920274, "fusion_lon": 0.0, "is_disabled": 0}, {"rental_uris": {"android": "https://dc.lft.to/lastmile_qr_scan", "ios": "https://dc.lft.to/lastmile_qr_scan"}, "type": "electric_scooter", "lon": -77.02729966666666, "name": "623ed58a2cee6423d3ea035b976461dc", "bike_id": "623ed58a2cee6423d3ea035b976461dc", "fusion_lat": 0.0, "is_reserved": 0, "lat": 38.92869433333333, "fusion_lon": 0.0, "is_disabled": 0}, {"rental_uris": {"android": "https://dc.lft.to/lastmile_qr_scan", "ios": "https://dc.lft.to/lastmile_qr_scan"}, "type": "electric_scooter", "lon": -77.02158816666666, "name": "d98663e2da966fb93e10569789c34faf", "bike_id": "d98663e2da966fb93e10569789c34faf", "fusion_lat": 0.0, "is_reserved": 0, "lat": 38.8790625, "fusion_lon": 0.0, "is_disabled": 0}, {"rental_uris": {"android": "https://dc.lft.to/lastmile_qr_scan", "ios": "https://dc.lft.to/lastmile_qr_scan"}, "type": "electric_scooter", "lon": -77.02041233333334, "name": "5d71cac4dbd01463118f2b9251c1d34e", "bike_id": "5d71cac4dbd01463118f2b9251c1d34e", "fusion_lat": 0.0, "is_reserved": 0, "lat": 38.892688666666665, "fusion_lon": 0.0, "is_disabled": 0}, {"rental_uris": {"android": "https://dc.lft.to/lastmile_qr_scan", "ios": "https://dc.lft.to/lastmile_qr_scan"}, "type": "electric_scooter", "lon": -76.98463133333334, "name": "02d8634f041fd1ab1616888b8b6e1928", "bike_id": "02d8634f041fd1ab1616888b8b6e1928", "fusion_lat": 0.0, "is_reserved": 0, "lat": 38.89359016666667, "fusion_lon": 0.0, "is_disabled": 0}, {"rental_uris": {"android": "https://dc.lft.to/lastmile_qr_scan", "ios": "https://dc.lft.to/lastmile_qr_scan"}, "type": "electric_scooter", "lon": -77.01900833333333, "name": "836ed6407a6b12111661f0cbe8c144ff", "bike_id": "836ed6407a6b12111661f0cbe8c144ff", "fusion_lat": 0.0, "is_reserved": 0, "lat": 38.9391285, "fusion_lon": 0.0, "is_disabled": 0}, {"rental_uris": {"android": "https://dc.lft.to/lastmile_qr_scan", "ios": "https://dc.lft.to/lastmile_qr_scan"}, "type": "electric_bike", "lon": -76.94778433333333, "name": "971856c2ca04a2ef58410451529a57b5", "bike_id": "971856c2ca04a2ef58410451529a57b5", "fusion_lat": 0.0, "is_reserved": 0, "lat": 38.89632783333333, "fusion_lon": 0.0, "is_disabled": 0}, {"rental_uris": {"android": "https://dc.lft.to/lastmile_qr_scan", "ios": "https://dc.lft.to/lastmile_qr_scan"}, "type": "electric_scooter", "lon": -77.03751733333333, "name": "e11361007385972fa0d25149fd1bf8a4", "bike_id": "e11361007385972fa0d25149fd1bf8a4", "fusion_lat": 0.0, "is_reserved": 0, "lat": 38.90233333333333, "fusion_lon": 0.0, "is_disabled": 0}, {"rental_uris": {"android": "https://dc.lft.to/lastmile_qr_scan", "ios": "https://dc.lft.to/lastmile_qr_scan"}, "type": "electric_scooter", "lon": -77.04999966666666, "name": "52cf09db6fe866158cbf25905708be85", "bike_id": "52cf09db6fe866158cbf25905708be85", "fusion_lat": 0.0, "is_reserved": 0, "lat": 38.90086633333333, "fusion_lon": 0.0, "is_disabled": 0}, {"rental_uris": {"android": "https://dc.lft.to/lastmile_qr_scan", "ios": "https://dc.lft.to/lastmile_qr_scan"}, "type": "electric_scooter", "lon": -77.05324766666666, "name": "d66af46b57d7abcbfb53881c655d2faa", "bike_id": "d66af46b57d7abcbfb53881c655d2faa", "fusion_lat": 0.0, "is_reserved": 0, "lat": 38.927622166666666, "fusion_lon": 0.0, "is_disabled": 0}, {"rental_uris": {"android": "https://dc.lft.to/lastmile_qr_scan", "ios": "https://dc.lft.to/lastmile_qr_scan"}, "type": "electric_scooter", "lon": -76.9900385, "name": "2483ccc34633b53beb8636a2885d3fd6", "bike_id": "2483ccc34633b53beb8636a2885d3fd6", "fusion_lat": 0.0, "is_reserved": 0, "lat": 38.865046, "fusion_lon": 0.0, "is_disabled": 0}, {"rental_uris": {"android": "https://dc.lft.to/lastmile_qr_scan", "ios": "https://dc.lft.to/lastmile_qr_scan"}, "type": "electric_scooter", "lon": -77.051469, "name": "d6f9d9eb5532b3a2d733d8d3bca0a8ed", "bike_id": "d6f9d9eb5532b3a2d733d8d3bca0a8ed", "fusion_lat": 0.0, "is_reserved": 0, "lat": 38.907977, "fusion_lon": 0.0, "is_disabled": 0}, {"rental_uris": {"android": "https://dc.lft.to/lastmile_qr_scan", "ios": "https://dc.lft.to/lastmile_qr_scan"}, "type": "electric_scooter", "lon": -77.02232616666667, "name": "8a81edb039b73346929b266865dced41", "bike_id": "8a81edb039b73346929b266865dced41", "fusion_lat": 0.0, "is_reserved": 0, "lat": 38.887660333333336, "fusion_lon": 0.0, "is_disabled": 0}, {"rental_uris": {"android": "https://dc.lft.to/lastmile_qr_scan", "ios": "https://dc.lft.to/lastmile_qr_scan"}, "type": "electric_scooter", "lon": -77.0286135, "name": "fc62211bf0c706b55e595b828caeb752", "bike_id": "fc62211bf0c706b55e595b828caeb752", "fusion_lat": 0.0, "is_reserved": 0, "lat": 38.922228833333335, "fusion_lon": 0.0, "is_disabled": 0}, {"rental_uris": {"android": "https://dc.lft.to/lastmile_qr_scan", "ios": "https://dc.lft.to/lastmile_qr_scan"}, "type": "electric_scooter", "lon": -76.93436233333334, "name": "dd541b75cac3a4380c945899daaf10fa", "bike_id": "dd541b75cac3a4380c945899daaf10fa", "fusion_lat": 0.0, "is_reserved": 0, "lat": 38.899660833333336, "fusion_lon": 0.0, "is_disabled": 0}, {"rental_uris": {"android": "https://dc.lft.to/lastmile_qr_scan", "ios": "https://dc.lft.to/lastmile_qr_scan"}, "type": "electric_scooter", "lon": -77.01130283333333, "name": "f16e2a8642f42782c56c39f20cba3ed3", "bike_id": "f16e2a8642f42782c56c39f20cba3ed3", "fusion_lat": 0.0, "is_reserved": 0, "lat": 38.907227666666664, "fusion_lon": 0.0, "is_disabled": 0}, {"rental_uris": {"android": "https://dc.lft.to/lastmile_qr_scan", "ios": "https://dc.lft.to/lastmile_qr_scan"}, "type": "electric_scooter", "lon": -76.9487255, "name": "2d0409b4258830c4d9129dd3a84910a6", "bike_id": "2d0409b4258830c4d9129dd3a84910a6", "fusion_lat": 0.0, "is_reserved": 0, "lat": 38.895836333333335, "fusion_lon": 0.0, "is_disabled": 0}, {"rental_uris": {"android": "https://dc.lft.to/lastmile_qr_scan", "ios": "https://dc.lft.to/lastmile_qr_scan"}, "type": "electric_scooter", "lon": -77.03903683333333, "name": "f6bd64711208a8139558016b904113b5", "bike_id": "f6bd64711208a8139558016b904113b5", "fusion_lat": 0.0, "is_reserved": 0, "lat": 38.922320666666664, "fusion_lon": 0.0, "is_disabled": 0}, {"rental_uris": {"android": "https://dc.lft.to/lastmile_qr_scan", "ios": "https://dc.lft.to/lastmile_qr_scan"}, "type": "electric_scooter", "lon": -77.03850216666666, "name": "dc1a5908f9ddd3c70e9ad69fa30092db", "bike_id": "dc1a5908f9ddd3c70e9ad69fa30092db", "fusion_lat": 0.0, "is_reserved": 0, "lat": 38.90657783333333, "fusion_lon": 0.0, "is_disabled": 0}, {"rental_uris": {"android": "https://dc.lft.to/lastmile_qr_scan", "ios": "https://dc.lft.to/lastmile_qr_scan"}, "type": "electric_scooter", "lon": -77.006033, "name": "44ba9a88a1687e19bdaea8b68d9b3c5c", "bike_id": "44ba9a88a1687e19bdaea8b68d9b3c5c", "fusion_lat": 0.0, "is_reserved": 0, "lat": 38.87703833333333, "fusion_lon": 0.0, "is_disabled": 0}, {"rental_uris": {"android": "https://dc.lft.to/lastmile_qr_scan", "ios": "https://dc.lft.to/lastmile_qr_scan"}, "type": "electric_scooter", "lon": -77.0398075, "name": "4a71f55259eff77955d31cda51cb3e11", "bike_id": "4a71f55259eff77955d31cda51cb3e11", "fusion_lat": 0.0, "is_reserved": 0, "lat": 38.91332416666667, "fusion_lon": 0.0, "is_disabled": 0}, {"rental_uris": {"android": "https://dc.lft.to/lastmile_qr_scan", "ios": "https://dc.lft.to/lastmile_qr_scan"}, "type": "electric_scooter", "lon": -77.03399683333333, "name": "6de6f22eba774220fec5190b87904ebe", "bike_id": "6de6f22eba774220fec5190b87904ebe", "fusion_lat": 0.0, "is_reserved": 0, "lat": 38.90958166666667, "fusion_lon": 0.0, "is_disabled": 0}, {"rental_uris": {"android": "https://dc.lft.to/lastmile_qr_scan", "ios": "https://dc.lft.to/lastmile_qr_scan"}, "type": "electric_scooter", "lon": -77.01342116666666, "name": "09659fb0d93cc52d3f0a9c1ec0132af7", "bike_id": "09659fb0d93cc52d3f0a9c1ec0132af7", "fusion_lat": 0.0, "is_reserved": 0, "lat": 38.881239666666666, "fusion_lon": 0.0, "is_disabled": 0}, {"rental_uris": {"android": "https://dc.lft.to/lastmile_qr_scan", "ios": "https://dc.lft.to/lastmile_qr_scan"}, "type": "electric_scooter", "lon": -77.03273116666666, "name": "8d86a76532837858daec2a7fbfa6dade", "bike_id": "8d86a76532837858daec2a7fbfa6dade", "fusion_lat": 0.0, "is_reserved": 0, "lat": 38.91812683333333, "fusion_lon": 0.0, "is_disabled": 0}, {"rental_uris": {"android": "https://dc.lft.to/lastmile_qr_scan", "ios": "https://dc.lft.to/lastmile_qr_scan"}, "type": "electric_bike", "lon": -77.10033033333333, "name": "a97fc3850dfd92139fc66fbcd7ef28bf", "bike_id": "a97fc3850dfd92139fc66fbcd7ef28bf", "fusion_lat": 0.0, "is_reserved": 0, "lat": 38.990579833333335, "fusion_lon": 0.0, "is_disabled": 0}, {"rental_uris": {"android": "https://dc.lft.to/lastmile_qr_scan", "ios": "https://dc.lft.to/lastmile_qr_scan"}, "type": "electric_scooter", "lon": -77.03050633333334, "name": "88afcc6b15c35ffe55f656e86b24614d", "bike_id": "88afcc6b15c35ffe55f656e86b24614d", "fusion_lat": 0.0, "is_reserved": 0, "lat": 38.88399583333333, "fusion_lon": 0.0, "is_disabled": 0}, {"rental_uris": {"android": "https://dc.lft.to/lastmile_qr_scan", "ios": "https://dc.lft.to/lastmile_qr_scan"}, "type": "electric_scooter", "lon": -77.01174616666667, "name": "98fe68aaa00dd12b8d03b17fc9b72020", "bike_id": "98fe68aaa00dd12b8d03b17fc9b72020", "fusion_lat": 0.0, "is_reserved": 0, "lat": 38.89740366666667, "fusion_lon": 0.0, "is_disabled": 0}, {"rental_uris": {"android": "https://dc.lft.to/lastmile_qr_scan", "ios": "https://dc.lft.to/lastmile_qr_scan"}, "type": "electric_scooter", "lon": -77.03406583333333, "name": "23280d18e9969a619d4928cd6df7d0d8", "bike_id": "23280d18e9969a619d4928cd6df7d0d8", "fusion_lat": 0.0, "is_reserved": 0, "lat": 38.93531, "fusion_lon": 0.0, "is_disabled": 0}, {"rental_uris": {"android": "https://dc.lft.to/lastmile_qr_scan", "ios": "https://dc.lft.to/lastmile_qr_scan"}, "type": "electric_scooter", "lon": -77.02278933333334, "name": "c7713434d36cab6654962afe746cb81e", "bike_id": "c7713434d36cab6654962afe746cb81e", "fusion_lat": 0.0, "is_reserved": 0, "lat": 38.8783355, "fusion_lon": 0.0, "is_disabled": 0}, {"rental_uris": {"android": "https://dc.lft.to/lastmile_qr_scan", "ios": "https://dc.lft.to/lastmile_qr_scan"}, "type": "electric_scooter", "lon": -77.01907633333333, "name": "caeea005941206dec2a4e2fd2ceede8e", "bike_id": "caeea005941206dec2a4e2fd2ceede8e", "fusion_lat": 0.0, "is_reserved": 0, "lat": 38.923434, "fusion_lon": 0.0, "is_disabled": 0}, {"rental_uris": {"android": "https://dc.lft.to/lastmile_qr_scan", "ios": "https://dc.lft.to/lastmile_qr_scan"}, "type": "electric_scooter", "lon": -77.038597, "name": "61737346c3c949311e01af6870cc5291", "bike_id": "61737346c3c949311e01af6870cc5291", "fusion_lat": 0.0, "is_reserved": 0, "lat": 38.91544916666667, "fusion_lon": 0.0, "is_disabled": 0}, {"rental_uris": {"android": "https://dc.lft.to/lastmile_qr_scan", "ios": "https://dc.lft.to/lastmile_qr_scan"}, "type": "electric_scooter", "lon": -77.016177, "name": "89c2e38a202977e27f9ac29d089e3ee3", "bike_id": "89c2e38a202977e27f9ac29d089e3ee3", "fusion_lat": 0.0, "is_reserved": 0, "lat": 38.905898, "fusion_lon": 0.0, "is_disabled": 0}, {"rental_uris": {"android": "https://dc.lft.to/lastmile_qr_scan", "ios": "https://dc.lft.to/lastmile_qr_scan"}, "type": "electric_bike", "lon": -77.04902883333334, "name": "59e82ee06ebcf7963941e78b8b307424", "bike_id": "59e82ee06ebcf7963941e78b8b307424", "fusion_lat": 0.0, "is_reserved": 0, "lat": 38.874884333333334, "fusion_lon": 0.0, "is_disabled": 0}, {"rental_uris": {"android": "https://dc.lft.to/lastmile_qr_scan", "ios": "https://dc.lft.to/lastmile_qr_scan"}, "type": "electric_scooter", "lon": -77.02385866666667, "name": "3377a9555b036638837a8263287d12ed", "bike_id": "3377a9555b036638837a8263287d12ed", "fusion_lat": 0.0, "is_reserved": 0, "lat": 38.909579, "fusion_lon": 0.0, "is_disabled": 0}, {"rental_uris": {"android": "https://dc.lft.to/lastmile_qr_scan", "ios": "https://dc.lft.to/lastmile_qr_scan"}, "type": "electric_bike", "lon": -76.9812695, "name": "14c81df83cd1fc3da82e059c9ef6be4c", "bike_id": "14c81df83cd1fc3da82e059c9ef6be4c", "fusion_lat": 0.0, "is_reserved": 0, "lat": 38.896655333333335, "fusion_lon": 0.0, "is_disabled": 0}, {"rental_uris": {"android": "https://dc.lft.to/lastmile_qr_scan", "ios": "https://dc.lft.to/lastmile_qr_scan"}, "type": "electric_bike", "lon": -77.10184433333333, "name": "17f66bbb6928384bf42d59bd404fc2a9", "bike_id": "17f66bbb6928384bf42d59bd404fc2a9", "fusion_lat": 0.0, "is_reserved": 0, "lat": 38.918057833333336, "fusion_lon": 0.0, "is_disabled": 0}, {"rental_uris": {"android": "https://dc.lft.to/lastmile_qr_scan", "ios": "https://dc.lft.to/lastmile_qr_scan"}, "type": "electric_scooter", "lon": -77.00621716666667, "name": "37a98920ae4e6a20ef68d398ddcd9483", "bike_id": "37a98920ae4e6a20ef68d398ddcd9483", "fusion_lat": 0.0, "is_reserved": 0, "lat": 38.884935, "fusion_lon": 0.0, "is_disabled": 0}, {"rental_uris": {"android": "https://dc.lft.to/lastmile_qr_scan", "ios": "https://dc.lft.to/lastmile_qr_scan"}, "type": "electric_scooter", "lon": -77.02800933333333, "name": "446371f86491d6d4100696b834889ddd", "bike_id": "446371f86491d6d4100696b834889ddd", "fusion_lat": 0.0, "is_reserved": 0, "lat": 38.930774, "fusion_lon": 0.0, "is_disabled": 0}, {"rental_uris": {"android": "https://dc.lft.to/lastmile_qr_scan", "ios": "https://dc.lft.to/lastmile_qr_scan"}, "type": "electric_scooter", "lon": -77.02208283333333, "name": "b59c0e1b0da856fdd7b572d58e5f18cf", "bike_id": "b59c0e1b0da856fdd7b572d58e5f18cf", "fusion_lat": 0.0, "is_reserved": 0, "lat": 38.8871835, "fusion_lon": 0.0, "is_disabled": 0}, {"rental_uris": {"android": "https://dc.lft.to/lastmile_qr_scan", "ios": "https://dc.lft.to/lastmile_qr_scan"}, "type": "electric_bike", "lon": -76.983323, "name": "705adde9e47018036a8048469bb44083", "bike_id": "705adde9e47018036a8048469bb44083", "fusion_lat": 0.0, "is_reserved": 0, "lat": 38.966028666666666, "fusion_lon": 0.0, "is_disabled": 0}, {"rental_uris": {"android": "https://dc.lft.to/lastmile_qr_scan", "ios": "https://dc.lft.to/lastmile_qr_scan"}, "type": "electric_scooter", "lon": -77.02157133333333, "name": "0bb55f0be5890831e9648d39615e212d", "bike_id": "0bb55f0be5890831e9648d39615e212d", "fusion_lat": 0.0, "is_reserved": 0, "lat": 38.925973666666664, "fusion_lon": 0.0, "is_disabled": 0}, {"rental_uris": {"android": "https://dc.lft.to/lastmile_qr_scan", "ios": "https://dc.lft.to/lastmile_qr_scan"}, "type": "electric_scooter", "lon": -77.07707433333333, "name": "047f706308b978034b1a590887548979", "bike_id": "047f706308b978034b1a590887548979", "fusion_lat": 0.0, "is_reserved": 0, "lat": 38.9428755, "fusion_lon": 0.0, "is_disabled": 0}, {"rental_uris": {"android": "https://dc.lft.to/lastmile_qr_scan", "ios": "https://dc.lft.to/lastmile_qr_scan"}, "type": "electric_scooter", "lon": -76.98279616666667, "name": "6fd94d9f2c51ac5338ca8686756ea3fb", "bike_id": "6fd94d9f2c51ac5338ca8686756ea3fb", "fusion_lat": 0.0, "is_reserved": 0, "lat": 38.91553866666667, "fusion_lon": 0.0, "is_disabled": 0}, {"rental_uris": {"android": "https://dc.lft.to/lastmile_qr_scan", "ios": "https://dc.lft.to/lastmile_qr_scan"}, "type": "electric_scooter", "lon": -77.02593983333334, "name": "6048a1a82edba1177e6db1e612455283", "bike_id": "6048a1a82edba1177e6db1e612455283", "fusion_lat": 0.0, "is_reserved": 0, "lat": 38.91271483333333, "fusion_lon": 0.0, "is_disabled": 0}, {"rental_uris": {"android": "https://dc.lft.to/lastmile_qr_scan", "ios": "https://dc.lft.to/lastmile_qr_scan"}, "type": "electric_scooter", "lon": -77.02471983333334, "name": "f4c762a8cdd28a472bc1a8132a0c10da", "bike_id": "f4c762a8cdd28a472bc1a8132a0c10da", "fusion_lat": 0.0, "is_reserved": 0, "lat": 38.931068, "fusion_lon": 0.0, "is_disabled": 0}, {"rental_uris": {"android": "https://dc.lft.to/lastmile_qr_scan", "ios": "https://dc.lft.to/lastmile_qr_scan"}, "type": "electric_scooter", "lon": -77.04667216666667, "name": "90df1192f45a6cb1ac8167d5f4ac3ad7", "bike_id": "90df1192f45a6cb1ac8167d5f4ac3ad7", "fusion_lat": 0.0, "is_reserved": 0, "lat": 38.912967333333334, "fusion_lon": 0.0, "is_disabled": 0}, {"rental_uris": {"android": "https://dc.lft.to/lastmile_qr_scan", "ios": "https://dc.lft.to/lastmile_qr_scan"}, "type": "electric_scooter", "lon": -77.030338, "name": "0fb734f8c50f2dddb1b355da6d5c5986", "bike_id": "0fb734f8c50f2dddb1b355da6d5c5986", "fusion_lat": 0.0, "is_reserved": 0, "lat": 38.912634, "fusion_lon": 0.0, "is_disabled": 0}, {"rental_uris": {"android": "https://dc.lft.to/lastmile_qr_scan", "ios": "https://dc.lft.to/lastmile_qr_scan"}, "type": "electric_bike", "lon": -77.11236666666667, "name": "c4b2e2957c985d849b7e13471787285e", "bike_id": "c4b2e2957c985d849b7e13471787285e", "fusion_lat": 0.0, "is_reserved": 0, "lat": 38.812270833333336, "fusion_lon": 0.0, "is_disabled": 0}, {"rental_uris": {"android": "https://dc.lft.to/lastmile_qr_scan", "ios": "https://dc.lft.to/lastmile_qr_scan"}, "type": "electric_scooter", "lon": -76.9372905, "name": "55ccd3b8114ee86335c6707b878924da", "bike_id": "55ccd3b8114ee86335c6707b878924da", "fusion_lat": 0.0, "is_reserved": 0, "lat": 38.891019666666665, "fusion_lon": 0.0, "is_disabled": 0}, {"rental_uris": {"android": "https://dc.lft.to/lastmile_qr_scan", "ios": "https://dc.lft.to/lastmile_qr_scan"}, "type": "electric_scooter", "lon": -77.01706533333333, "name": "72149622617ef5bed49c58884f257375", "bike_id": "72149622617ef5bed49c58884f257375", "fusion_lat": 0.0, "is_reserved": 0, "lat": 38.90727833333333, "fusion_lon": 0.0, "is_disabled": 0}, {"rental_uris": {"android": "https://dc.lft.to/lastmile_qr_scan", "ios": "https://dc.lft.to/lastmile_qr_scan"}, "type": "electric_scooter", "lon": -77.04743833333333, "name": "ec85e65f874afc07fb23cadf9c13174e", "bike_id": "ec85e65f874afc07fb23cadf9c13174e", "fusion_lat": 0.0, "is_reserved": 0, "lat": 38.90536183333333, "fusion_lon": 0.0, "is_disabled": 0}, {"rental_uris": {"android": "https://dc.lft.to/lastmile_qr_scan", "ios": "https://dc.lft.to/lastmile_qr_scan"}, "type": "electric_scooter", "lon": -76.92664233333333, "name": "a03a618c9df3aef92136a7a5d45393bf", "bike_id": "a03a618c9df3aef92136a7a5d45393bf", "fusion_lat": 0.0, "is_reserved": 0, "lat": 38.89540933333333, "fusion_lon": 0.0, "is_disabled": 0}, {"rental_uris": {"android": "https://dc.lft.to/lastmile_qr_scan", "ios": "https://dc.lft.to/lastmile_qr_scan"}, "type": "electric_scooter", "lon": -77.0247565, "name": "500f29c87263d81683188ebf3bdf6d45", "bike_id": "500f29c87263d81683188ebf3bdf6d45", "fusion_lat": 0.0, "is_reserved": 0, "lat": 38.939029833333336, "fusion_lon": 0.0, "is_disabled": 0}, {"rental_uris": {"android": "https://dc.lft.to/lastmile_qr_scan", "ios": "https://dc.lft.to/lastmile_qr_scan"}, "type": "electric_scooter", "lon": -77.02550583333333, "name": "ba7a00600f15797c2b2f20ed2b3729ea", "bike_id": "ba7a00600f15797c2b2f20ed2b3729ea", "fusion_lat": 0.0, "is_reserved": 0, "lat": 38.89218533333333, "fusion_lon": 0.0, "is_disabled": 0}, {"rental_uris": {"android": "https://dc.lft.to/lastmile_qr_scan", "ios": "https://dc.lft.to/lastmile_qr_scan"}, "type": "electric_scooter", "lon": -77.061641, "name": "fb0ecded977d92f25f999d8623143178", "bike_id": "fb0ecded977d92f25f999d8623143178", "fusion_lat": 0.0, "is_reserved": 0, "lat": 38.90532866666667, "fusion_lon": 0.0, "is_disabled": 0}, {"rental_uris": {"android": "https://dc.lft.to/lastmile_qr_scan", "ios": "https://dc.lft.to/lastmile_qr_scan"}, "type": "electric_scooter", "lon": -76.9849555, "name": "fb2c3e06eff4cac18bad3f222430ac19", "bike_id": "fb2c3e06eff4cac18bad3f222430ac19", "fusion_lat": 0.0, "is_reserved": 0, "lat": 38.8604115, "fusion_lon": 0.0, "is_disabled": 0}, {"rental_uris": {"android": "https://dc.lft.to/lastmile_qr_scan", "ios": "https://dc.lft.to/lastmile_qr_scan"}, "type": "electric_bike", "lon": -77.1829695, "name": "fe324c32205aa80a416baef939e7de6f", "bike_id": "fe324c32205aa80a416baef939e7de6f", "fusion_lat": 0.0, "is_reserved": 0, "lat": 38.88340733333333, "fusion_lon": 0.0, "is_disabled": 0}, {"rental_uris": {"android": "https://dc.lft.to/lastmile_qr_scan", "ios": "https://dc.lft.to/lastmile_qr_scan"}, "type": "electric_scooter", "lon": -76.99024866666667, "name": "090773eb0ef0a6170139e0c322282850", "bike_id": "090773eb0ef0a6170139e0c322282850", "fusion_lat": 0.0, "is_reserved": 0, "lat": 38.858645333333335, "fusion_lon": 0.0, "is_disabled": 0}, {"rental_uris": {"android": "https://dc.lft.to/lastmile_qr_scan", "ios": "https://dc.lft.to/lastmile_qr_scan"}, "type": "electric_scooter", "lon": -76.99749066666666, "name": "88fbe4dee0770f0445183a3df0d53254", "bike_id": "88fbe4dee0770f0445183a3df0d53254", "fusion_lat": 0.0, "is_reserved": 0, "lat": 38.921824666666666, "fusion_lon": 0.0, "is_disabled": 0}, {"rental_uris": {"android": "https://dc.lft.to/lastmile_qr_scan", "ios": "https://dc.lft.to/lastmile_qr_scan"}, "type": "electric_scooter", "lon": -77.06108116666667, "name": "aea78bea29e73ad2448ed62dd0477c6d", "bike_id": "aea78bea29e73ad2448ed62dd0477c6d", "fusion_lat": 0.0, "is_reserved": 0, "lat": 38.94324316666667, "fusion_lon": 0.0, "is_disabled": 0}, {"rental_uris": {"android": "https://dc.lft.to/lastmile_qr_scan", "ios": "https://dc.lft.to/lastmile_qr_scan"}, "type": "electric_scooter", "lon": -77.022933, "name": "e051ebcaa25a0ce8827f9c44bc792928", "bike_id": "e051ebcaa25a0ce8827f9c44bc792928", "fusion_lat": 0.0, "is_reserved": 0, "lat": 38.908672333333335, "fusion_lon": 0.0, "is_disabled": 0}, {"rental_uris": {"android": "https://dc.lft.to/lastmile_qr_scan", "ios": "https://dc.lft.to/lastmile_qr_scan"}, "type": "electric_scooter", "lon": -76.976191, "name": "5da6a214e228b984ef911ed90127f078", "bike_id": "5da6a214e228b984ef911ed90127f078", "fusion_lat": 0.0, "is_reserved": 0, "lat": 38.9314205, "fusion_lon": 0.0, "is_disabled": 0}, {"rental_uris": {"android": "https://dc.lft.to/lastmile_qr_scan", "ios": "https://dc.lft.to/lastmile_qr_scan"}, "type": "electric_scooter", "lon": -76.9826045, "name": "0a25d48c9d794a95167e46764d28b016", "bike_id": "0a25d48c9d794a95167e46764d28b016", "fusion_lat": 0.0, "is_reserved": 0, "lat": 38.86348733333333, "fusion_lon": 0.0, "is_disabled": 0}, {"rental_uris": {"android": "https://dc.lft.to/lastmile_qr_scan", "ios": "https://dc.lft.to/lastmile_qr_scan"}, "type": "electric_scooter", "lon": -76.98477333333334, "name": "100e5d5a0fe30c4aa2decb076df69119", "bike_id": "100e5d5a0fe30c4aa2decb076df69119", "fusion_lat": 0.0, "is_reserved": 0, "lat": 38.92891083333333, "fusion_lon": 0.0, "is_disabled": 0}, {"rental_uris": {"android": "https://dc.lft.to/lastmile_qr_scan", "ios": "https://dc.lft.to/lastmile_qr_scan"}, "type": "electric_scooter", "lon": -77.00217116666667, "name": "0e8cb3813d86f8e423bb37793f19a116", "bike_id": "0e8cb3813d86f8e423bb37793f19a116", "fusion_lat": 0.0, "is_reserved": 0, "lat": 38.9028075, "fusion_lon": 0.0, "is_disabled": 0}, {"rental_uris": {"android": "https://dc.lft.to/lastmile_qr_scan", "ios": "https://dc.lft.to/lastmile_qr_scan"}, "type": "electric_scooter", "lon": -76.99055433333334, "name": "3647dd89e77c866b73faa2bcd3c6b224", "bike_id": "3647dd89e77c866b73faa2bcd3c6b224", "fusion_lat": 0.0, "is_reserved": 0, "lat": 38.858939666666664, "fusion_lon": 0.0, "is_disabled": 0}, {"rental_uris": {"android": "https://dc.lft.to/lastmile_qr_scan", "ios": "https://dc.lft.to/lastmile_qr_scan"}, "type": "electric_bike", "lon": -76.9888425, "name": "37eea2c31553befe1521446402201768", "bike_id": "37eea2c31553befe1521446402201768", "fusion_lat": 0.0, "is_reserved": 0, "lat": 38.921111333333336, "fusion_lon": 0.0, "is_disabled": 0}, {"rental_uris": {"android": "https://dc.lft.to/lastmile_qr_scan", "ios": "https://dc.lft.to/lastmile_qr_scan"}, "type": "electric_scooter", "lon": -77.040173, "name": "c384032611e99a9437b45f4b93bc4a55", "bike_id": "c384032611e99a9437b45f4b93bc4a55", "fusion_lat": 0.0, "is_reserved": 0, "lat": 38.918389833333336, "fusion_lon": 0.0, "is_disabled": 0}, {"rental_uris": {"android": "https://dc.lft.to/lastmile_qr_scan", "ios": "https://dc.lft.to/lastmile_qr_scan"}, "type": "electric_scooter", "lon": -77.00215383333334, "name": "ba5b12f2503705e0a9ab3982f3fff729", "bike_id": "ba5b12f2503705e0a9ab3982f3fff729", "fusion_lat": 0.0, "is_reserved": 0, "lat": 38.88120983333334, "fusion_lon": 0.0, "is_disabled": 0}, {"rental_uris": {"android": "https://dc.lft.to/lastmile_qr_scan", "ios": "https://dc.lft.to/lastmile_qr_scan"}, "type": "electric_scooter", "lon": -77.00488966666667, "name": "3b79256bd09e578739e288eb1f59b6c5", "bike_id": "3b79256bd09e578739e288eb1f59b6c5", "fusion_lat": 0.0, "is_reserved": 0, "lat": 38.92580683333333, "fusion_lon": 0.0, "is_disabled": 0}, {"rental_uris": {"android": "https://dc.lft.to/lastmile_qr_scan", "ios": "https://dc.lft.to/lastmile_qr_scan"}, "type": "electric_scooter", "lon": -76.97738733333334, "name": "f3b03709776a006216f1e4dd884febf6", "bike_id": "f3b03709776a006216f1e4dd884febf6", "fusion_lat": 0.0, "is_reserved": 0, "lat": 38.872793333333334, "fusion_lon": 0.0, "is_disabled": 0}, {"rental_uris": {"android": "https://dc.lft.to/lastmile_qr_scan", "ios": "https://dc.lft.to/lastmile_qr_scan"}, "type": "electric_bike", "lon": -76.95478566666667, "name": "e5c63a6e3edf85253966207d9d814e57", "bike_id": "e5c63a6e3edf85253966207d9d814e57", "fusion_lat": 0.0, "is_reserved": 0, "lat": 38.93563183333333, "fusion_lon": 0.0, "is_disabled": 0}, {"rental_uris": {"android": "https://dc.lft.to/lastmile_qr_scan", "ios": "https://dc.lft.to/lastmile_qr_scan"}, "type": "electric_scooter", "lon": -77.04654016666667, "name": "cad2a57e3b2cac3dbe957f96f326d5ae", "bike_id": "cad2a57e3b2cac3dbe957f96f326d5ae", "fusion_lat": 0.0, "is_reserved": 0, "lat": 38.914227333333336, "fusion_lon": 0.0, "is_disabled": 0}, {"rental_uris": {"android": "https://dc.lft.to/lastmile_qr_scan", "ios": "https://dc.lft.to/lastmile_qr_scan"}, "type": "electric_scooter", "lon": -77.07847983333333, "name": "3d9beeedf4c508466689a292945408c4", "bike_id": "3d9beeedf4c508466689a292945408c4", "fusion_lat": 0.0, "is_reserved": 0, "lat": 38.9311425, "fusion_lon": 0.0, "is_disabled": 0}, {"rental_uris": {"android": "https://dc.lft.to/lastmile_qr_scan", "ios": "https://dc.lft.to/lastmile_qr_scan"}, "type": "electric_scooter", "lon": -77.046619, "name": "e16b291849b8f186d75a65f4b5b6c057", "bike_id": "e16b291849b8f186d75a65f4b5b6c057", "fusion_lat": 0.0, "is_reserved": 0, "lat": 38.89241066666666, "fusion_lon": 0.0, "is_disabled": 0}, {"rental_uris": {"android": "https://dc.lft.to/lastmile_qr_scan", "ios": "https://dc.lft.to/lastmile_qr_scan"}, "type": "electric_scooter", "lon": -77.04107733333333, "name": "f3343fdc0a2916994f7dcc64a3ae6c8c", "bike_id": "f3343fdc0a2916994f7dcc64a3ae6c8c", "fusion_lat": 0.0, "is_reserved": 0, "lat": 38.908021166666664, "fusion_lon": 0.0, "is_disabled": 0}, {"rental_uris": {"android": "https://dc.lft.to/lastmile_qr_scan", "ios": "https://dc.lft.to/lastmile_qr_scan"}, "type": "electric_scooter", "lon": -77.04898116666666, "name": "5a2bd5d6c683d63257182b52b6621095", "bike_id": "5a2bd5d6c683d63257182b52b6621095", "fusion_lat": 0.0, "is_reserved": 0, "lat": 38.892263666666665, "fusion_lon": 0.0, "is_disabled": 0}, {"rental_uris": {"android": "https://dc.lft.to/lastmile_qr_scan", "ios": "https://dc.lft.to/lastmile_qr_scan"}, "type": "electric_scooter", "lon": -77.02714533333334, "name": "d88e1789165b187c95fe286dd4c74965", "bike_id": "d88e1789165b187c95fe286dd4c74965", "fusion_lat": 0.0, "is_reserved": 0, "lat": 38.8985595, "fusion_lon": 0.0, "is_disabled": 0}, {"rental_uris": {"android": "https://dc.lft.to/lastmile_qr_scan", "ios": "https://dc.lft.to/lastmile_qr_scan"}, "type": "electric_bike", "lon": -76.965664, "name": "10e2161a7c240e567f504b56fe148a43", "bike_id": "10e2161a7c240e567f504b56fe148a43", "fusion_lat": 0.0, "is_reserved": 0, "lat": 38.950812666666664, "fusion_lon": 0.0, "is_disabled": 0}, {"rental_uris": {"android": "https://dc.lft.to/lastmile_qr_scan", "ios": "https://dc.lft.to/lastmile_qr_scan"}, "type": "electric_scooter", "lon": -77.04573583333334, "name": "3523fbaa332b75390a7a077591b30c52", "bike_id": "3523fbaa332b75390a7a077591b30c52", "fusion_lat": 0.0, "is_reserved": 0, "lat": 38.90001316666667, "fusion_lon": 0.0, "is_disabled": 0}, {"rental_uris": {"android": "https://dc.lft.to/lastmile_qr_scan", "ios": "https://dc.lft.to/lastmile_qr_scan"}, "type": "electric_scooter", "lon": -77.01609783333333, "name": "e46a43aa17ffc601416976363eef39fe", "bike_id": "e46a43aa17ffc601416976363eef39fe", "fusion_lat": 0.0, "is_reserved": 0, "lat": 38.917517333333336, "fusion_lon": 0.0, "is_disabled": 0}, {"rental_uris": {"android": "https://dc.lft.to/lastmile_qr_scan", "ios": "https://dc.lft.to/lastmile_qr_scan"}, "type": "electric_scooter", "lon": -76.98759283333334, "name": "3ba953e43d1fac9b4362c7947b407ec7", "bike_id": "3ba953e43d1fac9b4362c7947b407ec7", "fusion_lat": 0.0, "is_reserved": 0, "lat": 38.90794733333333, "fusion_lon": 0.0, "is_disabled": 0}, {"rental_uris": {"android": "https://dc.lft.to/lastmile_qr_scan", "ios": "https://dc.lft.to/lastmile_qr_scan"}, "type": "electric_scooter", "lon": -76.98335016666667, "name": "27ddbe9f98c59f939fa76a68ebc61d30", "bike_id": "27ddbe9f98c59f939fa76a68ebc61d30", "fusion_lat": 0.0, "is_reserved": 0, "lat": 38.862516666666664, "fusion_lon": 0.0, "is_disabled": 0}, {"rental_uris": {"android": "https://dc.lft.to/lastmile_qr_scan", "ios": "https://dc.lft.to/lastmile_qr_scan"}, "type": "electric_bike", "lon": -77.077982, "name": "c8fd26c08f867e28cd23faf52f7243e8", "bike_id": "c8fd26c08f867e28cd23faf52f7243e8", "fusion_lat": 0.0, "is_reserved": 0, "lat": 38.84514083333333, "fusion_lon": 0.0, "is_disabled": 0}, {"rental_uris": {"android": "https://dc.lft.to/lastmile_qr_scan", "ios": "https://dc.lft.to/lastmile_qr_scan"}, "type": "electric_scooter", "lon": -77.04004616666667, "name": "752b43a09b3d3c151e5fb8a794298c06", "bike_id": "752b43a09b3d3c151e5fb8a794298c06", "fusion_lat": 0.0, "is_reserved": 0, "lat": 38.935409166666666, "fusion_lon": 0.0, "is_disabled": 0}, {"rental_uris": {"android": "https://dc.lft.to/lastmile_qr_scan", "ios": "https://dc.lft.to/lastmile_qr_scan"}, "type": "electric_bike", "lon": -76.92923583333334, "name": "dd3eb7d805b39585d75813aa6e6f18e6", "bike_id": "dd3eb7d805b39585d75813aa6e6f18e6", "fusion_lat": 0.0, "is_reserved": 0, "lat": 38.98023166666667, "fusion_lon": 0.0, "is_disabled": 0}, {"rental_uris": {"android": "https://dc.lft.to/lastmile_qr_scan", "ios": "https://dc.lft.to/lastmile_qr_scan"}, "type": "electric_scooter", "lon": -77.01953683333333, "name": "d431092b41bdfe6e73abc67282d1ce17", "bike_id": "d431092b41bdfe6e73abc67282d1ce17", "fusion_lat": 0.0, "is_reserved": 0, "lat": 38.92242366666667, "fusion_lon": 0.0, "is_disabled": 0}, {"rental_uris": {"android": "https://dc.lft.to/lastmile_qr_scan", "ios": "https://dc.lft.to/lastmile_qr_scan"}, "type": "electric_scooter", "lon": -76.96927216666667, "name": "e4c72913ba8b0782a1a0ebe971f280eb", "bike_id": "e4c72913ba8b0782a1a0ebe971f280eb", "fusion_lat": 0.0, "is_reserved": 0, "lat": 38.93025866666667, "fusion_lon": 0.0, "is_disabled": 0}, {"rental_uris": {"android": "https://dc.lft.to/lastmile_qr_scan", "ios": "https://dc.lft.to/lastmile_qr_scan"}, "type": "electric_scooter", "lon": -77.05764966666666, "name": "23690553bd41825bebc26c7729bf0e69", "bike_id": "23690553bd41825bebc26c7729bf0e69", "fusion_lat": 0.0, "is_reserved": 0, "lat": 38.924964333333335, "fusion_lon": 0.0, "is_disabled": 0}, {"rental_uris": {"android": "https://dc.lft.to/lastmile_qr_scan", "ios": "https://dc.lft.to/lastmile_qr_scan"}, "type": "electric_scooter", "lon": -77.018341, "name": "a2f4e37dbfff52a96e32425224dff75f", "bike_id": "a2f4e37dbfff52a96e32425224dff75f", "fusion_lat": 0.0, "is_reserved": 0, "lat": 38.91104333333333, "fusion_lon": 0.0, "is_disabled": 0}, {"rental_uris": {"android": "https://dc.lft.to/lastmile_qr_scan", "ios": "https://dc.lft.to/lastmile_qr_scan"}, "type": "electric_scooter", "lon": -77.045553, "name": "0ac461d83c0499ae1283c97db47c00dc", "bike_id": "0ac461d83c0499ae1283c97db47c00dc", "fusion_lat": 0.0, "is_reserved": 0, "lat": 38.90739116666666, "fusion_lon": 0.0, "is_disabled": 0}, {"rental_uris": {"android": "https://dc.lft.to/lastmile_qr_scan", "ios": "https://dc.lft.to/lastmile_qr_scan"}, "type": "electric_scooter", "lon": -76.9277795, "name": "19f85dcb41c1a364b92b8dc77924b968", "bike_id": "19f85dcb41c1a364b92b8dc77924b968", "fusion_lat": 0.0, "is_reserved": 0, "lat": 38.90272433333333, "fusion_lon": 0.0, "is_disabled": 0}, {"rental_uris": {"android": "https://dc.lft.to/lastmile_qr_scan", "ios": "https://dc.lft.to/lastmile_qr_scan"}, "type": "electric_scooter", "lon": -77.003235, "name": "90747842de54d624884709001f824ccb", "bike_id": "90747842de54d624884709001f824ccb", "fusion_lat": 0.0, "is_reserved": 0, "lat": 38.9087925, "fusion_lon": 0.0, "is_disabled": 0}, {"rental_uris": {"android": "https://dc.lft.to/lastmile_qr_scan", "ios": "https://dc.lft.to/lastmile_qr_scan"}, "type": "electric_scooter", "lon": -77.026417, "name": "cc72268a5d37955c59051158af133100", "bike_id": "cc72268a5d37955c59051158af133100", "fusion_lat": 0.0, "is_reserved": 0, "lat": 38.880993833333335, "fusion_lon": 0.0, "is_disabled": 0}, {"rental_uris": {"android": "https://dc.lft.to/lastmile_qr_scan", "ios": "https://dc.lft.to/lastmile_qr_scan"}, "type": "electric_scooter", "lon": -77.04642966666667, "name": "c1578778f0f9c16661c94e2ee5a415eb", "bike_id": "c1578778f0f9c16661c94e2ee5a415eb", "fusion_lat": 0.0, "is_reserved": 0, "lat": 38.897285333333336, "fusion_lon": 0.0, "is_disabled": 0}, {"rental_uris": {"android": "https://dc.lft.to/lastmile_qr_scan", "ios": "https://dc.lft.to/lastmile_qr_scan"}, "type": "electric_scooter", "lon": -76.981363, "name": "31406f5731c2a08d0fe6a821fb78d9fc", "bike_id": "31406f5731c2a08d0fe6a821fb78d9fc", "fusion_lat": 0.0, "is_reserved": 0, "lat": 38.891843, "fusion_lon": 0.0, "is_disabled": 0}, {"rental_uris": {"android": "https://dc.lft.to/lastmile_qr_scan", "ios": "https://dc.lft.to/lastmile_qr_scan"}, "type": "electric_scooter", "lon": -77.06499366666667, "name": "597f1ba7c725367a25b56380439116b4", "bike_id": "597f1ba7c725367a25b56380439116b4", "fusion_lat": 0.0, "is_reserved": 0, "lat": 38.90521233333333, "fusion_lon": 0.0, "is_disabled": 0}, {"rental_uris": {"android": "https://dc.lft.to/lastmile_qr_scan", "ios": "https://dc.lft.to/lastmile_qr_scan"}, "type": "electric_scooter", "lon": -77.03093783333334, "name": "299613ea4f6cde6ae6e5075d3204d2b7", "bike_id": "299613ea4f6cde6ae6e5075d3204d2b7", "fusion_lat": 0.0, "is_reserved": 0, "lat": 38.922335, "fusion_lon": 0.0, "is_disabled": 0}, {"rental_uris": {"android": "https://dc.lft.to/lastmile_qr_scan", "ios": "https://dc.lft.to/lastmile_qr_scan"}, "type": "electric_scooter", "lon": -77.02606966666667, "name": "2a4628011e1ddb4ad12a0712c8b66f08", "bike_id": "2a4628011e1ddb4ad12a0712c8b66f08", "fusion_lat": 0.0, "is_reserved": 0, "lat": 38.914204, "fusion_lon": 0.0, "is_disabled": 0}, {"rental_uris": {"android": "https://dc.lft.to/lastmile_qr_scan", "ios": "https://dc.lft.to/lastmile_qr_scan"}, "type": "electric_scooter", "lon": -77.05923433333334, "name": "43ace21421f653809b0f9a82b13ac4ba", "bike_id": "43ace21421f653809b0f9a82b13ac4ba", "fusion_lat": 0.0, "is_reserved": 0, "lat": 38.90533466666667, "fusion_lon": 0.0, "is_disabled": 0}, {"rental_uris": {"android": "https://dc.lft.to/lastmile_qr_scan", "ios": "https://dc.lft.to/lastmile_qr_scan"}, "type": "electric_scooter", "lon": -77.03195, "name": "811d3fd94ae63ccea981b54d70fbc85a", "bike_id": "811d3fd94ae63ccea981b54d70fbc85a", "fusion_lat": 0.0, "is_reserved": 0, "lat": 38.91528733333333, "fusion_lon": 0.0, "is_disabled": 0}, {"rental_uris": {"android": "https://dc.lft.to/lastmile_qr_scan", "ios": "https://dc.lft.to/lastmile_qr_scan"}, "type": "electric_scooter", "lon": -76.99449683333333, "name": "43d97e9ea7417bcb049009596890914b", "bike_id": "43d97e9ea7417bcb049009596890914b", "fusion_lat": 0.0, "is_reserved": 0, "lat": 38.9049975, "fusion_lon": 0.0, "is_disabled": 0}, {"rental_uris": {"android": "https://dc.lft.to/lastmile_qr_scan", "ios": "https://dc.lft.to/lastmile_qr_scan"}, "type": "electric_scooter", "lon": -76.95516616666667, "name": "80e5a134d20ecef40dff668b8059f2ad", "bike_id": "80e5a134d20ecef40dff668b8059f2ad", "fusion_lat": 0.0, "is_reserved": 0, "lat": 38.89049333333333, "fusion_lon": 0.0, "is_disabled": 0}, {"rental_uris": {"android": "https://dc.lft.to/lastmile_qr_scan", "ios": "https://dc.lft.to/lastmile_qr_scan"}, "type": "electric_scooter", "lon": -77.00747966666667, "name": "957ee194e5772da550526b9f84096eb9", "bike_id": "957ee194e5772da550526b9f84096eb9", "fusion_lat": 0.0, "is_reserved": 0, "lat": 38.87640483333333, "fusion_lon": 0.0, "is_disabled": 0}, {"rental_uris": {"android": "https://dc.lft.to/lastmile_qr_scan", "ios": "https://dc.lft.to/lastmile_qr_scan"}, "type": "electric_scooter", "lon": -77.027049, "name": "22bce1916e6f6905448742acfd56f2db", "bike_id": "22bce1916e6f6905448742acfd56f2db", "fusion_lat": 0.0, "is_reserved": 0, "lat": 38.906606333333336, "fusion_lon": 0.0, "is_disabled": 0}, {"rental_uris": {"android": "https://dc.lft.to/lastmile_qr_scan", "ios": "https://dc.lft.to/lastmile_qr_scan"}, "type": "electric_scooter", "lon": -77.07879416666667, "name": "b76583e1bfc7a2e9c5261b820c0d71bb", "bike_id": "b76583e1bfc7a2e9c5261b820c0d71bb", "fusion_lat": 0.0, "is_reserved": 0, "lat": 38.948579333333335, "fusion_lon": 0.0, "is_disabled": 0}, {"rental_uris": {"android": "https://dc.lft.to/lastmile_qr_scan", "ios": "https://dc.lft.to/lastmile_qr_scan"}, "type": "electric_scooter", "lon": -76.97467866666666, "name": "c596f72241f13a8e67b34905d9826ab8", "bike_id": "c596f72241f13a8e67b34905d9826ab8", "fusion_lat": 0.0, "is_reserved": 0, "lat": 38.883944666666665, "fusion_lon": 0.0, "is_disabled": 0}, {"rental_uris": {"android": "https://dc.lft.to/lastmile_qr_scan", "ios": "https://dc.lft.to/lastmile_qr_scan"}, "type": "electric_scooter", "lon": -77.03449983333333, "name": "f8657a6239ce91ee26fda51de63f8190", "bike_id": "f8657a6239ce91ee26fda51de63f8190", "fusion_lat": 0.0, "is_reserved": 0, "lat": 38.90265933333333, "fusion_lon": 0.0, "is_disabled": 0}, {"rental_uris": {"android": "https://dc.lft.to/lastmile_qr_scan", "ios": "https://dc.lft.to/lastmile_qr_scan"}, "type": "electric_scooter", "lon": -76.94726533333333, "name": "14dc719162080d5871ff1934feab7f94", "bike_id": "14dc719162080d5871ff1934feab7f94", "fusion_lat": 0.0, "is_reserved": 0, "lat": 38.8973605, "fusion_lon": 0.0, "is_disabled": 0}, {"rental_uris": {"android": "https://dc.lft.to/lastmile_qr_scan", "ios": "https://dc.lft.to/lastmile_qr_scan"}, "type": "electric_scooter", "lon": -76.99097116666667, "name": "3af8e2d50e079f52d6579221bbf74c00", "bike_id": "3af8e2d50e079f52d6579221bbf74c00", "fusion_lat": 0.0, "is_reserved": 0, "lat": 38.86235816666667, "fusion_lon": 0.0, "is_disabled": 0}, {"rental_uris": {"android": "https://dc.lft.to/lastmile_qr_scan", "ios": "https://dc.lft.to/lastmile_qr_scan"}, "type": "electric_scooter", "lon": -77.03917133333333, "name": "ad66a11fc4a8e849832f8cc1f0699716", "bike_id": "ad66a11fc4a8e849832f8cc1f0699716", "fusion_lat": 0.0, "is_reserved": 0, "lat": 38.92231916666667, "fusion_lon": 0.0, "is_disabled": 0}, {"rental_uris": {"android": "https://dc.lft.to/lastmile_qr_scan", "ios": "https://dc.lft.to/lastmile_qr_scan"}, "type": "electric_scooter", "lon": -76.98730266666666, "name": "2a6600c48a19fd028abe6910cb1895b6", "bike_id": "2a6600c48a19fd028abe6910cb1895b6", "fusion_lat": 0.0, "is_reserved": 0, "lat": 38.867054833333334, "fusion_lon": 0.0, "is_disabled": 0}, {"rental_uris": {"android": "https://dc.lft.to/lastmile_qr_scan", "ios": "https://dc.lft.to/lastmile_qr_scan"}, "type": "electric_scooter", "lon": -76.9961325, "name": "fef185df53365bf08d464c1f223e1586", "bike_id": "fef185df53365bf08d464c1f223e1586", "fusion_lat": 0.0, "is_reserved": 0, "lat": 38.90329366666667, "fusion_lon": 0.0, "is_disabled": 0}, {"rental_uris": {"android": "https://dc.lft.to/lastmile_qr_scan", "ios": "https://dc.lft.to/lastmile_qr_scan"}, "type": "electric_scooter", "lon": -77.02492066666667, "name": "0c231081b2dfccd0397cb74d190d30df", "bike_id": "0c231081b2dfccd0397cb74d190d30df", "fusion_lat": 0.0, "is_reserved": 0, "lat": 38.932807, "fusion_lon": 0.0, "is_disabled": 0}, {"rental_uris": {"android": "https://dc.lft.to/lastmile_qr_scan", "ios": "https://dc.lft.to/lastmile_qr_scan"}, "type": "electric_scooter", "lon": -77.0281635, "name": "433ddef8156baad11b5a8a219fd28398", "bike_id": "433ddef8156baad11b5a8a219fd28398", "fusion_lat": 0.0, "is_reserved": 0, "lat": 38.91410583333333, "fusion_lon": 0.0, "is_disabled": 0}, {"rental_uris": {"android": "https://dc.lft.to/lastmile_qr_scan", "ios": "https://dc.lft.to/lastmile_qr_scan"}, "type": "electric_scooter", "lon": -77.0497685, "name": "620af6fa919dc7732b10c2a78d891ba8", "bike_id": "620af6fa919dc7732b10c2a78d891ba8", "fusion_lat": 0.0, "is_reserved": 0, "lat": 38.905221166666664, "fusion_lon": 0.0, "is_disabled": 0}, {"rental_uris": {"android": "https://dc.lft.to/lastmile_qr_scan", "ios": "https://dc.lft.to/lastmile_qr_scan"}, "type": "electric_scooter", "lon": -77.02294933333333, "name": "9359715deeb8094b00d77afcc63c8361", "bike_id": "9359715deeb8094b00d77afcc63c8361", "fusion_lat": 0.0, "is_reserved": 0, "lat": 38.90875616666667, "fusion_lon": 0.0, "is_disabled": 0}, {"rental_uris": {"android": "https://dc.lft.to/lastmile_qr_scan", "ios": "https://dc.lft.to/lastmile_qr_scan"}, "type": "electric_scooter", "lon": -76.94991, "name": "3a6da7e7afeff08abed8fb587e0c7953", "bike_id": "3a6da7e7afeff08abed8fb587e0c7953", "fusion_lat": 0.0, "is_reserved": 0, "lat": 38.89432433333333, "fusion_lon": 0.0, "is_disabled": 0}, {"rental_uris": {"android": "https://dc.lft.to/lastmile_qr_scan", "ios": "https://dc.lft.to/lastmile_qr_scan"}, "type": "electric_scooter", "lon": -77.029853, "name": "8f5d493265933613b76f7b90a72a3b90", "bike_id": "8f5d493265933613b76f7b90a72a3b90", "fusion_lat": 0.0, "is_reserved": 0, "lat": 38.925388166666664, "fusion_lon": 0.0, "is_disabled": 0}, {"rental_uris": {"android": "https://dc.lft.to/lastmile_qr_scan", "ios": "https://dc.lft.to/lastmile_qr_scan"}, "type": "electric_scooter", "lon": -76.98023916666666, "name": "99aebfc00c1f6c7c039a6044f27c8fdf", "bike_id": "99aebfc00c1f6c7c039a6044f27c8fdf", "fusion_lat": 0.0, "is_reserved": 0, "lat": 38.85719316666667, "fusion_lon": 0.0, "is_disabled": 0}, {"rental_uris": {"android": "https://dc.lft.to/lastmile_qr_scan", "ios": "https://dc.lft.to/lastmile_qr_scan"}, "type": "electric_bike", "lon": -77.04541866666666, "name": "ca32ad0a9412cf48d131e1378be91284", "bike_id": "ca32ad0a9412cf48d131e1378be91284", "fusion_lat": 0.0, "is_reserved": 0, "lat": 38.8856515, "fusion_lon": 0.0, "is_disabled": 0}, {"rental_uris": {"android": "https://dc.lft.to/lastmile_qr_scan", "ios": "https://dc.lft.to/lastmile_qr_scan"}, "type": "electric_scooter", "lon": -77.02397283333333, "name": "b09c298f384191b93e168b8024a70847", "bike_id": "b09c298f384191b93e168b8024a70847", "fusion_lat": 0.0, "is_reserved": 0, "lat": 38.910861, "fusion_lon": 0.0, "is_disabled": 0}, {"rental_uris": {"android": "https://dc.lft.to/lastmile_qr_scan", "ios": "https://dc.lft.to/lastmile_qr_scan"}, "type": "electric_scooter", "lon": -77.043847, "name": "0841880cdc7766e0587491729388d31b", "bike_id": "0841880cdc7766e0587491729388d31b", "fusion_lat": 0.0, "is_reserved": 0, "lat": 38.9207285, "fusion_lon": 0.0, "is_disabled": 0}, {"rental_uris": {"android": "https://dc.lft.to/lastmile_qr_scan", "ios": "https://dc.lft.to/lastmile_qr_scan"}, "type": "electric_scooter", "lon": -77.04364816666667, "name": "6171da3861b4db3d1b368e02757e8742", "bike_id": "6171da3861b4db3d1b368e02757e8742", "fusion_lat": 0.0, "is_reserved": 0, "lat": 38.892327, "fusion_lon": 0.0, "is_disabled": 0}, {"rental_uris": {"android": "https://dc.lft.to/lastmile_qr_scan", "ios": "https://dc.lft.to/lastmile_qr_scan"}, "type": "electric_scooter", "lon": -76.97452433333333, "name": "bc4ceed9fc94ef48ca5316ce7b2aa076", "bike_id": "bc4ceed9fc94ef48ca5316ce7b2aa076", "fusion_lat": 0.0, "is_reserved": 0, "lat": 38.87387283333333, "fusion_lon": 0.0, "is_disabled": 0}, {"rental_uris": {"android": "https://dc.lft.to/lastmile_qr_scan", "ios": "https://dc.lft.to/lastmile_qr_scan"}, "type": "electric_scooter", "lon": -77.03201483333333, "name": "e69a5dd4ae63fd882b07d0698b269aa1", "bike_id": "e69a5dd4ae63fd882b07d0698b269aa1", "fusion_lat": 0.0, "is_reserved": 0, "lat": 38.916632, "fusion_lon": 0.0, "is_disabled": 0}, {"rental_uris": {"android": "https://dc.lft.to/lastmile_qr_scan", "ios": "https://dc.lft.to/lastmile_qr_scan"}, "type": "electric_scooter", "lon": -77.02809416666666, "name": "7a9c5dfcbdef0057c1c874f29df30cf0", "bike_id": "7a9c5dfcbdef0057c1c874f29df30cf0", "fusion_lat": 0.0, "is_reserved": 0, "lat": 38.892426666666665, "fusion_lon": 0.0, "is_disabled": 0}, {"rental_uris": {"android": "https://dc.lft.to/lastmile_qr_scan", "ios": "https://dc.lft.to/lastmile_qr_scan"}, "type": "electric_scooter", "lon": -77.017193, "name": "1d316a2d94f3ea9058b7de6dea951d99", "bike_id": "1d316a2d94f3ea9058b7de6dea951d99", "fusion_lat": 0.0, "is_reserved": 0, "lat": 38.905149333333334, "fusion_lon": 0.0, "is_disabled": 0}, {"rental_uris": {"android": "https://dc.lft.to/lastmile_qr_scan", "ios": "https://dc.lft.to/lastmile_qr_scan"}, "type": "electric_scooter", "lon": -76.999765, "name": "1b231fbba5c21b9e3c5f3e80885646cf", "bike_id": "1b231fbba5c21b9e3c5f3e80885646cf", "fusion_lat": 0.0, "is_reserved": 0, "lat": 38.90015316666667, "fusion_lon": 0.0, "is_disabled": 0}, {"rental_uris": {"android": "https://dc.lft.to/lastmile_qr_scan", "ios": "https://dc.lft.to/lastmile_qr_scan"}, "type": "electric_scooter", "lon": -77.02270616666667, "name": "3b3d5ed7191c1c1fcc08e1f2e69e1323", "bike_id": "3b3d5ed7191c1c1fcc08e1f2e69e1323", "fusion_lat": 0.0, "is_reserved": 0, "lat": 38.94712616666666, "fusion_lon": 0.0, "is_disabled": 0}, {"rental_uris": {"android": "https://dc.lft.to/lastmile_qr_scan", "ios": "https://dc.lft.to/lastmile_qr_scan"}, "type": "electric_scooter", "lon": -77.0054695, "name": "08c7d06aca38238d4369f84446c6cbe8", "bike_id": "08c7d06aca38238d4369f84446c6cbe8", "fusion_lat": 0.0, "is_reserved": 0, "lat": 38.874564666666664, "fusion_lon": 0.0, "is_disabled": 0}, {"rental_uris": {"android": "https://dc.lft.to/lastmile_qr_scan", "ios": "https://dc.lft.to/lastmile_qr_scan"}, "type": "electric_scooter", "lon": -77.06073366666666, "name": "a156237b3f3f6bf6a15f908efd0e8caa", "bike_id": "a156237b3f3f6bf6a15f908efd0e8caa", "fusion_lat": 0.0, "is_reserved": 0, "lat": 38.90529, "fusion_lon": 0.0, "is_disabled": 0}, {"rental_uris": {"android": "https://dc.lft.to/lastmile_qr_scan", "ios": "https://dc.lft.to/lastmile_qr_scan"}, "type": "electric_scooter", "lon": -77.02180833333334, "name": "bc2387fb4087d6d2bd12420ff8749b38", "bike_id": "bc2387fb4087d6d2bd12420ff8749b38", "fusion_lat": 0.0, "is_reserved": 0, "lat": 38.920104, "fusion_lon": 0.0, "is_disabled": 0}, {"rental_uris": {"android": "https://dc.lft.to/lastmile_qr_scan", "ios": "https://dc.lft.to/lastmile_qr_scan"}, "type": "electric_scooter", "lon": -77.0027235, "name": "055e69162a480d23e8b922734ce1e407", "bike_id": "055e69162a480d23e8b922734ce1e407", "fusion_lat": 0.0, "is_reserved": 0, "lat": 38.90377466666666, "fusion_lon": 0.0, "is_disabled": 0}, {"rental_uris": {"android": "https://dc.lft.to/lastmile_qr_scan", "ios": "https://dc.lft.to/lastmile_qr_scan"}, "type": "electric_scooter", "lon": -77.03395483333334, "name": "e0e29204eff99e6d0fe31bba47fb2e3a", "bike_id": "e0e29204eff99e6d0fe31bba47fb2e3a", "fusion_lat": 0.0, "is_reserved": 0, "lat": 38.91914366666666, "fusion_lon": 0.0, "is_disabled": 0}, {"rental_uris": {"android": "https://dc.lft.to/lastmile_qr_scan", "ios": "https://dc.lft.to/lastmile_qr_scan"}, "type": "electric_scooter", "lon": -77.03025283333334, "name": "298ca81278bc9a116a1156a2442dc924", "bike_id": "298ca81278bc9a116a1156a2442dc924", "fusion_lat": 0.0, "is_reserved": 0, "lat": 38.931158833333335, "fusion_lon": 0.0, "is_disabled": 0}, {"rental_uris": {"android": "https://dc.lft.to/lastmile_qr_scan", "ios": "https://dc.lft.to/lastmile_qr_scan"}, "type": "electric_scooter", "lon": -77.0178205, "name": "3068c86f04d9c372573e57a521ef5819", "bike_id": "3068c86f04d9c372573e57a521ef5819", "fusion_lat": 0.0, "is_reserved": 0, "lat": 38.87744333333333, "fusion_lon": 0.0, "is_disabled": 0}, {"rental_uris": {"android": "https://dc.lft.to/lastmile_qr_scan", "ios": "https://dc.lft.to/lastmile_qr_scan"}, "type": "electric_scooter", "lon": -77.000632, "name": "8c2308471dc5e6f3507f26edb9d4f48f", "bike_id": "8c2308471dc5e6f3507f26edb9d4f48f", "fusion_lat": 0.0, "is_reserved": 0, "lat": 38.907303666666664, "fusion_lon": 0.0, "is_disabled": 0}, {"rental_uris": {"android": "https://dc.lft.to/lastmile_qr_scan", "ios": "https://dc.lft.to/lastmile_qr_scan"}, "type": "electric_scooter", "lon": -77.01092216666666, "name": "ff169a7bfe7d9fcddae5e22623d38852", "bike_id": "ff169a7bfe7d9fcddae5e22623d38852", "fusion_lat": 0.0, "is_reserved": 0, "lat": 38.896043166666665, "fusion_lon": 0.0, "is_disabled": 0}, {"rental_uris": {"android": "https://dc.lft.to/lastmile_qr_scan", "ios": "https://dc.lft.to/lastmile_qr_scan"}, "type": "electric_scooter", "lon": -77.06539183333334, "name": "472cb887b87e5724a7f4fd43e6166afb", "bike_id": "472cb887b87e5724a7f4fd43e6166afb", "fusion_lat": 0.0, "is_reserved": 0, "lat": 38.905225333333334, "fusion_lon": 0.0, "is_disabled": 0}, {"rental_uris": {"android": "https://dc.lft.to/lastmile_qr_scan", "ios": "https://dc.lft.to/lastmile_qr_scan"}, "type": "electric_scooter", "lon": -77.0319885, "name": "848507692aee6ecae386240efb9c3832", "bike_id": "848507692aee6ecae386240efb9c3832", "fusion_lat": 0.0, "is_reserved": 0, "lat": 38.91962483333333, "fusion_lon": 0.0, "is_disabled": 0}, {"rental_uris": {"android": "https://dc.lft.to/lastmile_qr_scan", "ios": "https://dc.lft.to/lastmile_qr_scan"}, "type": "electric_bike", "lon": -77.01457966666666, "name": "831259b8f97844c38a877126c74753be", "bike_id": "831259b8f97844c38a877126c74753be", "fusion_lat": 0.0, "is_reserved": 0, "lat": 38.8678675, "fusion_lon": 0.0, "is_disabled": 0}, {"rental_uris": {"android": "https://dc.lft.to/lastmile_qr_scan", "ios": "https://dc.lft.to/lastmile_qr_scan"}, "type": "electric_scooter", "lon": -77.07710316666666, "name": "b91907b1ab251b6b8687d02d21c87713", "bike_id": "b91907b1ab251b6b8687d02d21c87713", "fusion_lat": 0.0, "is_reserved": 0, "lat": 38.94287716666667, "fusion_lon": 0.0, "is_disabled": 0}, {"rental_uris": {"android": "https://dc.lft.to/lastmile_qr_scan", "ios": "https://dc.lft.to/lastmile_qr_scan"}, "type": "electric_scooter", "lon": -77.01232766666666, "name": "205ea08f9bfdfb37d8d96c850e6a55a5", "bike_id": "205ea08f9bfdfb37d8d96c850e6a55a5", "fusion_lat": 0.0, "is_reserved": 0, "lat": 38.870786, "fusion_lon": 0.0, "is_disabled": 0}, {"rental_uris": {"android": "https://dc.lft.to/lastmile_qr_scan", "ios": "https://dc.lft.to/lastmile_qr_scan"}, "type": "electric_scooter", "lon": -77.00649383333334, "name": "a359108ed09476d3d224e2186789a946", "bike_id": "a359108ed09476d3d224e2186789a946", "fusion_lat": 0.0, "is_reserved": 0, "lat": 38.883327333333334, "fusion_lon": 0.0, "is_disabled": 0}, {"rental_uris": {"android": "https://dc.lft.to/lastmile_qr_scan", "ios": "https://dc.lft.to/lastmile_qr_scan"}, "type": "electric_scooter", "lon": -77.02503066666667, "name": "149acd329bbf27f3f7ce03a38f869a4a", "bike_id": "149acd329bbf27f3f7ce03a38f869a4a", "fusion_lat": 0.0, "is_reserved": 0, "lat": 38.880267, "fusion_lon": 0.0, "is_disabled": 0}, {"rental_uris": {"android": "https://dc.lft.to/lastmile_qr_scan", "ios": "https://dc.lft.to/lastmile_qr_scan"}, "type": "electric_scooter", "lon": -77.020955, "name": "bf4e72d25e6aed76a400c250427647b0", "bike_id": "bf4e72d25e6aed76a400c250427647b0", "fusion_lat": 0.0, "is_reserved": 0, "lat": 38.92910533333333, "fusion_lon": 0.0, "is_disabled": 0}, {"rental_uris": {"android": "https://dc.lft.to/lastmile_qr_scan", "ios": "https://dc.lft.to/lastmile_qr_scan"}, "type": "electric_scooter", "lon": -77.04037966666667, "name": "6b6bd8dffc2f3a5dce9de85f282438b9", "bike_id": "6b6bd8dffc2f3a5dce9de85f282438b9", "fusion_lat": 0.0, "is_reserved": 0, "lat": 38.905609166666665, "fusion_lon": 0.0, "is_disabled": 0}, {"rental_uris": {"android": "https://dc.lft.to/lastmile_qr_scan", "ios": "https://dc.lft.to/lastmile_qr_scan"}, "type": "electric_scooter", "lon": -77.03859383333334, "name": "629159de7b575db06774c1435ba6e335", "bike_id": "629159de7b575db06774c1435ba6e335", "fusion_lat": 0.0, "is_reserved": 0, "lat": 38.9026535, "fusion_lon": 0.0, "is_disabled": 0}, {"rental_uris": {"android": "https://dc.lft.to/lastmile_qr_scan", "ios": "https://dc.lft.to/lastmile_qr_scan"}, "type": "electric_scooter", "lon": -76.99548466666667, "name": "771d709d7b9ad0ad53efc7cb09f0befb", "bike_id": "771d709d7b9ad0ad53efc7cb09f0befb", "fusion_lat": 0.0, "is_reserved": 0, "lat": 38.88417183333333, "fusion_lon": 0.0, "is_disabled": 0}, {"rental_uris": {"android": "https://dc.lft.to/lastmile_qr_scan", "ios": "https://dc.lft.to/lastmile_qr_scan"}, "type": "electric_scooter", "lon": -77.04217266666667, "name": "f3be24db0c91685083061925712b8614", "bike_id": "f3be24db0c91685083061925712b8614", "fusion_lat": 0.0, "is_reserved": 0, "lat": 38.92125383333333, "fusion_lon": 0.0, "is_disabled": 0}, {"rental_uris": {"android": "https://dc.lft.to/lastmile_qr_scan", "ios": "https://dc.lft.to/lastmile_qr_scan"}, "type": "electric_scooter", "lon": -77.0627745, "name": "b8389813f15618701e31d931baab2397", "bike_id": "b8389813f15618701e31d931baab2397", "fusion_lat": 0.0, "is_reserved": 0, "lat": 38.9057865, "fusion_lon": 0.0, "is_disabled": 0}, {"rental_uris": {"android": "https://dc.lft.to/lastmile_qr_scan", "ios": "https://dc.lft.to/lastmile_qr_scan"}, "type": "electric_scooter", "lon": -77.04131866666667, "name": "8c4134eb50b1ecd9cea4aea76c10b526", "bike_id": "8c4134eb50b1ecd9cea4aea76c10b526", "fusion_lat": 0.0, "is_reserved": 0, "lat": 38.91551966666667, "fusion_lon": 0.0, "is_disabled": 0}, {"rental_uris": {"android": "https://dc.lft.to/lastmile_qr_scan", "ios": "https://dc.lft.to/lastmile_qr_scan"}, "type": "electric_scooter", "lon": -76.965464, "name": "ffdc45134127c22a4ea0590d060fb957", "bike_id": "ffdc45134127c22a4ea0590d060fb957", "fusion_lat": 0.0, "is_reserved": 0, "lat": 38.91841383333333, "fusion_lon": 0.0, "is_disabled": 0}, {"rental_uris": {"android": "https://dc.lft.to/lastmile_qr_scan", "ios": "https://dc.lft.to/lastmile_qr_scan"},