{"data": {"bikes": [{"name": "7e22a1966f561ea0d5c32cac933b797b", "type": "electric_scooter", "fusion_lon": 0.0, "lon": -77.03914783333333, "is_disabled": 0, "lat": 38.9014745, "fusion_lat": 0.0, "is_reserved": 0, "rental_uris": {"android": "https://dc.lft.to/lastmile_qr_scan", "ios": "https://dc.lft.to/lastmile_qr_scan"}, "bike_id": "7e22a1966f561ea0d5c32cac933b797b"}, {"name": "a67f938dd9508668de2a103d902992c6", "type": "electric_scooter", "fusion_lon": 0.0, "lon": -77.02131266666666, "is_disabled": 0, "lat": 38.92314666666667, "fusion_lat": 0.0, "is_reserved": 0, "rental_uris": {"android": "https://dc.lft.to/lastmile_qr_scan", "ios": "https://dc.lft.to/lastmile_qr_scan"}, "bike_id": "a67f938dd9508668de2a103d902992c6"}, {"name": "08e6bdec9aa07786db4a8d79f01ba4dc", "type": "electric_scooter", "fusion_lon": 0.0, "lon": -77.0254185, "is_disabled": 0, "lat": 38.920830333333335, "fusion_lat": 0.0, "is_reserved": 0, "rental_uris": {"android": "https://dc.lft.to/lastmile_qr_scan", "ios": "https://dc.lft.to/lastmile_qr_scan"}, "bike_id": "08e6bdec9aa07786db4a8d79f01ba4dc"}, {"name": "99bb01150d7de01d89807e83df998b4c", "type": "electric_scooter", "fusion_lon": 0.0, "lon": -76.9463525, "is_disabled": 0, "lat": 38.89867683333333, "fusion_lat": 0.0, "is_reserved": 0, "rental_uris": {"android": "https://dc.lft.to/lastmile_qr_scan", "ios": "https://dc.lft.to/lastmile_qr_scan"}, "bike_id": "99bb01150d7de01d89807e83df998b4c"}, {"name": "7eb7db546cee2d16de134663c3c600cc", "type": "electric_scooter", "fusion_lon": 0.0, "lon": -77.0437605, "is_disabled": 0, "lat": 38.8922555, "fusion_lat": 0.0, "is_reserved": 0, "rental_uris": {"android": "https://dc.lft.to/lastmile_qr_scan", "ios": "https://dc.lft.to/lastmile_qr_scan"}, "bike_id": "7eb7db546cee2d16de134663c3c600cc"}, {"name": "9d007bd42f40a570274dccad76460c8e", "type": "electric_scooter", "fusion_lon": 0.0, "lon": -77.05131266666666, "is_disabled": 0, "lat": 38.9252255, "fusion_lat": 0.0, "is_reserved": 0, "rental_uris": {"android": "https://dc.lft.to/lastmile_qr_scan", "ios": "https://dc.lft.to/lastmile_qr_scan"}, "bike_id": "9d007bd42f40a570274dccad76460c8e"}, {"name": "8e615b8526a945a1bb4a4459fd3943bd", "type": "electric_scooter", "fusion_lon": 0.0, "lon": -77.017464, "is_disabled": 0, "lat": 38.90125316666666, "fusion_lat": 0.0, "is_reserved": 0, "rental_uris": {"android": "https://dc.lft.to/lastmile_qr_scan", "ios": "https://dc.lft.to/lastmile_qr_scan"}, "bike_id": "8e615b8526a945a1bb4a4459fd3943bd"}, {"name": "61d211f22464b824285b79f503d6ed34", "type": "electric_scooter", "fusion_lon": 0.0, "lon": -77.02711416666666, "is_disabled": 0, "lat": 38.915519833333335, "fusion_lat": 0.0, "is_reserved": 0, "rental_uris": {"android": "https://dc.lft.to/lastmile_qr_scan", "ios": "https://dc.lft.to/lastmile_qr_scan"}, "bike_id": "61d211f22464b824285b79f503d6ed34"}, {"name": "877d216e8772b5e8eb85fd29e8f3ce16", "type": "electric_scooter", "fusion_lon": 0.0, "lon": -76.973268, "is_disabled": 0, "lat": 38.86518783333333, "fusion_lat": 0.0, "is_reserved": 0, "rental_uris": {"android": "https://dc.lft.to/lastmile_qr_scan", "ios": "https://dc.lft.to/lastmile_qr_scan"}, "bike_id": "877d216e8772b5e8eb85fd29e8f3ce16"}, {"name": "a3728da9bee2e49ac0914c3c701a9818", "type": "electric_scooter", "fusion_lon": 0.0, "lon": -76.97967766666666, "is_disabled": 0, "lat": 38.89223666666667, "fusion_lat": 0.0, "is_reserved": 0, "rental_uris": {"android": "https://dc.lft.to/lastmile_qr_scan", "ios": "https://dc.lft.to/lastmile_qr_scan"}, "bike_id": "a3728da9bee2e49ac0914c3c701a9818"}, {"name": "e7f60f94e9d5be4a3abb4f37917d88fd", "type": "electric_scooter", "fusion_lon": 0.0, "lon": -77.00073016666667, "is_disabled": 0, "lat": 38.876862833333334, "fusion_lat": 0.0, "is_reserved": 0, "rental_uris": {"android": "https://dc.lft.to/lastmile_qr_scan", "ios": "https://dc.lft.to/lastmile_qr_scan"}, "bike_id": "e7f60f94e9d5be4a3abb4f37917d88fd"}, {"name": "0e3a5538d9df8584655870bb8751a0bb", "type": "electric_scooter", "fusion_lon": 0.0, "lon": -76.9960865, "is_disabled": 0, "lat": 38.88516283333333, "fusion_lat": 0.0, "is_reserved": 0, "rental_uris": {"android": "https://dc.lft.to/lastmile_qr_scan", "ios": "https://dc.lft.to/lastmile_qr_scan"}, "bike_id": "0e3a5538d9df8584655870bb8751a0bb"}, {"name": "3b9071a44de886726987681136c80f88", "type": "electric_scooter", "fusion_lon": 0.0, "lon": -77.03068883333333, "is_disabled": 0, "lat": 38.9308815, "fusion_lat": 0.0, "is_reserved": 0, "rental_uris": {"android": "https://dc.lft.to/lastmile_qr_scan", "ios": "https://dc.lft.to/lastmile_qr_scan"}, "bike_id": "3b9071a44de886726987681136c80f88"}, {"name": "c75ac4b2abf6de36f8c2d4dad2c00295", "type": "electric_scooter", "fusion_lon": 0.0, "lon": -77.04434416666666, "is_disabled": 0, "lat": 38.90551516666667, "fusion_lat": 0.0, "is_reserved": 0, "rental_uris": {"android": "https://dc.lft.to/lastmile_qr_scan", "ios": "https://dc.lft.to/lastmile_qr_scan"}, "bike_id": "c75ac4b2abf6de36f8c2d4dad2c00295"}, {"name": "63f851f2ea9990e6181fb7bd241196ce", "type": "electric_scooter", "fusion_lon": 0.0, "lon": -77.027646, "is_disabled": 0, "lat": 38.91697766666667, "fusion_lat": 0.0, "is_reserved": 0, "rental_uris": {"android": "https://dc.lft.to/lastmile_qr_scan", "ios": "https://dc.lft.to/lastmile_qr_scan"}, "bike_id": "63f851f2ea9990e6181fb7bd241196ce"}, {"name": "b1cc0f9649ff8a4ebafeca153d19c08b", "type": "electric_scooter", "fusion_lon": 0.0, "lon": -77.02129633333334, "is_disabled": 0, "lat": 38.92315, "fusion_lat": 0.0, "is_reserved": 0, "rental_uris": {"android": "https://dc.lft.to/lastmile_qr_scan", "ios": "https://dc.lft.to/lastmile_qr_scan"}, "bike_id": "b1cc0f9649ff8a4ebafeca153d19c08b"}, {"name": "31f80d69ef75a90715dc895c74e41fdd", "type": "electric_scooter", "fusion_lon": 0.0, "lon": -77.01193183333334, "is_disabled": 0, "lat": 38.91567583333333, "fusion_lat": 0.0, "is_reserved": 0, "rental_uris": {"android": "https://dc.lft.to/lastmile_qr_scan", "ios": "https://dc.lft.to/lastmile_qr_scan"}, "bike_id": "31f80d69ef75a90715dc895c74e41fdd"}, {"name": "735347373a9c54d5f023dd5b97c515de", "type": "electric_scooter", "fusion_lon": 0.0, "lon": -77.03403283333333, "is_disabled": 0, "lat": 38.9243885, "fusion_lat": 0.0, "is_reserved": 0, "rental_uris": {"android": "https://dc.lft.to/lastmile_qr_scan", "ios": "https://dc.lft.to/lastmile_qr_scan"}, "bike_id": "735347373a9c54d5f023dd5b97c515de"}, {"name": "e534fa612242c2f58c2503bd246f742f", "type": "electric_scooter", "fusion_lon": 0.0, "lon": -77.0320905, "is_disabled": 0, "lat": 38.90134316666666, "fusion_lat": 0.0, "is_reserved": 0, "rental_uris": {"android": "https://dc.lft.to/lastmile_qr_scan", "ios": "https://dc.lft.to/lastmile_qr_scan"}, "bike_id": "e534fa612242c2f58c2503bd246f742f"}, {"name": "f787b623aaee6c929b0dae844d9d9cd9", "type": "electric_scooter", "fusion_lon": 0.0, "lon": -77.0280695, "is_disabled": 0, "lat": 38.91645483333333, "fusion_lat": 0.0, "is_reserved": 0, "rental_uris": {"android": "https://dc.lft.to/lastmile_qr_scan", "ios": "https://dc.lft.to/lastmile_qr_scan"}, "bike_id": "f787b623aaee6c929b0dae844d9d9cd9"}, {"name": "8a29c0c8089ac83ce9c91e5f60f6203c", "type": "electric_scooter", "fusion_lon": 0.0, "lon": -77.02652233333333, "is_disabled": 0, "lat": 38.938621833333336, "fusion_lat": 0.0, "is_reserved": 0, "rental_uris": {"android": "https://dc.lft.to/lastmile_qr_scan", "ios": "https://dc.lft.to/lastmile_qr_scan"}, "bike_id": "8a29c0c8089ac83ce9c91e5f60f6203c"}, {"name": "8a03e0f4d1030dc6d320ec908726e693", "type": "electric_scooter", "fusion_lon": 0.0, "lon": -77.0072135, "is_disabled": 0, "lat": 38.877466166666665, "fusion_lat": 0.0, "is_reserved": 0, "rental_uris": {"android": "https://dc.lft.to/lastmile_qr_scan", "ios": "https://dc.lft.to/lastmile_qr_scan"}, "bike_id": "8a03e0f4d1030dc6d320ec908726e693"}, {"name": "e4d75ac765357734f5a11fb10aabe7c6", "type": "electric_scooter", "fusion_lon": 0.0, "lon": -77.05029216666667, "is_disabled": 0, "lat": 38.897031, "fusion_lat": 0.0, "is_reserved": 0, "rental_uris": {"android": "https://dc.lft.to/lastmile_qr_scan", "ios": "https://dc.lft.to/lastmile_qr_scan"}, "bike_id": "e4d75ac765357734f5a11fb10aabe7c6"}, {"name": "b24022f57967d6f53c1fae29a1568f58", "type": "electric_scooter", "fusion_lon": 0.0, "lon": -77.07430666666667, "is_disabled": 0, "lat": 38.93598316666667, "fusion_lat": 0.0, "is_reserved": 0, "rental_uris": {"android": "https://dc.lft.to/lastmile_qr_scan", "ios": "https://dc.lft.to/lastmile_qr_scan"}, "bike_id": "b24022f57967d6f53c1fae29a1568f58"}, {"name": "dd717a3303099cd0d5da43c0304311c0", "type": "electric_scooter", "fusion_lon": 0.0, "lon": -77.02433066666667, "is_disabled": 0, "lat": 38.929968833333334, "fusion_lat": 0.0, "is_reserved": 0, "rental_uris": {"android": "https://dc.lft.to/lastmile_qr_scan", "ios": "https://dc.lft.to/lastmile_qr_scan"}, "bike_id": "dd717a3303099cd0d5da43c0304311c0"}, {"name": "3f7f3f69d87494509b07929d15320e0b", "type": "electric_scooter", "fusion_lon": 0.0, "lon": -77.02279266666666, "is_disabled": 0, "lat": 38.895043666666666, "fusion_lat": 0.0, "is_reserved": 0, "rental_uris": {"android": "https://dc.lft.to/lastmile_qr_scan", "ios": "https://dc.lft.to/lastmile_qr_scan"}, "bike_id": "3f7f3f69d87494509b07929d15320e0b"}, {"name": "627f4e09099a93227de4e861b8725f21", "type": "electric_scooter", "fusion_lon": 0.0, "lon": -77.048411, "is_disabled": 0, "lat": 38.90427233333333, "fusion_lat": 0.0, "is_reserved": 0, "rental_uris": {"android": "https://dc.lft.to/lastmile_qr_scan", "ios": "https://dc.lft.to/lastmile_qr_scan"}, "bike_id": "627f4e09099a93227de4e861b8725f21"}, {"name": "299137c184e844123bdcbf8dc8186ad5", "type": "electric_scooter", "fusion_lon": 0.0, "lon": -77.03178666666666, "is_disabled": 0, "lat": 38.900322, "fusion_lat": 0.0, "is_reserved": 0, "rental_uris": {"android": "https://dc.lft.to/lastmile_qr_scan", "ios": "https://dc.lft.to/lastmile_qr_scan"}, "bike_id": "299137c184e844123bdcbf8dc8186ad5"}, {"name": "b333af258aed7ce941307780743da80d", "type": "electric_scooter", "fusion_lon": 0.0, "lon": -77.04696066666666, "is_disabled": 0, "lat": 38.89222383333333, "fusion_lat": 0.0, "is_reserved": 0, "rental_uris": {"android": "https://dc.lft.to/lastmile_qr_scan", "ios": "https://dc.lft.to/lastmile_qr_scan"}, "bike_id": "b333af258aed7ce941307780743da80d"}, {"name": "7cd638d594ff7eb40ad7ac738df68e2e", "type": "electric_scooter", "fusion_lon": 0.0, "lon": -77.01140066666666, "is_disabled": 0, "lat": 38.90002366666667, "fusion_lat": 0.0, "is_reserved": 0, "rental_uris": {"android": "https://dc.lft.to/lastmile_qr_scan", "ios": "https://dc.lft.to/lastmile_qr_scan"}, "bike_id": "7cd638d594ff7eb40ad7ac738df68e2e"}, {"name": "c50066b002e6d88d6e0d276b3c4a4247", "type": "electric_scooter", "fusion_lon": 0.0, "lon": -77.003227, "is_disabled": 0, "lat": 38.91940233333333, "fusion_lat": 0.0, "is_reserved": 0, "rental_uris": {"android": "https://dc.lft.to/lastmile_qr_scan", "ios": "https://dc.lft.to/lastmile_qr_scan"}, "bike_id": "c50066b002e6d88d6e0d276b3c4a4247"}, {"name": "a994893b30befa6a9ddc877921fbeb33", "type": "electric_scooter", "fusion_lon": 0.0, "lon": -76.942561, "is_disabled": 0, "lat": 38.89844883333333, "fusion_lat": 0.0, "is_reserved": 0, "rental_uris": {"android": "https://dc.lft.to/lastmile_qr_scan", "ios": "https://dc.lft.to/lastmile_qr_scan"}, "bike_id": "a994893b30befa6a9ddc877921fbeb33"}, {"name": "fa2e7764b37d282b91b49729d1e7c95b", "type": "electric_scooter", "fusion_lon": 0.0, "lon": -77.03414916666667, "is_disabled": 0, "lat": 38.9287095, "fusion_lat": 0.0, "is_reserved": 0, "rental_uris": {"android": "https://dc.lft.to/lastmile_qr_scan", "ios": "https://dc.lft.to/lastmile_qr_scan"}, "bike_id": "fa2e7764b37d282b91b49729d1e7c95b"}, {"name": "818af8e94d4c3d4c59a2721bf296ae36", "type": "electric_scooter", "fusion_lon": 0.0, "lon": -77.03426516666667, "is_disabled": 0, "lat": 38.919153, "fusion_lat": 0.0, "is_reserved": 0, "rental_uris": {"android": "https://dc.lft.to/lastmile_qr_scan", "ios": "https://dc.lft.to/lastmile_qr_scan"}, "bike_id": "818af8e94d4c3d4c59a2721bf296ae36"}, {"name": "76130e7ac58d094425012e0cf11b8dc1", "type": "electric_scooter", "fusion_lon": 0.0, "lon": -77.02202016666666, "is_disabled": 0, "lat": 38.905471666666664, "fusion_lat": 0.0, "is_reserved": 0, "rental_uris": {"android": "https://dc.lft.to/lastmile_qr_scan", "ios": "https://dc.lft.to/lastmile_qr_scan"}, "bike_id": "76130e7ac58d094425012e0cf11b8dc1"}, {"name": "fa3cdd78bf4e2e7b0e58db46225ada4f", "type": "electric_scooter", "fusion_lon": 0.0, "lon": -77.03271333333333, "is_disabled": 0, "lat": 38.928508, "fusion_lat": 0.0, "is_reserved": 0, "rental_uris": {"android": "https://dc.lft.to/lastmile_qr_scan", "ios": "https://dc.lft.to/lastmile_qr_scan"}, "bike_id": "fa3cdd78bf4e2e7b0e58db46225ada4f"}, {"name": "d03c104f0b0df5c245db03d35fab1125", "type": "electric_scooter", "fusion_lon": 0.0, "lon": -77.046237, "is_disabled": 0, "lat": 38.9181245, "fusion_lat": 0.0, "is_reserved": 0, "rental_uris": {"android": "https://dc.lft.to/lastmile_qr_scan", "ios": "https://dc.lft.to/lastmile_qr_scan"}, "bike_id": "d03c104f0b0df5c245db03d35fab1125"}, {"name": "abe80c34cf9cd05e56f63b47bfd00c1d", "type": "electric_bike", "fusion_lon": 0.0, "lon": -77.06981433333333, "is_disabled": 0, "lat": 38.955291333333335, "fusion_lat": 0.0, "is_reserved": 0, "rental_uris": {"android": "https://dc.lft.to/lastmile_qr_scan", "ios": "https://dc.lft.to/lastmile_qr_scan"}, "bike_id": "abe80c34cf9cd05e56f63b47bfd00c1d"}, {"name": "5135103c84b43fc2a3c5404e381d5b7c", "type": "electric_scooter", "fusion_lon": 0.0, "lon": -77.00893483333333, "is_disabled": 0, "lat": 38.876715, "fusion_lat": 0.0, "is_reserved": 0, "rental_uris": {"android": "https://dc.lft.to/lastmile_qr_scan", "ios": "https://dc.lft.to/lastmile_qr_scan"}, "bike_id": "5135103c84b43fc2a3c5404e381d5b7c"}, {"name": "fdd6dd2d0964528e42c20dc98fd77626", "type": "electric_scooter", "fusion_lon": 0.0, "lon": -76.96983883333333, "is_disabled": 0, "lat": 38.878638333333335, "fusion_lat": 0.0, "is_reserved": 0, "rental_uris": {"android": "https://dc.lft.to/lastmile_qr_scan", "ios": "https://dc.lft.to/lastmile_qr_scan"}, "bike_id": "fdd6dd2d0964528e42c20dc98fd77626"}, {"name": "e12aa608191b698a0fdc187b12b1a39c", "type": "electric_scooter", "fusion_lon": 0.0, "lon": -77.00072983333334, "is_disabled": 0, "lat": 38.886836833333334, "fusion_lat": 0.0, "is_reserved": 0, "rental_uris": {"android": "https://dc.lft.to/lastmile_qr_scan", "ios": "https://dc.lft.to/lastmile_qr_scan"}, "bike_id": "e12aa608191b698a0fdc187b12b1a39c"}, {"name": "cac39879e5e1fc5d75011a88a1a9e110", "type": "electric_scooter", "fusion_lon": 0.0, "lon": -76.92679183333334, "is_disabled": 0, "lat": 38.888466666666666, "fusion_lat": 0.0, "is_reserved": 0, "rental_uris": {"android": "https://dc.lft.to/lastmile_qr_scan", "ios": "https://dc.lft.to/lastmile_qr_scan"}, "bike_id": "cac39879e5e1fc5d75011a88a1a9e110"}, {"name": "437f00c08833f52d7daddc4cff1a39e3", "type": "electric_scooter", "fusion_lon": 0.0, "lon": -76.99145083333333, "is_disabled": 0, "lat": 38.885292666666665, "fusion_lat": 0.0, "is_reserved": 0, "rental_uris": {"android": "https://dc.lft.to/lastmile_qr_scan", "ios": "https://dc.lft.to/lastmile_qr_scan"}, "bike_id": "437f00c08833f52d7daddc4cff1a39e3"}, {"name": "d867295fdb0b14507c4f83f9534ff899", "type": "electric_scooter", "fusion_lon": 0.0, "lon": -77.01984033333333, "is_disabled": 0, "lat": 38.8872075, "fusion_lat": 0.0, "is_reserved": 0, "rental_uris": {"android": "https://dc.lft.to/lastmile_qr_scan", "ios": "https://dc.lft.to/lastmile_qr_scan"}, "bike_id": "d867295fdb0b14507c4f83f9534ff899"}, {"name": "33cdc83bc2e66ab6ad5322f23bd7c390", "type": "electric_scooter", "fusion_lon": 0.0, "lon": -76.93025333333334, "is_disabled": 0, "lat": 38.90168466666667, "fusion_lat": 0.0, "is_reserved": 0, "rental_uris": {"android": "https://dc.lft.to/lastmile_qr_scan", "ios": "https://dc.lft.to/lastmile_qr_scan"}, "bike_id": "33cdc83bc2e66ab6ad5322f23bd7c390"}, {"name": "252ba94ebb936fb0580846ec4e1c8396", "type": "electric_scooter", "fusion_lon": 0.0, "lon": -77.08311166666667, "is_disabled": 0, "lat": 38.9284935, "fusion_lat": 0.0, "is_reserved": 0, "rental_uris": {"android": "https://dc.lft.to/lastmile_qr_scan", "ios": "https://dc.lft.to/lastmile_qr_scan"}, "bike_id": "252ba94ebb936fb0580846ec4e1c8396"}, {"name": "55c5a7a0a2f1eed5204c45382744a620", "type": "electric_scooter", "fusion_lon": 0.0, "lon": -77.07264133333334, "is_disabled": 0, "lat": 38.9078875, "fusion_lat": 0.0, "is_reserved": 0, "rental_uris": {"android": "https://dc.lft.to/lastmile_qr_scan", "ios": "https://dc.lft.to/lastmile_qr_scan"}, "bike_id": "55c5a7a0a2f1eed5204c45382744a620"}, {"name": "8eb9763d2e9dd3a4885b94144d87a9c2", "type": "electric_scooter", "fusion_lon": 0.0, "lon": -77.026397, "is_disabled": 0, "lat": 38.89440283333333, "fusion_lat": 0.0, "is_reserved": 0, "rental_uris": {"android": "https://dc.lft.to/lastmile_qr_scan", "ios": "https://dc.lft.to/lastmile_qr_scan"}, "bike_id": "8eb9763d2e9dd3a4885b94144d87a9c2"}, {"name": "cb88f120c587b5a8b553f82b755a8659", "type": "electric_scooter", "fusion_lon": 0.0, "lon": -77.00143733333333, "is_disabled": 0, "lat": 38.873118, "fusion_lat": 0.0, "is_reserved": 0, "rental_uris": {"android": "https://dc.lft.to/lastmile_qr_scan", "ios": "https://dc.lft.to/lastmile_qr_scan"}, "bike_id": "cb88f120c587b5a8b553f82b755a8659"}, {"name": "425404e6f02ac9631a1e59e928a8c1d5", "type": "electric_scooter", "fusion_lon": 0.0, "lon": -77.03859283333334, "is_disabled": 0, "lat": 38.9177815, "fusion_lat": 0.0, "is_reserved": 0, "rental_uris": {"android": "https://dc.lft.to/lastmile_qr_scan", "ios": "https://dc.lft.to/lastmile_qr_scan"}, "bike_id": "425404e6f02ac9631a1e59e928a8c1d5"}, {"name": "55f548952c2bd32146668d15e49f3488", "type": "electric_scooter", "fusion_lon": 0.0, "lon": -77.03219133333333, "is_disabled": 0, "lat": 38.92590916666666, "fusion_lat": 0.0, "is_reserved": 0, "rental_uris": {"android": "https://dc.lft.to/lastmile_qr_scan", "ios": "https://dc.lft.to/lastmile_qr_scan"}, "bike_id": "55f548952c2bd32146668d15e49f3488"}, {"name": "a84d211184e1834edad53da7607d344b", "type": "electric_scooter", "fusion_lon": 0.0, "lon": -77.02474533333333, "is_disabled": 0, "lat": 38.930984, "fusion_lat": 0.0, "is_reserved": 0, "rental_uris": {"android": "https://dc.lft.to/lastmile_qr_scan", "ios": "https://dc.lft.to/lastmile_qr_scan"}, "bike_id": "a84d211184e1834edad53da7607d344b"}, {"name": "292d0275e02865cb32425b898eb99b7b", "type": "electric_bike", "fusion_lon": 0.0, "lon": -76.95441116666667, "is_disabled": 0, "lat": 38.95331066666667, "fusion_lat": 0.0, "is_reserved": 0, "rental_uris": {"android": "https://dc.lft.to/lastmile_qr_scan", "ios": "https://dc.lft.to/lastmile_qr_scan"}, "bike_id": "292d0275e02865cb32425b898eb99b7b"}, {"name": "a588c33a871f7504c502fd8ff740535c", "type": "electric_scooter", "fusion_lon": 0.0, "lon": -77.01764716666666, "is_disabled": 0, "lat": 38.9025805, "fusion_lat": 0.0, "is_reserved": 0, "rental_uris": {"android": "https://dc.lft.to/lastmile_qr_scan", "ios": "https://dc.lft.to/lastmile_qr_scan"}, "bike_id": "a588c33a871f7504c502fd8ff740535c"}, {"name": "20fedec216badc3aa2df1bee962ff92d", "type": "electric_scooter", "fusion_lon": 0.0, "lon": -77.0107605, "is_disabled": 0, "lat": 38.90959633333333, "fusion_lat": 0.0, "is_reserved": 0, "rental_uris": {"android": "https://dc.lft.to/lastmile_qr_scan", "ios": "https://dc.lft.to/lastmile_qr_scan"}, "bike_id": "20fedec216badc3aa2df1bee962ff92d"}, {"name": "41ccf2cf4fe899ef84ce5468ac81dd37", "type": "electric_scooter", "fusion_lon": 0.0, "lon": -77.01484816666667, "is_disabled": 0, "lat": 38.914117833333336, "fusion_lat": 0.0, "is_reserved": 0, "rental_uris": {"android": "https://dc.lft.to/lastmile_qr_scan", "ios": "https://dc.lft.to/lastmile_qr_scan"}, "bike_id": "41ccf2cf4fe899ef84ce5468ac81dd37"}, {"name": "bdbc149ae8139058badc14c221be35ae", "type": "electric_scooter", "fusion_lon": 0.0, "lon": -76.9984135, "is_disabled": 0, "lat": 38.9049535, "fusion_lat": 0.0, "is_reserved": 0, "rental_uris": {"android": "https://dc.lft.to/lastmile_qr_scan", "ios": "https://dc.lft.to/lastmile_qr_scan"}, "bike_id": "bdbc149ae8139058badc14c221be35ae"}, {"name": "f03fc53fc13695a435594bacbf1fb052", "type": "electric_scooter", "fusion_lon": 0.0, "lon": -77.04176733333334, "is_disabled": 0, "lat": 38.906631833333336, "fusion_lat": 0.0, "is_reserved": 0, "rental_uris": {"android": "https://dc.lft.to/lastmile_qr_scan", "ios": "https://dc.lft.to/lastmile_qr_scan"}, "bike_id": "f03fc53fc13695a435594bacbf1fb052"}, {"name": "ce6633b29a5cce48c9f4da59bd6a7949", "type": "electric_bike", "fusion_lon": 0.0, "lon": -76.972555, "is_disabled": 0, "lat": 38.9574595, "fusion_lat": 0.0, "is_reserved": 0, "rental_uris": {"android": "https://dc.lft.to/lastmile_qr_scan", "ios": "https://dc.lft.to/lastmile_qr_scan"}, "bike_id": "ce6633b29a5cce48c9f4da59bd6a7949"}, {"name": "13d8056ef2fadb1ae6274ec7a4913e54", "type": "electric_scooter", "fusion_lon": 0.0, "lon": -77.033507, "is_disabled": 0, "lat": 38.9253845, "fusion_lat": 0.0, "is_reserved": 0, "rental_uris": {"android": "https://dc.lft.to/lastmile_qr_scan", "ios": "https://dc.lft.to/lastmile_qr_scan"}, "bike_id": "13d8056ef2fadb1ae6274ec7a4913e54"}, {"name": "765fb3ff6695903fd9613d868d646104", "type": "electric_scooter", "fusion_lon": 0.0, "lon": -77.043549, "is_disabled": 0, "lat": 38.90567883333333, "fusion_lat": 0.0, "is_reserved": 0, "rental_uris": {"android": "https://dc.lft.to/lastmile_qr_scan", "ios": "https://dc.lft.to/lastmile_qr_scan"}, "bike_id": "765fb3ff6695903fd9613d868d646104"}, {"name": "88fec933b2424f770f44cf4a408b8030", "type": "electric_scooter", "fusion_lon": 0.0, "lon": -76.9733215, "is_disabled": 0, "lat": 38.90411566666667, "fusion_lat": 0.0, "is_reserved": 0, "rental_uris": {"android": "https://dc.lft.to/lastmile_qr_scan", "ios": "https://dc.lft.to/lastmile_qr_scan"}, "bike_id": "88fec933b2424f770f44cf4a408b8030"}, {"name": "3b6305610064474bf559b6b64e7af28b", "type": "electric_scooter", "fusion_lon": 0.0, "lon": -77.03245583333333, "is_disabled": 0, "lat": 38.927316, "fusion_lat": 0.0, "is_reserved": 0, "rental_uris": {"android": "https://dc.lft.to/lastmile_qr_scan", "ios": "https://dc.lft.to/lastmile_qr_scan"}, "bike_id": "3b6305610064474bf559b6b64e7af28b"}, {"name": "455c84d11ad1498bdd671f1e0db4af42", "type": "electric_scooter", "fusion_lon": 0.0, "lon": -77.0222805, "is_disabled": 0, "lat": 38.9016475, "fusion_lat": 0.0, "is_reserved": 0, "rental_uris": {"android": "https://dc.lft.to/lastmile_qr_scan", "ios": "https://dc.lft.to/lastmile_qr_scan"}, "bike_id": "455c84d11ad1498bdd671f1e0db4af42"}, {"name": "fe675bf214a6d4a35192f0cfac5c2e1d", "type": "electric_scooter", "fusion_lon": 0.0, "lon": -77.0446655, "is_disabled": 0, "lat": 38.90566483333333, "fusion_lat": 0.0, "is_reserved": 0, "rental_uris": {"android": "https://dc.lft.to/lastmile_qr_scan", "ios": "https://dc.lft.to/lastmile_qr_scan"}, "bike_id": "fe675bf214a6d4a35192f0cfac5c2e1d"}, {"name": "9e3bb46c596112e5217cc643434205c0", "type": "electric_scooter", "fusion_lon": 0.0, "lon": -76.994157, "is_disabled": 0, "lat": 38.877815166666664, "fusion_lat": 0.0, "is_reserved": 0, "rental_uris": {"android": "https://dc.lft.to/lastmile_qr_scan", "ios": "https://dc.lft.to/lastmile_qr_scan"}, "bike_id": "9e3bb46c596112e5217cc643434205c0"}, {"name": "674b1d74b4a92f1e72977c8a0d18937d", "type": "electric_scooter", "fusion_lon": 0.0, "lon": -77.0366505, "is_disabled": 0, "lat": 38.922420333333335, "fusion_lat": 0.0, "is_reserved": 0, "rental_uris": {"android": "https://dc.lft.to/lastmile_qr_scan", "ios": "https://dc.lft.to/lastmile_qr_scan"}, "bike_id": "674b1d74b4a92f1e72977c8a0d18937d"}, {"name": "70b0e26956c33e750e9d10b219c76f2d", "type": "electric_scooter", "fusion_lon": 0.0, "lon": -77.048064, "is_disabled": 0, "lat": 38.89622583333333, "fusion_lat": 0.0, "is_reserved": 0, "rental_uris": {"android": "https://dc.lft.to/lastmile_qr_scan", "ios": "https://dc.lft.to/lastmile_qr_scan"}, "bike_id": "70b0e26956c33e750e9d10b219c76f2d"}, {"name": "aee35415a705edcddfb4390c2c2a356a", "type": "electric_scooter", "fusion_lon": 0.0, "lon": -77.05741233333333, "is_disabled": 0, "lat": 38.933922, "fusion_lat": 0.0, "is_reserved": 0, "rental_uris": {"android": "https://dc.lft.to/lastmile_qr_scan", "ios": "https://dc.lft.to/lastmile_qr_scan"}, "bike_id": "aee35415a705edcddfb4390c2c2a356a"}, {"name": "270314ddfa2ae238da896f50af342325", "type": "electric_scooter", "fusion_lon": 0.0, "lon": -77.0290345, "is_disabled": 0, "lat": 38.923208333333335, "fusion_lat": 0.0, "is_reserved": 0, "rental_uris": {"android": "https://dc.lft.to/lastmile_qr_scan", "ios": "https://dc.lft.to/lastmile_qr_scan"}, "bike_id": "270314ddfa2ae238da896f50af342325"}, {"name": "52d4bc174fd8f5520d25a91ac188113c", "type": "electric_scooter", "fusion_lon": 0.0, "lon": -77.03267166666667, "is_disabled": 0, "lat": 38.93351533333333, "fusion_lat": 0.0, "is_reserved": 0, "rental_uris": {"android": "https://dc.lft.to/lastmile_qr_scan", "ios": "https://dc.lft.to/lastmile_qr_scan"}, "bike_id": "52d4bc174fd8f5520d25a91ac188113c"}, {"name": "b3456944239d4808151a5afdd6ca6cf1", "type": "electric_scooter", "fusion_lon": 0.0, "lon": -77.02808716666667, "is_disabled": 0, "lat": 38.899232833333336, "fusion_lat": 0.0, "is_reserved": 0, "rental_uris": {"android": "https://dc.lft.to/lastmile_qr_scan", "ios": "https://dc.lft.to/lastmile_qr_scan"}, "bike_id": "b3456944239d4808151a5afdd6ca6cf1"}, {"name": "37201fbd4db6148b04f4bceab5bca80f", "type": "electric_scooter", "fusion_lon": 0.0, "lon": -77.02126116666666, "is_disabled": 0, "lat": 38.899797666666664, "fusion_lat": 0.0, "is_reserved": 0, "rental_uris": {"android": "https://dc.lft.to/lastmile_qr_scan", "ios": "https://dc.lft.to/lastmile_qr_scan"}, "bike_id": "37201fbd4db6148b04f4bceab5bca80f"}, {"name": "a12ac8bd608db03feb1f77fb6cb99fb5", "type": "electric_scooter", "fusion_lon": 0.0, "lon": -77.0417445, "is_disabled": 0, "lat": 38.91868816666667, "fusion_lat": 0.0, "is_reserved": 0, "rental_uris": {"android": "https://dc.lft.to/lastmile_qr_scan", "ios": "https://dc.lft.to/lastmile_qr_scan"}, "bike_id": "a12ac8bd608db03feb1f77fb6cb99fb5"}, {"name": "ee8e879974cc923ddd181af11fcf24a8", "type": "electric_scooter", "fusion_lon": 0.0, "lon": -76.957602, "is_disabled": 0, "lat": 38.8842405, "fusion_lat": 0.0, "is_reserved": 0, "rental_uris": {"android": "https://dc.lft.to/lastmile_qr_scan", "ios": "https://dc.lft.to/lastmile_qr_scan"}, "bike_id": "ee8e879974cc923ddd181af11fcf24a8"}, {"name": "763eb1705ed2efc4755800b88eb95244", "type": "electric_bike", "fusion_lon": 0.0, "lon": -77.00871566666666, "is_disabled": 0, "lat": 38.964614833333336, "fusion_lat": 0.0, "is_reserved": 0, "rental_uris": {"android": "https://dc.lft.to/lastmile_qr_scan", "ios": "https://dc.lft.to/lastmile_qr_scan"}, "bike_id": "763eb1705ed2efc4755800b88eb95244"}, {"name": "f29666e976a5953c88418f7933389b5a", "type": "electric_scooter", "fusion_lon": 0.0, "lon": -77.04142716666667, "is_disabled": 0, "lat": 38.919825, "fusion_lat": 0.0, "is_reserved": 0, "rental_uris": {"android": "https://dc.lft.to/lastmile_qr_scan", "ios": "https://dc.lft.to/lastmile_qr_scan"}, "bike_id": "f29666e976a5953c88418f7933389b5a"}, {"name": "2bb6a5f0fdbab2e6c9fd476546cbb78a", "type": "electric_bike", "fusion_lon": 0.0, "lon": -77.08921733333334, "is_disabled": 0, "lat": 38.86338666666666, "fusion_lat": 0.0, "is_reserved": 0, "rental_uris": {"android": "https://dc.lft.to/lastmile_qr_scan", "ios": "https://dc.lft.to/lastmile_qr_scan"}, "bike_id": "2bb6a5f0fdbab2e6c9fd476546cbb78a"}, {"name": "7e68d59c230cfb2d2f29ae7cec9ce202", "type": "electric_scooter", "fusion_lon": 0.0, "lon": -77.0224075, "is_disabled": 0, "lat": 38.924548, "fusion_lat": 0.0, "is_reserved": 0, "rental_uris": {"android": "https://dc.lft.to/lastmile_qr_scan", "ios": "https://dc.lft.to/lastmile_qr_scan"}, "bike_id": "7e68d59c230cfb2d2f29ae7cec9ce202"}, {"name": "a0cadffd753e409813dd47d79bc2735a", "type": "electric_scooter", "fusion_lon": 0.0, "lon": -77.0235215, "is_disabled": 0, "lat": 38.922682, "fusion_lat": 0.0, "is_reserved": 0, "rental_uris": {"android": "https://dc.lft.to/lastmile_qr_scan", "ios": "https://dc.lft.to/lastmile_qr_scan"}, "bike_id": "a0cadffd753e409813dd47d79bc2735a"}, {"name": "9006dbb20509a6d2af51466dd643fbaa", "type": "electric_scooter", "fusion_lon": 0.0, "lon": -77.02156683333334, "is_disabled": 0, "lat": 38.9245975, "fusion_lat": 0.0, "is_reserved": 0, "rental_uris": {"android": "https://dc.lft.to/lastmile_qr_scan", "ios": "https://dc.lft.to/lastmile_qr_scan"}, "bike_id": "9006dbb20509a6d2af51466dd643fbaa"}, {"name": "56394a6da91747c5bee0011ee6248418", "type": "electric_scooter", "fusion_lon": 0.0, "lon": -77.00587416666667, "is_disabled": 0, "lat": 38.92945516666666, "fusion_lat": 0.0, "is_reserved": 0, "rental_uris": {"android": "https://dc.lft.to/lastmile_qr_scan", "ios": "https://dc.lft.to/lastmile_qr_scan"}, "bike_id": "56394a6da91747c5bee0011ee6248418"}, {"name": "a59d8390004fbeb45d21be33a54a447d", "type": "electric_scooter", "fusion_lon": 0.0, "lon": -77.01994766666667, "is_disabled": 0, "lat": 38.89894, "fusion_lat": 0.0, "is_reserved": 0, "rental_uris": {"android": "https://dc.lft.to/lastmile_qr_scan", "ios": "https://dc.lft.to/lastmile_qr_scan"}, "bike_id": "a59d8390004fbeb45d21be33a54a447d"}, {"name": "1e4a630be3abd6e0d52a877836ab41f1", "type": "electric_scooter", "fusion_lon": 0.0, "lon": -77.031039, "is_disabled": 0, "lat": 38.89568416666667, "fusion_lat": 0.0, "is_reserved": 0, "rental_uris": {"android": "https://dc.lft.to/lastmile_qr_scan", "ios": "https://dc.lft.to/lastmile_qr_scan"}, "bike_id": "1e4a630be3abd6e0d52a877836ab41f1"}, {"name": "30d4ca7654c62d739ec6064b01382ef0", "type": "electric_scooter", "fusion_lon": 0.0, "lon": -76.9465225, "is_disabled": 0, "lat": 38.89825866666666, "fusion_lat": 0.0, "is_reserved": 0, "rental_uris": {"android": "https://dc.lft.to/lastmile_qr_scan", "ios": "https://dc.lft.to/lastmile_qr_scan"}, "bike_id": "30d4ca7654c62d739ec6064b01382ef0"}, {"name": "296541c6d1fb05dd76a3a0edeeb65e02", "type": "electric_scooter", "fusion_lon": 0.0, "lon": -77.03281533333333, "is_disabled": 0, "lat": 38.92816116666667, "fusion_lat": 0.0, "is_reserved": 0, "rental_uris": {"android": "https://dc.lft.to/lastmile_qr_scan", "ios": "https://dc.lft.to/lastmile_qr_scan"}, "bike_id": "296541c6d1fb05dd76a3a0edeeb65e02"}, {"name": "6c6d0bf1e12da2032724f92e8c85bf30", "type": "electric_scooter", "fusion_lon": 0.0, "lon": -77.02833183333334, "is_disabled": 0, "lat": 38.931892833333336, "fusion_lat": 0.0, "is_reserved": 0, "rental_uris": {"android": "https://dc.lft.to/lastmile_qr_scan", "ios": "https://dc.lft.to/lastmile_qr_scan"}, "bike_id": "6c6d0bf1e12da2032724f92e8c85bf30"}, {"name": "ecba1ca09e6c23d4c37b033848e76e62", "type": "electric_scooter", "fusion_lon": 0.0, "lon": -77.00195933333333, "is_disabled": 0, "lat": 38.90559566666667, "fusion_lat": 0.0, "is_reserved": 0, "rental_uris": {"android": "https://dc.lft.to/lastmile_qr_scan", "ios": "https://dc.lft.to/lastmile_qr_scan"}, "bike_id": "ecba1ca09e6c23d4c37b033848e76e62"}, {"name": "d6387d52b18c275da6d47122e166fb64", "type": "electric_scooter", "fusion_lon": 0.0, "lon": -77.01957033333333, "is_disabled": 0, "lat": 38.92368166666667, "fusion_lat": 0.0, "is_reserved": 0, "rental_uris": {"android": "https://dc.lft.to/lastmile_qr_scan", "ios": "https://dc.lft.to/lastmile_qr_scan"}, "bike_id": "d6387d52b18c275da6d47122e166fb64"}, {"name": "f8545e7307e545dcdbbcb2498e542d3b", "type": "electric_scooter", "fusion_lon": 0.0, "lon": -77.03203916666666, "is_disabled": 0, "lat": 38.91012933333333, "fusion_lat": 0.0, "is_reserved": 0, "rental_uris": {"android": "https://dc.lft.to/lastmile_qr_scan", "ios": "https://dc.lft.to/lastmile_qr_scan"}, "bike_id": "f8545e7307e545dcdbbcb2498e542d3b"}, {"name": "826587736caa06be63e445f1819728bf", "type": "electric_scooter", "fusion_lon": 0.0, "lon": -77.0471455, "is_disabled": 0, "lat": 38.902499166666665, "fusion_lat": 0.0, "is_reserved": 0, "rental_uris": {"android": "https://dc.lft.to/lastmile_qr_scan", "ios": "https://dc.lft.to/lastmile_qr_scan"}, "bike_id": "826587736caa06be63e445f1819728bf"}, {"name": "e27c146fe1d37b7b253daf1292398ea9", "type": "electric_scooter", "fusion_lon": 0.0, "lon": -77.048961, "is_disabled": 0, "lat": 38.89884083333333, "fusion_lat": 0.0, "is_reserved": 0, "rental_uris": {"android": "https://dc.lft.to/lastmile_qr_scan", "ios": "https://dc.lft.to/lastmile_qr_scan"}, "bike_id": "e27c146fe1d37b7b253daf1292398ea9"}, {"name": "5d6665fb52379a14893af3740b827ace", "type": "electric_scooter", "fusion_lon": 0.0, "lon": -77.00409666666667, "is_disabled": 0, "lat": 38.877038, "fusion_lat": 0.0, "is_reserved": 0, "rental_uris": {"android": "https://dc.lft.to/lastmile_qr_scan", "ios": "https://dc.lft.to/lastmile_qr_scan"}, "bike_id": "5d6665fb52379a14893af3740b827ace"}, {"name": "955ec411f37e894daabd3dd6dc857a3a", "type": "electric_scooter", "fusion_lon": 0.0, "lon": -77.04889216666666, "is_disabled": 0, "lat": 38.89756783333333, "fusion_lat": 0.0, "is_reserved": 0, "rental_uris": {"android": "https://dc.lft.to/lastmile_qr_scan", "ios": "https://dc.lft.to/lastmile_qr_scan"}, "bike_id": "955ec411f37e894daabd3dd6dc857a3a"}, {"name": "65af6e2e4e91065aa405beeb8e72cb16", "type": "electric_bike", "fusion_lon": 0.0, "lon": -76.97398833333334, "is_disabled": 0, "lat": 38.8452735, "fusion_lat": 0.0, "is_reserved": 0, "rental_uris": {"android": "https://dc.lft.to/lastmile_qr_scan", "ios": "https://dc.lft.to/lastmile_qr_scan"}, "bike_id": "65af6e2e4e91065aa405beeb8e72cb16"}, {"name": "790d83fa0fc687cb2a048501ec749dd2", "type": "electric_scooter", "fusion_lon": 0.0, "lon": -77.0258825, "is_disabled": 0, "lat": 38.9004755, "fusion_lat": 0.0, "is_reserved": 0, "rental_uris": {"android": "https://dc.lft.to/lastmile_qr_scan", "ios": "https://dc.lft.to/lastmile_qr_scan"}, "bike_id": "790d83fa0fc687cb2a048501ec749dd2"}, {"name": "fedb69ab753310f99bc9680fb0cc1c68", "type": "electric_scooter", "fusion_lon": 0.0, "lon": -76.99970966666666, "is_disabled": 0, "lat": 38.908361666666664, "fusion_lat": 0.0, "is_reserved": 0, "rental_uris": {"android": "https://dc.lft.to/lastmile_qr_scan", "ios": "https://dc.lft.to/lastmile_qr_scan"}, "bike_id": "fedb69ab753310f99bc9680fb0cc1c68"}, {"name": "1ce81d049e59938c1500693070a7c7a6", "type": "electric_scooter", "fusion_lon": 0.0, "lon": -76.9465415, "is_disabled": 0, "lat": 38.89827283333333, "fusion_lat": 0.0, "is_reserved": 0, "rental_uris": {"android": "https://dc.lft.to/lastmile_qr_scan", "ios": "https://dc.lft.to/lastmile_qr_scan"}, "bike_id": "1ce81d049e59938c1500693070a7c7a6"}, {"name": "5361c4a34b8aeedd2f125af09c3a653d", "type": "electric_scooter", "fusion_lon": 0.0, "lon": -77.071589, "is_disabled": 0, "lat": 38.908736833333336, "fusion_lat": 0.0, "is_reserved": 0, "rental_uris": {"android": "https://dc.lft.to/lastmile_qr_scan", "ios": "https://dc.lft.to/lastmile_qr_scan"}, "bike_id": "5361c4a34b8aeedd2f125af09c3a653d"}, {"name": "7153b7b6dc015152fd062826a8cb3d41", "type": "electric_scooter", "fusion_lon": 0.0, "lon": -77.02374233333333, "is_disabled": 0, "lat": 38.953057, "fusion_lat": 0.0, "is_reserved": 0, "rental_uris": {"android": "https://dc.lft.to/lastmile_qr_scan", "ios": "https://dc.lft.to/lastmile_qr_scan"}, "bike_id": "7153b7b6dc015152fd062826a8cb3d41"}, {"name": "7e9c564382d7c6831ca8dffb52dacfc1", "type": "electric_scooter", "fusion_lon": 0.0, "lon": -77.03679633333333, "is_disabled": 0, "lat": 38.90965166666667, "fusion_lat": 0.0, "is_reserved": 0, "rental_uris": {"android": "https://dc.lft.to/lastmile_qr_scan", "ios": "https://dc.lft.to/lastmile_qr_scan"}, "bike_id": "7e9c564382d7c6831ca8dffb52dacfc1"}, {"name": "c3b60f9e46fd1c09da22b9f6a086de8d", "type": "electric_bike", "fusion_lon": 0.0, "lon": -76.97223133333334, "is_disabled": 0, "lat": 38.900345, "fusion_lat": 0.0, "is_reserved": 0, "rental_uris": {"android": "https://dc.lft.to/lastmile_qr_scan", "ios": "https://dc.lft.to/lastmile_qr_scan"}, "bike_id": "c3b60f9e46fd1c09da22b9f6a086de8d"}, {"name": "bcdd4aef98affde4418da964ed3f35cb", "type": "electric_scooter", "fusion_lon": 0.0, "lon": -77.03955866666666, "is_disabled": 0, "lat": 38.89520733333333, "fusion_lat": 0.0, "is_reserved": 0, "rental_uris": {"android": "https://dc.lft.to/lastmile_qr_scan", "ios": "https://dc.lft.to/lastmile_qr_scan"}, "bike_id": "bcdd4aef98affde4418da964ed3f35cb"}, {"name": "c5dafb1b7bef5216d744783b1367799f", "type": "electric_scooter", "fusion_lon": 0.0, "lon": -77.02210066666666, "is_disabled": 0, "lat": 38.892289166666664, "fusion_lat": 0.0, "is_reserved": 0, "rental_uris": {"android": "https://dc.lft.to/lastmile_qr_scan", "ios": "https://dc.lft.to/lastmile_qr_scan"}, "bike_id": "c5dafb1b7bef5216d744783b1367799f"}, {"name": "f7142b5c362f7dac982342bfd88d1aa3", "type": "electric_scooter", "fusion_lon": 0.0, "lon": -77.02411533333333, "is_disabled": 0, "lat": 38.941842666666666, "fusion_lat": 0.0, "is_reserved": 0, "rental_uris": {"android": "https://dc.lft.to/lastmile_qr_scan", "ios": "https://dc.lft.to/lastmile_qr_scan"}, "bike_id": "f7142b5c362f7dac982342bfd88d1aa3"}, {"name": "09ccc94b88b369a13f1d0adfd02256ea", "type": "electric_scooter", "fusion_lon": 0.0, "lon": -77.0386725, "is_disabled": 0, "lat": 38.932745, "fusion_lat": 0.0, "is_reserved": 0, "rental_uris": {"android": "https://dc.lft.to/lastmile_qr_scan", "ios": "https://dc.lft.to/lastmile_qr_scan"}, "bike_id": "09ccc94b88b369a13f1d0adfd02256ea"}, {"name": "09da283431222631bd6b97c1835d2d96", "type": "electric_scooter", "fusion_lon": 0.0, "lon": -77.07278066666667, "is_disabled": 0, "lat": 38.9090355, "fusion_lat": 0.0, "is_reserved": 0, "rental_uris": {"android": "https://dc.lft.to/lastmile_qr_scan", "ios": "https://dc.lft.to/lastmile_qr_scan"}, "bike_id": "09da283431222631bd6b97c1835d2d96"}, {"name": "6b377658c0f0f4b607c4ba11fdbda38e", "type": "electric_scooter", "fusion_lon": 0.0, "lon": -77.08440583333334, "is_disabled": 0, "lat": 38.93983333333333, "fusion_lat": 0.0, "is_reserved": 0, "rental_uris": {"android": "https://dc.lft.to/lastmile_qr_scan", "ios": "https://dc.lft.to/lastmile_qr_scan"}, "bike_id": "6b377658c0f0f4b607c4ba11fdbda38e"}, {"name": "ac6097f6d7c3336d2a315cf8eb74bcb9", "type": "electric_scooter", "fusion_lon": 0.0, "lon": -77.04042716666666, "is_disabled": 0, "lat": 38.90041866666667, "fusion_lat": 0.0, "is_reserved": 0, "rental_uris": {"android": "https://dc.lft.to/lastmile_qr_scan", "ios": "https://dc.lft.to/lastmile_qr_scan"}, "bike_id": "ac6097f6d7c3336d2a315cf8eb74bcb9"}, {"name": "1d4dd17f8699af8be5c15c727eeac256", "type": "electric_scooter", "fusion_lon": 0.0, "lon": -77.0401365, "is_disabled": 0, "lat": 38.896352666666665, "fusion_lat": 0.0, "is_reserved": 0, "rental_uris": {"android": "https://dc.lft.to/lastmile_qr_scan", "ios": "https://dc.lft.to/lastmile_qr_scan"}, "bike_id": "1d4dd17f8699af8be5c15c727eeac256"}, {"name": "d74badd56bb06c5b53fccca23c5359fd", "type": "electric_scooter", "fusion_lon": 0.0, "lon": -77.035614, "is_disabled": 0, "lat": 38.90131933333333, "fusion_lat": 0.0, "is_reserved": 0, "rental_uris": {"android": "https://dc.lft.to/lastmile_qr_scan", "ios": "https://dc.lft.to/lastmile_qr_scan"}, "bike_id": "d74badd56bb06c5b53fccca23c5359fd"}, {"name": "afc081c8c72d64772da7e67e11b760b5", "type": "electric_scooter", "fusion_lon": 0.0, "lon": -77.038834, "is_disabled": 0, "lat": 38.918504, "fusion_lat": 0.0, "is_reserved": 0, "rental_uris": {"android": "https://dc.lft.to/lastmile_qr_scan", "ios": "https://dc.lft.to/lastmile_qr_scan"}, "bike_id": "afc081c8c72d64772da7e67e11b760b5"}, {"name": "9d699a67aa41e86955bcbcf20332ff7f", "type": "electric_scooter", "fusion_lon": 0.0, "lon": -77.02145783333333, "is_disabled": 0, "lat": 38.897081, "fusion_lat": 0.0, "is_reserved": 0, "rental_uris": {"android": "https://dc.lft.to/lastmile_qr_scan", "ios": "https://dc.lft.to/lastmile_qr_scan"}, "bike_id": "9d699a67aa41e86955bcbcf20332ff7f"}, {"name": "a39ac5b80f76a85757030ee2afef65d5", "type": "electric_scooter", "fusion_lon": 0.0, "lon": -77.00030266666667, "is_disabled": 0, "lat": 38.874122166666666, "fusion_lat": 0.0, "is_reserved": 0, "rental_uris": {"android": "https://dc.lft.to/lastmile_qr_scan", "ios": "https://dc.lft.to/lastmile_qr_scan"}, "bike_id": "a39ac5b80f76a85757030ee2afef65d5"}, {"name": "97c764be8b9b2b0d9ba2b75350fd252a", "type": "electric_scooter", "fusion_lon": 0.0, "lon": -77.03839733333334, "is_disabled": 0, "lat": 38.909903, "fusion_lat": 0.0, "is_reserved": 0, "rental_uris": {"android": "https://dc.lft.to/lastmile_qr_scan", "ios": "https://dc.lft.to/lastmile_qr_scan"}, "bike_id": "97c764be8b9b2b0d9ba2b75350fd252a"}, {"name": "9552779c43da706944cd1f015a3ccec0", "type": "electric_scooter", "fusion_lon": 0.0, "lon": -77.03241433333334, "is_disabled": 0, "lat": 38.92728666666667, "fusion_lat": 0.0, "is_reserved": 0, "rental_uris": {"android": "https://dc.lft.to/lastmile_qr_scan", "ios": "https://dc.lft.to/lastmile_qr_scan"}, "bike_id": "9552779c43da706944cd1f015a3ccec0"}, {"name": "8977c3a8248ac4c39d384b249f67023e", "type": "electric_scooter", "fusion_lon": 0.0, "lon": -77.032789, "is_disabled": 0, "lat": 38.92276183333333, "fusion_lat": 0.0, "is_reserved": 0, "rental_uris": {"android": "https://dc.lft.to/lastmile_qr_scan", "ios": "https://dc.lft.to/lastmile_qr_scan"}, "bike_id": "8977c3a8248ac4c39d384b249f67023e"}, {"name": "9940c3764aa5304dafae7b36be59bf34", "type": "electric_bike", "fusion_lon": 0.0, "lon": -77.0533575, "is_disabled": 0, "lat": 39.04081933333333, "fusion_lat": 0.0, "is_reserved": 0, "rental_uris": {"android": "https://dc.lft.to/lastmile_qr_scan", "ios": "https://dc.lft.to/lastmile_qr_scan"}, "bike_id": "9940c3764aa5304dafae7b36be59bf34"}, {"name": "d89d9890277c0213cbf87c931de9640a", "type": "electric_scooter", "fusion_lon": 0.0, "lon": -77.04569, "is_disabled": 0, "lat": 38.90863983333333, "fusion_lat": 0.0, "is_reserved": 0, "rental_uris": {"android": "https://dc.lft.to/lastmile_qr_scan", "ios": "https://dc.lft.to/lastmile_qr_scan"}, "bike_id": "d89d9890277c0213cbf87c931de9640a"}, {"name": "2cad5d391747a91729a910a2f3ab7db7", "type": "electric_bike", "fusion_lon": 0.0, "lon": -76.99276166666667, "is_disabled": 0, "lat": 38.97257, "fusion_lat": 0.0, "is_reserved": 0, "rental_uris": {"android": "https://dc.lft.to/lastmile_qr_scan", "ios": "https://dc.lft.to/lastmile_qr_scan"}, "bike_id": "2cad5d391747a91729a910a2f3ab7db7"}, {"name": "7536a51fec589d51b0af844a49abbd01", "type": "electric_scooter", "fusion_lon": 0.0, "lon": -77.03850833333334, "is_disabled": 0, "lat": 38.902740666666666, "fusion_lat": 0.0, "is_reserved": 0, "rental_uris": {"android": "https://dc.lft.to/lastmile_qr_scan", "ios": "https://dc.lft.to/lastmile_qr_scan"}, "bike_id": "7536a51fec589d51b0af844a49abbd01"}, {"name": "2f5eacb9bbf3063cb0703e000cc559a0", "type": "electric_scooter", "fusion_lon": 0.0, "lon": -77.05300266666667, "is_disabled": 0, "lat": 38.910238, "fusion_lat": 0.0, "is_reserved": 0, "rental_uris": {"android": "https://dc.lft.to/lastmile_qr_scan", "ios": "https://dc.lft.to/lastmile_qr_scan"}, "bike_id": "2f5eacb9bbf3063cb0703e000cc559a0"}, {"name": "ebb475607e581fe199f2ed5c17c50fad", "type": "electric_scooter", "fusion_lon": 0.0, "lon": -77.0518705, "is_disabled": 0, "lat": 38.92427716666667, "fusion_lat": 0.0, "is_reserved": 0, "rental_uris": {"android": "https://dc.lft.to/lastmile_qr_scan", "ios": "https://dc.lft.to/lastmile_qr_scan"}, "bike_id": "ebb475607e581fe199f2ed5c17c50fad"}, {"name": "f2e055e31c73c720abbf6382fc177615", "type": "electric_scooter", "fusion_lon": 0.0, "lon": -77.03374083333334, "is_disabled": 0, "lat": 38.917112, "fusion_lat": 0.0, "is_reserved": 0, "rental_uris": {"android": "https://dc.lft.to/lastmile_qr_scan", "ios": "https://dc.lft.to/lastmile_qr_scan"}, "bike_id": "f2e055e31c73c720abbf6382fc177615"}, {"name": "a6285259cced466db84e3f3e4ce58afc", "type": "electric_scooter", "fusion_lon": 0.0, "lon": -77.03350266666666, "is_disabled": 0, "lat": 38.93584966666667, "fusion_lat": 0.0, "is_reserved": 0, "rental_uris": {"android": "https://dc.lft.to/lastmile_qr_scan", "ios": "https://dc.lft.to/lastmile_qr_scan"}, "bike_id": "a6285259cced466db84e3f3e4ce58afc"}, {"name": "16248f9ed43f04907bbebd0a076e059f", "type": "electric_scooter", "fusion_lon": 0.0, "lon": -77.02343216666667, "is_disabled": 0, "lat": 38.927119833333336, "fusion_lat": 0.0, "is_reserved": 0, "rental_uris": {"android": "https://dc.lft.to/lastmile_qr_scan", "ios": "https://dc.lft.to/lastmile_qr_scan"}, "bike_id": "16248f9ed43f04907bbebd0a076e059f"}, {"name": "5b247d1905c67ae6f51e855947ae8edd", "type": "electric_scooter", "fusion_lon": 0.0, "lon": -76.99622033333333, "is_disabled": 0, "lat": 38.950709333333336, "fusion_lat": 0.0, "is_reserved": 0, "rental_uris": {"android": "https://dc.lft.to/lastmile_qr_scan", "ios": "https://dc.lft.to/lastmile_qr_scan"}, "bike_id": "5b247d1905c67ae6f51e855947ae8edd"}, {"name": "bb099ef775361a6e1a4f80c4878539a0", "type": "electric_scooter", "fusion_lon": 0.0, "lon": -77.03384166666666, "is_disabled": 0, "lat": 38.92537083333333, "fusion_lat": 0.0, "is_reserved": 0, "rental_uris": {"android": "https://dc.lft.to/lastmile_qr_scan", "ios": "https://dc.lft.to/lastmile_qr_scan"}, "bike_id": "bb099ef775361a6e1a4f80c4878539a0"}, {"name": "e86c90322df1b647bb0ab10115345632", "type": "electric_scooter", "fusion_lon": 0.0, "lon": -77.004896, "is_disabled": 0, "lat": 38.874685, "fusion_lat": 0.0, "is_reserved": 0, "rental_uris": {"android": "https://dc.lft.to/lastmile_qr_scan", "ios": "https://dc.lft.to/lastmile_qr_scan"}, "bike_id": "e86c90322df1b647bb0ab10115345632"}, {"name": "80d67cd2f60141b5c39fd82c2bba6f07", "type": "electric_scooter", "fusion_lon": 0.0, "lon": -77.024767, "is_disabled": 0, "lat": 38.93964666666667, "fusion_lat": 0.0, "is_reserved": 0, "rental_uris": {"android": "https://dc.lft.to/lastmile_qr_scan", "ios": "https://dc.lft.to/lastmile_qr_scan"}, "bike_id": "80d67cd2f60141b5c39fd82c2bba6f07"}, {"name": "0cfe1d1bd6be6772e946d9cb2acc8dd0", "type": "electric_scooter", "fusion_lon": 0.0, "lon": -77.06193883333333, "is_disabled": 0, "lat": 38.9184555, "fusion_lat": 0.0, "is_reserved": 0, "rental_uris": {"android": "https://dc.lft.to/lastmile_qr_scan", "ios": "https://dc.lft.to/lastmile_qr_scan"}, "bike_id": "0cfe1d1bd6be6772e946d9cb2acc8dd0"}, {"name": "bf6f913781e457b3394476ec341f1181", "type": "electric_scooter", "fusion_lon": 0.0, "lon": -77.09054183333333, "is_disabled": 0, "lat": 38.9425255, "fusion_lat": 0.0, "is_reserved": 0, "rental_uris": {"android": "https://dc.lft.to/lastmile_qr_scan", "ios": "https://dc.lft.to/lastmile_qr_scan"}, "bike_id": "bf6f913781e457b3394476ec341f1181"}, {"name": "1f859fb1015e782a2e20e860eeb9be56", "type": "electric_scooter", "fusion_lon": 0.0, "lon": -77.02345283333334, "is_disabled": 0, "lat": 38.929679666666665, "fusion_lat": 0.0, "is_reserved": 0, "rental_uris": {"android": "https://dc.lft.to/lastmile_qr_scan", "ios": "https://dc.lft.to/lastmile_qr_scan"}, "bike_id": "1f859fb1015e782a2e20e860eeb9be56"}, {"name": "1eba50b00b8e896ffe4dc44cc8113a9a", "type": "electric_scooter", "fusion_lon": 0.0, "lon": -77.03136183333334, "is_disabled": 0, "lat": 38.904553166666666, "fusion_lat": 0.0, "is_reserved": 0, "rental_uris": {"android": "https://dc.lft.to/lastmile_qr_scan", "ios": "https://dc.lft.to/lastmile_qr_scan"}, "bike_id": "1eba50b00b8e896ffe4dc44cc8113a9a"}, {"name": "912b25b459f31d7a512c44a82057e881", "type": "electric_scooter", "fusion_lon": 0.0, "lon": -77.020432, "is_disabled": 0, "lat": 38.920916166666665, "fusion_lat": 0.0, "is_reserved": 0, "rental_uris": {"android": "https://dc.lft.to/lastmile_qr_scan", "ios": "https://dc.lft.to/lastmile_qr_scan"}, "bike_id": "912b25b459f31d7a512c44a82057e881"}, {"name": "325cc06d99b0fc02bc42656260715d0a", "type": "electric_scooter", "fusion_lon": 0.0, "lon": -76.9978465, "is_disabled": 0, "lat": 38.961535166666664, "fusion_lat": 0.0, "is_reserved": 0, "rental_uris": {"android": "https://dc.lft.to/lastmile_qr_scan", "ios": "https://dc.lft.to/lastmile_qr_scan"}, "bike_id": "325cc06d99b0fc02bc42656260715d0a"}, {"name": "30b72d69456ff003a57f34a9ae56e78c", "type": "electric_scooter", "fusion_lon": 0.0, "lon": -76.98544333333334, "is_disabled": 0, "lat": 38.86689116666667, "fusion_lat": 0.0, "is_reserved": 0, "rental_uris": {"android": "https://dc.lft.to/lastmile_qr_scan", "ios": "https://dc.lft.to/lastmile_qr_scan"}, "bike_id": "30b72d69456ff003a57f34a9ae56e78c"}, {"name": "844c6d3e0cec3b35e1744c288773efc9", "type": "electric_scooter", "fusion_lon": 0.0, "lon": -77.02689433333333, "is_disabled": 0, "lat": 38.9267595, "fusion_lat": 0.0, "is_reserved": 0, "rental_uris": {"android": "https://dc.lft.to/lastmile_qr_scan", "ios": "https://dc.lft.to/lastmile_qr_scan"}, "bike_id": "844c6d3e0cec3b35e1744c288773efc9"}, {"name": "94cc6b844c51ebd92a5ea754cc1a9c12", "type": "electric_scooter", "fusion_lon": 0.0, "lon": -77.041895, "is_disabled": 0, "lat": 38.92052733333333, "fusion_lat": 0.0, "is_reserved": 0, "rental_uris": {"android": "https://dc.lft.to/lastmile_qr_scan", "ios": "https://dc.lft.to/lastmile_qr_scan"}, "bike_id": "94cc6b844c51ebd92a5ea754cc1a9c12"}, {"name": "02f8e057a0d3ae9a2d708d5123b7c167", "type": "electric_scooter", "fusion_lon": 0.0, "lon": -77.04337716666667, "is_disabled": 0, "lat": 38.90416316666666, "fusion_lat": 0.0, "is_reserved": 0, "rental_uris": {"android": "https://dc.lft.to/lastmile_qr_scan", "ios": "https://dc.lft.to/lastmile_qr_scan"}, "bike_id": "02f8e057a0d3ae9a2d708d5123b7c167"}, {"name": "cb10913237fbc280e86130f9fe26ee47", "type": "electric_scooter", "fusion_lon": 0.0, "lon": -77.013555, "is_disabled": 0, "lat": 38.8921875, "fusion_lat": 0.0, "is_reserved": 0, "rental_uris": {"android": "https://dc.lft.to/lastmile_qr_scan", "ios": "https://dc.lft.to/lastmile_qr_scan"}, "bike_id": "cb10913237fbc280e86130f9fe26ee47"}, {"name": "0e4d36a66d68a46eab284e21756ff03e", "type": "electric_scooter", "fusion_lon": 0.0, "lon": -77.03921433333333, "is_disabled": 0, "lat": 38.912647666666665, "fusion_lat": 0.0, "is_reserved": 0, "rental_uris": {"android": "https://dc.lft.to/lastmile_qr_scan", "ios": "https://dc.lft.to/lastmile_qr_scan"}, "bike_id": "0e4d36a66d68a46eab284e21756ff03e"}, {"name": "cee86f1821f9ca9676585c1f99d3dcbb", "type": "electric_scooter", "fusion_lon": 0.0, "lon": -77.003417, "is_disabled": 0, "lat": 38.89919033333334, "fusion_lat": 0.0, "is_reserved": 0, "rental_uris": {"android": "https://dc.lft.to/lastmile_qr_scan", "ios": "https://dc.lft.to/lastmile_qr_scan"}, "bike_id": "cee86f1821f9ca9676585c1f99d3dcbb"}, {"name": "65d436e2a4add174ab1efeeea6f25a73", "type": "electric_scooter", "fusion_lon": 0.0, "lon": -76.98619766666667, "is_disabled": 0, "lat": 38.882842, "fusion_lat": 0.0, "is_reserved": 0, "rental_uris": {"android": "https://dc.lft.to/lastmile_qr_scan", "ios": "https://dc.lft.to/lastmile_qr_scan"}, "bike_id": "65d436e2a4add174ab1efeeea6f25a73"}, {"name": "e78600e3e2f88efee15ef094d6062b7a", "type": "electric_scooter", "fusion_lon": 0.0, "lon": -77.0266825, "is_disabled": 0, "lat": 38.924781, "fusion_lat": 0.0, "is_reserved": 0, "rental_uris": {"android": "https://dc.lft.to/lastmile_qr_scan", "ios": "https://dc.lft.to/lastmile_qr_scan"}, "bike_id": "e78600e3e2f88efee15ef094d6062b7a"}, {"name": "11dd8fb5598ea3d466fdaef1c7f5ee83", "type": "electric_scooter", "fusion_lon": 0.0, "lon": -76.97547366666667, "is_disabled": 0, "lat": 38.903217166666664, "fusion_lat": 0.0, "is_reserved": 0, "rental_uris": {"android": "https://dc.lft.to/lastmile_qr_scan", "ios": "https://dc.lft.to/lastmile_qr_scan"}, "bike_id": "11dd8fb5598ea3d466fdaef1c7f5ee83"}, {"name": "fd183bc558af90a2f85877d904f14375", "type": "electric_scooter", "fusion_lon": 0.0, "lon": -77.03838366666666, "is_disabled": 0, "lat": 38.902902, "fusion_lat": 0.0, "is_reserved": 0, "rental_uris": {"android": "https://dc.lft.to/lastmile_qr_scan", "ios": "https://dc.lft.to/lastmile_qr_scan"}, "bike_id": "fd183bc558af90a2f85877d904f14375"}, {"name": "5b7815e5fc4813ac1d612fdd11b2286c", "type": "electric_scooter", "fusion_lon": 0.0, "lon": -76.98565550000001, "is_disabled": 0, "lat": 38.86684283333334, "fusion_lat": 0.0, "is_reserved": 0, "rental_uris": {"android": "https://dc.lft.to/lastmile_qr_scan", "ios": "https://dc.lft.to/lastmile_qr_scan"}, "bike_id": "5b7815e5fc4813ac1d612fdd11b2286c"}, {"name": "b28b64bd5e5c0754d25943c17bcc0ee4", "type": "electric_scooter", "fusion_lon": 0.0, "lon": -77.03767583333334, "is_disabled": 0, "lat": 38.935772666666665, "fusion_lat": 0.0, "is_reserved": 0, "rental_uris": {"android": "https://dc.lft.to/lastmile_qr_scan", "ios": "https://dc.lft.to/lastmile_qr_scan"}, "bike_id": "b28b64bd5e5c0754d25943c17bcc0ee4"}, {"name": "1d89cdd8bec136a6bc091c2b993dc2ce", "type": "electric_scooter", "fusion_lon": 0.0, "lon": -76.94634166666667, "is_disabled": 0, "lat": 38.8986005, "fusion_lat": 0.0, "is_reserved": 0, "rental_uris": {"android": "https://dc.lft.to/lastmile_qr_scan", "ios": "https://dc.lft.to/lastmile_qr_scan"}, "bike_id": "1d89cdd8bec136a6bc091c2b993dc2ce"}, {"name": "583bb7d7d9fde230f29424515e7c2c87", "type": "electric_scooter", "fusion_lon": 0.0, "lon": -76.99478133333334, "is_disabled": 0, "lat": 38.90011416666667, "fusion_lat": 0.0, "is_reserved": 0, "rental_uris": {"android": "https://dc.lft.to/lastmile_qr_scan", "ios": "https://dc.lft.to/lastmile_qr_scan"}, "bike_id": "583bb7d7d9fde230f29424515e7c2c87"}, {"name": "55cc5e73408e5611ce8b01ea35eed03a", "type": "electric_scooter", "fusion_lon": 0.0, "lon": -77.02799083333333, "is_disabled": 0, "lat": 38.96049133333333, "fusion_lat": 0.0, "is_reserved": 0, "rental_uris": {"android": "https://dc.lft.to/lastmile_qr_scan", "ios": "https://dc.lft.to/lastmile_qr_scan"}, "bike_id": "55cc5e73408e5611ce8b01ea35eed03a"}, {"name": "2315b22ce7b40e78a4ec12bbda6a9c15", "type": "electric_scooter", "fusion_lon": 0.0, "lon": -76.99558933333333, "is_disabled": 0, "lat": 38.884677333333336, "fusion_lat": 0.0, "is_reserved": 0, "rental_uris": {"android": "https://dc.lft.to/lastmile_qr_scan", "ios": "https://dc.lft.to/lastmile_qr_scan"}, "bike_id": "2315b22ce7b40e78a4ec12bbda6a9c15"}, {"name": "7f02d9dadd54c5096f746be0897cf60a", "type": "electric_scooter", "fusion_lon": 0.0, "lon": -77.036306, "is_disabled": 0, "lat": 38.93681816666667, "fusion_lat": 0.0, "is_reserved": 0, "rental_uris": {"android": "https://dc.lft.to/lastmile_qr_scan", "ios": "https://dc.lft.to/lastmile_qr_scan"}, "bike_id": "7f02d9dadd54c5096f746be0897cf60a"}, {"name": "60fda62fa3f3491e4b71552447ca4366", "type": "electric_scooter", "fusion_lon": 0.0, "lon": -77.0317825, "is_disabled": 0, "lat": 38.91712733333333, "fusion_lat": 0.0, "is_reserved": 0, "rental_uris": {"android": "https://dc.lft.to/lastmile_qr_scan", "ios": "https://dc.lft.to/lastmile_qr_scan"}, "bike_id": "60fda62fa3f3491e4b71552447ca4366"}, {"name": "8e1675f18f5e3088670e68dc1dabbaf4", "type": "electric_scooter", "fusion_lon": 0.0, "lon": -77.02552916666667, "is_disabled": 0, "lat": 38.91634116666667, "fusion_lat": 0.0, "is_reserved": 0, "rental_uris": {"android": "https://dc.lft.to/lastmile_qr_scan", "ios": "https://dc.lft.to/lastmile_qr_scan"}, "bike_id": "8e1675f18f5e3088670e68dc1dabbaf4"}, {"name": "3d8d82202c224b27749afb2c081d4a18", "type": "electric_scooter", "fusion_lon": 0.0, "lon": -77.0636615, "is_disabled": 0, "lat": 38.944524, "fusion_lat": 0.0, "is_reserved": 0, "rental_uris": {"android": "https://dc.lft.to/lastmile_qr_scan", "ios": "https://dc.lft.to/lastmile_qr_scan"}, "bike_id": "3d8d82202c224b27749afb2c081d4a18"}, {"name": "5a7bbe00e09e95af0d5c3f168e63ae81", "type": "electric_scooter", "fusion_lon": 0.0, "lon": -77.03715266666667, "is_disabled": 0, "lat": 38.926359166666664, "fusion_lat": 0.0, "is_reserved": 0, "rental_uris": {"android": "https://dc.lft.to/lastmile_qr_scan", "ios": "https://dc.lft.to/lastmile_qr_scan"}, "bike_id": "5a7bbe00e09e95af0d5c3f168e63ae81"}, {"name": "2f162916a5b879db5f0da1a54b061713", "type": "electric_scooter", "fusion_lon": 0.0, "lon": -76.92582583333333, "is_disabled": 0, "lat": 38.893487, "fusion_lat": 0.0, "is_reserved": 0, "rental_uris": {"android": "https://dc.lft.to/lastmile_qr_scan", "ios": "https://dc.lft.to/lastmile_qr_scan"}, "bike_id": "2f162916a5b879db5f0da1a54b061713"}, {"name": "53c498a79497265daef7871f2d6231bd", "type": "electric_bike", "fusion_lon": 0.0, "lon": -77.04000033333334, "is_disabled": 0, "lat": 38.92076266666667, "fusion_lat": 0.0, "is_reserved": 0, "rental_uris": {"android": "https://dc.lft.to/lastmile_qr_scan", "ios": "https://dc.lft.to/lastmile_qr_scan"}, "bike_id": "53c498a79497265daef7871f2d6231bd"}, {"name": "e24261114645b095d00f759006703e03", "type": "electric_bike", "fusion_lon": 0.0, "lon": -77.01759966666667, "is_disabled": 0, "lat": 38.901384666666665, "fusion_lat": 0.0, "is_reserved": 0, "rental_uris": {"android": "https://dc.lft.to/lastmile_qr_scan", "ios": "https://dc.lft.to/lastmile_qr_scan"}, "bike_id": "e24261114645b095d00f759006703e03"}, {"name": "e0d5a599537adc441241f9435a4cd7ca", "type": "electric_scooter", "fusion_lon": 0.0, "lon": -77.01492716666667, "is_disabled": 0, "lat": 38.91775033333333, "fusion_lat": 0.0, "is_reserved": 0, "rental_uris": {"android": "https://dc.lft.to/lastmile_qr_scan", "ios": "https://dc.lft.to/lastmile_qr_scan"}, "bike_id": "e0d5a599537adc441241f9435a4cd7ca"}, {"name": "814486def73a2f8035a9fb841855fefc", "type": "electric_scooter", "fusion_lon": 0.0, "lon": -77.04836816666666, "is_disabled": 0, "lat": 38.914832833333335, "fusion_lat": 0.0, "is_reserved": 0, "rental_uris": {"android": "https://dc.lft.to/lastmile_qr_scan", "ios": "https://dc.lft.to/lastmile_qr_scan"}, "bike_id": "814486def73a2f8035a9fb841855fefc"}, {"name": "5af9b23f1e5067e466a58365dcae359c", "type": "electric_scooter", "fusion_lon": 0.0, "lon": -77.04842883333333, "is_disabled": 0, "lat": 38.912666, "fusion_lat": 0.0, "is_reserved": 0, "rental_uris": {"android": "https://dc.lft.to/lastmile_qr_scan", "ios": "https://dc.lft.to/lastmile_qr_scan"}, "bike_id": "5af9b23f1e5067e466a58365dcae359c"}, {"name": "5411c80f57fbdf9d6ad267bd254db452", "type": "electric_scooter", "fusion_lon": 0.0, "lon": -77.02659833333334, "is_disabled": 0, "lat": 38.897223, "fusion_lat": 0.0, "is_reserved": 0, "rental_uris": {"android": "https://dc.lft.to/lastmile_qr_scan", "ios": "https://dc.lft.to/lastmile_qr_scan"}, "bike_id": "5411c80f57fbdf9d6ad267bd254db452"}, {"name": "045b817c37cdf6164a72939a8f4c44c5", "type": "electric_scooter", "fusion_lon": 0.0, "lon": -77.0295375, "is_disabled": 0, "lat": 38.8963545, "fusion_lat": 0.0, "is_reserved": 0, "rental_uris": {"android": "https://dc.lft.to/lastmile_qr_scan", "ios": "https://dc.lft.to/lastmile_qr_scan"}, "bike_id": "045b817c37cdf6164a72939a8f4c44c5"}, {"name": "b98db6e8b0656f38992f7da2bd2b5fd3", "type": "electric_bike", "fusion_lon": 0.0, "lon": -77.12935916666666, "is_disabled": 0, "lat": 38.86515883333333, "fusion_lat": 0.0, "is_reserved": 0, "rental_uris": {"android": "https://dc.lft.to/lastmile_qr_scan", "ios": "https://dc.lft.to/lastmile_qr_scan"}, "bike_id": "b98db6e8b0656f38992f7da2bd2b5fd3"}, {"name": "4aa4d5d440ce8055d8fb57850e3084fa", "type": "electric_scooter", "fusion_lon": 0.0, "lon": -77.008891, "is_disabled": 0, "lat": 38.884981, "fusion_lat": 0.0, "is_reserved": 0, "rental_uris": {"android": "https://dc.lft.to/lastmile_qr_scan", "ios": "https://dc.lft.to/lastmile_qr_scan"}, "bike_id": "4aa4d5d440ce8055d8fb57850e3084fa"}, {"name": "d4f45a61159565dc4caebf962f80b5be", "type": "electric_scooter", "fusion_lon": 0.0, "lon": -77.03180716666667, "is_disabled": 0, "lat": 38.924866333333334, "fusion_lat": 0.0, "is_reserved": 0, "rental_uris": {"android": "https://dc.lft.to/lastmile_qr_scan", "ios": "https://dc.lft.to/lastmile_qr_scan"}, "bike_id": "d4f45a61159565dc4caebf962f80b5be"}, {"name": "48a0d0d8929587fa9d87fc3b6a77f3bf", "type": "electric_scooter", "fusion_lon": 0.0, "lon": -77.03345333333333, "is_disabled": 0, "lat": 38.89249816666667, "fusion_lat": 0.0, "is_reserved": 0, "rental_uris": {"android": "https://dc.lft.to/lastmile_qr_scan", "ios": "https://dc.lft.to/lastmile_qr_scan"}, "bike_id": "48a0d0d8929587fa9d87fc3b6a77f3bf"}, {"name": "db8da71a863d617cae12acdae6b1854a", "type": "electric_scooter", "fusion_lon": 0.0, "lon": -77.0119685, "is_disabled": 0, "lat": 38.9276385, "fusion_lat": 0.0, "is_reserved": 0, "rental_uris": {"android": "https://dc.lft.to/lastmile_qr_scan", "ios": "https://dc.lft.to/lastmile_qr_scan"}, "bike_id": "db8da71a863d617cae12acdae6b1854a"}, {"name": "836783d580e10f136641e87449e02c80", "type": "electric_scooter", "fusion_lon": 0.0, "lon": -77.06097933333334, "is_disabled": 0, "lat": 38.90529133333333, "fusion_lat": 0.0, "is_reserved": 0, "rental_uris": {"android": "https://dc.lft.to/lastmile_qr_scan", "ios": "https://dc.lft.to/lastmile_qr_scan"}, "bike_id": "836783d580e10f136641e87449e02c80"}, {"name": "9c101a90e621aa5c11e68fd8f61cfc8a", "type": "electric_scooter", "fusion_lon": 0.0, "lon": -77.03199933333333, "is_disabled": 0, "lat": 38.91287283333333, "fusion_lat": 0.0, "is_reserved": 0, "rental_uris": {"android": "https://dc.lft.to/lastmile_qr_scan", "ios": "https://dc.lft.to/lastmile_qr_scan"}, "bike_id": "9c101a90e621aa5c11e68fd8f61cfc8a"}, {"name": "77ae1b5a1df9a47d8c04949699fefa6e", "type": "electric_scooter", "fusion_lon": 0.0, "lon": -77.02483983333333, "is_disabled": 0, "lat": 38.882951166666665, "fusion_lat": 0.0, "is_reserved": 0, "rental_uris": {"android": "https://dc.lft.to/lastmile_qr_scan", "ios": "https://dc.lft.to/lastmile_qr_scan"}, "bike_id": "77ae1b5a1df9a47d8c04949699fefa6e"}, {"name": "3d7ad952d3b514625214faeaf6a18083", "type": "electric_scooter", "fusion_lon": 0.0, "lon": -77.01601733333334, "is_disabled": 0, "lat": 38.92716133333333, "fusion_lat": 0.0, "is_reserved": 0, "rental_uris": {"android": "https://dc.lft.to/lastmile_qr_scan", "ios": "https://dc.lft.to/lastmile_qr_scan"}, "bike_id": "3d7ad952d3b514625214faeaf6a18083"}, {"name": "0524a6afdbeebff7b5d288e198c43354", "type": "electric_scooter", "fusion_lon": 0.0, "lon": -77.03161833333333, "is_disabled": 0, "lat": 38.89611516666667, "fusion_lat": 0.0, "is_reserved": 0, "rental_uris": {"android": "https://dc.lft.to/lastmile_qr_scan", "ios": "https://dc.lft.to/lastmile_qr_scan"}, "bike_id": "0524a6afdbeebff7b5d288e198c43354"}, {"name": "84d9d4a498eb4ac0aa9f979df251a565", "type": "electric_scooter", "fusion_lon": 0.0, "lon": -77.02679666666667, "is_disabled": 0, "lat": 38.955113, "fusion_lat": 0.0, "is_reserved": 0, "rental_uris": {"android": "https://dc.lft.to/lastmile_qr_scan", "ios": "https://dc.lft.to/lastmile_qr_scan"}, "bike_id": "84d9d4a498eb4ac0aa9f979df251a565"}, {"name": "d7ae8ce8494c48628d790dd5b629370c", "type": "electric_bike", "fusion_lon": 0.0, "lon": -77.229269, "is_disabled": 0, "lat": 38.931937166666664, "fusion_lat": 0.0, "is_reserved": 0, "rental_uris": {"android": "https://dc.lft.to/lastmile_qr_scan", "ios": "https://dc.lft.to/lastmile_qr_scan"}, "bike_id": "d7ae8ce8494c48628d790dd5b629370c"}, {"name": "dc28e8d1342033de7f1ad92b606ba229", "type": "electric_scooter", "fusion_lon": 0.0, "lon": -77.05121616666666, "is_disabled": 0, "lat": 38.89675016666666, "fusion_lat": 0.0, "is_reserved": 0, "rental_uris": {"android": "https://dc.lft.to/lastmile_qr_scan", "ios": "https://dc.lft.to/lastmile_qr_scan"}, "bike_id": "dc28e8d1342033de7f1ad92b606ba229"}, {"name": "513d72d32cd3944b85911d4ebb7165c5", "type": "electric_scooter", "fusion_lon": 0.0, "lon": -77.04155566666667, "is_disabled": 0, "lat": 38.8984385, "fusion_lat": 0.0, "is_reserved": 0, "rental_uris": {"android": "https://dc.lft.to/lastmile_qr_scan", "ios": "https://dc.lft.to/lastmile_qr_scan"}, "bike_id": "513d72d32cd3944b85911d4ebb7165c5"}, {"name": "25ea36c9a9425d0c0ac0e82f409c196a", "type": "electric_scooter", "fusion_lon": 0.0, "lon": -77.01487583333333, "is_disabled": 0, "lat": 38.926678333333335, "fusion_lat": 0.0, "is_reserved": 0, "rental_uris": {"android": "https://dc.lft.to/lastmile_qr_scan", "ios": "https://dc.lft.to/lastmile_qr_scan"}, "bike_id": "25ea36c9a9425d0c0ac0e82f409c196a"}, {"name": "1106efd52373041d6ca7b736b129206f", "type": "electric_bike", "fusion_lon": 0.0, "lon": -77.05390583333333, "is_disabled": 0, "lat": 38.80453133333334, "fusion_lat": 0.0, "is_reserved": 0, "rental_uris": {"android": "https://dc.lft.to/lastmile_qr_scan", "ios": "https://dc.lft.to/lastmile_qr_scan"}, "bike_id": "1106efd52373041d6ca7b736b129206f"}, {"name": "f1d3db9d6fd7b2c636df9520299c87ce", "type": "electric_scooter", "fusion_lon": 0.0, "lon": -77.0229905, "is_disabled": 0, "lat": 38.90872666666667, "fusion_lat": 0.0, "is_reserved": 0, "rental_uris": {"android": "https://dc.lft.to/lastmile_qr_scan", "ios": "https://dc.lft.to/lastmile_qr_scan"}, "bike_id": "f1d3db9d6fd7b2c636df9520299c87ce"}, {"name": "3f1df9c470b9267baf4a9141fd261d9f", "type": "electric_scooter", "fusion_lon": 0.0, "lon": -76.980939, "is_disabled": 0, "lat": 38.900034166666664, "fusion_lat": 0.0, "is_reserved": 0, "rental_uris": {"android": "https://dc.lft.to/lastmile_qr_scan", "ios": "https://dc.lft.to/lastmile_qr_scan"}, "bike_id": "3f1df9c470b9267baf4a9141fd261d9f"}, {"name": "d9815cf43781b1341f1d93cecf947456", "type": "electric_scooter", "fusion_lon": 0.0, "lon": -77.04508383333334, "is_disabled": 0, "lat": 38.91608633333333, "fusion_lat": 0.0, "is_reserved": 0, "rental_uris": {"android": "https://dc.lft.to/lastmile_qr_scan", "ios": "https://dc.lft.to/lastmile_qr_scan"}, "bike_id": "d9815cf43781b1341f1d93cecf947456"}, {"name": "0ac581b26af5b72fc738c40febbfc753", "type": "electric_scooter", "fusion_lon": 0.0, "lon": -77.02100283333333, "is_disabled": 0, "lat": 38.885122333333335, "fusion_lat": 0.0, "is_reserved": 0, "rental_uris": {"android": "https://dc.lft.to/lastmile_qr_scan", "ios": "https://dc.lft.to/lastmile_qr_scan"}, "bike_id": "0ac581b26af5b72fc738c40febbfc753"}, {"name": "172750b2327391637296bc7418084c02", "type": "electric_scooter", "fusion_lon": 0.0, "lon": -77.01340683333333, "is_disabled": 0, "lat": 38.926412, "fusion_lat": 0.0, "is_reserved": 0, "rental_uris": {"android": "https://dc.lft.to/lastmile_qr_scan", "ios": "https://dc.lft.to/lastmile_qr_scan"}, "bike_id": "172750b2327391637296bc7418084c02"}, {"name": "c446002107f93b938b12e826a3aa6259", "type": "electric_scooter", "fusion_lon": 0.0, "lon": -77.04643133333333, "is_disabled": 0, "lat": 38.91454183333333, "fusion_lat": 0.0, "is_reserved": 0, "rental_uris": {"android": "https://dc.lft.to/lastmile_qr_scan", "ios": "https://dc.lft.to/lastmile_qr_scan"}, "bike_id": "c446002107f93b938b12e826a3aa6259"}, {"name": "df8fa20c4baf30e81db0729eed89770b", "type": "electric_scooter", "fusion_lon": 0.0, "lon": -76.98895016666667, "is_disabled": 0, "lat": 38.86661983333333, "fusion_lat": 0.0, "is_reserved": 0, "rental_uris": {"android": "https://dc.lft.to/lastmile_qr_scan", "ios": "https://dc.lft.to/lastmile_qr_scan"}, "bike_id": "df8fa20c4baf30e81db0729eed89770b"}, {"name": "4c4f7c6cc823718dbed38245a6ef26c3", "type": "electric_scooter", "fusion_lon": 0.0, "lon": -77.0007525, "is_disabled": 0, "lat": 38.905673, "fusion_lat": 0.0, "is_reserved": 0, "rental_uris": {"android": "https://dc.lft.to/lastmile_qr_scan", "ios": "https://dc.lft.to/lastmile_qr_scan"}, "bike_id": "4c4f7c6cc823718dbed38245a6ef26c3"}, {"name": "9e36561ec38f36f04350a5006b1e51e3", "type": "electric_scooter", "fusion_lon": 0.0, "lon": -77.05877566666666, "is_disabled": 0, "lat": 38.905323333333335, "fusion_lat": 0.0, "is_reserved": 0, "rental_uris": {"android": "https://dc.lft.to/lastmile_qr_scan", "ios": "https://dc.lft.to/lastmile_qr_scan"}, "bike_id": "9e36561ec38f36f04350a5006b1e51e3"}, {"name": "3525e6dece267d54734c5f024818fb74", "type": "electric_bike", "fusion_lon": 0.0, "lon": -76.95413783333333, "is_disabled": 0, "lat": 38.88416566666667, "fusion_lat": 0.0, "is_reserved": 0, "rental_uris": {"android": "https://dc.lft.to/lastmile_qr_scan", "ios": "https://dc.lft.to/lastmile_qr_scan"}, "bike_id": "3525e6dece267d54734c5f024818fb74"}, {"name": "650e3f731b751ea992923f9286dd71ac", "type": "electric_scooter", "fusion_lon": 0.0, "lon": -77.04495283333333, "is_disabled": 0, "lat": 38.914146833333334, "fusion_lat": 0.0, "is_reserved": 0, "rental_uris": {"android": "https://dc.lft.to/lastmile_qr_scan", "ios": "https://dc.lft.to/lastmile_qr_scan"}, "bike_id": "650e3f731b751ea992923f9286dd71ac"}, {"name": "dc46d56c84769c3c82b08814aae2898a", "type": "electric_scooter", "fusion_lon": 0.0, "lon": -77.02199083333333, "is_disabled": 0, "lat": 38.90544, "fusion_lat": 0.0, "is_reserved": 0, "rental_uris": {"android": "https://dc.lft.to/lastmile_qr_scan", "ios": "https://dc.lft.to/lastmile_qr_scan"}, "bike_id": "dc46d56c84769c3c82b08814aae2898a"}, {"name": "0e82652e9a2ed5ad11e9fa4a42822ea0", "type": "electric_scooter", "fusion_lon": 0.0, "lon": -77.0584845, "is_disabled": 0, "lat": 38.9305345, "fusion_lat": 0.0, "is_reserved": 0, "rental_uris": {"android": "https://dc.lft.to/lastmile_qr_scan", "ios": "https://dc.lft.to/lastmile_qr_scan"}, "bike_id": "0e82652e9a2ed5ad11e9fa4a42822ea0"}, {"name": "04b3ee2a793485c510e9cd600b6eb004", "type": "electric_scooter", "fusion_lon": 0.0, "lon": -77.0220885, "is_disabled": 0, "lat": 38.896242666666666, "fusion_lat": 0.0, "is_reserved": 0, "rental_uris": {"android": "https://dc.lft.to/lastmile_qr_scan", "ios": "https://dc.lft.to/lastmile_qr_scan"}, "bike_id": "04b3ee2a793485c510e9cd600b6eb004"}, {"name": "578fe27accd2444f67b3aaee66c2e8ef", "type": "electric_scooter", "fusion_lon": 0.0, "lon": -76.998011, "is_disabled": 0, "lat": 38.90856183333333, "fusion_lat": 0.0, "is_reserved": 0, "rental_uris": {"android": "https://dc.lft.to/lastmile_qr_scan", "ios": "https://dc.lft.to/lastmile_qr_scan"}, "bike_id": "578fe27accd2444f67b3aaee66c2e8ef"}, {"name": "c3f08eb5365f15c2f2286a2a150bf2be", "type": "electric_scooter", "fusion_lon": 0.0, "lon": -77.02124883333333, "is_disabled": 0, "lat": 38.88749383333333, "fusion_lat": 0.0, "is_reserved": 0, "rental_uris": {"android": "https://dc.lft.to/lastmile_qr_scan", "ios": "https://dc.lft.to/lastmile_qr_scan"}, "bike_id": "c3f08eb5365f15c2f2286a2a150bf2be"}, {"name": "1483eff1b4f832e94a457459e6776c53", "type": "electric_scooter", "fusion_lon": 0.0, "lon": -77.0461445, "is_disabled": 0, "lat": 38.91529383333334, "fusion_lat": 0.0, "is_reserved": 0, "rental_uris": {"android": "https://dc.lft.to/lastmile_qr_scan", "ios": "https://dc.lft.to/lastmile_qr_scan"}, "bike_id": "1483eff1b4f832e94a457459e6776c53"}, {"name": "a38c147ee917ae3a94c53ee4c689f264", "type": "electric_scooter", "fusion_lon": 0.0, "lon": -77.0317435, "is_disabled": 0, "lat": 38.91419283333333, "fusion_lat": 0.0, "is_reserved": 0, "rental_uris": {"android": "https://dc.lft.to/lastmile_qr_scan", "ios": "https://dc.lft.to/lastmile_qr_scan"}, "bike_id": "a38c147ee917ae3a94c53ee4c689f264"}, {"name": "254fa3b442d389304eac7892ea812297", "type": "electric_scooter", "fusion_lon": 0.0, "lon": -77.0352055, "is_disabled": 0, "lat": 38.90674, "fusion_lat": 0.0, "is_reserved": 0, "rental_uris": {"android": "https://dc.lft.to/lastmile_qr_scan", "ios": "https://dc.lft.to/lastmile_qr_scan"}, "bike_id": "254fa3b442d389304eac7892ea812297"}, {"name": "715c7c3562e474b81215a74bc841e8e8", "type": "electric_scooter", "fusion_lon": 0.0, "lon": -77.03343, "is_disabled": 0, "lat": 38.90962316666667, "fusion_lat": 0.0, "is_reserved": 0, "rental_uris": {"android": "https://dc.lft.to/lastmile_qr_scan", "ios": "https://dc.lft.to/lastmile_qr_scan"}, "bike_id": "715c7c3562e474b81215a74bc841e8e8"}, {"name": "91c6f0a40598fe4d398c88727e987b51", "type": "electric_scooter", "fusion_lon": 0.0, "lon": -77.04010166666667, "is_disabled": 0, "lat": 38.921968666666665, "fusion_lat": 0.0, "is_reserved": 0, "rental_uris": {"android": "https://dc.lft.to/lastmile_qr_scan", "ios": "https://dc.lft.to/lastmile_qr_scan"}, "bike_id": "91c6f0a40598fe4d398c88727e987b51"}, {"name": "270acff09fd44d31073a18694481211f", "type": "electric_scooter", "fusion_lon": 0.0, "lon": -77.022086, "is_disabled": 0, "lat": 38.892295, "fusion_lat": 0.0, "is_reserved": 0, "rental_uris": {"android": "https://dc.lft.to/lastmile_qr_scan", "ios": "https://dc.lft.to/lastmile_qr_scan"}, "bike_id": "270acff09fd44d31073a18694481211f"}, {"name": "67f492ea717a6ad28829ff891de0c9c0", "type": "electric_scooter", "fusion_lon": 0.0, "lon": -77.04722116666667, "is_disabled": 0, "lat": 38.9018295, "fusion_lat": 0.0, "is_reserved": 0, "rental_uris": {"android": "https://dc.lft.to/lastmile_qr_scan", "ios": "https://dc.lft.to/lastmile_qr_scan"}, "bike_id": "67f492ea717a6ad28829ff891de0c9c0"}, {"name": "7081e2c80a90d554b642d4469c9aed51", "type": "electric_scooter", "fusion_lon": 0.0, "lon": -76.9962625, "is_disabled": 0, "lat": 38.900642, "fusion_lat": 0.0, "is_reserved": 0, "rental_uris": {"android": "https://dc.lft.to/lastmile_qr_scan", "ios": "https://dc.lft.to/lastmile_qr_scan"}, "bike_id": "7081e2c80a90d554b642d4469c9aed51"}, {"name": "7c8085af97f612ae5e08eb2eacd049c8", "type": "electric_scooter", "fusion_lon": 0.0, "lon": -77.03196283333334, "is_disabled": 0, "lat": 38.91639166666667, "fusion_lat": 0.0, "is_reserved": 0, "rental_uris": {"android": "https://dc.lft.to/lastmile_qr_scan", "ios": "https://dc.lft.to/lastmile_qr_scan"}, "bike_id": "7c8085af97f612ae5e08eb2eacd049c8"}, {"name": "7bcb1a5d7f835435189a1e3d959de4d7", "type": "electric_scooter", "fusion_lon": 0.0, "lon": -76.932092, "is_disabled": 0, "lat": 38.896703, "fusion_lat": 0.0, "is_reserved": 0, "rental_uris": {"android": "https://dc.lft.to/lastmile_qr_scan", "ios": "https://dc.lft.to/lastmile_qr_scan"}, "bike_id": "7bcb1a5d7f835435189a1e3d959de4d7"}, {"name": "485740d7a5dda610d9fe22b91f64fa03", "type": "electric_scooter", "fusion_lon": 0.0, "lon": -77.03477016666666, "is_disabled": 0, "lat": 38.917053333333335, "fusion_lat": 0.0, "is_reserved": 0, "rental_uris": {"android": "https://dc.lft.to/lastmile_qr_scan", "ios": "https://dc.lft.to/lastmile_qr_scan"}, "bike_id": "485740d7a5dda610d9fe22b91f64fa03"}, {"name": "147bacf2ba675852d45ff1be44eb68ba", "type": "electric_scooter", "fusion_lon": 0.0, "lon": -77.02321983333333, "is_disabled": 0, "lat": 38.907245333333336, "fusion_lat": 0.0, "is_reserved": 0, "rental_uris": {"android": "https://dc.lft.to/lastmile_qr_scan", "ios": "https://dc.lft.to/lastmile_qr_scan"}, "bike_id": "147bacf2ba675852d45ff1be44eb68ba"}, {"name": "071e76127a3ae68801dba5cf1e4c93ae", "type": "electric_scooter", "fusion_lon": 0.0, "lon": -76.98539616666666, "is_disabled": 0, "lat": 38.899860833333335, "fusion_lat": 0.0, "is_reserved": 0, "rental_uris": {"android": "https://dc.lft.to/lastmile_qr_scan", "ios": "https://dc.lft.to/lastmile_qr_scan"}, "bike_id": "071e76127a3ae68801dba5cf1e4c93ae"}, {"name": "dd3d39e62b345609f4677ae5044c827e", "type": "electric_scooter", "fusion_lon": 0.0, "lon": -77.040765, "is_disabled": 0, "lat": 38.89620216666667, "fusion_lat": 0.0, "is_reserved": 0, "rental_uris": {"android": "https://dc.lft.to/lastmile_qr_scan", "ios": "https://dc.lft.to/lastmile_qr_scan"}, "bike_id": "dd3d39e62b345609f4677ae5044c827e"}, {"name": "34e4071cc0904b95c1abdd1c897aac00", "type": "electric_scooter", "fusion_lon": 0.0, "lon": -77.03250416666667, "is_disabled": 0, "lat": 38.92861516666667, "fusion_lat": 0.0, "is_reserved": 0, "rental_uris": {"android": "https://dc.lft.to/lastmile_qr_scan", "ios": "https://dc.lft.to/lastmile_qr_scan"}, "bike_id": "34e4071cc0904b95c1abdd1c897aac00"}, {"name": "8f52ba60acc8df1bca35d81f07dd17d7", "type": "electric_scooter", "fusion_lon": 0.0, "lon": -77.03271316666667, "is_disabled": 0, "lat": 38.93118783333333, "fusion_lat": 0.0, "is_reserved": 0, "rental_uris": {"android": "https://dc.lft.to/lastmile_qr_scan", "ios": "https://dc.lft.to/lastmile_qr_scan"}, "bike_id": "8f52ba60acc8df1bca35d81f07dd17d7"}, {"name": "75301c4f2a2f791c22fda6326c6565cf", "type": "electric_scooter", "fusion_lon": 0.0, "lon": -77.04261983333333, "is_disabled": 0, "lat": 38.9072125, "fusion_lat": 0.0, "is_reserved": 0, "rental_uris": {"android": "https://dc.lft.to/lastmile_qr_scan", "ios": "https://dc.lft.to/lastmile_qr_scan"}, "bike_id": "75301c4f2a2f791c22fda6326c6565cf"}, {"name": "a8ae6d5551db76e65cf81e1ee7c29f98", "type": "electric_scooter", "fusion_lon": 0.0, "lon": -77.02509816666667, "is_disabled": 0, "lat": 38.918107166666665, "fusion_lat": 0.0, "is_reserved": 0, "rental_uris": {"android": "https://dc.lft.to/lastmile_qr_scan", "ios": "https://dc.lft.to/lastmile_qr_scan"}, "bike_id": "a8ae6d5551db76e65cf81e1ee7c29f98"}, {"name": "851e37b9110b9d7501fd327b70033446", "type": "electric_scooter", "fusion_lon": 0.0, "lon": -77.02551766666667, "is_disabled": 0, "lat": 38.9410345, "fusion_lat": 0.0, "is_reserved": 0, "rental_uris": {"android": "https://dc.lft.to/lastmile_qr_scan", "ios": "https://dc.lft.to/lastmile_qr_scan"}, "bike_id": "851e37b9110b9d7501fd327b70033446"}, {"name": "6e0039b7fb0df14e622898814a0d5cbc", "type": "electric_scooter", "fusion_lon": 0.0, "lon": -77.04229916666667, "is_disabled": 0, "lat": 38.92071983333334, "fusion_lat": 0.0, "is_reserved": 0, "rental_uris": {"android": "https://dc.lft.to/lastmile_qr_scan", "ios": "https://dc.lft.to/lastmile_qr_scan"}, "bike_id": "6e0039b7fb0df14e622898814a0d5cbc"}, {"name": "bbbe7c02ffd3874ea77d7274f9b36efc", "type": "electric_scooter", "fusion_lon": 0.0, "lon": -77.02134716666667, "is_disabled": 0, "lat": 38.92417433333333, "fusion_lat": 0.0, "is_reserved": 0, "rental_uris": {"android": "https://dc.lft.to/lastmile_qr_scan", "ios": "https://dc.lft.to/lastmile_qr_scan"}, "bike_id": "bbbe7c02ffd3874ea77d7274f9b36efc"}, {"name": "1fbd838418c8385cd30d0c72449191cf", "type": "electric_scooter", "fusion_lon": 0.0, "lon": -77.02687366666666, "is_disabled": 0, "lat": 38.90660883333334, "fusion_lat": 0.0, "is_reserved": 0, "rental_uris": {"android": "https://dc.lft.to/lastmile_qr_scan", "ios": "https://dc.lft.to/lastmile_qr_scan"}, "bike_id": "1fbd838418c8385cd30d0c72449191cf"}, {"name": "a063660d39b54b5649d552c14ec43ba7", "type": "electric_scooter", "fusion_lon": 0.0, "lon": -77.014163, "is_disabled": 0, "lat": 38.892220333333334, "fusion_lat": 0.0, "is_reserved": 0, "rental_uris": {"android": "https://dc.lft.to/lastmile_qr_scan", "ios": "https://dc.lft.to/lastmile_qr_scan"}, "bike_id": "a063660d39b54b5649d552c14ec43ba7"}, {"name": "c3feaf30ee849cab3291999cde829e16", "type": "electric_scooter", "fusion_lon": 0.0, "lon": -77.06396883333333, "is_disabled": 0, "lat": 38.944143333333336, "fusion_lat": 0.0, "is_reserved": 0, "rental_uris": {"android": "https://dc.lft.to/lastmile_qr_scan", "ios": "https://dc.lft.to/lastmile_qr_scan"}, "bike_id": "c3feaf30ee849cab3291999cde829e16"}, {"name": "700309fb1f8c78242d759a3af46dd26a", "type": "electric_scooter", "fusion_lon": 0.0, "lon": -77.03462433333333, "is_disabled": 0, "lat": 38.9012965, "fusion_lat": 0.0, "is_reserved": 0, "rental_uris": {"android": "https://dc.lft.to/lastmile_qr_scan", "ios": "https://dc.lft.to/lastmile_qr_scan"}, "bike_id": "700309fb1f8c78242d759a3af46dd26a"}, {"name": "a05e07dd17190aa5e221fd81631cb4fa", "type": "electric_scooter", "fusion_lon": 0.0, "lon": -77.02891233333334, "is_disabled": 0, "lat": 38.90146083333333, "fusion_lat": 0.0, "is_reserved": 0, "rental_uris": {"android": "https://dc.lft.to/lastmile_qr_scan", "ios": "https://dc.lft.to/lastmile_qr_scan"}, "bike_id": "a05e07dd17190aa5e221fd81631cb4fa"}, {"name": "47ea2145a8908177f13afa84c7531918", "type": "electric_scooter", "fusion_lon": 0.0, "lon": -77.04864466666666, "is_disabled": 0, "lat": 38.913318333333336, "fusion_lat": 0.0, "is_reserved": 0, "rental_uris": {"android": "https://dc.lft.to/lastmile_qr_scan", "ios": "https://dc.lft.to/lastmile_qr_scan"}, "bike_id": "47ea2145a8908177f13afa84c7531918"}, {"name": "6503bb775a2b4a786cda78febc33529b", "type": "electric_scooter", "fusion_lon": 0.0, "lon": -77.072279, "is_disabled": 0, "lat": 38.93193433333333, "fusion_lat": 0.0, "is_reserved": 0, "rental_uris": {"android": "https://dc.lft.to/lastmile_qr_scan", "ios": "https://dc.lft.to/lastmile_qr_scan"}, "bike_id": "6503bb775a2b4a786cda78febc33529b"}, {"name": "cd166c754e6efe25c516960c92b97f5f", "type": "electric_scooter", "fusion_lon": 0.0, "lon": -77.02159683333333, "is_disabled": 0, "lat": 38.9261505, "fusion_lat": 0.0, "is_reserved": 0, "rental_uris": {"android": "https://dc.lft.to/lastmile_qr_scan", "ios": "https://dc.lft.to/lastmile_qr_scan"}, "bike_id": "cd166c754e6efe25c516960c92b97f5f"}, {"name": "6e44d19b3f2930d4d384ada39fc3c0c9", "type": "electric_scooter", "fusion_lon": 0.0, "lon": -77.04124216666666, "is_disabled": 0, "lat": 38.916321833333335, "fusion_lat": 0.0, "is_reserved": 0, "rental_uris": {"android": "https://dc.lft.to/lastmile_qr_scan", "ios": "https://dc.lft.to/lastmile_qr_scan"}, "bike_id": "6e44d19b3f2930d4d384ada39fc3c0c9"}, {"name": "ea119832725fa3dee2c6fa84da07ee9b", "type": "electric_scooter", "fusion_lon": 0.0, "lon": -77.00262233333333, "is_disabled": 0, "lat": 38.89485966666667, "fusion_lat": 0.0, "is_reserved": 0, "rental_uris": {"android": "https://dc.lft.to/lastmile_qr_scan", "ios": "https://dc.lft.to/lastmile_qr_scan"}, "bike_id": "ea119832725fa3dee2c6fa84da07ee9b"}, {"name": "a1393137ce3e722c149b301c1bde743a", "type": "electric_scooter", "fusion_lon": 0.0, "lon": -76.96816116666666, "is_disabled": 0, "lat": 38.84717916666666, "fusion_lat": 0.0, "is_reserved": 0, "rental_uris": {"android": "https://dc.lft.to/lastmile_qr_scan", "ios": "https://dc.lft.to/lastmile_qr_scan"}, "bike_id": "a1393137ce3e722c149b301c1bde743a"}, {"name": "039805a5821d9d227d1bbe1903a0f4f1", "type": "electric_scooter", "fusion_lon": 0.0, "lon": -77.03965866666667, "is_disabled": 0, "lat": 38.9198235, "fusion_lat": 0.0, "is_reserved": 0, "rental_uris": {"android": "https://dc.lft.to/lastmile_qr_scan", "ios": "https://dc.lft.to/lastmile_qr_scan"}, "bike_id": "039805a5821d9d227d1bbe1903a0f4f1"}, {"name": "852320b9054ec2373df0f3e85d3565dd", "type": "electric_scooter", "fusion_lon": 0.0, "lon": -77.00536916666667, "is_disabled": 0, "lat": 38.846463166666666, "fusion_lat": 0.0, "is_reserved": 0, "rental_uris": {"android": "https://dc.lft.to/lastmile_qr_scan", "ios": "https://dc.lft.to/lastmile_qr_scan"}, "bike_id": "852320b9054ec2373df0f3e85d3565dd"}, {"name": "040ff115fd917af72a8be13d3bc850ee", "type": "electric_scooter", "fusion_lon": 0.0, "lon": -77.032638, "is_disabled": 0, "lat": 38.9398545, "fusion_lat": 0.0, "is_reserved": 0, "rental_uris": {"android": "https://dc.lft.to/lastmile_qr_scan", "ios": "https://dc.lft.to/lastmile_qr_scan"}, "bike_id": "040ff115fd917af72a8be13d3bc850ee"}, {"name": "b442fef918e529b474d6f96898214e07", "type": "electric_scooter", "fusion_lon": 0.0, "lon": -77.016192, "is_disabled": 0, "lat": 38.95643033333333, "fusion_lat": 0.0, "is_reserved": 0, "rental_uris": {"android": "https://dc.lft.to/lastmile_qr_scan", "ios": "https://dc.lft.to/lastmile_qr_scan"}, "bike_id": "b442fef918e529b474d6f96898214e07"}, {"name": "cbd95048a1afb5dd001bf3e5c918eb9d", "type": "electric_scooter", "fusion_lon": 0.0, "lon": -77.04364866666667, "is_disabled": 0, "lat": 38.911279, "fusion_lat": 0.0, "is_reserved": 0, "rental_uris": {"android": "https://dc.lft.to/lastmile_qr_scan", "ios": "https://dc.lft.to/lastmile_qr_scan"}, "bike_id": "cbd95048a1afb5dd001bf3e5c918eb9d"}, {"name": "86cc36ca19d7c607526c7aed67be5e95", "type": "electric_scooter", "fusion_lon": 0.0, "lon": -77.01407316666666, "is_disabled": 0, "lat": 38.92862066666667, "fusion_lat": 0.0, "is_reserved": 0, "rental_uris": {"android": "https://dc.lft.to/lastmile_qr_scan", "ios": "https://dc.lft.to/lastmile_qr_scan"}, "bike_id": "86cc36ca19d7c607526c7aed67be5e95"}, {"name": "0b8e7d33b461267560425348e58e599f", "type": "electric_bike", "fusion_lon": 0.0, "lon": -77.01976616666667, "is_disabled": 0, "lat": 38.963842666666665, "fusion_lat": 0.0, "is_reserved": 0, "rental_uris": {"android": "https://dc.lft.to/lastmile_qr_scan", "ios": "https://dc.lft.to/lastmile_qr_scan"}, "bike_id": "0b8e7d33b461267560425348e58e599f"}, {"name": "7abdb5f4d33a6bbeee4b34d03ce6dd05", "type": "electric_scooter", "fusion_lon": 0.0, "lon": -77.02113616666666, "is_disabled": 0, "lat": 38.9223725, "fusion_lat": 0.0, "is_reserved": 0, "rental_uris": {"android": "https://dc.lft.to/lastmile_qr_scan", "ios": "https://dc.lft.to/lastmile_qr_scan"}, "bike_id": "7abdb5f4d33a6bbeee4b34d03ce6dd05"}, {"name": "8ec44f855fb39708021796e1aaac7755", "type": "electric_scooter", "fusion_lon": 0.0, "lon": -76.93180566666666, "is_disabled": 0, "lat": 38.898323500000004, "fusion_lat": 0.0, "is_reserved": 0, "rental_uris": {"android": "https://dc.lft.to/lastmile_qr_scan", "ios": "https://dc.lft.to/lastmile_qr_scan"}, "bike_id": "8ec44f855fb39708021796e1aaac7755"}, {"name": "2a437ace2423d410a747f7cd48e9f3df", "type": "electric_scooter", "fusion_lon": 0.0, "lon": -77.02153666666666, "is_disabled": 0, "lat": 38.879360166666665, "fusion_lat": 0.0, "is_reserved": 0, "rental_uris": {"android": "https://dc.lft.to/lastmile_qr_scan", "ios": "https://dc.lft.to/lastmile_qr_scan"}, "bike_id": "2a437ace2423d410a747f7cd48e9f3df"}, {"name": "1cc46f8b872e9853a87c9e1628b2138d", "type": "electric_scooter", "fusion_lon": 0.0, "lon": -77.02218216666667, "is_disabled": 0, "lat": 38.901659333333335, "fusion_lat": 0.0, "is_reserved": 0, "rental_uris": {"android": "https://dc.lft.to/lastmile_qr_scan", "ios": "https://dc.lft.to/lastmile_qr_scan"}, "bike_id": "1cc46f8b872e9853a87c9e1628b2138d"}, {"name": "2ac1bc46bd71e3397454081ce19926ce", "type": "electric_scooter", "fusion_lon": 0.0, "lon": -77.04700083333333, "is_disabled": 0, "lat": 38.8974695, "fusion_lat": 0.0, "is_reserved": 0, "rental_uris": {"android": "https://dc.lft.to/lastmile_qr_scan", "ios": "https://dc.lft.to/lastmile_qr_scan"}, "bike_id": "2ac1bc46bd71e3397454081ce19926ce"}, {"name": "97ad03c01e502c40aaa87fd3e08734e5", "type": "electric_bike", "fusion_lon": 0.0, "lon": -76.95667866666666, "is_disabled": 0, "lat": 38.884714, "fusion_lat": 0.0, "is_reserved": 0, "rental_uris": {"android": "https://dc.lft.to/lastmile_qr_scan", "ios": "https://dc.lft.to/lastmile_qr_scan"}, "bike_id": "97ad03c01e502c40aaa87fd3e08734e5"}, {"name": "fb1774c81d8ef4d9b6196279d6f2adc6", "type": "electric_scooter", "fusion_lon": 0.0, "lon": -77.02391966666667, "is_disabled": 0, "lat": 38.920144, "fusion_lat": 0.0, "is_reserved": 0, "rental_uris": {"android": "https://dc.lft.to/lastmile_qr_scan", "ios": "https://dc.lft.to/lastmile_qr_scan"}, "bike_id": "fb1774c81d8ef4d9b6196279d6f2adc6"}, {"name": "2c398cd6ed0f72d9ad0a3b054cce5827", "type": "electric_scooter", "fusion_lon": 0.0, "lon": -77.03254083333333, "is_disabled": 0, "lat": 38.92864683333333, "fusion_lat": 0.0, "is_reserved": 0, "rental_uris": {"android": "https://dc.lft.to/lastmile_qr_scan", "ios": "https://dc.lft.to/lastmile_qr_scan"}, "bike_id": "2c398cd6ed0f72d9ad0a3b054cce5827"}, {"name": "4c9631a2fd1ffb1a145a20b3bc1c2f31", "type": "electric_bike", "fusion_lon": 0.0, "lon": -77.04297833333334, "is_disabled": 0, "lat": 39.0342645, "fusion_lat": 0.0, "is_reserved": 0, "rental_uris": {"android": "https://dc.lft.to/lastmile_qr_scan", "ios": "https://dc.lft.to/lastmile_qr_scan"}, "bike_id": "4c9631a2fd1ffb1a145a20b3bc1c2f31"}, {"name": "9eb438e095bd75adef97e7ae748bdfed", "type": "electric_scooter", "fusion_lon": 0.0, "lon": -76.97783933333334, "is_disabled": 0, "lat": 38.90568616666667, "fusion_lat": 0.0, "is_reserved": 0, "rental_uris": {"android": "https://dc.lft.to/lastmile_qr_scan", "ios": "https://dc.lft.to/lastmile_qr_scan"}, "bike_id": "9eb438e095bd75adef97e7ae748bdfed"}, {"name": "d87a26d6dabfe098eb3c56c56f98c565", "type": "electric_scooter", "fusion_lon": 0.0, "lon": -77.022539, "is_disabled": 0, "lat": 38.9268325, "fusion_lat": 0.0, "is_reserved": 0, "rental_uris": {"android": "https://dc.lft.to/lastmile_qr_scan", "ios": "https://dc.lft.to/lastmile_qr_scan"}, "bike_id": "d87a26d6dabfe098eb3c56c56f98c565"}, {"name": "9bf0a0546afc6199056e0d2c4366cd4c", "type": "electric_scooter", "fusion_lon": 0.0, "lon": -77.00061966666667, "is_disabled": 0, "lat": 38.876894166666666, "fusion_lat": 0.0, "is_reserved": 0, "rental_uris": {"android": "https://dc.lft.to/lastmile_qr_scan", "ios": "https://dc.lft.to/lastmile_qr_scan"}, "bike_id": "9bf0a0546afc6199056e0d2c4366cd4c"}, {"name": "a04b94e0e373e7463d80e2b96c66d833", "type": "electric_scooter", "fusion_lon": 0.0, "lon": -77.028816, "is_disabled": 0, "lat": 38.957262, "fusion_lat": 0.0, "is_reserved": 0, "rental_uris": {"android": "https://dc.lft.to/lastmile_qr_scan", "ios": "https://dc.lft.to/lastmile_qr_scan"}, "bike_id": "a04b94e0e373e7463d80e2b96c66d833"}, {"name": "2d409e65e9d56237d5b5092b00309f63", "type": "electric_scooter", "fusion_lon": 0.0, "lon": -77.04351366666667, "is_disabled": 0, "lat": 38.90508033333333, "fusion_lat": 0.0, "is_reserved": 0, "rental_uris": {"android": "https://dc.lft.to/lastmile_qr_scan", "ios": "https://dc.lft.to/lastmile_qr_scan"}, "bike_id": "2d409e65e9d56237d5b5092b00309f63"}, {"name": "413f2783b5794691f6e756b428813d6d", "type": "electric_scooter", "fusion_lon": 0.0, "lon": -77.04227866666666, "is_disabled": 0, "lat": 38.921836666666664, "fusion_lat": 0.0, "is_reserved": 0, "rental_uris": {"android": "https://dc.lft.to/lastmile_qr_scan", "ios": "https://dc.lft.to/lastmile_qr_scan"}, "bike_id": "413f2783b5794691f6e756b428813d6d"}, {"name": "9e7006d962879364d8067e26bb83e2e8", "type": "electric_scooter", "fusion_lon": 0.0, "lon": -77.04282133333334, "is_disabled": 0, "lat": 38.90557116666667, "fusion_lat": 0.0, "is_reserved": 0, "rental_uris": {"android": "https://dc.lft.to/lastmile_qr_scan", "ios": "https://dc.lft.to/lastmile_qr_scan"}, "bike_id": "9e7006d962879364d8067e26bb83e2e8"}, {"name": "e9e6532827a42f0279de53a74575b93b", "type": "electric_scooter", "fusion_lon": 0.0, "lon": -77.03662933333334, "is_disabled": 0, "lat": 38.9211895, "fusion_lat": 0.0, "is_reserved": 0, "rental_uris": {"android": "https://dc.lft.to/lastmile_qr_scan", "ios": "https://dc.lft.to/lastmile_qr_scan"}, "bike_id": "e9e6532827a42f0279de53a74575b93b"}, {"name": "2758184759f3a67288fb298ce71d9c00", "type": "electric_scooter", "fusion_lon": 0.0, "lon": -77.02529733333333, "is_disabled": 0, "lat": 38.906486666666666, "fusion_lat": 0.0, "is_reserved": 0, "rental_uris": {"android": "https://dc.lft.to/lastmile_qr_scan", "ios": "https://dc.lft.to/lastmile_qr_scan"}, "bike_id": "2758184759f3a67288fb298ce71d9c00"}, {"name": "a44383b54ab2f3b1421e07e7cbc256b8", "type": "electric_scooter", "fusion_lon": 0.0, "lon": -76.94156266666667, "is_disabled": 0, "lat": 38.883629666666664, "fusion_lat": 0.0, "is_reserved": 0, "rental_uris": {"android": "https://dc.lft.to/lastmile_qr_scan", "ios": "https://dc.lft.to/lastmile_qr_scan"}, "bike_id": "a44383b54ab2f3b1421e07e7cbc256b8"}, {"name": "943ca55408b074581c6adb0986589e33", "type": "electric_scooter", "fusion_lon": 0.0, "lon": -77.01898216666666, "is_disabled": 0, "lat": 38.905212, "fusion_lat": 0.0, "is_reserved": 0, "rental_uris": {"android": "https://dc.lft.to/lastmile_qr_scan", "ios": "https://dc.lft.to/lastmile_qr_scan"}, "bike_id": "943ca55408b074581c6adb0986589e33"}, {"name": "0ab91093f36e922e958e155acfb17077", "type": "electric_scooter", "fusion_lon": 0.0, "lon": -77.0186015, "is_disabled": 0, "lat": 38.91493716666667, "fusion_lat": 0.0, "is_reserved": 0, "rental_uris": {"android": "https://dc.lft.to/lastmile_qr_scan", "ios": "https://dc.lft.to/lastmile_qr_scan"}, "bike_id": "0ab91093f36e922e958e155acfb17077"}, {"name": "d5b2ed21b8260e664e2d072bed1313d9", "type": "electric_scooter", "fusion_lon": 0.0, "lon": -77.02489333333334, "is_disabled": 0, "lat": 38.941855333333336, "fusion_lat": 0.0, "is_reserved": 0, "rental_uris": {"android": "https://dc.lft.to/lastmile_qr_scan", "ios": "https://dc.lft.to/lastmile_qr_scan"}, "bike_id": "d5b2ed21b8260e664e2d072bed1313d9"}, {"name": "eb0a887f0be24cd88c9f71b03415a394", "type": "electric_scooter", "fusion_lon": 0.0, "lon": -77.03353966666667, "is_disabled": 0, "lat": 38.9287515, "fusion_lat": 0.0, "is_reserved": 0, "rental_uris": {"android": "https://dc.lft.to/lastmile_qr_scan", "ios": "https://dc.lft.to/lastmile_qr_scan"}, "bike_id": "eb0a887f0be24cd88c9f71b03415a394"}, {"name": "a18ed6c95a98b479b148d5e755950921", "type": "electric_scooter", "fusion_lon": 0.0, "lon": -77.001168, "is_disabled": 0, "lat": 38.900085833333335, "fusion_lat": 0.0, "is_reserved": 0, "rental_uris": {"android": "https://dc.lft.to/lastmile_qr_scan", "ios": "https://dc.lft.to/lastmile_qr_scan"}, "bike_id": "a18ed6c95a98b479b148d5e755950921"}, {"name": "ecf7bb7fac178e4e069d25ac5a096493", "type": "electric_scooter", "fusion_lon": 0.0, "lon": -76.95075216666666, "is_disabled": 0, "lat": 38.90519183333333, "fusion_lat": 0.0, "is_reserved": 0, "rental_uris": {"android": "https://dc.lft.to/lastmile_qr_scan", "ios": "https://dc.lft.to/lastmile_qr_scan"}, "bike_id": "ecf7bb7fac178e4e069d25ac5a096493"}, {"name": "32543c5c875333cbb6e26516a36b6931", "type": "electric_bike", "fusion_lon": 0.0, "lon": -77.05013, "is_disabled": 0, "lat": 38.81710616666667, "fusion_lat": 0.0, "is_reserved": 0, "rental_uris": {"android": "https://dc.lft.to/lastmile_qr_scan", "ios": "https://dc.lft.to/lastmile_qr_scan"}, "bike_id": "32543c5c875333cbb6e26516a36b6931"}, {"name": "7529fbc323ff0a9f1d0afed18c4722b7", "type": "electric_scooter", "fusion_lon": 0.0, "lon": -76.9754035, "is_disabled": 0, "lat": 38.903251, "fusion_lat": 0.0, "is_reserved": 0, "rental_uris": {"android": "https://dc.lft.to/lastmile_qr_scan", "ios": "https://dc.lft.to/lastmile_qr_scan"}, "bike_id": "7529fbc323ff0a9f1d0afed18c4722b7"}, {"name": "a42111e803d58b27c9bfea3935ccd7bd", "type": "electric_scooter", "fusion_lon": 0.0, "lon": -77.02747166666667, "is_disabled": 0, "lat": 38.927679166666664, "fusion_lat": 0.0, "is_reserved": 0, "rental_uris": {"android": "https://dc.lft.to/lastmile_qr_scan", "ios": "https://dc.lft.to/lastmile_qr_scan"}, "bike_id": "a42111e803d58b27c9bfea3935ccd7bd"}, {"name": "b1d17ed9bf87a8244173ed6ffaa5b41c", "type": "electric_scooter", "fusion_lon": 0.0, "lon": -77.01411433333334, "is_disabled": 0, "lat": 38.9281515, "fusion_lat": 0.0, "is_reserved": 0, "rental_uris": {"android": "https://dc.lft.to/lastmile_qr_scan", "ios": "https://dc.lft.to/lastmile_qr_scan"}, "bike_id": "b1d17ed9bf87a8244173ed6ffaa5b41c"}, {"name": "f7ed9315af278b4efbb055677e7134c7", "type": "electric_bike", "fusion_lon": 0.0, "lon": -76.99035133333334, "is_disabled": 0, "lat": 38.9388205, "fusion_lat": 0.0, "is_reserved": 0, "rental_uris": {"android": "https://dc.lft.to/lastmile_qr_scan", "ios": "https://dc.lft.to/lastmile_qr_scan"}, "bike_id": "f7ed9315af278b4efbb055677e7134c7"}, {"name": "f9d365dedb53b6108143e48738760a05", "type": "electric_scooter", "fusion_lon": 0.0, "lon": -77.03183233333333, "is_disabled": 0, "lat": 38.89844766666667, "fusion_lat": 0.0, "is_reserved": 0, "rental_uris": {"android": "https://dc.lft.to/lastmile_qr_scan", "ios": "https://dc.lft.to/lastmile_qr_scan"}, "bike_id": "f9d365dedb53b6108143e48738760a05"}, {"name": "b4896c2b4398a5aac2c19d0f9c75d10b", "type": "electric_scooter", "fusion_lon": 0.0, "lon": -77.011425, "is_disabled": 0, "lat": 38.90018366666666, "fusion_lat": 0.0, "is_reserved": 0, "rental_uris": {"android": "https://dc.lft.to/lastmile_qr_scan", "ios": "https://dc.lft.to/lastmile_qr_scan"}, "bike_id": "b4896c2b4398a5aac2c19d0f9c75d10b"}, {"name": "11a1bee1e18a059bda9182b3b56cc1fc", "type": "electric_bike", "fusion_lon": 0.0, "lon": -77.133055, "is_disabled": 0, "lat": 38.887196833333334, "fusion_lat": 0.0, "is_reserved": 0, "rental_uris": {"android": "https://dc.lft.to/lastmile_qr_scan", "ios": "https://dc.lft.to/lastmile_qr_scan"}, "bike_id": "11a1bee1e18a059bda9182b3b56cc1fc"}, {"name": "2af82d5cbfa32564214f1ca7edafb71c", "type": "electric_scooter", "fusion_lon": 0.0, "lon": -77.00066083333333, "is_disabled": 0, "lat": 38.90846233333333, "fusion_lat": 0.0, "is_reserved": 0, "rental_uris": {"android": "https://dc.lft.to/lastmile_qr_scan", "ios": "https://dc.lft.to/lastmile_qr_scan"}, "bike_id": "2af82d5cbfa32564214f1ca7edafb71c"}, {"name": "2a7bd63b17017a8a6844e3acb39d7db8", "type": "electric_scooter", "fusion_lon": 0.0, "lon": -77.06822383333333, "is_disabled": 0, "lat": 38.918051166666665, "fusion_lat": 0.0, "is_reserved": 0, "rental_uris": {"android": "https://dc.lft.to/lastmile_qr_scan", "ios": "https://dc.lft.to/lastmile_qr_scan"}, "bike_id": "2a7bd63b17017a8a6844e3acb39d7db8"}, {"name": "275cf21c42fa6f7f5f044fb50e464eb6", "type": "electric_scooter", "fusion_lon": 0.0, "lon": -77.05526833333333, "is_disabled": 0, "lat": 38.897287666666664, "fusion_lat": 0.0, "is_reserved": 0, "rental_uris": {"android": "https://dc.lft.to/lastmile_qr_scan", "ios": "https://dc.lft.to/lastmile_qr_scan"}, "bike_id": "275cf21c42fa6f7f5f044fb50e464eb6"}, {"name": "9049cbd847b2ff1b8357387dab4b5cd4", "type": "electric_scooter", "fusion_lon": 0.0, "lon": -77.0315605, "is_disabled": 0, "lat": 38.9156485, "fusion_lat": 0.0, "is_reserved": 0, "rental_uris": {"android": "https://dc.lft.to/lastmile_qr_scan", "ios": "https://dc.lft.to/lastmile_qr_scan"}, "bike_id": "9049cbd847b2ff1b8357387dab4b5cd4"}, {"name": "0a5f35a71a027e8c13a643125ea212b9", "type": "electric_scooter", "fusion_lon": 0.0, "lon": -77.0551495, "is_disabled": 0, "lat": 38.92840916666667, "fusion_lat": 0.0, "is_reserved": 0, "rental_uris": {"android": "https://dc.lft.to/lastmile_qr_scan", "ios": "https://dc.lft.to/lastmile_qr_scan"}, "bike_id": "0a5f35a71a027e8c13a643125ea212b9"}, {"name": "dcd70b0f2e964044f5236f7e1f829662", "type": "electric_scooter", "fusion_lon": 0.0, "lon": -76.94626966666667, "is_disabled": 0, "lat": 38.8986695, "fusion_lat": 0.0, "is_reserved": 0, "rental_uris": {"android": "https://dc.lft.to/lastmile_qr_scan", "ios": "https://dc.lft.to/lastmile_qr_scan"}, "bike_id": "dcd70b0f2e964044f5236f7e1f829662"}, {"name": "ab60692051e39364b6196103052f881a", "type": "electric_scooter", "fusion_lon": 0.0, "lon": -77.03850733333333, "is_disabled": 0, "lat": 38.902781166666664, "fusion_lat": 0.0, "is_reserved": 0, "rental_uris": {"android": "https://dc.lft.to/lastmile_qr_scan", "ios": "https://dc.lft.to/lastmile_qr_scan"}, "bike_id": "ab60692051e39364b6196103052f881a"}, {"name": "d94d3151887f895c9626701ca60e96ee", "type": "electric_scooter", "fusion_lon": 0.0, "lon": -77.037853, "is_disabled": 0, "lat": 38.925656833333335, "fusion_lat": 0.0, "is_reserved": 0, "rental_uris": {"android": "https://dc.lft.to/lastmile_qr_scan", "ios": "https://dc.lft.to/lastmile_qr_scan"}, "bike_id": "d94d3151887f895c9626701ca60e96ee"}, {"name": "9a70473b2a72ee9fa1e322059aba5c3a", "type": "electric_bike", "fusion_lon": 0.0, "lon": -77.0647585, "is_disabled": 0, "lat": 38.9738465, "fusion_lat": 0.0, "is_reserved": 0, "rental_uris": {"android": "https://dc.lft.to/lastmile_qr_scan", "ios": "https://dc.lft.to/lastmile_qr_scan"}, "bike_id": "9a70473b2a72ee9fa1e322059aba5c3a"}, {"name": "2085e429d2fc089d6ee836c97d1235cd", "type": "electric_scooter", "fusion_lon": 0.0, "lon": -77.040264, "is_disabled": 0, "lat": 38.902496666666664, "fusion_lat": 0.0, "is_reserved": 0, "rental_uris": {"android": "https://dc.lft.to/lastmile_qr_scan", "ios": "https://dc.lft.to/lastmile_qr_scan"}, "bike_id": "2085e429d2fc089d6ee836c97d1235cd"}, {"name": "29e825f23532be86ec7bebdfb4b8fbc3", "type": "electric_scooter", "fusion_lon": 0.0, "lon": -76.99013583333333, "is_disabled": 0, "lat": 38.8827155, "fusion_lat": 0.0, "is_reserved": 0, "rental_uris": {"android": "https://dc.lft.to/lastmile_qr_scan", "ios": "https://dc.lft.to/lastmile_qr_scan"}, "bike_id": "29e825f23532be86ec7bebdfb4b8fbc3"}, {"name": "9481bf1992ab682e8752f63434dcc107", "type": "electric_scooter", "fusion_lon": 0.0, "lon": -77.04342883333334, "is_disabled": 0, "lat": 38.923528833333336, "fusion_lat": 0.0, "is_reserved": 0, "rental_uris": {"android": "https://dc.lft.to/lastmile_qr_scan", "ios": "https://dc.lft.to/lastmile_qr_scan"}, "bike_id": "9481bf1992ab682e8752f63434dcc107"},