{"data": {"bikes": [{"rental_uris": {"ios": "https://dc.lft.to/lastmile_qr_scan", "android": "https://dc.lft.to/lastmile_qr_scan"}, "fusion_lat": 0.0, "name": "5bee1288b8a16b35a34f9531fd926073", "bike_id": "5bee1288b8a16b35a34f9531fd926073", "is_disabled": 0, "type": "electric_scooter", "lat": 38.930445166666665, "lon": -77.01994816666667, "is_reserved": 0, "fusion_lon": 0.0}, {"rental_uris": {"ios": "https://dc.lft.to/lastmile_qr_scan", "android": "https://dc.lft.to/lastmile_qr_scan"}, "fusion_lat": 0.0, "name": "5b60a6ad200a01122563bce477105672", "bike_id": "5b60a6ad200a01122563bce477105672", "is_disabled": 0, "type": "electric_bike", "lat": 38.850258333333336, "lon": -77.0980795, "is_reserved": 0, "fusion_lon": 0.0}, {"rental_uris": {"ios": "https://dc.lft.to/lastmile_qr_scan", "android": "https://dc.lft.to/lastmile_qr_scan"}, "fusion_lat": 0.0, "name": "fd766cc313e9e2812194424ccdf5dbbb", "bike_id": "fd766cc313e9e2812194424ccdf5dbbb", "is_disabled": 0, "type": "electric_bike", "lat": 38.85791616666667, "lon": -77.09961066666666, "is_reserved": 0, "fusion_lon": 0.0}, {"rental_uris": {"ios": "https://dc.lft.to/lastmile_qr_scan", "android": "https://dc.lft.to/lastmile_qr_scan"}, "fusion_lat": 0.0, "name": "1d8018e87d5dba010f72ce0b1b2e4fdb", "bike_id": "1d8018e87d5dba010f72ce0b1b2e4fdb", "is_disabled": 0, "type": "electric_scooter", "lat": 38.945196333333335, "lon": -76.979458, "is_reserved": 0, "fusion_lon": 0.0}, {"rental_uris": {"ios": "https://dc.lft.to/lastmile_qr_scan", "android": "https://dc.lft.to/lastmile_qr_scan"}, "fusion_lat": 0.0, "name": "005a6a7875a44af10632c89d4141333b", "bike_id": "005a6a7875a44af10632c89d4141333b", "is_disabled": 0, "type": "electric_scooter", "lat": 38.91861166666666, "lon": -77.04036283333333, "is_reserved": 0, "fusion_lon": 0.0}, {"rental_uris": {"ios": "https://dc.lft.to/lastmile_qr_scan", "android": "https://dc.lft.to/lastmile_qr_scan"}, "fusion_lat": 0.0, "name": "43aa4ddd17bf360a5250515b0ea5d4c2", "bike_id": "43aa4ddd17bf360a5250515b0ea5d4c2", "is_disabled": 0, "type": "electric_scooter", "lat": 38.892193, "lon": -77.0222345, "is_reserved": 0, "fusion_lon": 0.0}, {"rental_uris": {"ios": "https://dc.lft.to/lastmile_qr_scan", "android": "https://dc.lft.to/lastmile_qr_scan"}, "fusion_lat": 0.0, "name": "279e764effc097416f7b30885a754edd", "bike_id": "279e764effc097416f7b30885a754edd", "is_disabled": 0, "type": "electric_scooter", "lat": 38.92273383333333, "lon": -77.03546766666666, "is_reserved": 0, "fusion_lon": 0.0}, {"rental_uris": {"ios": "https://dc.lft.to/lastmile_qr_scan", "android": "https://dc.lft.to/lastmile_qr_scan"}, "fusion_lat": 0.0, "name": "92d49b06c3333bfb005370d4185c0382", "bike_id": "92d49b06c3333bfb005370d4185c0382", "is_disabled": 0, "type": "electric_scooter", "lat": 38.90969533333333, "lon": -77.02480333333334, "is_reserved": 0, "fusion_lon": 0.0}, {"rental_uris": {"ios": "https://dc.lft.to/lastmile_qr_scan", "android": "https://dc.lft.to/lastmile_qr_scan"}, "fusion_lat": 0.0, "name": "bb0574a1f4da40616d0b4af94b7d56ef", "bike_id": "bb0574a1f4da40616d0b4af94b7d56ef", "is_disabled": 0, "type": "electric_scooter", "lat": 38.901506166666664, "lon": -77.041644, "is_reserved": 0, "fusion_lon": 0.0}, {"rental_uris": {"ios": "https://dc.lft.to/lastmile_qr_scan", "android": "https://dc.lft.to/lastmile_qr_scan"}, "fusion_lat": 0.0, "name": "03c904d6f312f30120bc8fe30aefc808", "bike_id": "03c904d6f312f30120bc8fe30aefc808", "is_disabled": 0, "type": "electric_scooter", "lat": 38.915618333333335, "lon": -77.022123, "is_reserved": 0, "fusion_lon": 0.0}, {"rental_uris": {"ios": "https://dc.lft.to/lastmile_qr_scan", "android": "https://dc.lft.to/lastmile_qr_scan"}, "fusion_lat": 0.0, "name": "3fcc7831309c9d52dcf325df41a4b5cf", "bike_id": "3fcc7831309c9d52dcf325df41a4b5cf", "is_disabled": 0, "type": "electric_bike", "lat": 38.964372, "lon": -77.02072133333333, "is_reserved": 0, "fusion_lon": 0.0}, {"rental_uris": {"ios": "https://dc.lft.to/lastmile_qr_scan", "android": "https://dc.lft.to/lastmile_qr_scan"}, "fusion_lat": 0.0, "name": "da88b77e04beb6a08ed1908766c59993", "bike_id": "da88b77e04beb6a08ed1908766c59993", "is_disabled": 0, "type": "electric_scooter", "lat": 38.93486766666667, "lon": -77.072798, "is_reserved": 0, "fusion_lon": 0.0}, {"rental_uris": {"ios": "https://dc.lft.to/lastmile_qr_scan", "android": "https://dc.lft.to/lastmile_qr_scan"}, "fusion_lat": 0.0, "name": "1c962f29811fdb139fecc9d6e9640f61", "bike_id": "1c962f29811fdb139fecc9d6e9640f61", "is_disabled": 0, "type": "electric_scooter", "lat": 38.89219633333333, "lon": -77.02220216666667, "is_reserved": 0, "fusion_lon": 0.0}, {"rental_uris": {"ios": "https://dc.lft.to/lastmile_qr_scan", "android": "https://dc.lft.to/lastmile_qr_scan"}, "fusion_lat": 0.0, "name": "03fd6297694b24394e428bc494aff426", "bike_id": "03fd6297694b24394e428bc494aff426", "is_disabled": 0, "type": "electric_bike", "lat": 38.924091833333335, "lon": -77.05040866666667, "is_reserved": 0, "fusion_lon": 0.0}, {"rental_uris": {"ios": "https://dc.lft.to/lastmile_qr_scan", "android": "https://dc.lft.to/lastmile_qr_scan"}, "fusion_lat": 0.0, "name": "b05ba68a33d3ff7138e0a11c3092e094", "bike_id": "b05ba68a33d3ff7138e0a11c3092e094", "is_disabled": 0, "type": "electric_scooter", "lat": 38.898753, "lon": -77.03935316666667, "is_reserved": 0, "fusion_lon": 0.0}, {"rental_uris": {"ios": "https://dc.lft.to/lastmile_qr_scan", "android": "https://dc.lft.to/lastmile_qr_scan"}, "fusion_lat": 0.0, "name": "2fc4eb7392ef34132770f46f6bf5a351", "bike_id": "2fc4eb7392ef34132770f46f6bf5a351", "is_disabled": 0, "type": "electric_scooter", "lat": 38.933006, "lon": -77.02465083333334, "is_reserved": 0, "fusion_lon": 0.0}, {"rental_uris": {"ios": "https://dc.lft.to/lastmile_qr_scan", "android": "https://dc.lft.to/lastmile_qr_scan"}, "fusion_lat": 0.0, "name": "022a4559b071e23c8267597dd2190a90", "bike_id": "022a4559b071e23c8267597dd2190a90", "is_disabled": 0, "type": "electric_scooter", "lat": 38.920449, "lon": -77.02574933333334, "is_reserved": 0, "fusion_lon": 0.0}, {"rental_uris": {"ios": "https://dc.lft.to/lastmile_qr_scan", "android": "https://dc.lft.to/lastmile_qr_scan"}, "fusion_lat": 0.0, "name": "f64188bc4482427cb5e7dc5e3937bd72", "bike_id": "f64188bc4482427cb5e7dc5e3937bd72", "is_disabled": 0, "type": "electric_scooter", "lat": 38.926210833333336, "lon": -77.03947583333333, "is_reserved": 0, "fusion_lon": 0.0}, {"rental_uris": {"ios": "https://dc.lft.to/lastmile_qr_scan", "android": "https://dc.lft.to/lastmile_qr_scan"}, "fusion_lat": 0.0, "name": "97ff3522140609bb655b79971ed18fcf", "bike_id": "97ff3522140609bb655b79971ed18fcf", "is_disabled": 0, "type": "electric_scooter", "lat": 38.950731166666664, "lon": -77.03102716666666, "is_reserved": 0, "fusion_lon": 0.0}, {"rental_uris": {"ios": "https://dc.lft.to/lastmile_qr_scan", "android": "https://dc.lft.to/lastmile_qr_scan"}, "fusion_lat": 0.0, "name": "4772c89196fe525c52ca0d5ac91a8e4d", "bike_id": "4772c89196fe525c52ca0d5ac91a8e4d", "is_disabled": 0, "type": "electric_scooter", "lat": 38.892919666666664, "lon": -76.94234583333333, "is_reserved": 0, "fusion_lon": 0.0}, {"rental_uris": {"ios": "https://dc.lft.to/lastmile_qr_scan", "android": "https://dc.lft.to/lastmile_qr_scan"}, "fusion_lat": 0.0, "name": "6c6913a79e41d3baff75971f74b1cf94", "bike_id": "6c6913a79e41d3baff75971f74b1cf94", "is_disabled": 0, "type": "electric_bike", "lat": 38.84279983333333, "lon": -77.04515883333333, "is_reserved": 0, "fusion_lon": 0.0}, {"rental_uris": {"ios": "https://dc.lft.to/lastmile_qr_scan", "android": "https://dc.lft.to/lastmile_qr_scan"}, "fusion_lat": 0.0, "name": "1f916d5b1799aebc86ebcc09d3602b73", "bike_id": "1f916d5b1799aebc86ebcc09d3602b73", "is_disabled": 0, "type": "electric_scooter", "lat": 38.925899666666666, "lon": -77.0214005, "is_reserved": 0, "fusion_lon": 0.0}, {"rental_uris": {"ios": "https://dc.lft.to/lastmile_qr_scan", "android": "https://dc.lft.to/lastmile_qr_scan"}, "fusion_lat": 0.0, "name": "231e0b7a7369720f52b6dd2b98021fff", "bike_id": "231e0b7a7369720f52b6dd2b98021fff", "is_disabled": 0, "type": "electric_scooter", "lat": 38.90269133333334, "lon": -77.01697383333334, "is_reserved": 0, "fusion_lon": 0.0}, {"rental_uris": {"ios": "https://dc.lft.to/lastmile_qr_scan", "android": "https://dc.lft.to/lastmile_qr_scan"}, "fusion_lat": 0.0, "name": "fa1ab66c7696364193ba49c76d1d1978", "bike_id": "fa1ab66c7696364193ba49c76d1d1978", "is_disabled": 0, "type": "electric_scooter", "lat": 38.9056415, "lon": -77.03458066666667, "is_reserved": 0, "fusion_lon": 0.0}, {"rental_uris": {"ios": "https://dc.lft.to/lastmile_qr_scan", "android": "https://dc.lft.to/lastmile_qr_scan"}, "fusion_lat": 0.0, "name": "f1c158ec37b925e63045ceec10357adb", "bike_id": "f1c158ec37b925e63045ceec10357adb", "is_disabled": 0, "type": "electric_scooter", "lat": 38.9001925, "lon": -77.0403185, "is_reserved": 0, "fusion_lon": 0.0}, {"rental_uris": {"ios": "https://dc.lft.to/lastmile_qr_scan", "android": "https://dc.lft.to/lastmile_qr_scan"}, "fusion_lat": 0.0, "name": "eff0f7c0bbff19d11e53a3a6dda24d75", "bike_id": "eff0f7c0bbff19d11e53a3a6dda24d75", "is_disabled": 0, "type": "electric_scooter", "lat": 38.87670816666667, "lon": -77.0179945, "is_reserved": 0, "fusion_lon": 0.0}, {"rental_uris": {"ios": "https://dc.lft.to/lastmile_qr_scan", "android": "https://dc.lft.to/lastmile_qr_scan"}, "fusion_lat": 0.0, "name": "805b8076acbc6c991d50a78500c754e9", "bike_id": "805b8076acbc6c991d50a78500c754e9", "is_disabled": 0, "type": "electric_scooter", "lat": 38.91851316666666, "lon": -77.040364, "is_reserved": 0, "fusion_lon": 0.0}, {"rental_uris": {"ios": "https://dc.lft.to/lastmile_qr_scan", "android": "https://dc.lft.to/lastmile_qr_scan"}, "fusion_lat": 0.0, "name": "aebd5ebdaa5483431821b5de378e8170", "bike_id": "aebd5ebdaa5483431821b5de378e8170", "is_disabled": 0, "type": "electric_scooter", "lat": 38.93967383333333, "lon": -77.03253166666667, "is_reserved": 0, "fusion_lon": 0.0}, {"rental_uris": {"ios": "https://dc.lft.to/lastmile_qr_scan", "android": "https://dc.lft.to/lastmile_qr_scan"}, "fusion_lat": 0.0, "name": "823af027a1b582711c017104430e4953", "bike_id": "823af027a1b582711c017104430e4953", "is_disabled": 0, "type": "electric_scooter", "lat": 38.916581, "lon": -77.02187033333334, "is_reserved": 0, "fusion_lon": 0.0}, {"rental_uris": {"ios": "https://dc.lft.to/lastmile_qr_scan", "android": "https://dc.lft.to/lastmile_qr_scan"}, "fusion_lat": 0.0, "name": "4d36b351652ed3e8e509862c053f79fb", "bike_id": "4d36b351652ed3e8e509862c053f79fb", "is_disabled": 0, "type": "electric_scooter", "lat": 38.90034266666667, "lon": -77.00197583333333, "is_reserved": 0, "fusion_lon": 0.0}, {"rental_uris": {"ios": "https://dc.lft.to/lastmile_qr_scan", "android": "https://dc.lft.to/lastmile_qr_scan"}, "fusion_lat": 0.0, "name": "133a18392df818537ecd57011f03928c", "bike_id": "133a18392df818537ecd57011f03928c", "is_disabled": 0, "type": "electric_scooter", "lat": 38.92649516666667, "lon": -77.02442566666667, "is_reserved": 0, "fusion_lon": 0.0}, {"rental_uris": {"ios": "https://dc.lft.to/lastmile_qr_scan", "android": "https://dc.lft.to/lastmile_qr_scan"}, "fusion_lat": 0.0, "name": "a74d633d42deedbbd016c4becd5fdd5a", "bike_id": "a74d633d42deedbbd016c4becd5fdd5a", "is_disabled": 0, "type": "electric_bike", "lat": 38.906229333333336, "lon": -77.02408483333333, "is_reserved": 0, "fusion_lon": 0.0}, {"rental_uris": {"ios": "https://dc.lft.to/lastmile_qr_scan", "android": "https://dc.lft.to/lastmile_qr_scan"}, "fusion_lat": 0.0, "name": "c20bd5b8a3830968de50a7c761f55860", "bike_id": "c20bd5b8a3830968de50a7c761f55860", "is_disabled": 0, "type": "electric_scooter", "lat": 38.8610855, "lon": -76.9837385, "is_reserved": 0, "fusion_lon": 0.0}, {"rental_uris": {"ios": "https://dc.lft.to/lastmile_qr_scan", "android": "https://dc.lft.to/lastmile_qr_scan"}, "fusion_lat": 0.0, "name": "3374858a1097a608b711fde6899cbb98", "bike_id": "3374858a1097a608b711fde6899cbb98", "is_disabled": 0, "type": "electric_scooter", "lat": 38.90441033333333, "lon": -77.0611115, "is_reserved": 0, "fusion_lon": 0.0}, {"rental_uris": {"ios": "https://dc.lft.to/lastmile_qr_scan", "android": "https://dc.lft.to/lastmile_qr_scan"}, "fusion_lat": 0.0, "name": "aa7d8379f9b713098616fcebd83641e1", "bike_id": "aa7d8379f9b713098616fcebd83641e1", "is_disabled": 0, "type": "electric_scooter", "lat": 38.90984483333333, "lon": -77.03176816666667, "is_reserved": 0, "fusion_lon": 0.0}, {"rental_uris": {"ios": "https://dc.lft.to/lastmile_qr_scan", "android": "https://dc.lft.to/lastmile_qr_scan"}, "fusion_lat": 0.0, "name": "4465a14b6746d7a8477cc20d7f21c9d2", "bike_id": "4465a14b6746d7a8477cc20d7f21c9d2", "is_disabled": 0, "type": "electric_scooter", "lat": 38.915531666666666, "lon": -77.02208916666666, "is_reserved": 0, "fusion_lon": 0.0}, {"rental_uris": {"ios": "https://dc.lft.to/lastmile_qr_scan", "android": "https://dc.lft.to/lastmile_qr_scan"}, "fusion_lat": 0.0, "name": "2a9a511b5255176041707f55e57be5dd", "bike_id": "2a9a511b5255176041707f55e57be5dd", "is_disabled": 0, "type": "electric_scooter", "lat": 38.876942, "lon": -77.01751416666667, "is_reserved": 0, "fusion_lon": 0.0}, {"rental_uris": {"ios": "https://dc.lft.to/lastmile_qr_scan", "android": "https://dc.lft.to/lastmile_qr_scan"}, "fusion_lat": 0.0, "name": "956fafff864e2c22332f79760f3c23a5", "bike_id": "956fafff864e2c22332f79760f3c23a5", "is_disabled": 0, "type": "electric_scooter", "lat": 38.88745333333333, "lon": -77.02210133333334, "is_reserved": 0, "fusion_lon": 0.0}, {"rental_uris": {"ios": "https://dc.lft.to/lastmile_qr_scan", "android": "https://dc.lft.to/lastmile_qr_scan"}, "fusion_lat": 0.0, "name": "5e6ec44ce6a7a39adbc3bfc3b98b9137", "bike_id": "5e6ec44ce6a7a39adbc3bfc3b98b9137", "is_disabled": 0, "type": "electric_scooter", "lat": 38.899717, "lon": -77.0264695, "is_reserved": 0, "fusion_lon": 0.0}, {"rental_uris": {"ios": "https://dc.lft.to/lastmile_qr_scan", "android": "https://dc.lft.to/lastmile_qr_scan"}, "fusion_lat": 0.0, "name": "60d1f2ae38aae2e6d58a1110d69143b7", "bike_id": "60d1f2ae38aae2e6d58a1110d69143b7", "is_disabled": 0, "type": "electric_scooter", "lat": 38.947137833333336, "lon": -77.03292633333334, "is_reserved": 0, "fusion_lon": 0.0}, {"rental_uris": {"ios": "https://dc.lft.to/lastmile_qr_scan", "android": "https://dc.lft.to/lastmile_qr_scan"}, "fusion_lat": 0.0, "name": "ac72b5ea3f6f61b0d3491f4e910e4856", "bike_id": "ac72b5ea3f6f61b0d3491f4e910e4856", "is_disabled": 0, "type": "electric_scooter", "lat": 38.872517333333334, "lon": -77.00572366666667, "is_reserved": 0, "fusion_lon": 0.0}, {"rental_uris": {"ios": "https://dc.lft.to/lastmile_qr_scan", "android": "https://dc.lft.to/lastmile_qr_scan"}, "fusion_lat": 0.0, "name": "d892f6efbc85180917b23a836089dd8e", "bike_id": "d892f6efbc85180917b23a836089dd8e", "is_disabled": 0, "type": "electric_scooter", "lat": 38.92602083333333, "lon": -77.02153416666667, "is_reserved": 0, "fusion_lon": 0.0}, {"rental_uris": {"ios": "https://dc.lft.to/lastmile_qr_scan", "android": "https://dc.lft.to/lastmile_qr_scan"}, "fusion_lat": 0.0, "name": "4e93902bf32141ac0975cd7fffda2c12", "bike_id": "4e93902bf32141ac0975cd7fffda2c12", "is_disabled": 0, "type": "electric_scooter", "lat": 38.8928895, "lon": -77.0418565, "is_reserved": 0, "fusion_lon": 0.0}, {"rental_uris": {"ios": "https://dc.lft.to/lastmile_qr_scan", "android": "https://dc.lft.to/lastmile_qr_scan"}, "fusion_lat": 0.0, "name": "4ee9531824851e26adb7d7aa0e67af2a", "bike_id": "4ee9531824851e26adb7d7aa0e67af2a", "is_disabled": 0, "type": "electric_scooter", "lat": 38.89220266666667, "lon": -77.01375316666666, "is_reserved": 0, "fusion_lon": 0.0}, {"rental_uris": {"ios": "https://dc.lft.to/lastmile_qr_scan", "android": "https://dc.lft.to/lastmile_qr_scan"}, "fusion_lat": 0.0, "name": "e66a62e232fcd61baf9e734e1c6d4060", "bike_id": "e66a62e232fcd61baf9e734e1c6d4060", "is_disabled": 0, "type": "electric_scooter", "lat": 38.9135385, "lon": -77.0336345, "is_reserved": 0, "fusion_lon": 0.0}, {"rental_uris": {"ios": "https://dc.lft.to/lastmile_qr_scan", "android": "https://dc.lft.to/lastmile_qr_scan"}, "fusion_lat": 0.0, "name": "425f0d6592afdb2e318f540ca0dbc0ac", "bike_id": "425f0d6592afdb2e318f540ca0dbc0ac", "is_disabled": 0, "type": "electric_scooter", "lat": 38.92311316666667, "lon": -77.03512666666667, "is_reserved": 0, "fusion_lon": 0.0}, {"rental_uris": {"ios": "https://dc.lft.to/lastmile_qr_scan", "android": "https://dc.lft.to/lastmile_qr_scan"}, "fusion_lat": 0.0, "name": "20c8cdcc7b77fa7cc6a73924225bf5ec", "bike_id": "20c8cdcc7b77fa7cc6a73924225bf5ec", "is_disabled": 0, "type": "electric_scooter", "lat": 38.9029535, "lon": -77.06538283333333, "is_reserved": 0, "fusion_lon": 0.0}, {"rental_uris": {"ios": "https://dc.lft.to/lastmile_qr_scan", "android": "https://dc.lft.to/lastmile_qr_scan"}, "fusion_lat": 0.0, "name": "f7b2a4029df3146d04d7ba9b269f8fc9", "bike_id": "f7b2a4029df3146d04d7ba9b269f8fc9", "is_disabled": 0, "type": "electric_scooter", "lat": 38.9205795, "lon": -77.042858, "is_reserved": 0, "fusion_lon": 0.0}, {"rental_uris": {"ios": "https://dc.lft.to/lastmile_qr_scan", "android": "https://dc.lft.to/lastmile_qr_scan"}, "fusion_lat": 0.0, "name": "8bb7ce419715ba3c071144008166e2d4", "bike_id": "8bb7ce419715ba3c071144008166e2d4", "is_disabled": 0, "type": "electric_scooter", "lat": 38.94184333333333, "lon": -77.024885, "is_reserved": 0, "fusion_lon": 0.0}, {"rental_uris": {"ios": "https://dc.lft.to/lastmile_qr_scan", "android": "https://dc.lft.to/lastmile_qr_scan"}, "fusion_lat": 0.0, "name": "5dc47f1244598e39fec59bc6d34fdc27", "bike_id": "5dc47f1244598e39fec59bc6d34fdc27", "is_disabled": 0, "type": "electric_scooter", "lat": 38.95646033333333, "lon": -77.03285883333334, "is_reserved": 0, "fusion_lon": 0.0}, {"rental_uris": {"ios": "https://dc.lft.to/lastmile_qr_scan", "android": "https://dc.lft.to/lastmile_qr_scan"}, "fusion_lat": 0.0, "name": "46e712906e0b40d7b4547300b66282c6", "bike_id": "46e712906e0b40d7b4547300b66282c6", "is_disabled": 0, "type": "electric_scooter", "lat": 38.912650666666664, "lon": -77.04468366666667, "is_reserved": 0, "fusion_lon": 0.0}, {"rental_uris": {"ios": "https://dc.lft.to/lastmile_qr_scan", "android": "https://dc.lft.to/lastmile_qr_scan"}, "fusion_lat": 0.0, "name": "b8dff0c228e8702ae1c84561b9b5f924", "bike_id": "b8dff0c228e8702ae1c84561b9b5f924", "is_disabled": 0, "type": "electric_scooter", "lat": 38.9191365, "lon": -77.070563, "is_reserved": 0, "fusion_lon": 0.0}, {"rental_uris": {"ios": "https://dc.lft.to/lastmile_qr_scan", "android": "https://dc.lft.to/lastmile_qr_scan"}, "fusion_lat": 0.0, "name": "fe2303d0c20e37eacd417ce358bf407d", "bike_id": "fe2303d0c20e37eacd417ce358bf407d", "is_disabled": 0, "type": "electric_scooter", "lat": 38.922562, "lon": -77.03470133333333, "is_reserved": 0, "fusion_lon": 0.0}, {"rental_uris": {"ios": "https://dc.lft.to/lastmile_qr_scan", "android": "https://dc.lft.to/lastmile_qr_scan"}, "fusion_lat": 0.0, "name": "0275a1db55c87f190c195e5803c9f1f7", "bike_id": "0275a1db55c87f190c195e5803c9f1f7", "is_disabled": 0, "type": "electric_bike", "lat": 38.89907, "lon": -77.03927866666666, "is_reserved": 0, "fusion_lon": 0.0}, {"rental_uris": {"ios": "https://dc.lft.to/lastmile_qr_scan", "android": "https://dc.lft.to/lastmile_qr_scan"}, "fusion_lat": 0.0, "name": "b28017153ce16d5b4ae0aadf1f88469f", "bike_id": "b28017153ce16d5b4ae0aadf1f88469f", "is_disabled": 0, "type": "electric_scooter", "lat": 38.92354183333333, "lon": -77.05044883333333, "is_reserved": 0, "fusion_lon": 0.0}, {"rental_uris": {"ios": "https://dc.lft.to/lastmile_qr_scan", "android": "https://dc.lft.to/lastmile_qr_scan"}, "fusion_lat": 0.0, "name": "443c510692d8ae8c801a533a6579fafc", "bike_id": "443c510692d8ae8c801a533a6579fafc", "is_disabled": 0, "type": "electric_bike", "lat": 38.85789066666667, "lon": -77.09959883333333, "is_reserved": 0, "fusion_lon": 0.0}, {"rental_uris": {"ios": "https://dc.lft.to/lastmile_qr_scan", "android": "https://dc.lft.to/lastmile_qr_scan"}, "fusion_lat": 0.0, "name": "5dba411fcc16de8d28b472c7a5a315b2", "bike_id": "5dba411fcc16de8d28b472c7a5a315b2", "is_disabled": 0, "type": "electric_scooter", "lat": 38.90931633333334, "lon": -77.0551845, "is_reserved": 0, "fusion_lon": 0.0}, {"rental_uris": {"ios": "https://dc.lft.to/lastmile_qr_scan", "android": "https://dc.lft.to/lastmile_qr_scan"}, "fusion_lat": 0.0, "name": "125e9ba35643d024c9e80bb838702a02", "bike_id": "125e9ba35643d024c9e80bb838702a02", "is_disabled": 0, "type": "electric_scooter", "lat": 38.915940666666664, "lon": -77.0296655, "is_reserved": 0, "fusion_lon": 0.0}, {"rental_uris": {"ios": "https://dc.lft.to/lastmile_qr_scan", "android": "https://dc.lft.to/lastmile_qr_scan"}, "fusion_lat": 0.0, "name": "ee3c04545dcf80603c4efa9f2615f8be", "bike_id": "ee3c04545dcf80603c4efa9f2615f8be", "is_disabled": 0, "type": "electric_scooter", "lat": 38.909974166666665, "lon": -77.04005716666667, "is_reserved": 0, "fusion_lon": 0.0}, {"rental_uris": {"ios": "https://dc.lft.to/lastmile_qr_scan", "android": "https://dc.lft.to/lastmile_qr_scan"}, "fusion_lat": 0.0, "name": "ace438ad42d789f795deff5428a6ca46", "bike_id": "ace438ad42d789f795deff5428a6ca46", "is_disabled": 0, "type": "electric_scooter", "lat": 38.924442166666665, "lon": -77.04016416666667, "is_reserved": 0, "fusion_lon": 0.0}, {"rental_uris": {"ios": "https://dc.lft.to/lastmile_qr_scan", "android": "https://dc.lft.to/lastmile_qr_scan"}, "fusion_lat": 0.0, "name": "5e872f3319185b98e8a4a8c8c6b568e4", "bike_id": "5e872f3319185b98e8a4a8c8c6b568e4", "is_disabled": 0, "type": "electric_scooter", "lat": 38.90252666666667, "lon": -77.02741733333333, "is_reserved": 0, "fusion_lon": 0.0}, {"rental_uris": {"ios": "https://dc.lft.to/lastmile_qr_scan", "android": "https://dc.lft.to/lastmile_qr_scan"}, "fusion_lat": 0.0, "name": "2b6aa3d6992c05985ddfe59efdaa5c1e", "bike_id": "2b6aa3d6992c05985ddfe59efdaa5c1e", "is_disabled": 0, "type": "electric_bike", "lat": 38.86593166666667, "lon": -76.93227866666666, "is_reserved": 0, "fusion_lon": 0.0}, {"rental_uris": {"ios": "https://dc.lft.to/lastmile_qr_scan", "android": "https://dc.lft.to/lastmile_qr_scan"}, "fusion_lat": 0.0, "name": "1e7afcc7269f0bf596656849e21b7984", "bike_id": "1e7afcc7269f0bf596656849e21b7984", "is_disabled": 0, "type": "electric_bike", "lat": 38.9535215, "lon": -76.98091016666666, "is_reserved": 0, "fusion_lon": 0.0}, {"rental_uris": {"ios": "https://dc.lft.to/lastmile_qr_scan", "android": "https://dc.lft.to/lastmile_qr_scan"}, "fusion_lat": 0.0, "name": "667ba14a6f82712eac4536fe531dd13b", "bike_id": "667ba14a6f82712eac4536fe531dd13b", "is_disabled": 0, "type": "electric_scooter", "lat": 38.9072075, "lon": -77.023447, "is_reserved": 0, "fusion_lon": 0.0}, {"rental_uris": {"ios": "https://dc.lft.to/lastmile_qr_scan", "android": "https://dc.lft.to/lastmile_qr_scan"}, "fusion_lat": 0.0, "name": "7fc16609d2c6d65c6a85e28b07cc46d3", "bike_id": "7fc16609d2c6d65c6a85e28b07cc46d3", "is_disabled": 0, "type": "electric_scooter", "lat": 38.91707616666667, "lon": -77.03671766666666, "is_reserved": 0, "fusion_lon": 0.0}, {"rental_uris": {"ios": "https://dc.lft.to/lastmile_qr_scan", "android": "https://dc.lft.to/lastmile_qr_scan"}, "fusion_lat": 0.0, "name": "15ec44a74be3b694d92511cfb75f2d6e", "bike_id": "15ec44a74be3b694d92511cfb75f2d6e", "is_disabled": 0, "type": "electric_bike", "lat": 38.906106666666666, "lon": -77.06305833333333, "is_reserved": 0, "fusion_lon": 0.0}, {"rental_uris": {"ios": "https://dc.lft.to/lastmile_qr_scan", "android": "https://dc.lft.to/lastmile_qr_scan"}, "fusion_lat": 0.0, "name": "adf724dd0055fee8ace46b3bbe74831c", "bike_id": "adf724dd0055fee8ace46b3bbe74831c", "is_disabled": 0, "type": "electric_scooter", "lat": 38.915649333333334, "lon": -77.01199166666666, "is_reserved": 0, "fusion_lon": 0.0}, {"rental_uris": {"ios": "https://dc.lft.to/lastmile_qr_scan", "android": "https://dc.lft.to/lastmile_qr_scan"}, "fusion_lat": 0.0, "name": "bd2aea13bf9e9d051e49517707358f1a", "bike_id": "bd2aea13bf9e9d051e49517707358f1a", "is_disabled": 0, "type": "electric_scooter", "lat": 38.88738016666667, "lon": -77.0146425, "is_reserved": 0, "fusion_lon": 0.0}, {"rental_uris": {"ios": "https://dc.lft.to/lastmile_qr_scan", "android": "https://dc.lft.to/lastmile_qr_scan"}, "fusion_lat": 0.0, "name": "b60d6d6f704933dded163ee5b5c79b2c", "bike_id": "b60d6d6f704933dded163ee5b5c79b2c", "is_disabled": 0, "type": "electric_scooter", "lat": 38.86519583333333, "lon": -76.99034333333333, "is_reserved": 0, "fusion_lon": 0.0}, {"rental_uris": {"ios": "https://dc.lft.to/lastmile_qr_scan", "android": "https://dc.lft.to/lastmile_qr_scan"}, "fusion_lat": 0.0, "name": "b478f3827d2b026038266ac93e0e92ee", "bike_id": "b478f3827d2b026038266ac93e0e92ee", "is_disabled": 0, "type": "electric_scooter", "lat": 38.876301, "lon": -77.0146985, "is_reserved": 0, "fusion_lon": 0.0}, {"rental_uris": {"ios": "https://dc.lft.to/lastmile_qr_scan", "android": "https://dc.lft.to/lastmile_qr_scan"}, "fusion_lat": 0.0, "name": "ec09456352c5a8681a47e53a1d41d866", "bike_id": "ec09456352c5a8681a47e53a1d41d866", "is_disabled": 0, "type": "electric_scooter", "lat": 38.9181045, "lon": -77.041719, "is_reserved": 0, "fusion_lon": 0.0}, {"rental_uris": {"ios": "https://dc.lft.to/lastmile_qr_scan", "android": "https://dc.lft.to/lastmile_qr_scan"}, "fusion_lat": 0.0, "name": "288ec3006d0ea14bfa9ce49bb4d3ae0e", "bike_id": "288ec3006d0ea14bfa9ce49bb4d3ae0e", "is_disabled": 0, "type": "electric_scooter", "lat": 38.91710366666667, "lon": -77.03880366666667, "is_reserved": 0, "fusion_lon": 0.0}, {"rental_uris": {"ios": "https://dc.lft.to/lastmile_qr_scan", "android": "https://dc.lft.to/lastmile_qr_scan"}, "fusion_lat": 0.0, "name": "5bffa743bc431d8cabca856470d322af", "bike_id": "5bffa743bc431d8cabca856470d322af", "is_disabled": 0, "type": "electric_bike", "lat": 38.80662316666667, "lon": -77.06064333333333, "is_reserved": 0, "fusion_lon": 0.0}, {"rental_uris": {"ios": "https://dc.lft.to/lastmile_qr_scan", "android": "https://dc.lft.to/lastmile_qr_scan"}, "fusion_lat": 0.0, "name": "0558b009915f0a27389b94b53e97d263", "bike_id": "0558b009915f0a27389b94b53e97d263", "is_disabled": 0, "type": "electric_scooter", "lat": 38.908684666666666, "lon": -77.00385116666666, "is_reserved": 0, "fusion_lon": 0.0}, {"rental_uris": {"ios": "https://dc.lft.to/lastmile_qr_scan", "android": "https://dc.lft.to/lastmile_qr_scan"}, "fusion_lat": 0.0, "name": "ede1b8c65a845a876cc8ce4cc1089461", "bike_id": "ede1b8c65a845a876cc8ce4cc1089461", "is_disabled": 0, "type": "electric_bike", "lat": 38.85217933333333, "lon": -77.12953633333333, "is_reserved": 0, "fusion_lon": 0.0}, {"rental_uris": {"ios": "https://dc.lft.to/lastmile_qr_scan", "android": "https://dc.lft.to/lastmile_qr_scan"}, "fusion_lat": 0.0, "name": "1dc9a5e047b3f71eb9a56de3ac81f0d4", "bike_id": "1dc9a5e047b3f71eb9a56de3ac81f0d4", "is_disabled": 0, "type": "electric_scooter", "lat": 38.8921825, "lon": -77.02626116666667, "is_reserved": 0, "fusion_lon": 0.0}, {"rental_uris": {"ios": "https://dc.lft.to/lastmile_qr_scan", "android": "https://dc.lft.to/lastmile_qr_scan"}, "fusion_lat": 0.0, "name": "6b463cf8515bbe929bd784311add288f", "bike_id": "6b463cf8515bbe929bd784311add288f", "is_disabled": 0, "type": "electric_scooter", "lat": 38.887358, "lon": -77.02124666666667, "is_reserved": 0, "fusion_lon": 0.0}, {"rental_uris": {"ios": "https://dc.lft.to/lastmile_qr_scan", "android": "https://dc.lft.to/lastmile_qr_scan"}, "fusion_lat": 0.0, "name": "6b4281ec7e9fdf7fc4590bb66abbabc3", "bike_id": "6b4281ec7e9fdf7fc4590bb66abbabc3", "is_disabled": 0, "type": "electric_scooter", "lat": 38.94821483333333, "lon": -76.999002, "is_reserved": 0, "fusion_lon": 0.0}, {"rental_uris": {"ios": "https://dc.lft.to/lastmile_qr_scan", "android": "https://dc.lft.to/lastmile_qr_scan"}, "fusion_lat": 0.0, "name": "dfc10013d9784544f4c9ed89ea77f61b", "bike_id": "dfc10013d9784544f4c9ed89ea77f61b", "is_disabled": 0, "type": "electric_bike", "lat": 38.90262766666667, "lon": -77.044677, "is_reserved": 0, "fusion_lon": 0.0}, {"rental_uris": {"ios": "https://dc.lft.to/lastmile_qr_scan", "android": "https://dc.lft.to/lastmile_qr_scan"}, "fusion_lat": 0.0, "name": "beadff848af75694a8b46d617cb73e2d", "bike_id": "beadff848af75694a8b46d617cb73e2d", "is_disabled": 0, "type": "electric_scooter", "lat": 38.9300405, "lon": -77.05550533333333, "is_reserved": 0, "fusion_lon": 0.0}, {"rental_uris": {"ios": "https://dc.lft.to/lastmile_qr_scan", "android": "https://dc.lft.to/lastmile_qr_scan"}, "fusion_lat": 0.0, "name": "caaa8070a421a18b0d94bb58d074ea92", "bike_id": "caaa8070a421a18b0d94bb58d074ea92", "is_disabled": 0, "type": "electric_bike", "lat": 38.97213416666666, "lon": -77.02714016666667, "is_reserved": 0, "fusion_lon": 0.0}, {"rental_uris": {"ios": "https://dc.lft.to/lastmile_qr_scan", "android": "https://dc.lft.to/lastmile_qr_scan"}, "fusion_lat": 0.0, "name": "54dccaf3be2bf1558b6a201d0216f340", "bike_id": "54dccaf3be2bf1558b6a201d0216f340", "is_disabled": 0, "type": "electric_scooter", "lat": 38.9022545, "lon": -77.06066566666667, "is_reserved": 0, "fusion_lon": 0.0}, {"rental_uris": {"ios": "https://dc.lft.to/lastmile_qr_scan", "android": "https://dc.lft.to/lastmile_qr_scan"}, "fusion_lat": 0.0, "name": "db6666bc2ef6df726bbcc3f78f2403bb", "bike_id": "db6666bc2ef6df726bbcc3f78f2403bb", "is_disabled": 0, "type": "electric_scooter", "lat": 38.928275666666664, "lon": -77.01410216666666, "is_reserved": 0, "fusion_lon": 0.0}, {"rental_uris": {"ios": "https://dc.lft.to/lastmile_qr_scan", "android": "https://dc.lft.to/lastmile_qr_scan"}, "fusion_lat": 0.0, "name": "c60b9054fd709c9ba51b740b100c050d", "bike_id": "c60b9054fd709c9ba51b740b100c050d", "is_disabled": 0, "type": "electric_scooter", "lat": 38.90868966666667, "lon": -77.03236916666667, "is_reserved": 0, "fusion_lon": 0.0}, {"rental_uris": {"ios": "https://dc.lft.to/lastmile_qr_scan", "android": "https://dc.lft.to/lastmile_qr_scan"}, "fusion_lat": 0.0, "name": "6e94b6828526ee198d612c037ba67743", "bike_id": "6e94b6828526ee198d612c037ba67743", "is_disabled": 0, "type": "electric_scooter", "lat": 38.89682783333333, "lon": -76.93609916666666, "is_reserved": 0, "fusion_lon": 0.0}, {"rental_uris": {"ios": "https://dc.lft.to/lastmile_qr_scan", "android": "https://dc.lft.to/lastmile_qr_scan"}, "fusion_lat": 0.0, "name": "9270628bb31129bec5736c579ebb0b21", "bike_id": "9270628bb31129bec5736c579ebb0b21", "is_disabled": 0, "type": "electric_scooter", "lat": 38.90128583333333, "lon": -77.0260825, "is_reserved": 0, "fusion_lon": 0.0}, {"rental_uris": {"ios": "https://dc.lft.to/lastmile_qr_scan", "android": "https://dc.lft.to/lastmile_qr_scan"}, "fusion_lat": 0.0, "name": "21a2f68babba058e44251e5592be3a41", "bike_id": "21a2f68babba058e44251e5592be3a41", "is_disabled": 0, "type": "electric_scooter", "lat": 38.9041175, "lon": -77.04334233333333, "is_reserved": 0, "fusion_lon": 0.0}, {"rental_uris": {"ios": "https://dc.lft.to/lastmile_qr_scan", "android": "https://dc.lft.to/lastmile_qr_scan"}, "fusion_lat": 0.0, "name": "1c0af3f4da273198de21f296f00e26b8", "bike_id": "1c0af3f4da273198de21f296f00e26b8", "is_disabled": 0, "type": "electric_scooter", "lat": 38.928213166666666, "lon": -77.02623483333333, "is_reserved": 0, "fusion_lon": 0.0}, {"rental_uris": {"ios": "https://dc.lft.to/lastmile_qr_scan", "android": "https://dc.lft.to/lastmile_qr_scan"}, "fusion_lat": 0.0, "name": "e556193f04ecf703f6955d96fbb7483b", "bike_id": "e556193f04ecf703f6955d96fbb7483b", "is_disabled": 0, "type": "electric_scooter", "lat": 38.902610333333335, "lon": -77.0638815, "is_reserved": 0, "fusion_lon": 0.0}, {"rental_uris": {"ios": "https://dc.lft.to/lastmile_qr_scan", "android": "https://dc.lft.to/lastmile_qr_scan"}, "fusion_lat": 0.0, "name": "0683a5899c703a1654f5c79f34050eb6", "bike_id": "0683a5899c703a1654f5c79f34050eb6", "is_disabled": 0, "type": "electric_scooter", "lat": 38.908255833333335, "lon": -77.01797983333333, "is_reserved": 0, "fusion_lon": 0.0}, {"rental_uris": {"ios": "https://dc.lft.to/lastmile_qr_scan", "android": "https://dc.lft.to/lastmile_qr_scan"}, "fusion_lat": 0.0, "name": "00d8b7b9b765226a2ad217a5c966b380", "bike_id": "00d8b7b9b765226a2ad217a5c966b380", "is_disabled": 0, "type": "electric_scooter", "lat": 38.909582666666665, "lon": -77.03164816666667, "is_reserved": 0, "fusion_lon": 0.0}, {"rental_uris": {"ios": "https://dc.lft.to/lastmile_qr_scan", "android": "https://dc.lft.to/lastmile_qr_scan"}, "fusion_lat": 0.0, "name": "5c7a036a6cffa74ed8f3f51a188aa196", "bike_id": "5c7a036a6cffa74ed8f3f51a188aa196", "is_disabled": 0, "type": "electric_scooter", "lat": 38.86696366666666, "lon": -76.9871135, "is_reserved": 0, "fusion_lon": 0.0}, {"rental_uris": {"ios": "https://dc.lft.to/lastmile_qr_scan", "android": "https://dc.lft.to/lastmile_qr_scan"}, "fusion_lat": 0.0, "name": "27eb246319b077e99bd053ba32aa095a", "bike_id": "27eb246319b077e99bd053ba32aa095a", "is_disabled": 0, "type": "electric_scooter", "lat": 38.89898633333333, "lon": -77.040643, "is_reserved": 0, "fusion_lon": 0.0}, {"rental_uris": {"ios": "https://dc.lft.to/lastmile_qr_scan", "android": "https://dc.lft.to/lastmile_qr_scan"}, "fusion_lat": 0.0, "name": "3d7594f33794abc85b4e9dc057db1086", "bike_id": "3d7594f33794abc85b4e9dc057db1086", "is_disabled": 0, "type": "electric_scooter", "lat": 38.91809666666666, "lon": -77.04171266666667, "is_reserved": 0, "fusion_lon": 0.0}, {"rental_uris": {"ios": "https://dc.lft.to/lastmile_qr_scan", "android": "https://dc.lft.to/lastmile_qr_scan"}, "fusion_lat": 0.0, "name": "79716a408ad9aa3caa3a6753e22c9204", "bike_id": "79716a408ad9aa3caa3a6753e22c9204", "is_disabled": 0, "type": "electric_scooter", "lat": 38.947629166666665, "lon": -77.07936733333334, "is_reserved": 0, "fusion_lon": 0.0}, {"rental_uris": {"ios": "https://dc.lft.to/lastmile_qr_scan", "android": "https://dc.lft.to/lastmile_qr_scan"}, "fusion_lat": 0.0, "name": "02cdaf526aff83a274ef0647d7153481", "bike_id": "02cdaf526aff83a274ef0647d7153481", "is_disabled": 0, "type": "electric_scooter", "lat": 38.905143833333334, "lon": -77.04087166666666, "is_reserved": 0, "fusion_lon": 0.0}, {"rental_uris": {"ios": "https://dc.lft.to/lastmile_qr_scan", "android": "https://dc.lft.to/lastmile_qr_scan"}, "fusion_lat": 0.0, "name": "abd4bab88ee8120ee052a9c46f24a660", "bike_id": "abd4bab88ee8120ee052a9c46f24a660", "is_disabled": 0, "type": "electric_scooter", "lat": 38.917193, "lon": -77.03655083333334, "is_reserved": 0, "fusion_lon": 0.0}, {"rental_uris": {"ios": "https://dc.lft.to/lastmile_qr_scan", "android": "https://dc.lft.to/lastmile_qr_scan"}, "fusion_lat": 0.0, "name": "53dccff2f40de56e5bed9a595423c481", "bike_id": "53dccff2f40de56e5bed9a595423c481", "is_disabled": 0, "type": "electric_scooter", "lat": 38.906619, "lon": -77.02703216666667, "is_reserved": 0, "fusion_lon": 0.0}, {"rental_uris": {"ios": "https://dc.lft.to/lastmile_qr_scan", "android": "https://dc.lft.to/lastmile_qr_scan"}, "fusion_lat": 0.0, "name": "f4fe5bc225b126d67deea7965938bc40", "bike_id": "f4fe5bc225b126d67deea7965938bc40", "is_disabled": 0, "type": "electric_scooter", "lat": 38.90511866666667, "lon": -77.05323066666666, "is_reserved": 0, "fusion_lon": 0.0}, {"rental_uris": {"ios": "https://dc.lft.to/lastmile_qr_scan", "android": "https://dc.lft.to/lastmile_qr_scan"}, "fusion_lat": 0.0, "name": "45d804be4e19a7e29867479fed70c8ab", "bike_id": "45d804be4e19a7e29867479fed70c8ab", "is_disabled": 0, "type": "electric_scooter", "lat": 38.91563883333333, "lon": -77.02280116666667, "is_reserved": 0, "fusion_lon": 0.0}, {"rental_uris": {"ios": "https://dc.lft.to/lastmile_qr_scan", "android": "https://dc.lft.to/lastmile_qr_scan"}, "fusion_lat": 0.0, "name": "94486ef4133b6f1e67913220169e50cf", "bike_id": "94486ef4133b6f1e67913220169e50cf", "is_disabled": 0, "type": "electric_scooter", "lat": 38.913363833333335, "lon": -77.03188216666666, "is_reserved": 0, "fusion_lon": 0.0}, {"rental_uris": {"ios": "https://dc.lft.to/lastmile_qr_scan", "android": "https://dc.lft.to/lastmile_qr_scan"}, "fusion_lat": 0.0, "name": "9b0e237764e26b4044492302c2b885fb", "bike_id": "9b0e237764e26b4044492302c2b885fb", "is_disabled": 0, "type": "electric_scooter", "lat": 38.9517995, "lon": -77.02724283333333, "is_reserved": 0, "fusion_lon": 0.0}, {"rental_uris": {"ios": "https://dc.lft.to/lastmile_qr_scan", "android": "https://dc.lft.to/lastmile_qr_scan"}, "fusion_lat": 0.0, "name": "3b4c572a2e5fa041c8a0e1d48b0fae2b", "bike_id": "3b4c572a2e5fa041c8a0e1d48b0fae2b", "is_disabled": 0, "type": "electric_scooter", "lat": 38.907868666666666, "lon": -77.03178316666667, "is_reserved": 0, "fusion_lon": 0.0}, {"rental_uris": {"ios": "https://dc.lft.to/lastmile_qr_scan", "android": "https://dc.lft.to/lastmile_qr_scan"}, "fusion_lat": 0.0, "name": "49380b42ccd330f5f16bb17241e3e878", "bike_id": "49380b42ccd330f5f16bb17241e3e878", "is_disabled": 0, "type": "electric_bike", "lat": 38.85512666666666, "lon": -77.120329, "is_reserved": 0, "fusion_lon": 0.0}, {"rental_uris": {"ios": "https://dc.lft.to/lastmile_qr_scan", "android": "https://dc.lft.to/lastmile_qr_scan"}, "fusion_lat": 0.0, "name": "0de5e9fad33add60e1f5ab59b397e35a", "bike_id": "0de5e9fad33add60e1f5ab59b397e35a", "is_disabled": 0, "type": "electric_scooter", "lat": 38.9169015, "lon": -77.0259865, "is_reserved": 0, "fusion_lon": 0.0}, {"rental_uris": {"ios": "https://dc.lft.to/lastmile_qr_scan", "android": "https://dc.lft.to/lastmile_qr_scan"}, "fusion_lat": 0.0, "name": "733e390fff9e017a54289ade64154116", "bike_id": "733e390fff9e017a54289ade64154116", "is_disabled": 0, "type": "electric_scooter", "lat": 38.92239766666667, "lon": -77.0341265, "is_reserved": 0, "fusion_lon": 0.0}, {"rental_uris": {"ios": "https://dc.lft.to/lastmile_qr_scan", "android": "https://dc.lft.to/lastmile_qr_scan"}, "fusion_lat": 0.0, "name": "90d488160b412ecf071ffd1a7c4bdaf7", "bike_id": "90d488160b412ecf071ffd1a7c4bdaf7", "is_disabled": 0, "type": "electric_scooter", "lat": 38.893549166666666, "lon": -77.04187166666667, "is_reserved": 0, "fusion_lon": 0.0}, {"rental_uris": {"ios": "https://dc.lft.to/lastmile_qr_scan", "android": "https://dc.lft.to/lastmile_qr_scan"}, "fusion_lat": 0.0, "name": "b253ae429cfce302adf0f8fb0b66eb31", "bike_id": "b253ae429cfce302adf0f8fb0b66eb31", "is_disabled": 0, "type": "electric_bike", "lat": 38.93183166666667, "lon": -77.02352333333333, "is_reserved": 0, "fusion_lon": 0.0}, {"rental_uris": {"ios": "https://dc.lft.to/lastmile_qr_scan", "android": "https://dc.lft.to/lastmile_qr_scan"}, "fusion_lat": 0.0, "name": "bd9702e3eb1754d77ab6bf9764307f40", "bike_id": "bd9702e3eb1754d77ab6bf9764307f40", "is_disabled": 0, "type": "electric_scooter", "lat": 38.909596666666665, "lon": -77.02580966666666, "is_reserved": 0, "fusion_lon": 0.0}, {"rental_uris": {"ios": "https://dc.lft.to/lastmile_qr_scan", "android": "https://dc.lft.to/lastmile_qr_scan"}, "fusion_lat": 0.0, "name": "d1e8b57dcbc9eee49efc09df915e91f7", "bike_id": "d1e8b57dcbc9eee49efc09df915e91f7", "is_disabled": 0, "type": "electric_scooter", "lat": 38.923697833333335, "lon": -77.0191545, "is_reserved": 0, "fusion_lon": 0.0}, {"rental_uris": {"ios": "https://dc.lft.to/lastmile_qr_scan", "android": "https://dc.lft.to/lastmile_qr_scan"}, "fusion_lat": 0.0, "name": "e387dd47c3cd97ab62d16aef57c2116f", "bike_id": "e387dd47c3cd97ab62d16aef57c2116f", "is_disabled": 0, "type": "electric_scooter", "lat": 38.918037166666664, "lon": -77.04029566666667, "is_reserved": 0, "fusion_lon": 0.0}, {"rental_uris": {"ios": "https://dc.lft.to/lastmile_qr_scan", "android": "https://dc.lft.to/lastmile_qr_scan"}, "fusion_lat": 0.0, "name": "b021c5a5aee3a78e43e669bff564f0bb", "bike_id": "b021c5a5aee3a78e43e669bff564f0bb", "is_disabled": 0, "type": "electric_scooter", "lat": 38.89753233333333, "lon": -76.9419115, "is_reserved": 0, "fusion_lon": 0.0}, {"rental_uris": {"ios": "https://dc.lft.to/lastmile_qr_scan", "android": "https://dc.lft.to/lastmile_qr_scan"}, "fusion_lat": 0.0, "name": "fd40ba3f26e5d916026f271e62d71304", "bike_id": "fd40ba3f26e5d916026f271e62d71304", "is_disabled": 0, "type": "electric_scooter", "lat": 38.923229666666664, "lon": -77.02127583333333, "is_reserved": 0, "fusion_lon": 0.0}, {"rental_uris": {"ios": "https://dc.lft.to/lastmile_qr_scan", "android": "https://dc.lft.to/lastmile_qr_scan"}, "fusion_lat": 0.0, "name": "d460534c4ced28f4da68951ef1254dfe", "bike_id": "d460534c4ced28f4da68951ef1254dfe", "is_disabled": 0, "type": "electric_scooter", "lat": 38.92668366666667, "lon": -77.01471083333334, "is_reserved": 0, "fusion_lon": 0.0}, {"rental_uris": {"ios": "https://dc.lft.to/lastmile_qr_scan", "android": "https://dc.lft.to/lastmile_qr_scan"}, "fusion_lat": 0.0, "name": "fc625d05760c9461353c7144e7369bcb", "bike_id": "fc625d05760c9461353c7144e7369bcb", "is_disabled": 0, "type": "electric_scooter", "lat": 38.86364616666667, "lon": -76.99032716666666, "is_reserved": 0, "fusion_lon": 0.0}, {"rental_uris": {"ios": "https://dc.lft.to/lastmile_qr_scan", "android": "https://dc.lft.to/lastmile_qr_scan"}, "fusion_lat": 0.0, "name": "87dca4993423c4bbdd65a86e3cb0aa48", "bike_id": "87dca4993423c4bbdd65a86e3cb0aa48", "is_disabled": 0, "type": "electric_scooter", "lat": 38.88408483333333, "lon": -77.01753666666667, "is_reserved": 0, "fusion_lon": 0.0}, {"rental_uris": {"ios": "https://dc.lft.to/lastmile_qr_scan", "android": "https://dc.lft.to/lastmile_qr_scan"}, "fusion_lat": 0.0, "name": "44d81bb01f344c9c31d7bde3b1ced12e", "bike_id": "44d81bb01f344c9c31d7bde3b1ced12e", "is_disabled": 0, "type": "electric_scooter", "lat": 38.93059916666667, "lon": -77.02322783333334, "is_reserved": 0, "fusion_lon": 0.0}, {"rental_uris": {"ios": "https://dc.lft.to/lastmile_qr_scan", "android": "https://dc.lft.to/lastmile_qr_scan"}, "fusion_lat": 0.0, "name": "83de3294674731b4d83ada4219d7aa31", "bike_id": "83de3294674731b4d83ada4219d7aa31", "is_disabled": 0, "type": "electric_scooter", "lat": 38.9022825, "lon": -77.0434375, "is_reserved": 0, "fusion_lon": 0.0}, {"rental_uris": {"ios": "https://dc.lft.to/lastmile_qr_scan", "android": "https://dc.lft.to/lastmile_qr_scan"}, "fusion_lat": 0.0, "name": "243a18f9c376a0273928b41f9c08e5bb", "bike_id": "243a18f9c376a0273928b41f9c08e5bb", "is_disabled": 0, "type": "electric_scooter", "lat": 38.91844716666667, "lon": -77.00907833333333, "is_reserved": 0, "fusion_lon": 0.0}, {"rental_uris": {"ios": "https://dc.lft.to/lastmile_qr_scan", "android": "https://dc.lft.to/lastmile_qr_scan"}, "fusion_lat": 0.0, "name": "99b5ad6ffb30a48c58630ba9d8ab2625", "bike_id": "99b5ad6ffb30a48c58630ba9d8ab2625", "is_disabled": 0, "type": "electric_bike", "lat": 38.802266333333336, "lon": -77.07922966666666, "is_reserved": 0, "fusion_lon": 0.0}, {"rental_uris": {"ios": "https://dc.lft.to/lastmile_qr_scan", "android": "https://dc.lft.to/lastmile_qr_scan"}, "fusion_lat": 0.0, "name": "4399616222b3fd317990d3ed77760211", "bike_id": "4399616222b3fd317990d3ed77760211", "is_disabled": 0, "type": "electric_bike", "lat": 38.967028, "lon": -76.97521116666667, "is_reserved": 0, "fusion_lon": 0.0}, {"rental_uris": {"ios": "https://dc.lft.to/lastmile_qr_scan", "android": "https://dc.lft.to/lastmile_qr_scan"}, "fusion_lat": 0.0, "name": "a05b55258cab3d80e4ef4f287fa59374", "bike_id": "a05b55258cab3d80e4ef4f287fa59374", "is_disabled": 0, "type": "electric_bike", "lat": 38.8427415, "lon": -76.98838933333333, "is_reserved": 0, "fusion_lon": 0.0}, {"rental_uris": {"ios": "https://dc.lft.to/lastmile_qr_scan", "android": "https://dc.lft.to/lastmile_qr_scan"}, "fusion_lat": 0.0, "name": "e049218db6ae1cf22173300ab0990264", "bike_id": "e049218db6ae1cf22173300ab0990264", "is_disabled": 0, "type": "electric_scooter", "lat": 38.90268233333333, "lon": -77.0344545, "is_reserved": 0, "fusion_lon": 0.0}, {"rental_uris": {"ios": "https://dc.lft.to/lastmile_qr_scan", "android": "https://dc.lft.to/lastmile_qr_scan"}, "fusion_lat": 0.0, "name": "19035d166cbdb23501ebfac485c04681", "bike_id": "19035d166cbdb23501ebfac485c04681", "is_disabled": 0, "type": "electric_scooter", "lat": 38.92443633333333, "lon": -77.04103966666666, "is_reserved": 0, "fusion_lon": 0.0}, {"rental_uris": {"ios": "https://dc.lft.to/lastmile_qr_scan", "android": "https://dc.lft.to/lastmile_qr_scan"}, "fusion_lat": 0.0, "name": "d2493b23f17c91a222397378c8f5a517", "bike_id": "d2493b23f17c91a222397378c8f5a517", "is_disabled": 0, "type": "electric_scooter", "lat": 38.918722333333335, "lon": -76.965455, "is_reserved": 0, "fusion_lon": 0.0}, {"rental_uris": {"ios": "https://dc.lft.to/lastmile_qr_scan", "android": "https://dc.lft.to/lastmile_qr_scan"}, "fusion_lat": 0.0, "name": "7aee4f4328a9578e76cdd82abaabe407", "bike_id": "7aee4f4328a9578e76cdd82abaabe407", "is_disabled": 0, "type": "electric_scooter", "lat": 38.902590833333335, "lon": -77.0449115, "is_reserved": 0, "fusion_lon": 0.0}, {"rental_uris": {"ios": "https://dc.lft.to/lastmile_qr_scan", "android": "https://dc.lft.to/lastmile_qr_scan"}, "fusion_lat": 0.0, "name": "c7449df91c127fca8f01dad8d116b722", "bike_id": "c7449df91c127fca8f01dad8d116b722", "is_disabled": 0, "type": "electric_bike", "lat": 38.92461316666667, "lon": -77.208422, "is_reserved": 0, "fusion_lon": 0.0}, {"rental_uris": {"ios": "https://dc.lft.to/lastmile_qr_scan", "android": "https://dc.lft.to/lastmile_qr_scan"}, "fusion_lat": 0.0, "name": "1b9101fb04842a3ae55785ce4b948a0b", "bike_id": "1b9101fb04842a3ae55785ce4b948a0b", "is_disabled": 0, "type": "electric_scooter", "lat": 38.8922285, "lon": -77.02333683333333, "is_reserved": 0, "fusion_lon": 0.0}, {"rental_uris": {"ios": "https://dc.lft.to/lastmile_qr_scan", "android": "https://dc.lft.to/lastmile_qr_scan"}, "fusion_lat": 0.0, "name": "30e477772fe54cc4f85e6ee84d20f43c", "bike_id": "30e477772fe54cc4f85e6ee84d20f43c", "is_disabled": 0, "type": "electric_scooter", "lat": 38.892207166666665, "lon": -77.04871766666666, "is_reserved": 0, "fusion_lon": 0.0}, {"rental_uris": {"ios": "https://dc.lft.to/lastmile_qr_scan", "android": "https://dc.lft.to/lastmile_qr_scan"}, "fusion_lat": 0.0, "name": "06ac97102ef5693a0ab3072bae2b5474", "bike_id": "06ac97102ef5693a0ab3072bae2b5474", "is_disabled": 0, "type": "electric_scooter", "lat": 38.91252266666667, "lon": -77.04442066666667, "is_reserved": 0, "fusion_lon": 0.0}, {"rental_uris": {"ios": "https://dc.lft.to/lastmile_qr_scan", "android": "https://dc.lft.to/lastmile_qr_scan"}, "fusion_lat": 0.0, "name": "291fd91c9433042e97f6597148011a83", "bike_id": "291fd91c9433042e97f6597148011a83", "is_disabled": 0, "type": "electric_bike", "lat": 38.83145716666667, "lon": -77.11323966666667, "is_reserved": 0, "fusion_lon": 0.0}, {"rental_uris": {"ios": "https://dc.lft.to/lastmile_qr_scan", "android": "https://dc.lft.to/lastmile_qr_scan"}, "fusion_lat": 0.0, "name": "365632a0e61a4e13cf460cdecbe36526", "bike_id": "365632a0e61a4e13cf460cdecbe36526", "is_disabled": 0, "type": "electric_scooter", "lat": 38.8871945, "lon": -77.02174233333334, "is_reserved": 0, "fusion_lon": 0.0}, {"rental_uris": {"ios": "https://dc.lft.to/lastmile_qr_scan", "android": "https://dc.lft.to/lastmile_qr_scan"}, "fusion_lat": 0.0, "name": "bcbb4cb4ae9e997d9607100b9e13f2cc", "bike_id": "bcbb4cb4ae9e997d9607100b9e13f2cc", "is_disabled": 0, "type": "electric_scooter", "lat": 38.89611133333333, "lon": -77.04469933333333, "is_reserved": 0, "fusion_lon": 0.0}, {"rental_uris": {"ios": "https://dc.lft.to/lastmile_qr_scan", "android": "https://dc.lft.to/lastmile_qr_scan"}, "fusion_lat": 0.0, "name": "310d1585382d6d50b67fc3e216865111", "bike_id": "310d1585382d6d50b67fc3e216865111", "is_disabled": 0, "type": "electric_bike", "lat": 38.81510133333333, "lon": -77.12649883333333, "is_reserved": 0, "fusion_lon": 0.0}, {"rental_uris": {"ios": "https://dc.lft.to/lastmile_qr_scan", "android": "https://dc.lft.to/lastmile_qr_scan"}, "fusion_lat": 0.0, "name": "19ffd808bff2de0323526a97ba66ec4a", "bike_id": "19ffd808bff2de0323526a97ba66ec4a", "is_disabled": 0, "type": "electric_scooter", "lat": 38.92100416666667, "lon": -77.0470015, "is_reserved": 0, "fusion_lon": 0.0}, {"rental_uris": {"ios": "https://dc.lft.to/lastmile_qr_scan", "android": "https://dc.lft.to/lastmile_qr_scan"}, "fusion_lat": 0.0, "name": "78880f0cc09e0e5a3bf955016bd233c2", "bike_id": "78880f0cc09e0e5a3bf955016bd233c2", "is_disabled": 0, "type": "electric_scooter", "lat": 38.8992955, "lon": -77.04032, "is_reserved": 0, "fusion_lon": 0.0}, {"rental_uris": {"ios": "https://dc.lft.to/lastmile_qr_scan", "android": "https://dc.lft.to/lastmile_qr_scan"}, "fusion_lat": 0.0, "name": "f9161a85aa49fc7ae2e2c7dfa63ca52a", "bike_id": "f9161a85aa49fc7ae2e2c7dfa63ca52a", "is_disabled": 0, "type": "electric_scooter", "lat": 38.866893833333336, "lon": -76.98547316666667, "is_reserved": 0, "fusion_lon": 0.0}, {"rental_uris": {"ios": "https://dc.lft.to/lastmile_qr_scan", "android": "https://dc.lft.to/lastmile_qr_scan"}, "fusion_lat": 0.0, "name": "7edb0d9df7acebc5679bc6f141c7807f", "bike_id": "7edb0d9df7acebc5679bc6f141c7807f", "is_disabled": 0, "type": "electric_scooter", "lat": 38.9170785, "lon": -77.0324785, "is_reserved": 0, "fusion_lon": 0.0}, {"rental_uris": {"ios": "https://dc.lft.to/lastmile_qr_scan", "android": "https://dc.lft.to/lastmile_qr_scan"}, "fusion_lat": 0.0, "name": "2e1a3b12a180aa5cfc7da9d0a9c2042b", "bike_id": "2e1a3b12a180aa5cfc7da9d0a9c2042b", "is_disabled": 0, "type": "electric_scooter", "lat": 38.902793333333335, "lon": -77.034824, "is_reserved": 0, "fusion_lon": 0.0}, {"rental_uris": {"ios": "https://dc.lft.to/lastmile_qr_scan", "android": "https://dc.lft.to/lastmile_qr_scan"}, "fusion_lat": 0.0, "name": "79c57e78678a65c7fa654620f9bcdf4c", "bike_id": "79c57e78678a65c7fa654620f9bcdf4c", "is_disabled": 0, "type": "electric_scooter", "lat": 38.908289, "lon": -76.99697633333334, "is_reserved": 0, "fusion_lon": 0.0}, {"rental_uris": {"ios": "https://dc.lft.to/lastmile_qr_scan", "android": "https://dc.lft.to/lastmile_qr_scan"}, "fusion_lat": 0.0, "name": "4e2e9ca83c9670aa96f04fcb0b01da06", "bike_id": "4e2e9ca83c9670aa96f04fcb0b01da06", "is_disabled": 0, "type": "electric_scooter", "lat": 38.924169, "lon": -77.01949366666666, "is_reserved": 0, "fusion_lon": 0.0}, {"rental_uris": {"ios": "https://dc.lft.to/lastmile_qr_scan", "android": "https://dc.lft.to/lastmile_qr_scan"}, "fusion_lat": 0.0, "name": "a82d9a1e856b033279ed2409959cb094", "bike_id": "a82d9a1e856b033279ed2409959cb094", "is_disabled": 0, "type": "electric_scooter", "lat": 38.914741, "lon": -77.0319135, "is_reserved": 0, "fusion_lon": 0.0}, {"rental_uris": {"ios": "https://dc.lft.to/lastmile_qr_scan", "android": "https://dc.lft.to/lastmile_qr_scan"}, "fusion_lat": 0.0, "name": "a239be5187d24e25eb928ee6f78f86ec", "bike_id": "a239be5187d24e25eb928ee6f78f86ec", "is_disabled": 0, "type": "electric_scooter", "lat": 38.90152966666667, "lon": -77.025795, "is_reserved": 0, "fusion_lon": 0.0}, {"rental_uris": {"ios": "https://dc.lft.to/lastmile_qr_scan", "android": "https://dc.lft.to/lastmile_qr_scan"}, "fusion_lat": 0.0, "name": "be6311bd632588179cd4224e913f6fba", "bike_id": "be6311bd632588179cd4224e913f6fba", "is_disabled": 0, "type": "electric_scooter", "lat": 38.89591, "lon": -77.0232315, "is_reserved": 0, "fusion_lon": 0.0}, {"rental_uris": {"ios": "https://dc.lft.to/lastmile_qr_scan", "android": "https://dc.lft.to/lastmile_qr_scan"}, "fusion_lat": 0.0, "name": "e13681a124b425675124ce8f3c6f436b", "bike_id": "e13681a124b425675124ce8f3c6f436b", "is_disabled": 0, "type": "electric_scooter", "lat": 38.9386425, "lon": -77.02992883333333, "is_reserved": 0, "fusion_lon": 0.0}, {"rental_uris": {"ios": "https://dc.lft.to/lastmile_qr_scan", "android": "https://dc.lft.to/lastmile_qr_scan"}, "fusion_lat": 0.0, "name": "b3725b8dfb6fc7a8ddf36db452769029", "bike_id": "b3725b8dfb6fc7a8ddf36db452769029", "is_disabled": 0, "type": "electric_scooter", "lat": 38.89821333333333, "lon": -76.9465125, "is_reserved": 0, "fusion_lon": 0.0}, {"rental_uris": {"ios": "https://dc.lft.to/lastmile_qr_scan", "android": "https://dc.lft.to/lastmile_qr_scan"}, "fusion_lat": 0.0, "name": "de23326a9fd64dabcfe55da9e42b981a", "bike_id": "de23326a9fd64dabcfe55da9e42b981a", "is_disabled": 0, "type": "electric_scooter", "lat": 38.902512, "lon": -77.02592, "is_reserved": 0, "fusion_lon": 0.0}, {"rental_uris": {"ios": "https://dc.lft.to/lastmile_qr_scan", "android": "https://dc.lft.to/lastmile_qr_scan"}, "fusion_lat": 0.0, "name": "75f5bb984c44560ef7013797182661f2", "bike_id": "75f5bb984c44560ef7013797182661f2", "is_disabled": 0, "type": "electric_scooter", "lat": 38.86674983333333, "lon": -76.9849975, "is_reserved": 0, "fusion_lon": 0.0}, {"rental_uris": {"ios": "https://dc.lft.to/lastmile_qr_scan", "android": "https://dc.lft.to/lastmile_qr_scan"}, "fusion_lat": 0.0, "name": "d3fd1c87a9c8812f7e775fd789b9a4e6", "bike_id": "d3fd1c87a9c8812f7e775fd789b9a4e6", "is_disabled": 0, "type": "electric_bike", "lat": 39.0563135, "lon": -77.12525233333334, "is_reserved": 0, "fusion_lon": 0.0}, {"rental_uris": {"ios": "https://dc.lft.to/lastmile_qr_scan", "android": "https://dc.lft.to/lastmile_qr_scan"}, "fusion_lat": 0.0, "name": "776e4b3205e1e543fed496900ca42dfc", "bike_id": "776e4b3205e1e543fed496900ca42dfc", "is_disabled": 0, "type": "electric_scooter", "lat": 38.921522833333334, "lon": -77.03836383333334, "is_reserved": 0, "fusion_lon": 0.0}, {"rental_uris": {"ios": "https://dc.lft.to/lastmile_qr_scan", "android": "https://dc.lft.to/lastmile_qr_scan"}, "fusion_lat": 0.0, "name": "6137cda8f35653f771d400030ec26963", "bike_id": "6137cda8f35653f771d400030ec26963", "is_disabled": 0, "type": "electric_scooter", "lat": 38.88737283333333, "lon": -77.01533233333333, "is_reserved": 0, "fusion_lon": 0.0}, {"rental_uris": {"ios": "https://dc.lft.to/lastmile_qr_scan", "android": "https://dc.lft.to/lastmile_qr_scan"}, "fusion_lat": 0.0, "name": "5f68c8c7d210aab259049be6825309d6", "bike_id": "5f68c8c7d210aab259049be6825309d6", "is_disabled": 0, "type": "electric_scooter", "lat": 38.8922095, "lon": -77.04686816666667, "is_reserved": 0, "fusion_lon": 0.0}, {"rental_uris": {"ios": "https://dc.lft.to/lastmile_qr_scan", "android": "https://dc.lft.to/lastmile_qr_scan"}, "fusion_lat": 0.0, "name": "245e809c02a00389585affa652a15cd9", "bike_id": "245e809c02a00389585affa652a15cd9", "is_disabled": 0, "type": "electric_scooter", "lat": 38.9171545, "lon": -77.03183816666666, "is_reserved": 0, "fusion_lon": 0.0}, {"rental_uris": {"ios": "https://dc.lft.to/lastmile_qr_scan", "android": "https://dc.lft.to/lastmile_qr_scan"}, "fusion_lat": 0.0, "name": "b5a6c42295b76ddab98674b9b32881c8", "bike_id": "b5a6c42295b76ddab98674b9b32881c8", "is_disabled": 0, "type": "electric_scooter", "lat": 38.8984295, "lon": -76.94636816666667, "is_reserved": 0, "fusion_lon": 0.0}, {"rental_uris": {"ios": "https://dc.lft.to/lastmile_qr_scan", "android": "https://dc.lft.to/lastmile_qr_scan"}, "fusion_lat": 0.0, "name": "04447738353fb6a5e9114015f6690837", "bike_id": "04447738353fb6a5e9114015f6690837", "is_disabled": 0, "type": "electric_scooter", "lat": 38.90268583333334, "lon": -77.04396516666667, "is_reserved": 0, "fusion_lon": 0.0}, {"rental_uris": {"ios": "https://dc.lft.to/lastmile_qr_scan", "android": "https://dc.lft.to/lastmile_qr_scan"}, "fusion_lat": 0.0, "name": "ee9357daea9c4092db0d8836471092df", "bike_id": "ee9357daea9c4092db0d8836471092df", "is_disabled": 0, "type": "electric_scooter", "lat": 38.899049, "lon": -76.995025, "is_reserved": 0, "fusion_lon": 0.0}, {"rental_uris": {"ios": "https://dc.lft.to/lastmile_qr_scan", "android": "https://dc.lft.to/lastmile_qr_scan"}, "fusion_lat": 0.0, "name": "2b5d1066fc9f63f2aef64f128f674f55", "bike_id": "2b5d1066fc9f63f2aef64f128f674f55", "is_disabled": 0, "type": "electric_scooter", "lat": 38.91930283333333, "lon": -77.04563083333333, "is_reserved": 0, "fusion_lon": 0.0}, {"rental_uris": {"ios": "https://dc.lft.to/lastmile_qr_scan", "android": "https://dc.lft.to/lastmile_qr_scan"}, "fusion_lat": 0.0, "name": "69d9088037307b5b55513df2225e567e", "bike_id": "69d9088037307b5b55513df2225e567e", "is_disabled": 0, "type": "electric_bike", "lat": 38.95318616666667, "lon": -77.01573733333333, "is_reserved": 0, "fusion_lon": 0.0}, {"rental_uris": {"ios": "https://dc.lft.to/lastmile_qr_scan", "android": "https://dc.lft.to/lastmile_qr_scan"}, "fusion_lat": 0.0, "name": "62be470d529f4b72c60db67cb964c839", "bike_id": "62be470d529f4b72c60db67cb964c839", "is_disabled": 0, "type": "electric_scooter", "lat": 38.881417, "lon": -77.01715683333333, "is_reserved": 0, "fusion_lon": 0.0}, {"rental_uris": {"ios": "https://dc.lft.to/lastmile_qr_scan", "android": "https://dc.lft.to/lastmile_qr_scan"}, "fusion_lat": 0.0, "name": "1f9d0f1a9fe07ef59a7deab28bebed67", "bike_id": "1f9d0f1a9fe07ef59a7deab28bebed67", "is_disabled": 0, "type": "electric_scooter", "lat": 38.92146, "lon": -77.03511633333333, "is_reserved": 0, "fusion_lon": 0.0}, {"rental_uris": {"ios": "https://dc.lft.to/lastmile_qr_scan", "android": "https://dc.lft.to/lastmile_qr_scan"}, "fusion_lat": 0.0, "name": "1582100a9063edbeda555b75422ba1e6", "bike_id": "1582100a9063edbeda555b75422ba1e6", "is_disabled": 0, "type": "electric_scooter", "lat": 38.87687183333333, "lon": -77.01755916666667, "is_reserved": 0, "fusion_lon": 0.0}, {"rental_uris": {"ios": "https://dc.lft.to/lastmile_qr_scan", "android": "https://dc.lft.to/lastmile_qr_scan"}, "fusion_lat": 0.0, "name": "c2e6d50d226f668c6a903179cd0e1f2b", "bike_id": "c2e6d50d226f668c6a903179cd0e1f2b", "is_disabled": 0, "type": "electric_scooter", "lat": 38.909563, "lon": -77.04479983333333, "is_reserved": 0, "fusion_lon": 0.0}, {"rental_uris": {"ios": "https://dc.lft.to/lastmile_qr_scan", "android": "https://dc.lft.to/lastmile_qr_scan"}, "fusion_lat": 0.0, "name": "9d1077377b711760460a3e44d3229b48", "bike_id": "9d1077377b711760460a3e44d3229b48", "is_disabled": 0, "type": "electric_scooter", "lat": 38.88132916666667, "lon": -77.01319733333334, "is_reserved": 0, "fusion_lon": 0.0}, {"rental_uris": {"ios": "https://dc.lft.to/lastmile_qr_scan", "android": "https://dc.lft.to/lastmile_qr_scan"}, "fusion_lat": 0.0, "name": "2e0e2b66bc9d694ce08137d6042a7222", "bike_id": "2e0e2b66bc9d694ce08137d6042a7222", "is_disabled": 0, "type": "electric_scooter", "lat": 38.91723066666667, "lon": -77.03660216666667, "is_reserved": 0, "fusion_lon": 0.0}, {"rental_uris": {"ios": "https://dc.lft.to/lastmile_qr_scan", "android": "https://dc.lft.to/lastmile_qr_scan"}, "fusion_lat": 0.0, "name": "a56a88196140078ba9c99b0c3249b472", "bike_id": "a56a88196140078ba9c99b0c3249b472", "is_disabled": 0, "type": "electric_scooter", "lat": 38.93245983333333, "lon": -77.03858933333333, "is_reserved": 0, "fusion_lon": 0.0}, {"rental_uris": {"ios": "https://dc.lft.to/lastmile_qr_scan", "android": "https://dc.lft.to/lastmile_qr_scan"}, "fusion_lat": 0.0, "name": "5693aea453744054f09dfd34516320d3", "bike_id": "5693aea453744054f09dfd34516320d3", "is_disabled": 0, "type": "electric_bike", "lat": 39.0157075, "lon": -77.0441875, "is_reserved": 0, "fusion_lon": 0.0}, {"rental_uris": {"ios": "https://dc.lft.to/lastmile_qr_scan", "android": "https://dc.lft.to/lastmile_qr_scan"}, "fusion_lat": 0.0, "name": "929d4e1292bf1a3c934a598a8e2ec557", "bike_id": "929d4e1292bf1a3c934a598a8e2ec557", "is_disabled": 0, "type": "electric_scooter", "lat": 38.91562116666667, "lon": -77.038654, "is_reserved": 0, "fusion_lon": 0.0}, {"rental_uris": {"ios": "https://dc.lft.to/lastmile_qr_scan", "android": "https://dc.lft.to/lastmile_qr_scan"}, "fusion_lat": 0.0, "name": "4f784690165bbe35577c6fc041d2be6d", "bike_id": "4f784690165bbe35577c6fc041d2be6d", "is_disabled": 0, "type": "electric_scooter", "lat": 38.8922245, "lon": -77.04367616666667, "is_reserved": 0, "fusion_lon": 0.0}, {"rental_uris": {"ios": "https://dc.lft.to/lastmile_qr_scan", "android": "https://dc.lft.to/lastmile_qr_scan"}, "fusion_lat": 0.0, "name": "ae597eca31e52a83ecfad3dd3a4f526f", "bike_id": "ae597eca31e52a83ecfad3dd3a4f526f", "is_disabled": 0, "type": "electric_scooter", "lat": 38.90022716666667, "lon": -77.0322615, "is_reserved": 0, "fusion_lon": 0.0}, {"rental_uris": {"ios": "https://dc.lft.to/lastmile_qr_scan", "android": "https://dc.lft.to/lastmile_qr_scan"}, "fusion_lat": 0.0, "name": "f199cb79d8ecad9531f9c6259c6b13b5", "bike_id": "f199cb79d8ecad9531f9c6259c6b13b5", "is_disabled": 0, "type": "electric_scooter", "lat": 38.91759716666667, "lon": -77.0233605, "is_reserved": 0, "fusion_lon": 0.0}, {"rental_uris": {"ios": "https://dc.lft.to/lastmile_qr_scan", "android": "https://dc.lft.to/lastmile_qr_scan"}, "fusion_lat": 0.0, "name": "200b9d1ef5f66217f52429365672c628", "bike_id": "200b9d1ef5f66217f52429365672c628", "is_disabled": 0, "type": "electric_scooter", "lat": 38.91931616666667, "lon": -77.03178, "is_reserved": 0, "fusion_lon": 0.0}, {"rental_uris": {"ios": "https://dc.lft.to/lastmile_qr_scan", "android": "https://dc.lft.to/lastmile_qr_scan"}, "fusion_lat": 0.0, "name": "940d9c1c4da8b7495ae29cb501735ecf", "bike_id": "940d9c1c4da8b7495ae29cb501735ecf", "is_disabled": 0, "type": "electric_scooter", "lat": 38.9075995, "lon": -77.042616, "is_reserved": 0, "fusion_lon": 0.0}, {"rental_uris": {"ios": "https://dc.lft.to/lastmile_qr_scan", "android": "https://dc.lft.to/lastmile_qr_scan"}, "fusion_lat": 0.0, "name": "bdcc4cf96f78b1cad52bc81e3f573f3f", "bike_id": "bdcc4cf96f78b1cad52bc81e3f573f3f", "is_disabled": 0, "type": "electric_scooter", "lat": 38.898423333333334, "lon": -76.94635099999999, "is_reserved": 0, "fusion_lon": 0.0}, {"rental_uris": {"ios": "https://dc.lft.to/lastmile_qr_scan", "android": "https://dc.lft.to/lastmile_qr_scan"}, "fusion_lat": 0.0, "name": "c5250cbf4bc2999976c4e61560446be3", "bike_id": "c5250cbf4bc2999976c4e61560446be3", "is_disabled": 0, "type": "electric_bike", "lat": 38.893526333333334, "lon": -77.187434, "is_reserved": 0, "fusion_lon": 0.0}, {"rental_uris": {"ios": "https://dc.lft.to/lastmile_qr_scan", "android": "https://dc.lft.to/lastmile_qr_scan"}, "fusion_lat": 0.0, "name": "1347d687fd63655a53f4046c62fe6614", "bike_id": "1347d687fd63655a53f4046c62fe6614", "is_disabled": 0, "type": "electric_scooter", "lat": 38.91686833333333, "lon": -77.02686483333333, "is_reserved": 0, "fusion_lon": 0.0}, {"rental_uris": {"ios": "https://dc.lft.to/lastmile_qr_scan", "android": "https://dc.lft.to/lastmile_qr_scan"}, "fusion_lat": 0.0, "name": "675b65176da326dd02e3f01b1bb73f82", "bike_id": "675b65176da326dd02e3f01b1bb73f82", "is_disabled": 0, "type": "electric_scooter", "lat": 38.9361075, "lon": -77.05857883333333, "is_reserved": 0, "fusion_lon": 0.0}, {"rental_uris": {"ios": "https://dc.lft.to/lastmile_qr_scan", "android": "https://dc.lft.to/lastmile_qr_scan"}, "fusion_lat": 0.0, "name": "dc0186a406da175515ddb2c7fe3a30ce", "bike_id": "dc0186a406da175515ddb2c7fe3a30ce", "is_disabled": 0, "type": "electric_scooter", "lat": 38.90958083333334, "lon": -77.0327615, "is_reserved": 0, "fusion_lon": 0.0}, {"rental_uris": {"ios": "https://dc.lft.to/lastmile_qr_scan", "android": "https://dc.lft.to/lastmile_qr_scan"}, "fusion_lat": 0.0, "name": "9050d355b036cbbbf8916e17678b2250", "bike_id": "9050d355b036cbbbf8916e17678b2250", "is_disabled": 0, "type": "electric_scooter", "lat": 38.899304666666666, "lon": -77.03296583333334, "is_reserved": 0, "fusion_lon": 0.0}, {"rental_uris": {"ios": "https://dc.lft.to/lastmile_qr_scan", "android": "https://dc.lft.to/lastmile_qr_scan"}, "fusion_lat": 0.0, "name": "4101121508648af3009fdb588c036f9c", "bike_id": "4101121508648af3009fdb588c036f9c", "is_disabled": 0, "type": "electric_bike", "lat": 38.9627685, "lon": -76.98297633333334, "is_reserved": 0, "fusion_lon": 0.0}, {"rental_uris": {"ios": "https://dc.lft.to/lastmile_qr_scan", "android": "https://dc.lft.to/lastmile_qr_scan"}, "fusion_lat": 0.0, "name": "8cada2038f724bb9a9f3598e582082f2", "bike_id": "8cada2038f724bb9a9f3598e582082f2", "is_disabled": 0, "type": "electric_scooter", "lat": 38.9360145, "lon": -77.0585315, "is_reserved": 0, "fusion_lon": 0.0}, {"rental_uris": {"ios": "https://dc.lft.to/lastmile_qr_scan", "android": "https://dc.lft.to/lastmile_qr_scan"}, "fusion_lat": 0.0, "name": "84c910040c3a62e82ae371757ffeb3f1", "bike_id": "84c910040c3a62e82ae371757ffeb3f1", "is_disabled": 0, "type": "electric_bike", "lat": 38.9062125, "lon": -77.07023983333333, "is_reserved": 0, "fusion_lon": 0.0}, {"rental_uris": {"ios": "https://dc.lft.to/lastmile_qr_scan", "android": "https://dc.lft.to/lastmile_qr_scan"}, "fusion_lat": 0.0, "name": "f7008fc1f5b343fb9a8e3f4f26452a08", "bike_id": "f7008fc1f5b343fb9a8e3f4f26452a08", "is_disabled": 0, "type": "electric_scooter", "lat": 38.930107, "lon": -77.05527916666666, "is_reserved": 0, "fusion_lon": 0.0}, {"rental_uris": {"ios": "https://dc.lft.to/lastmile_qr_scan", "android": "https://dc.lft.to/lastmile_qr_scan"}, "fusion_lat": 0.0, "name": "5e3e6bf414960ca744eb9d6b8141009a", "bike_id": "5e3e6bf414960ca744eb9d6b8141009a", "is_disabled": 0, "type": "electric_scooter", "lat": 38.954214, "lon": -77.027662, "is_reserved": 0, "fusion_lon": 0.0}, {"rental_uris": {"ios": "https://dc.lft.to/lastmile_qr_scan", "android": "https://dc.lft.to/lastmile_qr_scan"}, "fusion_lat": 0.0, "name": "8572714b7f8d9dcd83809e378b603419", "bike_id": "8572714b7f8d9dcd83809e378b603419", "is_disabled": 0, "type": "electric_scooter", "lat": 38.93194833333333, "lon": -77.03307066666666, "is_reserved": 0, "fusion_lon": 0.0}, {"rental_uris": {"ios": "https://dc.lft.to/lastmile_qr_scan", "android": "https://dc.lft.to/lastmile_qr_scan"}, "fusion_lat": 0.0, "name": "84b0d04ca76d012210b1862fea84eceb", "bike_id": "84b0d04ca76d012210b1862fea84eceb", "is_disabled": 0, "type": "electric_scooter", "lat": 38.887330666666664, "lon": -77.028239, "is_reserved": 0, "fusion_lon": 0.0}, {"rental_uris": {"ios": "https://dc.lft.to/lastmile_qr_scan", "android": "https://dc.lft.to/lastmile_qr_scan"}, "fusion_lat": 0.0, "name": "92f6bebe46540a4e9e26092d7f494bb9", "bike_id": "92f6bebe46540a4e9e26092d7f494bb9", "is_disabled": 0, "type": "electric_scooter", "lat": 38.90681133333333, "lon": -77.026929, "is_reserved": 0, "fusion_lon": 0.0}, {"rental_uris": {"ios": "https://dc.lft.to/lastmile_qr_scan", "android": "https://dc.lft.to/lastmile_qr_scan"}, "fusion_lat": 0.0, "name": "d70065e536e74a5f758eb98898214bcf", "bike_id": "d70065e536e74a5f758eb98898214bcf", "is_disabled": 0, "type": "electric_scooter", "lat": 38.93550166666667, "lon": -77.0222775, "is_reserved": 0, "fusion_lon": 0.0}, {"rental_uris": {"ios": "https://dc.lft.to/lastmile_qr_scan", "android": "https://dc.lft.to/lastmile_qr_scan"}, "fusion_lat": 0.0, "name": "76762d4afa437883cabf7f0eebd9bb92", "bike_id": "76762d4afa437883cabf7f0eebd9bb92", "is_disabled": 0, "type": "electric_bike", "lat": 38.8638745, "lon": -76.989899, "is_reserved": 0, "fusion_lon": 0.0}, {"rental_uris": {"ios": "https://dc.lft.to/lastmile_qr_scan", "android": "https://dc.lft.to/lastmile_qr_scan"}, "fusion_lat": 0.0, "name": "23d6065777a9b00f657dbe89de2b6062", "bike_id": "23d6065777a9b00f657dbe89de2b6062", "is_disabled": 0, "type": "electric_scooter", "lat": 38.869550333333336, "lon": -76.96683616666667, "is_reserved": 0, "fusion_lon": 0.0}, {"rental_uris": {"ios": "https://dc.lft.to/lastmile_qr_scan", "android": "https://dc.lft.to/lastmile_qr_scan"}, "fusion_lat": 0.0, "name": "b4df346c8eddff2ad3bf41c7f261fb85", "bike_id": "b4df346c8eddff2ad3bf41c7f261fb85", "is_disabled": 0, "type": "electric_scooter", "lat": 38.939412, "lon": -77.07520916666667, "is_reserved": 0, "fusion_lon": 0.0}, {"rental_uris": {"ios": "https://dc.lft.to/lastmile_qr_scan", "android": "https://dc.lft.to/lastmile_qr_scan"}, "fusion_lat": 0.0, "name": "f7ba29e2fb44ae1af62c6f2d1926ad56", "bike_id": "f7ba29e2fb44ae1af62c6f2d1926ad56", "is_disabled": 0, "type": "electric_scooter", "lat": 38.919275166666665, "lon": -77.02417383333334, "is_reserved": 0, "fusion_lon": 0.0}, {"rental_uris": {"ios": "https://dc.lft.to/lastmile_qr_scan", "android": "https://dc.lft.to/lastmile_qr_scan"}, "fusion_lat": 0.0, "name": "c9fcc17711977d3efb70ca2933a4823b", "bike_id": "c9fcc17711977d3efb70ca2933a4823b", "is_disabled": 0, "type": "electric_scooter", "lat": 38.930748666666666, "lon": -77.02160366666666, "is_reserved": 0, "fusion_lon": 0.0}, {"rental_uris": {"ios": "https://dc.lft.to/lastmile_qr_scan", "android": "https://dc.lft.to/lastmile_qr_scan"}, "fusion_lat": 0.0, "name": "3b2c5bc1e96de22ef1ed05087429a8dd", "bike_id": "3b2c5bc1e96de22ef1ed05087429a8dd", "is_disabled": 0, "type": "electric_scooter", "lat": 38.896741, "lon": -76.9476355, "is_reserved": 0, "fusion_lon": 0.0}, {"rental_uris": {"ios": "https://dc.lft.to/lastmile_qr_scan", "android": "https://dc.lft.to/lastmile_qr_scan"}, "fusion_lat": 0.0, "name": "4c85f8ad2815bc03178313111bd80dc9", "bike_id": "4c85f8ad2815bc03178313111bd80dc9", "is_disabled": 0, "type": "electric_bike", "lat": 38.885757, "lon": -77.06078016666666, "is_reserved": 0, "fusion_lon": 0.0}, {"rental_uris": {"ios": "https://dc.lft.to/lastmile_qr_scan", "android": "https://dc.lft.to/lastmile_qr_scan"}, "fusion_lat": 0.0, "name": "75add6b23d07cb2d57b488e512619b46", "bike_id": "75add6b23d07cb2d57b488e512619b46", "is_disabled": 0, "type": "electric_scooter", "lat": 38.906637833333335, "lon": -77.02685283333334, "is_reserved": 0, "fusion_lon": 0.0}, {"rental_uris": {"ios": "https://dc.lft.to/lastmile_qr_scan", "android": "https://dc.lft.to/lastmile_qr_scan"}, "fusion_lat": 0.0, "name": "a674b93ddc53d6609289aa6ebffa6252", "bike_id": "a674b93ddc53d6609289aa6ebffa6252", "is_disabled": 0, "type": "electric_bike", "lat": 39.03044883333333, "lon": -77.09476066666667, "is_reserved": 0, "fusion_lon": 0.0}, {"rental_uris": {"ios": "https://dc.lft.to/lastmile_qr_scan", "android": "https://dc.lft.to/lastmile_qr_scan"}, "fusion_lat": 0.0, "name": "b2f0c8fb58bc948cd64f9375ac611576", "bike_id": "b2f0c8fb58bc948cd64f9375ac611576", "is_disabled": 0, "type": "electric_scooter", "lat": 38.93856683333333, "lon": -77.03095116666667, "is_reserved": 0, "fusion_lon": 0.0}, {"rental_uris": {"ios": "https://dc.lft.to/lastmile_qr_scan", "android": "https://dc.lft.to/lastmile_qr_scan"}, "fusion_lat": 0.0, "name": "639640799b812a888a5e055efadab53c", "bike_id": "639640799b812a888a5e055efadab53c", "is_disabled": 0, "type": "electric_scooter", "lat": 38.9321505, "lon": -77.0337805, "is_reserved": 0, "fusion_lon": 0.0}, {"rental_uris": {"ios": "https://dc.lft.to/lastmile_qr_scan", "android": "https://dc.lft.to/lastmile_qr_scan"}, "fusion_lat": 0.0, "name": "25a91890037798409a8fab77c8bfdea2", "bike_id": "25a91890037798409a8fab77c8bfdea2", "is_disabled": 0, "type": "electric_scooter", "lat": 38.96110516666667, "lon": -77.02845916666666, "is_reserved": 0, "fusion_lon": 0.0}, {"rental_uris": {"ios": "https://dc.lft.to/lastmile_qr_scan", "android": "https://dc.lft.to/lastmile_qr_scan"}, "fusion_lat": 0.0, "name": "3c7c2507a97fb8dd5b5c502d37c834ca", "bike_id": "3c7c2507a97fb8dd5b5c502d37c834ca", "is_disabled": 0, "type": "electric_bike", "lat": 39.024322833333336, "lon": -77.13101583333334, "is_reserved": 0, "fusion_lon": 0.0}, {"rental_uris": {"ios": "https://dc.lft.to/lastmile_qr_scan", "android": "https://dc.lft.to/lastmile_qr_scan"}, "fusion_lat": 0.0, "name": "cbf774c144b01c06c547aa728350e710", "bike_id": "cbf774c144b01c06c547aa728350e710", "is_disabled": 0, "type": "electric_scooter", "lat": 38.93523966666667, "lon": -77.03349666666666, "is_reserved": 0, "fusion_lon": 0.0}, {"rental_uris": {"ios": "https://dc.lft.to/lastmile_qr_scan", "android": "https://dc.lft.to/lastmile_qr_scan"}, "fusion_lat": 0.0, "name": "b47ae4c7de516cd3f08dbf4fe54d7c65", "bike_id": "b47ae4c7de516cd3f08dbf4fe54d7c65", "is_disabled": 0, "type": "electric_scooter", "lat": 38.907822, "lon": -77.03295783333333, "is_reserved": 0, "fusion_lon": 0.0}, {"rental_uris": {"ios": "https://dc.lft.to/lastmile_qr_scan", "android": "https://dc.lft.to/lastmile_qr_scan"}, "fusion_lat": 0.0, "name": "c46586b1cfef7128aa093d69c7d01eaf", "bike_id": "c46586b1cfef7128aa093d69c7d01eaf", "is_disabled": 0, "type": "electric_scooter", "lat": 38.924488, "lon": -76.98996383333333, "is_reserved": 0, "fusion_lon": 0.0}, {"rental_uris": {"ios": "https://dc.lft.to/lastmile_qr_scan", "android": "https://dc.lft.to/lastmile_qr_scan"}, "fusion_lat": 0.0, "name": "538407a9de8ade764417d5657b137c47", "bike_id": "538407a9de8ade764417d5657b137c47", "is_disabled": 0, "type": "electric_scooter", "lat": 38.90009766666667, "lon": -77.0117195, "is_reserved": 0, "fusion_lon": 0.0}, {"rental_uris": {"ios": "https://dc.lft.to/lastmile_qr_scan", "android": "https://dc.lft.to/lastmile_qr_scan"}, "fusion_lat": 0.0, "name": "49e74376efd7f4f5156fcbfa672ecb38", "bike_id": "49e74376efd7f4f5156fcbfa672ecb38", "is_disabled": 0, "type": "electric_scooter", "lat": 38.876432333333334, "lon": -77.00729216666667, "is_reserved": 0, "fusion_lon": 0.0}, {"rental_uris": {"ios": "https://dc.lft.to/lastmile_qr_scan", "android": "https://dc.lft.to/lastmile_qr_scan"}, "fusion_lat": 0.0, "name": "1ea82b8388bcf80601529847296e21ea", "bike_id": "1ea82b8388bcf80601529847296e21ea", "is_disabled": 0, "type": "electric_scooter", "lat": 38.89218366666667, "lon": -77.02656716666667, "is_reserved": 0, "fusion_lon": 0.0}, {"rental_uris": {"ios": "https://dc.lft.to/lastmile_qr_scan", "android": "https://dc.lft.to/lastmile_qr_scan"}, "fusion_lat": 0.0, "name": "c4f30002e93ff5c1eb8b628545856ecd", "bike_id": "c4f30002e93ff5c1eb8b628545856ecd", "is_disabled": 0, "type": "electric_scooter", "lat": 38.89228416666667, "lon": -77.05007033333334, "is_reserved": 0, "fusion_lon": 0.0}, {"rental_uris": {"ios": "https://dc.lft.to/lastmile_qr_scan", "android": "https://dc.lft.to/lastmile_qr_scan"}, "fusion_lat": 0.0, "name": "68843f6475969a31dec3bcc85fa82c0f", "bike_id": "68843f6475969a31dec3bcc85fa82c0f", "is_disabled": 0, "type": "electric_scooter", "lat": 38.898817, "lon": -76.9317765, "is_reserved": 0, "fusion_lon": 0.0}, {"rental_uris": {"ios": "https://dc.lft.to/lastmile_qr_scan", "android": "https://dc.lft.to/lastmile_qr_scan"}, "fusion_lat": 0.0, "name": "07eef02e87e106801d5d898c59f38b29", "bike_id": "07eef02e87e106801d5d898c59f38b29", "is_disabled": 0, "type": "electric_bike", "lat": 38.8621185, "lon": -76.99776616666666, "is_reserved": 0, "fusion_lon": 0.0}, {"rental_uris": {"ios": "https://dc.lft.to/lastmile_qr_scan", "android": "https://dc.lft.to/lastmile_qr_scan"}, "fusion_lat": 0.0, "name": "ca0148e06d1117129f83ae522c9bdbdc", "bike_id": "ca0148e06d1117129f83ae522c9bdbdc", "is_disabled": 0, "type": "electric_scooter", "lat": 38.9186725, "lon": -77.0352005, "is_reserved": 0, "fusion_lon": 0.0}, {"rental_uris": {"ios": "https://dc.lft.to/lastmile_qr_scan", "android": "https://dc.lft.to/lastmile_qr_scan"}, "fusion_lat": 0.0, "name": "3adea04bcd0f448e9046d399a228fefc", "bike_id": "3adea04bcd0f448e9046d399a228fefc", "is_disabled": 0, "type": "electric_scooter", "lat": 38.92853233333334, "lon": -77.030965, "is_reserved": 0, "fusion_lon": 0.0}, {"rental_uris": {"ios": "https://dc.lft.to/lastmile_qr_scan", "android": "https://dc.lft.to/lastmile_qr_scan"}, "fusion_lat": 0.0, "name": "3029facb3cf8a68d33fb7a5529f48e5a", "bike_id": "3029facb3cf8a68d33fb7a5529f48e5a", "is_disabled": 0, "type": "electric_scooter", "lat": 38.91762266666667, "lon": -77.02709083333333, "is_reserved": 0, "fusion_lon": 0.0}, {"rental_uris": {"ios": "https://dc.lft.to/lastmile_qr_scan", "android": "https://dc.lft.to/lastmile_qr_scan"}, "fusion_lat": 0.0, "name": "a5ab4605354725b5c79ee93a22c29cd4", "bike_id": "a5ab4605354725b5c79ee93a22c29cd4", "is_disabled": 0, "type": "electric_scooter", "lat": 38.92819716666666, "lon": -77.02874633333333, "is_reserved": 0, "fusion_lon": 0.0}, {"rental_uris": {"ios": "https://dc.lft.to/lastmile_qr_scan", "android": "https://dc.lft.to/lastmile_qr_scan"}, "fusion_lat": 0.0, "name": "f9ce160f93e60cef97f8dfaeb0bfd7d4", "bike_id": "f9ce160f93e60cef97f8dfaeb0bfd7d4", "is_disabled": 0, "type": "electric_scooter", "lat": 38.915927833333335, "lon": -77.0318855, "is_reserved": 0, "fusion_lon": 0.0}, {"rental_uris": {"ios": "https://dc.lft.to/lastmile_qr_scan", "android": "https://dc.lft.to/lastmile_qr_scan"}, "fusion_lat": 0.0, "name": "a18f8acbf70550732a106d691718a255", "bike_id": "a18f8acbf70550732a106d691718a255", "is_disabled": 0, "type": "electric_scooter", "lat": 38.866526666666665, "lon": -76.9851325, "is_reserved": 0, "fusion_lon": 0.0}, {"rental_uris": {"ios": "https://dc.lft.to/lastmile_qr_scan", "android": "https://dc.lft.to/lastmile_qr_scan"}, "fusion_lat": 0.0, "name": "0b02a0685d00c807af5e70cb1862566b", "bike_id": "0b02a0685d00c807af5e70cb1862566b", "is_disabled": 0, "type": "electric_bike", "lat": 38.87086983333333, "lon": -77.01212766666667, "is_reserved": 0, "fusion_lon": 0.0}, {"rental_uris": {"ios": "https://dc.lft.to/lastmile_qr_scan", "android": "https://dc.lft.to/lastmile_qr_scan"}, "fusion_lat": 0.0, "name": "8bfb6fe83216b8fac3b87c4af0e4adaf", "bike_id": "8bfb6fe83216b8fac3b87c4af0e4adaf", "is_disabled": 0, "type": "electric_scooter", "lat": 38.914222333333335, "lon": -77.03929516666666, "is_reserved": 0, "fusion_lon": 0.0}, {"rental_uris": {"ios": "https://dc.lft.to/lastmile_qr_scan", "android": "https://dc.lft.to/lastmile_qr_scan"}, "fusion_lat": 0.0, "name": "11c457c119e7eeda8fd038d3b1dbd585", "bike_id": "11c457c119e7eeda8fd038d3b1dbd585", "is_disabled": 0, "type": "electric_scooter", "lat": 38.930179333333335, "lon": -77.04457566666666, "is_reserved": 0, "fusion_lon": 0.0}, {"rental_uris": {"ios": "https://dc.lft.to/lastmile_qr_scan", "android": "https://dc.lft.to/lastmile_qr_scan"}, "fusion_lat": 0.0, "name": "5e933485f1f7ef19a7d1b569b1c83659", "bike_id": "5e933485f1f7ef19a7d1b569b1c83659", "is_disabled": 0, "type": "electric_scooter", "lat": 38.864959166666665, "lon": -76.98986783333334, "is_reserved": 0, "fusion_lon": 0.0}, {"rental_uris": {"ios": "https://dc.lft.to/lastmile_qr_scan", "android": "https://dc.lft.to/lastmile_qr_scan"}, "fusion_lat": 0.0, "name": "d625638345f19337ac02e709c9dd38ef", "bike_id": "d625638345f19337ac02e709c9dd38ef", "is_disabled": 0, "type": "electric_scooter", "lat": 38.89514483333333, "lon": -76.97730016666667, "is_reserved": 0, "fusion_lon": 0.0}, {"rental_uris": {"ios": "https://dc.lft.to/lastmile_qr_scan", "android": "https://dc.lft.to/lastmile_qr_scan"}, "fusion_lat": 0.0, "name": "eed8cdc59593728584f79d910fdb3854", "bike_id": "eed8cdc59593728584f79d910fdb3854", "is_disabled": 0, "type": "electric_scooter", "lat": 38.9444865, "lon": -77.06357866666667, "is_reserved": 0, "fusion_lon": 0.0}, {"rental_uris": {"ios": "https://dc.lft.to/lastmile_qr_scan", "android": "https://dc.lft.to/lastmile_qr_scan"}, "fusion_lat": 0.0, "name": "4e7add970ee19b153df8ece492d5df85", "bike_id": "4e7add970ee19b153df8ece492d5df85", "is_disabled": 0, "type": "electric_scooter", "lat": 38.89219383333333, "lon": -77.03165916666667, "is_reserved": 0, "fusion_lon": 0.0}, {"rental_uris": {"ios": "https://dc.lft.to/lastmile_qr_scan", "android": "https://dc.lft.to/lastmile_qr_scan"}, "fusion_lat": 0.0, "name": "a1999208c9f064cce0b63b00dce93797", "bike_id": "a1999208c9f064cce0b63b00dce93797", "is_disabled": 0, "type": "electric_scooter", "lat": 38.895394833333334, "lon": -77.01604333333333, "is_reserved": 0, "fusion_lon": 0.0}, {"rental_uris": {"ios": "https://dc.lft.to/lastmile_qr_scan", "android": "https://dc.lft.to/lastmile_qr_scan"}, "fusion_lat": 0.0, "name": "787a1a000fbb39a265d8982355ddd607", "bike_id": "787a1a000fbb39a265d8982355ddd607", "is_disabled": 0, "type": "electric_scooter", "lat": 38.95426466666667, "lon": -77.0276485, "is_reserved": 0, "fusion_lon": 0.0}, {"rental_uris": {"ios": "https://dc.lft.to/lastmile_qr_scan", "android": "https://dc.lft.to/lastmile_qr_scan"}, "fusion_lat": 0.0, "name": "d3f31489b0d5596917a5abd9b24749bd", "bike_id": "d3f31489b0d5596917a5abd9b24749bd", "is_disabled": 0, "type": "electric_scooter", "lat": 38.8997655, "lon": -76.93991766666667, "is_reserved": 0, "fusion_lon": 0.0}, {"rental_uris": {"ios": "https://dc.lft.to/lastmile_qr_scan", "android": "https://dc.lft.to/lastmile_qr_scan"}, "fusion_lat": 0.0, "name": "c00538911e4637c0a444a5947e011e55", "bike_id": "c00538911e4637c0a444a5947e011e55", "is_disabled": 0, "type": "electric_scooter", "lat": 38.9103095, "lon": -77.0426205, "is_reserved": 0, "fusion_lon": 0.0}, {"rental_uris": {"ios": "https://dc.lft.to/lastmile_qr_scan", "android": "https://dc.lft.to/lastmile_qr_scan"}, "fusion_lat": 0.0, "name": "4d755fdcbafa5e49a16aff1766eee52a", "bike_id": "4d755fdcbafa5e49a16aff1766eee52a", "is_disabled": 0, "type": "electric_scooter", "lat": 38.899280166666664, "lon": -77.00359083333333, "is_reserved": 0, "fusion_lon": 0.0}, {"rental_uris": {"ios": "https://dc.lft.to/lastmile_qr_scan", "android": "https://dc.lft.to/lastmile_qr_scan"}, "fusion_lat": 0.0, "name": "ce4fbe28f12950f04d52f021e5a7609b", "bike_id": "ce4fbe28f12950f04d52f021e5a7609b", "is_disabled": 0, "type": "electric_scooter", "lat": 38.921483333333335, "lon": -77.03511566666667, "is_reserved": 0, "fusion_lon": 0.0}, {"rental_uris": {"ios": "https://dc.lft.to/lastmile_qr_scan", "android": "https://dc.lft.to/lastmile_qr_scan"}, "fusion_lat": 0.0, "name": "bb5d477c8e6f066c03cae0dff2d46751", "bike_id": "bb5d477c8e6f066c03cae0dff2d46751", "is_disabled": 0, "type": "electric_scooter", "lat": 38.91852266666667, "lon": -77.039041, "is_reserved": 0, "fusion_lon": 0.0}, {"rental_uris": {"ios": "https://dc.lft.to/lastmile_qr_scan", "android": "https://dc.lft.to/lastmile_qr_scan"}, "fusion_lat": 0.0, "name": "d451dfc81883622dca60858b2e46ab5c", "bike_id": "d451dfc81883622dca60858b2e46ab5c", "is_disabled": 0, "type": "electric_scooter", "lat": 38.90261266666667, "lon": -76.97708616666667, "is_reserved": 0, "fusion_lon": 0.0}, {"rental_uris": {"ios": "https://dc.lft.to/lastmile_qr_scan", "android": "https://dc.lft.to/lastmile_qr_scan"}, "fusion_lat": 0.0, "name": "d2e7142a2c04d7c6f61c03ada12b2bcf", "bike_id": "d2e7142a2c04d7c6f61c03ada12b2bcf", "is_disabled": 0, "type": "electric_scooter", "lat": 38.919493, "lon": -76.98080566666667, "is_reserved": 0, "fusion_lon": 0.0}, {"rental_uris": {"ios": "https://dc.lft.to/lastmile_qr_scan", "android": "https://dc.lft.to/lastmile_qr_scan"}, "fusion_lat": 0.0, "name": "b18dae9cca3495423279f6c20d784b26", "bike_id": "b18dae9cca3495423279f6c20d784b26", "is_disabled": 0, "type": "electric_bike", "lat": 38.95593216666666, "lon": -77.01006383333333, "is_reserved": 0, "fusion_lon": 0.0}, {"rental_uris": {"ios": "https://dc.lft.to/lastmile_qr_scan", "android": "https://dc.lft.to/lastmile_qr_scan"}, "fusion_lat": 0.0, "name": "a0ef8d94c52ccc9cf53f69e6fb74b4ad", "bike_id": "a0ef8d94c52ccc9cf53f69e6fb74b4ad", "is_disabled": 0, "type": "electric_scooter", "lat": 38.902498, "lon": -77.03876783333334, "is_reserved": 0, "fusion_lon": 0.0}, {"rental_uris": {"ios": "https://dc.lft.to/lastmile_qr_scan", "android": "https://dc.lft.to/lastmile_qr_scan"}, "fusion_lat": 0.0, "name": "0cacb14fd149b39354f62356c8c4ad36", "bike_id": "0cacb14fd149b39354f62356c8c4ad36", "is_disabled": 0, "type": "electric_scooter", "lat": 38.93080783333333, "lon": -77.03425133333333, "is_reserved": 0, "fusion_lon": 0.0}, {"rental_uris": {"ios": "https://dc.lft.to/lastmile_qr_scan", "android": "https://dc.lft.to/lastmile_qr_scan"}, "fusion_lat": 0.0, "name": "788d0d468712ebe3fe87e94f154c699f", "bike_id": "788d0d468712ebe3fe87e94f154c699f", "is_disabled": 0, "type": "electric_scooter", "lat": 38.89378266666667, "lon": -77.0465255, "is_reserved": 0, "fusion_lon": 0.0}, {"rental_uris": {"ios": "https://dc.lft.to/lastmile_qr_scan", "android": "https://dc.lft.to/lastmile_qr_scan"}, "fusion_lat": 0.0, "name": "5cf521a328a61d1225cf02d8090e079e", "bike_id": "5cf521a328a61d1225cf02d8090e079e", "is_disabled": 0, "type": "electric_scooter", "lat": 38.88524816666666, "lon": -77.01133833333333, "is_reserved": 0, "fusion_lon": 0.0}, {"rental_uris": {"ios": "https://dc.lft.to/lastmile_qr_scan", "android": "https://dc.lft.to/lastmile_qr_scan"}, "fusion_lat": 0.0, "name": "0c47f55b5e9ee3dc99bd23baec46e3c4", "bike_id": "0c47f55b5e9ee3dc99bd23baec46e3c4", "is_disabled": 0, "type": "electric_scooter", "lat": 38.95965016666667, "lon": -77.00857466666666, "is_reserved": 0, "fusion_lon": 0.0}, {"rental_uris": {"ios": "https://dc.lft.to/lastmile_qr_scan", "android": "https://dc.lft.to/lastmile_qr_scan"}, "fusion_lat": 0.0, "name": "b0850b29f3b9eaba8c7ab3436a113cb9", "bike_id": "b0850b29f3b9eaba8c7ab3436a113cb9", "is_disabled": 0, "type": "electric_bike", "lat": 38.8625465, "lon": -77.0884725, "is_reserved": 0, "fusion_lon": 0.0}, {"rental_uris": {"ios": "https://dc.lft.to/lastmile_qr_scan", "android": "https://dc.lft.to/lastmile_qr_scan"}, "fusion_lat": 0.0, "name": "c50b671512a345b076c4ba81d9b7c341", "bike_id": "c50b671512a345b076c4ba81d9b7c341", "is_disabled": 0, "type": "electric_scooter", "lat": 38.874080166666666, "lon": -77.00578466666667, "is_reserved": 0, "fusion_lon": 0.0}, {"rental_uris": {"ios": "https://dc.lft.to/lastmile_qr_scan", "android": "https://dc.lft.to/lastmile_qr_scan"}, "fusion_lat": 0.0, "name": "3da650bda99506229b9b748bf62126fc", "bike_id": "3da650bda99506229b9b748bf62126fc", "is_disabled": 0, "type": "electric_scooter", "lat": 38.911348333333336, "lon": -77.0219815, "is_reserved": 0, "fusion_lon": 0.0}, {"rental_uris": {"ios": "https://dc.lft.to/lastmile_qr_scan", "android": "https://dc.lft.to/lastmile_qr_scan"}, "fusion_lat": 0.0, "name": "64eb7687df38d2963c901670d5fbf263", "bike_id": "64eb7687df38d2963c901670d5fbf263", "is_disabled": 0, "type": "electric_scooter", "lat": 38.90975666666667, "lon": -77.04413333333333, "is_reserved": 0, "fusion_lon": 0.0}, {"rental_uris": {"ios": "https://dc.lft.to/lastmile_qr_scan", "android": "https://dc.lft.to/lastmile_qr_scan"}, "fusion_lat": 0.0, "name": "ba46fc06ac31b1480ec0d0f00338a18f", "bike_id": "ba46fc06ac31b1480ec0d0f00338a18f", "is_disabled": 0, "type": "electric_scooter", "lat": 38.961628166666664, "lon": -77.027875, "is_reserved": 0, "fusion_lon": 0.0}, {"rental_uris": {"ios": "https://dc.lft.to/lastmile_qr_scan", "android": "https://dc.lft.to/lastmile_qr_scan"}, "fusion_lat": 0.0, "name": "655a21e663c4248d1665121b3bb8e722", "bike_id": "655a21e663c4248d1665121b3bb8e722", "is_disabled": 0, "type": "electric_scooter", "lat": 38.90801883333334, "lon": -77.0433295, "is_reserved": 0, "fusion_lon": 0.0}, {"rental_uris": {"ios": "https://dc.lft.to/lastmile_qr_scan", "android": "https://dc.lft.to/lastmile_qr_scan"}, "fusion_lat": 0.0, "name": "b11b3d8410f2a1d1c3c8a6862757a5b4", "bike_id": "b11b3d8410f2a1d1c3c8a6862757a5b4", "is_disabled": 0, "type": "electric_scooter", "lat": 38.90410983333334, "lon": -77.03237, "is_reserved": 0, "fusion_lon": 0.0}, {"rental_uris": {"ios": "https://dc.lft.to/lastmile_qr_scan", "android": "https://dc.lft.to/lastmile_qr_scan"}, "fusion_lat": 0.0, "name": "7ef5beab2eaf14672870d5db9e10b011", "bike_id": "7ef5beab2eaf14672870d5db9e10b011", "is_disabled": 0, "type": "electric_scooter", "lat": 38.901756166666665, "lon": -77.01307383333334, "is_reserved": 0, "fusion_lon": 0.0}, {"rental_uris": {"ios": "https://dc.lft.to/lastmile_qr_scan", "android": "https://dc.lft.to/lastmile_qr_scan"}, "fusion_lat": 0.0, "name": "0240e297ec012c16070ccca4a1e680f3", "bike_id": "0240e297ec012c16070ccca4a1e680f3", "is_disabled": 0, "type": "electric_scooter", "lat": 38.88712233333333, "lon": -77.01764483333334, "is_reserved": 0, "fusion_lon": 0.0}, {"rental_uris": {"ios": "https://dc.lft.to/lastmile_qr_scan", "android": "https://dc.lft.to/lastmile_qr_scan"}, "fusion_lat": 0.0, "name": "04c326af45794b5f2a2bfec648f56bea", "bike_id": "04c326af45794b5f2a2bfec648f56bea", "is_disabled": 0, "type": "electric_scooter", "lat": 38.91271883333334, "lon": -77.03638333333333, "is_reserved": 0, "fusion_lon": 0.0}, {"rental_uris": {"ios": "https://dc.lft.to/lastmile_qr_scan", "android": "https://dc.lft.to/lastmile_qr_scan"}, "fusion_lat": 0.0, "name": "12b924883927ed1ddc5e104d2c3b55f9", "bike_id": "12b924883927ed1ddc5e104d2c3b55f9", "is_disabled": 0, "type": "electric_scooter", "lat": 38.91905283333333, "lon": -77.0318475, "is_reserved": 0, "fusion_lon": 0.0}, {"rental_uris": {"ios": "https://dc.lft.to/lastmile_qr_scan", "android": "https://dc.lft.to/lastmile_qr_scan"}, "fusion_lat": 0.0, "name": "b0bd54a403b7ed1649d1fc7fe73347bb", "bike_id": "b0bd54a403b7ed1649d1fc7fe73347bb", "is_disabled": 0, "type": "electric_scooter", "lat": 38.90890066666667, "lon": -77.026966, "is_reserved": 0, "fusion_lon": 0.0}, {"rental_uris": {"ios": "https://dc.lft.to/lastmile_qr_scan", "android": "https://dc.lft.to/lastmile_qr_scan"}, "fusion_lat": 0.0, "name": "4c286fe2616878ad6576b56405882fd8", "bike_id": "4c286fe2616878ad6576b56405882fd8", "is_disabled": 0, "type": "electric_bike", "lat": 38.907886500000004, "lon": -77.04729033333334, "is_reserved": 0, "fusion_lon": 0.0}, {"rental_uris": {"ios": "https://dc.lft.to/lastmile_qr_scan", "android": "https://dc.lft.to/lastmile_qr_scan"}, "fusion_lat": 0.0, "name": "f5881798966dee5285a25399d3428194", "bike_id": "f5881798966dee5285a25399d3428194", "is_disabled": 0, "type": "electric_scooter", "lat": 38.9247875, "lon": -77.03500616666666, "is_reserved": 0, "fusion_lon": 0.0}, {"rental_uris": {"ios": "https://dc.lft.to/lastmile_qr_scan", "android": "https://dc.lft.to/lastmile_qr_scan"}, "fusion_lat": 0.0, "name": "b1b1a7948aa1326d7a6f55ff01d463e8", "bike_id": "b1b1a7948aa1326d7a6f55ff01d463e8", "is_disabled": 0, "type": "electric_scooter", "lat": 38.91405133333333, "lon": -77.03221616666667, "is_reserved": 0, "fusion_lon": 0.0}, {"rental_uris": {"ios": "https://dc.lft.to/lastmile_qr_scan", "android": "https://dc.lft.to/lastmile_qr_scan"}, "fusion_lat": 0.0, "name": "924e3ad622f68ec1935128c45cd936c0", "bike_id": "924e3ad622f68ec1935128c45cd936c0", "is_disabled": 0, "type": "electric_scooter", "lat": 38.92486933333333, "lon": -77.02261416666667, "is_reserved": 0, "fusion_lon": 0.0}, {"rental_uris": {"ios": "https://dc.lft.to/lastmile_qr_scan", "android": "https://dc.lft.to/lastmile_qr_scan"}, "fusion_lat": 0.0, "name": "c55f78e3d0139de9b716a27001f5503e", "bike_id": "c55f78e3d0139de9b716a27001f5503e", "is_disabled": 0, "type": "electric_scooter", "lat": 38.895855166666664, "lon": -76.9483805, "is_reserved": 0, "fusion_lon": 0.0}, {"rental_uris": {"ios": "https://dc.lft.to/lastmile_qr_scan", "android": "https://dc.lft.to/lastmile_qr_scan"}, "fusion_lat": 0.0, "name": "96571275ef76cea5c5317ca439e067da", "bike_id": "96571275ef76cea5c5317ca439e067da", "is_disabled": 0, "type": "electric_scooter", "lat": 38.914029666666664, "lon": -77.02893216666666, "is_reserved": 0, "fusion_lon": 0.0}, {"rental_uris": {"ios": "https://dc.lft.to/lastmile_qr_scan", "android": "https://dc.lft.to/lastmile_qr_scan"}, "fusion_lat": 0.0, "name": "fc436ce27ed590ec5afdeedc5345edd8", "bike_id": "fc436ce27ed590ec5afdeedc5345edd8", "is_disabled": 0, "type": "electric_scooter", "lat": 38.901408333333336, "lon": -77.0446405, "is_reserved": 0, "fusion_lon": 0.0}, {"rental_uris": {"ios": "https://dc.lft.to/lastmile_qr_scan", "android": "https://dc.lft.to/lastmile_qr_scan"}, "fusion_lat": 0.0, "name": "d6cc298b4dea1bb6cd063adf181996ac", "bike_id": "d6cc298b4dea1bb6cd063adf181996ac", "is_disabled": 0, "type": "electric_scooter", "lat": 38.90551333333333, "lon": -77.04559383333333, "is_reserved": 0, "fusion_lon": 0.0}, {"rental_uris": {"ios": "https://dc.lft.to/lastmile_qr_scan", "android": "https://dc.lft.to/lastmile_qr_scan"}, "fusion_lat": 0.0, "name": "108cc843b65c9f1431a4e1a0fd5d2c82", "bike_id": "108cc843b65c9f1431a4e1a0fd5d2c82", "is_disabled": 0, "type": "electric_scooter", "lat": 38.9140825, "lon": -77.043597, "is_reserved": 0, "fusion_lon": 0.0}, {"rental_uris": {"ios": "https://dc.lft.to/lastmile_qr_scan", "android": "https://dc.lft.to/lastmile_qr_scan"}, "fusion_lat": 0.0, "name": "e9b46d8d12a51d9f5c7c0209873c81a7", "bike_id": "e9b46d8d12a51d9f5c7c0209873c81a7", "is_disabled": 0, "type": "electric_scooter", "lat": 38.90375783333333, "lon": -77.03292116666667, "is_reserved": 0, "fusion_lon": 0.0}, {"rental_uris": {"ios": "https://dc.lft.to/lastmile_qr_scan", "android": "https://dc.lft.to/lastmile_qr_scan"}, "fusion_lat": 0.0, "name": "a01bb19ce9fe993982d45617d07940fa", "bike_id": "a01bb19ce9fe993982d45617d07940fa", "is_disabled": 0, "type": "electric_scooter", "lat": 38.89987816666667, "lon": -77.0318705, "is_reserved": 0, "fusion_lon": 0.0}, {"rental_uris": {"ios": "https://dc.lft.to/lastmile_qr_scan", "android": "https://dc.lft.to/lastmile_qr_scan"}, "fusion_lat": 0.0, "name": "696283cbbbc18348ed7e58c70627fc11", "bike_id": "696283cbbbc18348ed7e58c70627fc11", "is_disabled": 0, "type": "electric_scooter", "lat": 38.921481166666666, "lon": -77.0423225, "is_reserved": 0, "fusion_lon": 0.0}, {"rental_uris": {"ios": "https://dc.lft.to/lastmile_qr_scan", "android": "https://dc.lft.to/lastmile_qr_scan"}, "fusion_lat": 0.0, "name": "b193d1ae144e392ac35e8450a948b01a", "bike_id": "b193d1ae144e392ac35e8450a948b01a", "is_disabled": 0, "type": "electric_scooter", "lat": 38.867299833333334, "lon": -76.98657816666666, "is_reserved": 0, "fusion_lon": 0.0}, {"rental_uris": {"ios": "https://dc.lft.to/lastmile_qr_scan", "android": "https://dc.lft.to/lastmile_qr_scan"}, "fusion_lat": 0.0, "name": "c8828139ea45b16fffd985c4b15e47fb", "bike_id": "c8828139ea45b16fffd985c4b15e47fb", "is_disabled": 0, "type": "electric_scooter", "lat": 38.917081333333336, "lon": -77.04125983333333, "is_reserved": 0, "fusion_lon": 0.0}, {"rental_uris": {"ios": "https://dc.lft.to/lastmile_qr_scan", "android": "https://dc.lft.to/lastmile_qr_scan"}, "fusion_lat": 0.0, "name": "42bebf469cfa15aa282458deb913df5b", "bike_id": "42bebf469cfa15aa282458deb913df5b", "is_disabled": 0, "type": "electric_scooter", "lat": 38.86242416666666, "lon": -76.9949605, "is_reserved": 0, "fusion_lon": 0.0}, {"rental_uris": {"ios": "https://dc.lft.to/lastmile_qr_scan", "android": "https://dc.lft.to/lastmile_qr_scan"}, "fusion_lat": 0.0, "name": "c27f1a71808b901ab20e5dfb1a94a364", "bike_id": "c27f1a71808b901ab20e5dfb1a94a364", "is_disabled": 0, "type": "electric_scooter", "lat": 38.89223166666667, "lon": -77.031775, "is_reserved": 0, "fusion_lon": 0.0}, {"rental_uris": {"ios": "https://dc.lft.to/lastmile_qr_scan", "android": "https://dc.lft.to/lastmile_qr_scan"}, "fusion_lat": 0.0, "name": "1dbb487844518b68660b9867e4e288f6", "bike_id": "1dbb487844518b68660b9867e4e288f6", "is_disabled": 0, "type": "electric_scooter", "lat": 38.923549333333334, "lon": -77.05132166666667, "is_reserved": 0, "fusion_lon": 0.0}, {"rental_uris": {"ios": "https://dc.lft.to/lastmile_qr_scan", "android": "https://dc.lft.to/lastmile_qr_scan"}, "fusion_lat": 0.0, "name": "883d0b584149fcfb61b2e431fbf1a642", "bike_id": "883d0b584149fcfb61b2e431fbf1a642", "is_disabled": 0, "type": "electric_scooter", "lat": 38.89221666666667, "lon": -77.03163883333333, "is_reserved": 0, "fusion_lon": 0.0}, {"rental_uris": {"ios": "https://dc.lft.to/lastmile_qr_scan", "android": "https://dc.lft.to/lastmile_qr_scan"}, "fusion_lat": 0.0, "name": "04c3810a221de9bd0ba8f2014d2f8ec9", "bike_id": "04c3810a221de9bd0ba8f2014d2f8ec9", "is_disabled": 0, "type": "electric_scooter", "lat": 38.862542, "lon": -76.99517816666666, "is_reserved": 0, "fusion_lon": 0.0}, {"rental_uris": {"ios": "https://dc.lft.to/lastmile_qr_scan", "android": "https://dc.lft.to/lastmile_qr_scan"}, "fusion_lat": 0.0, "name": "6d3897da39b80511d9dfa89c65e2a3ce", "bike_id": "6d3897da39b80511d9dfa89c65e2a3ce", "is_disabled": 0, "type": "electric_scooter", "lat": 38.90720266666667, "lon": -77.034609, "is_reserved": 0, "fusion_lon": 0.0}, {"rental_uris": {"ios": "https://dc.lft.to/lastmile_qr_scan", "android": "https://dc.lft.to/lastmile_qr_scan"}, "fusion_lat": 0.0, "name": "14746e6a665b9a6645893bde81ba91cf", "bike_id": "14746e6a665b9a6645893bde81ba91cf", "is_disabled": 0, "type": "electric_scooter", "lat": 38.895142166666666, "lon": -76.93042716666666, "is_reserved": 0, "fusion_lon": 0.0}, {"rental_uris": {"ios": "https://dc.lft.to/lastmile_qr_scan", "android": "https://dc.lft.to/lastmile_qr_scan"}, "fusion_lat": 0.0, "name": "8f91df76033d2ede95bc5a00213c1873", "bike_id": "8f91df76033d2ede95bc5a00213c1873", "is_disabled": 0, "type": "electric_scooter", "lat": 38.903486666666666, "lon": -77.0110345, "is_reserved": 0, "fusion_lon": 0.0}, {"rental_uris": {"ios": "https://dc.lft.to/lastmile_qr_scan", "android": "https://dc.lft.to/lastmile_qr_scan"}, "fusion_lat": 0.0, "name": "6eb445eebfc90ff1917661507c007fdf", "bike_id": "6eb445eebfc90ff1917661507c007fdf", "is_disabled": 0, "type": "electric_scooter", "lat": 38.902782333333334, "lon": -77.05803533333334, "is_reserved": 0, "fusion_lon": 0.0}, {"rental_uris": {"ios": "https://dc.lft.to/lastmile_qr_scan", "android": "https://dc.lft.to/lastmile_qr_scan"}, "fusion_lat": 0.0, "name": "5821351360a5622806d92777f08f26b9", "bike_id": "5821351360a5622806d92777f08f26b9", "is_disabled": 0, "type": "electric_scooter", "lat": 38.935286166666664, "lon": -77.072808, "is_reserved": 0, "fusion_lon": 0.0}, {"rental_uris": {"ios": "https://dc.lft.to/lastmile_qr_scan", "android": "https://dc.lft.to/lastmile_qr_scan"}, "fusion_lat": 0.0, "name": "cafef6dd365c4f7d25e7b4e3b67a0acc", "bike_id": "cafef6dd365c4f7d25e7b4e3b67a0acc", "is_disabled": 0, "type": "electric_bike", "lat": 38.840235, "lon": -76.97576066666667, "is_reserved": 0, "fusion_lon": 0.0}, {"rental_uris": {"ios": "https://dc.lft.to/lastmile_qr_scan", "android": "https://dc.lft.to/lastmile_qr_scan"}, "fusion_lat": 0.0, "name": "a9a1eb3bc2441c56343e675bf18309df", "bike_id": "a9a1eb3bc2441c56343e675bf18309df", "is_disabled": 0, "type": "electric_scooter", "lat": 38.90446033333333, "lon": -77.03233966666667, "is_reserved": 0, "fusion_lon": 0.0}, {"rental_uris": {"ios": "https://dc.lft.to/lastmile_qr_scan", "android": "https://dc.lft.to/lastmile_qr_scan"}, "fusion_lat": 0.0, "name": "99a9b27031deacd9af4f89918c29133e", "bike_id": "99a9b27031deacd9af4f89918c29133e", "is_disabled": 0, "type": "electric_scooter", "lat": 38.924399333333334, "lon": -77.04024216666667, "is_reserved": 0, "fusion_lon": 0.0}, {"rental_uris": {"ios": "https://dc.lft.to/lastmile_qr_scan", "android": "https://dc.lft.to/lastmile_qr_scan"}, "fusion_lat": 0.0, "name": "750ed9fb9d4c6c129d8ff1a2166b369e", "bike_id": "750ed9fb9d4c6c129d8ff1a2166b369e", "is_disabled": 0, "type": "electric_scooter", "lat": 38.891978, "lon": -77.00307816666667, "is_reserved": 0, "fusion_lon": 0.0}, {"rental_uris": {"ios": "https://dc.lft.to/lastmile_qr_scan", "android": "https://dc.lft.to/lastmile_qr_scan"}, "fusion_lat": 0.0, "name": "9b8288f3c621a89a4b8f11bd82dba408", "bike_id": "9b8288f3c621a89a4b8f11bd82dba408", "is_disabled": 0, "type": "electric_scooter", "lat": 38.92059316666667, "lon": -77.04224033333334, "is_reserved": 0, "fusion_lon": 0.0}, {"rental_uris": {"ios": "https://dc.lft.to/lastmile_qr_scan", "android": "https://dc.lft.to/lastmile_qr_scan"}, "fusion_lat": 0.0, "name": "3a8a5dc12a8fcda39e4b3329e93dc51f", "bike_id": "3a8a5dc12a8fcda39e4b3329e93dc51f", "is_disabled": 0, "type": "electric_scooter", "lat": 38.893493666666664, "lon": -77.0414025, "is_reserved": 0, "fusion_lon": 0.0}, {"rental_uris": {"ios": "https://dc.lft.to/lastmile_qr_scan", "android": "https://dc.lft.to/lastmile_qr_scan"}, "fusion_lat": 0.0, "name": "9c724ef9d778e82a21daf0f9148e8e6b", "bike_id": "9c724ef9d778e82a21daf0f9148e8e6b", "is_disabled": 0, "type": "electric_scooter", "lat": 38.93350483333333, "lon": -77.085758, "is_reserved": 0, "fusion_lon": 0.0}, {"rental_uris": {"ios": "https://dc.lft.to/lastmile_qr_scan", "android": "https://dc.lft.to/lastmile_qr_scan"}, "fusion_lat": 0.0, "name": "976c83b72b1e11cba12a364e2f993e85", "bike_id": "976c83b72b1e11cba12a364e2f993e85", "is_disabled": 0, "type": "electric_scooter", "lat": 38.9073015, "lon": -77.03309783333333, "is_reserved": 0, "fusion_lon": 0.0}, {"rental_uris": {"ios": "https://dc.lft.to/lastmile_qr_scan", "android": "https://dc.lft.to/lastmile_qr_scan"}, "fusion_lat": 0.0, "name": "b29b1f319062909e6f8799dd015273b6", "bike_id": "b29b1f319062909e6f8799dd015273b6", "is_disabled": 0, "type": "electric_scooter", "lat": 38.961621666666666, "lon": -77.02784183333333, "is_reserved": 0, "fusion_lon": 0.0}, {"rental_uris": {"ios": "https://dc.lft.to/lastmile_qr_scan", "android": "https://dc.lft.to/lastmile_qr_scan"},