{"data": {"bikes": [{"name": "a61dd89dc06f9c6470b54a3da7fd3f82", "is_disabled": 0, "fusion_lat": 0.0, "fusion_lon": 0.0, "type": "electric_scooter", "lat": 38.876769, "bike_id": "a61dd89dc06f9c6470b54a3da7fd3f82", "is_reserved": 0, "lon": -76.99825733333333, "rental_uris": {"android": "https://dc.lft.to/lastmile_qr_scan", "ios": "https://dc.lft.to/lastmile_qr_scan"}}, {"name": "7cc77217cbebd6a0128cec807f7301ac", "is_disabled": 0, "fusion_lat": 0.0, "fusion_lon": 0.0, "type": "electric_bike", "lat": 38.90271166666667, "bike_id": "7cc77217cbebd6a0128cec807f7301ac", "is_reserved": 0, "lon": -76.92929483333333, "rental_uris": {"android": "https://dc.lft.to/lastmile_qr_scan", "ios": "https://dc.lft.to/lastmile_qr_scan"}}, {"name": "1cfd78ef1e4fcbc38a4d0b597f8cc1fd", "is_disabled": 0, "fusion_lat": 0.0, "fusion_lon": 0.0, "type": "electric_scooter", "lat": 38.923524, "bike_id": "1cfd78ef1e4fcbc38a4d0b597f8cc1fd", "is_reserved": 0, "lon": -77.0415245, "rental_uris": {"android": "https://dc.lft.to/lastmile_qr_scan", "ios": "https://dc.lft.to/lastmile_qr_scan"}}, {"name": "79f89e48dbf48365dc73e864bdbfccf9", "is_disabled": 0, "fusion_lat": 0.0, "fusion_lon": 0.0, "type": "electric_scooter", "lat": 38.8922025, "bike_id": "79f89e48dbf48365dc73e864bdbfccf9", "is_reserved": 0, "lon": -77.04373683333333, "rental_uris": {"android": "https://dc.lft.to/lastmile_qr_scan", "ios": "https://dc.lft.to/lastmile_qr_scan"}}, {"name": "a893a33d863ce7f41ad3462cc0fe3ded", "is_disabled": 0, "fusion_lat": 0.0, "fusion_lon": 0.0, "type": "electric_scooter", "lat": 38.89907733333333, "bike_id": "a893a33d863ce7f41ad3462cc0fe3ded", "is_reserved": 0, "lon": -77.03292366666666, "rental_uris": {"android": "https://dc.lft.to/lastmile_qr_scan", "ios": "https://dc.lft.to/lastmile_qr_scan"}}, {"name": "ad2905482d33edfeb86a4369da7a98d5", "is_disabled": 0, "fusion_lat": 0.0, "fusion_lon": 0.0, "type": "electric_scooter", "lat": 38.895966333333334, "bike_id": "ad2905482d33edfeb86a4369da7a98d5", "is_reserved": 0, "lon": -77.00763666666667, "rental_uris": {"android": "https://dc.lft.to/lastmile_qr_scan", "ios": "https://dc.lft.to/lastmile_qr_scan"}}, {"name": "e71d524f2cd9c7c11499aaee3ebe8170", "is_disabled": 0, "fusion_lat": 0.0, "fusion_lon": 0.0, "type": "electric_scooter", "lat": 38.8967205, "bike_id": "e71d524f2cd9c7c11499aaee3ebe8170", "is_reserved": 0, "lon": -77.05031183333334, "rental_uris": {"android": "https://dc.lft.to/lastmile_qr_scan", "ios": "https://dc.lft.to/lastmile_qr_scan"}}, {"name": "77cb7db93bdb87cd611b70f169e721c8", "is_disabled": 0, "fusion_lat": 0.0, "fusion_lon": 0.0, "type": "electric_scooter", "lat": 38.90508166666667, "bike_id": "77cb7db93bdb87cd611b70f169e721c8", "is_reserved": 0, "lon": -77.00138566666666, "rental_uris": {"android": "https://dc.lft.to/lastmile_qr_scan", "ios": "https://dc.lft.to/lastmile_qr_scan"}}, {"name": "292a59807f58a4ff178e30db7f938982", "is_disabled": 0, "fusion_lat": 0.0, "fusion_lon": 0.0, "type": "electric_scooter", "lat": 38.91838583333333, "bike_id": "292a59807f58a4ff178e30db7f938982", "is_reserved": 0, "lon": -77.04156783333333, "rental_uris": {"android": "https://dc.lft.to/lastmile_qr_scan", "ios": "https://dc.lft.to/lastmile_qr_scan"}}, {"name": "f5870adf6d61686272413b319bfb7c22", "is_disabled": 0, "fusion_lat": 0.0, "fusion_lon": 0.0, "type": "electric_scooter", "lat": 38.966292333333335, "bike_id": "f5870adf6d61686272413b319bfb7c22", "is_reserved": 0, "lon": -77.01996916666667, "rental_uris": {"android": "https://dc.lft.to/lastmile_qr_scan", "ios": "https://dc.lft.to/lastmile_qr_scan"}}, {"name": "4f7349d988b35d4ab3d69345b8a4bb33", "is_disabled": 0, "fusion_lat": 0.0, "fusion_lon": 0.0, "type": "electric_scooter", "lat": 38.90535583333333, "bike_id": "4f7349d988b35d4ab3d69345b8a4bb33", "is_reserved": 0, "lon": -77.0410035, "rental_uris": {"android": "https://dc.lft.to/lastmile_qr_scan", "ios": "https://dc.lft.to/lastmile_qr_scan"}}, {"name": "93d029bde18115456a390d1d8df7be51", "is_disabled": 0, "fusion_lat": 0.0, "fusion_lon": 0.0, "type": "electric_scooter", "lat": 38.91099916666667, "bike_id": "93d029bde18115456a390d1d8df7be51", "is_reserved": 0, "lon": -77.00211533333334, "rental_uris": {"android": "https://dc.lft.to/lastmile_qr_scan", "ios": "https://dc.lft.to/lastmile_qr_scan"}}, {"name": "1db6d638966ffb80056dc45f081bb3ba", "is_disabled": 0, "fusion_lat": 0.0, "fusion_lon": 0.0, "type": "electric_scooter", "lat": 38.917948333333335, "bike_id": "1db6d638966ffb80056dc45f081bb3ba", "is_reserved": 0, "lon": -77.0402235, "rental_uris": {"android": "https://dc.lft.to/lastmile_qr_scan", "ios": "https://dc.lft.to/lastmile_qr_scan"}}, {"name": "ee8e7af1eb105af6a496d9ee5fd61571", "is_disabled": 0, "fusion_lat": 0.0, "fusion_lon": 0.0, "type": "electric_scooter", "lat": 38.91915566666667, "bike_id": "ee8e7af1eb105af6a496d9ee5fd61571", "is_reserved": 0, "lon": -77.03203316666666, "rental_uris": {"android": "https://dc.lft.to/lastmile_qr_scan", "ios": "https://dc.lft.to/lastmile_qr_scan"}}, {"name": "c5453d9f7bd68732158534606b636d13", "is_disabled": 0, "fusion_lat": 0.0, "fusion_lon": 0.0, "type": "electric_scooter", "lat": 38.90956, "bike_id": "c5453d9f7bd68732158534606b636d13", "is_reserved": 0, "lon": -77.03867216666667, "rental_uris": {"android": "https://dc.lft.to/lastmile_qr_scan", "ios": "https://dc.lft.to/lastmile_qr_scan"}}, {"name": "501539d4a75eb300307fc613acc70813", "is_disabled": 0, "fusion_lat": 0.0, "fusion_lon": 0.0, "type": "electric_scooter", "lat": 38.92226516666667, "bike_id": "501539d4a75eb300307fc613acc70813", "is_reserved": 0, "lon": -77.02328066666666, "rental_uris": {"android": "https://dc.lft.to/lastmile_qr_scan", "ios": "https://dc.lft.to/lastmile_qr_scan"}}, {"name": "7d07de1fe38e96252239839455d50879", "is_disabled": 0, "fusion_lat": 0.0, "fusion_lon": 0.0, "type": "electric_scooter", "lat": 38.888138166666664, "bike_id": "7d07de1fe38e96252239839455d50879", "is_reserved": 0, "lon": -76.93344783333333, "rental_uris": {"android": "https://dc.lft.to/lastmile_qr_scan", "ios": "https://dc.lft.to/lastmile_qr_scan"}}, {"name": "761a025e001d1c39a8dc651ceac3fa19", "is_disabled": 0, "fusion_lat": 0.0, "fusion_lon": 0.0, "type": "electric_scooter", "lat": 38.93183116666667, "bike_id": "761a025e001d1c39a8dc651ceac3fa19", "is_reserved": 0, "lon": -77.03846783333333, "rental_uris": {"android": "https://dc.lft.to/lastmile_qr_scan", "ios": "https://dc.lft.to/lastmile_qr_scan"}}, {"name": "9c2c8848a336562c9e319836da0ecfac", "is_disabled": 0, "fusion_lat": 0.0, "fusion_lon": 0.0, "type": "electric_scooter", "lat": 38.92481983333333, "bike_id": "9c2c8848a336562c9e319836da0ecfac", "is_reserved": 0, "lon": -77.02204483333334, "rental_uris": {"android": "https://dc.lft.to/lastmile_qr_scan", "ios": "https://dc.lft.to/lastmile_qr_scan"}}, {"name": "a821c06765c3ea613f222b9106a640fc", "is_disabled": 0, "fusion_lat": 0.0, "fusion_lon": 0.0, "type": "electric_scooter", "lat": 38.916503, "bike_id": "a821c06765c3ea613f222b9106a640fc", "is_reserved": 0, "lon": -77.02980566666666, "rental_uris": {"android": "https://dc.lft.to/lastmile_qr_scan", "ios": "https://dc.lft.to/lastmile_qr_scan"}}, {"name": "0f300c251a7d176dcb6a7cc0f14943d0", "is_disabled": 0, "fusion_lat": 0.0, "fusion_lon": 0.0, "type": "electric_bike", "lat": 38.86093966666667, "bike_id": "0f300c251a7d176dcb6a7cc0f14943d0", "is_reserved": 0, "lon": -77.09593333333333, "rental_uris": {"android": "https://dc.lft.to/lastmile_qr_scan", "ios": "https://dc.lft.to/lastmile_qr_scan"}}, {"name": "59956b385debb179389db1a65f23161d", "is_disabled": 0, "fusion_lat": 0.0, "fusion_lon": 0.0, "type": "electric_scooter", "lat": 38.92162483333333, "bike_id": "59956b385debb179389db1a65f23161d", "is_reserved": 0, "lon": -77.03238283333333, "rental_uris": {"android": "https://dc.lft.to/lastmile_qr_scan", "ios": "https://dc.lft.to/lastmile_qr_scan"}}, {"name": "0826e72a055c9d726772d6eed0f41019", "is_disabled": 0, "fusion_lat": 0.0, "fusion_lon": 0.0, "type": "electric_scooter", "lat": 38.905784833333335, "bike_id": "0826e72a055c9d726772d6eed0f41019", "is_reserved": 0, "lon": -77.03863133333333, "rental_uris": {"android": "https://dc.lft.to/lastmile_qr_scan", "ios": "https://dc.lft.to/lastmile_qr_scan"}}, {"name": "248caa1a0748134388289bd22852cd31", "is_disabled": 0, "fusion_lat": 0.0, "fusion_lon": 0.0, "type": "electric_scooter", "lat": 38.88726033333333, "bike_id": "248caa1a0748134388289bd22852cd31", "is_reserved": 0, "lon": -77.02827133333334, "rental_uris": {"android": "https://dc.lft.to/lastmile_qr_scan", "ios": "https://dc.lft.to/lastmile_qr_scan"}}, {"name": "d6e36e2291ef7f621a6a14aa94b7978b", "is_disabled": 0, "fusion_lat": 0.0, "fusion_lon": 0.0, "type": "electric_scooter", "lat": 38.9568915, "bike_id": "d6e36e2291ef7f621a6a14aa94b7978b", "is_reserved": 0, "lon": -77.02232366666667, "rental_uris": {"android": "https://dc.lft.to/lastmile_qr_scan", "ios": "https://dc.lft.to/lastmile_qr_scan"}}, {"name": "aa9565810d755fe5d600359c527699a2", "is_disabled": 0, "fusion_lat": 0.0, "fusion_lon": 0.0, "type": "electric_scooter", "lat": 38.928147, "bike_id": "aa9565810d755fe5d600359c527699a2", "is_reserved": 0, "lon": -77.0543, "rental_uris": {"android": "https://dc.lft.to/lastmile_qr_scan", "ios": "https://dc.lft.to/lastmile_qr_scan"}}, {"name": "6dae09b4e3e587c354c0c7b510f69905", "is_disabled": 0, "fusion_lat": 0.0, "fusion_lon": 0.0, "type": "electric_bike", "lat": 38.80013116666667, "bike_id": "6dae09b4e3e587c354c0c7b510f69905", "is_reserved": 0, "lon": -77.05487916666667, "rental_uris": {"android": "https://dc.lft.to/lastmile_qr_scan", "ios": "https://dc.lft.to/lastmile_qr_scan"}}, {"name": "135fbd0485a9868260f3585788c717a4", "is_disabled": 0, "fusion_lat": 0.0, "fusion_lon": 0.0, "type": "electric_scooter", "lat": 38.920066166666665, "bike_id": "135fbd0485a9868260f3585788c717a4", "is_reserved": 0, "lon": -77.03891483333334, "rental_uris": {"android": "https://dc.lft.to/lastmile_qr_scan", "ios": "https://dc.lft.to/lastmile_qr_scan"}}, {"name": "0e25bc171765570cad2a68c77099be30", "is_disabled": 0, "fusion_lat": 0.0, "fusion_lon": 0.0, "type": "electric_scooter", "lat": 38.88711883333333, "bike_id": "0e25bc171765570cad2a68c77099be30", "is_reserved": 0, "lon": -77.021856, "rental_uris": {"android": "https://dc.lft.to/lastmile_qr_scan", "ios": "https://dc.lft.to/lastmile_qr_scan"}}, {"name": "77a2263331768c3bbf5fbbd0744ea763", "is_disabled": 0, "fusion_lat": 0.0, "fusion_lon": 0.0, "type": "electric_scooter", "lat": 38.90391, "bike_id": "77a2263331768c3bbf5fbbd0744ea763", "is_reserved": 0, "lon": -77.04224233333333, "rental_uris": {"android": "https://dc.lft.to/lastmile_qr_scan", "ios": "https://dc.lft.to/lastmile_qr_scan"}}, {"name": "6b801933c36bcac6210491e1377513ab", "is_disabled": 0, "fusion_lat": 0.0, "fusion_lon": 0.0, "type": "electric_scooter", "lat": 38.936716833333335, "bike_id": "6b801933c36bcac6210491e1377513ab", "is_reserved": 0, "lon": -77.03594816666667, "rental_uris": {"android": "https://dc.lft.to/lastmile_qr_scan", "ios": "https://dc.lft.to/lastmile_qr_scan"}}, {"name": "82a294ac500a120efc05c41fdcaafcb3", "is_disabled": 0, "fusion_lat": 0.0, "fusion_lon": 0.0, "type": "electric_scooter", "lat": 38.9164335, "bike_id": "82a294ac500a120efc05c41fdcaafcb3", "is_reserved": 0, "lon": -77.02978566666667, "rental_uris": {"android": "https://dc.lft.to/lastmile_qr_scan", "ios": "https://dc.lft.to/lastmile_qr_scan"}}, {"name": "5df087709062cfe1543ded2c9b080be1", "is_disabled": 0, "fusion_lat": 0.0, "fusion_lon": 0.0, "type": "electric_scooter", "lat": 38.92053716666667, "bike_id": "5df087709062cfe1543ded2c9b080be1", "is_reserved": 0, "lon": -77.02981983333333, "rental_uris": {"android": "https://dc.lft.to/lastmile_qr_scan", "ios": "https://dc.lft.to/lastmile_qr_scan"}}, {"name": "2bc05f0f2c70fdfaaf2cc39d879b1153", "is_disabled": 0, "fusion_lat": 0.0, "fusion_lon": 0.0, "type": "electric_scooter", "lat": 38.91121866666667, "bike_id": "2bc05f0f2c70fdfaaf2cc39d879b1153", "is_reserved": 0, "lon": -77.03733916666667, "rental_uris": {"android": "https://dc.lft.to/lastmile_qr_scan", "ios": "https://dc.lft.to/lastmile_qr_scan"}}, {"name": "53d9941168851911af871d0c190a26f0", "is_disabled": 0, "fusion_lat": 0.0, "fusion_lon": 0.0, "type": "electric_scooter", "lat": 38.92362383333333, "bike_id": "53d9941168851911af871d0c190a26f0", "is_reserved": 0, "lon": -77.04235683333333, "rental_uris": {"android": "https://dc.lft.to/lastmile_qr_scan", "ios": "https://dc.lft.to/lastmile_qr_scan"}}, {"name": "cbb166503da2a890c8a31db1927768c7", "is_disabled": 0, "fusion_lat": 0.0, "fusion_lon": 0.0, "type": "electric_scooter", "lat": 38.922314166666666, "bike_id": "cbb166503da2a890c8a31db1927768c7", "is_reserved": 0, "lon": -77.04253133333333, "rental_uris": {"android": "https://dc.lft.to/lastmile_qr_scan", "ios": "https://dc.lft.to/lastmile_qr_scan"}}, {"name": "a154823aecee3a5b7efaf2a47adc8240", "is_disabled": 0, "fusion_lat": 0.0, "fusion_lon": 0.0, "type": "electric_scooter", "lat": 38.92136716666667, "bike_id": "a154823aecee3a5b7efaf2a47adc8240", "is_reserved": 0, "lon": -77.0251315, "rental_uris": {"android": "https://dc.lft.to/lastmile_qr_scan", "ios": "https://dc.lft.to/lastmile_qr_scan"}}, {"name": "29529cef5657676c81a32e3a8678e128", "is_disabled": 0, "fusion_lat": 0.0, "fusion_lon": 0.0, "type": "electric_scooter", "lat": 38.90337233333333, "bike_id": "29529cef5657676c81a32e3a8678e128", "is_reserved": 0, "lon": -76.9828255, "rental_uris": {"android": "https://dc.lft.to/lastmile_qr_scan", "ios": "https://dc.lft.to/lastmile_qr_scan"}}, {"name": "f87e9f16a3796d4d2b10c15401138772", "is_disabled": 0, "fusion_lat": 0.0, "fusion_lon": 0.0, "type": "electric_scooter", "lat": 38.90736, "bike_id": "f87e9f16a3796d4d2b10c15401138772", "is_reserved": 0, "lon": -76.98630583333333, "rental_uris": {"android": "https://dc.lft.to/lastmile_qr_scan", "ios": "https://dc.lft.to/lastmile_qr_scan"}}, {"name": "13cad34f26b44f436e41b09709e89367", "is_disabled": 0, "fusion_lat": 0.0, "fusion_lon": 0.0, "type": "electric_scooter", "lat": 38.8763515, "bike_id": "13cad34f26b44f436e41b09709e89367", "is_reserved": 0, "lon": -77.00255166666666, "rental_uris": {"android": "https://dc.lft.to/lastmile_qr_scan", "ios": "https://dc.lft.to/lastmile_qr_scan"}}, {"name": "2108fdf8ff9c5dbf447d0bcda20c16c2", "is_disabled": 0, "fusion_lat": 0.0, "fusion_lon": 0.0, "type": "electric_scooter", "lat": 38.92026166666667, "bike_id": "2108fdf8ff9c5dbf447d0bcda20c16c2", "is_reserved": 0, "lon": -77.03199583333334, "rental_uris": {"android": "https://dc.lft.to/lastmile_qr_scan", "ios": "https://dc.lft.to/lastmile_qr_scan"}}, {"name": "7bec87cd93cffa0270148d2098073310", "is_disabled": 0, "fusion_lat": 0.0, "fusion_lon": 0.0, "type": "electric_scooter", "lat": 38.903082, "bike_id": "7bec87cd93cffa0270148d2098073310", "is_reserved": 0, "lon": -77.0505765, "rental_uris": {"android": "https://dc.lft.to/lastmile_qr_scan", "ios": "https://dc.lft.to/lastmile_qr_scan"}}, {"name": "478b43868c9aba7f2f37b932b208b6f7", "is_disabled": 0, "fusion_lat": 0.0, "fusion_lon": 0.0, "type": "electric_scooter", "lat": 38.9170795, "bike_id": "478b43868c9aba7f2f37b932b208b6f7", "is_reserved": 0, "lon": -77.04149783333334, "rental_uris": {"android": "https://dc.lft.to/lastmile_qr_scan", "ios": "https://dc.lft.to/lastmile_qr_scan"}}, {"name": "b27859ab8597b7a552f548b269c4bdd3", "is_disabled": 0, "fusion_lat": 0.0, "fusion_lon": 0.0, "type": "electric_scooter", "lat": 38.903803833333335, "bike_id": "b27859ab8597b7a552f548b269c4bdd3", "is_reserved": 0, "lon": -77.04265116666667, "rental_uris": {"android": "https://dc.lft.to/lastmile_qr_scan", "ios": "https://dc.lft.to/lastmile_qr_scan"}}, {"name": "573679383eeb866c4cb66518e0354f35", "is_disabled": 0, "fusion_lat": 0.0, "fusion_lon": 0.0, "type": "electric_scooter", "lat": 38.902426, "bike_id": "573679383eeb866c4cb66518e0354f35", "is_reserved": 0, "lon": -77.00205533333333, "rental_uris": {"android": "https://dc.lft.to/lastmile_qr_scan", "ios": "https://dc.lft.to/lastmile_qr_scan"}}, {"name": "757cfffedc867211da35857e9d8f5b34", "is_disabled": 0, "fusion_lat": 0.0, "fusion_lon": 0.0, "type": "electric_bike", "lat": 39.034272666666666, "bike_id": "757cfffedc867211da35857e9d8f5b34", "is_reserved": 0, "lon": -77.04097666666667, "rental_uris": {"android": "https://dc.lft.to/lastmile_qr_scan", "ios": "https://dc.lft.to/lastmile_qr_scan"}}, {"name": "9a921c524ea5f9eadd8dcd270a6f36d9", "is_disabled": 0, "fusion_lat": 0.0, "fusion_lon": 0.0, "type": "electric_scooter", "lat": 38.920775666666664, "bike_id": "9a921c524ea5f9eadd8dcd270a6f36d9", "is_reserved": 0, "lon": -77.020726, "rental_uris": {"android": "https://dc.lft.to/lastmile_qr_scan", "ios": "https://dc.lft.to/lastmile_qr_scan"}}, {"name": "31e2858f379af5f499844fede2513e62", "is_disabled": 0, "fusion_lat": 0.0, "fusion_lon": 0.0, "type": "electric_bike", "lat": 38.88333383333333, "bike_id": "31e2858f379af5f499844fede2513e62", "is_reserved": 0, "lon": -77.06571166666667, "rental_uris": {"android": "https://dc.lft.to/lastmile_qr_scan", "ios": "https://dc.lft.to/lastmile_qr_scan"}}, {"name": "085cf9cd52eae7892ec5fee546337836", "is_disabled": 0, "fusion_lat": 0.0, "fusion_lon": 0.0, "type": "electric_scooter", "lat": 38.908444333333335, "bike_id": "085cf9cd52eae7892ec5fee546337836", "is_reserved": 0, "lon": -77.04255866666666, "rental_uris": {"android": "https://dc.lft.to/lastmile_qr_scan", "ios": "https://dc.lft.to/lastmile_qr_scan"}}, {"name": "9fa10c4b666b2414b4bf940cdae092d3", "is_disabled": 0, "fusion_lat": 0.0, "fusion_lon": 0.0, "type": "electric_bike", "lat": 39.05495033333333, "bike_id": "9fa10c4b666b2414b4bf940cdae092d3", "is_reserved": 0, "lon": -77.11796283333334, "rental_uris": {"android": "https://dc.lft.to/lastmile_qr_scan", "ios": "https://dc.lft.to/lastmile_qr_scan"}}, {"name": "836ef3da525b71db100651adf32bdae2", "is_disabled": 0, "fusion_lat": 0.0, "fusion_lon": 0.0, "type": "electric_scooter", "lat": 38.926579833333335, "bike_id": "836ef3da525b71db100651adf32bdae2", "is_reserved": 0, "lon": -77.00875566666667, "rental_uris": {"android": "https://dc.lft.to/lastmile_qr_scan", "ios": "https://dc.lft.to/lastmile_qr_scan"}}, {"name": "0ce487103e74782902e9893fc3a925e0", "is_disabled": 0, "fusion_lat": 0.0, "fusion_lon": 0.0, "type": "electric_bike", "lat": 38.8875265, "bike_id": "0ce487103e74782902e9893fc3a925e0", "is_reserved": 0, "lon": -76.9008995, "rental_uris": {"android": "https://dc.lft.to/lastmile_qr_scan", "ios": "https://dc.lft.to/lastmile_qr_scan"}}, {"name": "be3633cb4b54239d8739a56453f831a6", "is_disabled": 0, "fusion_lat": 0.0, "fusion_lon": 0.0, "type": "electric_scooter", "lat": 38.906439, "bike_id": "be3633cb4b54239d8739a56453f831a6", "is_reserved": 0, "lon": -77.05133516666666, "rental_uris": {"android": "https://dc.lft.to/lastmile_qr_scan", "ios": "https://dc.lft.to/lastmile_qr_scan"}}, {"name": "c4c1e99e4df6703590c0eb4e2ef358b7", "is_disabled": 0, "fusion_lat": 0.0, "fusion_lon": 0.0, "type": "electric_scooter", "lat": 38.92311566666667, "bike_id": "c4c1e99e4df6703590c0eb4e2ef358b7", "is_reserved": 0, "lon": -77.03121583333333, "rental_uris": {"android": "https://dc.lft.to/lastmile_qr_scan", "ios": "https://dc.lft.to/lastmile_qr_scan"}}, {"name": "543aa42888c9e424e0e2175de9464bae", "is_disabled": 0, "fusion_lat": 0.0, "fusion_lon": 0.0, "type": "electric_scooter", "lat": 38.93184266666667, "bike_id": "543aa42888c9e424e0e2175de9464bae", "is_reserved": 0, "lon": -77.0414305, "rental_uris": {"android": "https://dc.lft.to/lastmile_qr_scan", "ios": "https://dc.lft.to/lastmile_qr_scan"}}, {"name": "19851b2665318e751817f0152e44e6d2", "is_disabled": 0, "fusion_lat": 0.0, "fusion_lon": 0.0, "type": "electric_bike", "lat": 38.906750333333335, "bike_id": "19851b2665318e751817f0152e44e6d2", "is_reserved": 0, "lon": -77.06244766666667, "rental_uris": {"android": "https://dc.lft.to/lastmile_qr_scan", "ios": "https://dc.lft.to/lastmile_qr_scan"}}, {"name": "3b849a12b73474c018cb54087bc99aac", "is_disabled": 0, "fusion_lat": 0.0, "fusion_lon": 0.0, "type": "electric_scooter", "lat": 38.906377666666664, "bike_id": "3b849a12b73474c018cb54087bc99aac", "is_reserved": 0, "lon": -77.0392995, "rental_uris": {"android": "https://dc.lft.to/lastmile_qr_scan", "ios": "https://dc.lft.to/lastmile_qr_scan"}}, {"name": "192e4e23f65e1b0f15671ec769722dc3", "is_disabled": 0, "fusion_lat": 0.0, "fusion_lon": 0.0, "type": "electric_scooter", "lat": 38.88262066666667, "bike_id": "192e4e23f65e1b0f15671ec769722dc3", "is_reserved": 0, "lon": -77.00599916666667, "rental_uris": {"android": "https://dc.lft.to/lastmile_qr_scan", "ios": "https://dc.lft.to/lastmile_qr_scan"}}, {"name": "cd3ed3c9817e92cdcfed1afca0443a8b", "is_disabled": 0, "fusion_lat": 0.0, "fusion_lon": 0.0, "type": "electric_scooter", "lat": 38.91817733333333, "bike_id": "cd3ed3c9817e92cdcfed1afca0443a8b", "is_reserved": 0, "lon": -77.03254466666667, "rental_uris": {"android": "https://dc.lft.to/lastmile_qr_scan", "ios": "https://dc.lft.to/lastmile_qr_scan"}}, {"name": "a7426779d1ffc12d2b824c72e51e73a6", "is_disabled": 0, "fusion_lat": 0.0, "fusion_lon": 0.0, "type": "electric_scooter", "lat": 38.91552516666667, "bike_id": "a7426779d1ffc12d2b824c72e51e73a6", "is_reserved": 0, "lon": -77.031907, "rental_uris": {"android": "https://dc.lft.to/lastmile_qr_scan", "ios": "https://dc.lft.to/lastmile_qr_scan"}}, {"name": "b6995c70decef1a0ad92b5c0c0e0d2ea", "is_disabled": 0, "fusion_lat": 0.0, "fusion_lon": 0.0, "type": "electric_scooter", "lat": 38.892248, "bike_id": "b6995c70decef1a0ad92b5c0c0e0d2ea", "is_reserved": 0, "lon": -77.02339266666667, "rental_uris": {"android": "https://dc.lft.to/lastmile_qr_scan", "ios": "https://dc.lft.to/lastmile_qr_scan"}}, {"name": "40d21076e0c9b8f74ff85c075aa838b6", "is_disabled": 0, "fusion_lat": 0.0, "fusion_lon": 0.0, "type": "electric_scooter", "lat": 38.87078566666667, "bike_id": "40d21076e0c9b8f74ff85c075aa838b6", "is_reserved": 0, "lon": -76.9891035, "rental_uris": {"android": "https://dc.lft.to/lastmile_qr_scan", "ios": "https://dc.lft.to/lastmile_qr_scan"}}, {"name": "a21f285b75bd1959778e47d702c2be1b", "is_disabled": 0, "fusion_lat": 0.0, "fusion_lon": 0.0, "type": "electric_scooter", "lat": 38.919414833333335, "bike_id": "a21f285b75bd1959778e47d702c2be1b", "is_reserved": 0, "lon": -77.01378483333333, "rental_uris": {"android": "https://dc.lft.to/lastmile_qr_scan", "ios": "https://dc.lft.to/lastmile_qr_scan"}}, {"name": "40c2ee6792d334e39ee0de59575c259b", "is_disabled": 0, "fusion_lat": 0.0, "fusion_lon": 0.0, "type": "electric_scooter", "lat": 38.924700333333334, "bike_id": "40c2ee6792d334e39ee0de59575c259b", "is_reserved": 0, "lon": -77.02204516666667, "rental_uris": {"android": "https://dc.lft.to/lastmile_qr_scan", "ios": "https://dc.lft.to/lastmile_qr_scan"}}, {"name": "e686997ecd87190c9d9b2bc6e7a2f4f5", "is_disabled": 0, "fusion_lat": 0.0, "fusion_lon": 0.0, "type": "electric_scooter", "lat": 38.903627166666666, "bike_id": "e686997ecd87190c9d9b2bc6e7a2f4f5", "is_reserved": 0, "lon": -77.03201666666666, "rental_uris": {"android": "https://dc.lft.to/lastmile_qr_scan", "ios": "https://dc.lft.to/lastmile_qr_scan"}}, {"name": "36d52199878cc15962c4033ac2c983d9", "is_disabled": 0, "fusion_lat": 0.0, "fusion_lon": 0.0, "type": "electric_scooter", "lat": 38.9451575, "bike_id": "36d52199878cc15962c4033ac2c983d9", "is_reserved": 0, "lon": -77.01983333333334, "rental_uris": {"android": "https://dc.lft.to/lastmile_qr_scan", "ios": "https://dc.lft.to/lastmile_qr_scan"}}, {"name": "1549fac6e885e54cc2236e653df08a78", "is_disabled": 0, "fusion_lat": 0.0, "fusion_lon": 0.0, "type": "electric_scooter", "lat": 38.8985835, "bike_id": "1549fac6e885e54cc2236e653df08a78", "is_reserved": 0, "lon": -77.01363816666667, "rental_uris": {"android": "https://dc.lft.to/lastmile_qr_scan", "ios": "https://dc.lft.to/lastmile_qr_scan"}}, {"name": "2cc02e0d2afbd8d15b383545e5bb6754", "is_disabled": 0, "fusion_lat": 0.0, "fusion_lon": 0.0, "type": "electric_scooter", "lat": 38.91266133333333, "bike_id": "2cc02e0d2afbd8d15b383545e5bb6754", "is_reserved": 0, "lon": -77.01300983333333, "rental_uris": {"android": "https://dc.lft.to/lastmile_qr_scan", "ios": "https://dc.lft.to/lastmile_qr_scan"}}, {"name": "63958a1af5bf430d7157d91073d025df", "is_disabled": 0, "fusion_lat": 0.0, "fusion_lon": 0.0, "type": "electric_scooter", "lat": 38.892333666666666, "bike_id": "63958a1af5bf430d7157d91073d025df", "is_reserved": 0, "lon": -77.03217283333333, "rental_uris": {"android": "https://dc.lft.to/lastmile_qr_scan", "ios": "https://dc.lft.to/lastmile_qr_scan"}}, {"name": "ed769adc9ee8c6a620296e2b042b7bc9", "is_disabled": 0, "fusion_lat": 0.0, "fusion_lon": 0.0, "type": "electric_scooter", "lat": 38.900396666666666, "bike_id": "ed769adc9ee8c6a620296e2b042b7bc9", "is_reserved": 0, "lon": -77.0432575, "rental_uris": {"android": "https://dc.lft.to/lastmile_qr_scan", "ios": "https://dc.lft.to/lastmile_qr_scan"}}, {"name": "b6d7358fe35c4053d21c990a75f879c4", "is_disabled": 0, "fusion_lat": 0.0, "fusion_lon": 0.0, "type": "electric_bike", "lat": 38.819055, "bike_id": "b6d7358fe35c4053d21c990a75f879c4", "is_reserved": 0, "lon": -76.99916716666667, "rental_uris": {"android": "https://dc.lft.to/lastmile_qr_scan", "ios": "https://dc.lft.to/lastmile_qr_scan"}}, {"name": "45a63840b5c916e6a5f2d27293cbf1da", "is_disabled": 0, "fusion_lat": 0.0, "fusion_lon": 0.0, "type": "electric_scooter", "lat": 38.870103, "bike_id": "45a63840b5c916e6a5f2d27293cbf1da", "is_reserved": 0, "lon": -76.980842, "rental_uris": {"android": "https://dc.lft.to/lastmile_qr_scan", "ios": "https://dc.lft.to/lastmile_qr_scan"}}, {"name": "101c63858b1f63d61fa6e3a514c26244", "is_disabled": 0, "fusion_lat": 0.0, "fusion_lon": 0.0, "type": "electric_scooter", "lat": 38.93102283333333, "bike_id": "101c63858b1f63d61fa6e3a514c26244", "is_reserved": 0, "lon": -77.02481966666667, "rental_uris": {"android": "https://dc.lft.to/lastmile_qr_scan", "ios": "https://dc.lft.to/lastmile_qr_scan"}}, {"name": "bfad1da7a1c9d2d6c6d2f3cedbe91986", "is_disabled": 0, "fusion_lat": 0.0, "fusion_lon": 0.0, "type": "electric_scooter", "lat": 38.9737225, "bike_id": "bfad1da7a1c9d2d6c6d2f3cedbe91986", "is_reserved": 0, "lon": -77.01817366666667, "rental_uris": {"android": "https://dc.lft.to/lastmile_qr_scan", "ios": "https://dc.lft.to/lastmile_qr_scan"}}, {"name": "e605f8b3e65b9ce7da95935ab6924714", "is_disabled": 0, "fusion_lat": 0.0, "fusion_lon": 0.0, "type": "electric_scooter", "lat": 38.902897333333335, "bike_id": "e605f8b3e65b9ce7da95935ab6924714", "is_reserved": 0, "lon": -77.03866966666666, "rental_uris": {"android": "https://dc.lft.to/lastmile_qr_scan", "ios": "https://dc.lft.to/lastmile_qr_scan"}}, {"name": "ff8f15515c73c09eb0862721684dbbe6", "is_disabled": 0, "fusion_lat": 0.0, "fusion_lon": 0.0, "type": "electric_scooter", "lat": 38.91424, "bike_id": "ff8f15515c73c09eb0862721684dbbe6", "is_reserved": 0, "lon": -77.03154583333334, "rental_uris": {"android": "https://dc.lft.to/lastmile_qr_scan", "ios": "https://dc.lft.to/lastmile_qr_scan"}}, {"name": "f1546a9760ef996976a106ca466b617c", "is_disabled": 0, "fusion_lat": 0.0, "fusion_lon": 0.0, "type": "electric_scooter", "lat": 38.879366166666664, "bike_id": "f1546a9760ef996976a106ca466b617c", "is_reserved": 0, "lon": -77.00776266666666, "rental_uris": {"android": "https://dc.lft.to/lastmile_qr_scan", "ios": "https://dc.lft.to/lastmile_qr_scan"}}, {"name": "34ea4c4bc60852388c69fb8cc75b4ca2", "is_disabled": 0, "fusion_lat": 0.0, "fusion_lon": 0.0, "type": "electric_scooter", "lat": 38.901548, "bike_id": "34ea4c4bc60852388c69fb8cc75b4ca2", "is_reserved": 0, "lon": -76.97631166666666, "rental_uris": {"android": "https://dc.lft.to/lastmile_qr_scan", "ios": "https://dc.lft.to/lastmile_qr_scan"}}, {"name": "99346e96cb4056e89c54a662084f4407", "is_disabled": 0, "fusion_lat": 0.0, "fusion_lon": 0.0, "type": "electric_scooter", "lat": 38.895256, "bike_id": "99346e96cb4056e89c54a662084f4407", "is_reserved": 0, "lon": -77.0034085, "rental_uris": {"android": "https://dc.lft.to/lastmile_qr_scan", "ios": "https://dc.lft.to/lastmile_qr_scan"}}, {"name": "d91fd8f1d388962b32b6cf6859a8bc02", "is_disabled": 0, "fusion_lat": 0.0, "fusion_lon": 0.0, "type": "electric_scooter", "lat": 38.906187333333335, "bike_id": "d91fd8f1d388962b32b6cf6859a8bc02", "is_reserved": 0, "lon": -77.0040355, "rental_uris": {"android": "https://dc.lft.to/lastmile_qr_scan", "ios": "https://dc.lft.to/lastmile_qr_scan"}}, {"name": "020846dd30069b0dbe237b275a0977a6", "is_disabled": 0, "fusion_lat": 0.0, "fusion_lon": 0.0, "type": "electric_scooter", "lat": 38.89339716666667, "bike_id": "020846dd30069b0dbe237b275a0977a6", "is_reserved": 0, "lon": -77.01233266666667, "rental_uris": {"android": "https://dc.lft.to/lastmile_qr_scan", "ios": "https://dc.lft.to/lastmile_qr_scan"}}, {"name": "db437199eca7ccdac66ac473a82af15d", "is_disabled": 0, "fusion_lat": 0.0, "fusion_lon": 0.0, "type": "electric_scooter", "lat": 38.8990625, "bike_id": "db437199eca7ccdac66ac473a82af15d", "is_reserved": 0, "lon": -76.93373516666666, "rental_uris": {"android": "https://dc.lft.to/lastmile_qr_scan", "ios": "https://dc.lft.to/lastmile_qr_scan"}}, {"name": "82248ab095a66c53b2c25299262e5095", "is_disabled": 0, "fusion_lat": 0.0, "fusion_lon": 0.0, "type": "electric_scooter", "lat": 38.91567, "bike_id": "82248ab095a66c53b2c25299262e5095", "is_reserved": 0, "lon": -77.0238875, "rental_uris": {"android": "https://dc.lft.to/lastmile_qr_scan", "ios": "https://dc.lft.to/lastmile_qr_scan"}}, {"name": "56d56c185797f49d48d2c27a4b6ca13b", "is_disabled": 0, "fusion_lat": 0.0, "fusion_lon": 0.0, "type": "electric_scooter", "lat": 38.92403, "bike_id": "56d56c185797f49d48d2c27a4b6ca13b", "is_reserved": 0, "lon": -77.02694816666667, "rental_uris": {"android": "https://dc.lft.to/lastmile_qr_scan", "ios": "https://dc.lft.to/lastmile_qr_scan"}}, {"name": "ca6560dec64850e1ac9d8690c3b9b131", "is_disabled": 0, "fusion_lat": 0.0, "fusion_lon": 0.0, "type": "electric_scooter", "lat": 38.927423, "bike_id": "ca6560dec64850e1ac9d8690c3b9b131", "is_reserved": 0, "lon": -77.021539, "rental_uris": {"android": "https://dc.lft.to/lastmile_qr_scan", "ios": "https://dc.lft.to/lastmile_qr_scan"}}, {"name": "3a81e0bf47c0882ffb4f9ea73eee971b", "is_disabled": 0, "fusion_lat": 0.0, "fusion_lon": 0.0, "type": "electric_bike", "lat": 38.8295015, "bike_id": "3a81e0bf47c0882ffb4f9ea73eee971b", "is_reserved": 0, "lon": -77.12358333333333, "rental_uris": {"android": "https://dc.lft.to/lastmile_qr_scan", "ios": "https://dc.lft.to/lastmile_qr_scan"}}, {"name": "1bfa4f63e8d8c98aa985fbab6e59dae4", "is_disabled": 0, "fusion_lat": 0.0, "fusion_lon": 0.0, "type": "electric_scooter", "lat": 38.91712033333334, "bike_id": "1bfa4f63e8d8c98aa985fbab6e59dae4", "is_reserved": 0, "lon": -77.0414745, "rental_uris": {"android": "https://dc.lft.to/lastmile_qr_scan", "ios": "https://dc.lft.to/lastmile_qr_scan"}}, {"name": "6fd5ed691473eee8e83500c5d0a72657", "is_disabled": 0, "fusion_lat": 0.0, "fusion_lon": 0.0, "type": "electric_scooter", "lat": 38.93416083333334, "bike_id": "6fd5ed691473eee8e83500c5d0a72657", "is_reserved": 0, "lon": -77.03896116666667, "rental_uris": {"android": "https://dc.lft.to/lastmile_qr_scan", "ios": "https://dc.lft.to/lastmile_qr_scan"}}, {"name": "e1bd0bb877f634da38233c5ab8a920d3", "is_disabled": 0, "fusion_lat": 0.0, "fusion_lon": 0.0, "type": "electric_scooter", "lat": 38.908720833333334, "bike_id": "e1bd0bb877f634da38233c5ab8a920d3", "is_reserved": 0, "lon": -77.07164666666667, "rental_uris": {"android": "https://dc.lft.to/lastmile_qr_scan", "ios": "https://dc.lft.to/lastmile_qr_scan"}}, {"name": "417594715512e4b972b37bbca44491e5", "is_disabled": 0, "fusion_lat": 0.0, "fusion_lon": 0.0, "type": "electric_scooter", "lat": 38.93600466666667, "bike_id": "417594715512e4b972b37bbca44491e5", "is_reserved": 0, "lon": -77.038009, "rental_uris": {"android": "https://dc.lft.to/lastmile_qr_scan", "ios": "https://dc.lft.to/lastmile_qr_scan"}}, {"name": "e821ad295fe3da2b830364bdeacafdb0", "is_disabled": 0, "fusion_lat": 0.0, "fusion_lon": 0.0, "type": "electric_scooter", "lat": 38.920456333333334, "bike_id": "e821ad295fe3da2b830364bdeacafdb0", "is_reserved": 0, "lon": -76.9894875, "rental_uris": {"android": "https://dc.lft.to/lastmile_qr_scan", "ios": "https://dc.lft.to/lastmile_qr_scan"}}, {"name": "b8a39a18e7ff1a7f2c7c4f507102b17b", "is_disabled": 0, "fusion_lat": 0.0, "fusion_lon": 0.0, "type": "electric_scooter", "lat": 38.923725166666664, "bike_id": "b8a39a18e7ff1a7f2c7c4f507102b17b", "is_reserved": 0, "lon": -77.04140283333334, "rental_uris": {"android": "https://dc.lft.to/lastmile_qr_scan", "ios": "https://dc.lft.to/lastmile_qr_scan"}}, {"name": "850a43afb5b4cee130ef2793167e277f", "is_disabled": 0, "fusion_lat": 0.0, "fusion_lon": 0.0, "type": "electric_scooter", "lat": 38.90038033333333, "bike_id": "850a43afb5b4cee130ef2793167e277f", "is_reserved": 0, "lon": -77.03956233333334, "rental_uris": {"android": "https://dc.lft.to/lastmile_qr_scan", "ios": "https://dc.lft.to/lastmile_qr_scan"}}, {"name": "87cad4c5fe6517ca46c4aaed7d6cba0f", "is_disabled": 0, "fusion_lat": 0.0, "fusion_lon": 0.0, "type": "electric_scooter", "lat": 38.92117966666667, "bike_id": "87cad4c5fe6517ca46c4aaed7d6cba0f", "is_reserved": 0, "lon": -77.03661383333333, "rental_uris": {"android": "https://dc.lft.to/lastmile_qr_scan", "ios": "https://dc.lft.to/lastmile_qr_scan"}}, {"name": "878d9a1e3559d900953867e6fd73cbce", "is_disabled": 0, "fusion_lat": 0.0, "fusion_lon": 0.0, "type": "electric_scooter", "lat": 38.921457333333336, "bike_id": "878d9a1e3559d900953867e6fd73cbce", "is_reserved": 0, "lon": -77.02098916666667, "rental_uris": {"android": "https://dc.lft.to/lastmile_qr_scan", "ios": "https://dc.lft.to/lastmile_qr_scan"}}, {"name": "6723a5951e2d80f98af0d290f75be6f9", "is_disabled": 0, "fusion_lat": 0.0, "fusion_lon": 0.0, "type": "electric_scooter", "lat": 38.92440166666667, "bike_id": "6723a5951e2d80f98af0d290f75be6f9", "is_reserved": 0, "lon": -77.02153866666667, "rental_uris": {"android": "https://dc.lft.to/lastmile_qr_scan", "ios": "https://dc.lft.to/lastmile_qr_scan"}}, {"name": "74f0d65c91b2ca7acc23d8c5cf887131", "is_disabled": 0, "fusion_lat": 0.0, "fusion_lon": 0.0, "type": "electric_scooter", "lat": 38.90271583333333, "bike_id": "74f0d65c91b2ca7acc23d8c5cf887131", "is_reserved": 0, "lon": -77.05911966666666, "rental_uris": {"android": "https://dc.lft.to/lastmile_qr_scan", "ios": "https://dc.lft.to/lastmile_qr_scan"}}, {"name": "c9278743a3bab374e2b0e8c534963782", "is_disabled": 0, "fusion_lat": 0.0, "fusion_lon": 0.0, "type": "electric_scooter", "lat": 38.886055, "bike_id": "c9278743a3bab374e2b0e8c534963782", "is_reserved": 0, "lon": -76.99517083333333, "rental_uris": {"android": "https://dc.lft.to/lastmile_qr_scan", "ios": "https://dc.lft.to/lastmile_qr_scan"}}, {"name": "e599539b23fac29b8a2d3c37e7456580", "is_disabled": 0, "fusion_lat": 0.0, "fusion_lon": 0.0, "type": "electric_scooter", "lat": 38.904474666666665, "bike_id": "e599539b23fac29b8a2d3c37e7456580", "is_reserved": 0, "lon": -77.02860833333334, "rental_uris": {"android": "https://dc.lft.to/lastmile_qr_scan", "ios": "https://dc.lft.to/lastmile_qr_scan"}}, {"name": "8de6a93082d016c783e9ba33d4dda947", "is_disabled": 0, "fusion_lat": 0.0, "fusion_lon": 0.0, "type": "electric_bike", "lat": 38.9673365, "bike_id": "8de6a93082d016c783e9ba33d4dda947", "is_reserved": 0, "lon": -76.960552, "rental_uris": {"android": "https://dc.lft.to/lastmile_qr_scan", "ios": "https://dc.lft.to/lastmile_qr_scan"}}, {"name": "81f6b3eb4abdee31898ef25af082760e", "is_disabled": 0, "fusion_lat": 0.0, "fusion_lon": 0.0, "type": "electric_scooter", "lat": 38.918169666666664, "bike_id": "81f6b3eb4abdee31898ef25af082760e", "is_reserved": 0, "lon": -77.03703966666667, "rental_uris": {"android": "https://dc.lft.to/lastmile_qr_scan", "ios": "https://dc.lft.to/lastmile_qr_scan"}}, {"name": "108062c12a23b6bbe2e8f336768412ff", "is_disabled": 0, "fusion_lat": 0.0, "fusion_lon": 0.0, "type": "electric_bike", "lat": 38.89648866666667, "bike_id": "108062c12a23b6bbe2e8f336768412ff", "is_reserved": 0, "lon": -76.93023883333333, "rental_uris": {"android": "https://dc.lft.to/lastmile_qr_scan", "ios": "https://dc.lft.to/lastmile_qr_scan"}}, {"name": "9cc9a2cb3987bc0ceb0fdfe5d5c08603", "is_disabled": 0, "fusion_lat": 0.0, "fusion_lon": 0.0, "type": "electric_scooter", "lat": 38.928327, "bike_id": "9cc9a2cb3987bc0ceb0fdfe5d5c08603", "is_reserved": 0, "lon": -77.0370885, "rental_uris": {"android": "https://dc.lft.to/lastmile_qr_scan", "ios": "https://dc.lft.to/lastmile_qr_scan"}}, {"name": "718df0527997d74a2f4e012a23f9e88c", "is_disabled": 0, "fusion_lat": 0.0, "fusion_lon": 0.0, "type": "electric_scooter", "lat": 38.92254833333333, "bike_id": "718df0527997d74a2f4e012a23f9e88c", "is_reserved": 0, "lon": -77.01831233333333, "rental_uris": {"android": "https://dc.lft.to/lastmile_qr_scan", "ios": "https://dc.lft.to/lastmile_qr_scan"}}, {"name": "81f2f3a2c2d181fc89b449e81b209641", "is_disabled": 0, "fusion_lat": 0.0, "fusion_lon": 0.0, "type": "electric_scooter", "lat": 38.929766666666666, "bike_id": "81f2f3a2c2d181fc89b449e81b209641", "is_reserved": 0, "lon": -77.01448966666666, "rental_uris": {"android": "https://dc.lft.to/lastmile_qr_scan", "ios": "https://dc.lft.to/lastmile_qr_scan"}}, {"name": "d54c7ee78656cdc33034d87fe1ef3cc2", "is_disabled": 0, "fusion_lat": 0.0, "fusion_lon": 0.0, "type": "electric_scooter", "lat": 38.91099, "bike_id": "d54c7ee78656cdc33034d87fe1ef3cc2", "is_reserved": 0, "lon": -77.044965, "rental_uris": {"android": "https://dc.lft.to/lastmile_qr_scan", "ios": "https://dc.lft.to/lastmile_qr_scan"}}, {"name": "85036c3161c1f3db57b3d8bb280f4ad5", "is_disabled": 0, "fusion_lat": 0.0, "fusion_lon": 0.0, "type": "electric_scooter", "lat": 38.910615166666666, "bike_id": "85036c3161c1f3db57b3d8bb280f4ad5", "is_reserved": 0, "lon": -77.04101416666667, "rental_uris": {"android": "https://dc.lft.to/lastmile_qr_scan", "ios": "https://dc.lft.to/lastmile_qr_scan"}}, {"name": "f5517158a6958760f9a4454c940f1dc5", "is_disabled": 0, "fusion_lat": 0.0, "fusion_lon": 0.0, "type": "electric_scooter", "lat": 38.92204233333333, "bike_id": "f5517158a6958760f9a4454c940f1dc5", "is_reserved": 0, "lon": -77.04264183333333, "rental_uris": {"android": "https://dc.lft.to/lastmile_qr_scan", "ios": "https://dc.lft.to/lastmile_qr_scan"}}, {"name": "cf62dfe02110c79dbe8bbd77b272a9de", "is_disabled": 0, "fusion_lat": 0.0, "fusion_lon": 0.0, "type": "electric_scooter", "lat": 38.921231, "bike_id": "cf62dfe02110c79dbe8bbd77b272a9de", "is_reserved": 0, "lon": -77.04426233333334, "rental_uris": {"android": "https://dc.lft.to/lastmile_qr_scan", "ios": "https://dc.lft.to/lastmile_qr_scan"}}, {"name": "bcce8f72a5d3813cf6086130fa7f8d6e", "is_disabled": 0, "fusion_lat": 0.0, "fusion_lon": 0.0, "type": "electric_scooter", "lat": 38.90391116666667, "bike_id": "bcce8f72a5d3813cf6086130fa7f8d6e", "is_reserved": 0, "lon": -77.03440016666667, "rental_uris": {"android": "https://dc.lft.to/lastmile_qr_scan", "ios": "https://dc.lft.to/lastmile_qr_scan"}}, {"name": "d25e47d48b04bde069b13f7170e4179d", "is_disabled": 0, "fusion_lat": 0.0, "fusion_lon": 0.0, "type": "electric_bike", "lat": 38.855636, "bike_id": "d25e47d48b04bde069b13f7170e4179d", "is_reserved": 0, "lon": -77.08190233333333, "rental_uris": {"android": "https://dc.lft.to/lastmile_qr_scan", "ios": "https://dc.lft.to/lastmile_qr_scan"}}, {"name": "fb11a70bb84c6674f1acef5d899cb77d", "is_disabled": 0, "fusion_lat": 0.0, "fusion_lon": 0.0, "type": "electric_scooter", "lat": 38.89614533333334, "bike_id": "fb11a70bb84c6674f1acef5d899cb77d", "is_reserved": 0, "lon": -77.04352933333334, "rental_uris": {"android": "https://dc.lft.to/lastmile_qr_scan", "ios": "https://dc.lft.to/lastmile_qr_scan"}}, {"name": "661c59b126634ab193c0c0799ffac0fc", "is_disabled": 0, "fusion_lat": 0.0, "fusion_lon": 0.0, "type": "electric_scooter", "lat": 38.902796, "bike_id": "661c59b126634ab193c0c0799ffac0fc", "is_reserved": 0, "lon": -77.05811166666666, "rental_uris": {"android": "https://dc.lft.to/lastmile_qr_scan", "ios": "https://dc.lft.to/lastmile_qr_scan"}}, {"name": "09554f45b6ea96bcc27329e5a464b118", "is_disabled": 0, "fusion_lat": 0.0, "fusion_lon": 0.0, "type": "electric_scooter", "lat": 38.93040233333333, "bike_id": "09554f45b6ea96bcc27329e5a464b118", "is_reserved": 0, "lon": -77.037999, "rental_uris": {"android": "https://dc.lft.to/lastmile_qr_scan", "ios": "https://dc.lft.to/lastmile_qr_scan"}}, {"name": "5627821a5853215bc1f2a7ef0eb7007d", "is_disabled": 0, "fusion_lat": 0.0, "fusion_lon": 0.0, "type": "electric_scooter", "lat": 38.953258166666664, "bike_id": "5627821a5853215bc1f2a7ef0eb7007d", "is_reserved": 0, "lon": -77.07072133333334, "rental_uris": {"android": "https://dc.lft.to/lastmile_qr_scan", "ios": "https://dc.lft.to/lastmile_qr_scan"}}, {"name": "f6c6c70504460407906d8c415db656df", "is_disabled": 0, "fusion_lat": 0.0, "fusion_lon": 0.0, "type": "electric_scooter", "lat": 38.9216125, "bike_id": "f6c6c70504460407906d8c415db656df", "is_reserved": 0, "lon": -77.03320816666667, "rental_uris": {"android": "https://dc.lft.to/lastmile_qr_scan", "ios": "https://dc.lft.to/lastmile_qr_scan"}}, {"name": "06e0764679ad46e6b39f86268e151914", "is_disabled": 0, "fusion_lat": 0.0, "fusion_lon": 0.0, "type": "electric_scooter", "lat": 38.907851, "bike_id": "06e0764679ad46e6b39f86268e151914", "is_reserved": 0, "lon": -77.07256883333334, "rental_uris": {"android": "https://dc.lft.to/lastmile_qr_scan", "ios": "https://dc.lft.to/lastmile_qr_scan"}}, {"name": "cc57bf961e2f69c9b51433d6b6c5403b", "is_disabled": 0, "fusion_lat": 0.0, "fusion_lon": 0.0, "type": "electric_bike", "lat": 39.057913666666664, "bike_id": "cc57bf961e2f69c9b51433d6b6c5403b", "is_reserved": 0, "lon": -77.15025183333333, "rental_uris": {"android": "https://dc.lft.to/lastmile_qr_scan", "ios": "https://dc.lft.to/lastmile_qr_scan"}}, {"name": "1563b455084e3b19dae83078815087db", "is_disabled": 0, "fusion_lat": 0.0, "fusion_lon": 0.0, "type": "electric_bike", "lat": 38.967403166666664, "bike_id": "1563b455084e3b19dae83078815087db", "is_reserved": 0, "lon": -76.98196766666666, "rental_uris": {"android": "https://dc.lft.to/lastmile_qr_scan", "ios": "https://dc.lft.to/lastmile_qr_scan"}}, {"name": "272d0e06fdf04d4721aa9bd7943f7f61", "is_disabled": 0, "fusion_lat": 0.0, "fusion_lon": 0.0, "type": "electric_scooter", "lat": 38.91559083333333, "bike_id": "272d0e06fdf04d4721aa9bd7943f7f61", "is_reserved": 0, "lon": -77.04099783333334, "rental_uris": {"android": "https://dc.lft.to/lastmile_qr_scan", "ios": "https://dc.lft.to/lastmile_qr_scan"}}, {"name": "1d98d572ef751196adfb4d4fc1ccd577", "is_disabled": 0, "fusion_lat": 0.0, "fusion_lon": 0.0, "type": "electric_scooter", "lat": 38.917045, "bike_id": "1d98d572ef751196adfb4d4fc1ccd577", "is_reserved": 0, "lon": -77.023061, "rental_uris": {"android": "https://dc.lft.to/lastmile_qr_scan", "ios": "https://dc.lft.to/lastmile_qr_scan"}}, {"name": "90e00afa429265b24675aa9b6987b20e", "is_disabled": 0, "fusion_lat": 0.0, "fusion_lon": 0.0, "type": "electric_scooter", "lat": 38.902383, "bike_id": "90e00afa429265b24675aa9b6987b20e", "is_reserved": 0, "lon": -77.00198816666666, "rental_uris": {"android": "https://dc.lft.to/lastmile_qr_scan", "ios": "https://dc.lft.to/lastmile_qr_scan"}}, {"name": "0ddd1724c1adfd6b4e4df07d53fdee24", "is_disabled": 0, "fusion_lat": 0.0, "fusion_lon": 0.0, "type": "electric_scooter", "lat": 38.9096805, "bike_id": "0ddd1724c1adfd6b4e4df07d53fdee24", "is_reserved": 0, "lon": -77.03220083333333, "rental_uris": {"android": "https://dc.lft.to/lastmile_qr_scan", "ios": "https://dc.lft.to/lastmile_qr_scan"}}, {"name": "d24b24cd42ab255342b4c2661c50c2a2", "is_disabled": 0, "fusion_lat": 0.0, "fusion_lon": 0.0, "type": "electric_scooter", "lat": 38.91028033333333, "bike_id": "d24b24cd42ab255342b4c2661c50c2a2", "is_reserved": 0, "lon": -77.04502083333334, "rental_uris": {"android": "https://dc.lft.to/lastmile_qr_scan", "ios": "https://dc.lft.to/lastmile_qr_scan"}}, {"name": "af6a5a3e1e431cfc8726506446e6abec", "is_disabled": 0, "fusion_lat": 0.0, "fusion_lon": 0.0, "type": "electric_scooter", "lat": 38.90386216666667, "bike_id": "af6a5a3e1e431cfc8726506446e6abec", "is_reserved": 0, "lon": -77.04302233333334, "rental_uris": {"android": "https://dc.lft.to/lastmile_qr_scan", "ios": "https://dc.lft.to/lastmile_qr_scan"}}, {"name": "70cb2b5058c6e9d4ef2d3aaadf77e122", "is_disabled": 0, "fusion_lat": 0.0, "fusion_lon": 0.0, "type": "electric_scooter", "lat": 38.90265933333333, "bike_id": "70cb2b5058c6e9d4ef2d3aaadf77e122", "is_reserved": 0, "lon": -77.03965416666666, "rental_uris": {"android": "https://dc.lft.to/lastmile_qr_scan", "ios": "https://dc.lft.to/lastmile_qr_scan"}}, {"name": "c065ad8b6fde5f681b0fb25bf3c0cc71", "is_disabled": 0, "fusion_lat": 0.0, "fusion_lon": 0.0, "type": "electric_scooter", "lat": 38.917443, "bike_id": "c065ad8b6fde5f681b0fb25bf3c0cc71", "is_reserved": 0, "lon": -77.03644833333334, "rental_uris": {"android": "https://dc.lft.to/lastmile_qr_scan", "ios": "https://dc.lft.to/lastmile_qr_scan"}}, {"name": "0c67ef7664d3b4abb6e23e1dc5d57d95", "is_disabled": 0, "fusion_lat": 0.0, "fusion_lon": 0.0, "type": "electric_bike", "lat": 38.892805333333335, "bike_id": "0c67ef7664d3b4abb6e23e1dc5d57d95", "is_reserved": 0, "lon": -77.02585833333333, "rental_uris": {"android": "https://dc.lft.to/lastmile_qr_scan", "ios": "https://dc.lft.to/lastmile_qr_scan"}}, {"name": "a67f76f75de4dfc1f8f5a2f26c362de1", "is_disabled": 0, "fusion_lat": 0.0, "fusion_lon": 0.0, "type": "electric_scooter", "lat": 38.892211, "bike_id": "a67f76f75de4dfc1f8f5a2f26c362de1", "is_reserved": 0, "lon": -77.046885, "rental_uris": {"android": "https://dc.lft.to/lastmile_qr_scan", "ios": "https://dc.lft.to/lastmile_qr_scan"}}, {"name": "652415f10379cb92856e28ae7d641bb4", "is_disabled": 0, "fusion_lat": 0.0, "fusion_lon": 0.0, "type": "electric_scooter", "lat": 38.9126495, "bike_id": "652415f10379cb92856e28ae7d641bb4", "is_reserved": 0, "lon": -77.02874733333333, "rental_uris": {"android": "https://dc.lft.to/lastmile_qr_scan", "ios": "https://dc.lft.to/lastmile_qr_scan"}}, {"name": "91199245efd4ed7964e70e62137745e2", "is_disabled": 0, "fusion_lat": 0.0, "fusion_lon": 0.0, "type": "electric_bike", "lat": 39.01478083333333, "bike_id": "91199245efd4ed7964e70e62137745e2", "is_reserved": 0, "lon": -77.0549945, "rental_uris": {"android": "https://dc.lft.to/lastmile_qr_scan", "ios": "https://dc.lft.to/lastmile_qr_scan"}}, {"name": "4acc6354bb910bd45b8071c6f772fed2", "is_disabled": 0, "fusion_lat": 0.0, "fusion_lon": 0.0, "type": "electric_scooter", "lat": 38.9102595, "bike_id": "4acc6354bb910bd45b8071c6f772fed2", "is_reserved": 0, "lon": -77.03193316666666, "rental_uris": {"android": "https://dc.lft.to/lastmile_qr_scan", "ios": "https://dc.lft.to/lastmile_qr_scan"}}, {"name": "fdea836c3bd095bd4ec35842f6a6cf62", "is_disabled": 0, "fusion_lat": 0.0, "fusion_lon": 0.0, "type": "electric_scooter", "lat": 38.90624116666667, "bike_id": "fdea836c3bd095bd4ec35842f6a6cf62", "is_reserved": 0, "lon": -77.02377383333334, "rental_uris": {"android": "https://dc.lft.to/lastmile_qr_scan", "ios": "https://dc.lft.to/lastmile_qr_scan"}}, {"name": "f321630d6d0c615a92e31e09c9234466", "is_disabled": 0, "fusion_lat": 0.0, "fusion_lon": 0.0, "type": "electric_scooter", "lat": 38.905518666666666, "bike_id": "f321630d6d0c615a92e31e09c9234466", "is_reserved": 0, "lon": -77.04345333333333, "rental_uris": {"android": "https://dc.lft.to/lastmile_qr_scan", "ios": "https://dc.lft.to/lastmile_qr_scan"}}, {"name": "b739983324d4e0552ac233ad23492f36", "is_disabled": 0, "fusion_lat": 0.0, "fusion_lon": 0.0, "type": "electric_scooter", "lat": 38.906461166666666, "bike_id": "b739983324d4e0552ac233ad23492f36", "is_reserved": 0, "lon": -77.04673716666667, "rental_uris": {"android": "https://dc.lft.to/lastmile_qr_scan", "ios": "https://dc.lft.to/lastmile_qr_scan"}}, {"name": "481d4a2ed047b572257b3a87d69286ad", "is_disabled": 0, "fusion_lat": 0.0, "fusion_lon": 0.0, "type": "electric_scooter", "lat": 38.9006985, "bike_id": "481d4a2ed047b572257b3a87d69286ad", "is_reserved": 0, "lon": -77.04888733333334, "rental_uris": {"android": "https://dc.lft.to/lastmile_qr_scan", "ios": "https://dc.lft.to/lastmile_qr_scan"}}, {"name": "efc71e7917eadffbfcf2bd6069a0bae8", "is_disabled": 0, "fusion_lat": 0.0, "fusion_lon": 0.0, "type": "electric_scooter", "lat": 38.911145166666664, "bike_id": "efc71e7917eadffbfcf2bd6069a0bae8", "is_reserved": 0, "lon": -77.03157416666667, "rental_uris": {"android": "https://dc.lft.to/lastmile_qr_scan", "ios": "https://dc.lft.to/lastmile_qr_scan"}}, {"name": "0cf4f84b288f138d390be92a78daa28c", "is_disabled": 0, "fusion_lat": 0.0, "fusion_lon": 0.0, "type": "electric_scooter", "lat": 38.89143983333334, "bike_id": "0cf4f84b288f138d390be92a78daa28c", "is_reserved": 0, "lon": -76.93917133333333, "rental_uris": {"android": "https://dc.lft.to/lastmile_qr_scan", "ios": "https://dc.lft.to/lastmile_qr_scan"}}, {"name": "8a753c499a2ce8b63c80dddd9cca178d", "is_disabled": 0, "fusion_lat": 0.0, "fusion_lon": 0.0, "type": "electric_scooter", "lat": 38.922714666666664, "bike_id": "8a753c499a2ce8b63c80dddd9cca178d", "is_reserved": 0, "lon": -77.0192065, "rental_uris": {"android": "https://dc.lft.to/lastmile_qr_scan", "ios": "https://dc.lft.to/lastmile_qr_scan"}}, {"name": "4368709ecef0a34960c51cbfdc3da36c", "is_disabled": 0, "fusion_lat": 0.0, "fusion_lon": 0.0, "type": "electric_bike", "lat": 38.8578665, "bike_id": "4368709ecef0a34960c51cbfdc3da36c", "is_reserved": 0, "lon": -77.12021983333334, "rental_uris": {"android": "https://dc.lft.to/lastmile_qr_scan", "ios": "https://dc.lft.to/lastmile_qr_scan"}}, {"name": "23a763620e5c04ae176d06178be24420", "is_disabled": 0, "fusion_lat": 0.0, "fusion_lon": 0.0, "type": "electric_scooter", "lat": 38.90546783333333, "bike_id": "23a763620e5c04ae176d06178be24420", "is_reserved": 0, "lon": -77.0250995, "rental_uris": {"android": "https://dc.lft.to/lastmile_qr_scan", "ios": "https://dc.lft.to/lastmile_qr_scan"}}, {"name": "d6f8689e286a65048c0c82c9281887df", "is_disabled": 0, "fusion_lat": 0.0, "fusion_lon": 0.0, "type": "electric_scooter", "lat": 38.900299, "bike_id": "d6f8689e286a65048c0c82c9281887df", "is_reserved": 0, "lon": -76.99615833333333, "rental_uris": {"android": "https://dc.lft.to/lastmile_qr_scan", "ios": "https://dc.lft.to/lastmile_qr_scan"}}, {"name": "5b464afe35065dab53bbe117e750aab1", "is_disabled": 0, "fusion_lat": 0.0, "fusion_lon": 0.0, "type": "electric_bike", "lat": 38.878727833333336, "bike_id": "5b464afe35065dab53bbe117e750aab1", "is_reserved": 0, "lon": -76.990183, "rental_uris": {"android": "https://dc.lft.to/lastmile_qr_scan", "ios": "https://dc.lft.to/lastmile_qr_scan"}}, {"name": "de49bdf82f2e7dfc7d55a63264513a14", "is_disabled": 0, "fusion_lat": 0.0, "fusion_lon": 0.0, "type": "electric_scooter", "lat": 38.928732, "bike_id": "de49bdf82f2e7dfc7d55a63264513a14", "is_reserved": 0, "lon": -77.0330955, "rental_uris": {"android": "https://dc.lft.to/lastmile_qr_scan", "ios": "https://dc.lft.to/lastmile_qr_scan"}}, {"name": "d1872509a64d57612559c47b41d5cc3c", "is_disabled": 0, "fusion_lat": 0.0, "fusion_lon": 0.0, "type": "electric_scooter", "lat": 38.90827866666667, "bike_id": "d1872509a64d57612559c47b41d5cc3c", "is_reserved": 0, "lon": -76.94158916666666, "rental_uris": {"android": "https://dc.lft.to/lastmile_qr_scan", "ios": "https://dc.lft.to/lastmile_qr_scan"}}, {"name": "621188fb8f641c745a2f4083691bb25d", "is_disabled": 0, "fusion_lat": 0.0, "fusion_lon": 0.0, "type": "electric_scooter", "lat": 38.90586366666667, "bike_id": "621188fb8f641c745a2f4083691bb25d", "is_reserved": 0, "lon": -76.99309383333333, "rental_uris": {"android": "https://dc.lft.to/lastmile_qr_scan", "ios": "https://dc.lft.to/lastmile_qr_scan"}}, {"name": "4b9c58ec0a5562eef67ea844337f0cfa", "is_disabled": 0, "fusion_lat": 0.0, "fusion_lon": 0.0, "type": "electric_scooter", "lat": 38.89743033333333, "bike_id": "4b9c58ec0a5562eef67ea844337f0cfa", "is_reserved": 0, "lon": -77.007805, "rental_uris": {"android": "https://dc.lft.to/lastmile_qr_scan", "ios": "https://dc.lft.to/lastmile_qr_scan"}}, {"name": "116b7ab647c1b4b0b5f4d8128813a3d4", "is_disabled": 0, "fusion_lat": 0.0, "fusion_lon": 0.0, "type": "electric_scooter", "lat": 38.90627583333333, "bike_id": "116b7ab647c1b4b0b5f4d8128813a3d4", "is_reserved": 0, "lon": -77.06896483333334, "rental_uris": {"android": "https://dc.lft.to/lastmile_qr_scan", "ios": "https://dc.lft.to/lastmile_qr_scan"}}, {"name": "3af19ec933659f5b2e560e102ea536c3", "is_disabled": 0, "fusion_lat": 0.0, "fusion_lon": 0.0, "type": "electric_scooter", "lat": 38.89549066666667, "bike_id": "3af19ec933659f5b2e560e102ea536c3", "is_reserved": 0, "lon": -76.94879566666667, "rental_uris": {"android": "https://dc.lft.to/lastmile_qr_scan", "ios": "https://dc.lft.to/lastmile_qr_scan"}}, {"name": "0788c40a0b6d139494123a492d3c3b34", "is_disabled": 0, "fusion_lat": 0.0, "fusion_lon": 0.0, "type": "electric_bike", "lat": 38.872731333333334, "bike_id": "0788c40a0b6d139494123a492d3c3b34", "is_reserved": 0, "lon": -77.23334933333334, "rental_uris": {"android": "https://dc.lft.to/lastmile_qr_scan", "ios": "https://dc.lft.to/lastmile_qr_scan"}}, {"name": "307fb138f107a3967e6300844280e050", "is_disabled": 0, "fusion_lat": 0.0, "fusion_lon": 0.0, "type": "electric_scooter", "lat": 38.9015735, "bike_id": "307fb138f107a3967e6300844280e050", "is_reserved": 0, "lon": -77.06007033333333, "rental_uris": {"android": "https://dc.lft.to/lastmile_qr_scan", "ios": "https://dc.lft.to/lastmile_qr_scan"}}, {"name": "ff59d5b6cbfe2135938121f1191042b5", "is_disabled": 0, "fusion_lat": 0.0, "fusion_lon": 0.0, "type": "electric_scooter", "lat": 38.905818333333336, "bike_id": "ff59d5b6cbfe2135938121f1191042b5", "is_reserved": 0, "lon": -77.00305416666667, "rental_uris": {"android": "https://dc.lft.to/lastmile_qr_scan", "ios": "https://dc.lft.to/lastmile_qr_scan"}}, {"name": "a072de084e112c09aa0b4a56a2fed3c0", "is_disabled": 0, "fusion_lat": 0.0, "fusion_lon": 0.0, "type": "electric_scooter", "lat": 38.92334866666667, "bike_id": "a072de084e112c09aa0b4a56a2fed3c0", "is_reserved": 0, "lon": -77.04189183333334, "rental_uris": {"android": "https://dc.lft.to/lastmile_qr_scan", "ios": "https://dc.lft.to/lastmile_qr_scan"}}, {"name": "651d0f5cd476c2133ceb8f7f58c89b9a", "is_disabled": 0, "fusion_lat": 0.0, "fusion_lon": 0.0, "type": "electric_scooter", "lat": 38.917788333333334, "bike_id": "651d0f5cd476c2133ceb8f7f58c89b9a", "is_reserved": 0, "lon": -77.0318735, "rental_uris": {"android": "https://dc.lft.to/lastmile_qr_scan", "ios": "https://dc.lft.to/lastmile_qr_scan"}}, {"name": "572d400a958f8ce00f352a1d49b6f0f7", "is_disabled": 0, "fusion_lat": 0.0, "fusion_lon": 0.0, "type": "electric_scooter", "lat": 38.903756, "bike_id": "572d400a958f8ce00f352a1d49b6f0f7", "is_reserved": 0, "lon": -77.034607, "rental_uris": {"android": "https://dc.lft.to/lastmile_qr_scan", "ios": "https://dc.lft.to/lastmile_qr_scan"}}, {"name": "93efda0a19adbbb0ac3b813e864e4897", "is_disabled": 0, "fusion_lat": 0.0, "fusion_lon": 0.0, "type": "electric_scooter", "lat": 38.90150633333333, "bike_id": "93efda0a19adbbb0ac3b813e864e4897", "is_reserved": 0, "lon": -77.0403345, "rental_uris": {"android": "https://dc.lft.to/lastmile_qr_scan", "ios": "https://dc.lft.to/lastmile_qr_scan"}}, {"name": "5d8217f4e07817f8ac55be8602de3081", "is_disabled": 0, "fusion_lat": 0.0, "fusion_lon": 0.0, "type": "electric_scooter", "lat": 38.902085166666666, "bike_id": "5d8217f4e07817f8ac55be8602de3081", "is_reserved": 0, "lon": -77.051235, "rental_uris": {"android": "https://dc.lft.to/lastmile_qr_scan", "ios": "https://dc.lft.to/lastmile_qr_scan"}}, {"name": "92497d324b4d76eb74057405bf5b90ac", "is_disabled": 0, "fusion_lat": 0.0, "fusion_lon": 0.0, "type": "electric_scooter", "lat": 38.9137735, "bike_id": "92497d324b4d76eb74057405bf5b90ac", "is_reserved": 0, "lon": -77.04137, "rental_uris": {"android": "https://dc.lft.to/lastmile_qr_scan", "ios": "https://dc.lft.to/lastmile_qr_scan"}}, {"name": "d145f890f7e307e4f7fa1cfee6ad3688", "is_disabled": 0, "fusion_lat": 0.0, "fusion_lon": 0.0, "type": "electric_scooter", "lat": 38.91690166666667, "bike_id": "d145f890f7e307e4f7fa1cfee6ad3688", "is_reserved": 0, "lon": -77.02597716666666, "rental_uris": {"android": "https://dc.lft.to/lastmile_qr_scan", "ios": "https://dc.lft.to/lastmile_qr_scan"}}, {"name": "4b0869558e94f9aa4b28d36363325a8e", "is_disabled": 0, "fusion_lat": 0.0, "fusion_lon": 0.0, "type": "electric_scooter", "lat": 38.9078, "bike_id": "4b0869558e94f9aa4b28d36363325a8e", "is_reserved": 0, "lon": -77.072602, "rental_uris": {"android": "https://dc.lft.to/lastmile_qr_scan", "ios": "https://dc.lft.to/lastmile_qr_scan"}}, {"name": "25869ef21a6359130c72e4ec907aa71c", "is_disabled": 0, "fusion_lat": 0.0, "fusion_lon": 0.0, "type": "electric_scooter", "lat": 38.927218333333336, "bike_id": "25869ef21a6359130c72e4ec907aa71c", "is_reserved": 0, "lon": -77.03992166666667, "rental_uris": {"android": "https://dc.lft.to/lastmile_qr_scan", "ios": "https://dc.lft.to/lastmile_qr_scan"}}, {"name": "0490fce4274a0b628b955e40a2009bb0", "is_disabled": 0, "fusion_lat": 0.0, "fusion_lon": 0.0, "type": "electric_scooter", "lat": 38.9057915, "bike_id": "0490fce4274a0b628b955e40a2009bb0", "is_reserved": 0, "lon": -77.02220183333333, "rental_uris": {"android": "https://dc.lft.to/lastmile_qr_scan", "ios": "https://dc.lft.to/lastmile_qr_scan"}}, {"name": "4b379e3f24c07ce9979c8533ed9c2e31", "is_disabled": 0, "fusion_lat": 0.0, "fusion_lon": 0.0, "type": "electric_scooter", "lat": 38.849856833333334, "bike_id": "4b379e3f24c07ce9979c8533ed9c2e31", "is_reserved": 0, "lon": -76.9835755, "rental_uris": {"android": "https://dc.lft.to/lastmile_qr_scan", "ios": "https://dc.lft.to/lastmile_qr_scan"}}, {"name": "c1479b0e8571a13c23bb8e83e2862d6c", "is_disabled": 0, "fusion_lat": 0.0, "fusion_lon": 0.0, "type": "electric_scooter", "lat": 38.921692, "bike_id": "c1479b0e8571a13c23bb8e83e2862d6c", "is_reserved": 0, "lon": -77.03213966666667, "rental_uris": {"android": "https://dc.lft.to/lastmile_qr_scan", "ios": "https://dc.lft.to/lastmile_qr_scan"}}, {"name": "3acc96c3b41927eda3951f83d6c31b8e", "is_disabled": 0, "fusion_lat": 0.0, "fusion_lon": 0.0, "type": "electric_scooter", "lat": 38.902552666666665, "bike_id": "3acc96c3b41927eda3951f83d6c31b8e", "is_reserved": 0, "lon": -77.0392025, "rental_uris": {"android": "https://dc.lft.to/lastmile_qr_scan", "ios": "https://dc.lft.to/lastmile_qr_scan"}}, {"name": "05611dfa20bf972b271ec7941ce8b8d8", "is_disabled": 0, "fusion_lat": 0.0, "fusion_lon": 0.0, "type": "electric_bike", "lat": 38.862098333333336, "bike_id": "05611dfa20bf972b271ec7941ce8b8d8", "is_reserved": 0, "lon": -76.9955845, "rental_uris": {"android": "https://dc.lft.to/lastmile_qr_scan", "ios": "https://dc.lft.to/lastmile_qr_scan"}}, {"name": "c34714866d14c4debd49cecc1eba00ee", "is_disabled": 0, "fusion_lat": 0.0, "fusion_lon": 0.0, "type": "electric_scooter", "lat": 38.90185366666667, "bike_id": "c34714866d14c4debd49cecc1eba00ee", "is_reserved": 0, "lon": -76.93370783333333, "rental_uris": {"android": "https://dc.lft.to/lastmile_qr_scan", "ios": "https://dc.lft.to/lastmile_qr_scan"}}, {"name": "1a813c6cd6dda1ed4441eb1c8da754cc", "is_disabled": 0, "fusion_lat": 0.0, "fusion_lon": 0.0, "type": "electric_scooter", "lat": 38.919469, "bike_id": "1a813c6cd6dda1ed4441eb1c8da754cc", "is_reserved": 0, "lon": -77.02379883333333, "rental_uris": {"android": "https://dc.lft.to/lastmile_qr_scan", "ios": "https://dc.lft.to/lastmile_qr_scan"}}, {"name": "82a1c8064e5b898d735bd89825f9f949", "is_disabled": 0, "fusion_lat": 0.0, "fusion_lon": 0.0, "type": "electric_scooter", "lat": 38.85849, "bike_id": "82a1c8064e5b898d735bd89825f9f949", "is_reserved": 0, "lon": -76.98568533333334, "rental_uris": {"android": "https://dc.lft.to/lastmile_qr_scan", "ios": "https://dc.lft.to/lastmile_qr_scan"}}, {"name": "546185c46aaa6de8026a3c275dcacd10", "is_disabled": 0, "fusion_lat": 0.0, "fusion_lon": 0.0, "type": "electric_scooter", "lat": 38.908967833333335, "bike_id": "546185c46aaa6de8026a3c275dcacd10", "is_reserved": 0, "lon": -76.99857716666666, "rental_uris": {"android": "https://dc.lft.to/lastmile_qr_scan", "ios": "https://dc.lft.to/lastmile_qr_scan"}}, {"name": "f33ed52aca1628629e690e86c18838bc", "is_disabled": 0, "fusion_lat": 0.0, "fusion_lon": 0.0, "type": "electric_scooter", "lat": 38.9078095, "bike_id": "f33ed52aca1628629e690e86c18838bc", "is_reserved": 0, "lon": -77.03832233333333, "rental_uris": {"android": "https://dc.lft.to/lastmile_qr_scan", "ios": "https://dc.lft.to/lastmile_qr_scan"}}, {"name": "33b83cea31d1557939ceb8325f8392a5", "is_disabled": 0, "fusion_lat": 0.0, "fusion_lon": 0.0, "type": "electric_scooter", "lat": 38.909355833333336, "bike_id": "33b83cea31d1557939ceb8325f8392a5", "is_reserved": 0, "lon": -77.030695, "rental_uris": {"android": "https://dc.lft.to/lastmile_qr_scan", "ios": "https://dc.lft.to/lastmile_qr_scan"}}, {"name": "154b10f9521eed1b44cc468f09c51590", "is_disabled": 0, "fusion_lat": 0.0, "fusion_lon": 0.0, "type": "electric_scooter", "lat": 38.87365483333333, "bike_id": "154b10f9521eed1b44cc468f09c51590", "is_reserved": 0, "lon": -76.9701985, "rental_uris": {"android": "https://dc.lft.to/lastmile_qr_scan", "ios": "https://dc.lft.to/lastmile_qr_scan"}}, {"name": "12d0ea78da06b135a82b3484234e4b39", "is_disabled": 0, "fusion_lat": 0.0, "fusion_lon": 0.0, "type": "electric_scooter", "lat": 38.8929755, "bike_id": "12d0ea78da06b135a82b3484234e4b39", "is_reserved": 0, "lon": -76.99271633333333, "rental_uris": {"android": "https://dc.lft.to/lastmile_qr_scan", "ios": "https://dc.lft.to/lastmile_qr_scan"}}, {"name": "2ba94a8a8fb0d10adbbf114b79229301", "is_disabled": 0, "fusion_lat": 0.0, "fusion_lon": 0.0, "type": "electric_scooter", "lat": 38.90032866666667, "bike_id": "2ba94a8a8fb0d10adbbf114b79229301", "is_reserved": 0, "lon": -77.023996, "rental_uris": {"android": "https://dc.lft.to/lastmile_qr_scan", "ios": "https://dc.lft.to/lastmile_qr_scan"}}, {"name": "45e9b105f9e007f8889a6ad1047ee0ea", "is_disabled": 0, "fusion_lat": 0.0, "fusion_lon": 0.0, "type": "electric_scooter", "lat": 38.959244, "bike_id": "45e9b105f9e007f8889a6ad1047ee0ea", "is_reserved": 0, "lon": -77.03127166666667, "rental_uris": {"android": "https://dc.lft.to/lastmile_qr_scan", "ios": "https://dc.lft.to/lastmile_qr_scan"}}, {"name": "baa1706b03fd2acbfc95472c44b51f51", "is_disabled": 0, "fusion_lat": 0.0, "fusion_lon": 0.0, "type": "electric_scooter", "lat": 38.94291533333333, "bike_id": "baa1706b03fd2acbfc95472c44b51f51", "is_reserved": 0, "lon": -77.02172566666667, "rental_uris": {"android": "https://dc.lft.to/lastmile_qr_scan", "ios": "https://dc.lft.to/lastmile_qr_scan"}}, {"name": "401444103e331e6e0c16ec79b595a82d", "is_disabled": 0, "fusion_lat": 0.0, "fusion_lon": 0.0, "type": "electric_scooter", "lat": 38.91784833333333, "bike_id": "401444103e331e6e0c16ec79b595a82d", "is_reserved": 0, "lon": -77.0319555, "rental_uris": {"android": "https://dc.lft.to/lastmile_qr_scan", "ios": "https://dc.lft.to/lastmile_qr_scan"}}, {"name": "ab4df25fd4ac32939b7f325427335505", "is_disabled": 0, "fusion_lat": 0.0, "fusion_lon": 0.0, "type": "electric_scooter", "lat": 38.87537566666666, "bike_id": "ab4df25fd4ac32939b7f325427335505", "is_reserved": 0, "lon": -77.00589833333333, "rental_uris": {"android": "https://dc.lft.to/lastmile_qr_scan", "ios": "https://dc.lft.to/lastmile_qr_scan"}}, {"name": "b0180f5e19809b1246e46ffe6c3f287f", "is_disabled": 0, "fusion_lat": 0.0, "fusion_lon": 0.0, "type": "electric_scooter", "lat": 38.9080275, "bike_id": "b0180f5e19809b1246e46ffe6c3f287f", "is_reserved": 0, "lon": -77.03846333333334, "rental_uris": {"android": "https://dc.lft.to/lastmile_qr_scan", "ios": "https://dc.lft.to/lastmile_qr_scan"}}, {"name": "952774db689a432c9a2f0d9a97218bfd", "is_disabled": 0, "fusion_lat": 0.0, "fusion_lon": 0.0, "type": "electric_scooter", "lat": 38.890165833333334, "bike_id": "952774db689a432c9a2f0d9a97218bfd", "is_reserved": 0, "lon": -76.93731833333334, "rental_uris": {"android": "https://dc.lft.to/lastmile_qr_scan", "ios": "https://dc.lft.to/lastmile_qr_scan"}}, {"name": "027aee265e3ae87ed264808e427b1c13", "is_disabled": 0, "fusion_lat": 0.0, "fusion_lon": 0.0, "type": "electric_scooter", "lat": 38.90137333333333, "bike_id": "027aee265e3ae87ed264808e427b1c13", "is_reserved": 0, "lon": -77.00855283333334, "rental_uris": {"android": "https://dc.lft.to/lastmile_qr_scan", "ios": "https://dc.lft.to/lastmile_qr_scan"}}, {"name": "f3f6e890a2e1413daecd887f7a3639bc", "is_disabled": 0, "fusion_lat": 0.0, "fusion_lon": 0.0, "type": "electric_bike", "lat": 38.90740983333333, "bike_id": "f3f6e890a2e1413daecd887f7a3639bc", "is_reserved": 0, "lon": -77.0457835, "rental_uris": {"android": "https://dc.lft.to/lastmile_qr_scan", "ios": "https://dc.lft.to/lastmile_qr_scan"}}, {"name": "bef0a43cf83a1d66fe502c0da23ac462", "is_disabled": 0, "fusion_lat": 0.0, "fusion_lon": 0.0, "type": "electric_scooter", "lat": 38.89485583333333, "bike_id": "bef0a43cf83a1d66fe502c0da23ac462", "is_reserved": 0, "lon": -77.011056, "rental_uris": {"android": "https://dc.lft.to/lastmile_qr_scan", "ios": "https://dc.lft.to/lastmile_qr_scan"}}, {"name": "a16323df1d4a31f7dd85c792406b8434", "is_disabled": 0, "fusion_lat": 0.0, "fusion_lon": 0.0, "type": "electric_scooter", "lat": 38.897986833333334, "bike_id": "a16323df1d4a31f7dd85c792406b8434", "is_reserved": 0, "lon": -77.04010183333334, "rental_uris": {"android": "https://dc.lft.to/lastmile_qr_scan", "ios": "https://dc.lft.to/lastmile_qr_scan"}}, {"name": "93eaceaed7473019e20be7d6a29a84d1", "is_disabled": 0, "fusion_lat": 0.0, "fusion_lon": 0.0, "type": "electric_scooter", "lat": 38.922658, "bike_id": "93eaceaed7473019e20be7d6a29a84d1", "is_reserved": 0, "lon": -77.04250883333333, "rental_uris": {"android": "https://dc.lft.to/lastmile_qr_scan", "ios": "https://dc.lft.to/lastmile_qr_scan"}}, {"name": "0616ee3dfcb4edb754ddba4eb0a4abd5", "is_disabled": 0, "fusion_lat": 0.0, "fusion_lon": 0.0, "type": "electric_scooter", "lat": 38.90684316666667, "bike_id": "0616ee3dfcb4edb754ddba4eb0a4abd5", "is_reserved": 0, "lon": -77.0417565, "rental_uris": {"android": "https://dc.lft.to/lastmile_qr_scan", "ios": "https://dc.lft.to/lastmile_qr_scan"}}, {"name": "253bd983b84d5afca3ca5e24a87f3d15", "is_disabled": 0, "fusion_lat": 0.0, "fusion_lon": 0.0, "type": "electric_scooter", "lat": 38.93483, "bike_id": "253bd983b84d5afca3ca5e24a87f3d15", "is_reserved": 0, "lon": -77.06486283333334, "rental_uris": {"android": "https://dc.lft.to/lastmile_qr_scan", "ios": "https://dc.lft.to/lastmile_qr_scan"}}, {"name": "70c2ea008b435485ee0554ec0b2b7857", "is_disabled": 0, "fusion_lat": 0.0, "fusion_lon": 0.0, "type": "electric_scooter", "lat": 38.951921666666664, "bike_id": "70c2ea008b435485ee0554ec0b2b7857", "is_reserved": 0, "lon": -77.027419, "rental_uris": {"android": "https://dc.lft.to/lastmile_qr_scan", "ios": "https://dc.lft.to/lastmile_qr_scan"}}, {"name": "8f13eea9614efcdd80e7135e33cb71e5", "is_disabled": 0, "fusion_lat": 0.0, "fusion_lon": 0.0, "type": "electric_scooter", "lat": 38.90523266666667, "bike_id": "8f13eea9614efcdd80e7135e33cb71e5", "is_reserved": 0, "lon": -77.04174516666667, "rental_uris": {"android": "https://dc.lft.to/lastmile_qr_scan", "ios": "https://dc.lft.to/lastmile_qr_scan"}}, {"name": "dfcd755b257ede19d1b0da4b4f158f5b", "is_disabled": 0, "fusion_lat": 0.0, "fusion_lon": 0.0, "type": "electric_scooter", "lat": 38.907264833333336, "bike_id": "dfcd755b257ede19d1b0da4b4f158f5b", "is_reserved": 0, "lon": -77.04819583333334, "rental_uris": {"android": "https://dc.lft.to/lastmile_qr_scan", "ios": "https://dc.lft.to/lastmile_qr_scan"}}, {"name": "cebe59507b1a36946b8778eaf331a967", "is_disabled": 0, "fusion_lat": 0.0, "fusion_lon": 0.0, "type": "electric_scooter", "lat": 38.89866766666667, "bike_id": "cebe59507b1a36946b8778eaf331a967", "is_reserved": 0, "lon": -76.92758683333334, "rental_uris": {"android": "https://dc.lft.to/lastmile_qr_scan", "ios": "https://dc.lft.to/lastmile_qr_scan"}}, {"name": "45f2dd5678b1104320386c81192647d5", "is_disabled": 0, "fusion_lat": 0.0, "fusion_lon": 0.0, "type": "electric_scooter", "lat": 38.855388, "bike_id": "45f2dd5678b1104320386c81192647d5", "is_reserved": 0, "lon": -76.984205, "rental_uris": {"android": "https://dc.lft.to/lastmile_qr_scan", "ios": "https://dc.lft.to/lastmile_qr_scan"}}, {"name": "1688a7b8775e9128bfcb5e1a9f8b902c", "is_disabled": 0, "fusion_lat": 0.0, "fusion_lon": 0.0, "type": "electric_scooter", "lat": 38.896882833333336, "bike_id": "1688a7b8775e9128bfcb5e1a9f8b902c", "is_reserved": 0, "lon": -77.024113, "rental_uris": {"android": "https://dc.lft.to/lastmile_qr_scan", "ios": "https://dc.lft.to/lastmile_qr_scan"}}, {"name": "94bb89ece4c752a7f8f4e7aec22d36a2", "is_disabled": 0, "fusion_lat": 0.0, "fusion_lon": 0.0, "type": "electric_scooter", "lat": 38.90083166666667, "bike_id": "94bb89ece4c752a7f8f4e7aec22d36a2", "is_reserved": 0, "lon": -76.93021883333333, "rental_uris": {"android": "https://dc.lft.to/lastmile_qr_scan", "ios": "https://dc.lft.to/lastmile_qr_scan"}}, {"name": "34283eec1192fa31cc17f5cefa2db5d4", "is_disabled": 0, "fusion_lat": 0.0, "fusion_lon": 0.0, "type": "electric_scooter", "lat": 38.917654166666665, "bike_id": "34283eec1192fa31cc17f5cefa2db5d4", "is_reserved": 0, "lon": -77.040598, "rental_uris": {"android": "https://dc.lft.to/lastmile_qr_scan", "ios": "https://dc.lft.to/lastmile_qr_scan"}}, {"name": "0fb9bfdeb3231f1eb990f18dc507f7b5", "is_disabled": 0, "fusion_lat": 0.0, "fusion_lon": 0.0, "type": "electric_scooter", "lat": 38.92307133333333, "bike_id": "0fb9bfdeb3231f1eb990f18dc507f7b5", "is_reserved": 0, "lon": -77.0195815, "rental_uris": {"android": "https://dc.lft.to/lastmile_qr_scan", "ios": "https://dc.lft.to/lastmile_qr_scan"}}, {"name": "ce8cbf8ec3a21b3e94a854df7d1c2438", "is_disabled": 0, "fusion_lat": 0.0, "fusion_lon": 0.0, "type": "electric_scooter", "lat": 38.884844333333334, "bike_id": "ce8cbf8ec3a21b3e94a854df7d1c2438", "is_reserved": 0, "lon": -76.92619633333334, "rental_uris": {"android": "https://dc.lft.to/lastmile_qr_scan", "ios": "https://dc.lft.to/lastmile_qr_scan"}}, {"name": "5c17d4ce237d4a1a861f256b239d165f", "is_disabled": 0, "fusion_lat": 0.0, "fusion_lon": 0.0, "type": "electric_bike", "lat": 38.956491666666665, "bike_id": "5c17d4ce237d4a1a861f256b239d165f", "is_reserved": 0, "lon": -77.012816, "rental_uris": {"android": "https://dc.lft.to/lastmile_qr_scan", "ios": "https://dc.lft.to/lastmile_qr_scan"}}, {"name": "913d0df56cdea1a689dd64648ef5e399", "is_disabled": 0, "fusion_lat": 0.0, "fusion_lon": 0.0, "type": "electric_scooter", "lat": 38.929782833333334, "bike_id": "913d0df56cdea1a689dd64648ef5e399", "is_reserved": 0, "lon": -77.013305, "rental_uris": {"android": "https://dc.lft.to/lastmile_qr_scan", "ios": "https://dc.lft.to/lastmile_qr_scan"}}, {"name": "05f5def5a774868585ce6e080f976b9f", "is_disabled": 0, "fusion_lat": 0.0, "fusion_lon": 0.0, "type": "electric_scooter", "lat": 38.9486985, "bike_id": "05f5def5a774868585ce6e080f976b9f", "is_reserved": 0, "lon": -77.0269415, "rental_uris": {"android": "https://dc.lft.to/lastmile_qr_scan", "ios": "https://dc.lft.to/lastmile_qr_scan"}}, {"name": "0454337a84e04eaf5c7553396dac9410", "is_disabled": 0, "fusion_lat": 0.0, "fusion_lon": 0.0, "type": "electric_scooter", "lat": 38.9037795, "bike_id": "0454337a84e04eaf5c7553396dac9410", "is_reserved": 0, "lon": -77.04605583333333, "rental_uris": {"android": "https://dc.lft.to/lastmile_qr_scan", "ios": "https://dc.lft.to/lastmile_qr_scan"}}, {"name": "509a8489521fd026d419879a2c25eca5", "is_disabled": 0, "fusion_lat": 0.0, "fusion_lon": 0.0, "type": "electric_scooter", "lat": 38.909098, "bike_id": "509a8489521fd026d419879a2c25eca5", "is_reserved": 0, "lon": -77.07261816666667, "rental_uris": {"android": "https://dc.lft.to/lastmile_qr_scan", "ios": "https://dc.lft.to/lastmile_qr_scan"}}, {"name": "a031cecb7697971f82e754e17a93537a", "is_disabled": 0, "fusion_lat": 0.0, "fusion_lon": 0.0, "type": "electric_bike", "lat": 38.880408333333335, "bike_id": "a031cecb7697971f82e754e17a93537a", "is_reserved": 0, "lon": -77.01131783333334, "rental_uris": {"android": "https://dc.lft.to/lastmile_qr_scan", "ios": "https://dc.lft.to/lastmile_qr_scan"}}, {"name": "bc7fd6dcc589d3ab9fe1a737aee73b52", "is_disabled": 0, "fusion_lat": 0.0, "fusion_lon": 0.0, "type": "electric_scooter", "lat": 38.900032, "bike_id": "bc7fd6dcc589d3ab9fe1a737aee73b52", "is_reserved": 0, "lon": -76.99617183333334, "rental_uris": {"android": "https://dc.lft.to/lastmile_qr_scan", "ios": "https://dc.lft.to/lastmile_qr_scan"}}, {"name": "ff4b9ed48475771cde836385c6abe413", "is_disabled": 0, "fusion_lat": 0.0, "fusion_lon": 0.0, "type": "electric_scooter", "lat": 38.9287175, "bike_id": "ff4b9ed48475771cde836385c6abe413", "is_reserved": 0, "lon": -77.03173516666666, "rental_uris": {"android": "https://dc.lft.to/lastmile_qr_scan", "ios": "https://dc.lft.to/lastmile_qr_scan"}}, {"name": "25606e72f7ecf522925b7de746431239", "is_disabled": 0, "fusion_lat": 0.0, "fusion_lon": 0.0, "type": "electric_scooter", "lat": 38.89413283333333, "bike_id": "25606e72f7ecf522925b7de746431239", "is_reserved": 0, "lon": -77.02419483333334, "rental_uris": {"android": "https://dc.lft.to/lastmile_qr_scan", "ios": "https://dc.lft.to/lastmile_qr_scan"}}, {"name": "02645b48859e7ef9054dc2e8693a9fd2", "is_disabled": 0, "fusion_lat": 0.0, "fusion_lon": 0.0, "type": "electric_scooter", "lat": 38.905677833333336, "bike_id": "02645b48859e7ef9054dc2e8693a9fd2", "is_reserved": 0, "lon": -77.03628783333333, "rental_uris": {"android": "https://dc.lft.to/lastmile_qr_scan", "ios": "https://dc.lft.to/lastmile_qr_scan"}}, {"name": "16594e25c393bcb0926ee64286049e40", "is_disabled": 0, "fusion_lat": 0.0, "fusion_lon": 0.0, "type": "electric_bike", "lat": 38.88692916666667, "bike_id": "16594e25c393bcb0926ee64286049e40", "is_reserved": 0, "lon": -76.97640266666667, "rental_uris": {"android": "https://dc.lft.to/lastmile_qr_scan", "ios": "https://dc.lft.to/lastmile_qr_scan"}}, {"name": "5dc75681466a05aa846a6c05603b771f", "is_disabled": 0, "fusion_lat": 0.0, "fusion_lon": 0.0, "type": "electric_scooter", "lat": 38.919478, "bike_id": "5dc75681466a05aa846a6c05603b771f", "is_reserved": 0, "lon": -77.02371666666667, "rental_uris": {"android": "https://dc.lft.to/lastmile_qr_scan", "ios": "https://dc.lft.to/lastmile_qr_scan"}}, {"name": "4d53216ba97bace1e1998491905996a7", "is_disabled": 0, "fusion_lat": 0.0, "fusion_lon": 0.0, "type": "electric_scooter", "lat": 38.8744495, "bike_id": "4d53216ba97bace1e1998491905996a7", "is_reserved": 0, "lon": -77.0056675, "rental_uris": {"android": "https://dc.lft.to/lastmile_qr_scan", "ios": "https://dc.lft.to/lastmile_qr_scan"}}, {"name": "cfe849ce7a08d85786bc5ed791390468", "is_disabled": 0, "fusion_lat": 0.0, "fusion_lon": 0.0, "type": "electric_scooter", "lat": 38.902841333333335, "bike_id": "cfe849ce7a08d85786bc5ed791390468", "is_reserved": 0, "lon": -77.03298816666667, "rental_uris": {"android": "https://dc.lft.to/lastmile_qr_scan", "ios": "https://dc.lft.to/lastmile_qr_scan"}}, {"name": "1bd706a7d39edb3cc975826c81d8233c", "is_disabled": 0, "fusion_lat": 0.0, "fusion_lon": 0.0, "type": "electric_scooter", "lat": 38.90748716666667, "bike_id": "1bd706a7d39edb3cc975826c81d8233c", "is_reserved": 0, "lon": -77.030834, "rental_uris": {"android": "https://dc.lft.to/lastmile_qr_scan", "ios": "https://dc.lft.to/lastmile_qr_scan"}}, {"name": "487afe1890ca622954be25644ee09c3b", "is_disabled": 0, "fusion_lat": 0.0, "fusion_lon": 0.0, "type": "electric_scooter", "lat": 38.86658716666667, "bike_id": "487afe1890ca622954be25644ee09c3b", "is_reserved": 0, "lon": -76.98884916666667, "rental_uris": {"android": "https://dc.lft.to/lastmile_qr_scan", "ios": "https://dc.lft.to/lastmile_qr_scan"}}, {"name": "e94ff631ae6a8a4cc226d7fd312f424a", "is_disabled": 0, "fusion_lat": 0.0, "fusion_lon": 0.0, "type": "electric_scooter", "lat": 38.902513166666665, "bike_id": "e94ff631ae6a8a4cc226d7fd312f424a", "is_reserved": 0, "lon": -77.0269095, "rental_uris": {"android": "https://dc.lft.to/lastmile_qr_scan", "ios": "https://dc.lft.to/lastmile_qr_scan"}}, {"name": "855dd86b8cb6cd58619725fe57d9e0a5", "is_disabled": 0, "fusion_lat": 0.0, "fusion_lon": 0.0, "type": "electric_scooter", "lat": 38.918138666666664, "bike_id": "855dd86b8cb6cd58619725fe57d9e0a5", "is_reserved": 0, "lon": -77.03703983333334, "rental_uris": {"android": "https://dc.lft.to/lastmile_qr_scan", "ios": "https://dc.lft.to/lastmile_qr_scan"}}, {"name": "e1e528c6755fd5b18b147736d3a424d0", "is_disabled": 0, "fusion_lat": 0.0, "fusion_lon": 0.0, "type": "electric_scooter", "lat": 38.9067595, "bike_id": "e1e528c6755fd5b18b147736d3a424d0", "is_reserved": 0, "lon": -77.03848266666667, "rental_uris": {"android": "https://dc.lft.to/lastmile_qr_scan", "ios": "https://dc.lft.to/lastmile_qr_scan"}}, {"name": "9edd9a74fbbd130467250fe3f71271ed", "is_disabled": 0, "fusion_lat": 0.0, "fusion_lon": 0.0, "type": "electric_scooter", "lat": 38.896077, "bike_id": "9edd9a74fbbd130467250fe3f71271ed", "is_reserved": 0, "lon": -77.03175083333333, "rental_uris": {"android": "https://dc.lft.to/lastmile_qr_scan", "ios": "https://dc.lft.to/lastmile_qr_scan"}}, {"name": "13a700b5b7ada2392afdb7fe0fa057cb", "is_disabled": 0, "fusion_lat": 0.0, "fusion_lon": 0.0, "type": "electric_scooter", "lat": 38.904700166666665, "bike_id": "13a700b5b7ada2392afdb7fe0fa057cb", "is_reserved": 0, "lon": -77.03812983333333, "rental_uris": {"android": "https://dc.lft.to/lastmile_qr_scan", "ios": "https://dc.lft.to/lastmile_qr_scan"}}, {"name": "083876618d971c1a164a875ef7ead902", "is_disabled": 0, "fusion_lat": 0.0, "fusion_lon": 0.0, "type": "electric_scooter", "lat": 38.900443833333334, "bike_id": "083876618d971c1a164a875ef7ead902", "is_reserved": 0, "lon": -77.0151695, "rental_uris": {"android": "https://dc.lft.to/lastmile_qr_scan", "ios": "https://dc.lft.to/lastmile_qr_scan"}}, {"name": "5c9267ae10eac35af44cad1f88719866", "is_disabled": 0, "fusion_lat": 0.0, "fusion_lon": 0.0, "type": "electric_bike", "lat": 38.95649916666667, "bike_id": "5c9267ae10eac35af44cad1f88719866", "is_reserved": 0, "lon": -77.01287016666667, "rental_uris": {"android": "https://dc.lft.to/lastmile_qr_scan", "ios": "https://dc.lft.to/lastmile_qr_scan"}}, {"name": "0c4caa1a7e920a0838d7a746a6435127", "is_disabled": 0, "fusion_lat": 0.0, "fusion_lon": 0.0, "type": "electric_bike", "lat": 38.98811533333333, "bike_id": "0c4caa1a7e920a0838d7a746a6435127", "is_reserved": 0, "lon": -77.026596, "rental_uris": {"android": "https://dc.lft.to/lastmile_qr_scan", "ios": "https://dc.lft.to/lastmile_qr_scan"}}, {"name": "012dcb76c7eb9eba858851b4a7bb94aa", "is_disabled": 0, "fusion_lat": 0.0, "fusion_lon": 0.0, "type": "electric_scooter", "lat": 38.898436, "bike_id": "012dcb76c7eb9eba858851b4a7bb94aa", "is_reserved": 0, "lon": -77.04159433333334, "rental_uris": {"android": "https://dc.lft.to/lastmile_qr_scan", "ios": "https://dc.lft.to/lastmile_qr_scan"}}, {"name": "5519607f7bcde6894151e5e3bd2dd08f", "is_disabled": 0, "fusion_lat": 0.0, "fusion_lon": 0.0, "type": "electric_scooter", "lat": 38.90035016666667, "bike_id": "5519607f7bcde6894151e5e3bd2dd08f", "is_reserved": 0, "lon": -77.00202116666667, "rental_uris": {"android": "https://dc.lft.to/lastmile_qr_scan", "ios": "https://dc.lft.to/lastmile_qr_scan"}}, {"name": "daccbe22133059c217e32a4a008647e2", "is_disabled": 0, "fusion_lat": 0.0, "fusion_lon": 0.0, "type": "electric_scooter", "lat": 38.92508866666667, "bike_id": "daccbe22133059c217e32a4a008647e2", "is_reserved": 0, "lon": -77.052635, "rental_uris": {"android": "https://dc.lft.to/lastmile_qr_scan", "ios": "https://dc.lft.to/lastmile_qr_scan"}}, {"name": "485b9ba230e2ee16c5e663c8912421cd", "is_disabled": 0, "fusion_lat": 0.0, "fusion_lon": 0.0, "type": "electric_scooter", "lat": 38.92825466666667, "bike_id": "485b9ba230e2ee16c5e663c8912421cd", "is_reserved": 0, "lon": -77.02288566666667, "rental_uris": {"android": "https://dc.lft.to/lastmile_qr_scan", "ios": "https://dc.lft.to/lastmile_qr_scan"}}, {"name": "036f05e2fdb4f750edf15e393c4027c7", "is_disabled": 0, "fusion_lat": 0.0, "fusion_lon": 0.0, "type": "electric_scooter", "lat": 38.890164166666665, "bike_id": "036f05e2fdb4f750edf15e393c4027c7", "is_reserved": 0, "lon": -76.93737466666667, "rental_uris": {"android": "https://dc.lft.to/lastmile_qr_scan", "ios": "https://dc.lft.to/lastmile_qr_scan"}}, {"name": "16e5bca224b9afc6a3b82ec67009e06d", "is_disabled": 0, "fusion_lat": 0.0, "fusion_lon": 0.0, "type": "electric_scooter", "lat": 38.91081116666667, "bike_id": "16e5bca224b9afc6a3b82ec67009e06d", "is_reserved": 0, "lon": -76.99270116666666, "rental_uris": {"android": "https://dc.lft.to/lastmile_qr_scan", "ios": "https://dc.lft.to/lastmile_qr_scan"}}, {"name": "e8b711598a319154fece5426c9a41a30", "is_disabled": 0, "fusion_lat": 0.0, "fusion_lon": 0.0, "type": "electric_bike", "lat": 38.936157, "bike_id": "e8b711598a319154fece5426c9a41a30", "is_reserved": 0, "lon": -77.09022, "rental_uris": {"android": "https://dc.lft.to/lastmile_qr_scan", "ios": "https://dc.lft.to/lastmile_qr_scan"}}, {"name": "9196d7085055db91a19408a092b2fb3c", "is_disabled": 0, "fusion_lat": 0.0, "fusion_lon": 0.0, "type": "electric_scooter", "lat": 38.9083325, "bike_id": "9196d7085055db91a19408a092b2fb3c", "is_reserved": 0, "lon": -77.03460433333333, "rental_uris": {"android": "https://dc.lft.to/lastmile_qr_scan", "ios": "https://dc.lft.to/lastmile_qr_scan"}}, {"name": "63736380e9ff276b2ac8b3d26e95bbd8", "is_disabled": 0, "fusion_lat": 0.0, "fusion_lon": 0.0, "type": "electric_scooter", "lat": 38.9190435, "bike_id": "63736380e9ff276b2ac8b3d26e95bbd8", "is_reserved": 0, "lon": -77.0209415, "rental_uris": {"android": "https://dc.lft.to/lastmile_qr_scan", "ios": "https://dc.lft.to/lastmile_qr_scan"}}, {"name": "402aef7efaa6c8d77a43cf43db9d4ecc", "is_disabled": 0, "fusion_lat": 0.0, "fusion_lon": 0.0, "type": "electric_scooter", "lat": 38.930942, "bike_id": "402aef7efaa6c8d77a43cf43db9d4ecc", "is_reserved": 0, "lon": -77.03816866666666, "rental_uris": {"android": "https://dc.lft.to/lastmile_qr_scan", "ios": "https://dc.lft.to/lastmile_qr_scan"}}, {"name": "7a6afd0cf2cd2a6b968afdfe3ae615cf", "is_disabled": 0, "fusion_lat": 0.0, "fusion_lon": 0.0, "type": "electric_scooter", "lat": 38.9156755, "bike_id": "7a6afd0cf2cd2a6b968afdfe3ae615cf", "is_reserved": 0, "lon": -77.03197733333333, "rental_uris": {"android": "https://dc.lft.to/lastmile_qr_scan", "ios": "https://dc.lft.to/lastmile_qr_scan"}}, {"name": "085893af5c9dbfc9a6c1374cdcb76f4d", "is_disabled": 0, "fusion_lat": 0.0, "fusion_lon": 0.0, "type": "electric_bike", "lat": 38.801258833333335, "bike_id": "085893af5c9dbfc9a6c1374cdcb76f4d", "is_reserved": 0, "lon": -77.07055616666666, "rental_uris": {"android": "https://dc.lft.to/lastmile_qr_scan", "ios": "https://dc.lft.to/lastmile_qr_scan"}}, {"name": "4168dac26fe3b8ae3a96bffbd3bf0cf9", "is_disabled": 0, "fusion_lat": 0.0, "fusion_lon": 0.0, "type": "electric_scooter", "lat": 38.9203955, "bike_id": "4168dac26fe3b8ae3a96bffbd3bf0cf9", "is_reserved": 0, "lon": -77.0420065, "rental_uris": {"android": "https://dc.lft.to/lastmile_qr_scan", "ios": "https://dc.lft.to/lastmile_qr_scan"}}, {"name": "a5ffb1d7d9faf9a6b5725ffda3ccd4a1", "is_disabled": 0, "fusion_lat": 0.0, "fusion_lon": 0.0, "type": "electric_scooter", "lat": 38.919317, "bike_id": "a5ffb1d7d9faf9a6b5725ffda3ccd4a1", "is_reserved": 0, "lon": -77.03415116666666, "rental_uris": {"android": "https://dc.lft.to/lastmile_qr_scan", "ios": "https://dc.lft.to/lastmile_qr_scan"}}, {"name": "767af42be8437d0e3b88ac780b2600f4", "is_disabled": 0, "fusion_lat": 0.0, "fusion_lon": 0.0, "type": "electric_scooter", "lat": 38.883623166666666, "bike_id": "767af42be8437d0e3b88ac780b2600f4", "is_reserved": 0, "lon": -76.94155066666667, "rental_uris": {"android": "https://dc.lft.to/lastmile_qr_scan", "ios": "https://dc.lft.to/lastmile_qr_scan"}}, {"name": "50c043e7e1f60b8fab8491d179003101", "is_disabled": 0, "fusion_lat": 0.0, "fusion_lon": 0.0, "type": "electric_scooter", "lat": 38.881190333333336, "bike_id": "50c043e7e1f60b8fab8491d179003101", "is_reserved": 0, "lon": -77.0004285, "rental_uris": {"android": "https://dc.lft.to/lastmile_qr_scan", "ios": "https://dc.lft.to/lastmile_qr_scan"}}, {"name": "74ef5fd1bfea8b59c09d08ddda8dfc83", "is_disabled": 0, "fusion_lat": 0.0, "fusion_lon": 0.0, "type": "electric_scooter", "lat": 38.89611166666667, "bike_id": "74ef5fd1bfea8b59c09d08ddda8dfc83", "is_reserved": 0, "lon": -77.04560933333333, "rental_uris": {"android": "https://dc.lft.to/lastmile_qr_scan", "ios": "https://dc.lft.to/lastmile_qr_scan"}}, {"name": "487a1f4b0850fc4d5db19385407c7dfa", "is_disabled": 0, "fusion_lat": 0.0, "fusion_lon": 0.0, "type": "electric_scooter", "lat": 38.90044183333333, "bike_id": "487a1f4b0850fc4d5db19385407c7dfa", "is_reserved": 0, "lon": -77.033113, "rental_uris": {"android": "https://dc.lft.to/lastmile_qr_scan", "ios": "https://dc.lft.to/lastmile_qr_scan"}}, {"name": "e8ef564b226380d145efcb22d2e419c0", "is_disabled": 0, "fusion_lat": 0.0, "fusion_lon": 0.0, "type": "electric_bike", "lat": 38.854808, "bike_id": "e8ef564b226380d145efcb22d2e419c0", "is_reserved": 0, "lon": -76.98427916666667, "rental_uris": {"android": "https://dc.lft.to/lastmile_qr_scan", "ios": "https://dc.lft.to/lastmile_qr_scan"}}, {"name": "ab5f9211d2fe19ee745041729c1398e1", "is_disabled": 0, "fusion_lat": 0.0, "fusion_lon": 0.0, "type": "electric_scooter", "lat": 38.922296833333334, "bike_id": "ab5f9211d2fe19ee745041729c1398e1", "is_reserved": 0, "lon": -77.0449205, "rental_uris": {"android": "https://dc.lft.to/lastmile_qr_scan", "ios": "https://dc.lft.to/lastmile_qr_scan"}}, {"name": "bf1139b324d7711edfe39b0611c3efb0", "is_disabled": 0, "fusion_lat": 0.0, "fusion_lon": 0.0, "type": "electric_bike", "lat": 38.87885416666667, "bike_id": "bf1139b324d7711edfe39b0611c3efb0", "is_reserved": 0, "lon": -77.0961445, "rental_uris": {"android": "https://dc.lft.to/lastmile_qr_scan", "ios": "https://dc.lft.to/lastmile_qr_scan"}}, {"name": "9a1ee73466a129ee51b0c4bf91ecd818", "is_disabled": 0, "fusion_lat": 0.0, "fusion_lon": 0.0, "type": "electric_scooter", "lat": 38.91926316666667, "bike_id": "9a1ee73466a129ee51b0c4bf91ecd818", "is_reserved": 0, "lon": -77.0789345, "rental_uris": {"android": "https://dc.lft.to/lastmile_qr_scan", "ios": "https://dc.lft.to/lastmile_qr_scan"}}, {"name": "c5a58c7c4a8aa9faebaeb062b661894b", "is_disabled": 0, "fusion_lat": 0.0, "fusion_lon": 0.0, "type": "electric_scooter", "lat": 38.905503, "bike_id": "c5a58c7c4a8aa9faebaeb062b661894b", "is_reserved": 0, "lon": -77.04656516666667, "rental_uris": {"android": "https://dc.lft.to/lastmile_qr_scan", "ios": "https://dc.lft.to/lastmile_qr_scan"}}, {"name": "12fb58649ee4a7313391dd0b6098a71f", "is_disabled": 0, "fusion_lat": 0.0, "fusion_lon": 0.0, "type": "electric_scooter", "lat": 38.903224333333334, "bike_id": "12fb58649ee4a7313391dd0b6098a71f", "is_reserved": 0, "lon": -76.981551, "rental_uris": {"android": "https://dc.lft.to/lastmile_qr_scan", "ios": "https://dc.lft.to/lastmile_qr_scan"}}, {"name": "309a3bf192603501877e6de16d2d9d78", "is_disabled": 0, "fusion_lat": 0.0, "fusion_lon": 0.0, "type": "electric_scooter", "lat": 38.905676666666665, "bike_id": "309a3bf192603501877e6de16d2d9d78", "is_reserved": 0, "lon": -77.02203116666666, "rental_uris": {"android": "https://dc.lft.to/lastmile_qr_scan", "ios": "https://dc.lft.to/lastmile_qr_scan"}}, {"name": "fae4c11ab525a57a8e6fbc70cec5b84f", "is_disabled": 0, "fusion_lat": 0.0, "fusion_lon": 0.0, "type": "electric_scooter", "lat": 38.9049215, "bike_id": "fae4c11ab525a57a8e6fbc70cec5b84f", "is_reserved": 0, "lon": -77.03433066666666, "rental_uris": {"android": "https://dc.lft.to/lastmile_qr_scan", "ios": "https://dc.lft.to/lastmile_qr_scan"}}, {"name": "8144dacc7ace8a39072e51df294b108b", "is_disabled": 0, "fusion_lat": 0.0, "fusion_lon": 0.0, "type": "electric_scooter", "lat": 38.92452216666667, "bike_id": "8144dacc7ace8a39072e51df294b108b", "is_reserved": 0, "lon": -77.040354, "rental_uris": {"android": "https://dc.lft.to/lastmile_qr_scan", "ios": "https://dc.lft.to/lastmile_qr_scan"}}, {"name": "96637203033a7c448977e4377414f38d", "is_disabled": 0, "fusion_lat": 0.0, "fusion_lon": 0.0, "type": "electric_scooter", "lat": 38.915659833333336, "bike_id": "96637203033a7c448977e4377414f38d", "is_reserved": 0, "lon": -77.032437, "rental_uris": {"android": "https://dc.lft.to/lastmile_qr_scan", "ios": "https://dc.lft.to/lastmile_qr_scan"}}, {"name": "f660e7fa9e81ddf37b65d85d7c79d6d5", "is_disabled": 0, "fusion_lat": 0.0, "fusion_lon": 0.0, "type": "electric_bike", "lat": 38.99344266666667, "bike_id": "f660e7fa9e81ddf37b65d85d7c79d6d5", "is_reserved": 0, "lon": -77.11577233333334, "rental_uris": {"android": "https://dc.lft.to/lastmile_qr_scan", "ios": "https://dc.lft.to/lastmile_qr_scan"}}, {"name": "1467a8dd8b1c637b94eb6558c1a86d35", "is_disabled": 0, "fusion_lat": 0.0, "fusion_lon": 0.0, "type": "electric_scooter", "lat": 38.93869566666667, "bike_id": "1467a8dd8b1c637b94eb6558c1a86d35", "is_reserved": 0, "lon": -77.02522616666667, "rental_uris": {"android": "https://dc.lft.to/lastmile_qr_scan", "ios": "https://dc.lft.to/lastmile_qr_scan"}}, {"name": "fab2cd905f2a94a6d990ece98089c116", "is_disabled": 0, "fusion_lat": 0.0, "fusion_lon": 0.0, "type": "electric_bike", "lat": 38.806831333333335, "bike_id": "fab2cd905f2a94a6d990ece98089c116", "is_reserved": 0, "lon": -77.059768, "rental_uris": {"android": "https://dc.lft.to/lastmile_qr_scan", "ios": "https://dc.lft.to/lastmile_qr_scan"}}, {"name": "63f2822ba482af6cc51aa94109741d31", "is_disabled": 0, "fusion_lat": 0.0, "fusion_lon": 0.0, "type": "electric_scooter", "lat": 38.92447666666666, "bike_id": "63f2822ba482af6cc51aa94109741d31", "is_reserved": 0, "lon": -77.02162766666666, "rental_uris": {"android": "https://dc.lft.to/lastmile_qr_scan", "ios": "https://dc.lft.to/lastmile_qr_scan"}}, {"name": "c8961d23ac99995e1f096954916f511a", "is_disabled": 0, "fusion_lat": 0.0, "fusion_lon": 0.0, "type": "electric_scooter", "lat": 38.920020666666666, "bike_id": "c8961d23ac99995e1f096954916f511a", "is_reserved": 0, "lon": -77.0322135, "rental_uris": {"android": "https://dc.lft.to/lastmile_qr_scan", "ios": "https://dc.lft.to/lastmile_qr_scan"}}, {"name": "457bd906fdb09432863be18d0992149b", "is_disabled": 0, "fusion_lat": 0.0, "fusion_lon": 0.0, "type": "electric_scooter", "lat": 38.9205415, "bike_id": "457bd906fdb09432863be18d0992149b", "is_reserved": 0, "lon": -77.02985333333334, "rental_uris": {"android": "https://dc.lft.to/lastmile_qr_scan", "ios": "https://dc.lft.to/lastmile_qr_scan"}}, {"name": "4308b1850d5a6cabf86bbd583d46c0e4", "is_disabled": 0, "fusion_lat": 0.0, "fusion_lon": 0.0, "type": "electric_bike", "lat": 38.84564116666667, "bike_id": "4308b1850d5a6cabf86bbd583d46c0e4", "is_reserved": 0, "lon": -77.06692816666667, "rental_uris": {"android": "https://dc.lft.to/lastmile_qr_scan", "ios": "https://dc.lft.to/lastmile_qr_scan"}}, {"name": "876c1745aaa1e92cb7c958c8756329da", "is_disabled": 0, "fusion_lat": 0.0, "fusion_lon": 0.0, "type": "electric_scooter", "lat": 38.904756, "bike_id": "876c1745aaa1e92cb7c958c8756329da", "is_reserved": 0, "lon": -77.04803716666666, "rental_uris": {"android": "https://dc.lft.to/lastmile_qr_scan", "ios": "https://dc.lft.to/lastmile_qr_scan"}}, {"name": "e0b7f2304af755f00d58c97b491eb410", "is_disabled": 0, "fusion_lat": 0.0, "fusion_lon": 0.0, "type": "electric_scooter", "lat": 38.9418465, "bike_id": "e0b7f2304af755f00d58c97b491eb410", "is_reserved": 0, "lon": -77.0249695, "rental_uris": {"android": "https://dc.lft.to/lastmile_qr_scan", "ios": "https://dc.lft.to/lastmile_qr_scan"}}, {"name": "2635e4e70bea775a84a6940867de34dc", "is_disabled": 0, "fusion_lat": 0.0, "fusion_lon": 0.0, "type": "electric_scooter", "lat": 38.91948166666667, "bike_id": "2635e4e70bea775a84a6940867de34dc", "is_reserved": 0, "lon": -77.0237405, "rental_uris": {"android": "https://dc.lft.to/lastmile_qr_scan", "ios": "https://dc.lft.to/lastmile_qr_scan"}}, {"name": "512b5114924960645bd846d2be06d3b6", "is_disabled": 0, "fusion_lat": 0.0, "fusion_lon": 0.0, "type": "electric_scooter", "lat": 38.95189333333333, "bike_id": "512b5114924960645bd846d2be06d3b6", "is_reserved": 0, "lon": -77.02613616666666, "rental_uris": {"android": "https://dc.lft.to/lastmile_qr_scan", "ios": "https://dc.lft.to/lastmile_qr_scan"}}, {"name": "bd1db14119911eb5a58844e2e03682ab", "is_disabled": 0, "fusion_lat": 0.0, "fusion_lon": 0.0, "type": "electric_scooter", "lat": 38.917665666666664, "bike_id": "bd1db14119911eb5a58844e2e03682ab", "is_reserved": 0, "lon": -77.04064516666666, "rental_uris": {"android": "https://dc.lft.to/lastmile_qr_scan", "ios": "https://dc.lft.to/lastmile_qr_scan"}}, {"name": "3b4f62f70ae318b11f1d61889b653fc9", "is_disabled": 0, "fusion_lat": 0.0, "fusion_lon": 0.0, "type": "electric_scooter", "lat": 38.90726983333333, "bike_id": "3b4f62f70ae318b11f1d61889b653fc9", "is_reserved": 0, "lon": -77.04361783333333, "rental_uris": {"android": "https://dc.lft.to/lastmile_qr_scan", "ios": "https://dc.lft.to/lastmile_qr_scan"}}, {"name": "106860243078a47f9742b74bfa8380cf", "is_disabled": 0, "fusion_lat": 0.0, "fusion_lon": 0.0, "type": "electric_scooter", "lat": 38.926238, "bike_id": "106860243078a47f9742b74bfa8380cf", "is_reserved": 0, "lon": -77.04323816666667, "rental_uris": {"android": "https://dc.lft.to/lastmile_qr_scan", "ios": "https://dc.lft.to/lastmile_qr_scan"}}, {"name": "4c0dcb31cb808202d0df11507ecf9b46", "is_disabled": 0, "fusion_lat": 0.0, "fusion_lon": 0.0, "type": "electric_scooter", "lat": 38.921693833333336, "bike_id": "4c0dcb31cb808202d0df11507ecf9b46", "is_reserved": 0, "lon": -77.0339015, "rental_uris": {"android": "https://dc.lft.to/lastmile_qr_scan", "ios": "https://dc.lft.to/lastmile_qr_scan"}}, {"name": "6334a83d22a0b16b16f04974483c76bf", "is_disabled": 0, "fusion_lat": 0.0, "fusion_lon": 0.0, "type": "electric_scooter", "lat": 38.91645883333333, "bike_id": "6334a83d22a0b16b16f04974483c76bf", "is_reserved": 0, "lon": -77.04807516666666, "rental_uris": {"android": "https://dc.lft.to/lastmile_qr_scan", "ios": "https://dc.lft.to/lastmile_qr_scan"}}, {"name": "cd94ac73a4c66fb8260f0ad9b7412ef8", "is_disabled": 0, "fusion_lat": 0.0, "fusion_lon": 0.0, "type": "electric_scooter", "lat": 38.900237, "bike_id": "cd94ac73a4c66fb8260f0ad9b7412ef8", "is_reserved": 0, "lon": -77.04169966666667, "rental_uris": {"android": "https://dc.lft.to/lastmile_qr_scan", "ios": "https://dc.lft.to/lastmile_qr_scan"}}, {"name": "825f8d0e4bb91e3a648d99dbc11f5eef", "is_disabled": 0, "fusion_lat": 0.0, "fusion_lon": 0.0, "type": "electric_scooter", "lat": 38.914848, "bike_id": "825f8d0e4bb91e3a648d99dbc11f5eef", "is_reserved": 0, "lon": -77.04092766666666, "rental_uris": {"android": "https://dc.lft.to/lastmile_qr_scan", "ios": "https://dc.lft.to/lastmile_qr_scan"}}, {"name": "82e93607f9fc79b84f224be5c655bc01", "is_disabled": 0, "fusion_lat": 0.0, "fusion_lon": 0.0, "type": "electric_bike", "lat": 38.95320516666666, "bike_id": "82e93607f9fc79b84f224be5c655bc01", "is_reserved": 0, "lon": -76.954326, "rental_uris": {"android": "https://dc.lft.to/lastmile_qr_scan", "ios": "https://dc.lft.to/lastmile_qr_scan"}}, {"name": "a34a1078a9fe0d8f07df07c150bf5ddf", "is_disabled": 0, "fusion_lat": 0.0, "fusion_lon": 0.0, "type": "electric_scooter", "lat": 38.9288205, "bike_id": "a34a1078a9fe0d8f07df07c150bf5ddf", "is_reserved": 0, "lon": -77.03287, "rental_uris": {"android": "https://dc.lft.to/lastmile_qr_scan", "ios": "https://dc.lft.to/lastmile_qr_scan"}}, {"name": "e974560f785203dcffb95990806fe748", "is_disabled": 0, "fusion_lat": 0.0, "fusion_lon": 0.0, "type": "electric_scooter", "lat": 38.89995183333333, "bike_id": "e974560f785203dcffb95990806fe748", "is_reserved": 0, "lon": -77.01665716666666, "rental_uris": {"android": "https://dc.lft.to/lastmile_qr_scan", "ios": "https://dc.lft.to/lastmile_qr_scan"}}, {"name": "e0baa9777540b400ca6d52eb7f8498b7", "is_disabled": 0, "fusion_lat": 0.0, "fusion_lon": 0.0, "type": "electric_scooter", "lat": 38.904921, "bike_id": "e0baa9777540b400ca6d52eb7f8498b7", "is_reserved": 0, "lon": -76.98712616666667, "rental_uris": {"android": "https://dc.lft.to/lastmile_qr_scan", "ios": "https://dc.lft.to/lastmile_qr_scan"}}, {"name": "902d38be2341ed16c9c2b20905c7fe37", "is_disabled": 0, "fusion_lat": 0.0, "fusion_lon": 0.0, "type": "electric_scooter", "lat": 38.8943165, "bike_id": "902d38be2341ed16c9c2b20905c7fe37", "is_reserved": 0, "lon": -77.04005316666667, "rental_uris": {"android": "https://dc.lft.to/lastmile_qr_scan", "ios": "https://dc.lft.to/lastmile_qr_scan"}}, {"name": "cc560286082e6dd4bb650c70dc33105b", "is_disabled": 0, "fusion_lat": 0.0, "fusion_lon": 0.0, "type": "electric_scooter", "lat": 38.91319133333333, "bike_id": "cc560286082e6dd4bb650c70dc33105b", "is_reserved": 0, "lon": -77.0625095, "rental_uris": {"android": "https://dc.lft.to/lastmile_qr_scan", "ios": "https://dc.lft.to/lastmile_qr_scan"}}, {"name": "d3752ec8d8f152dc99cf5bbbeceadab0", "is_disabled": 0, "fusion_lat": 0.0, "fusion_lon": 0.0, "type": "electric_bike", "lat": 38.932259, "bike_id": "d3752ec8d8f152dc99cf5bbbeceadab0", "is_reserved": 0, "lon": -77.18122583333333, "rental_uris": {"android": "https://dc.lft.to/lastmile_qr_scan", "ios": "https://dc.lft.to/lastmile_qr_scan"}}, {"name": "bdb26443f6a187a7f22f60dea21109db", "is_disabled": 0, "fusion_lat": 0.0, "fusion_lon": 0.0, "type": "electric_scooter", "lat": 38.91810983333333, "bike_id": "bdb26443f6a187a7f22f60dea21109db", "is_reserved": 0, "lon": -77.0896115, "rental_uris": {"android": "https://dc.lft.to/lastmile_qr_scan", "ios": "https://dc.lft.to/lastmile_qr_scan"}}, {"name": "d17a4792c06a22cf0d74b2a326c7cada", "is_disabled": 0, "fusion_lat": 0.0, "fusion_lon": 0.0, "type": "electric_scooter", "lat": 38.90474666666667, "bike_id": "d17a4792c06a22cf0d74b2a326c7cada", "is_reserved": 0, "lon": -77.04171583333333, "rental_uris": {"android": "https://dc.lft.to/lastmile_qr_scan", "ios": "https://dc.lft.to/lastmile_qr_scan"}}, {"name": "c31e058d9b8da82f63cc0787ab0c9ec7", "is_disabled": 0, "fusion_lat": 0.0, "fusion_lon": 0.0, "type": "electric_scooter", "lat": 38.89619616666667, "bike_id": "c31e058d9b8da82f63cc0787ab0c9ec7", "is_reserved": 0, "lon": -77.02384866666667, "rental_uris": {"android": "https://dc.lft.to/lastmile_qr_scan", "ios": "https://dc.lft.to/lastmile_qr_scan"}}, {"name": "9b9dedc9f4dcc8ea5a09f775bf4f353a", "is_disabled": 0, "fusion_lat": 0.0, "fusion_lon": 0.0, "type": "electric_scooter", "lat": 38.9170805, "bike_id": "9b9dedc9f4dcc8ea5a09f775bf4f353a", "is_reserved": 0, "lon": -77.0347735, "rental_uris": {"android": "https://dc.lft.to/lastmile_qr_scan", "ios": "https://dc.lft.to/lastmile_qr_scan"}}, {"name": "4ff7e2eb94303e36f552e58b56ad1ea0", "is_disabled": 0, "fusion_lat": 0.0, "fusion_lon": 0.0, "type": "electric_bike", "lat": 38.96324883333333, "bike_id": "4ff7e2eb94303e36f552e58b56ad1ea0", "is_reserved": 0, "lon": -76.97368583333333, "rental_uris": {"android": "https://dc.lft.to/lastmile_qr_scan", "ios": "https://dc.lft.to/lastmile_qr_scan"}}, {"name": "b6b266a5ab8de42cf237a7568b3ef6fc", "is_disabled": 0, "fusion_lat": 0.0, "fusion_lon": 0.0, "type": "electric_scooter", "lat": 38.90953583333334, "bike_id": "b6b266a5ab8de42cf237a7568b3ef6fc", "is_reserved": 0, "lon": -77.03204783333334, "rental_uris": {"android": "https://dc.lft.to/lastmile_qr_scan", "ios": "https://dc.lft.to/lastmile_qr_scan"}}, {"name": "d6a6b7b6b400227573a54dd931bcc764", "is_disabled": 0, "fusion_lat": 0.0, "fusion_lon": 0.0, "type": "electric_scooter", "lat": 38.90268733333333, "bike_id": "d6a6b7b6b400227573a54dd931bcc764", "is_reserved": 0, "lon": -77.03965833333334, "rental_uris": {"android": "https://dc.lft.to/lastmile_qr_scan", "ios": "https://dc.lft.to/lastmile_qr_scan"}},