{"data": {"bikes": [{"is_disabled": 0, "is_reserved": 0, "type": "electric_bike", "lon": -77.00232466666667, "fusion_lon": 0.0, "lat": 38.957510166666665, "rental_uris": {"android": "https://dc.lft.to/lastmile_qr_scan", "ios": "https://dc.lft.to/lastmile_qr_scan"}, "fusion_lat": 0.0, "name": "d2e56d4c4732ac10a2d3cc48dc938f2f", "bike_id": "d2e56d4c4732ac10a2d3cc48dc938f2f"}, {"is_disabled": 0, "is_reserved": 0, "type": "electric_scooter", "lon": -77.04395033333333, "fusion_lon": 0.0, "lat": 38.9227515, "rental_uris": {"android": "https://dc.lft.to/lastmile_qr_scan", "ios": "https://dc.lft.to/lastmile_qr_scan"}, "fusion_lat": 0.0, "name": "785a5f873a9ab72346116adcfc0c7621", "bike_id": "785a5f873a9ab72346116adcfc0c7621"}, {"is_disabled": 0, "is_reserved": 0, "type": "electric_scooter", "lon": -77.00331716666666, "fusion_lon": 0.0, "lat": 38.89365166666666, "rental_uris": {"android": "https://dc.lft.to/lastmile_qr_scan", "ios": "https://dc.lft.to/lastmile_qr_scan"}, "fusion_lat": 0.0, "name": "71a1a6ac6754e34f66841714c8d8c285", "bike_id": "71a1a6ac6754e34f66841714c8d8c285"}, {"is_disabled": 0, "is_reserved": 0, "type": "electric_scooter", "lon": -76.98711816666666, "fusion_lon": 0.0, "lat": 38.86694966666666, "rental_uris": {"android": "https://dc.lft.to/lastmile_qr_scan", "ios": "https://dc.lft.to/lastmile_qr_scan"}, "fusion_lat": 0.0, "name": "2e626270ecebd4f705780f0e09ba85d9", "bike_id": "2e626270ecebd4f705780f0e09ba85d9"}, {"is_disabled": 0, "is_reserved": 0, "type": "electric_scooter", "lon": -77.02269616666666, "fusion_lon": 0.0, "lat": 38.9274435, "rental_uris": {"android": "https://dc.lft.to/lastmile_qr_scan", "ios": "https://dc.lft.to/lastmile_qr_scan"}, "fusion_lat": 0.0, "name": "71ab7c9c0d43bc6f97a3b23d14662b8c", "bike_id": "71ab7c9c0d43bc6f97a3b23d14662b8c"}, {"is_disabled": 0, "is_reserved": 0, "type": "electric_scooter", "lon": -77.06467783333333, "fusion_lon": 0.0, "lat": 38.90503666666667, "rental_uris": {"android": "https://dc.lft.to/lastmile_qr_scan", "ios": "https://dc.lft.to/lastmile_qr_scan"}, "fusion_lat": 0.0, "name": "6adde0455019ba256210ed1d588525cc", "bike_id": "6adde0455019ba256210ed1d588525cc"}, {"is_disabled": 0, "is_reserved": 0, "type": "electric_bike", "lon": -76.98413866666667, "fusion_lon": 0.0, "lat": 38.85499816666667, "rental_uris": {"android": "https://dc.lft.to/lastmile_qr_scan", "ios": "https://dc.lft.to/lastmile_qr_scan"}, "fusion_lat": 0.0, "name": "1db5551e0a9ffc6b27247339c4af2a7b", "bike_id": "1db5551e0a9ffc6b27247339c4af2a7b"}, {"is_disabled": 0, "is_reserved": 0, "type": "electric_scooter", "lon": -77.06182433333333, "fusion_lon": 0.0, "lat": 38.9069155, "rental_uris": {"android": "https://dc.lft.to/lastmile_qr_scan", "ios": "https://dc.lft.to/lastmile_qr_scan"}, "fusion_lat": 0.0, "name": "aa367e1fcd431c0454a472136de94d1e", "bike_id": "aa367e1fcd431c0454a472136de94d1e"}, {"is_disabled": 0, "is_reserved": 0, "type": "electric_scooter", "lon": -77.04893766666666, "fusion_lon": 0.0, "lat": 38.892463666666664, "rental_uris": {"android": "https://dc.lft.to/lastmile_qr_scan", "ios": "https://dc.lft.to/lastmile_qr_scan"}, "fusion_lat": 0.0, "name": "ef8a1b0cec1ab3021275b53ec55baa6a", "bike_id": "ef8a1b0cec1ab3021275b53ec55baa6a"}, {"is_disabled": 0, "is_reserved": 0, "type": "electric_scooter", "lon": -77.00603883333333, "fusion_lon": 0.0, "lat": 38.911161, "rental_uris": {"android": "https://dc.lft.to/lastmile_qr_scan", "ios": "https://dc.lft.to/lastmile_qr_scan"}, "fusion_lat": 0.0, "name": "f695e105476803fde4d375d59f7b5f3c", "bike_id": "f695e105476803fde4d375d59f7b5f3c"}, {"is_disabled": 0, "is_reserved": 0, "type": "electric_bike", "lon": -77.34407616666667, "fusion_lon": 0.0, "lat": 38.94586733333333, "rental_uris": {"android": "https://dc.lft.to/lastmile_qr_scan", "ios": "https://dc.lft.to/lastmile_qr_scan"}, "fusion_lat": 0.0, "name": "71685c381353f278c49600c6672ff901", "bike_id": "71685c381353f278c49600c6672ff901"}, {"is_disabled": 0, "is_reserved": 0, "type": "electric_bike", "lon": -77.1432365, "fusion_lon": 0.0, "lat": 39.054552666666666, "rental_uris": {"android": "https://dc.lft.to/lastmile_qr_scan", "ios": "https://dc.lft.to/lastmile_qr_scan"}, "fusion_lat": 0.0, "name": "1487af8483c615bc39a232ca91c1e7ac", "bike_id": "1487af8483c615bc39a232ca91c1e7ac"}, {"is_disabled": 0, "is_reserved": 0, "type": "electric_scooter", "lon": -76.99819866666667, "fusion_lon": 0.0, "lat": 38.8443485, "rental_uris": {"android": "https://dc.lft.to/lastmile_qr_scan", "ios": "https://dc.lft.to/lastmile_qr_scan"}, "fusion_lat": 0.0, "name": "777f6a128e1e7fcffc532018e0399b65", "bike_id": "777f6a128e1e7fcffc532018e0399b65"}, {"is_disabled": 0, "is_reserved": 0, "type": "electric_scooter", "lon": -77.011828, "fusion_lon": 0.0, "lat": 38.868048333333334, "rental_uris": {"android": "https://dc.lft.to/lastmile_qr_scan", "ios": "https://dc.lft.to/lastmile_qr_scan"}, "fusion_lat": 0.0, "name": "dad348c71765ef954d63da95d3a92d1c", "bike_id": "dad348c71765ef954d63da95d3a92d1c"}, {"is_disabled": 0, "is_reserved": 0, "type": "electric_scooter", "lon": -76.99497433333333, "fusion_lon": 0.0, "lat": 38.86243133333333, "rental_uris": {"android": "https://dc.lft.to/lastmile_qr_scan", "ios": "https://dc.lft.to/lastmile_qr_scan"}, "fusion_lat": 0.0, "name": "47c283c32b9b1a4c2c7cf7b37bcc12e0", "bike_id": "47c283c32b9b1a4c2c7cf7b37bcc12e0"}, {"is_disabled": 0, "is_reserved": 0, "type": "electric_scooter", "lon": -77.04021216666666, "fusion_lon": 0.0, "lat": 38.911543, "rental_uris": {"android": "https://dc.lft.to/lastmile_qr_scan", "ios": "https://dc.lft.to/lastmile_qr_scan"}, "fusion_lat": 0.0, "name": "932e4302ec40566574c474112ca9c1ec", "bike_id": "932e4302ec40566574c474112ca9c1ec"}, {"is_disabled": 0, "is_reserved": 0, "type": "electric_scooter", "lon": -76.98894083333333, "fusion_lon": 0.0, "lat": 38.866729, "rental_uris": {"android": "https://dc.lft.to/lastmile_qr_scan", "ios": "https://dc.lft.to/lastmile_qr_scan"}, "fusion_lat": 0.0, "name": "b7cadb0166fcaab3e480cf28e794b3eb", "bike_id": "b7cadb0166fcaab3e480cf28e794b3eb"}, {"is_disabled": 0, "is_reserved": 0, "type": "electric_scooter", "lon": -77.061916, "fusion_lon": 0.0, "lat": 38.930147833333336, "rental_uris": {"android": "https://dc.lft.to/lastmile_qr_scan", "ios": "https://dc.lft.to/lastmile_qr_scan"}, "fusion_lat": 0.0, "name": "05175e9b0c5c591a04bb767e00f353c3", "bike_id": "05175e9b0c5c591a04bb767e00f353c3"}, {"is_disabled": 0, "is_reserved": 0, "type": "electric_scooter", "lon": -77.04505466666667, "fusion_lon": 0.0, "lat": 38.90786, "rental_uris": {"android": "https://dc.lft.to/lastmile_qr_scan", "ios": "https://dc.lft.to/lastmile_qr_scan"}, "fusion_lat": 0.0, "name": "4d8244f6ddb43b65f8c463cd141a8f25", "bike_id": "4d8244f6ddb43b65f8c463cd141a8f25"}, {"is_disabled": 0, "is_reserved": 0, "type": "electric_scooter", "lon": -76.94853033333334, "fusion_lon": 0.0, "lat": 38.88301366666666, "rental_uris": {"android": "https://dc.lft.to/lastmile_qr_scan", "ios": "https://dc.lft.to/lastmile_qr_scan"}, "fusion_lat": 0.0, "name": "5be6dfd32fa358d361468519cd5c900d", "bike_id": "5be6dfd32fa358d361468519cd5c900d"}, {"is_disabled": 0, "is_reserved": 0, "type": "electric_scooter", "lon": -77.03357266666667, "fusion_lon": 0.0, "lat": 38.89844816666667, "rental_uris": {"android": "https://dc.lft.to/lastmile_qr_scan", "ios": "https://dc.lft.to/lastmile_qr_scan"}, "fusion_lat": 0.0, "name": "22d90275e68e225b27814d3ffabea3c4", "bike_id": "22d90275e68e225b27814d3ffabea3c4"}, {"is_disabled": 0, "is_reserved": 0, "type": "electric_scooter", "lon": -77.00306533333334, "fusion_lon": 0.0, "lat": 38.90745016666666, "rental_uris": {"android": "https://dc.lft.to/lastmile_qr_scan", "ios": "https://dc.lft.to/lastmile_qr_scan"}, "fusion_lat": 0.0, "name": "b748200b5ceb5aa353e2ae648ff7d8f3", "bike_id": "b748200b5ceb5aa353e2ae648ff7d8f3"}, {"is_disabled": 0, "is_reserved": 0, "type": "electric_scooter", "lon": -77.02953266666667, "fusion_lon": 0.0, "lat": 38.89877883333333, "rental_uris": {"android": "https://dc.lft.to/lastmile_qr_scan", "ios": "https://dc.lft.to/lastmile_qr_scan"}, "fusion_lat": 0.0, "name": "a641bb0cabdc4c5364df215d56b93689", "bike_id": "a641bb0cabdc4c5364df215d56b93689"}, {"is_disabled": 0, "is_reserved": 0, "type": "electric_scooter", "lon": -77.0438155, "fusion_lon": 0.0, "lat": 38.902695666666666, "rental_uris": {"android": "https://dc.lft.to/lastmile_qr_scan", "ios": "https://dc.lft.to/lastmile_qr_scan"}, "fusion_lat": 0.0, "name": "25d8798f05abcdd7b54d0a38d8e9ba19", "bike_id": "25d8798f05abcdd7b54d0a38d8e9ba19"}, {"is_disabled": 0, "is_reserved": 0, "type": "electric_scooter", "lon": -77.007135, "fusion_lon": 0.0, "lat": 38.884912166666666, "rental_uris": {"android": "https://dc.lft.to/lastmile_qr_scan", "ios": "https://dc.lft.to/lastmile_qr_scan"}, "fusion_lat": 0.0, "name": "24c6d9cbf22fcfecbf20e2d66d4be7a1", "bike_id": "24c6d9cbf22fcfecbf20e2d66d4be7a1"}, {"is_disabled": 0, "is_reserved": 0, "type": "electric_bike", "lon": -77.039834, "fusion_lon": 0.0, "lat": 38.80297616666667, "rental_uris": {"android": "https://dc.lft.to/lastmile_qr_scan", "ios": "https://dc.lft.to/lastmile_qr_scan"}, "fusion_lat": 0.0, "name": "2621542d8ef9d117d8b0754faed934d6", "bike_id": "2621542d8ef9d117d8b0754faed934d6"}, {"is_disabled": 0, "is_reserved": 0, "type": "electric_scooter", "lon": -77.07623816666667, "fusion_lon": 0.0, "lat": 38.91271316666667, "rental_uris": {"android": "https://dc.lft.to/lastmile_qr_scan", "ios": "https://dc.lft.to/lastmile_qr_scan"}, "fusion_lat": 0.0, "name": "0a4a077afe40f5a19ec3d69522ad9ff1", "bike_id": "0a4a077afe40f5a19ec3d69522ad9ff1"}, {"is_disabled": 0, "is_reserved": 0, "type": "electric_scooter", "lon": -77.03549883333334, "fusion_lon": 0.0, "lat": 38.92293183333334, "rental_uris": {"android": "https://dc.lft.to/lastmile_qr_scan", "ios": "https://dc.lft.to/lastmile_qr_scan"}, "fusion_lat": 0.0, "name": "0e38ced1fe258934e9cb39bdfe7ddb8f", "bike_id": "0e38ced1fe258934e9cb39bdfe7ddb8f"}, {"is_disabled": 0, "is_reserved": 0, "type": "electric_scooter", "lon": -77.01779283333333, "fusion_lon": 0.0, "lat": 38.883298833333335, "rental_uris": {"android": "https://dc.lft.to/lastmile_qr_scan", "ios": "https://dc.lft.to/lastmile_qr_scan"}, "fusion_lat": 0.0, "name": "49f160525a15334a9936d9df87868021", "bike_id": "49f160525a15334a9936d9df87868021"}, {"is_disabled": 0, "is_reserved": 0, "type": "electric_scooter", "lon": -76.97548333333333, "fusion_lon": 0.0, "lat": 38.91411566666667, "rental_uris": {"android": "https://dc.lft.to/lastmile_qr_scan", "ios": "https://dc.lft.to/lastmile_qr_scan"}, "fusion_lat": 0.0, "name": "3d79aa8874c43f2039ed8cbba18b419d", "bike_id": "3d79aa8874c43f2039ed8cbba18b419d"}, {"is_disabled": 0, "is_reserved": 0, "type": "electric_scooter", "lon": -77.0241435, "fusion_lon": 0.0, "lat": 38.92657533333333, "rental_uris": {"android": "https://dc.lft.to/lastmile_qr_scan", "ios": "https://dc.lft.to/lastmile_qr_scan"}, "fusion_lat": 0.0, "name": "d9b140977fb81e0226126b5f1b3529f7", "bike_id": "d9b140977fb81e0226126b5f1b3529f7"}, {"is_disabled": 0, "is_reserved": 0, "type": "electric_bike", "lon": -77.0324655, "fusion_lon": 0.0, "lat": 38.90274433333333, "rental_uris": {"android": "https://dc.lft.to/lastmile_qr_scan", "ios": "https://dc.lft.to/lastmile_qr_scan"}, "fusion_lat": 0.0, "name": "3a80ba74d7f5936688785157298b3469", "bike_id": "3a80ba74d7f5936688785157298b3469"}, {"is_disabled": 0, "is_reserved": 0, "type": "electric_scooter", "lon": -77.01563966666667, "fusion_lon": 0.0, "lat": 38.8727005, "rental_uris": {"android": "https://dc.lft.to/lastmile_qr_scan", "ios": "https://dc.lft.to/lastmile_qr_scan"}, "fusion_lat": 0.0, "name": "14ffcda1fb5d7fd32049cc57159a53aa", "bike_id": "14ffcda1fb5d7fd32049cc57159a53aa"}, {"is_disabled": 0, "is_reserved": 0, "type": "electric_scooter", "lon": -77.01105583333333, "fusion_lon": 0.0, "lat": 38.90969316666666, "rental_uris": {"android": "https://dc.lft.to/lastmile_qr_scan", "ios": "https://dc.lft.to/lastmile_qr_scan"}, "fusion_lat": 0.0, "name": "c6d2c0b41dad718143763fd563133954", "bike_id": "c6d2c0b41dad718143763fd563133954"}, {"is_disabled": 0, "is_reserved": 0, "type": "electric_scooter", "lon": -76.99535566666667, "fusion_lon": 0.0, "lat": 38.86257483333333, "rental_uris": {"android": "https://dc.lft.to/lastmile_qr_scan", "ios": "https://dc.lft.to/lastmile_qr_scan"}, "fusion_lat": 0.0, "name": "9c2db9c0d79086e4063beeedef4e92cc", "bike_id": "9c2db9c0d79086e4063beeedef4e92cc"}, {"is_disabled": 0, "is_reserved": 0, "type": "electric_scooter", "lon": -77.0392505, "fusion_lon": 0.0, "lat": 38.89978983333334, "rental_uris": {"android": "https://dc.lft.to/lastmile_qr_scan", "ios": "https://dc.lft.to/lastmile_qr_scan"}, "fusion_lat": 0.0, "name": "3238cddcbe9079e280d70d859325cf78", "bike_id": "3238cddcbe9079e280d70d859325cf78"}, {"is_disabled": 0, "is_reserved": 0, "type": "electric_bike", "lon": -77.360869, "fusion_lon": 0.0, "lat": 38.939605, "rental_uris": {"android": "https://dc.lft.to/lastmile_qr_scan", "ios": "https://dc.lft.to/lastmile_qr_scan"}, "fusion_lat": 0.0, "name": "6546d8a7f391f66498cfeeec9490aca7", "bike_id": "6546d8a7f391f66498cfeeec9490aca7"}, {"is_disabled": 0, "is_reserved": 0, "type": "electric_scooter", "lon": -77.01369216666667, "fusion_lon": 0.0, "lat": 38.878998, "rental_uris": {"android": "https://dc.lft.to/lastmile_qr_scan", "ios": "https://dc.lft.to/lastmile_qr_scan"}, "fusion_lat": 0.0, "name": "7ad8667e0adca301c2c5c5145f01bfac", "bike_id": "7ad8667e0adca301c2c5c5145f01bfac"}, {"is_disabled": 0, "is_reserved": 0, "type": "electric_bike", "lon": -76.97995083333333, "fusion_lon": 0.0, "lat": 38.8775825, "rental_uris": {"android": "https://dc.lft.to/lastmile_qr_scan", "ios": "https://dc.lft.to/lastmile_qr_scan"}, "fusion_lat": 0.0, "name": "b5420ff8d52a8e89f2d12663ae3b49b9", "bike_id": "b5420ff8d52a8e89f2d12663ae3b49b9"}, {"is_disabled": 0, "is_reserved": 0, "type": "electric_scooter", "lon": -77.02173216666667, "fusion_lon": 0.0, "lat": 38.94294583333333, "rental_uris": {"android": "https://dc.lft.to/lastmile_qr_scan", "ios": "https://dc.lft.to/lastmile_qr_scan"}, "fusion_lat": 0.0, "name": "e14dc5868631ba5939b37737e3d089d4", "bike_id": "e14dc5868631ba5939b37737e3d089d4"}, {"is_disabled": 0, "is_reserved": 0, "type": "electric_scooter", "lon": -76.98698316666666, "fusion_lon": 0.0, "lat": 38.90702866666667, "rental_uris": {"android": "https://dc.lft.to/lastmile_qr_scan", "ios": "https://dc.lft.to/lastmile_qr_scan"}, "fusion_lat": 0.0, "name": "90a1c04022ba81ca6ded06ca1e23aa94", "bike_id": "90a1c04022ba81ca6ded06ca1e23aa94"}, {"is_disabled": 0, "is_reserved": 0, "type": "electric_scooter", "lon": -77.06989633333333, "fusion_lon": 0.0, "lat": 38.94691516666666, "rental_uris": {"android": "https://dc.lft.to/lastmile_qr_scan", "ios": "https://dc.lft.to/lastmile_qr_scan"}, "fusion_lat": 0.0, "name": "b9950a915580d9bdeb8a0dc47da77b2f", "bike_id": "b9950a915580d9bdeb8a0dc47da77b2f"}, {"is_disabled": 0, "is_reserved": 0, "type": "electric_scooter", "lon": -77.03788683333333, "fusion_lon": 0.0, "lat": 38.926264833333335, "rental_uris": {"android": "https://dc.lft.to/lastmile_qr_scan", "ios": "https://dc.lft.to/lastmile_qr_scan"}, "fusion_lat": 0.0, "name": "aa7758d56bbf58e74ad107805bdaac9f", "bike_id": "aa7758d56bbf58e74ad107805bdaac9f"}, {"is_disabled": 0, "is_reserved": 0, "type": "electric_scooter", "lon": -77.04339816666666, "fusion_lon": 0.0, "lat": 38.915409333333336, "rental_uris": {"android": "https://dc.lft.to/lastmile_qr_scan", "ios": "https://dc.lft.to/lastmile_qr_scan"}, "fusion_lat": 0.0, "name": "45c311cb9c6ddf67b462d87aebd8b458", "bike_id": "45c311cb9c6ddf67b462d87aebd8b458"}, {"is_disabled": 0, "is_reserved": 0, "type": "electric_scooter", "lon": -77.03054433333334, "fusion_lon": 0.0, "lat": 38.93977916666667, "rental_uris": {"android": "https://dc.lft.to/lastmile_qr_scan", "ios": "https://dc.lft.to/lastmile_qr_scan"}, "fusion_lat": 0.0, "name": "f2da21b2296eefb8037e1ab3f6c4fbd6", "bike_id": "f2da21b2296eefb8037e1ab3f6c4fbd6"}, {"is_disabled": 0, "is_reserved": 0, "type": "electric_scooter", "lon": -77.001997, "fusion_lon": 0.0, "lat": 38.891444, "rental_uris": {"android": "https://dc.lft.to/lastmile_qr_scan", "ios": "https://dc.lft.to/lastmile_qr_scan"}, "fusion_lat": 0.0, "name": "0c11567e449d99a17a7be2c5655b7b3a", "bike_id": "0c11567e449d99a17a7be2c5655b7b3a"}, {"is_disabled": 0, "is_reserved": 0, "type": "electric_scooter", "lon": -76.99395183333333, "fusion_lon": 0.0, "lat": 38.92161433333333, "rental_uris": {"android": "https://dc.lft.to/lastmile_qr_scan", "ios": "https://dc.lft.to/lastmile_qr_scan"}, "fusion_lat": 0.0, "name": "1345c13bc611f6fd30a7293e83432e13", "bike_id": "1345c13bc611f6fd30a7293e83432e13"}, {"is_disabled": 0, "is_reserved": 0, "type": "electric_scooter", "lon": -76.98603833333334, "fusion_lon": 0.0, "lat": 38.906515666666664, "rental_uris": {"android": "https://dc.lft.to/lastmile_qr_scan", "ios": "https://dc.lft.to/lastmile_qr_scan"}, "fusion_lat": 0.0, "name": "13c004ac672c7830b2088f436800ec29", "bike_id": "13c004ac672c7830b2088f436800ec29"}, {"is_disabled": 0, "is_reserved": 0, "type": "electric_scooter", "lon": -77.04396566666667, "fusion_lon": 0.0, "lat": 38.902231, "rental_uris": {"android": "https://dc.lft.to/lastmile_qr_scan", "ios": "https://dc.lft.to/lastmile_qr_scan"}, "fusion_lat": 0.0, "name": "114dfa2413bd2f0d4bd48978bb11868e", "bike_id": "114dfa2413bd2f0d4bd48978bb11868e"}, {"is_disabled": 0, "is_reserved": 0, "type": "electric_scooter", "lon": -77.03059283333333, "fusion_lon": 0.0, "lat": 38.93980466666667, "rental_uris": {"android": "https://dc.lft.to/lastmile_qr_scan", "ios": "https://dc.lft.to/lastmile_qr_scan"}, "fusion_lat": 0.0, "name": "af26c572f624dc494b0df066d50b8a39", "bike_id": "af26c572f624dc494b0df066d50b8a39"}, {"is_disabled": 0, "is_reserved": 0, "type": "electric_scooter", "lon": -77.02724433333333, "fusion_lon": 0.0, "lat": 38.9085555, "rental_uris": {"android": "https://dc.lft.to/lastmile_qr_scan", "ios": "https://dc.lft.to/lastmile_qr_scan"}, "fusion_lat": 0.0, "name": "17158fc43a45fc33d857331507658a80", "bike_id": "17158fc43a45fc33d857331507658a80"}, {"is_disabled": 0, "is_reserved": 0, "type": "electric_bike", "lon": -76.98047133333333, "fusion_lon": 0.0, "lat": 38.9008765, "rental_uris": {"android": "https://dc.lft.to/lastmile_qr_scan", "ios": "https://dc.lft.to/lastmile_qr_scan"}, "fusion_lat": 0.0, "name": "45232e6ff8bfeead9964f0b4734977a1", "bike_id": "45232e6ff8bfeead9964f0b4734977a1"}, {"is_disabled": 0, "is_reserved": 0, "type": "electric_scooter", "lon": -77.02823366666667, "fusion_lon": 0.0, "lat": 38.885815666666666, "rental_uris": {"android": "https://dc.lft.to/lastmile_qr_scan", "ios": "https://dc.lft.to/lastmile_qr_scan"}, "fusion_lat": 0.0, "name": "e28318eb43e92267b04d0b01827b2552", "bike_id": "e28318eb43e92267b04d0b01827b2552"}, {"is_disabled": 0, "is_reserved": 0, "type": "electric_scooter", "lon": -77.03827533333333, "fusion_lon": 0.0, "lat": 38.9148305, "rental_uris": {"android": "https://dc.lft.to/lastmile_qr_scan", "ios": "https://dc.lft.to/lastmile_qr_scan"}, "fusion_lat": 0.0, "name": "da850797aece91214d4e241ae73949fa", "bike_id": "da850797aece91214d4e241ae73949fa"}, {"is_disabled": 0, "is_reserved": 0, "type": "electric_scooter", "lon": -77.02804283333333, "fusion_lon": 0.0, "lat": 38.911015666666664, "rental_uris": {"android": "https://dc.lft.to/lastmile_qr_scan", "ios": "https://dc.lft.to/lastmile_qr_scan"}, "fusion_lat": 0.0, "name": "2dde4b18d806234e0b9768af2951b73e", "bike_id": "2dde4b18d806234e0b9768af2951b73e"}, {"is_disabled": 0, "is_reserved": 0, "type": "electric_scooter", "lon": -77.00339583333333, "fusion_lon": 0.0, "lat": 38.90714916666667, "rental_uris": {"android": "https://dc.lft.to/lastmile_qr_scan", "ios": "https://dc.lft.to/lastmile_qr_scan"}, "fusion_lat": 0.0, "name": "bf6448fabaa8e7be77595c39bef35457", "bike_id": "bf6448fabaa8e7be77595c39bef35457"}, {"is_disabled": 0, "is_reserved": 0, "type": "electric_scooter", "lon": -77.03395566666667, "fusion_lon": 0.0, "lat": 38.90211133333333, "rental_uris": {"android": "https://dc.lft.to/lastmile_qr_scan", "ios": "https://dc.lft.to/lastmile_qr_scan"}, "fusion_lat": 0.0, "name": "8d063553fc2129afc688315fc72f2056", "bike_id": "8d063553fc2129afc688315fc72f2056"}, {"is_disabled": 0, "is_reserved": 0, "type": "electric_scooter", "lon": -77.03527833333334, "fusion_lon": 0.0, "lat": 38.921492666666666, "rental_uris": {"android": "https://dc.lft.to/lastmile_qr_scan", "ios": "https://dc.lft.to/lastmile_qr_scan"}, "fusion_lat": 0.0, "name": "fb57e968b2eaee2a89a4cc634677fa78", "bike_id": "fb57e968b2eaee2a89a4cc634677fa78"}, {"is_disabled": 0, "is_reserved": 0, "type": "electric_scooter", "lon": -77.0293615, "fusion_lon": 0.0, "lat": 38.914168333333336, "rental_uris": {"android": "https://dc.lft.to/lastmile_qr_scan", "ios": "https://dc.lft.to/lastmile_qr_scan"}, "fusion_lat": 0.0, "name": "a9dd26ed551431f63a2f49b6c1d6c6d9", "bike_id": "a9dd26ed551431f63a2f49b6c1d6c6d9"}, {"is_disabled": 0, "is_reserved": 0, "type": "electric_bike", "lon": -77.10028916666667, "fusion_lon": 0.0, "lat": 38.99062466666667, "rental_uris": {"android": "https://dc.lft.to/lastmile_qr_scan", "ios": "https://dc.lft.to/lastmile_qr_scan"}, "fusion_lat": 0.0, "name": "6ee0f3a33f2aaefec73dab00b54074ac", "bike_id": "6ee0f3a33f2aaefec73dab00b54074ac"}, {"is_disabled": 0, "is_reserved": 0, "type": "electric_scooter", "lon": -77.035076, "fusion_lon": 0.0, "lat": 38.92340766666667, "rental_uris": {"android": "https://dc.lft.to/lastmile_qr_scan", "ios": "https://dc.lft.to/lastmile_qr_scan"}, "fusion_lat": 0.0, "name": "df6ef1d1b784b816e96ae2329e349da6", "bike_id": "df6ef1d1b784b816e96ae2329e349da6"}, {"is_disabled": 0, "is_reserved": 0, "type": "electric_scooter", "lon": -77.04336166666667, "fusion_lon": 0.0, "lat": 38.892289166666664, "rental_uris": {"android": "https://dc.lft.to/lastmile_qr_scan", "ios": "https://dc.lft.to/lastmile_qr_scan"}, "fusion_lat": 0.0, "name": "908968865ca901a38ae46be4d2b91fe8", "bike_id": "908968865ca901a38ae46be4d2b91fe8"}, {"is_disabled": 0, "is_reserved": 0, "type": "electric_scooter", "lon": -77.0141545, "fusion_lon": 0.0, "lat": 38.92793616666667, "rental_uris": {"android": "https://dc.lft.to/lastmile_qr_scan", "ios": "https://dc.lft.to/lastmile_qr_scan"}, "fusion_lat": 0.0, "name": "693eb4c09715ec3e08850c3584ec0162", "bike_id": "693eb4c09715ec3e08850c3584ec0162"}, {"is_disabled": 0, "is_reserved": 0, "type": "electric_scooter", "lon": -77.02158316666667, "fusion_lon": 0.0, "lat": 38.926025833333334, "rental_uris": {"android": "https://dc.lft.to/lastmile_qr_scan", "ios": "https://dc.lft.to/lastmile_qr_scan"}, "fusion_lat": 0.0, "name": "32782fba7961f1f2819aa1a732ca190d", "bike_id": "32782fba7961f1f2819aa1a732ca190d"}, {"is_disabled": 0, "is_reserved": 0, "type": "electric_scooter", "lon": -77.00582166666666, "fusion_lon": 0.0, "lat": 38.8752135, "rental_uris": {"android": "https://dc.lft.to/lastmile_qr_scan", "ios": "https://dc.lft.to/lastmile_qr_scan"}, "fusion_lat": 0.0, "name": "03aa43fc510132f803a3d6e950018e2a", "bike_id": "03aa43fc510132f803a3d6e950018e2a"}, {"is_disabled": 0, "is_reserved": 0, "type": "electric_scooter", "lon": -77.03342716666667, "fusion_lon": 0.0, "lat": 38.968021, "rental_uris": {"android": "https://dc.lft.to/lastmile_qr_scan", "ios": "https://dc.lft.to/lastmile_qr_scan"}, "fusion_lat": 0.0, "name": "61c0031412d4dfe5653781edebdf7197", "bike_id": "61c0031412d4dfe5653781edebdf7197"}, {"is_disabled": 0, "is_reserved": 0, "type": "electric_bike", "lon": -76.87495016666666, "fusion_lon": 0.0, "lat": 38.9908925, "rental_uris": {"android": "https://dc.lft.to/lastmile_qr_scan", "ios": "https://dc.lft.to/lastmile_qr_scan"}, "fusion_lat": 0.0, "name": "71702f581bbc9cbe2f840e622a6488d3", "bike_id": "71702f581bbc9cbe2f840e622a6488d3"}, {"is_disabled": 0, "is_reserved": 0, "type": "electric_scooter", "lon": -77.01791316666667, "fusion_lon": 0.0, "lat": 38.941087833333334, "rental_uris": {"android": "https://dc.lft.to/lastmile_qr_scan", "ios": "https://dc.lft.to/lastmile_qr_scan"}, "fusion_lat": 0.0, "name": "2164a05e7b8019fd92a1c8c7a1dffd70", "bike_id": "2164a05e7b8019fd92a1c8c7a1dffd70"}, {"is_disabled": 0, "is_reserved": 0, "type": "electric_bike", "lon": -77.048988, "fusion_lon": 0.0, "lat": 38.87493116666667, "rental_uris": {"android": "https://dc.lft.to/lastmile_qr_scan", "ios": "https://dc.lft.to/lastmile_qr_scan"}, "fusion_lat": 0.0, "name": "0f2b96c91fb27794cf1c160613895619", "bike_id": "0f2b96c91fb27794cf1c160613895619"}, {"is_disabled": 0, "is_reserved": 0, "type": "electric_scooter", "lon": -76.98813683333333, "fusion_lon": 0.0, "lat": 38.900117333333334, "rental_uris": {"android": "https://dc.lft.to/lastmile_qr_scan", "ios": "https://dc.lft.to/lastmile_qr_scan"}, "fusion_lat": 0.0, "name": "b60bb1c9165efa46a273fbaa7e4a9efb", "bike_id": "b60bb1c9165efa46a273fbaa7e4a9efb"}, {"is_disabled": 0, "is_reserved": 0, "type": "electric_scooter", "lon": -77.02977333333334, "fusion_lon": 0.0, "lat": 38.916832666666664, "rental_uris": {"android": "https://dc.lft.to/lastmile_qr_scan", "ios": "https://dc.lft.to/lastmile_qr_scan"}, "fusion_lat": 0.0, "name": "70a6c8dc9469b1f34072d2e401416479", "bike_id": "70a6c8dc9469b1f34072d2e401416479"}, {"is_disabled": 0, "is_reserved": 0, "type": "electric_scooter", "lon": -76.94914983333334, "fusion_lon": 0.0, "lat": 38.89490466666667, "rental_uris": {"android": "https://dc.lft.to/lastmile_qr_scan", "ios": "https://dc.lft.to/lastmile_qr_scan"}, "fusion_lat": 0.0, "name": "c9b2f2df8b7417a929056bf51e80b266", "bike_id": "c9b2f2df8b7417a929056bf51e80b266"}, {"is_disabled": 0, "is_reserved": 0, "type": "electric_scooter", "lon": -76.9900855, "fusion_lon": 0.0, "lat": 38.865042333333335, "rental_uris": {"android": "https://dc.lft.to/lastmile_qr_scan", "ios": "https://dc.lft.to/lastmile_qr_scan"}, "fusion_lat": 0.0, "name": "b0252572743d9916ffca89d7b20074fd", "bike_id": "b0252572743d9916ffca89d7b20074fd"}, {"is_disabled": 0, "is_reserved": 0, "type": "electric_scooter", "lon": -77.019988, "fusion_lon": 0.0, "lat": 38.96639066666667, "rental_uris": {"android": "https://dc.lft.to/lastmile_qr_scan", "ios": "https://dc.lft.to/lastmile_qr_scan"}, "fusion_lat": 0.0, "name": "adf086cf72c5b0bc6b3d8d43ae1a413e", "bike_id": "adf086cf72c5b0bc6b3d8d43ae1a413e"}, {"is_disabled": 0, "is_reserved": 0, "type": "electric_scooter", "lon": -77.03153533333334, "fusion_lon": 0.0, "lat": 38.918023833333336, "rental_uris": {"android": "https://dc.lft.to/lastmile_qr_scan", "ios": "https://dc.lft.to/lastmile_qr_scan"}, "fusion_lat": 0.0, "name": "c200926d693bf2cecce6d010db36618b", "bike_id": "c200926d693bf2cecce6d010db36618b"}, {"is_disabled": 0, "is_reserved": 0, "type": "electric_scooter", "lon": -77.04183383333333, "fusion_lon": 0.0, "lat": 38.90807733333333, "rental_uris": {"android": "https://dc.lft.to/lastmile_qr_scan", "ios": "https://dc.lft.to/lastmile_qr_scan"}, "fusion_lat": 0.0, "name": "aab63cf64e0c039022ffd646bb554286", "bike_id": "aab63cf64e0c039022ffd646bb554286"}, {"is_disabled": 0, "is_reserved": 0, "type": "electric_scooter", "lon": -77.03184783333333, "fusion_lon": 0.0, "lat": 38.933117333333335, "rental_uris": {"android": "https://dc.lft.to/lastmile_qr_scan", "ios": "https://dc.lft.to/lastmile_qr_scan"}, "fusion_lat": 0.0, "name": "c2aa382388866194f2eb59896f84a038", "bike_id": "c2aa382388866194f2eb59896f84a038"}, {"is_disabled": 0, "is_reserved": 0, "type": "electric_bike", "lon": -77.03649066666667, "fusion_lon": 0.0, "lat": 38.907335333333336, "rental_uris": {"android": "https://dc.lft.to/lastmile_qr_scan", "ios": "https://dc.lft.to/lastmile_qr_scan"}, "fusion_lat": 0.0, "name": "c36cb2b3ee6f89935361e7b9b76293df", "bike_id": "c36cb2b3ee6f89935361e7b9b76293df"}, {"is_disabled": 0, "is_reserved": 0, "type": "electric_scooter", "lon": -77.02578166666666, "fusion_lon": 0.0, "lat": 38.892192, "rental_uris": {"android": "https://dc.lft.to/lastmile_qr_scan", "ios": "https://dc.lft.to/lastmile_qr_scan"}, "fusion_lat": 0.0, "name": "5ded64140e2ed3cc55e9962f2056d366", "bike_id": "5ded64140e2ed3cc55e9962f2056d366"}, {"is_disabled": 0, "is_reserved": 0, "type": "electric_scooter", "lon": -76.99076566666666, "fusion_lon": 0.0, "lat": 38.86053283333333, "rental_uris": {"android": "https://dc.lft.to/lastmile_qr_scan", "ios": "https://dc.lft.to/lastmile_qr_scan"}, "fusion_lat": 0.0, "name": "a25320b8fb161bb2da0175d2c9530cce", "bike_id": "a25320b8fb161bb2da0175d2c9530cce"}, {"is_disabled": 0, "is_reserved": 0, "type": "electric_scooter", "lon": -77.05042083333333, "fusion_lon": 0.0, "lat": 38.90542666666666, "rental_uris": {"android": "https://dc.lft.to/lastmile_qr_scan", "ios": "https://dc.lft.to/lastmile_qr_scan"}, "fusion_lat": 0.0, "name": "4fd534112a466258e9a9370a94eb6f5e", "bike_id": "4fd534112a466258e9a9370a94eb6f5e"}, {"is_disabled": 0, "is_reserved": 0, "type": "electric_scooter", "lon": -77.0540865, "fusion_lon": 0.0, "lat": 38.9051235, "rental_uris": {"android": "https://dc.lft.to/lastmile_qr_scan", "ios": "https://dc.lft.to/lastmile_qr_scan"}, "fusion_lat": 0.0, "name": "03ba8e2f70ebacebd54ce4f4e8e54a65", "bike_id": "03ba8e2f70ebacebd54ce4f4e8e54a65"}, {"is_disabled": 0, "is_reserved": 0, "type": "electric_scooter", "lon": -77.032346, "fusion_lon": 0.0, "lat": 38.90147416666667, "rental_uris": {"android": "https://dc.lft.to/lastmile_qr_scan", "ios": "https://dc.lft.to/lastmile_qr_scan"}, "fusion_lat": 0.0, "name": "9de61e3be46fea55dbed1001eadafec9", "bike_id": "9de61e3be46fea55dbed1001eadafec9"}, {"is_disabled": 0, "is_reserved": 0, "type": "electric_scooter", "lon": -77.04677, "fusion_lon": 0.0, "lat": 38.89224033333333, "rental_uris": {"android": "https://dc.lft.to/lastmile_qr_scan", "ios": "https://dc.lft.to/lastmile_qr_scan"}, "fusion_lat": 0.0, "name": "f87e621c7657df0fde11a72f4bcd4eaa", "bike_id": "f87e621c7657df0fde11a72f4bcd4eaa"}, {"is_disabled": 0, "is_reserved": 0, "type": "electric_scooter", "lon": -77.016079, "fusion_lon": 0.0, "lat": 38.887498, "rental_uris": {"android": "https://dc.lft.to/lastmile_qr_scan", "ios": "https://dc.lft.to/lastmile_qr_scan"}, "fusion_lat": 0.0, "name": "658f053559a39b625af883188e588c02", "bike_id": "658f053559a39b625af883188e588c02"}, {"is_disabled": 0, "is_reserved": 0, "type": "electric_bike", "lon": -76.98332766666667, "fusion_lon": 0.0, "lat": 38.966042333333334, "rental_uris": {"android": "https://dc.lft.to/lastmile_qr_scan", "ios": "https://dc.lft.to/lastmile_qr_scan"}, "fusion_lat": 0.0, "name": "984905785b681c5bca9e439c2c13b57c", "bike_id": "984905785b681c5bca9e439c2c13b57c"}, {"is_disabled": 0, "is_reserved": 0, "type": "electric_scooter", "lon": -76.933728, "fusion_lon": 0.0, "lat": 38.89923733333333, "rental_uris": {"android": "https://dc.lft.to/lastmile_qr_scan", "ios": "https://dc.lft.to/lastmile_qr_scan"}, "fusion_lat": 0.0, "name": "6f7eabb0a216991739e7ede87a665068", "bike_id": "6f7eabb0a216991739e7ede87a665068"}, {"is_disabled": 0, "is_reserved": 0, "type": "electric_scooter", "lon": -77.02844433333334, "fusion_lon": 0.0, "lat": 38.922336666666666, "rental_uris": {"android": "https://dc.lft.to/lastmile_qr_scan", "ios": "https://dc.lft.to/lastmile_qr_scan"}, "fusion_lat": 0.0, "name": "88a9f97fc7a144d570fbffd2635fd6e0", "bike_id": "88a9f97fc7a144d570fbffd2635fd6e0"}, {"is_disabled": 0, "is_reserved": 0, "type": "electric_scooter", "lon": -77.0364195, "fusion_lon": 0.0, "lat": 38.90691983333333, "rental_uris": {"android": "https://dc.lft.to/lastmile_qr_scan", "ios": "https://dc.lft.to/lastmile_qr_scan"}, "fusion_lat": 0.0, "name": "ac12f681fcd2ad516a44e31452a1b291", "bike_id": "ac12f681fcd2ad516a44e31452a1b291"}, {"is_disabled": 0, "is_reserved": 0, "type": "electric_scooter", "lon": -77.00907, "fusion_lon": 0.0, "lat": 38.89565116666667, "rental_uris": {"android": "https://dc.lft.to/lastmile_qr_scan", "ios": "https://dc.lft.to/lastmile_qr_scan"}, "fusion_lat": 0.0, "name": "ed9a7ae4a482ee5eda72d06eb3fc4bd5", "bike_id": "ed9a7ae4a482ee5eda72d06eb3fc4bd5"}, {"is_disabled": 0, "is_reserved": 0, "type": "electric_scooter", "lon": -77.0329845, "fusion_lon": 0.0, "lat": 38.909694333333334, "rental_uris": {"android": "https://dc.lft.to/lastmile_qr_scan", "ios": "https://dc.lft.to/lastmile_qr_scan"}, "fusion_lat": 0.0, "name": "fe3cc6eca388803c1597d60c77ae1034", "bike_id": "fe3cc6eca388803c1597d60c77ae1034"}, {"is_disabled": 0, "is_reserved": 0, "type": "electric_scooter", "lon": -77.0305405, "fusion_lon": 0.0, "lat": 38.899809833333336, "rental_uris": {"android": "https://dc.lft.to/lastmile_qr_scan", "ios": "https://dc.lft.to/lastmile_qr_scan"}, "fusion_lat": 0.0, "name": "e494be77fffe8e9c1c556779d6198e12", "bike_id": "e494be77fffe8e9c1c556779d6198e12"}, {"is_disabled": 0, "is_reserved": 0, "type": "electric_scooter", "lon": -77.02495483333334, "fusion_lon": 0.0, "lat": 38.918083333333335, "rental_uris": {"android": "https://dc.lft.to/lastmile_qr_scan", "ios": "https://dc.lft.to/lastmile_qr_scan"}, "fusion_lat": 0.0, "name": "493b13ddcc45d62014c0665352fd07c1", "bike_id": "493b13ddcc45d62014c0665352fd07c1"}, {"is_disabled": 0, "is_reserved": 0, "type": "electric_bike", "lon": -77.043616, "fusion_lon": 0.0, "lat": 38.83181283333333, "rental_uris": {"android": "https://dc.lft.to/lastmile_qr_scan", "ios": "https://dc.lft.to/lastmile_qr_scan"}, "fusion_lat": 0.0, "name": "2dcd422abf340d8c4716bcbfffa47ee2", "bike_id": "2dcd422abf340d8c4716bcbfffa47ee2"}, {"is_disabled": 0, "is_reserved": 0, "type": "electric_bike", "lon": -77.107318, "fusion_lon": 0.0, "lat": 38.855400833333334, "rental_uris": {"android": "https://dc.lft.to/lastmile_qr_scan", "ios": "https://dc.lft.to/lastmile_qr_scan"}, "fusion_lat": 0.0, "name": "b3911189b750efd9477caa9cd1a0e84b", "bike_id": "b3911189b750efd9477caa9cd1a0e84b"}, {"is_disabled": 0, "is_reserved": 0, "type": "electric_scooter", "lon": -77.02546916666667, "fusion_lon": 0.0, "lat": 38.907262, "rental_uris": {"android": "https://dc.lft.to/lastmile_qr_scan", "ios": "https://dc.lft.to/lastmile_qr_scan"}, "fusion_lat": 0.0, "name": "d5e6dae6c2f0f3059c07472bd50124ee", "bike_id": "d5e6dae6c2f0f3059c07472bd50124ee"}, {"is_disabled": 0, "is_reserved": 0, "type": "electric_scooter", "lon": -77.02782616666667, "fusion_lon": 0.0, "lat": 38.892213, "rental_uris": {"android": "https://dc.lft.to/lastmile_qr_scan", "ios": "https://dc.lft.to/lastmile_qr_scan"}, "fusion_lat": 0.0, "name": "043d98072365e5d908f41494a69ddc08", "bike_id": "043d98072365e5d908f41494a69ddc08"}, {"is_disabled": 0, "is_reserved": 0, "type": "electric_scooter", "lon": -77.06362, "fusion_lon": 0.0, "lat": 38.94417216666667, "rental_uris": {"android": "https://dc.lft.to/lastmile_qr_scan", "ios": "https://dc.lft.to/lastmile_qr_scan"}, "fusion_lat": 0.0, "name": "90b5e3390b5915bb9165017ff3288208", "bike_id": "90b5e3390b5915bb9165017ff3288208"}, {"is_disabled": 0, "is_reserved": 0, "type": "electric_scooter", "lon": -76.99801283333333, "fusion_lon": 0.0, "lat": 38.908569, "rental_uris": {"android": "https://dc.lft.to/lastmile_qr_scan", "ios": "https://dc.lft.to/lastmile_qr_scan"}, "fusion_lat": 0.0, "name": "a71bc55aa9e4cdc241cc5427ee96c9c1", "bike_id": "a71bc55aa9e4cdc241cc5427ee96c9c1"}, {"is_disabled": 0, "is_reserved": 0, "type": "electric_scooter", "lon": -77.03211716666667, "fusion_lon": 0.0, "lat": 38.9191075, "rental_uris": {"android": "https://dc.lft.to/lastmile_qr_scan", "ios": "https://dc.lft.to/lastmile_qr_scan"}, "fusion_lat": 0.0, "name": "c66692adf074b7d76733cbf83f079fb8", "bike_id": "c66692adf074b7d76733cbf83f079fb8"}, {"is_disabled": 0, "is_reserved": 0, "type": "electric_scooter", "lon": -77.040309, "fusion_lon": 0.0, "lat": 38.91785, "rental_uris": {"android": "https://dc.lft.to/lastmile_qr_scan", "ios": "https://dc.lft.to/lastmile_qr_scan"}, "fusion_lat": 0.0, "name": "55660b2d1973a15ada749ba63907255a", "bike_id": "55660b2d1973a15ada749ba63907255a"}, {"is_disabled": 0, "is_reserved": 0, "type": "electric_scooter", "lon": -77.023005, "fusion_lon": 0.0, "lat": 38.9017525, "rental_uris": {"android": "https://dc.lft.to/lastmile_qr_scan", "ios": "https://dc.lft.to/lastmile_qr_scan"}, "fusion_lat": 0.0, "name": "7b410c2b1dffc4efaffc259e7d6ca4e7", "bike_id": "7b410c2b1dffc4efaffc259e7d6ca4e7"}, {"is_disabled": 0, "is_reserved": 0, "type": "electric_scooter", "lon": -77.03883383333333, "fusion_lon": 0.0, "lat": 38.934320166666666, "rental_uris": {"android": "https://dc.lft.to/lastmile_qr_scan", "ios": "https://dc.lft.to/lastmile_qr_scan"}, "fusion_lat": 0.0, "name": "909c054d5daeb3d72c43171a7aa91fab", "bike_id": "909c054d5daeb3d72c43171a7aa91fab"}, {"is_disabled": 0, "is_reserved": 0, "type": "electric_scooter", "lon": -77.00220733333333, "fusion_lon": 0.0, "lat": 38.89500733333333, "rental_uris": {"android": "https://dc.lft.to/lastmile_qr_scan", "ios": "https://dc.lft.to/lastmile_qr_scan"}, "fusion_lat": 0.0, "name": "08e7253d66e8d60fe1b2650de0bd26db", "bike_id": "08e7253d66e8d60fe1b2650de0bd26db"}, {"is_disabled": 0, "is_reserved": 0, "type": "electric_bike", "lon": -77.05122883333334, "fusion_lon": 0.0, "lat": 38.94562766666667, "rental_uris": {"android": "https://dc.lft.to/lastmile_qr_scan", "ios": "https://dc.lft.to/lastmile_qr_scan"}, "fusion_lat": 0.0, "name": "63e1d356acade7401363ffc6a0a2af10", "bike_id": "63e1d356acade7401363ffc6a0a2af10"}, {"is_disabled": 0, "is_reserved": 0, "type": "electric_scooter", "lon": -77.04110683333333, "fusion_lon": 0.0, "lat": 38.916958, "rental_uris": {"android": "https://dc.lft.to/lastmile_qr_scan", "ios": "https://dc.lft.to/lastmile_qr_scan"}, "fusion_lat": 0.0, "name": "6aa828f65ec1f801cc49fa61040f1e00", "bike_id": "6aa828f65ec1f801cc49fa61040f1e00"}, {"is_disabled": 0, "is_reserved": 0, "type": "electric_scooter", "lon": -77.03849483333333, "fusion_lon": 0.0, "lat": 38.91632966666667, "rental_uris": {"android": "https://dc.lft.to/lastmile_qr_scan", "ios": "https://dc.lft.to/lastmile_qr_scan"}, "fusion_lat": 0.0, "name": "ee6f6d4c8151f5004604e4b5e4fc7f04", "bike_id": "ee6f6d4c8151f5004604e4b5e4fc7f04"}, {"is_disabled": 0, "is_reserved": 0, "type": "electric_scooter", "lon": -77.063503, "fusion_lon": 0.0, "lat": 38.9444165, "rental_uris": {"android": "https://dc.lft.to/lastmile_qr_scan", "ios": "https://dc.lft.to/lastmile_qr_scan"}, "fusion_lat": 0.0, "name": "362aa344d10b12fa1c30eff1097f57d6", "bike_id": "362aa344d10b12fa1c30eff1097f57d6"}, {"is_disabled": 0, "is_reserved": 0, "type": "electric_scooter", "lon": -77.07276616666667, "fusion_lon": 0.0, "lat": 38.93470683333334, "rental_uris": {"android": "https://dc.lft.to/lastmile_qr_scan", "ios": "https://dc.lft.to/lastmile_qr_scan"}, "fusion_lat": 0.0, "name": "50aa3d034c31ededca07caebf667392f", "bike_id": "50aa3d034c31ededca07caebf667392f"}, {"is_disabled": 0, "is_reserved": 0, "type": "electric_scooter", "lon": -77.01374883333334, "fusion_lon": 0.0, "lat": 38.88640516666667, "rental_uris": {"android": "https://dc.lft.to/lastmile_qr_scan", "ios": "https://dc.lft.to/lastmile_qr_scan"}, "fusion_lat": 0.0, "name": "0988bc6bcc8addd526f6d9007f81fd46", "bike_id": "0988bc6bcc8addd526f6d9007f81fd46"}, {"is_disabled": 0, "is_reserved": 0, "type": "electric_scooter", "lon": -77.05006383333334, "fusion_lon": 0.0, "lat": 38.90517066666666, "rental_uris": {"android": "https://dc.lft.to/lastmile_qr_scan", "ios": "https://dc.lft.to/lastmile_qr_scan"}, "fusion_lat": 0.0, "name": "f961c02bd04f92c6d3f56877cafd07b3", "bike_id": "f961c02bd04f92c6d3f56877cafd07b3"}, {"is_disabled": 0, "is_reserved": 0, "type": "electric_scooter", "lon": -77.0229125, "fusion_lon": 0.0, "lat": 38.890600166666665, "rental_uris": {"android": "https://dc.lft.to/lastmile_qr_scan", "ios": "https://dc.lft.to/lastmile_qr_scan"}, "fusion_lat": 0.0, "name": "fdc9526a408529c92887d9cfd8f09288", "bike_id": "fdc9526a408529c92887d9cfd8f09288"}, {"is_disabled": 0, "is_reserved": 0, "type": "electric_scooter", "lon": -77.042512, "fusion_lon": 0.0, "lat": 38.9141115, "rental_uris": {"android": "https://dc.lft.to/lastmile_qr_scan", "ios": "https://dc.lft.to/lastmile_qr_scan"}, "fusion_lat": 0.0, "name": "e6e05595aa92ad630d0e77369276d9d0", "bike_id": "e6e05595aa92ad630d0e77369276d9d0"}, {"is_disabled": 0, "is_reserved": 0, "type": "electric_scooter", "lon": -77.04162416666667, "fusion_lon": 0.0, "lat": 38.90062416666667, "rental_uris": {"android": "https://dc.lft.to/lastmile_qr_scan", "ios": "https://dc.lft.to/lastmile_qr_scan"}, "fusion_lat": 0.0, "name": "37f8a43c2a00e5e77321e5de1bf6674e", "bike_id": "37f8a43c2a00e5e77321e5de1bf6674e"}, {"is_disabled": 0, "is_reserved": 0, "type": "electric_scooter", "lon": -77.01357733333333, "fusion_lon": 0.0, "lat": 38.92871316666667, "rental_uris": {"android": "https://dc.lft.to/lastmile_qr_scan", "ios": "https://dc.lft.to/lastmile_qr_scan"}, "fusion_lat": 0.0, "name": "210f10358b518a0702904588ad4b4e7e", "bike_id": "210f10358b518a0702904588ad4b4e7e"}, {"is_disabled": 0, "is_reserved": 0, "type": "electric_scooter", "lon": -77.04432716666666, "fusion_lon": 0.0, "lat": 38.912606333333336, "rental_uris": {"android": "https://dc.lft.to/lastmile_qr_scan", "ios": "https://dc.lft.to/lastmile_qr_scan"}, "fusion_lat": 0.0, "name": "91dc8e9d4f3dd0fdbdf0a966a24a9329", "bike_id": "91dc8e9d4f3dd0fdbdf0a966a24a9329"}, {"is_disabled": 0, "is_reserved": 0, "type": "electric_scooter", "lon": -77.03432483333333, "fusion_lon": 0.0, "lat": 38.90970466666667, "rental_uris": {"android": "https://dc.lft.to/lastmile_qr_scan", "ios": "https://dc.lft.to/lastmile_qr_scan"}, "fusion_lat": 0.0, "name": "3fa80fba4c4424518e64a78bc358e305", "bike_id": "3fa80fba4c4424518e64a78bc358e305"}, {"is_disabled": 0, "is_reserved": 0, "type": "electric_scooter", "lon": -77.05419833333333, "fusion_lon": 0.0, "lat": 38.902459666666665, "rental_uris": {"android": "https://dc.lft.to/lastmile_qr_scan", "ios": "https://dc.lft.to/lastmile_qr_scan"}, "fusion_lat": 0.0, "name": "61435ae114069ce0a471221ba0da5fa2", "bike_id": "61435ae114069ce0a471221ba0da5fa2"}, {"is_disabled": 0, "is_reserved": 0, "type": "electric_bike", "lon": -76.90541083333333, "fusion_lon": 0.0, "lat": 38.89736116666667, "rental_uris": {"android": "https://dc.lft.to/lastmile_qr_scan", "ios": "https://dc.lft.to/lastmile_qr_scan"}, "fusion_lat": 0.0, "name": "f9056bfc7a318261c1152de21165545b", "bike_id": "f9056bfc7a318261c1152de21165545b"}, {"is_disabled": 0, "is_reserved": 0, "type": "electric_scooter", "lon": -77.015357, "fusion_lon": 0.0, "lat": 38.887390333333336, "rental_uris": {"android": "https://dc.lft.to/lastmile_qr_scan", "ios": "https://dc.lft.to/lastmile_qr_scan"}, "fusion_lat": 0.0, "name": "79a0b943b79819ce97e11f1fab519f29", "bike_id": "79a0b943b79819ce97e11f1fab519f29"}, {"is_disabled": 0, "is_reserved": 0, "type": "electric_scooter", "lon": -77.03753666666667, "fusion_lon": 0.0, "lat": 38.92911183333333, "rental_uris": {"android": "https://dc.lft.to/lastmile_qr_scan", "ios": "https://dc.lft.to/lastmile_qr_scan"}, "fusion_lat": 0.0, "name": "6384a844502d20800141cadc95f184fd", "bike_id": "6384a844502d20800141cadc95f184fd"}, {"is_disabled": 0, "is_reserved": 0, "type": "electric_scooter", "lon": -77.02582216666667, "fusion_lon": 0.0, "lat": 38.942129666666666, "rental_uris": {"android": "https://dc.lft.to/lastmile_qr_scan", "ios": "https://dc.lft.to/lastmile_qr_scan"}, "fusion_lat": 0.0, "name": "270649d08d897ca2633abfa7a19d4fa9", "bike_id": "270649d08d897ca2633abfa7a19d4fa9"}, {"is_disabled": 0, "is_reserved": 0, "type": "electric_scooter", "lon": -77.0334895, "fusion_lon": 0.0, "lat": 38.89623016666667, "rental_uris": {"android": "https://dc.lft.to/lastmile_qr_scan", "ios": "https://dc.lft.to/lastmile_qr_scan"}, "fusion_lat": 0.0, "name": "ae17f99e1f73032cf7af811b2846b374", "bike_id": "ae17f99e1f73032cf7af811b2846b374"}, {"is_disabled": 0, "is_reserved": 0, "type": "electric_scooter", "lon": -77.03855883333334, "fusion_lon": 0.0, "lat": 38.91807, "rental_uris": {"android": "https://dc.lft.to/lastmile_qr_scan", "ios": "https://dc.lft.to/lastmile_qr_scan"}, "fusion_lat": 0.0, "name": "96596880fefb734212d961f938fc6c6c", "bike_id": "96596880fefb734212d961f938fc6c6c"}, {"is_disabled": 0, "is_reserved": 0, "type": "electric_scooter", "lon": -77.03210983333334, "fusion_lon": 0.0, "lat": 38.8870485, "rental_uris": {"android": "https://dc.lft.to/lastmile_qr_scan", "ios": "https://dc.lft.to/lastmile_qr_scan"}, "fusion_lat": 0.0, "name": "00840fa17e11a90b8d0a70885ad09329", "bike_id": "00840fa17e11a90b8d0a70885ad09329"}, {"is_disabled": 0, "is_reserved": 0, "type": "electric_scooter", "lon": -77.04380716666667, "fusion_lon": 0.0, "lat": 38.902628166666666, "rental_uris": {"android": "https://dc.lft.to/lastmile_qr_scan", "ios": "https://dc.lft.to/lastmile_qr_scan"}, "fusion_lat": 0.0, "name": "f34d06bfc884e071b3ac8d02c2607a1d", "bike_id": "f34d06bfc884e071b3ac8d02c2607a1d"}, {"is_disabled": 0, "is_reserved": 0, "type": "electric_scooter", "lon": -77.02274016666667, "fusion_lon": 0.0, "lat": 38.89729283333333, "rental_uris": {"android": "https://dc.lft.to/lastmile_qr_scan", "ios": "https://dc.lft.to/lastmile_qr_scan"}, "fusion_lat": 0.0, "name": "56d602fe58c4e2f8ff2327f451075c08", "bike_id": "56d602fe58c4e2f8ff2327f451075c08"}, {"is_disabled": 0, "is_reserved": 0, "type": "electric_bike", "lon": -76.982056, "fusion_lon": 0.0, "lat": 38.98501433333333, "rental_uris": {"android": "https://dc.lft.to/lastmile_qr_scan", "ios": "https://dc.lft.to/lastmile_qr_scan"}, "fusion_lat": 0.0, "name": "968d4b1e2be918e69bbb2876ca5fd029", "bike_id": "968d4b1e2be918e69bbb2876ca5fd029"}, {"is_disabled": 0, "is_reserved": 0, "type": "electric_scooter", "lon": -77.031753, "fusion_lon": 0.0, "lat": 38.9191595, "rental_uris": {"android": "https://dc.lft.to/lastmile_qr_scan", "ios": "https://dc.lft.to/lastmile_qr_scan"}, "fusion_lat": 0.0, "name": "8672f96b8ac69cd59cee5b03029abfdf", "bike_id": "8672f96b8ac69cd59cee5b03029abfdf"}, {"is_disabled": 0, "is_reserved": 0, "type": "electric_scooter", "lon": -77.04843066666666, "fusion_lon": 0.0, "lat": 38.8883435, "rental_uris": {"android": "https://dc.lft.to/lastmile_qr_scan", "ios": "https://dc.lft.to/lastmile_qr_scan"}, "fusion_lat": 0.0, "name": "78328b0736fb910a08d002f3cd12ad21", "bike_id": "78328b0736fb910a08d002f3cd12ad21"}, {"is_disabled": 0, "is_reserved": 0, "type": "electric_scooter", "lon": -77.03152333333334, "fusion_lon": 0.0, "lat": 38.927242166666666, "rental_uris": {"android": "https://dc.lft.to/lastmile_qr_scan", "ios": "https://dc.lft.to/lastmile_qr_scan"}, "fusion_lat": 0.0, "name": "2c85eab611b162694853cb36aad1cb8f", "bike_id": "2c85eab611b162694853cb36aad1cb8f"}, {"is_disabled": 0, "is_reserved": 0, "type": "electric_scooter", "lon": -77.02495466666667, "fusion_lon": 0.0, "lat": 38.91809216666667, "rental_uris": {"android": "https://dc.lft.to/lastmile_qr_scan", "ios": "https://dc.lft.to/lastmile_qr_scan"}, "fusion_lat": 0.0, "name": "23a065a1bf4366c485af3ad15a6f9a8c", "bike_id": "23a065a1bf4366c485af3ad15a6f9a8c"}, {"is_disabled": 0, "is_reserved": 0, "type": "electric_scooter", "lon": -77.02161166666667, "fusion_lon": 0.0, "lat": 38.893898, "rental_uris": {"android": "https://dc.lft.to/lastmile_qr_scan", "ios": "https://dc.lft.to/lastmile_qr_scan"}, "fusion_lat": 0.0, "name": "5c240fec789dcd5a0217bbe35a39c919", "bike_id": "5c240fec789dcd5a0217bbe35a39c919"}, {"is_disabled": 0, "is_reserved": 0, "type": "electric_scooter", "lon": -77.04864683333334, "fusion_lon": 0.0, "lat": 38.909595, "rental_uris": {"android": "https://dc.lft.to/lastmile_qr_scan", "ios": "https://dc.lft.to/lastmile_qr_scan"}, "fusion_lat": 0.0, "name": "241290554e8336655df2fb34f9c43bcf", "bike_id": "241290554e8336655df2fb34f9c43bcf"}, {"is_disabled": 0, "is_reserved": 0, "type": "electric_scooter", "lon": -77.04672016666666, "fusion_lon": 0.0, "lat": 38.9118455, "rental_uris": {"android": "https://dc.lft.to/lastmile_qr_scan", "ios": "https://dc.lft.to/lastmile_qr_scan"}, "fusion_lat": 0.0, "name": "e3c7e472552d3890c68c84fc3b48b96c", "bike_id": "e3c7e472552d3890c68c84fc3b48b96c"}, {"is_disabled": 0, "is_reserved": 0, "type": "electric_scooter", "lon": -77.032076, "fusion_lon": 0.0, "lat": 38.913380833333335, "rental_uris": {"android": "https://dc.lft.to/lastmile_qr_scan", "ios": "https://dc.lft.to/lastmile_qr_scan"}, "fusion_lat": 0.0, "name": "d395239a7fe3842efee6408895e3a455", "bike_id": "d395239a7fe3842efee6408895e3a455"}, {"is_disabled": 0, "is_reserved": 0, "type": "electric_scooter", "lon": -77.04490433333333, "fusion_lon": 0.0, "lat": 38.908366, "rental_uris": {"android": "https://dc.lft.to/lastmile_qr_scan", "ios": "https://dc.lft.to/lastmile_qr_scan"}, "fusion_lat": 0.0, "name": "abfe9d2246c1c1b06536ad4c9e326b50", "bike_id": "abfe9d2246c1c1b06536ad4c9e326b50"}, {"is_disabled": 0, "is_reserved": 0, "type": "electric_scooter", "lon": -77.00497433333334, "fusion_lon": 0.0, "lat": 38.896906666666666, "rental_uris": {"android": "https://dc.lft.to/lastmile_qr_scan", "ios": "https://dc.lft.to/lastmile_qr_scan"}, "fusion_lat": 0.0, "name": "a1c0b0be7266e599ef27e87a3f171f87", "bike_id": "a1c0b0be7266e599ef27e87a3f171f87"}, {"is_disabled": 0, "is_reserved": 0, "type": "electric_scooter", "lon": -76.9916065, "fusion_lon": 0.0, "lat": 38.881442666666665, "rental_uris": {"android": "https://dc.lft.to/lastmile_qr_scan", "ios": "https://dc.lft.to/lastmile_qr_scan"}, "fusion_lat": 0.0, "name": "909e7862f061cb6f0c8bc424f1c299da", "bike_id": "909e7862f061cb6f0c8bc424f1c299da"}, {"is_disabled": 0, "is_reserved": 0, "type": "electric_scooter", "lon": -77.03346733333333, "fusion_lon": 0.0, "lat": 38.892436000000004, "rental_uris": {"android": "https://dc.lft.to/lastmile_qr_scan", "ios": "https://dc.lft.to/lastmile_qr_scan"}, "fusion_lat": 0.0, "name": "738d157c3d22b878731b0d3f22484837", "bike_id": "738d157c3d22b878731b0d3f22484837"}, {"is_disabled": 0, "is_reserved": 0, "type": "electric_scooter", "lon": -76.98927383333333, "fusion_lon": 0.0, "lat": 38.859001166666665, "rental_uris": {"android": "https://dc.lft.to/lastmile_qr_scan", "ios": "https://dc.lft.to/lastmile_qr_scan"}, "fusion_lat": 0.0, "name": "061c70705ad22df642f14ab007d4425b", "bike_id": "061c70705ad22df642f14ab007d4425b"}, {"is_disabled": 0, "is_reserved": 0, "type": "electric_scooter", "lon": -77.034412, "fusion_lon": 0.0, "lat": 38.910144, "rental_uris": {"android": "https://dc.lft.to/lastmile_qr_scan", "ios": "https://dc.lft.to/lastmile_qr_scan"}, "fusion_lat": 0.0, "name": "4366e51f591a9f283e52bd3975235c65", "bike_id": "4366e51f591a9f283e52bd3975235c65"}, {"is_disabled": 0, "is_reserved": 0, "type": "electric_scooter", "lon": -77.021819, "fusion_lon": 0.0, "lat": 38.9002705, "rental_uris": {"android": "https://dc.lft.to/lastmile_qr_scan", "ios": "https://dc.lft.to/lastmile_qr_scan"}, "fusion_lat": 0.0, "name": "e5e4efabc096a4110f2df585ec61a050", "bike_id": "e5e4efabc096a4110f2df585ec61a050"}, {"is_disabled": 0, "is_reserved": 0, "type": "electric_scooter", "lon": -77.0297315, "fusion_lon": 0.0, "lat": 38.90452783333333, "rental_uris": {"android": "https://dc.lft.to/lastmile_qr_scan", "ios": "https://dc.lft.to/lastmile_qr_scan"}, "fusion_lat": 0.0, "name": "9fe8120af5aa6f39119874af375734c5", "bike_id": "9fe8120af5aa6f39119874af375734c5"}, {"is_disabled": 0, "is_reserved": 0, "type": "electric_scooter", "lon": -77.00333916666666, "fusion_lon": 0.0, "lat": 38.893556833333335, "rental_uris": {"android": "https://dc.lft.to/lastmile_qr_scan", "ios": "https://dc.lft.to/lastmile_qr_scan"}, "fusion_lat": 0.0, "name": "0007f9b71515b6319ac2c93392342ae5", "bike_id": "0007f9b71515b6319ac2c93392342ae5"}, {"is_disabled": 0, "is_reserved": 0, "type": "electric_scooter", "lon": -77.05422366666667, "fusion_lon": 0.0, "lat": 38.8992305, "rental_uris": {"android": "https://dc.lft.to/lastmile_qr_scan", "ios": "https://dc.lft.to/lastmile_qr_scan"}, "fusion_lat": 0.0, "name": "1766f4552df3739672e41b2847d27017", "bike_id": "1766f4552df3739672e41b2847d27017"}, {"is_disabled": 0, "is_reserved": 0, "type": "electric_scooter", "lon": -77.03831466666666, "fusion_lon": 0.0, "lat": 38.903329666666664, "rental_uris": {"android": "https://dc.lft.to/lastmile_qr_scan", "ios": "https://dc.lft.to/lastmile_qr_scan"}, "fusion_lat": 0.0, "name": "8eb6cfdc923b5e10a4a7324587b50d84", "bike_id": "8eb6cfdc923b5e10a4a7324587b50d84"}, {"is_disabled": 0, "is_reserved": 0, "type": "electric_scooter", "lon": -77.00829383333334, "fusion_lon": 0.0, "lat": 38.91263, "rental_uris": {"android": "https://dc.lft.to/lastmile_qr_scan", "ios": "https://dc.lft.to/lastmile_qr_scan"}, "fusion_lat": 0.0, "name": "454eab7b001e265faeda727b8705130e", "bike_id": "454eab7b001e265faeda727b8705130e"}, {"is_disabled": 0, "is_reserved": 0, "type": "electric_bike", "lon": -76.88910616666666, "fusion_lon": 0.0, "lat": 38.925913, "rental_uris": {"android": "https://dc.lft.to/lastmile_qr_scan", "ios": "https://dc.lft.to/lastmile_qr_scan"}, "fusion_lat": 0.0, "name": "b4498e2ecb50f3ad33376f3901779df5", "bike_id": "b4498e2ecb50f3ad33376f3901779df5"}, {"is_disabled": 0, "is_reserved": 0, "type": "electric_scooter", "lon": -77.020853, "fusion_lon": 0.0, "lat": 38.93010966666667, "rental_uris": {"android": "https://dc.lft.to/lastmile_qr_scan", "ios": "https://dc.lft.to/lastmile_qr_scan"}, "fusion_lat": 0.0, "name": "6398adf9e68b0b25c00cab0651e9af8a", "bike_id": "6398adf9e68b0b25c00cab0651e9af8a"}, {"is_disabled": 0, "is_reserved": 0, "type": "electric_scooter", "lon": -77.051504, "fusion_lon": 0.0, "lat": 38.9056595, "rental_uris": {"android": "https://dc.lft.to/lastmile_qr_scan", "ios": "https://dc.lft.to/lastmile_qr_scan"}, "fusion_lat": 0.0, "name": "e8d4205b9edb1f45ce65d4221e9ea947", "bike_id": "e8d4205b9edb1f45ce65d4221e9ea947"}, {"is_disabled": 0, "is_reserved": 0, "type": "electric_bike", "lon": -76.9522105, "fusion_lon": 0.0, "lat": 38.892353166666666, "rental_uris": {"android": "https://dc.lft.to/lastmile_qr_scan", "ios": "https://dc.lft.to/lastmile_qr_scan"}, "fusion_lat": 0.0, "name": "b328d552bf8d9804c6b8798ec6db20c7", "bike_id": "b328d552bf8d9804c6b8798ec6db20c7"}, {"is_disabled": 0, "is_reserved": 0, "type": "electric_scooter", "lon": -77.01410933333334, "fusion_lon": 0.0, "lat": 38.92819933333333, "rental_uris": {"android": "https://dc.lft.to/lastmile_qr_scan", "ios": "https://dc.lft.to/lastmile_qr_scan"}, "fusion_lat": 0.0, "name": "ce835625a4b35cd7a62570810a95586f", "bike_id": "ce835625a4b35cd7a62570810a95586f"}, {"is_disabled": 0, "is_reserved": 0, "type": "electric_scooter", "lon": -77.02778566666667, "fusion_lon": 0.0, "lat": 38.9101695, "rental_uris": {"android": "https://dc.lft.to/lastmile_qr_scan", "ios": "https://dc.lft.to/lastmile_qr_scan"}, "fusion_lat": 0.0, "name": "4333da1b702cfc97606bd360f34c00d7", "bike_id": "4333da1b702cfc97606bd360f34c00d7"}, {"is_disabled": 0, "is_reserved": 0, "type": "electric_scooter", "lon": -77.034691, "fusion_lon": 0.0, "lat": 38.9215465, "rental_uris": {"android": "https://dc.lft.to/lastmile_qr_scan", "ios": "https://dc.lft.to/lastmile_qr_scan"}, "fusion_lat": 0.0, "name": "f009cac0a030c605fc416167971da2fc", "bike_id": "f009cac0a030c605fc416167971da2fc"}, {"is_disabled": 0, "is_reserved": 0, "type": "electric_scooter", "lon": -77.02161516666666, "fusion_lon": 0.0, "lat": 38.926149333333335, "rental_uris": {"android": "https://dc.lft.to/lastmile_qr_scan", "ios": "https://dc.lft.to/lastmile_qr_scan"}, "fusion_lat": 0.0, "name": "f4371228632c29236e776588a92e458d", "bike_id": "f4371228632c29236e776588a92e458d"}, {"is_disabled": 0, "is_reserved": 0, "type": "electric_scooter", "lon": -76.986067, "fusion_lon": 0.0, "lat": 38.882776, "rental_uris": {"android": "https://dc.lft.to/lastmile_qr_scan", "ios": "https://dc.lft.to/lastmile_qr_scan"}, "fusion_lat": 0.0, "name": "447e9cd33521de0faeb21127276842a1", "bike_id": "447e9cd33521de0faeb21127276842a1"}, {"is_disabled": 0, "is_reserved": 0, "type": "electric_scooter", "lon": -77.04342, "fusion_lon": 0.0, "lat": 38.90042283333333, "rental_uris": {"android": "https://dc.lft.to/lastmile_qr_scan", "ios": "https://dc.lft.to/lastmile_qr_scan"}, "fusion_lat": 0.0, "name": "a3f7a337bea485f90f44191ddd5749f0", "bike_id": "a3f7a337bea485f90f44191ddd5749f0"}, {"is_disabled": 0, "is_reserved": 0, "type": "electric_scooter", "lon": -77.02204583333334, "fusion_lon": 0.0, "lat": 38.91419916666667, "rental_uris": {"android": "https://dc.lft.to/lastmile_qr_scan", "ios": "https://dc.lft.to/lastmile_qr_scan"}, "fusion_lat": 0.0, "name": "0894d3fe3b46d527b36f963c5e080fc8", "bike_id": "0894d3fe3b46d527b36f963c5e080fc8"}, {"is_disabled": 0, "is_reserved": 0, "type": "electric_scooter", "lon": -77.032343, "fusion_lon": 0.0, "lat": 38.90151616666667, "rental_uris": {"android": "https://dc.lft.to/lastmile_qr_scan", "ios": "https://dc.lft.to/lastmile_qr_scan"}, "fusion_lat": 0.0, "name": "caca3a92501ed9284ffea145632ba016", "bike_id": "caca3a92501ed9284ffea145632ba016"}, {"is_disabled": 0, "is_reserved": 0, "type": "electric_scooter", "lon": -77.0218665, "fusion_lon": 0.0, "lat": 38.89511483333333, "rental_uris": {"android": "https://dc.lft.to/lastmile_qr_scan", "ios": "https://dc.lft.to/lastmile_qr_scan"}, "fusion_lat": 0.0, "name": "9086d42d8231ff1adb0b0ee21e3bcfcf", "bike_id": "9086d42d8231ff1adb0b0ee21e3bcfcf"}, {"is_disabled": 0, "is_reserved": 0, "type": "electric_scooter", "lon": -77.04519, "fusion_lon": 0.0, "lat": 38.90578566666667, "rental_uris": {"android": "https://dc.lft.to/lastmile_qr_scan", "ios": "https://dc.lft.to/lastmile_qr_scan"}, "fusion_lat": 0.0, "name": "c597d35a32a13caad809d5f4ffbd9a78", "bike_id": "c597d35a32a13caad809d5f4ffbd9a78"}, {"is_disabled": 0, "is_reserved": 0, "type": "electric_scooter", "lon": -77.0280305, "fusion_lon": 0.0, "lat": 38.907403, "rental_uris": {"android": "https://dc.lft.to/lastmile_qr_scan", "ios": "https://dc.lft.to/lastmile_qr_scan"}, "fusion_lat": 0.0, "name": "2e8dad7a09baa1879ac3e74f0317fa96", "bike_id": "2e8dad7a09baa1879ac3e74f0317fa96"}, {"is_disabled": 0, "is_reserved": 0, "type": "electric_scooter", "lon": -77.04364433333333, "fusion_lon": 0.0, "lat": 38.92169466666667, "rental_uris": {"android": "https://dc.lft.to/lastmile_qr_scan", "ios": "https://dc.lft.to/lastmile_qr_scan"}, "fusion_lat": 0.0, "name": "41a7a78c34337baa8513c9454b91857c", "bike_id": "41a7a78c34337baa8513c9454b91857c"}, {"is_disabled": 0, "is_reserved": 0, "type": "electric_scooter", "lon": -76.98616783333334, "fusion_lon": 0.0, "lat": 38.90352566666667, "rental_uris": {"android": "https://dc.lft.to/lastmile_qr_scan", "ios": "https://dc.lft.to/lastmile_qr_scan"}, "fusion_lat": 0.0, "name": "ef81b4b7fbae24fe9000112c5a2ee41f", "bike_id": "ef81b4b7fbae24fe9000112c5a2ee41f"}, {"is_disabled": 0, "is_reserved": 0, "type": "electric_scooter", "lon": -77.0105385, "fusion_lon": 0.0, "lat": 38.872461333333334, "rental_uris": {"android": "https://dc.lft.to/lastmile_qr_scan", "ios": "https://dc.lft.to/lastmile_qr_scan"}, "fusion_lat": 0.0, "name": "feaeb1cbd860dec512a850ab32dfa852", "bike_id": "feaeb1cbd860dec512a850ab32dfa852"}, {"is_disabled": 0, "is_reserved": 0, "type": "electric_scooter", "lon": -77.03181966666666, "fusion_lon": 0.0, "lat": 38.8917575, "rental_uris": {"android": "https://dc.lft.to/lastmile_qr_scan", "ios": "https://dc.lft.to/lastmile_qr_scan"}, "fusion_lat": 0.0, "name": "9f061946a2583b35a6c0373525e705e8", "bike_id": "9f061946a2583b35a6c0373525e705e8"}, {"is_disabled": 0, "is_reserved": 0, "type": "electric_scooter", "lon": -77.025593, "fusion_lon": 0.0, "lat": 38.892232, "rental_uris": {"android": "https://dc.lft.to/lastmile_qr_scan", "ios": "https://dc.lft.to/lastmile_qr_scan"}, "fusion_lat": 0.0, "name": "294c129c0eee634b8736f2182509d8e1", "bike_id": "294c129c0eee634b8736f2182509d8e1"}, {"is_disabled": 0, "is_reserved": 0, "type": "electric_scooter", "lon": -77.0313835, "fusion_lon": 0.0, "lat": 38.91631, "rental_uris": {"android": "https://dc.lft.to/lastmile_qr_scan", "ios": "https://dc.lft.to/lastmile_qr_scan"}, "fusion_lat": 0.0, "name": "66b83fc12543b95095f86dcd344b8c2e", "bike_id": "66b83fc12543b95095f86dcd344b8c2e"}, {"is_disabled": 0, "is_reserved": 0, "type": "electric_scooter", "lon": -77.02694733333334, "fusion_lon": 0.0, "lat": 38.9261225, "rental_uris": {"android": "https://dc.lft.to/lastmile_qr_scan", "ios": "https://dc.lft.to/lastmile_qr_scan"}, "fusion_lat": 0.0, "name": "56888228be883c1b776fbdd1ee5ad086", "bike_id": "56888228be883c1b776fbdd1ee5ad086"}, {"is_disabled": 0, "is_reserved": 0, "type": "electric_scooter", "lon": -76.98966816666666, "fusion_lon": 0.0, "lat": 38.902442, "rental_uris": {"android": "https://dc.lft.to/lastmile_qr_scan", "ios": "https://dc.lft.to/lastmile_qr_scan"}, "fusion_lat": 0.0, "name": "250289f87f92ac6778d90b0d17bfbfd8", "bike_id": "250289f87f92ac6778d90b0d17bfbfd8"}, {"is_disabled": 0, "is_reserved": 0, "type": "electric_scooter", "lon": -77.01617416666667, "fusion_lon": 0.0, "lat": 38.87236383333333, "rental_uris": {"android": "https://dc.lft.to/lastmile_qr_scan", "ios": "https://dc.lft.to/lastmile_qr_scan"}, "fusion_lat": 0.0, "name": "4521c6d61efde9e1c32895ca5bd89e02", "bike_id": "4521c6d61efde9e1c32895ca5bd89e02"}, {"is_disabled": 0, "is_reserved": 0, "type": "electric_scooter", "lon": -77.0366425, "fusion_lon": 0.0, "lat": 38.90287083333333, "rental_uris": {"android": "https://dc.lft.to/lastmile_qr_scan", "ios": "https://dc.lft.to/lastmile_qr_scan"}, "fusion_lat": 0.0, "name": "1ff5576af43109ff1e0f38e9f9eb6119", "bike_id": "1ff5576af43109ff1e0f38e9f9eb6119"}, {"is_disabled": 0, "is_reserved": 0, "type": "electric_scooter", "lon": -77.05005383333334, "fusion_lon": 0.0, "lat": 38.892284, "rental_uris": {"android": "https://dc.lft.to/lastmile_qr_scan", "ios": "https://dc.lft.to/lastmile_qr_scan"}, "fusion_lat": 0.0, "name": "4c07ed0b5bc17846d0f591b3638909a0", "bike_id": "4c07ed0b5bc17846d0f591b3638909a0"}, {"is_disabled": 0, "is_reserved": 0, "type": "electric_scooter", "lon": -77.01109383333333, "fusion_lon": 0.0, "lat": 38.90359983333333, "rental_uris": {"android": "https://dc.lft.to/lastmile_qr_scan", "ios": "https://dc.lft.to/lastmile_qr_scan"}, "fusion_lat": 0.0, "name": "da3ff4527b1d0fff2184f6aebf65b7c6", "bike_id": "da3ff4527b1d0fff2184f6aebf65b7c6"}, {"is_disabled": 0, "is_reserved": 0, "type": "electric_scooter", "lon": -76.99957283333333, "fusion_lon": 0.0, "lat": 38.842843, "rental_uris": {"android": "https://dc.lft.to/lastmile_qr_scan", "ios": "https://dc.lft.to/lastmile_qr_scan"}, "fusion_lat": 0.0, "name": "ab52a140d11f3db3e222cd43f58a1d05", "bike_id": "ab52a140d11f3db3e222cd43f58a1d05"}, {"is_disabled": 0, "is_reserved": 0, "type": "electric_bike", "lon": -76.9496675, "fusion_lon": 0.0, "lat": 38.934989, "rental_uris": {"android": "https://dc.lft.to/lastmile_qr_scan", "ios": "https://dc.lft.to/lastmile_qr_scan"}, "fusion_lat": 0.0, "name": "0e3d9ced97154b6057cbc655035c382e", "bike_id": "0e3d9ced97154b6057cbc655035c382e"}, {"is_disabled": 0, "is_reserved": 0, "type": "electric_scooter", "lon": -77.02533716666667, "fusion_lon": 0.0, "lat": 38.90091683333333, "rental_uris": {"android": "https://dc.lft.to/lastmile_qr_scan", "ios": "https://dc.lft.to/lastmile_qr_scan"}, "fusion_lat": 0.0, "name": "e6eb5ca0ff60c0f5d790b096860e6896", "bike_id": "e6eb5ca0ff60c0f5d790b096860e6896"}, {"is_disabled": 0, "is_reserved": 0, "type": "electric_scooter", "lon": -76.98564566666667, "fusion_lon": 0.0, "lat": 38.85588716666667, "rental_uris": {"android": "https://dc.lft.to/lastmile_qr_scan", "ios": "https://dc.lft.to/lastmile_qr_scan"}, "fusion_lat": 0.0, "name": "af8a36a1c6098bd15d80e875dbe619f2", "bike_id": "af8a36a1c6098bd15d80e875dbe619f2"}, {"is_disabled": 0, "is_reserved": 0, "type": "electric_scooter", "lon": -77.030845, "fusion_lon": 0.0, "lat": 38.9056985, "rental_uris": {"android": "https://dc.lft.to/lastmile_qr_scan", "ios": "https://dc.lft.to/lastmile_qr_scan"}, "fusion_lat": 0.0, "name": "044cff7f9f82c04578fad1eeef96fc68", "bike_id": "044cff7f9f82c04578fad1eeef96fc68"}, {"is_disabled": 0, "is_reserved": 0, "type": "electric_scooter", "lon": -77.041609, "fusion_lon": 0.0, "lat": 38.901542166666665, "rental_uris": {"android": "https://dc.lft.to/lastmile_qr_scan", "ios": "https://dc.lft.to/lastmile_qr_scan"}, "fusion_lat": 0.0, "name": "cf81e188be8175e20e4849ab4abcddff", "bike_id": "cf81e188be8175e20e4849ab4abcddff"}, {"is_disabled": 0, "is_reserved": 0, "type": "electric_scooter", "lon": -77.02195133333333, "fusion_lon": 0.0, "lat": 38.8971505, "rental_uris": {"android": "https://dc.lft.to/lastmile_qr_scan", "ios": "https://dc.lft.to/lastmile_qr_scan"}, "fusion_lat": 0.0, "name": "4cc5d924089c085a8839056e6bf12161", "bike_id": "4cc5d924089c085a8839056e6bf12161"}, {"is_disabled": 0, "is_reserved": 0, "type": "electric_scooter", "lon": -77.04180633333333, "fusion_lon": 0.0, "lat": 38.916685333333334, "rental_uris": {"android": "https://dc.lft.to/lastmile_qr_scan", "ios": "https://dc.lft.to/lastmile_qr_scan"}, "fusion_lat": 0.0, "name": "2333966158f0264294685e6636671e80", "bike_id": "2333966158f0264294685e6636671e80"}, {"is_disabled": 0, "is_reserved": 0, "type": "electric_scooter", "lon": -77.029778, "fusion_lon": 0.0, "lat": 38.898423, "rental_uris": {"android": "https://dc.lft.to/lastmile_qr_scan", "ios": "https://dc.lft.to/lastmile_qr_scan"}, "fusion_lat": 0.0, "name": "01743937cc8b53dd18ae47822dd9d49d", "bike_id": "01743937cc8b53dd18ae47822dd9d49d"}, {"is_disabled": 0, "is_reserved": 0, "type": "electric_bike", "lon": -77.00864, "fusion_lon": 0.0, "lat": 38.827293166666664, "rental_uris": {"android": "https://dc.lft.to/lastmile_qr_scan", "ios": "https://dc.lft.to/lastmile_qr_scan"}, "fusion_lat": 0.0, "name": "a2c62df49ae5726c305842f23ce21ed6", "bike_id": "a2c62df49ae5726c305842f23ce21ed6"}, {"is_disabled": 0, "is_reserved": 0, "type": "electric_scooter", "lon": -77.02934533333334, "fusion_lon": 0.0, "lat": 38.882179666666666, "rental_uris": {"android": "https://dc.lft.to/lastmile_qr_scan", "ios": "https://dc.lft.to/lastmile_qr_scan"}, "fusion_lat": 0.0, "name": "6da9e8462828ae94efb3dc498336a622", "bike_id": "6da9e8462828ae94efb3dc498336a622"}, {"is_disabled": 0, "is_reserved": 0, "type": "electric_scooter", "lon": -77.03865783333333, "fusion_lon": 0.0, "lat": 38.911688, "rental_uris": {"android": "https://dc.lft.to/lastmile_qr_scan", "ios": "https://dc.lft.to/lastmile_qr_scan"}, "fusion_lat": 0.0, "name": "7bfb5d1e5b3069dbe8a61742e63fc52d", "bike_id": "7bfb5d1e5b3069dbe8a61742e63fc52d"}, {"is_disabled": 0, "is_reserved": 0, "type": "electric_scooter", "lon": -77.02578683333333, "fusion_lon": 0.0, "lat": 38.88484916666667, "rental_uris": {"android": "https://dc.lft.to/lastmile_qr_scan", "ios": "https://dc.lft.to/lastmile_qr_scan"}, "fusion_lat": 0.0, "name": "1105bb311777e021900f7868547fcfb4", "bike_id": "1105bb311777e021900f7868547fcfb4"}, {"is_disabled": 0, "is_reserved": 0, "type": "electric_scooter", "lon": -77.03238083333333, "fusion_lon": 0.0, "lat": 38.90525933333333, "rental_uris": {"android": "https://dc.lft.to/lastmile_qr_scan", "ios": "https://dc.lft.to/lastmile_qr_scan"}, "fusion_lat": 0.0, "name": "ca3acf54eb879e6a6f23b685655325b9", "bike_id": "ca3acf54eb879e6a6f23b685655325b9"}, {"is_disabled": 0, "is_reserved": 0, "type": "electric_scooter", "lon": -77.0400075, "fusion_lon": 0.0, "lat": 38.918067, "rental_uris": {"android": "https://dc.lft.to/lastmile_qr_scan", "ios": "https://dc.lft.to/lastmile_qr_scan"}, "fusion_lat": 0.0, "name": "2c634acaf69949a9e52d55e42e05a815", "bike_id": "2c634acaf69949a9e52d55e42e05a815"}, {"is_disabled": 0, "is_reserved": 0, "type": "electric_scooter", "lon": -77.05331966666667, "fusion_lon": 0.0, "lat": 38.92315683333333, "rental_uris": {"android": "https://dc.lft.to/lastmile_qr_scan", "ios": "https://dc.lft.to/lastmile_qr_scan"}, "fusion_lat": 0.0, "name": "943aea52046f712ad7d5ac849f94c041", "bike_id": "943aea52046f712ad7d5ac849f94c041"}, {"is_disabled": 0, "is_reserved": 0, "type": "electric_scooter", "lon": -77.00743, "fusion_lon": 0.0, "lat": 38.911904666666665, "rental_uris": {"android": "https://dc.lft.to/lastmile_qr_scan", "ios": "https://dc.lft.to/lastmile_qr_scan"}, "fusion_lat": 0.0, "name": "3ad6e967e4aba25422e9939ea9fc390e", "bike_id": "3ad6e967e4aba25422e9939ea9fc390e"}, {"is_disabled": 0, "is_reserved": 0, "type": "electric_scooter", "lon": -77.04187233333333, "fusion_lon": 0.0, "lat": 38.89862433333333, "rental_uris": {"android": "https://dc.lft.to/lastmile_qr_scan", "ios": "https://dc.lft.to/lastmile_qr_scan"}, "fusion_lat": 0.0, "name": "b1efa9208fefeb5e7dc2412ea873703a", "bike_id": "b1efa9208fefeb5e7dc2412ea873703a"}, {"is_disabled": 0, "is_reserved": 0, "type": "electric_bike", "lon": -77.04319616666666, "fusion_lon": 0.0, "lat": 38.831245833333334, "rental_uris": {"android": "https://dc.lft.to/lastmile_qr_scan", "ios": "https://dc.lft.to/lastmile_qr_scan"}, "fusion_lat": 0.0, "name": "0c788dcf46bdb8a2bef21f8cb17ffbff", "bike_id": "0c788dcf46bdb8a2bef21f8cb17ffbff"}, {"is_disabled": 0, "is_reserved": 0, "type": "electric_scooter", "lon": -77.02213383333333, "fusion_lon": 0.0, "lat": 38.887416, "rental_uris": {"android": "https://dc.lft.to/lastmile_qr_scan", "ios": "https://dc.lft.to/lastmile_qr_scan"}, "fusion_lat": 0.0, "name": "b6e860a3d5d5883cad7f5c83fb7243dc", "bike_id": "b6e860a3d5d5883cad7f5c83fb7243dc"}, {"is_disabled": 0, "is_reserved": 0, "type": "electric_bike", "lon": -76.907583, "fusion_lon": 0.0, "lat": 38.924402, "rental_uris": {"android": "https://dc.lft.to/lastmile_qr_scan", "ios": "https://dc.lft.to/lastmile_qr_scan"}, "fusion_lat": 0.0, "name": "d503e4e9eace4cf155584e3058940515", "bike_id": "d503e4e9eace4cf155584e3058940515"}, {"is_disabled": 0, "is_reserved": 0, "type": "electric_scooter", "lon": -77.05040233333334, "fusion_lon": 0.0, "lat": 38.923585333333335, "rental_uris": {"android": "https://dc.lft.to/lastmile_qr_scan", "ios": "https://dc.lft.to/lastmile_qr_scan"}, "fusion_lat": 0.0, "name": "0692b57458e0eba944fac53faa09d378", "bike_id": "0692b57458e0eba944fac53faa09d378"}, {"is_disabled": 0, "is_reserved": 0, "type": "electric_scooter", "lon": -77.024816, "fusion_lon": 0.0, "lat": 38.93877883333333, "rental_uris": {"android": "https://dc.lft.to/lastmile_qr_scan", "ios": "https://dc.lft.to/lastmile_qr_scan"}, "fusion_lat": 0.0, "name": "6386c9e0ac9cadf518695151aec0a9ad", "bike_id": "6386c9e0ac9cadf518695151aec0a9ad"}, {"is_disabled": 0, "is_reserved": 0, "type": "electric_scooter", "lon": -77.0468735, "fusion_lon": 0.0, "lat": 38.915910333333336, "rental_uris": {"android": "https://dc.lft.to/lastmile_qr_scan", "ios": "https://dc.lft.to/lastmile_qr_scan"}, "fusion_lat": 0.0, "name": "8f929c3c14841cf829eeacbcc7b93f1a", "bike_id": "8f929c3c14841cf829eeacbcc7b93f1a"}, {"is_disabled": 0, "is_reserved": 0, "type": "electric_scooter", "lon": -77.05109, "fusion_lon": 0.0, "lat": 38.9235925, "rental_uris": {"android": "https://dc.lft.to/lastmile_qr_scan", "ios": "https://dc.lft.to/lastmile_qr_scan"}, "fusion_lat": 0.0, "name": "5a14259f63267237418990ee15e86dee", "bike_id": "5a14259f63267237418990ee15e86dee"}, {"is_disabled": 0, "is_reserved": 0, "type": "electric_scooter", "lon": -77.03250183333333, "fusion_lon": 0.0, "lat": 38.91489216666667, "rental_uris": {"android": "https://dc.lft.to/lastmile_qr_scan", "ios": "https://dc.lft.to/lastmile_qr_scan"}, "fusion_lat": 0.0, "name": "137e53c4183a87b9c7858c64980ee5c2", "bike_id": "137e53c4183a87b9c7858c64980ee5c2"}, {"is_disabled": 0, "is_reserved": 0, "type": "electric_scooter", "lon": -77.03147, "fusion_lon": 0.0, "lat": 38.91994433333333, "rental_uris": {"android": "https://dc.lft.to/lastmile_qr_scan", "ios": "https://dc.lft.to/lastmile_qr_scan"}, "fusion_lat": 0.0, "name": "4be6c36f82ea83a26a7bc12f744a9fb3", "bike_id": "4be6c36f82ea83a26a7bc12f744a9fb3"}, {"is_disabled": 0, "is_reserved": 0, "type": "electric_scooter", "lon": -77.03998583333333, "fusion_lon": 0.0, "lat": 38.90353366666667, "rental_uris": {"android": "https://dc.lft.to/lastmile_qr_scan", "ios": "https://dc.lft.to/lastmile_qr_scan"}, "fusion_lat": 0.0, "name": "a541bacdbb79b07b6fab37e2840319da", "bike_id": "a541bacdbb79b07b6fab37e2840319da"}, {"is_disabled": 0, "is_reserved": 0, "type": "electric_scooter", "lon": -77.04146266666666, "fusion_lon": 0.0, "lat": 38.899111, "rental_uris": {"android": "https://dc.lft.to/lastmile_qr_scan", "ios": "https://dc.lft.to/lastmile_qr_scan"}, "fusion_lat": 0.0, "name": "1b9ea719f41507800b093d3b58c52e89", "bike_id": "1b9ea719f41507800b093d3b58c52e89"}, {"is_disabled": 0, "is_reserved": 0, "type": "electric_scooter", "lon": -77.03582633333333, "fusion_lon": 0.0, "lat": 38.9076655, "rental_uris": {"android": "https://dc.lft.to/lastmile_qr_scan", "ios": "https://dc.lft.to/lastmile_qr_scan"}, "fusion_lat": 0.0, "name": "d9dbd0a00bf80e11e2557ccefd58e709", "bike_id": "d9dbd0a00bf80e11e2557ccefd58e709"}, {"is_disabled": 0, "is_reserved": 0, "type": "electric_scooter", "lon": -77.02223183333334, "fusion_lon": 0.0, "lat": 38.935510666666666, "rental_uris": {"android": "https://dc.lft.to/lastmile_qr_scan", "ios": "https://dc.lft.to/lastmile_qr_scan"}, "fusion_lat": 0.0, "name": "c1941efce17df3f0d6f932e26600e1df", "bike_id": "c1941efce17df3f0d6f932e26600e1df"}, {"is_disabled": 0, "is_reserved": 0, "type": "electric_scooter", "lon": -77.01013616666667, "fusion_lon": 0.0, "lat": 38.879668333333335, "rental_uris": {"android": "https://dc.lft.to/lastmile_qr_scan", "ios": "https://dc.lft.to/lastmile_qr_scan"}, "fusion_lat": 0.0, "name": "f37e7f1a5772dfc66fa9ecc53f2d5765", "bike_id": "f37e7f1a5772dfc66fa9ecc53f2d5765"}, {"is_disabled": 0, "is_reserved": 0, "type": "electric_scooter", "lon": -77.0175635, "fusion_lon": 0.0, "lat": 38.87692666666667, "rental_uris": {"android": "https://dc.lft.to/lastmile_qr_scan", "ios": "https://dc.lft.to/lastmile_qr_scan"}, "fusion_lat": 0.0, "name": "692fb7bbc9eb34eb23dbc24c32d237f1", "bike_id": "692fb7bbc9eb34eb23dbc24c32d237f1"}, {"is_disabled": 0, "is_reserved": 0, "type": "electric_scooter", "lon": -77.0222815, "fusion_lon": 0.0, "lat": 38.892189333333334, "rental_uris": {"android": "https://dc.lft.to/lastmile_qr_scan", "ios": "https://dc.lft.to/lastmile_qr_scan"}, "fusion_lat": 0.0, "name": "66b7e9aa573e79980458437dc2a654a6", "bike_id": "66b7e9aa573e79980458437dc2a654a6"}, {"is_disabled": 0, "is_reserved": 0, "type": "electric_scooter", "lon": -76.99516816666667, "fusion_lon": 0.0, "lat": 38.89486083333333, "rental_uris": {"android": "https://dc.lft.to/lastmile_qr_scan", "ios": "https://dc.lft.to/lastmile_qr_scan"}, "fusion_lat": 0.0, "name": "125496adf92cd81d4621dfa08aea0a47", "bike_id": "125496adf92cd81d4621dfa08aea0a47"}, {"is_disabled": 0, "is_reserved": 0, "type": "electric_scooter", "lon": -76.99057766666667, "fusion_lon": 0.0, "lat": 38.8635485, "rental_uris": {"android": "https://dc.lft.to/lastmile_qr_scan", "ios": "https://dc.lft.to/lastmile_qr_scan"}, "fusion_lat": 0.0, "name": "238dbd1979f56ed0312dd7f98b46e568", "bike_id": "238dbd1979f56ed0312dd7f98b46e568"}, {"is_disabled": 0, "is_reserved": 0, "type": "electric_scooter", "lon": -77.050329, "fusion_lon": 0.0, "lat": 38.905420166666666, "rental_uris": {"android": "https://dc.lft.to/lastmile_qr_scan", "ios": "https://dc.lft.to/lastmile_qr_scan"}, "fusion_lat": 0.0, "name": "9c455fb0173b9050df53dab298ae6deb", "bike_id": "9c455fb0173b9050df53dab298ae6deb"}, {"is_disabled": 0, "is_reserved": 0, "type": "electric_scooter", "lon": -77.032197, "fusion_lon": 0.0, "lat": 38.900413666666665, "rental_uris": {"android": "https://dc.lft.to/lastmile_qr_scan", "ios": "https://dc.lft.to/lastmile_qr_scan"}, "fusion_lat": 0.0, "name": "c681d25069cdda9c19c811fc98a52370", "bike_id": "c681d25069cdda9c19c811fc98a52370"}, {"is_disabled": 0, "is_reserved": 0, "type": "electric_scooter", "lon": -76.99653133333334, "fusion_lon": 0.0, "lat": 38.93219933333334, "rental_uris": {"android": "https://dc.lft.to/lastmile_qr_scan", "ios": "https://dc.lft.to/lastmile_qr_scan"}, "fusion_lat": 0.0, "name": "5f5c025e2d0194cac485c2f5aeaddbdb", "bike_id": "5f5c025e2d0194cac485c2f5aeaddbdb"}, {"is_disabled": 0, "is_reserved": 0, "type": "electric_scooter", "lon": -77.02817016666667, "fusion_lon": 0.0, "lat": 38.9162825, "rental_uris": {"android": "https://dc.lft.to/lastmile_qr_scan", "ios": "https://dc.lft.to/lastmile_qr_scan"}, "fusion_lat": 0.0, "name": "83aa939ea884d136a0b0ccf510673a49", "bike_id": "83aa939ea884d136a0b0ccf510673a49"}, {"is_disabled": 0, "is_reserved": 0, "type": "electric_scooter", "lon": -77.0521185, "fusion_lon": 0.0, "lat": 38.924771666666665, "rental_uris": {"android": "https://dc.lft.to/lastmile_qr_scan", "ios": "https://dc.lft.to/lastmile_qr_scan"}, "fusion_lat": 0.0, "name": "4bb1e679751d1b34c59d1c532ff87231", "bike_id": "4bb1e679751d1b34c59d1c532ff87231"}, {"is_disabled": 0, "is_reserved": 0, "type": "electric_scooter", "lon": -77.03853066666667, "fusion_lon": 0.0, "lat": 38.932008, "rental_uris": {"android": "https://dc.lft.to/lastmile_qr_scan", "ios": "https://dc.lft.to/lastmile_qr_scan"}, "fusion_lat": 0.0, "name": "ff33b87de159553fe532e61acc8344d2", "bike_id": "ff33b87de159553fe532e61acc8344d2"}, {"is_disabled": 0, "is_reserved": 0, "type": "electric_scooter", "lon": -77.02235083333333, "fusion_lon": 0.0, "lat": 38.92336616666667, "rental_uris": {"android": "https://dc.lft.to/lastmile_qr_scan", "ios": "https://dc.lft.to/lastmile_qr_scan"}, "fusion_lat": 0.0, "name": "a4c7419933e4c7a9bcd71c0fac2087e9", "bike_id": "a4c7419933e4c7a9bcd71c0fac2087e9"}, {"is_disabled": 0, "is_reserved": 0, "type": "electric_scooter", "lon": -77.04265783333334, "fusion_lon": 0.0, "lat": 38.94552266666667, "rental_uris": {"android": "https://dc.lft.to/lastmile_qr_scan", "ios": "https://dc.lft.to/lastmile_qr_scan"}, "fusion_lat": 0.0, "name": "97a7ed0ee0e74cf67ab78197903bd0f5", "bike_id": "97a7ed0ee0e74cf67ab78197903bd0f5"}, {"is_disabled": 0, "is_reserved": 0, "type": "electric_scooter", "lon": -77.05940533333333, "fusion_lon": 0.0, "lat": 38.93675366666667, "rental_uris": {"android": "https://dc.lft.to/lastmile_qr_scan", "ios": "https://dc.lft.to/lastmile_qr_scan"}, "fusion_lat": 0.0, "name": "1baacc1150c384649ca52c43365bd34d", "bike_id": "1baacc1150c384649ca52c43365bd34d"}, {"is_disabled": 0, "is_reserved": 0, "type": "electric_scooter", "lon": -76.99852833333334, "fusion_lon": 0.0, "lat": 38.90884916666667, "rental_uris": {"android": "https://dc.lft.to/lastmile_qr_scan", "ios": "https://dc.lft.to/lastmile_qr_scan"}, "fusion_lat": 0.0, "name": "03ec2cb889ebb50ce467d37509e0f26d", "bike_id": "03ec2cb889ebb50ce467d37509e0f26d"}, {"is_disabled": 0, "is_reserved": 0, "type": "electric_scooter", "lon": -77.02974116666667, "fusion_lon": 0.0, "lat": 38.89826933333333, "rental_uris": {"android": "https://dc.lft.to/lastmile_qr_scan", "ios": "https://dc.lft.to/lastmile_qr_scan"}, "fusion_lat": 0.0, "name": "091241fd4da659885cc9410df86d3c87", "bike_id": "091241fd4da659885cc9410df86d3c87"}, {"is_disabled": 0, "is_reserved": 0, "type": "electric_scooter", "lon": -77.02574716666666, "fusion_lon": 0.0, "lat": 38.89224883333333, "rental_uris": {"android": "https://dc.lft.to/lastmile_qr_scan", "ios": "https://dc.lft.to/lastmile_qr_scan"}, "fusion_lat": 0.0, "name": "feb2b1de542c4c73c03be39daf4815a8", "bike_id": "feb2b1de542c4c73c03be39daf4815a8"}, {"is_disabled": 0, "is_reserved": 0, "type": "electric_scooter", "lon": -76.94633783333333, "fusion_lon": 0.0, "lat": 38.89833, "rental_uris": {"android": "https://dc.lft.to/lastmile_qr_scan", "ios": "https://dc.lft.to/lastmile_qr_scan"}, "fusion_lat": 0.0, "name": "a623eab1d9b5e2b45ddf2b3426b35cd1", "bike_id": "a623eab1d9b5e2b45ddf2b3426b35cd1"}, {"is_disabled": 0, "is_reserved": 0, "type": "electric_scooter", "lon": -77.03857266666667, "fusion_lon": 0.0, "lat": 38.918387333333335, "rental_uris": {"android": "https://dc.lft.to/lastmile_qr_scan", "ios": "https://dc.lft.to/lastmile_qr_scan"}, "fusion_lat": 0.0, "name": "286a516a0ae8f9033a7d3c77d5f4cfbc", "bike_id": "286a516a0ae8f9033a7d3c77d5f4cfbc"}, {"is_disabled": 0, "is_reserved": 0, "type": "electric_scooter", "lon": -77.03088816666667, "fusion_lon": 0.0, "lat": 38.92241283333333, "rental_uris": {"android": "https://dc.lft.to/lastmile_qr_scan", "ios": "https://dc.lft.to/lastmile_qr_scan"}, "fusion_lat": 0.0, "name": "9fc41220b0fcdd38d6c001d1b47e7c34", "bike_id": "9fc41220b0fcdd38d6c001d1b47e7c34"}, {"is_disabled": 0, "is_reserved": 0, "type": "electric_scooter", "lon": -77.02588416666667, "fusion_lon": 0.0, "lat": 38.92038316666667, "rental_uris": {"android": "https://dc.lft.to/lastmile_qr_scan", "ios": "https://dc.lft.to/lastmile_qr_scan"}, "fusion_lat": 0.0, "name": "5b239df9c606c211331dddcd12d730b0", "bike_id": "5b239df9c606c211331dddcd12d730b0"}, {"is_disabled": 0, "is_reserved": 0, "type": "electric_scooter", "lon": -77.03653683333333, "fusion_lon": 0.0, "lat": 38.954921, "rental_uris": {"android": "https://dc.lft.to/lastmile_qr_scan", "ios": "https://dc.lft.to/lastmile_qr_scan"}, "fusion_lat": 0.0, "name": "1e7d765dfbcbbebd9c630d420219cfbd", "bike_id": "1e7d765dfbcbbebd9c630d420219cfbd"}, {"is_disabled": 0, "is_reserved": 0, "type": "electric_scooter", "lon": -77.04383883333334, "fusion_lon": 0.0, "lat": 38.902560666666666, "rental_uris": {"android": "https://dc.lft.to/lastmile_qr_scan", "ios": "https://dc.lft.to/lastmile_qr_scan"}, "fusion_lat": 0.0, "name": "5f920e5cf05a0fc3af328c938b08ade2", "bike_id": "5f920e5cf05a0fc3af328c938b08ade2"}, {"is_disabled": 0, "is_reserved": 0, "type": "electric_scooter", "lon": -77.03346883333333, "fusion_lon": 0.0, "lat": 38.902519833333336, "rental_uris": {"android": "https://dc.lft.to/lastmile_qr_scan", "ios": "https://dc.lft.to/lastmile_qr_scan"}, "fusion_lat": 0.0, "name": "58a325ec8f0b7980d7b9b364832cd538", "bike_id": "58a325ec8f0b7980d7b9b364832cd538"}, {"is_disabled": 0, "is_reserved": 0, "type": "electric_scooter", "lon": -77.0364825, "fusion_lon": 0.0, "lat": 38.902809500000004, "rental_uris": {"android": "https://dc.lft.to/lastmile_qr_scan", "ios": "https://dc.lft.to/lastmile_qr_scan"}, "fusion_lat": 0.0, "name": "cb2a9ebe14813058fc0585fdb8cff296", "bike_id": "cb2a9ebe14813058fc0585fdb8cff296"}, {"is_disabled": 0, "is_reserved": 0, "type": "electric_bike", "lon": -77.09568516666667, "fusion_lon": 0.0, "lat": 38.916974833333335, "rental_uris": {"android": "https://dc.lft.to/lastmile_qr_scan", "ios": "https://dc.lft.to/lastmile_qr_scan"}, "fusion_lat": 0.0, "name": "b0c2bb4b3ad18c40b667f85f41fad747", "bike_id": "b0c2bb4b3ad18c40b667f85f41fad747"}, {"is_disabled": 0, "is_reserved": 0, "type": "electric_scooter", "lon": -77.0332155, "fusion_lon": 0.0, "lat": 38.9039165, "rental_uris": {"android": "https://dc.lft.to/lastmile_qr_scan", "ios": "https://dc.lft.to/lastmile_qr_scan"}, "fusion_lat": 0.0, "name": "86bdf96b8e595c31a480a0736288df2b", "bike_id": "86bdf96b8e595c31a480a0736288df2b"}, {"is_disabled": 0, "is_reserved": 0, "type": "electric_scooter", "lon": -77.04481883333334, "fusion_lon": 0.0, "lat": 38.90851766666667, "rental_uris": {"android": "https://dc.lft.to/lastmile_qr_scan", "ios": "https://dc.lft.to/lastmile_qr_scan"}, "fusion_lat": 0.0, "name": "5ef390a429ada3a89e9e3a8215fc6b10", "bike_id": "5ef390a429ada3a89e9e3a8215fc6b10"}, {"is_disabled": 0, "is_reserved": 0, "type": "electric_scooter", "lon": -76.9900585, "fusion_lon": 0.0, "lat": 38.865080666666664, "rental_uris": {"android": "https://dc.lft.to/lastmile_qr_scan", "ios": "https://dc.lft.to/lastmile_qr_scan"}, "fusion_lat": 0.0, "name": "d45cc39ba06698b4399c17d59eb924db", "bike_id": "d45cc39ba06698b4399c17d59eb924db"}, {"is_disabled": 0, "is_reserved": 0, "type": "electric_scooter", "lon": -77.02699383333334, "fusion_lon": 0.0, "lat": 38.9495655, "rental_uris": {"android": "https://dc.lft.to/lastmile_qr_scan", "ios": "https://dc.lft.to/lastmile_qr_scan"}, "fusion_lat": 0.0, "name": "b5dc29249c35ea9e713d06424644e4a6", "bike_id": "b5dc29249c35ea9e713d06424644e4a6"}, {"is_disabled": 0, "is_reserved": 0, "type": "electric_scooter", "lon": -77.01896616666667, "fusion_lon": 0.0, "lat": 38.912168333333334, "rental_uris": {"android": "https://dc.lft.to/lastmile_qr_scan", "ios": "https://dc.lft.to/lastmile_qr_scan"}, "fusion_lat": 0.0, "name": "22ed42d4963c69954a2fc16f125f7103", "bike_id": "22ed42d4963c69954a2fc16f125f7103"}, {"is_disabled": 0, "is_reserved": 0, "type": "electric_scooter", "lon": -77.034215, "fusion_lon": 0.0, "lat": 38.909578, "rental_uris": {"android": "https://dc.lft.to/lastmile_qr_scan", "ios": "https://dc.lft.to/lastmile_qr_scan"}, "fusion_lat": 0.0, "name": "fe0c2192d69bc589f376030078317502", "bike_id": "fe0c2192d69bc589f376030078317502"}, {"is_disabled": 0, "is_reserved": 0, "type": "electric_scooter", "lon": -76.9318655, "fusion_lon": 0.0, "lat": 38.898786, "rental_uris": {"android": "https://dc.lft.to/lastmile_qr_scan", "ios": "https://dc.lft.to/lastmile_qr_scan"}, "fusion_lat": 0.0, "name": "92b3525d4712c53f78643ad83c0aba41", "bike_id": "92b3525d4712c53f78643ad83c0aba41"}, {"is_disabled": 0, "is_reserved": 0, "type": "electric_scooter", "lon": -76.98665, "fusion_lon": 0.0, "lat": 38.9014195, "rental_uris": {"android": "https://dc.lft.to/lastmile_qr_scan", "ios": "https://dc.lft.to/lastmile_qr_scan"}, "fusion_lat": 0.0, "name": "641ad10525cfbc51ead7a819d5d19615", "bike_id": "641ad10525cfbc51ead7a819d5d19615"}, {"is_disabled": 0, "is_reserved": 0, "type": "electric_bike", "lon": -77.04308566666667, "fusion_lon": 0.0, "lat": 39.054455833333336, "rental_uris": {"android": "https://dc.lft.to/lastmile_qr_scan", "ios": "https://dc.lft.to/lastmile_qr_scan"}, "fusion_lat": 0.0, "name": "51926e1da25583f933a9d2dbb478cab3", "bike_id": "51926e1da25583f933a9d2dbb478cab3"}, {"is_disabled": 0, "is_reserved": 0, "type": "electric_scooter", "lon": -77.018276, "fusion_lon": 0.0, "lat": 38.922037, "rental_uris": {"android": "https://dc.lft.to/lastmile_qr_scan", "ios": "https://dc.lft.to/lastmile_qr_scan"}, "fusion_lat": 0.0, "name": "a484f9ce31c2bb4bd13a74ae82e9e834", "bike_id": "a484f9ce31c2bb4bd13a74ae82e9e834"}, {"is_disabled": 0, "is_reserved": 0, "type": "electric_scooter", "lon": -77.04490266666667, "fusion_lon": 0.0, "lat": 38.90843683333333, "rental_uris": {"android": "https://dc.lft.to/lastmile_qr_scan", "ios": "https://dc.lft.to/lastmile_qr_scan"}, "fusion_lat": 0.0, "name": "834bd5d53618f9e67b3a154892f76c6c", "bike_id": "834bd5d53618f9e67b3a154892f76c6c"}, {"is_disabled": 0, "is_reserved": 0, "type": "electric_scooter", "lon": -77.032883, "fusion_lon": 0.0, "lat": 38.934467833333336, "rental_uris": {"android": "https://dc.lft.to/lastmile_qr_scan", "ios": "https://dc.lft.to/lastmile_qr_scan"}, "fusion_lat": 0.0, "name": "1595593781ec32ce33f714cf945f15d6", "bike_id": "1595593781ec32ce33f714cf945f15d6"}, {"is_disabled": 0, "is_reserved": 0, "type": "electric_scooter", "lon": -77.00337616666667, "fusion_lon": 0.0, "lat": 38.89525833333333, "rental_uris": {"android": "https://dc.lft.to/lastmile_qr_scan", "ios": "https://dc.lft.to/lastmile_qr_scan"}, "fusion_lat": 0.0, "name": "929fc4f28058df61dc2d3c3e98f27167", "bike_id": "929fc4f28058df61dc2d3c3e98f27167"}, {"is_disabled": 0, "is_reserved": 0, "type": "electric_scooter", "lon": -77.07251466666666, "fusion_lon": 0.0, "lat": 38.907797, "rental_uris": {"android": "https://dc.lft.to/lastmile_qr_scan", "ios": "https://dc.lft.to/lastmile_qr_scan"}, "fusion_lat": 0.0, "name": "82ef7841c2f2ce40f484076643b5a490", "bike_id": "82ef7841c2f2ce40f484076643b5a490"}, {"is_disabled": 0, "is_reserved": 0, "type": "electric_scooter", "lon": -77.04940183333333, "fusion_lon": 0.0, "lat": 38.907268, "rental_uris": {"android": "https://dc.lft.to/lastmile_qr_scan", "ios": "https://dc.lft.to/lastmile_qr_scan"}, "fusion_lat": 0.0, "name": "cb8abc6ad5dec104b31a010469779685", "bike_id": "cb8abc6ad5dec104b31a010469779685"}, {"is_disabled": 0, "is_reserved": 0, "type": "electric_bike", "lon": -77.0067945, "fusion_lon": 0.0, "lat": 38.94514083333333, "rental_uris": {"android": "https://dc.lft.to/lastmile_qr_scan", "ios": "https://dc.lft.to/lastmile_qr_scan"}, "fusion_lat": 0.0, "name": "813d3692bad71953dc863fbc4ecdbdba", "bike_id": "813d3692bad71953dc863fbc4ecdbdba"}, {"is_disabled": 0, "is_reserved": 0, "type": "electric_scooter", "lon": -77.0291635, "fusion_lon": 0.0, "lat": 38.90156316666667, "rental_uris": {"android": "https://dc.lft.to/lastmile_qr_scan", "ios": "https://dc.lft.to/lastmile_qr_scan"}, "fusion_lat": 0.0, "name": "ec4392fef766ca05ed3d0e844c5fa00a", "bike_id": "ec4392fef766ca05ed3d0e844c5fa00a"}, {"is_disabled": 0, "is_reserved": 0, "type": "electric_scooter", "lon": -77.03383016666666, "fusion_lon": 0.0, "lat": 38.92161616666667, "rental_uris": {"android": "https://dc.lft.to/lastmile_qr_scan", "ios": "https://dc.lft.to/lastmile_qr_scan"}, "fusion_lat": 0.0, "name": "664149f2322e4e086244d4013ec050b9", "bike_id": "664149f2322e4e086244d4013ec050b9"}, {"is_disabled": 0, "is_reserved": 0, "type": "electric_scooter", "lon": -77.00139083333333, "fusion_lon": 0.0, "lat": 38.87392666666667, "rental_uris": {"android": "https://dc.lft.to/lastmile_qr_scan", "ios": "https://dc.lft.to/lastmile_qr_scan"}, "fusion_lat": 0.0, "name": "092d92456436b7b2a2b159af31eaecc4", "bike_id": "092d92456436b7b2a2b159af31eaecc4"}, {"is_disabled": 0, "is_reserved": 0, "type": "electric_scooter", "lon": -77.02692533333334, "fusion_lon": 0.0, "lat": 38.949827666666664, "rental_uris": {"android": "https://dc.lft.to/lastmile_qr_scan", "ios": "https://dc.lft.to/lastmile_qr_scan"}, "fusion_lat": 0.0, "name": "8c7fcd4f196123c2e26c5fea4e514f91", "bike_id": "8c7fcd4f196123c2e26c5fea4e514f91"}, {"is_disabled": 0, "is_reserved": 0, "type": "electric_scooter", "lon": -77.02804133333333, "fusion_lon": 0.0, "lat": 38.96214616666666, "rental_uris": {"android": "https://dc.lft.to/lastmile_qr_scan", "ios": "https://dc.lft.to/lastmile_qr_scan"}, "fusion_lat": 0.0, "name": "461ce8537f423ce22c761697df1b3ff1", "bike_id": "461ce8537f423ce22c761697df1b3ff1"}, {"is_disabled": 0, "is_reserved": 0, "type": "electric_scooter", "lon": -77.03634616666666, "fusion_lon": 0.0, "lat": 38.930485166666664, "rental_uris": {"android": "https://dc.lft.to/lastmile_qr_scan", "ios": "https://dc.lft.to/lastmile_qr_scan"}, "fusion_lat": 0.0, "name": "a628a97abb0e61beeb0132fa59ec956e", "bike_id": "a628a97abb0e61beeb0132fa59ec956e"}, {"is_disabled": 0, "is_reserved": 0, "type": "electric_scooter", "lon": -77.04244383333334, "fusion_lon": 0.0, "lat": 38.9221855, "rental_uris": {"android": "https://dc.lft.to/lastmile_qr_scan", "ios": "https://dc.lft.to/lastmile_qr_scan"}, "fusion_lat": 0.0, "name": "66714e2b7fd5f63a6829bc1884e168c7", "bike_id": "66714e2b7fd5f63a6829bc1884e168c7"}, {"is_disabled": 0, "is_reserved": 0, "type": "electric_scooter", "lon": -77.00334983333333, "fusion_lon": 0.0, "lat": 38.89357866666667, "rental_uris": {"android": "https://dc.lft.to/lastmile_qr_scan", "ios": "https://dc.lft.to/lastmile_qr_scan"}, "fusion_lat": 0.0, "name": "be7ae77e2f5033b2e8c200c28b543a1d", "bike_id": "be7ae77e2f5033b2e8c200c28b543a1d"}, {"is_disabled": 0, "is_reserved": 0, "type": "electric_scooter", "lon": -77.003344, "fusion_lon": 0.0, "lat": 38.904594, "rental_uris": {"android": "https://dc.lft.to/lastmile_qr_scan", "ios": "https://dc.lft.to/lastmile_qr_scan"}, "fusion_lat": 0.0, "name": "0ef13bb82098ac9e5f9cb721b607fc2b", "bike_id": "0ef13bb82098ac9e5f9cb721b607fc2b"}, {"is_disabled": 0, "is_reserved": 0, "type": "electric_scooter", "lon": -77.03645233333333, "fusion_lon": 0.0, "lat": 38.9227915, "rental_uris": {"android": "https://dc.lft.to/lastmile_qr_scan", "ios": "https://dc.lft.to/lastmile_qr_scan"}, "fusion_lat": 0.0, "name": "679513ff696b1735c62f853581d2da59", "bike_id": "679513ff696b1735c62f853581d2da59"}, {"is_disabled": 0, "is_reserved": 0, "type": "electric_scooter", "lon": -77.05130633333333, "fusion_lon": 0.0, "lat": 38.905936833333335, "rental_uris": {"android": "https://dc.lft.to/lastmile_qr_scan", "ios": "https://dc.lft.to/lastmile_qr_scan"}, "fusion_lat": 0.0, "name": "7821a56a55e919d3401f98ea1e344b01", "bike_id": "7821a56a55e919d3401f98ea1e344b01"}, {"is_disabled": 0, "is_reserved": 0, "type": "electric_scooter", "lon": -77.05107416666667, "fusion_lon": 0.0, "lat": 38.92365433333333, "rental_uris": {"android": "https://dc.lft.to/lastmile_qr_scan", "ios": "https://dc.lft.to/lastmile_qr_scan"}, "fusion_lat": 0.0, "name": "a1a96c831095e0ccba64065b2edba5df", "bike_id": "a1a96c831095e0ccba64065b2edba5df"}, {"is_disabled": 0, "is_reserved": 0, "type": "electric_bike", "lon": -77.09581133333333, "fusion_lon": 0.0, "lat": 38.837825, "rental_uris": {"android": "https://dc.lft.to/lastmile_qr_scan", "ios": "https://dc.lft.to/lastmile_qr_scan"}, "fusion_lat": 0.0, "name": "a1e527a70e0bc84a3542887cc1820012", "bike_id": "a1e527a70e0bc84a3542887cc1820012"}, {"is_disabled": 0, "is_reserved": 0, "type": "electric_scooter", "lon": -76.95208516666666, "fusion_lon": 0.0, "lat": 38.89251466666666, "rental_uris": {"android": "https://dc.lft.to/lastmile_qr_scan", "ios": "https://dc.lft.to/lastmile_qr_scan"}, "fusion_lat": 0.0, "name": "03d8644c587ecbfa332e028801c6832d", "bike_id": "03d8644c587ecbfa332e028801c6832d"}, {"is_disabled": 0, "is_reserved": 0, "type": "electric_scooter", "lon": -77.04334333333334, "fusion_lon": 0.0, "lat": 38.898354833333336, "rental_uris": {"android": "https://dc.lft.to/lastmile_qr_scan", "ios": "https://dc.lft.to/lastmile_qr_scan"}, "fusion_lat": 0.0, "name": "a8eda2bebb20e3151ae61f31a0a8b6eb", "bike_id": "a8eda2bebb20e3151ae61f31a0a8b6eb"}, {"is_disabled": 0, "is_reserved": 0, "type": "electric_scooter", "lon": -77.04248633333333, "fusion_lon": 0.0, "lat": 38.91784583333333, "rental_uris": {"android": "https://dc.lft.to/lastmile_qr_scan", "ios": "https://dc.lft.to/lastmile_qr_scan"}, "fusion_lat": 0.0, "name": "59f0959c254f241e95f28f3e2c8b6a3a", "bike_id": "59f0959c254f241e95f28f3e2c8b6a3a"}, {"is_disabled": 0, "is_reserved": 0, "type": "electric_scooter", "lon": -77.05116216666667, "fusion_lon": 0.0, "lat": 38.904786, "rental_uris": {"android": "https://dc.lft.to/lastmile_qr_scan", "ios": "https://dc.lft.to/lastmile_qr_scan"}, "fusion_lat": 0.0, "name": "5fa09aa1a9a8f37ff7ce0139c90bf2bb", "bike_id": "5fa09aa1a9a8f37ff7ce0139c90bf2bb"}, {"is_disabled": 0, "is_reserved": 0, "type": "electric_scooter", "lon": -76.99061233333333, "fusion_lon": 0.0, "lat": 38.9002795, "rental_uris": {"android": "https://dc.lft.to/lastmile_qr_scan", "ios": "https://dc.lft.to/lastmile_qr_scan"}, "fusion_lat": 0.0, "name": "0e99a3590cbddad633c1dfde305fd39f", "bike_id": "0e99a3590cbddad633c1dfde305fd39f"}, {"is_disabled": 0, "is_reserved": 0, "type": "electric_scooter", "lon": -77.04352066666667, "fusion_lon": 0.0, "lat": 38.9027715, "rental_uris": {"android": "https://dc.lft.to/lastmile_qr_scan", "ios": "https://dc.lft.to/lastmile_qr_scan"}, "fusion_lat": 0.0, "name": "3c3a59af051b026a0f99f477acb6125c", "bike_id": "3c3a59af051b026a0f99f477acb6125c"}, {"is_disabled": 0, "is_reserved": 0, "type": "electric_scooter", "lon": -77.0029795, "fusion_lon": 0.0, "lat": 38.89192633333333, "rental_uris": {"android": "https://dc.lft.to/lastmile_qr_scan", "ios": "https://dc.lft.to/lastmile_qr_scan"}, "fusion_lat": 0.0, "name": "e6663770b5b5876581df61899492dab9", "bike_id": "e6663770b5b5876581df61899492dab9"}, {"is_disabled": 0, "is_reserved": 0, "type": "electric_bike", "lon": -76.981686, "fusion_lon": 0.0, "lat": 38.959629, "rental_uris": {"android": "https://dc.lft.to/lastmile_qr_scan", "ios": "https://dc.lft.to/lastmile_qr_scan"}, "fusion_lat": 0.0, "name": "0e04263759d17e9b48511e030f721ae4", "bike_id": "0e04263759d17e9b48511e030f721ae4"}, {"is_disabled": 0, "is_reserved": 0, "type": "electric_scooter", "lon": -76.99188883333333, "fusion_lon": 0.0, "lat": 38.9258025, "rental_uris": {"android": "https://dc.lft.to/lastmile_qr_scan", "ios": "https://dc.lft.to/lastmile_qr_scan"}, "fusion_lat": 0.0, "name": "1a63c2c58d5310c209866d7e6cd409ad", "bike_id": "1a63c2c58d5310c209866d7e6cd409ad"}, {"is_disabled": 0, "is_reserved": 0, "type": "electric_scooter", "lon": -77.05459016666667, "fusion_lon": 0.0, "lat": 38.929002, "rental_uris": {"android": "https://dc.lft.to/lastmile_qr_scan", "ios": "https://dc.lft.to/lastmile_qr_scan"}, "fusion_lat": 0.0, "name": "ad3e42a700b20bb335f4ed02e59b3db5", "bike_id": "ad3e42a700b20bb335f4ed02e59b3db5"}, {"is_disabled": 0, "is_reserved": 0, "type": "electric_scooter", "lon": -77.02720333333333, "fusion_lon": 0.0, "lat": 38.916733666666666, "rental_uris": {"android": "https://dc.lft.to/lastmile_qr_scan", "ios": "https://dc.lft.to/lastmile_qr_scan"}, "fusion_lat": 0.0, "name": "df218506287695cdabb2627299f711f6", "bike_id": "df218506287695cdabb2627299f711f6"}, {"is_disabled": 0, "is_reserved": 0, "type": "electric_scooter", "lon": -77.03431633333334, "fusion_lon": 0.0, "lat": 38.93427766666667, "rental_uris": {"android": "https://dc.lft.to/lastmile_qr_scan", "ios": "https://dc.lft.to/lastmile_qr_scan"}, "fusion_lat": 0.0, "name": "f9e23401bd9932fd9dd8e92df846600f", "bike_id": "f9e23401bd9932fd9dd8e92df846600f"}, {"is_disabled": 0, "is_reserved": 0, "type": "electric_scooter", "lon": -76.9335685, "fusion_lon": 0.0, "lat": 38.8990015, "rental_uris": {"android": "https://dc.lft.to/lastmile_qr_scan", "ios": "https://dc.lft.to/lastmile_qr_scan"}, "fusion_lat": 0.0, "name": "11cfb44bb200cf2c3b85c31dfb1b6679", "bike_id": "11cfb44bb200cf2c3b85c31dfb1b6679"}, {"is_disabled": 0, "is_reserved": 0, "type": "electric_scooter", "lon": -76.95672666666667, "fusion_lon": 0.0, "lat": 38.88766366666667, "rental_uris": {"android": "https://dc.lft.to/lastmile_qr_scan", "ios": "https://dc.lft.to/lastmile_qr_scan"}, "fusion_lat": 0.0, "name": "39c10d1bb2bbf21af52aac70c48dd24f", "bike_id": "39c10d1bb2bbf21af52aac70c48dd24f"}, {"is_disabled": 0, "is_reserved": 0, "type": "electric_scooter", "lon": -77.04222283333333, "fusion_lon": 0.0, "lat": 38.916723166666664, "rental_uris": {"android": "https://dc.lft.to/lastmile_qr_scan", "ios": "https://dc.lft.to/lastmile_qr_scan"}, "fusion_lat": 0.0, "name": "215d845a84c336a449c66bc0195c7648", "bike_id": "215d845a84c336a449c66bc0195c7648"}, {"is_disabled": 0, "is_reserved": 0, "type": "electric_scooter", "lon": -76.976187, "fusion_lon": 0.0, "lat": 38.93142433333333, "rental_uris": {"android": "https://dc.lft.to/lastmile_qr_scan", "ios": "https://dc.lft.to/lastmile_qr_scan"}, "fusion_lat": 0.0, "name": "b2ac2df64601d92f4d34748c5fc5d3e5", "bike_id": "b2ac2df64601d92f4d34748c5fc5d3e5"}, {"is_disabled": 0, "is_reserved": 0, "type": "electric_bike", "lon": -76.932283, "fusion_lon": 0.0, "lat": 38.8659545, "rental_uris": {"android": "https://dc.lft.to/lastmile_qr_scan", "ios": "https://dc.lft.to/lastmile_qr_scan"}, "fusion_lat": 0.0, "name": "7d039b127289fdc666e9c808b3e7609b", "bike_id": "7d039b127289fdc666e9c808b3e7609b"}, {"is_disabled": 0, "is_reserved": 0, "type": "electric_bike", "lon": -77.12586116666667, "fusion_lon": 0.0, "lat": 38.85144066666667, "rental_uris": {"android": "https://dc.lft.to/lastmile_qr_scan", "ios": "https://dc.lft.to/lastmile_qr_scan"}, "fusion_lat": 0.0, "name": "d4e67929b93a3b4f6401399d6508a25f", "bike_id": "d4e67929b93a3b4f6401399d6508a25f"}, {"is_disabled": 0, "is_reserved": 0, "type": "electric_scooter", "lon": -77.018452, "fusion_lon": 0.0, "lat": 38.921998, "rental_uris": {"android": "https://dc.lft.to/lastmile_qr_scan", "ios": "https://dc.lft.to/lastmile_qr_scan"}, "fusion_lat": 0.0, "name": "6e0c69d898ca882737b9ff32c26643c7", "bike_id": "6e0c69d898ca882737b9ff32c26643c7"}, {"is_disabled": 0, "is_reserved": 0, "type": "electric_scooter", "lon": -77.036682, "fusion_lon": 0.0, "lat": 38.908386, "rental_uris": {"android": "https://dc.lft.to/lastmile_qr_scan", "ios": "https://dc.lft.to/lastmile_qr_scan"}, "fusion_lat": 0.0, "name": "0b4d12a3dd8e77f36be71bf430e7e8ba", "bike_id": "0b4d12a3dd8e77f36be71bf430e7e8ba"}, {"is_disabled": 0, "is_reserved": 0, "type": "electric_scooter", "lon": -77.04745083333333, "fusion_lon": 0.0, "lat": 38.90590516666666, "rental_uris": {"android": "https://dc.lft.to/lastmile_qr_scan", "ios": "https://dc.lft.to/lastmile_qr_scan"}, "fusion_lat": 0.0, "name": "c15de1f0110d571007b3b9181a4f34c0", "bike_id": "c15de1f0110d571007b3b9181a4f34c0"},