{"data": {"bikes": [{"rental_uris": {"android": "https://dc.lft.to/lastmile_qr_scan", "ios": "https://dc.lft.to/lastmile_qr_scan"}, "type": "electric_scooter", "lon": -77.052876, "name": "ec3525fc2981c4de4e3eadc498457c3b", "bike_id": "ec3525fc2981c4de4e3eadc498457c3b", "fusion_lat": 0.0, "is_reserved": 0, "lat": 38.910581, "fusion_lon": 0.0, "is_disabled": 0}, {"rental_uris": {"android": "https://dc.lft.to/lastmile_qr_scan", "ios": "https://dc.lft.to/lastmile_qr_scan"}, "type": "electric_scooter", "lon": -77.0217745, "name": "f2760bf53932be578c30ad8ce3ed1d16", "bike_id": "f2760bf53932be578c30ad8ce3ed1d16", "fusion_lat": 0.0, "is_reserved": 0, "lat": 38.94310383333333, "fusion_lon": 0.0, "is_disabled": 0}, {"rental_uris": {"android": "https://dc.lft.to/lastmile_qr_scan", "ios": "https://dc.lft.to/lastmile_qr_scan"}, "type": "electric_scooter", "lon": -76.99546566666666, "name": "e9eb7b9d7929b6a0eab5530075a48959", "bike_id": "e9eb7b9d7929b6a0eab5530075a48959", "fusion_lat": 0.0, "is_reserved": 0, "lat": 38.8842235, "fusion_lon": 0.0, "is_disabled": 0}, {"rental_uris": {"android": "https://dc.lft.to/lastmile_qr_scan", "ios": "https://dc.lft.to/lastmile_qr_scan"}, "type": "electric_scooter", "lon": -77.03456216666666, "name": "7e9f41c9ca7fa378a0473cb7ab445a69", "bike_id": "7e9f41c9ca7fa378a0473cb7ab445a69", "fusion_lat": 0.0, "is_reserved": 0, "lat": 38.914716166666665, "fusion_lon": 0.0, "is_disabled": 0}, {"rental_uris": {"android": "https://dc.lft.to/lastmile_qr_scan", "ios": "https://dc.lft.to/lastmile_qr_scan"}, "type": "electric_bike", "lon": -77.09522666666666, "name": "e7f19e48cd03c07f8362c8081a7802c6", "bike_id": "e7f19e48cd03c07f8362c8081a7802c6", "fusion_lat": 0.0, "is_reserved": 0, "lat": 38.838107, "fusion_lon": 0.0, "is_disabled": 0}, {"rental_uris": {"android": "https://dc.lft.to/lastmile_qr_scan", "ios": "https://dc.lft.to/lastmile_qr_scan"}, "type": "electric_scooter", "lon": -77.02425, "name": "b8eea7210d739968233c4d4e46edd389", "bike_id": "b8eea7210d739968233c4d4e46edd389", "fusion_lat": 0.0, "is_reserved": 0, "lat": 38.90389916666667, "fusion_lon": 0.0, "is_disabled": 0}, {"rental_uris": {"android": "https://dc.lft.to/lastmile_qr_scan", "ios": "https://dc.lft.to/lastmile_qr_scan"}, "type": "electric_scooter", "lon": -77.04207466666666, "name": "c7a113d6b5554809a7e5dddccf3bed05", "bike_id": "c7a113d6b5554809a7e5dddccf3bed05", "fusion_lat": 0.0, "is_reserved": 0, "lat": 38.921293, "fusion_lon": 0.0, "is_disabled": 0}, {"rental_uris": {"android": "https://dc.lft.to/lastmile_qr_scan", "ios": "https://dc.lft.to/lastmile_qr_scan"}, "type": "electric_scooter", "lon": -77.04582933333333, "name": "a7ddf00467c9999c65c619c8f5c05dd2", "bike_id": "a7ddf00467c9999c65c619c8f5c05dd2", "fusion_lat": 0.0, "is_reserved": 0, "lat": 38.921387, "fusion_lon": 0.0, "is_disabled": 0}, {"rental_uris": {"android": "https://dc.lft.to/lastmile_qr_scan", "ios": "https://dc.lft.to/lastmile_qr_scan"}, "type": "electric_bike", "lon": -77.36087833333333, "name": "4f8de019ca7df7d9debbb7b11f217aba", "bike_id": "4f8de019ca7df7d9debbb7b11f217aba", "fusion_lat": 0.0, "is_reserved": 0, "lat": 38.93963883333333, "fusion_lon": 0.0, "is_disabled": 0}, {"rental_uris": {"android": "https://dc.lft.to/lastmile_qr_scan", "ios": "https://dc.lft.to/lastmile_qr_scan"}, "type": "electric_scooter", "lon": -77.0217075, "name": "ade9a50e9ba2004e96145631abbd5bbb", "bike_id": "ade9a50e9ba2004e96145631abbd5bbb", "fusion_lat": 0.0, "is_reserved": 0, "lat": 38.942963666666664, "fusion_lon": 0.0, "is_disabled": 0}, {"rental_uris": {"android": "https://dc.lft.to/lastmile_qr_scan", "ios": "https://dc.lft.to/lastmile_qr_scan"}, "type": "electric_scooter", "lon": -77.04040566666667, "name": "fce99e0466b78cbe62144368a99a57c1", "bike_id": "fce99e0466b78cbe62144368a99a57c1", "fusion_lat": 0.0, "is_reserved": 0, "lat": 38.90016116666666, "fusion_lon": 0.0, "is_disabled": 0}, {"rental_uris": {"android": "https://dc.lft.to/lastmile_qr_scan", "ios": "https://dc.lft.to/lastmile_qr_scan"}, "type": "electric_scooter", "lon": -76.9901145, "name": "bc326bceb59e55d2560d040a003cca64", "bike_id": "bc326bceb59e55d2560d040a003cca64", "fusion_lat": 0.0, "is_reserved": 0, "lat": 38.88620933333333, "fusion_lon": 0.0, "is_disabled": 0}, {"rental_uris": {"android": "https://dc.lft.to/lastmile_qr_scan", "ios": "https://dc.lft.to/lastmile_qr_scan"}, "type": "electric_scooter", "lon": -77.01417466666666, "name": "8604816341cd8342585bb50dcc612008", "bike_id": "8604816341cd8342585bb50dcc612008", "fusion_lat": 0.0, "is_reserved": 0, "lat": 38.87895233333333, "fusion_lon": 0.0, "is_disabled": 0}, {"rental_uris": {"android": "https://dc.lft.to/lastmile_qr_scan", "ios": "https://dc.lft.to/lastmile_qr_scan"}, "type": "electric_scooter", "lon": -77.03578216666666, "name": "5a205a34316641966e2709ecfc8d7498", "bike_id": "5a205a34316641966e2709ecfc8d7498", "fusion_lat": 0.0, "is_reserved": 0, "lat": 38.934785833333336, "fusion_lon": 0.0, "is_disabled": 0}, {"rental_uris": {"android": "https://dc.lft.to/lastmile_qr_scan", "ios": "https://dc.lft.to/lastmile_qr_scan"}, "type": "electric_scooter", "lon": -77.02364433333334, "name": "b2c1fda2e0aaf23f8bae66125819b63e", "bike_id": "b2c1fda2e0aaf23f8bae66125819b63e", "fusion_lat": 0.0, "is_reserved": 0, "lat": 38.907266, "fusion_lon": 0.0, "is_disabled": 0}, {"rental_uris": {"android": "https://dc.lft.to/lastmile_qr_scan", "ios": "https://dc.lft.to/lastmile_qr_scan"}, "type": "electric_scooter", "lon": -77.03830583333334, "name": "f20190389196e0b096a86d4b7e590a2b", "bike_id": "f20190389196e0b096a86d4b7e590a2b", "fusion_lat": 0.0, "is_reserved": 0, "lat": 38.92174516666667, "fusion_lon": 0.0, "is_disabled": 0}, {"rental_uris": {"android": "https://dc.lft.to/lastmile_qr_scan", "ios": "https://dc.lft.to/lastmile_qr_scan"}, "type": "electric_scooter", "lon": -77.03291933333334, "name": "71692b88244dd452098a5cde63ff42f1", "bike_id": "71692b88244dd452098a5cde63ff42f1", "fusion_lat": 0.0, "is_reserved": 0, "lat": 38.92218033333333, "fusion_lon": 0.0, "is_disabled": 0}, {"rental_uris": {"android": "https://dc.lft.to/lastmile_qr_scan", "ios": "https://dc.lft.to/lastmile_qr_scan"}, "type": "electric_scooter", "lon": -77.0416225, "name": "b35b97558222ace2689ee82298bf4084", "bike_id": "b35b97558222ace2689ee82298bf4084", "fusion_lat": 0.0, "is_reserved": 0, "lat": 38.91613366666667, "fusion_lon": 0.0, "is_disabled": 0}, {"rental_uris": {"android": "https://dc.lft.to/lastmile_qr_scan", "ios": "https://dc.lft.to/lastmile_qr_scan"}, "type": "electric_scooter", "lon": -77.0211495, "name": "53e1968ee1bc418dc45d935ee8cc607f", "bike_id": "53e1968ee1bc418dc45d935ee8cc607f", "fusion_lat": 0.0, "is_reserved": 0, "lat": 38.917392, "fusion_lon": 0.0, "is_disabled": 0}, {"rental_uris": {"android": "https://dc.lft.to/lastmile_qr_scan", "ios": "https://dc.lft.to/lastmile_qr_scan"}, "type": "electric_scooter", "lon": -77.0346995, "name": "9850e6cd700b11af3bacb426c2a6291d", "bike_id": "9850e6cd700b11af3bacb426c2a6291d", "fusion_lat": 0.0, "is_reserved": 0, "lat": 38.9215835, "fusion_lon": 0.0, "is_disabled": 0}, {"rental_uris": {"android": "https://dc.lft.to/lastmile_qr_scan", "ios": "https://dc.lft.to/lastmile_qr_scan"}, "type": "electric_scooter", "lon": -77.0012175, "name": "b173b96270e6814a26dd21ff400777f3", "bike_id": "b173b96270e6814a26dd21ff400777f3", "fusion_lat": 0.0, "is_reserved": 0, "lat": 38.877957333333335, "fusion_lon": 0.0, "is_disabled": 0}, {"rental_uris": {"android": "https://dc.lft.to/lastmile_qr_scan", "ios": "https://dc.lft.to/lastmile_qr_scan"}, "type": "electric_scooter", "lon": -77.0344255, "name": "c345068295878a4211ac8e92d0890cce", "bike_id": "c345068295878a4211ac8e92d0890cce", "fusion_lat": 0.0, "is_reserved": 0, "lat": 38.93436483333333, "fusion_lon": 0.0, "is_disabled": 0}, {"rental_uris": {"android": "https://dc.lft.to/lastmile_qr_scan", "ios": "https://dc.lft.to/lastmile_qr_scan"}, "type": "electric_bike", "lon": -76.9816355, "name": "b5a2af54333fd49bf0531c89f8ffcc9f", "bike_id": "b5a2af54333fd49bf0531c89f8ffcc9f", "fusion_lat": 0.0, "is_reserved": 0, "lat": 38.884955, "fusion_lon": 0.0, "is_disabled": 0}, {"rental_uris": {"android": "https://dc.lft.to/lastmile_qr_scan", "ios": "https://dc.lft.to/lastmile_qr_scan"}, "type": "electric_scooter", "lon": -77.02977, "name": "869c4b689dc25f3784ec3d7677536530", "bike_id": "869c4b689dc25f3784ec3d7677536530", "fusion_lat": 0.0, "is_reserved": 0, "lat": 38.94066766666667, "fusion_lon": 0.0, "is_disabled": 0}, {"rental_uris": {"android": "https://dc.lft.to/lastmile_qr_scan", "ios": "https://dc.lft.to/lastmile_qr_scan"}, "type": "electric_scooter", "lon": -77.03784766666666, "name": "0ca6d62db61601eaf7502268e04ec3ee", "bike_id": "0ca6d62db61601eaf7502268e04ec3ee", "fusion_lat": 0.0, "is_reserved": 0, "lat": 38.90576133333333, "fusion_lon": 0.0, "is_disabled": 0}, {"rental_uris": {"android": "https://dc.lft.to/lastmile_qr_scan", "ios": "https://dc.lft.to/lastmile_qr_scan"}, "type": "electric_bike", "lon": -77.17800166666666, "name": "95fcabb3fd20a3ced1b5e2fc0fbec0b1", "bike_id": "95fcabb3fd20a3ced1b5e2fc0fbec0b1", "fusion_lat": 0.0, "is_reserved": 0, "lat": 39.0884255, "fusion_lon": 0.0, "is_disabled": 0}, {"rental_uris": {"android": "https://dc.lft.to/lastmile_qr_scan", "ios": "https://dc.lft.to/lastmile_qr_scan"}, "type": "electric_scooter", "lon": -77.020336, "name": "0d6c50f55685cd32e1dfc5a3df079ead", "bike_id": "0d6c50f55685cd32e1dfc5a3df079ead", "fusion_lat": 0.0, "is_reserved": 0, "lat": 38.892729333333335, "fusion_lon": 0.0, "is_disabled": 0}, {"rental_uris": {"android": "https://dc.lft.to/lastmile_qr_scan", "ios": "https://dc.lft.to/lastmile_qr_scan"}, "type": "electric_scooter", "lon": -76.97038316666666, "name": "16c33c609940621c79b6e74c2005e49f", "bike_id": "16c33c609940621c79b6e74c2005e49f", "fusion_lat": 0.0, "is_reserved": 0, "lat": 38.86787416666667, "fusion_lon": 0.0, "is_disabled": 0}, {"rental_uris": {"android": "https://dc.lft.to/lastmile_qr_scan", "ios": "https://dc.lft.to/lastmile_qr_scan"}, "type": "electric_scooter", "lon": -77.06540333333334, "name": "5473a9318319ec14f3d6d5c7e46a5ec6", "bike_id": "5473a9318319ec14f3d6d5c7e46a5ec6", "fusion_lat": 0.0, "is_reserved": 0, "lat": 38.9506865, "fusion_lon": 0.0, "is_disabled": 0}, {"rental_uris": {"android": "https://dc.lft.to/lastmile_qr_scan", "ios": "https://dc.lft.to/lastmile_qr_scan"}, "type": "electric_scooter", "lon": -77.04999166666667, "name": "f83d1413eeca0dbccd6c0d8f1006ebff", "bike_id": "f83d1413eeca0dbccd6c0d8f1006ebff", "fusion_lat": 0.0, "is_reserved": 0, "lat": 38.892339166666666, "fusion_lon": 0.0, "is_disabled": 0}, {"rental_uris": {"android": "https://dc.lft.to/lastmile_qr_scan", "ios": "https://dc.lft.to/lastmile_qr_scan"}, "type": "electric_scooter", "lon": -77.02366383333333, "name": "3640eab76f8633000cb8a0b1c08043bd", "bike_id": "3640eab76f8633000cb8a0b1c08043bd", "fusion_lat": 0.0, "is_reserved": 0, "lat": 38.90732766666667, "fusion_lon": 0.0, "is_disabled": 0}, {"rental_uris": {"android": "https://dc.lft.to/lastmile_qr_scan", "ios": "https://dc.lft.to/lastmile_qr_scan"}, "type": "electric_scooter", "lon": -77.0339595, "name": "727351daf7382e45de96b077b69f6360", "bike_id": "727351daf7382e45de96b077b69f6360", "fusion_lat": 0.0, "is_reserved": 0, "lat": 38.92344083333333, "fusion_lon": 0.0, "is_disabled": 0}, {"rental_uris": {"android": "https://dc.lft.to/lastmile_qr_scan", "ios": "https://dc.lft.to/lastmile_qr_scan"}, "type": "electric_scooter", "lon": -76.98696783333334, "name": "b26d1b2225297592777e05b6c630bc2c", "bike_id": "b26d1b2225297592777e05b6c630bc2c", "fusion_lat": 0.0, "is_reserved": 0, "lat": 38.90206283333333, "fusion_lon": 0.0, "is_disabled": 0}, {"rental_uris": {"android": "https://dc.lft.to/lastmile_qr_scan", "ios": "https://dc.lft.to/lastmile_qr_scan"}, "type": "electric_scooter", "lon": -77.0250295, "name": "3bbeb1a1124d86d8612a572e26fb0231", "bike_id": "3bbeb1a1124d86d8612a572e26fb0231", "fusion_lat": 0.0, "is_reserved": 0, "lat": 38.92099266666666, "fusion_lon": 0.0, "is_disabled": 0}, {"rental_uris": {"android": "https://dc.lft.to/lastmile_qr_scan", "ios": "https://dc.lft.to/lastmile_qr_scan"}, "type": "electric_scooter", "lon": -77.03836533333333, "name": "d15186a73efe08934c29503d1065eb8e", "bike_id": "d15186a73efe08934c29503d1065eb8e", "fusion_lat": 0.0, "is_reserved": 0, "lat": 38.912914666666666, "fusion_lon": 0.0, "is_disabled": 0}, {"rental_uris": {"android": "https://dc.lft.to/lastmile_qr_scan", "ios": "https://dc.lft.to/lastmile_qr_scan"}, "type": "electric_scooter", "lon": -76.98760616666667, "name": "75cf71183a88e19c61b0cba09ee47b01", "bike_id": "75cf71183a88e19c61b0cba09ee47b01", "fusion_lat": 0.0, "is_reserved": 0, "lat": 38.84456483333334, "fusion_lon": 0.0, "is_disabled": 0}, {"rental_uris": {"android": "https://dc.lft.to/lastmile_qr_scan", "ios": "https://dc.lft.to/lastmile_qr_scan"}, "type": "electric_bike", "lon": -77.02627183333334, "name": "cfc31cfdad0288a7f23c747ecec2546e", "bike_id": "cfc31cfdad0288a7f23c747ecec2546e", "fusion_lat": 0.0, "is_reserved": 0, "lat": 38.962252166666666, "fusion_lon": 0.0, "is_disabled": 0}, {"rental_uris": {"android": "https://dc.lft.to/lastmile_qr_scan", "ios": "https://dc.lft.to/lastmile_qr_scan"}, "type": "electric_bike", "lon": -77.08543116666667, "name": "6daa2592e5c99bbdd532d37a170f1fba", "bike_id": "6daa2592e5c99bbdd532d37a170f1fba", "fusion_lat": 0.0, "is_reserved": 0, "lat": 38.85622266666667, "fusion_lon": 0.0, "is_disabled": 0}, {"rental_uris": {"android": "https://dc.lft.to/lastmile_qr_scan", "ios": "https://dc.lft.to/lastmile_qr_scan"}, "type": "electric_scooter", "lon": -76.98878183333333, "name": "88adc9727a692f20d091f62de7ccb01d", "bike_id": "88adc9727a692f20d091f62de7ccb01d", "fusion_lat": 0.0, "is_reserved": 0, "lat": 38.866773, "fusion_lon": 0.0, "is_disabled": 0}, {"rental_uris": {"android": "https://dc.lft.to/lastmile_qr_scan", "ios": "https://dc.lft.to/lastmile_qr_scan"}, "type": "electric_scooter", "lon": -76.993973, "name": "05c7b0a33c92960f68a6e7e8f87880ed", "bike_id": "05c7b0a33c92960f68a6e7e8f87880ed", "fusion_lat": 0.0, "is_reserved": 0, "lat": 38.886028833333334, "fusion_lon": 0.0, "is_disabled": 0}, {"rental_uris": {"android": "https://dc.lft.to/lastmile_qr_scan", "ios": "https://dc.lft.to/lastmile_qr_scan"}, "type": "electric_scooter", "lon": -77.02417266666667, "name": "73114275dfef91f594c6562561213e48", "bike_id": "73114275dfef91f594c6562561213e48", "fusion_lat": 0.0, "is_reserved": 0, "lat": 38.892249666666665, "fusion_lon": 0.0, "is_disabled": 0}, {"rental_uris": {"android": "https://dc.lft.to/lastmile_qr_scan", "ios": "https://dc.lft.to/lastmile_qr_scan"}, "type": "electric_scooter", "lon": -77.01246916666666, "name": "44ad55c58852d6a5122c0e99e9bcba88", "bike_id": "44ad55c58852d6a5122c0e99e9bcba88", "fusion_lat": 0.0, "is_reserved": 0, "lat": 38.908707, "fusion_lon": 0.0, "is_disabled": 0}, {"rental_uris": {"android": "https://dc.lft.to/lastmile_qr_scan", "ios": "https://dc.lft.to/lastmile_qr_scan"}, "type": "electric_scooter", "lon": -77.01273766666667, "name": "833f1379d42b04d7fdcc5f8bfe8d27a8", "bike_id": "833f1379d42b04d7fdcc5f8bfe8d27a8", "fusion_lat": 0.0, "is_reserved": 0, "lat": 38.91564866666667, "fusion_lon": 0.0, "is_disabled": 0}, {"rental_uris": {"android": "https://dc.lft.to/lastmile_qr_scan", "ios": "https://dc.lft.to/lastmile_qr_scan"}, "type": "electric_scooter", "lon": -77.0133735, "name": "958b66d08dfbf5c00d73715c134fa15e", "bike_id": "958b66d08dfbf5c00d73715c134fa15e", "fusion_lat": 0.0, "is_reserved": 0, "lat": 38.919198333333334, "fusion_lon": 0.0, "is_disabled": 0}, {"rental_uris": {"android": "https://dc.lft.to/lastmile_qr_scan", "ios": "https://dc.lft.to/lastmile_qr_scan"}, "type": "electric_scooter", "lon": -76.9651735, "name": "1db9293bcd3526d16d4480aeac5757ec", "bike_id": "1db9293bcd3526d16d4480aeac5757ec", "fusion_lat": 0.0, "is_reserved": 0, "lat": 38.87482, "fusion_lon": 0.0, "is_disabled": 0}, {"rental_uris": {"android": "https://dc.lft.to/lastmile_qr_scan", "ios": "https://dc.lft.to/lastmile_qr_scan"}, "type": "electric_scooter", "lon": -76.97476, "name": "0ac6fb7deb41d58d32f0865294297eba", "bike_id": "0ac6fb7deb41d58d32f0865294297eba", "fusion_lat": 0.0, "is_reserved": 0, "lat": 38.903536333333335, "fusion_lon": 0.0, "is_disabled": 0}, {"rental_uris": {"android": "https://dc.lft.to/lastmile_qr_scan", "ios": "https://dc.lft.to/lastmile_qr_scan"}, "type": "electric_scooter", "lon": -77.0270245, "name": "d21a3de9fb9caa86ca016018d75b5709", "bike_id": "d21a3de9fb9caa86ca016018d75b5709", "fusion_lat": 0.0, "is_reserved": 0, "lat": 38.95005483333333, "fusion_lon": 0.0, "is_disabled": 0}, {"rental_uris": {"android": "https://dc.lft.to/lastmile_qr_scan", "ios": "https://dc.lft.to/lastmile_qr_scan"}, "type": "electric_scooter", "lon": -77.02324633333333, "name": "7d958aaa079c190ff8922ea99c2b2dfa", "bike_id": "7d958aaa079c190ff8922ea99c2b2dfa", "fusion_lat": 0.0, "is_reserved": 0, "lat": 38.916887, "fusion_lon": 0.0, "is_disabled": 0}, {"rental_uris": {"android": "https://dc.lft.to/lastmile_qr_scan", "ios": "https://dc.lft.to/lastmile_qr_scan"}, "type": "electric_scooter", "lon": -77.07295616666667, "name": "7b928880dfcca18c64c7a115bfb733f0", "bike_id": "7b928880dfcca18c64c7a115bfb733f0", "fusion_lat": 0.0, "is_reserved": 0, "lat": 38.93063683333333, "fusion_lon": 0.0, "is_disabled": 0}, {"rental_uris": {"android": "https://dc.lft.to/lastmile_qr_scan", "ios": "https://dc.lft.to/lastmile_qr_scan"}, "type": "electric_scooter", "lon": -77.0339855, "name": "d57ca5302e73eb177dc771b13d0e131e", "bike_id": "d57ca5302e73eb177dc771b13d0e131e", "fusion_lat": 0.0, "is_reserved": 0, "lat": 38.919245333333336, "fusion_lon": 0.0, "is_disabled": 0}, {"rental_uris": {"android": "https://dc.lft.to/lastmile_qr_scan", "ios": "https://dc.lft.to/lastmile_qr_scan"}, "type": "electric_scooter", "lon": -77.0390765, "name": "042381be2f071cf6e5514ed20aab852f", "bike_id": "042381be2f071cf6e5514ed20aab852f", "fusion_lat": 0.0, "is_reserved": 0, "lat": 38.91419883333333, "fusion_lon": 0.0, "is_disabled": 0}, {"rental_uris": {"android": "https://dc.lft.to/lastmile_qr_scan", "ios": "https://dc.lft.to/lastmile_qr_scan"}, "type": "electric_scooter", "lon": -77.06759983333333, "name": "8a8c959e6102b5fdb6db5336294fbfa5", "bike_id": "8a8c959e6102b5fdb6db5336294fbfa5", "fusion_lat": 0.0, "is_reserved": 0, "lat": 38.9036895, "fusion_lon": 0.0, "is_disabled": 0}, {"rental_uris": {"android": "https://dc.lft.to/lastmile_qr_scan", "ios": "https://dc.lft.to/lastmile_qr_scan"}, "type": "electric_scooter", "lon": -77.03044833333334, "name": "cbcb660c49a7c1e10c957562a01fb0f8", "bike_id": "cbcb660c49a7c1e10c957562a01fb0f8", "fusion_lat": 0.0, "is_reserved": 0, "lat": 38.88398433333333, "fusion_lon": 0.0, "is_disabled": 0}, {"rental_uris": {"android": "https://dc.lft.to/lastmile_qr_scan", "ios": "https://dc.lft.to/lastmile_qr_scan"}, "type": "electric_scooter", "lon": -76.99383516666667, "name": "699327b51ac1ff7c2d0feed5ca55610e", "bike_id": "699327b51ac1ff7c2d0feed5ca55610e", "fusion_lat": 0.0, "is_reserved": 0, "lat": 38.887095333333335, "fusion_lon": 0.0, "is_disabled": 0}, {"rental_uris": {"android": "https://dc.lft.to/lastmile_qr_scan", "ios": "https://dc.lft.to/lastmile_qr_scan"}, "type": "electric_scooter", "lon": -77.00593616666667, "name": "40e7b072281cdeeac15582e989d6ea21", "bike_id": "40e7b072281cdeeac15582e989d6ea21", "fusion_lat": 0.0, "is_reserved": 0, "lat": 38.90824666666666, "fusion_lon": 0.0, "is_disabled": 0}, {"rental_uris": {"android": "https://dc.lft.to/lastmile_qr_scan", "ios": "https://dc.lft.to/lastmile_qr_scan"}, "type": "electric_scooter", "lon": -77.04859216666667, "name": "cfd3b5973bc4a020698aa88444095b92", "bike_id": "cfd3b5973bc4a020698aa88444095b92", "fusion_lat": 0.0, "is_reserved": 0, "lat": 38.9008455, "fusion_lon": 0.0, "is_disabled": 0}, {"rental_uris": {"android": "https://dc.lft.to/lastmile_qr_scan", "ios": "https://dc.lft.to/lastmile_qr_scan"}, "type": "electric_scooter", "lon": -77.060959, "name": "af3d25210e66452673652878100c71a6", "bike_id": "af3d25210e66452673652878100c71a6", "fusion_lat": 0.0, "is_reserved": 0, "lat": 38.94375, "fusion_lon": 0.0, "is_disabled": 0}, {"rental_uris": {"android": "https://dc.lft.to/lastmile_qr_scan", "ios": "https://dc.lft.to/lastmile_qr_scan"}, "type": "electric_scooter", "lon": -77.03674333333333, "name": "3f8c984ea2618fd4a04b0f9a606bb683", "bike_id": "3f8c984ea2618fd4a04b0f9a606bb683", "fusion_lat": 0.0, "is_reserved": 0, "lat": 38.90270616666667, "fusion_lon": 0.0, "is_disabled": 0}, {"rental_uris": {"android": "https://dc.lft.to/lastmile_qr_scan", "ios": "https://dc.lft.to/lastmile_qr_scan"}, "type": "electric_scooter", "lon": -77.02026566666666, "name": "7912e6648f1e2ee7d0e3941bb9c1f937", "bike_id": "7912e6648f1e2ee7d0e3941bb9c1f937", "fusion_lat": 0.0, "is_reserved": 0, "lat": 38.92451033333333, "fusion_lon": 0.0, "is_disabled": 0}, {"rental_uris": {"android": "https://dc.lft.to/lastmile_qr_scan", "ios": "https://dc.lft.to/lastmile_qr_scan"}, "type": "electric_scooter", "lon": -76.99068783333334, "name": "295c074f80b84f81aea3a833120b3043", "bike_id": "295c074f80b84f81aea3a833120b3043", "fusion_lat": 0.0, "is_reserved": 0, "lat": 38.929428, "fusion_lon": 0.0, "is_disabled": 0}, {"rental_uris": {"android": "https://dc.lft.to/lastmile_qr_scan", "ios": "https://dc.lft.to/lastmile_qr_scan"}, "type": "electric_scooter", "lon": -77.04018366666666, "name": "41eff58c950eca96dc86a4633103e4af", "bike_id": "41eff58c950eca96dc86a4633103e4af", "fusion_lat": 0.0, "is_reserved": 0, "lat": 38.924616, "fusion_lon": 0.0, "is_disabled": 0}, {"rental_uris": {"android": "https://dc.lft.to/lastmile_qr_scan", "ios": "https://dc.lft.to/lastmile_qr_scan"}, "type": "electric_scooter", "lon": -77.047737, "name": "4f16fa3e13e30819b1ef8beca99e1f9d", "bike_id": "4f16fa3e13e30819b1ef8beca99e1f9d", "fusion_lat": 0.0, "is_reserved": 0, "lat": 38.917586166666666, "fusion_lon": 0.0, "is_disabled": 0}, {"rental_uris": {"android": "https://dc.lft.to/lastmile_qr_scan", "ios": "https://dc.lft.to/lastmile_qr_scan"}, "type": "electric_scooter", "lon": -77.04153066666667, "name": "b5155785886b2a765bda99b2ae1736ba", "bike_id": "b5155785886b2a765bda99b2ae1736ba", "fusion_lat": 0.0, "is_reserved": 0, "lat": 38.919573166666666, "fusion_lon": 0.0, "is_disabled": 0}, {"rental_uris": {"android": "https://dc.lft.to/lastmile_qr_scan", "ios": "https://dc.lft.to/lastmile_qr_scan"}, "type": "electric_scooter", "lon": -76.99729933333333, "name": "a95b941318219e647edfc9888c46e727", "bike_id": "a95b941318219e647edfc9888c46e727", "fusion_lat": 0.0, "is_reserved": 0, "lat": 38.8990535, "fusion_lon": 0.0, "is_disabled": 0}, {"rental_uris": {"android": "https://dc.lft.to/lastmile_qr_scan", "ios": "https://dc.lft.to/lastmile_qr_scan"}, "type": "electric_scooter", "lon": -76.99029016666667, "name": "6daff2580f2c49ee46bce503a45dc6f8", "bike_id": "6daff2580f2c49ee46bce503a45dc6f8", "fusion_lat": 0.0, "is_reserved": 0, "lat": 38.864055666666665, "fusion_lon": 0.0, "is_disabled": 0}, {"rental_uris": {"android": "https://dc.lft.to/lastmile_qr_scan", "ios": "https://dc.lft.to/lastmile_qr_scan"}, "type": "electric_scooter", "lon": -77.04569233333334, "name": "9dd7483df2f780277ef7a2066922016f", "bike_id": "9dd7483df2f780277ef7a2066922016f", "fusion_lat": 0.0, "is_reserved": 0, "lat": 38.921261333333334, "fusion_lon": 0.0, "is_disabled": 0}, {"rental_uris": {"android": "https://dc.lft.to/lastmile_qr_scan", "ios": "https://dc.lft.to/lastmile_qr_scan"}, "type": "electric_scooter", "lon": -77.00108283333333, "name": "a37e099ed3c203cb57e4dca2ce9f1984", "bike_id": "a37e099ed3c203cb57e4dca2ce9f1984", "fusion_lat": 0.0, "is_reserved": 0, "lat": 38.91636533333333, "fusion_lon": 0.0, "is_disabled": 0}, {"rental_uris": {"android": "https://dc.lft.to/lastmile_qr_scan", "ios": "https://dc.lft.to/lastmile_qr_scan"}, "type": "electric_scooter", "lon": -76.9485075, "name": "4799ba9cb2a8b79e5184797a8e1db55f", "bike_id": "4799ba9cb2a8b79e5184797a8e1db55f", "fusion_lat": 0.0, "is_reserved": 0, "lat": 38.88301083333333, "fusion_lon": 0.0, "is_disabled": 0}, {"rental_uris": {"android": "https://dc.lft.to/lastmile_qr_scan", "ios": "https://dc.lft.to/lastmile_qr_scan"}, "type": "electric_scooter", "lon": -77.05884666666667, "name": "61780f56f6aa396d112a87863cdb41c6", "bike_id": "61780f56f6aa396d112a87863cdb41c6", "fusion_lat": 0.0, "is_reserved": 0, "lat": 38.936374666666666, "fusion_lon": 0.0, "is_disabled": 0}, {"rental_uris": {"android": "https://dc.lft.to/lastmile_qr_scan", "ios": "https://dc.lft.to/lastmile_qr_scan"}, "type": "electric_scooter", "lon": -76.98920966666667, "name": "d2cb9dead075cff8d1b3b12d771effbf", "bike_id": "d2cb9dead075cff8d1b3b12d771effbf", "fusion_lat": 0.0, "is_reserved": 0, "lat": 38.9022125, "fusion_lon": 0.0, "is_disabled": 0}, {"rental_uris": {"android": "https://dc.lft.to/lastmile_qr_scan", "ios": "https://dc.lft.to/lastmile_qr_scan"}, "type": "electric_scooter", "lon": -76.98605466666666, "name": "bdf6de065d359d90bd424e9cf24c0ac1", "bike_id": "bdf6de065d359d90bd424e9cf24c0ac1", "fusion_lat": 0.0, "is_reserved": 0, "lat": 38.85443133333333, "fusion_lon": 0.0, "is_disabled": 0}, {"rental_uris": {"android": "https://dc.lft.to/lastmile_qr_scan", "ios": "https://dc.lft.to/lastmile_qr_scan"}, "type": "electric_bike", "lon": -76.993897, "name": "a943fe897048e1b3c39075b2d6ecdd34", "bike_id": "a943fe897048e1b3c39075b2d6ecdd34", "fusion_lat": 0.0, "is_reserved": 0, "lat": 38.92275716666666, "fusion_lon": 0.0, "is_disabled": 0}, {"rental_uris": {"android": "https://dc.lft.to/lastmile_qr_scan", "ios": "https://dc.lft.to/lastmile_qr_scan"}, "type": "electric_scooter", "lon": -77.031471, "name": "a079858c07c0d02c9d8ec997f77dd078", "bike_id": "a079858c07c0d02c9d8ec997f77dd078", "fusion_lat": 0.0, "is_reserved": 0, "lat": 38.88749216666667, "fusion_lon": 0.0, "is_disabled": 0}, {"rental_uris": {"android": "https://dc.lft.to/lastmile_qr_scan", "ios": "https://dc.lft.to/lastmile_qr_scan"}, "type": "electric_scooter", "lon": -77.03502833333333, "name": "7ef206ab4f6322a2d8ccfacba58d59ab", "bike_id": "7ef206ab4f6322a2d8ccfacba58d59ab", "fusion_lat": 0.0, "is_reserved": 0, "lat": 38.92635533333333, "fusion_lon": 0.0, "is_disabled": 0}, {"rental_uris": {"android": "https://dc.lft.to/lastmile_qr_scan", "ios": "https://dc.lft.to/lastmile_qr_scan"}, "type": "electric_scooter", "lon": -77.03429366666667, "name": "94b4ff7b046049981f4518b0b419f241", "bike_id": "94b4ff7b046049981f4518b0b419f241", "fusion_lat": 0.0, "is_reserved": 0, "lat": 38.902752666666665, "fusion_lon": 0.0, "is_disabled": 0}, {"rental_uris": {"android": "https://dc.lft.to/lastmile_qr_scan", "ios": "https://dc.lft.to/lastmile_qr_scan"}, "type": "electric_scooter", "lon": -77.05522566666667, "name": "52c10f96db9bc61fbeefe70396b3bd5f", "bike_id": "52c10f96db9bc61fbeefe70396b3bd5f", "fusion_lat": 0.0, "is_reserved": 0, "lat": 38.94413983333333, "fusion_lon": 0.0, "is_disabled": 0}, {"rental_uris": {"android": "https://dc.lft.to/lastmile_qr_scan", "ios": "https://dc.lft.to/lastmile_qr_scan"}, "type": "electric_scooter", "lon": -76.94843033333333, "name": "6ad1bc150615485fdf6b55239cd1e67a", "bike_id": "6ad1bc150615485fdf6b55239cd1e67a", "fusion_lat": 0.0, "is_reserved": 0, "lat": 38.894863666666666, "fusion_lon": 0.0, "is_disabled": 0}, {"rental_uris": {"android": "https://dc.lft.to/lastmile_qr_scan", "ios": "https://dc.lft.to/lastmile_qr_scan"}, "type": "electric_scooter", "lon": -77.03004533333333, "name": "a72a1c42a87c3b4195a895f88aee697a", "bike_id": "a72a1c42a87c3b4195a895f88aee697a", "fusion_lat": 0.0, "is_reserved": 0, "lat": 38.931169, "fusion_lon": 0.0, "is_disabled": 0}, {"rental_uris": {"android": "https://dc.lft.to/lastmile_qr_scan", "ios": "https://dc.lft.to/lastmile_qr_scan"}, "type": "electric_scooter", "lon": -77.02406733333333, "name": "37735a2227974a3972d7208b340e455c", "bike_id": "37735a2227974a3972d7208b340e455c", "fusion_lat": 0.0, "is_reserved": 0, "lat": 38.893792833333336, "fusion_lon": 0.0, "is_disabled": 0}, {"rental_uris": {"android": "https://dc.lft.to/lastmile_qr_scan", "ios": "https://dc.lft.to/lastmile_qr_scan"}, "type": "electric_scooter", "lon": -77.0087395, "name": "dbfdb65761c3f1a852bc759223a8fba4", "bike_id": "dbfdb65761c3f1a852bc759223a8fba4", "fusion_lat": 0.0, "is_reserved": 0, "lat": 38.9058385, "fusion_lon": 0.0, "is_disabled": 0}, {"rental_uris": {"android": "https://dc.lft.to/lastmile_qr_scan", "ios": "https://dc.lft.to/lastmile_qr_scan"}, "type": "electric_scooter", "lon": -77.0216985, "name": "c09b9469f4ce7e4b159e449a424ebfb1", "bike_id": "c09b9469f4ce7e4b159e449a424ebfb1", "fusion_lat": 0.0, "is_reserved": 0, "lat": 38.887455333333335, "fusion_lon": 0.0, "is_disabled": 0}, {"rental_uris": {"android": "https://dc.lft.to/lastmile_qr_scan", "ios": "https://dc.lft.to/lastmile_qr_scan"}, "type": "electric_scooter", "lon": -77.01961633333333, "name": "28301e1e460eab852412d06f6008b1ec", "bike_id": "28301e1e460eab852412d06f6008b1ec", "fusion_lat": 0.0, "is_reserved": 0, "lat": 38.935803, "fusion_lon": 0.0, "is_disabled": 0}, {"rental_uris": {"android": "https://dc.lft.to/lastmile_qr_scan", "ios": "https://dc.lft.to/lastmile_qr_scan"}, "type": "electric_scooter", "lon": -77.0465315, "name": "4b4d7898b488c5b340ddb01502a455a4", "bike_id": "4b4d7898b488c5b340ddb01502a455a4", "fusion_lat": 0.0, "is_reserved": 0, "lat": 38.905089, "fusion_lon": 0.0, "is_disabled": 0}, {"rental_uris": {"android": "https://dc.lft.to/lastmile_qr_scan", "ios": "https://dc.lft.to/lastmile_qr_scan"}, "type": "electric_scooter", "lon": -77.03280933333333, "name": "47667ddee55870ac14ab50558dc4f34c", "bike_id": "47667ddee55870ac14ab50558dc4f34c", "fusion_lat": 0.0, "is_reserved": 0, "lat": 38.93258433333333, "fusion_lon": 0.0, "is_disabled": 0}, {"rental_uris": {"android": "https://dc.lft.to/lastmile_qr_scan", "ios": "https://dc.lft.to/lastmile_qr_scan"}, "type": "electric_bike", "lon": -76.97326733333334, "name": "17ab3f2684605731ef0f3ea3ce209fd4", "bike_id": "17ab3f2684605731ef0f3ea3ce209fd4", "fusion_lat": 0.0, "is_reserved": 0, "lat": 38.85066583333333, "fusion_lon": 0.0, "is_disabled": 0}, {"rental_uris": {"android": "https://dc.lft.to/lastmile_qr_scan", "ios": "https://dc.lft.to/lastmile_qr_scan"}, "type": "electric_scooter", "lon": -77.02519883333333, "name": "70f0b3cd570528122af6fb01ff435674", "bike_id": "70f0b3cd570528122af6fb01ff435674", "fusion_lat": 0.0, "is_reserved": 0, "lat": 38.91950416666667, "fusion_lon": 0.0, "is_disabled": 0}, {"rental_uris": {"android": "https://dc.lft.to/lastmile_qr_scan", "ios": "https://dc.lft.to/lastmile_qr_scan"}, "type": "electric_scooter", "lon": -77.0400185, "name": "92657d5a273b8510b4193098e31921b0", "bike_id": "92657d5a273b8510b4193098e31921b0", "fusion_lat": 0.0, "is_reserved": 0, "lat": 38.91810183333333, "fusion_lon": 0.0, "is_disabled": 0}, {"rental_uris": {"android": "https://dc.lft.to/lastmile_qr_scan", "ios": "https://dc.lft.to/lastmile_qr_scan"}, "type": "electric_scooter", "lon": -76.9772565, "name": "66fb67596bfe053e121bc266c4d5ced9", "bike_id": "66fb67596bfe053e121bc266c4d5ced9", "fusion_lat": 0.0, "is_reserved": 0, "lat": 38.872459166666665, "fusion_lon": 0.0, "is_disabled": 0}, {"rental_uris": {"android": "https://dc.lft.to/lastmile_qr_scan", "ios": "https://dc.lft.to/lastmile_qr_scan"}, "type": "electric_scooter", "lon": -77.03320833333333, "name": "dcfb12ff369c24f3b5c1994b2561a0ee", "bike_id": "dcfb12ff369c24f3b5c1994b2561a0ee", "fusion_lat": 0.0, "is_reserved": 0, "lat": 38.9035905, "fusion_lon": 0.0, "is_disabled": 0}, {"rental_uris": {"android": "https://dc.lft.to/lastmile_qr_scan", "ios": "https://dc.lft.to/lastmile_qr_scan"}, "type": "electric_scooter", "lon": -77.02499983333334, "name": "eee806b501d9d96d35b147e6f394e9de", "bike_id": "eee806b501d9d96d35b147e6f394e9de", "fusion_lat": 0.0, "is_reserved": 0, "lat": 38.942007, "fusion_lon": 0.0, "is_disabled": 0}, {"rental_uris": {"android": "https://dc.lft.to/lastmile_qr_scan", "ios": "https://dc.lft.to/lastmile_qr_scan"}, "type": "electric_scooter", "lon": -77.034395, "name": "93c6ed49772e619d12b42f87a8186d1e", "bike_id": "93c6ed49772e619d12b42f87a8186d1e", "fusion_lat": 0.0, "is_reserved": 0, "lat": 38.92872, "fusion_lon": 0.0, "is_disabled": 0}, {"rental_uris": {"android": "https://dc.lft.to/lastmile_qr_scan", "ios": "https://dc.lft.to/lastmile_qr_scan"}, "type": "electric_scooter", "lon": -77.07991, "name": "7d6b87b27ce4b675d2383ce7952bf866", "bike_id": "7d6b87b27ce4b675d2383ce7952bf866", "fusion_lat": 0.0, "is_reserved": 0, "lat": 38.923691, "fusion_lon": 0.0, "is_disabled": 0}, {"rental_uris": {"android": "https://dc.lft.to/lastmile_qr_scan", "ios": "https://dc.lft.to/lastmile_qr_scan"}, "type": "electric_scooter", "lon": -77.04022883333333, "name": "92b6067ecb7c8731009c457fc5074299", "bike_id": "92b6067ecb7c8731009c457fc5074299", "fusion_lat": 0.0, "is_reserved": 0, "lat": 38.92461733333333, "fusion_lon": 0.0, "is_disabled": 0}, {"rental_uris": {"android": "https://dc.lft.to/lastmile_qr_scan", "ios": "https://dc.lft.to/lastmile_qr_scan"}, "type": "electric_scooter", "lon": -77.03949766666666, "name": "92b3622a9db27ecb92e4c97e87715a01", "bike_id": "92b3622a9db27ecb92e4c97e87715a01", "fusion_lat": 0.0, "is_reserved": 0, "lat": 38.90612133333333, "fusion_lon": 0.0, "is_disabled": 0}, {"rental_uris": {"android": "https://dc.lft.to/lastmile_qr_scan", "ios": "https://dc.lft.to/lastmile_qr_scan"}, "type": "electric_scooter", "lon": -77.04845266666666, "name": "971951c790180c46bf3ac318c9f3d9ad", "bike_id": "971951c790180c46bf3ac318c9f3d9ad", "fusion_lat": 0.0, "is_reserved": 0, "lat": 38.88837133333333, "fusion_lon": 0.0, "is_disabled": 0}, {"rental_uris": {"android": "https://dc.lft.to/lastmile_qr_scan", "ios": "https://dc.lft.to/lastmile_qr_scan"}, "type": "electric_scooter", "lon": -77.02421083333333, "name": "e701e5b4095e5beedd630ac5665483b2", "bike_id": "e701e5b4095e5beedd630ac5665483b2", "fusion_lat": 0.0, "is_reserved": 0, "lat": 38.909621666666666, "fusion_lon": 0.0, "is_disabled": 0}, {"rental_uris": {"android": "https://dc.lft.to/lastmile_qr_scan", "ios": "https://dc.lft.to/lastmile_qr_scan"}, "type": "electric_scooter", "lon": -77.03462766666667, "name": "751e8f51ea690373ec8c3ec5ff7cb9d7", "bike_id": "751e8f51ea690373ec8c3ec5ff7cb9d7", "fusion_lat": 0.0, "is_reserved": 0, "lat": 38.90305016666667, "fusion_lon": 0.0, "is_disabled": 0}, {"rental_uris": {"android": "https://dc.lft.to/lastmile_qr_scan", "ios": "https://dc.lft.to/lastmile_qr_scan"}, "type": "electric_scooter", "lon": -77.0455775, "name": "c8afb3491e67884fe225fc7221478f14", "bike_id": "c8afb3491e67884fe225fc7221478f14", "fusion_lat": 0.0, "is_reserved": 0, "lat": 38.91942783333333, "fusion_lon": 0.0, "is_disabled": 0}, {"rental_uris": {"android": "https://dc.lft.to/lastmile_qr_scan", "ios": "https://dc.lft.to/lastmile_qr_scan"}, "type": "electric_scooter", "lon": -77.02341, "name": "fb14277647521ee37e76a38eff98bce2", "bike_id": "fb14277647521ee37e76a38eff98bce2", "fusion_lat": 0.0, "is_reserved": 0, "lat": 38.96210216666667, "fusion_lon": 0.0, "is_disabled": 0}, {"rental_uris": {"android": "https://dc.lft.to/lastmile_qr_scan", "ios": "https://dc.lft.to/lastmile_qr_scan"}, "type": "electric_scooter", "lon": -76.99483833333333, "name": "2494966003ed4915e2bd3afd40062af2", "bike_id": "2494966003ed4915e2bd3afd40062af2", "fusion_lat": 0.0, "is_reserved": 0, "lat": 38.87734283333333, "fusion_lon": 0.0, "is_disabled": 0}, {"rental_uris": {"android": "https://dc.lft.to/lastmile_qr_scan", "ios": "https://dc.lft.to/lastmile_qr_scan"}, "type": "electric_scooter", "lon": -76.98985933333333, "name": "47cd68137c8aa8defe7ae67b55d8e86b", "bike_id": "47cd68137c8aa8defe7ae67b55d8e86b", "fusion_lat": 0.0, "is_reserved": 0, "lat": 38.864453166666664, "fusion_lon": 0.0, "is_disabled": 0}, {"rental_uris": {"android": "https://dc.lft.to/lastmile_qr_scan", "ios": "https://dc.lft.to/lastmile_qr_scan"}, "type": "electric_scooter", "lon": -76.9463185, "name": "a76f637d8f917c9ee46755038dbd45e2", "bike_id": "a76f637d8f917c9ee46755038dbd45e2", "fusion_lat": 0.0, "is_reserved": 0, "lat": 38.898426666666666, "fusion_lon": 0.0, "is_disabled": 0}, {"rental_uris": {"android": "https://dc.lft.to/lastmile_qr_scan", "ios": "https://dc.lft.to/lastmile_qr_scan"}, "type": "electric_scooter", "lon": -77.023534, "name": "31e5734a76f20f83d51439d2081a6164", "bike_id": "31e5734a76f20f83d51439d2081a6164", "fusion_lat": 0.0, "is_reserved": 0, "lat": 38.892222833333335, "fusion_lon": 0.0, "is_disabled": 0}, {"rental_uris": {"android": "https://dc.lft.to/lastmile_qr_scan", "ios": "https://dc.lft.to/lastmile_qr_scan"}, "type": "electric_bike", "lon": -77.10996666666666, "name": "45c246657d20c5c83eb4166d0f7f079c", "bike_id": "45c246657d20c5c83eb4166d0f7f079c", "fusion_lat": 0.0, "is_reserved": 0, "lat": 38.870534666666664, "fusion_lon": 0.0, "is_disabled": 0}, {"rental_uris": {"android": "https://dc.lft.to/lastmile_qr_scan", "ios": "https://dc.lft.to/lastmile_qr_scan"}, "type": "electric_scooter", "lon": -77.02172666666667, "name": "3b2997c610af1c0b8dbed87e9fcba8ae", "bike_id": "3b2997c610af1c0b8dbed87e9fcba8ae", "fusion_lat": 0.0, "is_reserved": 0, "lat": 38.8848535, "fusion_lon": 0.0, "is_disabled": 0}, {"rental_uris": {"android": "https://dc.lft.to/lastmile_qr_scan", "ios": "https://dc.lft.to/lastmile_qr_scan"}, "type": "electric_scooter", "lon": -77.0417255, "name": "73bc046777b0cd3796d093dee1f5ed9a", "bike_id": "73bc046777b0cd3796d093dee1f5ed9a", "fusion_lat": 0.0, "is_reserved": 0, "lat": 38.913440666666666, "fusion_lon": 0.0, "is_disabled": 0}, {"rental_uris": {"android": "https://dc.lft.to/lastmile_qr_scan", "ios": "https://dc.lft.to/lastmile_qr_scan"}, "type": "electric_scooter", "lon": -77.0368635, "name": "0de38232b8c3dcaac68f95cf5cdc1e31", "bike_id": "0de38232b8c3dcaac68f95cf5cdc1e31", "fusion_lat": 0.0, "is_reserved": 0, "lat": 38.936627333333334, "fusion_lon": 0.0, "is_disabled": 0}, {"rental_uris": {"android": "https://dc.lft.to/lastmile_qr_scan", "ios": "https://dc.lft.to/lastmile_qr_scan"}, "type": "electric_scooter", "lon": -77.01928933333333, "name": "292d57d2f2f4172dd6d4a3382fea6b5a", "bike_id": "292d57d2f2f4172dd6d4a3382fea6b5a", "fusion_lat": 0.0, "is_reserved": 0, "lat": 38.93573216666667, "fusion_lon": 0.0, "is_disabled": 0}, {"rental_uris": {"android": "https://dc.lft.to/lastmile_qr_scan", "ios": "https://dc.lft.to/lastmile_qr_scan"}, "type": "electric_scooter", "lon": -77.02514683333334, "name": "08e99dbb9fef78912027e1454943a814", "bike_id": "08e99dbb9fef78912027e1454943a814", "fusion_lat": 0.0, "is_reserved": 0, "lat": 38.90165866666667, "fusion_lon": 0.0, "is_disabled": 0}, {"rental_uris": {"android": "https://dc.lft.to/lastmile_qr_scan", "ios": "https://dc.lft.to/lastmile_qr_scan"}, "type": "electric_scooter", "lon": -77.00548166666667, "name": "13fca8eec70e0c62ae199215f79e0609", "bike_id": "13fca8eec70e0c62ae199215f79e0609", "fusion_lat": 0.0, "is_reserved": 0, "lat": 38.87852983333333, "fusion_lon": 0.0, "is_disabled": 0}, {"rental_uris": {"android": "https://dc.lft.to/lastmile_qr_scan", "ios": "https://dc.lft.to/lastmile_qr_scan"}, "type": "electric_scooter", "lon": -76.96431233333334, "name": "4807ffa30fe06272e629874b889d8af1", "bike_id": "4807ffa30fe06272e629874b889d8af1", "fusion_lat": 0.0, "is_reserved": 0, "lat": 38.934504, "fusion_lon": 0.0, "is_disabled": 0}, {"rental_uris": {"android": "https://dc.lft.to/lastmile_qr_scan", "ios": "https://dc.lft.to/lastmile_qr_scan"}, "type": "electric_scooter", "lon": -77.03438566666667, "name": "d839eaa6e33985338020c385e3e6540d", "bike_id": "d839eaa6e33985338020c385e3e6540d", "fusion_lat": 0.0, "is_reserved": 0, "lat": 38.9180525, "fusion_lon": 0.0, "is_disabled": 0}, {"rental_uris": {"android": "https://dc.lft.to/lastmile_qr_scan", "ios": "https://dc.lft.to/lastmile_qr_scan"}, "type": "electric_scooter", "lon": -77.02700616666667, "name": "16c98d66b623f2cd61901eac636b6901", "bike_id": "16c98d66b623f2cd61901eac636b6901", "fusion_lat": 0.0, "is_reserved": 0, "lat": 38.918236666666665, "fusion_lon": 0.0, "is_disabled": 0}, {"rental_uris": {"android": "https://dc.lft.to/lastmile_qr_scan", "ios": "https://dc.lft.to/lastmile_qr_scan"}, "type": "electric_scooter", "lon": -77.04472816666667, "name": "66b639746acb7a1f649a783d25612bb1", "bike_id": "66b639746acb7a1f649a783d25612bb1", "fusion_lat": 0.0, "is_reserved": 0, "lat": 38.918757, "fusion_lon": 0.0, "is_disabled": 0}, {"rental_uris": {"android": "https://dc.lft.to/lastmile_qr_scan", "ios": "https://dc.lft.to/lastmile_qr_scan"}, "type": "electric_bike", "lon": -77.02416283333334, "name": "f2e66079a59b32a42cb58ef26be16c64", "bike_id": "f2e66079a59b32a42cb58ef26be16c64", "fusion_lat": 0.0, "is_reserved": 0, "lat": 38.949077, "fusion_lon": 0.0, "is_disabled": 0}, {"rental_uris": {"android": "https://dc.lft.to/lastmile_qr_scan", "ios": "https://dc.lft.to/lastmile_qr_scan"}, "type": "electric_scooter", "lon": -77.01349883333333, "name": "66412082ce26087e37ab3ea7b4e8b8e8", "bike_id": "66412082ce26087e37ab3ea7b4e8b8e8", "fusion_lat": 0.0, "is_reserved": 0, "lat": 38.90388166666666, "fusion_lon": 0.0, "is_disabled": 0}, {"rental_uris": {"android": "https://dc.lft.to/lastmile_qr_scan", "ios": "https://dc.lft.to/lastmile_qr_scan"}, "type": "electric_scooter", "lon": -77.04332733333334, "name": "ef9856a5e8039d1826ad22e9ff297c9d", "bike_id": "ef9856a5e8039d1826ad22e9ff297c9d", "fusion_lat": 0.0, "is_reserved": 0, "lat": 38.913776166666665, "fusion_lon": 0.0, "is_disabled": 0}, {"rental_uris": {"android": "https://dc.lft.to/lastmile_qr_scan", "ios": "https://dc.lft.to/lastmile_qr_scan"}, "type": "electric_scooter", "lon": -77.03864, "name": "eb263dc84dbf4b98836f167e5928678e", "bike_id": "eb263dc84dbf4b98836f167e5928678e", "fusion_lat": 0.0, "is_reserved": 0, "lat": 38.912005, "fusion_lon": 0.0, "is_disabled": 0}, {"rental_uris": {"android": "https://dc.lft.to/lastmile_qr_scan", "ios": "https://dc.lft.to/lastmile_qr_scan"}, "type": "electric_scooter", "lon": -77.0525845, "name": "351b3d578eb3d2d952a6094effa35caa", "bike_id": "351b3d578eb3d2d952a6094effa35caa", "fusion_lat": 0.0, "is_reserved": 0, "lat": 38.9276745, "fusion_lon": 0.0, "is_disabled": 0}, {"rental_uris": {"android": "https://dc.lft.to/lastmile_qr_scan", "ios": "https://dc.lft.to/lastmile_qr_scan"}, "type": "electric_scooter", "lon": -76.9901045, "name": "38620f44fed60e2d8dfa672cd7baa045", "bike_id": "38620f44fed60e2d8dfa672cd7baa045", "fusion_lat": 0.0, "is_reserved": 0, "lat": 38.9114105, "fusion_lon": 0.0, "is_disabled": 0}, {"rental_uris": {"android": "https://dc.lft.to/lastmile_qr_scan", "ios": "https://dc.lft.to/lastmile_qr_scan"}, "type": "electric_scooter", "lon": -77.01037666666667, "name": "6a7a39b90002d5867acb236c59505e24", "bike_id": "6a7a39b90002d5867acb236c59505e24", "fusion_lat": 0.0, "is_reserved": 0, "lat": 38.88449716666667, "fusion_lon": 0.0, "is_disabled": 0}, {"rental_uris": {"android": "https://dc.lft.to/lastmile_qr_scan", "ios": "https://dc.lft.to/lastmile_qr_scan"}, "type": "electric_scooter", "lon": -77.0386515, "name": "e2e239bc588f2b080b8ccbf3593c440c", "bike_id": "e2e239bc588f2b080b8ccbf3593c440c", "fusion_lat": 0.0, "is_reserved": 0, "lat": 38.917164166666666, "fusion_lon": 0.0, "is_disabled": 0}, {"rental_uris": {"android": "https://dc.lft.to/lastmile_qr_scan", "ios": "https://dc.lft.to/lastmile_qr_scan"}, "type": "electric_scooter", "lon": -77.02561833333333, "name": "1c3cf3bfe9464d7948b5b4badae71f78", "bike_id": "1c3cf3bfe9464d7948b5b4badae71f78", "fusion_lat": 0.0, "is_reserved": 0, "lat": 38.92576966666667, "fusion_lon": 0.0, "is_disabled": 0}, {"rental_uris": {"android": "https://dc.lft.to/lastmile_qr_scan", "ios": "https://dc.lft.to/lastmile_qr_scan"}, "type": "electric_bike", "lon": -76.9112655, "name": "472343fc628159418e7b4c3639437042", "bike_id": "472343fc628159418e7b4c3639437042", "fusion_lat": 0.0, "is_reserved": 0, "lat": 39.01042133333333, "fusion_lon": 0.0, "is_disabled": 0}, {"rental_uris": {"android": "https://dc.lft.to/lastmile_qr_scan", "ios": "https://dc.lft.to/lastmile_qr_scan"}, "type": "electric_scooter", "lon": -76.97908233333334, "name": "de64b2ea0d77e20d9f553741d48a49c6", "bike_id": "de64b2ea0d77e20d9f553741d48a49c6", "fusion_lat": 0.0, "is_reserved": 0, "lat": 38.9038755, "fusion_lon": 0.0, "is_disabled": 0}, {"rental_uris": {"android": "https://dc.lft.to/lastmile_qr_scan", "ios": "https://dc.lft.to/lastmile_qr_scan"}, "type": "electric_scooter", "lon": -76.98593966666667, "name": "2fc87c3c71f34b540a01ab618d01f9f1", "bike_id": "2fc87c3c71f34b540a01ab618d01f9f1", "fusion_lat": 0.0, "is_reserved": 0, "lat": 38.889718333333334, "fusion_lon": 0.0, "is_disabled": 0}, {"rental_uris": {"android": "https://dc.lft.to/lastmile_qr_scan", "ios": "https://dc.lft.to/lastmile_qr_scan"}, "type": "electric_scooter", "lon": -76.94144166666666, "name": "0f469904b7ba6304c4ef2a94f4d7eb79", "bike_id": "0f469904b7ba6304c4ef2a94f4d7eb79", "fusion_lat": 0.0, "is_reserved": 0, "lat": 38.89120116666667, "fusion_lon": 0.0, "is_disabled": 0}, {"rental_uris": {"android": "https://dc.lft.to/lastmile_qr_scan", "ios": "https://dc.lft.to/lastmile_qr_scan"}, "type": "electric_scooter", "lon": -77.03185716666667, "name": "b8864e182178bc6b7dadacdd5300df0b", "bike_id": "b8864e182178bc6b7dadacdd5300df0b", "fusion_lat": 0.0, "is_reserved": 0, "lat": 38.9189685, "fusion_lon": 0.0, "is_disabled": 0}, {"rental_uris": {"android": "https://dc.lft.to/lastmile_qr_scan", "ios": "https://dc.lft.to/lastmile_qr_scan"}, "type": "electric_scooter", "lon": -77.04025766666666, "name": "858a3d2bdd7767af35085ce7e2cb8f60", "bike_id": "858a3d2bdd7767af35085ce7e2cb8f60", "fusion_lat": 0.0, "is_reserved": 0, "lat": 38.92454383333333, "fusion_lon": 0.0, "is_disabled": 0}, {"rental_uris": {"android": "https://dc.lft.to/lastmile_qr_scan", "ios": "https://dc.lft.to/lastmile_qr_scan"}, "type": "electric_scooter", "lon": -77.03877583333333, "name": "2499a89cbb2a5d63c8d2b0e94ea50601", "bike_id": "2499a89cbb2a5d63c8d2b0e94ea50601", "fusion_lat": 0.0, "is_reserved": 0, "lat": 38.934299333333335, "fusion_lon": 0.0, "is_disabled": 0}, {"rental_uris": {"android": "https://dc.lft.to/lastmile_qr_scan", "ios": "https://dc.lft.to/lastmile_qr_scan"}, "type": "electric_bike", "lon": -77.1072185, "name": "ea4d668f111d1e380d9734ac708c09e4", "bike_id": "ea4d668f111d1e380d9734ac708c09e4", "fusion_lat": 0.0, "is_reserved": 0, "lat": 38.855516, "fusion_lon": 0.0, "is_disabled": 0}, {"rental_uris": {"android": "https://dc.lft.to/lastmile_qr_scan", "ios": "https://dc.lft.to/lastmile_qr_scan"}, "type": "electric_scooter", "lon": -77.0500745, "name": "9ceda57e6848f02cfb6765083500d8ed", "bike_id": "9ceda57e6848f02cfb6765083500d8ed", "fusion_lat": 0.0, "is_reserved": 0, "lat": 38.907684, "fusion_lon": 0.0, "is_disabled": 0}, {"rental_uris": {"android": "https://dc.lft.to/lastmile_qr_scan", "ios": "https://dc.lft.to/lastmile_qr_scan"}, "type": "electric_bike", "lon": -77.05103933333334, "name": "376eb79369b3018835ea5b4510a37e48", "bike_id": "376eb79369b3018835ea5b4510a37e48", "fusion_lat": 0.0, "is_reserved": 0, "lat": 38.945618333333336, "fusion_lon": 0.0, "is_disabled": 0}, {"rental_uris": {"android": "https://dc.lft.to/lastmile_qr_scan", "ios": "https://dc.lft.to/lastmile_qr_scan"}, "type": "electric_scooter", "lon": -77.02972533333333, "name": "128f894a5bdcd39ca369e6ca89b4cc17", "bike_id": "128f894a5bdcd39ca369e6ca89b4cc17", "fusion_lat": 0.0, "is_reserved": 0, "lat": 38.906635666666666, "fusion_lon": 0.0, "is_disabled": 0}, {"rental_uris": {"android": "https://dc.lft.to/lastmile_qr_scan", "ios": "https://dc.lft.to/lastmile_qr_scan"}, "type": "electric_scooter", "lon": -77.02404116666666, "name": "b20fab6115b01394c0f0f195d689eb2a", "bike_id": "b20fab6115b01394c0f0f195d689eb2a", "fusion_lat": 0.0, "is_reserved": 0, "lat": 38.95732433333333, "fusion_lon": 0.0, "is_disabled": 0}, {"rental_uris": {"android": "https://dc.lft.to/lastmile_qr_scan", "ios": "https://dc.lft.to/lastmile_qr_scan"}, "type": "electric_scooter", "lon": -77.01606033333333, "name": "408b3630926a31c041506bc747261dbf", "bike_id": "408b3630926a31c041506bc747261dbf", "fusion_lat": 0.0, "is_reserved": 0, "lat": 38.91759883333334, "fusion_lon": 0.0, "is_disabled": 0}, {"rental_uris": {"android": "https://dc.lft.to/lastmile_qr_scan", "ios": "https://dc.lft.to/lastmile_qr_scan"}, "type": "electric_scooter", "lon": -77.03123916666667, "name": "f631aa6b0612089769594ccba41d80ef", "bike_id": "f631aa6b0612089769594ccba41d80ef", "fusion_lat": 0.0, "is_reserved": 0, "lat": 38.92377916666667, "fusion_lon": 0.0, "is_disabled": 0}, {"rental_uris": {"android": "https://dc.lft.to/lastmile_qr_scan", "ios": "https://dc.lft.to/lastmile_qr_scan"}, "type": "electric_scooter", "lon": -76.999444, "name": "a6295fdc5f5bae3fb67245f5ec7cd4d8", "bike_id": "a6295fdc5f5bae3fb67245f5ec7cd4d8", "fusion_lat": 0.0, "is_reserved": 0, "lat": 38.84295316666667, "fusion_lon": 0.0, "is_disabled": 0}, {"rental_uris": {"android": "https://dc.lft.to/lastmile_qr_scan", "ios": "https://dc.lft.to/lastmile_qr_scan"}, "type": "electric_bike", "lon": -77.0779525, "name": "5132902e54d2f41e479005e44a4d5e30", "bike_id": "5132902e54d2f41e479005e44a4d5e30", "fusion_lat": 0.0, "is_reserved": 0, "lat": 38.845171, "fusion_lon": 0.0, "is_disabled": 0}, {"rental_uris": {"android": "https://dc.lft.to/lastmile_qr_scan", "ios": "https://dc.lft.to/lastmile_qr_scan"}, "type": "electric_scooter", "lon": -76.98757566666667, "name": "bd2d5350d794f146f080788bef829d0c", "bike_id": "bd2d5350d794f146f080788bef829d0c", "fusion_lat": 0.0, "is_reserved": 0, "lat": 38.90803616666667, "fusion_lon": 0.0, "is_disabled": 0}, {"rental_uris": {"android": "https://dc.lft.to/lastmile_qr_scan", "ios": "https://dc.lft.to/lastmile_qr_scan"}, "type": "electric_scooter", "lon": -76.98328316666667, "name": "b79d5a1addfc273a4cb398ad366407e3", "bike_id": "b79d5a1addfc273a4cb398ad366407e3", "fusion_lat": 0.0, "is_reserved": 0, "lat": 38.862566666666666, "fusion_lon": 0.0, "is_disabled": 0}, {"rental_uris": {"android": "https://dc.lft.to/lastmile_qr_scan", "ios": "https://dc.lft.to/lastmile_qr_scan"}, "type": "electric_scooter", "lon": -77.008105, "name": "f0105c58604735b0ee1527f912018ba6", "bike_id": "f0105c58604735b0ee1527f912018ba6", "fusion_lat": 0.0, "is_reserved": 0, "lat": 38.87649716666667, "fusion_lon": 0.0, "is_disabled": 0}, {"rental_uris": {"android": "https://dc.lft.to/lastmile_qr_scan", "ios": "https://dc.lft.to/lastmile_qr_scan"}, "type": "electric_scooter", "lon": -77.04317733333333, "name": "f2e0df63d75e5392b999bb333237bf01", "bike_id": "f2e0df63d75e5392b999bb333237bf01", "fusion_lat": 0.0, "is_reserved": 0, "lat": 38.90320416666667, "fusion_lon": 0.0, "is_disabled": 0}, {"rental_uris": {"android": "https://dc.lft.to/lastmile_qr_scan", "ios": "https://dc.lft.to/lastmile_qr_scan"}, "type": "electric_scooter", "lon": -77.01821233333334, "name": "9d572633b181ecbec2f70418fadfda7b", "bike_id": "9d572633b181ecbec2f70418fadfda7b", "fusion_lat": 0.0, "is_reserved": 0, "lat": 38.90810333333334, "fusion_lon": 0.0, "is_disabled": 0}, {"rental_uris": {"android": "https://dc.lft.to/lastmile_qr_scan", "ios": "https://dc.lft.to/lastmile_qr_scan"}, "type": "electric_bike", "lon": -77.01209133333333, "name": "9c96be59d467cac7770ad787ba24dfc5", "bike_id": "9c96be59d467cac7770ad787ba24dfc5", "fusion_lat": 0.0, "is_reserved": 0, "lat": 38.87085033333334, "fusion_lon": 0.0, "is_disabled": 0}, {"rental_uris": {"android": "https://dc.lft.to/lastmile_qr_scan", "ios": "https://dc.lft.to/lastmile_qr_scan"}, "type": "electric_scooter", "lon": -76.96502266666667, "name": "17b0416f4b48b27b4e8a2ec83b408769", "bike_id": "17b0416f4b48b27b4e8a2ec83b408769", "fusion_lat": 0.0, "is_reserved": 0, "lat": 38.876498, "fusion_lon": 0.0, "is_disabled": 0}, {"rental_uris": {"android": "https://dc.lft.to/lastmile_qr_scan", "ios": "https://dc.lft.to/lastmile_qr_scan"}, "type": "electric_scooter", "lon": -76.995837, "name": "1243c08c4d9f57d8d0b2f44a9f46e0a1", "bike_id": "1243c08c4d9f57d8d0b2f44a9f46e0a1", "fusion_lat": 0.0, "is_reserved": 0, "lat": 38.92069933333333, "fusion_lon": 0.0, "is_disabled": 0}, {"rental_uris": {"android": "https://dc.lft.to/lastmile_qr_scan", "ios": "https://dc.lft.to/lastmile_qr_scan"}, "type": "electric_scooter", "lon": -77.03501816666666, "name": "6ff150886fe53441a76e577d78464df7", "bike_id": "6ff150886fe53441a76e577d78464df7", "fusion_lat": 0.0, "is_reserved": 0, "lat": 38.918716833333335, "fusion_lon": 0.0, "is_disabled": 0}, {"rental_uris": {"android": "https://dc.lft.to/lastmile_qr_scan", "ios": "https://dc.lft.to/lastmile_qr_scan"}, "type": "electric_scooter", "lon": -77.043869, "name": "9cac3fff499f4ae9db5ba2e0d5c76dd6", "bike_id": "9cac3fff499f4ae9db5ba2e0d5c76dd6", "fusion_lat": 0.0, "is_reserved": 0, "lat": 38.922796166666664, "fusion_lon": 0.0, "is_disabled": 0}, {"rental_uris": {"android": "https://dc.lft.to/lastmile_qr_scan", "ios": "https://dc.lft.to/lastmile_qr_scan"}, "type": "electric_scooter", "lon": -77.0434045, "name": "54670ae0d071a325c517240f85a05811", "bike_id": "54670ae0d071a325c517240f85a05811", "fusion_lat": 0.0, "is_reserved": 0, "lat": 38.904039, "fusion_lon": 0.0, "is_disabled": 0}, {"rental_uris": {"android": "https://dc.lft.to/lastmile_qr_scan", "ios": "https://dc.lft.to/lastmile_qr_scan"}, "type": "electric_scooter", "lon": -76.98306066666666, "name": "c1135330859bb0429148c4bb174b69e4", "bike_id": "c1135330859bb0429148c4bb174b69e4", "fusion_lat": 0.0, "is_reserved": 0, "lat": 38.86891583333333, "fusion_lon": 0.0, "is_disabled": 0}, {"rental_uris": {"android": "https://dc.lft.to/lastmile_qr_scan", "ios": "https://dc.lft.to/lastmile_qr_scan"}, "type": "electric_scooter", "lon": -77.041221, "name": "21052cbdbc2430a9640429d15d95b0ee", "bike_id": "21052cbdbc2430a9640429d15d95b0ee", "fusion_lat": 0.0, "is_reserved": 0, "lat": 38.906337, "fusion_lon": 0.0, "is_disabled": 0}, {"rental_uris": {"android": "https://dc.lft.to/lastmile_qr_scan", "ios": "https://dc.lft.to/lastmile_qr_scan"}, "type": "electric_bike", "lon": -77.10909316666667, "name": "eea86bd588148c5566173925005ccdd6", "bike_id": "eea86bd588148c5566173925005ccdd6", "fusion_lat": 0.0, "is_reserved": 0, "lat": 39.05207016666667, "fusion_lon": 0.0, "is_disabled": 0}, {"rental_uris": {"android": "https://dc.lft.to/lastmile_qr_scan", "ios": "https://dc.lft.to/lastmile_qr_scan"}, "type": "electric_scooter", "lon": -76.990306, "name": "a8661ddd6d3b28661d0e3fec99486475", "bike_id": "a8661ddd6d3b28661d0e3fec99486475", "fusion_lat": 0.0, "is_reserved": 0, "lat": 38.8586945, "fusion_lon": 0.0, "is_disabled": 0}, {"rental_uris": {"android": "https://dc.lft.to/lastmile_qr_scan", "ios": "https://dc.lft.to/lastmile_qr_scan"}, "type": "electric_scooter", "lon": -77.048954, "name": "34297e981e0f572a3a0db0f988754cfa", "bike_id": "34297e981e0f572a3a0db0f988754cfa", "fusion_lat": 0.0, "is_reserved": 0, "lat": 38.8925545, "fusion_lon": 0.0, "is_disabled": 0}, {"rental_uris": {"android": "https://dc.lft.to/lastmile_qr_scan", "ios": "https://dc.lft.to/lastmile_qr_scan"}, "type": "electric_scooter", "lon": -77.02370783333333, "name": "2934e3298f1443923a8d0ce34fd92ac2", "bike_id": "2934e3298f1443923a8d0ce34fd92ac2", "fusion_lat": 0.0, "is_reserved": 0, "lat": 38.892214333333335, "fusion_lon": 0.0, "is_disabled": 0}, {"rental_uris": {"android": "https://dc.lft.to/lastmile_qr_scan", "ios": "https://dc.lft.to/lastmile_qr_scan"}, "type": "electric_scooter", "lon": -77.02409833333333, "name": "adeadcfb4797727a36cf25474d8bdb00", "bike_id": "adeadcfb4797727a36cf25474d8bdb00", "fusion_lat": 0.0, "is_reserved": 0, "lat": 38.88372666666667, "fusion_lon": 0.0, "is_disabled": 0}, {"rental_uris": {"android": "https://dc.lft.to/lastmile_qr_scan", "ios": "https://dc.lft.to/lastmile_qr_scan"}, "type": "electric_bike", "lon": -76.9687765, "name": "86e0f76b90a367ae1e627367caa9df5e", "bike_id": "86e0f76b90a367ae1e627367caa9df5e", "fusion_lat": 0.0, "is_reserved": 0, "lat": 38.846074333333334, "fusion_lon": 0.0, "is_disabled": 0}, {"rental_uris": {"android": "https://dc.lft.to/lastmile_qr_scan", "ios": "https://dc.lft.to/lastmile_qr_scan"}, "type": "electric_scooter", "lon": -77.04171733333334, "name": "d00ddc091ffdfc4400eed5a7470c1e24", "bike_id": "d00ddc091ffdfc4400eed5a7470c1e24", "fusion_lat": 0.0, "is_reserved": 0, "lat": 38.915882333333336, "fusion_lon": 0.0, "is_disabled": 0}, {"rental_uris": {"android": "https://dc.lft.to/lastmile_qr_scan", "ios": "https://dc.lft.to/lastmile_qr_scan"}, "type": "electric_scooter", "lon": -76.99450383333334, "name": "e148d5839655e01c82d8f8eb910f0f8a", "bike_id": "e148d5839655e01c82d8f8eb910f0f8a", "fusion_lat": 0.0, "is_reserved": 0, "lat": 38.87659216666667, "fusion_lon": 0.0, "is_disabled": 0}, {"rental_uris": {"android": "https://dc.lft.to/lastmile_qr_scan", "ios": "https://dc.lft.to/lastmile_qr_scan"}, "type": "electric_bike", "lon": -77.12741966666667, "name": "41b931798572af91104ac9626248bdf4", "bike_id": "41b931798572af91104ac9626248bdf4", "fusion_lat": 0.0, "is_reserved": 0, "lat": 38.888240333333336, "fusion_lon": 0.0, "is_disabled": 0}, {"rental_uris": {"android": "https://dc.lft.to/lastmile_qr_scan", "ios": "https://dc.lft.to/lastmile_qr_scan"}, "type": "electric_scooter", "lon": -77.06582916666666, "name": "dfb58e0868f65c810b0dd1deedffbe82", "bike_id": "dfb58e0868f65c810b0dd1deedffbe82", "fusion_lat": 0.0, "is_reserved": 0, "lat": 38.91367066666667, "fusion_lon": 0.0, "is_disabled": 0}, {"rental_uris": {"android": "https://dc.lft.to/lastmile_qr_scan", "ios": "https://dc.lft.to/lastmile_qr_scan"}, "type": "electric_scooter", "lon": -77.02404266666667, "name": "454144eab921cba6ca3678c42d8b95fb", "bike_id": "454144eab921cba6ca3678c42d8b95fb", "fusion_lat": 0.0, "is_reserved": 0, "lat": 38.916850833333335, "fusion_lon": 0.0, "is_disabled": 0}, {"rental_uris": {"android": "https://dc.lft.to/lastmile_qr_scan", "ios": "https://dc.lft.to/lastmile_qr_scan"}, "type": "electric_scooter", "lon": -77.01702083333333, "name": "bfba5ab32e546bb622ac2b5f23eb4326", "bike_id": "bfba5ab32e546bb622ac2b5f23eb4326", "fusion_lat": 0.0, "is_reserved": 0, "lat": 38.900539333333334, "fusion_lon": 0.0, "is_disabled": 0}, {"rental_uris": {"android": "https://dc.lft.to/lastmile_qr_scan", "ios": "https://dc.lft.to/lastmile_qr_scan"}, "type": "electric_scooter", "lon": -77.03661666666666, "name": "cfa62833dc9e1dd79a9c8d42c820b53a", "bike_id": "cfa62833dc9e1dd79a9c8d42c820b53a", "fusion_lat": 0.0, "is_reserved": 0, "lat": 38.91726083333333, "fusion_lon": 0.0, "is_disabled": 0}, {"rental_uris": {"android": "https://dc.lft.to/lastmile_qr_scan", "ios": "https://dc.lft.to/lastmile_qr_scan"}, "type": "electric_scooter", "lon": -76.98772183333334, "name": "116d3f7285e1fcd78775892c712ac858", "bike_id": "116d3f7285e1fcd78775892c712ac858", "fusion_lat": 0.0, "is_reserved": 0, "lat": 38.911766166666666, "fusion_lon": 0.0, "is_disabled": 0}, {"rental_uris": {"android": "https://dc.lft.to/lastmile_qr_scan", "ios": "https://dc.lft.to/lastmile_qr_scan"}, "type": "electric_scooter", "lon": -77.03855166666666, "name": "ee85136ba99b842cc55f26f99f910d83", "bike_id": "ee85136ba99b842cc55f26f99f910d83", "fusion_lat": 0.0, "is_reserved": 0, "lat": 38.91286933333333, "fusion_lon": 0.0, "is_disabled": 0}, {"rental_uris": {"android": "https://dc.lft.to/lastmile_qr_scan", "ios": "https://dc.lft.to/lastmile_qr_scan"}, "type": "electric_scooter", "lon": -77.02395516666667, "name": "ab5aa6e1843807656d5188cf62075562", "bike_id": "ab5aa6e1843807656d5188cf62075562", "fusion_lat": 0.0, "is_reserved": 0, "lat": 38.887378166666664, "fusion_lon": 0.0, "is_disabled": 0}, {"rental_uris": {"android": "https://dc.lft.to/lastmile_qr_scan", "ios": "https://dc.lft.to/lastmile_qr_scan"}, "type": "electric_scooter", "lon": -76.931583, "name": "c70e2f2125692250d1851a406ca56601", "bike_id": "c70e2f2125692250d1851a406ca56601", "fusion_lat": 0.0, "is_reserved": 0, "lat": 38.898782, "fusion_lon": 0.0, "is_disabled": 0}, {"rental_uris": {"android": "https://dc.lft.to/lastmile_qr_scan", "ios": "https://dc.lft.to/lastmile_qr_scan"}, "type": "electric_scooter", "lon": -77.061587, "name": "8fc3c08d80119552ebdcbdf6028d7e3a", "bike_id": "8fc3c08d80119552ebdcbdf6028d7e3a", "fusion_lat": 0.0, "is_reserved": 0, "lat": 38.9422315, "fusion_lon": 0.0, "is_disabled": 0}, {"rental_uris": {"android": "https://dc.lft.to/lastmile_qr_scan", "ios": "https://dc.lft.to/lastmile_qr_scan"}, "type": "electric_scooter", "lon": -76.9412125, "name": "eef051fe97c5b0bfb41e46dbcf937b1a", "bike_id": "eef051fe97c5b0bfb41e46dbcf937b1a", "fusion_lat": 0.0, "is_reserved": 0, "lat": 38.90795766666667, "fusion_lon": 0.0, "is_disabled": 0}, {"rental_uris": {"android": "https://dc.lft.to/lastmile_qr_scan", "ios": "https://dc.lft.to/lastmile_qr_scan"}, "type": "electric_scooter", "lon": -76.98688383333334, "name": "3cf46969284a9bc62f78b9be21c6fa3f", "bike_id": "3cf46969284a9bc62f78b9be21c6fa3f", "fusion_lat": 0.0, "is_reserved": 0, "lat": 38.855721833333334, "fusion_lon": 0.0, "is_disabled": 0}, {"rental_uris": {"android": "https://dc.lft.to/lastmile_qr_scan", "ios": "https://dc.lft.to/lastmile_qr_scan"}, "type": "electric_scooter", "lon": -77.04364116666666, "name": "7819e69975cccd50c847121a9692176a", "bike_id": "7819e69975cccd50c847121a9692176a", "fusion_lat": 0.0, "is_reserved": 0, "lat": 38.92145583333333, "fusion_lon": 0.0, "is_disabled": 0}, {"rental_uris": {"android": "https://dc.lft.to/lastmile_qr_scan", "ios": "https://dc.lft.to/lastmile_qr_scan"}, "type": "electric_scooter", "lon": -77.03997866666667, "name": "a3725cdf570e593bc22e4233d22b97a8", "bike_id": "a3725cdf570e593bc22e4233d22b97a8", "fusion_lat": 0.0, "is_reserved": 0, "lat": 38.9141895, "fusion_lon": 0.0, "is_disabled": 0}, {"rental_uris": {"android": "https://dc.lft.to/lastmile_qr_scan", "ios": "https://dc.lft.to/lastmile_qr_scan"}, "type": "electric_scooter", "lon": -77.0215135, "name": "d0a5139ec4912a9a38ea8e21aea067f3", "bike_id": "d0a5139ec4912a9a38ea8e21aea067f3", "fusion_lat": 0.0, "is_reserved": 0, "lat": 38.87938283333333, "fusion_lon": 0.0, "is_disabled": 0}, {"rental_uris": {"android": "https://dc.lft.to/lastmile_qr_scan", "ios": "https://dc.lft.to/lastmile_qr_scan"}, "type": "electric_scooter", "lon": -76.9909465, "name": "afab56fb2491177f3254471e7d532f68", "bike_id": "afab56fb2491177f3254471e7d532f68", "fusion_lat": 0.0, "is_reserved": 0, "lat": 38.86357266666667, "fusion_lon": 0.0, "is_disabled": 0}, {"rental_uris": {"android": "https://dc.lft.to/lastmile_qr_scan", "ios": "https://dc.lft.to/lastmile_qr_scan"}, "type": "electric_scooter", "lon": -77.02301933333334, "name": "c5849c748beaa94e387d846c88703c00", "bike_id": "c5849c748beaa94e387d846c88703c00", "fusion_lat": 0.0, "is_reserved": 0, "lat": 38.916065833333334, "fusion_lon": 0.0, "is_disabled": 0}, {"rental_uris": {"android": "https://dc.lft.to/lastmile_qr_scan", "ios": "https://dc.lft.to/lastmile_qr_scan"}, "type": "electric_scooter", "lon": -77.0169015, "name": "30a6ab21320188f6109f4ec205fb464d", "bike_id": "30a6ab21320188f6109f4ec205fb464d", "fusion_lat": 0.0, "is_reserved": 0, "lat": 38.91105, "fusion_lon": 0.0, "is_disabled": 0}, {"rental_uris": {"android": "https://dc.lft.to/lastmile_qr_scan", "ios": "https://dc.lft.to/lastmile_qr_scan"}, "type": "electric_scooter", "lon": -77.01007983333334, "name": "13e1c5f36a883ef916c56bfd061a16d1", "bike_id": "13e1c5f36a883ef916c56bfd061a16d1", "fusion_lat": 0.0, "is_reserved": 0, "lat": 38.906696833333335, "fusion_lon": 0.0, "is_disabled": 0}, {"rental_uris": {"android": "https://dc.lft.to/lastmile_qr_scan", "ios": "https://dc.lft.to/lastmile_qr_scan"}, "type": "electric_bike", "lon": -76.95204983333333, "name": "7d6ca90a36df27c99660578a6ccc0aaa", "bike_id": "7d6ca90a36df27c99660578a6ccc0aaa", "fusion_lat": 0.0, "is_reserved": 0, "lat": 38.936721666666664, "fusion_lon": 0.0, "is_disabled": 0}, {"rental_uris": {"android": "https://dc.lft.to/lastmile_qr_scan", "ios": "https://dc.lft.to/lastmile_qr_scan"}, "type": "electric_scooter", "lon": -77.027259, "name": "c27ecdf99360f2da292cfa09204fed5c", "bike_id": "c27ecdf99360f2da292cfa09204fed5c", "fusion_lat": 0.0, "is_reserved": 0, "lat": 38.939846, "fusion_lon": 0.0, "is_disabled": 0}, {"rental_uris": {"android": "https://dc.lft.to/lastmile_qr_scan", "ios": "https://dc.lft.to/lastmile_qr_scan"}, "type": "electric_scooter", "lon": -76.98727066666666, "name": "a50a60eee46fda7c737a9176aeeb6d7c", "bike_id": "a50a60eee46fda7c737a9176aeeb6d7c", "fusion_lat": 0.0, "is_reserved": 0, "lat": 38.867141, "fusion_lon": 0.0, "is_disabled": 0}, {"rental_uris": {"android": "https://dc.lft.to/lastmile_qr_scan", "ios": "https://dc.lft.to/lastmile_qr_scan"}, "type": "electric_scooter", "lon": -77.04875033333333, "name": "b1f7862ab70f0e1bf21baa8311b6cab1", "bike_id": "b1f7862ab70f0e1bf21baa8311b6cab1", "fusion_lat": 0.0, "is_reserved": 0, "lat": 38.903650999999996, "fusion_lon": 0.0, "is_disabled": 0}, {"rental_uris": {"android": "https://dc.lft.to/lastmile_qr_scan", "ios": "https://dc.lft.to/lastmile_qr_scan"}, "type": "electric_scooter", "lon": -77.06437883333334, "name": "2915e98cea4cd88f25e09bfbe42ede0b", "bike_id": "2915e98cea4cd88f25e09bfbe42ede0b", "fusion_lat": 0.0, "is_reserved": 0, "lat": 38.909909, "fusion_lon": 0.0, "is_disabled": 0}, {"rental_uris": {"android": "https://dc.lft.to/lastmile_qr_scan", "ios": "https://dc.lft.to/lastmile_qr_scan"}, "type": "electric_scooter", "lon": -77.0198705, "name": "3d94fbfa314a4190de1b542ff843c6c4", "bike_id": "3d94fbfa314a4190de1b542ff843c6c4", "fusion_lat": 0.0, "is_reserved": 0, "lat": 38.9024465, "fusion_lon": 0.0, "is_disabled": 0}, {"rental_uris": {"android": "https://dc.lft.to/lastmile_qr_scan", "ios": "https://dc.lft.to/lastmile_qr_scan"}, "type": "electric_scooter", "lon": -77.02759533333334, "name": "8fa1e43c3fabceabadd5d5fca83d63a4", "bike_id": "8fa1e43c3fabceabadd5d5fca83d63a4", "fusion_lat": 0.0, "is_reserved": 0, "lat": 38.953965, "fusion_lon": 0.0, "is_disabled": 0}, {"rental_uris": {"android": "https://dc.lft.to/lastmile_qr_scan", "ios": "https://dc.lft.to/lastmile_qr_scan"}, "type": "electric_scooter", "lon": -77.0235125, "name": "cb91c66fd91f6d2c0dfc2d8647fde2ca", "bike_id": "cb91c66fd91f6d2c0dfc2d8647fde2ca", "fusion_lat": 0.0, "is_reserved": 0, "lat": 38.92264516666667, "fusion_lon": 0.0, "is_disabled": 0}, {"rental_uris": {"android": "https://dc.lft.to/lastmile_qr_scan", "ios": "https://dc.lft.to/lastmile_qr_scan"}, "type": "electric_scooter", "lon": -77.02301916666667, "name": "3603fa7b63cc6209ae82a6f9747f3b8b", "bike_id": "3603fa7b63cc6209ae82a6f9747f3b8b", "fusion_lat": 0.0, "is_reserved": 0, "lat": 38.91772133333333, "fusion_lon": 0.0, "is_disabled": 0}, {"rental_uris": {"android": "https://dc.lft.to/lastmile_qr_scan", "ios": "https://dc.lft.to/lastmile_qr_scan"}, "type": "electric_scooter", "lon": -77.011442, "name": "bd555aea9a50bf9d3a79e54ba3127443", "bike_id": "bd555aea9a50bf9d3a79e54ba3127443", "fusion_lat": 0.0, "is_reserved": 0, "lat": 38.906459166666664, "fusion_lon": 0.0, "is_disabled": 0}, {"rental_uris": {"android": "https://dc.lft.to/lastmile_qr_scan", "ios": "https://dc.lft.to/lastmile_qr_scan"}, "type": "electric_scooter", "lon": -76.9346585, "name": "b42feb3c5ebfb50e6bb209a2fca82011", "bike_id": "b42feb3c5ebfb50e6bb209a2fca82011", "fusion_lat": 0.0, "is_reserved": 0, "lat": 38.90186966666667, "fusion_lon": 0.0, "is_disabled": 0}, {"rental_uris": {"android": "https://dc.lft.to/lastmile_qr_scan", "ios": "https://dc.lft.to/lastmile_qr_scan"}, "type": "electric_scooter", "lon": -77.01942616666666, "name": "55f9c6ab33ec8e7fc130528514d3f212", "bike_id": "55f9c6ab33ec8e7fc130528514d3f212", "fusion_lat": 0.0, "is_reserved": 0, "lat": 38.92413366666667, "fusion_lon": 0.0, "is_disabled": 0}, {"rental_uris": {"android": "https://dc.lft.to/lastmile_qr_scan", "ios": "https://dc.lft.to/lastmile_qr_scan"}, "type": "electric_scooter", "lon": -76.99776783333333, "name": "b9bd0738c266cf4d5af20d3698474b5b", "bike_id": "b9bd0738c266cf4d5af20d3698474b5b", "fusion_lat": 0.0, "is_reserved": 0, "lat": 38.844306833333334, "fusion_lon": 0.0, "is_disabled": 0}, {"rental_uris": {"android": "https://dc.lft.to/lastmile_qr_scan", "ios": "https://dc.lft.to/lastmile_qr_scan"}, "type": "electric_scooter", "lon": -77.0278815, "name": "8825fa970180608bd8ee14b0cd3757a1", "bike_id": "8825fa970180608bd8ee14b0cd3757a1", "fusion_lat": 0.0, "is_reserved": 0, "lat": 38.89622333333333, "fusion_lon": 0.0, "is_disabled": 0}, {"rental_uris": {"android": "https://dc.lft.to/lastmile_qr_scan", "ios": "https://dc.lft.to/lastmile_qr_scan"}, "type": "electric_scooter", "lon": -77.0315495, "name": "af9b83ad33c7680198d84d120db307d2", "bike_id": "af9b83ad33c7680198d84d120db307d2", "fusion_lat": 0.0, "is_reserved": 0, "lat": 38.928062833333335, "fusion_lon": 0.0, "is_disabled": 0}, {"rental_uris": {"android": "https://dc.lft.to/lastmile_qr_scan", "ios": "https://dc.lft.to/lastmile_qr_scan"}, "type": "electric_bike", "lon": -76.98749033333333, "name": "3230bf934885582947c66d1679522ac9", "bike_id": "3230bf934885582947c66d1679522ac9", "fusion_lat": 0.0, "is_reserved": 0, "lat": 38.98827683333333, "fusion_lon": 0.0, "is_disabled": 0}, {"rental_uris": {"android": "https://dc.lft.to/lastmile_qr_scan", "ios": "https://dc.lft.to/lastmile_qr_scan"}, "type": "electric_scooter", "lon": -77.046523, "name": "f953326ed3e96d4813ada22124a41231", "bike_id": "f953326ed3e96d4813ada22124a41231", "fusion_lat": 0.0, "is_reserved": 0, "lat": 38.89241616666666, "fusion_lon": 0.0, "is_disabled": 0}, {"rental_uris": {"android": "https://dc.lft.to/lastmile_qr_scan", "ios": "https://dc.lft.to/lastmile_qr_scan"}, "type": "electric_bike", "lon": -76.938862, "name": "5284f88c748ff51df3a04e7466f3044e", "bike_id": "5284f88c748ff51df3a04e7466f3044e", "fusion_lat": 0.0, "is_reserved": 0, "lat": 38.95631616666667, "fusion_lon": 0.0, "is_disabled": 0}, {"rental_uris": {"android": "https://dc.lft.to/lastmile_qr_scan", "ios": "https://dc.lft.to/lastmile_qr_scan"}, "type": "electric_scooter", "lon": -76.9962915, "name": "3f81ee1e54a752437ddb4a4492827de6", "bike_id": "3f81ee1e54a752437ddb4a4492827de6", "fusion_lat": 0.0, "is_reserved": 0, "lat": 38.8462135, "fusion_lon": 0.0, "is_disabled": 0}, {"rental_uris": {"android": "https://dc.lft.to/lastmile_qr_scan", "ios": "https://dc.lft.to/lastmile_qr_scan"}, "type": "electric_scooter", "lon": -77.04790333333334, "name": "69d91c3525f4b55fa07c590a73916a2f", "bike_id": "69d91c3525f4b55fa07c590a73916a2f", "fusion_lat": 0.0, "is_reserved": 0, "lat": 38.91918166666667, "fusion_lon": 0.0, "is_disabled": 0}, {"rental_uris": {"android": "https://dc.lft.to/lastmile_qr_scan", "ios": "https://dc.lft.to/lastmile_qr_scan"}, "type": "electric_scooter", "lon": -77.02708866666667, "name": "5d601bc6bcc72dd2008e8c68473e64e9", "bike_id": "5d601bc6bcc72dd2008e8c68473e64e9", "fusion_lat": 0.0, "is_reserved": 0, "lat": 38.9246835, "fusion_lon": 0.0, "is_disabled": 0}, {"rental_uris": {"android": "https://dc.lft.to/lastmile_qr_scan", "ios": "https://dc.lft.to/lastmile_qr_scan"}, "type": "electric_scooter", "lon": -77.03045733333333, "name": "923c0b8226ab72cb94a66de3d4604f67", "bike_id": "923c0b8226ab72cb94a66de3d4604f67", "fusion_lat": 0.0, "is_reserved": 0, "lat": 38.8841115, "fusion_lon": 0.0, "is_disabled": 0}, {"rental_uris": {"android": "https://dc.lft.to/lastmile_qr_scan", "ios": "https://dc.lft.to/lastmile_qr_scan"}, "type": "electric_scooter", "lon": -77.0120945, "name": "cfef6a3c9d199d86f9b1bb77d5a6cfef", "bike_id": "cfef6a3c9d199d86f9b1bb77d5a6cfef", "fusion_lat": 0.0, "is_reserved": 0, "lat": 38.90837033333333, "fusion_lon": 0.0, "is_disabled": 0}, {"rental_uris": {"android": "https://dc.lft.to/lastmile_qr_scan", "ios": "https://dc.lft.to/lastmile_qr_scan"}, "type": "electric_scooter", "lon": -76.97184683333333, "name": "e9ad0cbfaaa46e9bd66553c05d3526c7", "bike_id": "e9ad0cbfaaa46e9bd66553c05d3526c7", "fusion_lat": 0.0, "is_reserved": 0, "lat": 38.912657333333335, "fusion_lon": 0.0, "is_disabled": 0}, {"rental_uris": {"android": "https://dc.lft.to/lastmile_qr_scan", "ios": "https://dc.lft.to/lastmile_qr_scan"}, "type": "electric_scooter", "lon": -77.0545535, "name": "d820189d8b872f770371d962fe027c87", "bike_id": "d820189d8b872f770371d962fe027c87", "fusion_lat": 0.0, "is_reserved": 0, "lat": 38.929016833333336, "fusion_lon": 0.0, "is_disabled": 0}, {"rental_uris": {"android": "https://dc.lft.to/lastmile_qr_scan", "ios": "https://dc.lft.to/lastmile_qr_scan"}, "type": "electric_scooter", "lon": -77.0073745, "name": "2d6b7061befe673e05801608f8a6aca4", "bike_id": "2d6b7061befe673e05801608f8a6aca4", "fusion_lat": 0.0, "is_reserved": 0, "lat": 38.87918283333333, "fusion_lon": 0.0, "is_disabled": 0}, {"rental_uris": {"android": "https://dc.lft.to/lastmile_qr_scan", "ios": "https://dc.lft.to/lastmile_qr_scan"}, "type": "electric_scooter", "lon": -76.99022766666667, "name": "619f0dd392e2a1ad8287c07b282dc8e6", "bike_id": "619f0dd392e2a1ad8287c07b282dc8e6", "fusion_lat": 0.0, "is_reserved": 0, "lat": 38.86406016666667, "fusion_lon": 0.0, "is_disabled": 0}, {"rental_uris": {"android": "https://dc.lft.to/lastmile_qr_scan", "ios": "https://dc.lft.to/lastmile_qr_scan"}, "type": "electric_scooter", "lon": -77.031775, "name": "46fa959c99faf5c13c71cc954a2d14e5", "bike_id": "46fa959c99faf5c13c71cc954a2d14e5", "fusion_lat": 0.0, "is_reserved": 0, "lat": 38.90161233333333, "fusion_lon": 0.0, "is_disabled": 0}, {"rental_uris": {"android": "https://dc.lft.to/lastmile_qr_scan", "ios": "https://dc.lft.to/lastmile_qr_scan"}, "type": "electric_scooter", "lon": -77.03506183333333, "name": "2dfaee6e696cdd61a8b27057f5dd78ac", "bike_id": "2dfaee6e696cdd61a8b27057f5dd78ac", "fusion_lat": 0.0, "is_reserved": 0, "lat": 38.9214455, "fusion_lon": 0.0, "is_disabled": 0}, {"rental_uris": {"android": "https://dc.lft.to/lastmile_qr_scan", "ios": "https://dc.lft.to/lastmile_qr_scan"}, "type": "electric_scooter", "lon": -77.049608, "name": "759310e83163f3cb36dd4acd8142c092", "bike_id": "759310e83163f3cb36dd4acd8142c092", "fusion_lat": 0.0, "is_reserved": 0, "lat": 38.912633166666666, "fusion_lon": 0.0, "is_disabled": 0}, {"rental_uris": {"android": "https://dc.lft.to/lastmile_qr_scan", "ios": "https://dc.lft.to/lastmile_qr_scan"}, "type": "electric_scooter", "lon": -77.0422065, "name": "6237357d3161669c5c3b87e813e8a077", "bike_id": "6237357d3161669c5c3b87e813e8a077", "fusion_lat": 0.0, "is_reserved": 0, "lat": 38.92626533333333, "fusion_lon": 0.0, "is_disabled": 0}, {"rental_uris": {"android": "https://dc.lft.to/lastmile_qr_scan", "ios": "https://dc.lft.to/lastmile_qr_scan"}, "type": "electric_scooter", "lon": -77.02346083333333, "name": "729694024ee642fd42eb8547c90de119", "bike_id": "729694024ee642fd42eb8547c90de119", "fusion_lat": 0.0, "is_reserved": 0, "lat": 38.92970966666667, "fusion_lon": 0.0, "is_disabled": 0}, {"rental_uris": {"android": "https://dc.lft.to/lastmile_qr_scan", "ios": "https://dc.lft.to/lastmile_qr_scan"}, "type": "electric_scooter", "lon": -76.987735, "name": "3bff19dc8dc2b65db10f9c62f67203b3", "bike_id": "3bff19dc8dc2b65db10f9c62f67203b3", "fusion_lat": 0.0, "is_reserved": 0, "lat": 38.90034133333333, "fusion_lon": 0.0, "is_disabled": 0}, {"rental_uris": {"android": "https://dc.lft.to/lastmile_qr_scan", "ios": "https://dc.lft.to/lastmile_qr_scan"}, "type": "electric_bike", "lon": -76.92336866666666, "name": "8b53df360d65530c08b11abdc1a45e68", "bike_id": "8b53df360d65530c08b11abdc1a45e68", "fusion_lat": 0.0, "is_reserved": 0, "lat": 38.88792316666667, "fusion_lon": 0.0, "is_disabled": 0}, {"rental_uris": {"android": "https://dc.lft.to/lastmile_qr_scan", "ios": "https://dc.lft.to/lastmile_qr_scan"}, "type": "electric_scooter", "lon": -77.02983016666667, "name": "bb80b668dee3133ac73fbedba1154cb3", "bike_id": "bb80b668dee3133ac73fbedba1154cb3", "fusion_lat": 0.0, "is_reserved": 0, "lat": 38.937545, "fusion_lon": 0.0, "is_disabled": 0}, {"rental_uris": {"android": "https://dc.lft.to/lastmile_qr_scan", "ios": "https://dc.lft.to/lastmile_qr_scan"}, "type": "electric_bike", "lon": -77.0298215, "name": "655b14f0f3b3d09c8308a0d913cae588", "bike_id": "655b14f0f3b3d09c8308a0d913cae588", "fusion_lat": 0.0, "is_reserved": 0, "lat": 38.936999166666666, "fusion_lon": 0.0, "is_disabled": 0}, {"rental_uris": {"android": "https://dc.lft.to/lastmile_qr_scan", "ios": "https://dc.lft.to/lastmile_qr_scan"}, "type": "electric_scooter", "lon": -77.0727365, "name": "5a0fcbe3289fc53979ce86b0633a2ddd", "bike_id": "5a0fcbe3289fc53979ce86b0633a2ddd", "fusion_lat": 0.0, "is_reserved": 0, "lat": 38.934820333333334, "fusion_lon": 0.0, "is_disabled": 0}, {"rental_uris": {"android": "https://dc.lft.to/lastmile_qr_scan", "ios": "https://dc.lft.to/lastmile_qr_scan"}, "type": "electric_scooter", "lon": -76.99389766666667, "name": "3201f013cf709503f7a5482d998fc5f3", "bike_id": "3201f013cf709503f7a5482d998fc5f3", "fusion_lat": 0.0, "is_reserved": 0, "lat": 38.886906833333335, "fusion_lon": 0.0, "is_disabled": 0}, {"rental_uris": {"android": "https://dc.lft.to/lastmile_qr_scan", "ios": "https://dc.lft.to/lastmile_qr_scan"}, "type": "electric_scooter", "lon": -76.994806, "name": "7ce949a418df4325f6ac104b875fca0b", "bike_id": "7ce949a418df4325f6ac104b875fca0b", "fusion_lat": 0.0, "is_reserved": 0, "lat": 38.90097466666667, "fusion_lon": 0.0, "is_disabled": 0}, {"rental_uris": {"android": "https://dc.lft.to/lastmile_qr_scan", "ios": "https://dc.lft.to/lastmile_qr_scan"}, "type": "electric_bike", "lon": -77.13230216666666, "name": "dab9b3fef1a1c37df3c08f61555d7a85", "bike_id": "dab9b3fef1a1c37df3c08f61555d7a85", "fusion_lat": 0.0, "is_reserved": 0, "lat": 38.869799666666665, "fusion_lon": 0.0, "is_disabled": 0}, {"rental_uris": {"android": "https://dc.lft.to/lastmile_qr_scan", "ios": "https://dc.lft.to/lastmile_qr_scan"}, "type": "electric_scooter", "lon": -77.0399865, "name": "3d1887308407f29d020ddfdaf9e9065a", "bike_id": "3d1887308407f29d020ddfdaf9e9065a", "fusion_lat": 0.0, "is_reserved": 0, "lat": 38.90271333333333, "fusion_lon": 0.0, "is_disabled": 0}, {"rental_uris": {"android": "https://dc.lft.to/lastmile_qr_scan", "ios": "https://dc.lft.to/lastmile_qr_scan"}, "type": "electric_scooter", "lon": -77.06819883333333, "name": "8da19544939fbb8ab0210c51d113f0e3", "bike_id": "8da19544939fbb8ab0210c51d113f0e3", "fusion_lat": 0.0, "is_reserved": 0, "lat": 38.91646166666666, "fusion_lon": 0.0, "is_disabled": 0}, {"rental_uris": {"android": "https://dc.lft.to/lastmile_qr_scan", "ios": "https://dc.lft.to/lastmile_qr_scan"}, "type": "electric_scooter", "lon": -77.0579615, "name": "85505746e6903a3e0a7e98288f61a3ab", "bike_id": "85505746e6903a3e0a7e98288f61a3ab", "fusion_lat": 0.0, "is_reserved": 0, "lat": 38.903626833333334, "fusion_lon": 0.0, "is_disabled": 0}, {"rental_uris": {"android": "https://dc.lft.to/lastmile_qr_scan", "ios": "https://dc.lft.to/lastmile_qr_scan"}, "type": "electric_scooter", "lon": -77.02597683333333, "name": "6b16e9ff2b222a087e5103af7f0fd815", "bike_id": "6b16e9ff2b222a087e5103af7f0fd815", "fusion_lat": 0.0, "is_reserved": 0, "lat": 38.90003016666667, "fusion_lon": 0.0, "is_disabled": 0}, {"rental_uris": {"android": "https://dc.lft.to/lastmile_qr_scan", "ios": "https://dc.lft.to/lastmile_qr_scan"}, "type": "electric_scooter", "lon": -77.02097266666667, "name": "38239e3fee490b242d04e9ba998289b7", "bike_id": "38239e3fee490b242d04e9ba998289b7", "fusion_lat": 0.0, "is_reserved": 0, "lat": 38.911057, "fusion_lon": 0.0, "is_disabled": 0}, {"rental_uris": {"android": "https://dc.lft.to/lastmile_qr_scan", "ios": "https://dc.lft.to/lastmile_qr_scan"}, "type": "electric_scooter", "lon": -77.02168416666666, "name": "57784834380fd90b58f04046fa405f74", "bike_id": "57784834380fd90b58f04046fa405f74", "fusion_lat": 0.0, "is_reserved": 0, "lat": 38.94296, "fusion_lon": 0.0, "is_disabled": 0}, {"rental_uris": {"android": "https://dc.lft.to/lastmile_qr_scan", "ios": "https://dc.lft.to/lastmile_qr_scan"}, "type": "electric_scooter", "lon": -77.00593433333333, "name": "eaf9e7e96ffe413ec9a1f2f3ca67ca89", "bike_id": "eaf9e7e96ffe413ec9a1f2f3ca67ca89", "fusion_lat": 0.0, "is_reserved": 0, "lat": 38.8764545, "fusion_lon": 0.0, "is_disabled": 0}, {"rental_uris": {"android": "https://dc.lft.to/lastmile_qr_scan", "ios": "https://dc.lft.to/lastmile_qr_scan"}, "type": "electric_scooter", "lon": -77.03446083333333, "name": "d3f43a158de307cba2c0ac355ae2ced5", "bike_id": "d3f43a158de307cba2c0ac355ae2ced5", "fusion_lat": 0.0, "is_reserved": 0, "lat": 38.9287145, "fusion_lon": 0.0, "is_disabled": 0}, {"rental_uris": {"android": "https://dc.lft.to/lastmile_qr_scan", "ios": "https://dc.lft.to/lastmile_qr_scan"}, "type": "electric_scooter", "lon": -77.03424183333334, "name": "1e0103708d72a5b3e1ff43f595877ac8", "bike_id": "1e0103708d72a5b3e1ff43f595877ac8", "fusion_lat": 0.0, "is_reserved": 0, "lat": 38.905662666666665, "fusion_lon": 0.0, "is_disabled": 0}, {"rental_uris": {"android": "https://dc.lft.to/lastmile_qr_scan", "ios": "https://dc.lft.to/lastmile_qr_scan"}, "type": "electric_scooter", "lon": -77.04551016666667, "name": "5ecd138a7e91255402ff44a3e72c0be8", "bike_id": "5ecd138a7e91255402ff44a3e72c0be8", "fusion_lat": 0.0, "is_reserved": 0, "lat": 38.90857866666666, "fusion_lon": 0.0, "is_disabled": 0}, {"rental_uris": {"android": "https://dc.lft.to/lastmile_qr_scan", "ios": "https://dc.lft.to/lastmile_qr_scan"}, "type": "electric_bike", "lon": -76.932288, "name": "5a97b6db53c239e13f4331a428e0a914", "bike_id": "5a97b6db53c239e13f4331a428e0a914", "fusion_lat": 0.0, "is_reserved": 0, "lat": 38.8659785, "fusion_lon": 0.0, "is_disabled": 0}, {"rental_uris": {"android": "https://dc.lft.to/lastmile_qr_scan", "ios": "https://dc.lft.to/lastmile_qr_scan"}, "type": "electric_scooter", "lon": -77.027219, "name": "4c960cb491a2a6966bd0fc5801e5f36f", "bike_id": "4c960cb491a2a6966bd0fc5801e5f36f", "fusion_lat": 0.0, "is_reserved": 0, "lat": 38.92246166666666, "fusion_lon": 0.0, "is_disabled": 0}, {"rental_uris": {"android": "https://dc.lft.to/lastmile_qr_scan", "ios": "https://dc.lft.to/lastmile_qr_scan"}, "type": "electric_scooter", "lon": -77.00607583333333, "name": "5acc327a5b32bf9ba01873b02992a2a4", "bike_id": "5acc327a5b32bf9ba01873b02992a2a4", "fusion_lat": 0.0, "is_reserved": 0, "lat": 38.90560883333333, "fusion_lon": 0.0, "is_disabled": 0}, {"rental_uris": {"android": "https://dc.lft.to/lastmile_qr_scan", "ios": "https://dc.lft.to/lastmile_qr_scan"}, "type": "electric_scooter", "lon": -77.00927683333333, "name": "d33b695de1c05a51ec9f0bf421c14370", "bike_id": "d33b695de1c05a51ec9f0bf421c14370", "fusion_lat": 0.0, "is_reserved": 0, "lat": 38.91256933333333, "fusion_lon": 0.0, "is_disabled": 0}, {"rental_uris": {"android": "https://dc.lft.to/lastmile_qr_scan", "ios": "https://dc.lft.to/lastmile_qr_scan"}, "type": "electric_scooter", "lon": -77.07320316666667, "name": "a5b1f95824835a728eb3b6e81763289a", "bike_id": "a5b1f95824835a728eb3b6e81763289a", "fusion_lat": 0.0, "is_reserved": 0, "lat": 38.933562333333334, "fusion_lon": 0.0, "is_disabled": 0}, {"rental_uris": {"android": "https://dc.lft.to/lastmile_qr_scan", "ios": "https://dc.lft.to/lastmile_qr_scan"}, "type": "electric_scooter", "lon": -77.03441533333333, "name": "813c0051ef930b0fd0d154003eb8ea80", "bike_id": "813c0051ef930b0fd0d154003eb8ea80", "fusion_lat": 0.0, "is_reserved": 0, "lat": 38.930935, "fusion_lon": 0.0, "is_disabled": 0}, {"rental_uris": {"android": "https://dc.lft.to/lastmile_qr_scan", "ios": "https://dc.lft.to/lastmile_qr_scan"}, "type": "electric_scooter", "lon": -77.038342, "name": "8690ec9f1ee7f5191c0419bf639c1373", "bike_id": "8690ec9f1ee7f5191c0419bf639c1373", "fusion_lat": 0.0, "is_reserved": 0, "lat": 38.915550833333334, "fusion_lon": 0.0, "is_disabled": 0}, {"rental_uris": {"android": "https://dc.lft.to/lastmile_qr_scan", "ios": "https://dc.lft.to/lastmile_qr_scan"}, "type": "electric_scooter", "lon": -77.018069, "name": "1057b6cab1e4aed770332c050ca936fc", "bike_id": "1057b6cab1e4aed770332c050ca936fc", "fusion_lat": 0.0, "is_reserved": 0, "lat": 38.92209616666667, "fusion_lon": 0.0, "is_disabled": 0}, {"rental_uris": {"android": "https://dc.lft.to/lastmile_qr_scan", "ios": "https://dc.lft.to/lastmile_qr_scan"}, "type": "electric_bike", "lon": -77.12960216666667, "name": "776313665528d0f9768d22643699fe49", "bike_id": "776313665528d0f9768d22643699fe49", "fusion_lat": 0.0, "is_reserved": 0, "lat": 38.8521715, "fusion_lon": 0.0, "is_disabled": 0}, {"rental_uris": {"android": "https://dc.lft.to/lastmile_qr_scan", "ios": "https://dc.lft.to/lastmile_qr_scan"}, "type": "electric_scooter", "lon": -77.02601716666666, "name": "f9efc90b6de6dd80ab0b97449819961b", "bike_id": "f9efc90b6de6dd80ab0b97449819961b", "fusion_lat": 0.0, "is_reserved": 0, "lat": 38.916396, "fusion_lon": 0.0, "is_disabled": 0}, {"rental_uris": {"android": "https://dc.lft.to/lastmile_qr_scan", "ios": "https://dc.lft.to/lastmile_qr_scan"}, "type": "electric_scooter", "lon": -77.027104, "name": "59822bcb1781877d7a5504d7128285a6", "bike_id": "59822bcb1781877d7a5504d7128285a6", "fusion_lat": 0.0, "is_reserved": 0, "lat": 38.907540166666664, "fusion_lon": 0.0, "is_disabled": 0}, {"rental_uris": {"android": "https://dc.lft.to/lastmile_qr_scan", "ios": "https://dc.lft.to/lastmile_qr_scan"}, "type": "electric_scooter", "lon": -77.03304733333333, "name": "aa4247cf9bbb481ddac3b8a57df2ea58", "bike_id": "aa4247cf9bbb481ddac3b8a57df2ea58", "fusion_lat": 0.0, "is_reserved": 0, "lat": 38.96827833333333, "fusion_lon": 0.0, "is_disabled": 0}, {"rental_uris": {"android": "https://dc.lft.to/lastmile_qr_scan", "ios": "https://dc.lft.to/lastmile_qr_scan"}, "type": "electric_bike", "lon": -76.99097516666667, "name": "7d390e9cf7797bbe07d19e7031368f91", "bike_id": "7d390e9cf7797bbe07d19e7031368f91", "fusion_lat": 0.0, "is_reserved": 0, "lat": 38.9337605, "fusion_lon": 0.0, "is_disabled": 0}, {"rental_uris": {"android": "https://dc.lft.to/lastmile_qr_scan", "ios": "https://dc.lft.to/lastmile_qr_scan"}, "type": "electric_scooter", "lon": -77.01205416666667, "name": "3272aff5a852915296e959871381cdfe", "bike_id": "3272aff5a852915296e959871381cdfe", "fusion_lat": 0.0, "is_reserved": 0, "lat": 38.918238, "fusion_lon": 0.0, "is_disabled": 0}, {"rental_uris": {"android": "https://dc.lft.to/lastmile_qr_scan", "ios": "https://dc.lft.to/lastmile_qr_scan"}, "type": "electric_scooter", "lon": -77.04992166666666, "name": "bf23bc21099cbe5d7211bab63af0584f", "bike_id": "bf23bc21099cbe5d7211bab63af0584f", "fusion_lat": 0.0, "is_reserved": 0, "lat": 38.897303666666666, "fusion_lon": 0.0, "is_disabled": 0}, {"rental_uris": {"android": "https://dc.lft.to/lastmile_qr_scan", "ios": "https://dc.lft.to/lastmile_qr_scan"}, "type": "electric_scooter", "lon": -77.00158, "name": "7fc4b1994c44557a26364d62c17bc829", "bike_id": "7fc4b1994c44557a26364d62c17bc829", "fusion_lat": 0.0, "is_reserved": 0, "lat": 38.900054, "fusion_lon": 0.0, "is_disabled": 0}, {"rental_uris": {"android": "https://dc.lft.to/lastmile_qr_scan", "ios": "https://dc.lft.to/lastmile_qr_scan"}, "type": "electric_bike", "lon": -77.002838, "name": "209d43a1c11608f0a7052b4ab5fcd1a8", "bike_id": "209d43a1c11608f0a7052b4ab5fcd1a8", "fusion_lat": 0.0, "is_reserved": 0, "lat": 38.911056, "fusion_lon": 0.0, "is_disabled": 0}, {"rental_uris": {"android": "https://dc.lft.to/lastmile_qr_scan", "ios": "https://dc.lft.to/lastmile_qr_scan"}, "type": "electric_scooter", "lon": -77.03467133333334, "name": "a9a97fdecf9f4b5dc5a90493f74bdb3b", "bike_id": "a9a97fdecf9f4b5dc5a90493f74bdb3b", "fusion_lat": 0.0, "is_reserved": 0, "lat": 38.935499166666666, "fusion_lon": 0.0, "is_disabled": 0}, {"rental_uris": {"android": "https://dc.lft.to/lastmile_qr_scan", "ios": "https://dc.lft.to/lastmile_qr_scan"}, "type": "electric_scooter", "lon": -77.03219383333334, "name": "8a6d5188fab0461b9eb0e616c43e2314", "bike_id": "8a6d5188fab0461b9eb0e616c43e2314", "fusion_lat": 0.0, "is_reserved": 0, "lat": 38.9189315, "fusion_lon": 0.0, "is_disabled": 0}, {"rental_uris": {"android": "https://dc.lft.to/lastmile_qr_scan", "ios": "https://dc.lft.to/lastmile_qr_scan"}, "type": "electric_bike", "lon": -76.947822, "name": "3dfbdd7f180a9d6aefa7d6df86886922", "bike_id": "3dfbdd7f180a9d6aefa7d6df86886922", "fusion_lat": 0.0, "is_reserved": 0, "lat": 38.8964225, "fusion_lon": 0.0, "is_disabled": 0}, {"rental_uris": {"android": "https://dc.lft.to/lastmile_qr_scan", "ios": "https://dc.lft.to/lastmile_qr_scan"}, "type": "electric_scooter", "lon": -76.97019283333333, "name": "ba96a701faa30b76225adf8601e30cfe", "bike_id": "ba96a701faa30b76225adf8601e30cfe", "fusion_lat": 0.0, "is_reserved": 0, "lat": 38.920309, "fusion_lon": 0.0, "is_disabled": 0}, {"rental_uris": {"android": "https://dc.lft.to/lastmile_qr_scan", "ios": "https://dc.lft.to/lastmile_qr_scan"}, "type": "electric_scooter", "lon": -77.049918, "name": "999d45415dc73a466dfde0f12f6243b7", "bike_id": "999d45415dc73a466dfde0f12f6243b7", "fusion_lat": 0.0, "is_reserved": 0, "lat": 38.900857333333335, "fusion_lon": 0.0, "is_disabled": 0}, {"rental_uris": {"android": "https://dc.lft.to/lastmile_qr_scan", "ios": "https://dc.lft.to/lastmile_qr_scan"}, "type": "electric_scooter", "lon": -76.9846095, "name": "ff72b5e37efbf9dc06ffc1432e6c7531", "bike_id": "ff72b5e37efbf9dc06ffc1432e6c7531", "fusion_lat": 0.0, "is_reserved": 0, "lat": 38.89367383333333, "fusion_lon": 0.0, "is_disabled": 0}, {"rental_uris": {"android": "https://dc.lft.to/lastmile_qr_scan", "ios": "https://dc.lft.to/lastmile_qr_scan"}, "type": "electric_scooter", "lon": -77.0189855, "name": "2ee54b6052af45a4c129cb9c3c9a713f", "bike_id": "2ee54b6052af45a4c129cb9c3c9a713f", "fusion_lat": 0.0, "is_reserved": 0, "lat": 38.939142833333335, "fusion_lon": 0.0, "is_disabled": 0}, {"rental_uris": {"android": "https://dc.lft.to/lastmile_qr_scan", "ios": "https://dc.lft.to/lastmile_qr_scan"}, "type": "electric_scooter", "lon": -77.021529, "name": "0c1341c17938ad3ce96a8fd66a373ae2", "bike_id": "0c1341c17938ad3ce96a8fd66a373ae2", "fusion_lat": 0.0, "is_reserved": 0, "lat": 38.87927966666667, "fusion_lon": 0.0, "is_disabled": 0}, {"rental_uris": {"android": "https://dc.lft.to/lastmile_qr_scan", "ios": "https://dc.lft.to/lastmile_qr_scan"}, "type": "electric_scooter", "lon": -77.03864433333334, "name": "90bdd161567b5cbbbd0ba33ebfc14b9e", "bike_id": "90bdd161567b5cbbbd0ba33ebfc14b9e", "fusion_lat": 0.0, "is_reserved": 0, "lat": 38.917113666666665, "fusion_lon": 0.0, "is_disabled": 0}, {"rental_uris": {"android": "https://dc.lft.to/lastmile_qr_scan", "ios": "https://dc.lft.to/lastmile_qr_scan"}, "type": "electric_scooter", "lon": -76.9908585, "name": "5224d90b5a8a932db56402f75217b64a", "bike_id": "5224d90b5a8a932db56402f75217b64a", "fusion_lat": 0.0, "is_reserved": 0, "lat": 38.8429215, "fusion_lon": 0.0, "is_disabled": 0}, {"rental_uris": {"android": "https://dc.lft.to/lastmile_qr_scan", "ios": "https://dc.lft.to/lastmile_qr_scan"}, "type": "electric_scooter", "lon": -77.02231666666667, "name": "501b40c4a73ab69bab8e1454e8154f68", "bike_id": "501b40c4a73ab69bab8e1454e8154f68", "fusion_lat": 0.0, "is_reserved": 0, "lat": 38.9156755, "fusion_lon": 0.0, "is_disabled": 0}, {"rental_uris": {"android": "https://dc.lft.to/lastmile_qr_scan", "ios": "https://dc.lft.to/lastmile_qr_scan"}, "type": "electric_scooter", "lon": -77.03269566666667, "name": "141e85c87186554c7732efbb0efa178f", "bike_id": "141e85c87186554c7732efbb0efa178f", "fusion_lat": 0.0, "is_reserved": 0, "lat": 38.920686833333335, "fusion_lon": 0.0, "is_disabled": 0}, {"rental_uris": {"android": "https://dc.lft.to/lastmile_qr_scan", "ios": "https://dc.lft.to/lastmile_qr_scan"}, "type": "electric_bike", "lon": -77.126261, "name": "605da1a855b5fdb0c889042ee9136ebf", "bike_id": "605da1a855b5fdb0c889042ee9136ebf", "fusion_lat": 0.0, "is_reserved": 0, "lat": 39.058141666666664, "fusion_lon": 0.0, "is_disabled": 0}, {"rental_uris": {"android": "https://dc.lft.to/lastmile_qr_scan", "ios": "https://dc.lft.to/lastmile_qr_scan"}, "type": "electric_bike", "lon": -76.98744083333334, "name": "bfe3794c332c789d7489cdd79c67f0e5", "bike_id": "bfe3794c332c789d7489cdd79c67f0e5", "fusion_lat": 0.0, "is_reserved": 0, "lat": 38.85792466666667, "fusion_lon": 0.0, "is_disabled": 0}, {"rental_uris": {"android": "https://dc.lft.to/lastmile_qr_scan", "ios": "https://dc.lft.to/lastmile_qr_scan"}, "type": "electric_bike", "lon": -76.98096666666666, "name": "784fb5962416a4ea4ac00a191dd3f1b7", "bike_id": "784fb5962416a4ea4ac00a191dd3f1b7", "fusion_lat": 0.0, "is_reserved": 0, "lat": 38.95356616666667, "fusion_lon": 0.0, "is_disabled": 0}, {"rental_uris": {"android": "https://dc.lft.to/lastmile_qr_scan", "ios": "https://dc.lft.to/lastmile_qr_scan"}, "type": "electric_scooter", "lon": -77.02964433333334, "name": "4d95b448f598cc1c98b958bceb8fdbd0", "bike_id": "4d95b448f598cc1c98b958bceb8fdbd0", "fusion_lat": 0.0, "is_reserved": 0, "lat": 38.8922325, "fusion_lon": 0.0, "is_disabled": 0}, {"rental_uris": {"android": "https://dc.lft.to/lastmile_qr_scan", "ios": "https://dc.lft.to/lastmile_qr_scan"}, "type": "electric_scooter", "lon": -77.03870366666666, "name": "c1f1e44344b33b722954cc30989829f3", "bike_id": "c1f1e44344b33b722954cc30989829f3", "fusion_lat": 0.0, "is_reserved": 0, "lat": 38.932418, "fusion_lon": 0.0, "is_disabled": 0}, {"rental_uris": {"android": "https://dc.lft.to/lastmile_qr_scan", "ios": "https://dc.lft.to/lastmile_qr_scan"}, "type": "electric_scooter", "lon": -77.01735833333333, "name": "b2753675ff1f9653ad0f3c2a08189144", "bike_id": "b2753675ff1f9653ad0f3c2a08189144", "fusion_lat": 0.0, "is_reserved": 0, "lat": 38.942099666666664, "fusion_lon": 0.0, "is_disabled": 0}, {"rental_uris": {"android": "https://dc.lft.to/lastmile_qr_scan", "ios": "https://dc.lft.to/lastmile_qr_scan"}, "type": "electric_scooter", "lon": -77.0480935, "name": "c1b454d79cf388ffb0f15c45df7d3541", "bike_id": "c1b454d79cf388ffb0f15c45df7d3541", "fusion_lat": 0.0, "is_reserved": 0, "lat": 38.919210666666665, "fusion_lon": 0.0, "is_disabled": 0}, {"rental_uris": {"android": "https://dc.lft.to/lastmile_qr_scan", "ios": "https://dc.lft.to/lastmile_qr_scan"}, "type": "electric_scooter", "lon": -77.026132, "name": "a2761d2c86db0fc5c08acffb1f5930e2", "bike_id": "a2761d2c86db0fc5c08acffb1f5930e2", "fusion_lat": 0.0, "is_reserved": 0, "lat": 38.88594116666667, "fusion_lon": 0.0, "is_disabled": 0}, {"rental_uris": {"android": "https://dc.lft.to/lastmile_qr_scan", "ios": "https://dc.lft.to/lastmile_qr_scan"}, "type": "electric_scooter", "lon": -77.0216215, "name": "5f409d50bc3866aa8faab3391c99ba15", "bike_id": "5f409d50bc3866aa8faab3391c99ba15", "fusion_lat": 0.0, "is_reserved": 0, "lat": 38.897326, "fusion_lon": 0.0, "is_disabled": 0}, {"rental_uris": {"android": "https://dc.lft.to/lastmile_qr_scan", "ios": "https://dc.lft.to/lastmile_qr_scan"}, "type": "electric_scooter", "lon": -77.03344833333334, "name": "efa8a9c53afba92e94901448ee73d5a4", "bike_id": "efa8a9c53afba92e94901448ee73d5a4", "fusion_lat": 0.0, "is_reserved": 0, "lat": 38.92239133333333, "fusion_lon": 0.0, "is_disabled": 0}, {"rental_uris": {"android": "https://dc.lft.to/lastmile_qr_scan", "ios": "https://dc.lft.to/lastmile_qr_scan"}, "type": "electric_scooter", "lon": -77.01059883333333, "name": "e6d22f0b1ead2593b89dcbc2673acd12", "bike_id": "e6d22f0b1ead2593b89dcbc2673acd12", "fusion_lat": 0.0, "is_reserved": 0, "lat": 38.8724425, "fusion_lon": 0.0, "is_disabled": 0}, {"rental_uris": {"android": "https://dc.lft.to/lastmile_qr_scan", "ios": "https://dc.lft.to/lastmile_qr_scan"}, "type": "electric_scooter", "lon": -77.046335, "name": "889ddc2d68ebc6e1dc4d51675e2c8169", "bike_id": "889ddc2d68ebc6e1dc4d51675e2c8169", "fusion_lat": 0.0, "is_reserved": 0, "lat": 38.897375833333335, "fusion_lon": 0.0, "is_disabled": 0}, {"rental_uris": {"android": "https://dc.lft.to/lastmile_qr_scan", "ios": "https://dc.lft.to/lastmile_qr_scan"}, "type": "electric_scooter", "lon": -77.02382466666667, "name": "46bd55960ba2030abfe399e0b7b1f11a", "bike_id": "46bd55960ba2030abfe399e0b7b1f11a", "fusion_lat": 0.0, "is_reserved": 0, "lat": 38.89234783333333, "fusion_lon": 0.0, "is_disabled": 0}, {"rental_uris": {"android": "https://dc.lft.to/lastmile_qr_scan", "ios": "https://dc.lft.to/lastmile_qr_scan"}, "type": "electric_scooter", "lon": -77.02405816666666, "name": "414a7a0f9206d4f355828b2102ee06a2", "bike_id": "414a7a0f9206d4f355828b2102ee06a2", "fusion_lat": 0.0, "is_reserved": 0, "lat": 38.91689266666667, "fusion_lon": 0.0, "is_disabled": 0}, {"rental_uris": {"android": "https://dc.lft.to/lastmile_qr_scan", "ios": "https://dc.lft.to/lastmile_qr_scan"}, "type": "electric_scooter", "lon": -77.0448435, "name": "7633230f76517e8093911aa4b97fcaa7", "bike_id": "7633230f76517e8093911aa4b97fcaa7", "fusion_lat": 0.0, "is_reserved": 0, "lat": 38.907047, "fusion_lon": 0.0, "is_disabled": 0}, {"rental_uris": {"android": "https://dc.lft.to/lastmile_qr_scan", "ios": "https://dc.lft.to/lastmile_qr_scan"}, "type": "electric_scooter", "lon": -76.9891935, "name": "db62acbea5c466e9b76b837bb027295d", "bike_id": "db62acbea5c466e9b76b837bb027295d", "fusion_lat": 0.0, "is_reserved": 0, "lat": 38.8820735, "fusion_lon": 0.0, "is_disabled": 0}, {"rental_uris": {"android": "https://dc.lft.to/lastmile_qr_scan", "ios": "https://dc.lft.to/lastmile_qr_scan"}, "type": "electric_scooter", "lon": -77.044884, "name": "3cdd8f1339a1543a33ec1d6814d878a5", "bike_id": "3cdd8f1339a1543a33ec1d6814d878a5", "fusion_lat": 0.0, "is_reserved": 0, "lat": 38.91945033333333, "fusion_lon": 0.0, "is_disabled": 0}, {"rental_uris": {"android": "https://dc.lft.to/lastmile_qr_scan", "ios": "https://dc.lft.to/lastmile_qr_scan"}, "type": "electric_scooter", "lon": -77.0248145, "name": "44a559d9c7c2f352b0df7cab0ebd0be0", "bike_id": "44a559d9c7c2f352b0df7cab0ebd0be0", "fusion_lat": 0.0, "is_reserved": 0, "lat": 38.938797666666666, "fusion_lon": 0.0, "is_disabled": 0}, {"rental_uris": {"android": "https://dc.lft.to/lastmile_qr_scan", "ios": "https://dc.lft.to/lastmile_qr_scan"}, "type": "electric_scooter", "lon": -77.00519183333333, "name": "2c21ccb382e2a6eedbbc81c0602ec58c", "bike_id": "2c21ccb382e2a6eedbbc81c0602ec58c", "fusion_lat": 0.0, "is_reserved": 0, "lat": 38.9170085, "fusion_lon": 0.0, "is_disabled": 0}, {"rental_uris": {"android": "https://dc.lft.to/lastmile_qr_scan", "ios": "https://dc.lft.to/lastmile_qr_scan"}, "type": "electric_scooter", "lon": -77.01776116666667, "name": "3ca743045f44f16bc1f62a29d1a53b73", "bike_id": "3ca743045f44f16bc1f62a29d1a53b73", "fusion_lat": 0.0, "is_reserved": 0, "lat": 38.921052833333334, "fusion_lon": 0.0, "is_disabled": 0}, {"rental_uris": {"android": "https://dc.lft.to/lastmile_qr_scan", "ios": "https://dc.lft.to/lastmile_qr_scan"}, "type": "electric_scooter", "lon": -77.02925533333334, "name": "0a217b88ad54938cf1e1050327433901", "bike_id": "0a217b88ad54938cf1e1050327433901", "fusion_lat": 0.0, "is_reserved": 0, "lat": 38.895563833333334, "fusion_lon": 0.0, "is_disabled": 0}, {"rental_uris": {"android": "https://dc.lft.to/lastmile_qr_scan", "ios": "https://dc.lft.to/lastmile_qr_scan"}, "type": "electric_bike", "lon": -76.97617683333333, "name": "db6200b2abc458f9b7d69fd1d8aab8ab", "bike_id": "db6200b2abc458f9b7d69fd1d8aab8ab", "fusion_lat": 0.0, "is_reserved": 0, "lat": 38.89578233333334, "fusion_lon": 0.0, "is_disabled": 0}, {"rental_uris": {"android": "https://dc.lft.to/lastmile_qr_scan", "ios": "https://dc.lft.to/lastmile_qr_scan"}, "type": "electric_scooter", "lon": -77.0067435, "name": "02b6f6f61c08549b1bf9d9932858a916", "bike_id": "02b6f6f61c08549b1bf9d9932858a916", "fusion_lat": 0.0, "is_reserved": 0, "lat": 38.89993666666667, "fusion_lon": 0.0, "is_disabled": 0}, {"rental_uris": {"android": "https://dc.lft.to/lastmile_qr_scan", "ios": "https://dc.lft.to/lastmile_qr_scan"}, "type": "electric_scooter", "lon": -77.02499883333333, "name": "d4c3b4e84894360eab174babd4817bb8", "bike_id": "d4c3b4e84894360eab174babd4817bb8", "fusion_lat": 0.0, "is_reserved": 0, "lat": 38.90393816666667, "fusion_lon": 0.0, "is_disabled": 0}, {"rental_uris": {"android": "https://dc.lft.to/lastmile_qr_scan", "ios": "https://dc.lft.to/lastmile_qr_scan"},