{"data": {"bikes": [{"name": "01f18b3c8cfcad40f1a08acafbecaf9b", "fusion_lat": 0.0, "type": "electric_scooter", "lat": 38.900051166666664, "is_reserved": 0, "is_disabled": 0, "fusion_lon": 0.0, "bike_id": "01f18b3c8cfcad40f1a08acafbecaf9b", "lon": -77.012033, "rental_uris": {"ios": "https://dc.lft.to/lastmile_qr_scan", "android": "https://dc.lft.to/lastmile_qr_scan"}}, {"name": "44fd252ae9feddda170190a070932eaf", "fusion_lat": 0.0, "type": "electric_scooter", "lat": 38.90249133333333, "is_reserved": 0, "is_disabled": 0, "fusion_lon": 0.0, "bike_id": "44fd252ae9feddda170190a070932eaf", "lon": -77.0461035, "rental_uris": {"ios": "https://dc.lft.to/lastmile_qr_scan", "android": "https://dc.lft.to/lastmile_qr_scan"}}, {"name": "8bfc5e711df9c41363b271ae1dd76e90", "fusion_lat": 0.0, "type": "electric_scooter", "lat": 38.92009916666667, "is_reserved": 0, "is_disabled": 0, "fusion_lon": 0.0, "bike_id": "8bfc5e711df9c41363b271ae1dd76e90", "lon": -77.03186216666667, "rental_uris": {"ios": "https://dc.lft.to/lastmile_qr_scan", "android": "https://dc.lft.to/lastmile_qr_scan"}}, {"name": "c905e916b7819ac6f4dbfd10563629f2", "fusion_lat": 0.0, "type": "electric_scooter", "lat": 38.919147333333335, "is_reserved": 0, "is_disabled": 0, "fusion_lon": 0.0, "bike_id": "c905e916b7819ac6f4dbfd10563629f2", "lon": -77.02401283333333, "rental_uris": {"ios": "https://dc.lft.to/lastmile_qr_scan", "android": "https://dc.lft.to/lastmile_qr_scan"}}, {"name": "caf5cb6ed100215f9a9f81fab89b82ed", "fusion_lat": 0.0, "type": "electric_scooter", "lat": 38.86534916666667, "is_reserved": 0, "is_disabled": 0, "fusion_lon": 0.0, "bike_id": "caf5cb6ed100215f9a9f81fab89b82ed", "lon": -76.98708666666667, "rental_uris": {"ios": "https://dc.lft.to/lastmile_qr_scan", "android": "https://dc.lft.to/lastmile_qr_scan"}}, {"name": "2f990438b7fb8db1c311506868adc30c", "fusion_lat": 0.0, "type": "electric_scooter", "lat": 38.90024833333333, "is_reserved": 0, "is_disabled": 0, "fusion_lon": 0.0, "bike_id": "2f990438b7fb8db1c311506868adc30c", "lon": -76.99869516666666, "rental_uris": {"ios": "https://dc.lft.to/lastmile_qr_scan", "android": "https://dc.lft.to/lastmile_qr_scan"}}, {"name": "88787a4a10a6201e6eba2090217048ec", "fusion_lat": 0.0, "type": "electric_scooter", "lat": 38.9119435, "is_reserved": 0, "is_disabled": 0, "fusion_lon": 0.0, "bike_id": "88787a4a10a6201e6eba2090217048ec", "lon": -77.03454133333334, "rental_uris": {"ios": "https://dc.lft.to/lastmile_qr_scan", "android": "https://dc.lft.to/lastmile_qr_scan"}}, {"name": "8874e3419b9e31d73e4b0e91c7a1a819", "fusion_lat": 0.0, "type": "electric_scooter", "lat": 38.9141475, "is_reserved": 0, "is_disabled": 0, "fusion_lon": 0.0, "bike_id": "8874e3419b9e31d73e4b0e91c7a1a819", "lon": -77.021216, "rental_uris": {"ios": "https://dc.lft.to/lastmile_qr_scan", "android": "https://dc.lft.to/lastmile_qr_scan"}}, {"name": "7209c0d40b5de21b3c67be27369d5291", "fusion_lat": 0.0, "type": "electric_scooter", "lat": 38.91543216666667, "is_reserved": 0, "is_disabled": 0, "fusion_lon": 0.0, "bike_id": "7209c0d40b5de21b3c67be27369d5291", "lon": -77.038574, "rental_uris": {"ios": "https://dc.lft.to/lastmile_qr_scan", "android": "https://dc.lft.to/lastmile_qr_scan"}}, {"name": "94b6af5b8023fd1757f3bf52ec36f1b1", "fusion_lat": 0.0, "type": "electric_scooter", "lat": 38.90273033333333, "is_reserved": 0, "is_disabled": 0, "fusion_lon": 0.0, "bike_id": "94b6af5b8023fd1757f3bf52ec36f1b1", "lon": -77.02996883333333, "rental_uris": {"ios": "https://dc.lft.to/lastmile_qr_scan", "android": "https://dc.lft.to/lastmile_qr_scan"}}, {"name": "28583c5989aabb8a36594042a6f71bea", "fusion_lat": 0.0, "type": "electric_scooter", "lat": 38.922364, "is_reserved": 0, "is_disabled": 0, "fusion_lon": 0.0, "bike_id": "28583c5989aabb8a36594042a6f71bea", "lon": -77.0298545, "rental_uris": {"ios": "https://dc.lft.to/lastmile_qr_scan", "android": "https://dc.lft.to/lastmile_qr_scan"}}, {"name": "2a06447cfd0d7d14706df582446e78bd", "fusion_lat": 0.0, "type": "electric_scooter", "lat": 38.92884566666667, "is_reserved": 0, "is_disabled": 0, "fusion_lon": 0.0, "bike_id": "2a06447cfd0d7d14706df582446e78bd", "lon": -77.02310566666667, "rental_uris": {"ios": "https://dc.lft.to/lastmile_qr_scan", "android": "https://dc.lft.to/lastmile_qr_scan"}}, {"name": "13d8ffdf022dbee891e1de473c30233f", "fusion_lat": 0.0, "type": "electric_scooter", "lat": 38.8983605, "is_reserved": 0, "is_disabled": 0, "fusion_lon": 0.0, "bike_id": "13d8ffdf022dbee891e1de473c30233f", "lon": -77.033136, "rental_uris": {"ios": "https://dc.lft.to/lastmile_qr_scan", "android": "https://dc.lft.to/lastmile_qr_scan"}}, {"name": "57e4e002a1f50de9ec50011658fd4ce6", "fusion_lat": 0.0, "type": "electric_scooter", "lat": 38.92638766666666, "is_reserved": 0, "is_disabled": 0, "fusion_lon": 0.0, "bike_id": "57e4e002a1f50de9ec50011658fd4ce6", "lon": -77.03694883333333, "rental_uris": {"ios": "https://dc.lft.to/lastmile_qr_scan", "android": "https://dc.lft.to/lastmile_qr_scan"}}, {"name": "e380735c1f1ab39ee7bc9610a9962d31", "fusion_lat": 0.0, "type": "electric_scooter", "lat": 38.899010833333335, "is_reserved": 0, "is_disabled": 0, "fusion_lon": 0.0, "bike_id": "e380735c1f1ab39ee7bc9610a9962d31", "lon": -77.021581, "rental_uris": {"ios": "https://dc.lft.to/lastmile_qr_scan", "android": "https://dc.lft.to/lastmile_qr_scan"}}, {"name": "22d8ae140ca0b90d75d9bbdf18bf4604", "fusion_lat": 0.0, "type": "electric_scooter", "lat": 38.90548966666667, "is_reserved": 0, "is_disabled": 0, "fusion_lon": 0.0, "bike_id": "22d8ae140ca0b90d75d9bbdf18bf4604", "lon": -77.04749916666667, "rental_uris": {"ios": "https://dc.lft.to/lastmile_qr_scan", "android": "https://dc.lft.to/lastmile_qr_scan"}}, {"name": "509cecc6dd7bd96e3d184f73c97253c0", "fusion_lat": 0.0, "type": "electric_scooter", "lat": 38.93497933333333, "is_reserved": 0, "is_disabled": 0, "fusion_lon": 0.0, "bike_id": "509cecc6dd7bd96e3d184f73c97253c0", "lon": -77.0254575, "rental_uris": {"ios": "https://dc.lft.to/lastmile_qr_scan", "android": "https://dc.lft.to/lastmile_qr_scan"}}, {"name": "ca5c1830f50395f0367067ff7a2216c4", "fusion_lat": 0.0, "type": "electric_scooter", "lat": 38.8891675, "is_reserved": 0, "is_disabled": 0, "fusion_lon": 0.0, "bike_id": "ca5c1830f50395f0367067ff7a2216c4", "lon": -76.95376666666667, "rental_uris": {"ios": "https://dc.lft.to/lastmile_qr_scan", "android": "https://dc.lft.to/lastmile_qr_scan"}}, {"name": "5341aa03b33579e273ee43be2b6eb4e9", "fusion_lat": 0.0, "type": "electric_scooter", "lat": 38.921172, "is_reserved": 0, "is_disabled": 0, "fusion_lon": 0.0, "bike_id": "5341aa03b33579e273ee43be2b6eb4e9", "lon": -77.0438425, "rental_uris": {"ios": "https://dc.lft.to/lastmile_qr_scan", "android": "https://dc.lft.to/lastmile_qr_scan"}}, {"name": "b72fa91622c24795a3d2e4306184e32b", "fusion_lat": 0.0, "type": "electric_scooter", "lat": 38.90381516666667, "is_reserved": 0, "is_disabled": 0, "fusion_lon": 0.0, "bike_id": "b72fa91622c24795a3d2e4306184e32b", "lon": -77.0401755, "rental_uris": {"ios": "https://dc.lft.to/lastmile_qr_scan", "android": "https://dc.lft.to/lastmile_qr_scan"}}, {"name": "7db5e95b2cf784d78ff57c92eb1ac388", "fusion_lat": 0.0, "type": "electric_scooter", "lat": 38.93061816666667, "is_reserved": 0, "is_disabled": 0, "fusion_lon": 0.0, "bike_id": "7db5e95b2cf784d78ff57c92eb1ac388", "lon": -77.0396405, "rental_uris": {"ios": "https://dc.lft.to/lastmile_qr_scan", "android": "https://dc.lft.to/lastmile_qr_scan"}}, {"name": "81b4bf43dd2f7f5a8e36e72a3a389bde", "fusion_lat": 0.0, "type": "electric_scooter", "lat": 38.91336316666667, "is_reserved": 0, "is_disabled": 0, "fusion_lon": 0.0, "bike_id": "81b4bf43dd2f7f5a8e36e72a3a389bde", "lon": -77.03126133333333, "rental_uris": {"ios": "https://dc.lft.to/lastmile_qr_scan", "android": "https://dc.lft.to/lastmile_qr_scan"}}, {"name": "b66651ec6a026f923bfd7436f5dbdc47", "fusion_lat": 0.0, "type": "electric_scooter", "lat": 38.9223835, "is_reserved": 0, "is_disabled": 0, "fusion_lon": 0.0, "bike_id": "b66651ec6a026f923bfd7436f5dbdc47", "lon": -77.03663116666667, "rental_uris": {"ios": "https://dc.lft.to/lastmile_qr_scan", "android": "https://dc.lft.to/lastmile_qr_scan"}}, {"name": "a53b866f89854e6af8b2c7ebba8f98b1", "fusion_lat": 0.0, "type": "electric_scooter", "lat": 38.92338933333333, "is_reserved": 0, "is_disabled": 0, "fusion_lon": 0.0, "bike_id": "a53b866f89854e6af8b2c7ebba8f98b1", "lon": -77.03663016666667, "rental_uris": {"ios": "https://dc.lft.to/lastmile_qr_scan", "android": "https://dc.lft.to/lastmile_qr_scan"}}, {"name": "1aa4d46dc336f0299afb3832bb800e07", "fusion_lat": 0.0, "type": "electric_scooter", "lat": 38.8954965, "is_reserved": 0, "is_disabled": 0, "fusion_lon": 0.0, "bike_id": "1aa4d46dc336f0299afb3832bb800e07", "lon": -77.01101716666666, "rental_uris": {"ios": "https://dc.lft.to/lastmile_qr_scan", "android": "https://dc.lft.to/lastmile_qr_scan"}}, {"name": "845d7164729b285d62c3d56932b65ebb", "fusion_lat": 0.0, "type": "electric_scooter", "lat": 38.9124165, "is_reserved": 0, "is_disabled": 0, "fusion_lon": 0.0, "bike_id": "845d7164729b285d62c3d56932b65ebb", "lon": -77.04870166666667, "rental_uris": {"ios": "https://dc.lft.to/lastmile_qr_scan", "android": "https://dc.lft.to/lastmile_qr_scan"}}, {"name": "bbc8f1529698b964eb859ff8272aae2d", "fusion_lat": 0.0, "type": "electric_scooter", "lat": 38.91771583333333, "is_reserved": 0, "is_disabled": 0, "fusion_lon": 0.0, "bike_id": "bbc8f1529698b964eb859ff8272aae2d", "lon": -77.02959266666667, "rental_uris": {"ios": "https://dc.lft.to/lastmile_qr_scan", "android": "https://dc.lft.to/lastmile_qr_scan"}}, {"name": "cf1b8f93e193e2d3de627bee45daee76", "fusion_lat": 0.0, "type": "electric_scooter", "lat": 38.932048333333334, "is_reserved": 0, "is_disabled": 0, "fusion_lon": 0.0, "bike_id": "cf1b8f93e193e2d3de627bee45daee76", "lon": -77.02728316666666, "rental_uris": {"ios": "https://dc.lft.to/lastmile_qr_scan", "android": "https://dc.lft.to/lastmile_qr_scan"}}, {"name": "656309bfc5dd3ca96008d6b819cfbb7e", "fusion_lat": 0.0, "type": "electric_bike", "lat": 38.9682905, "is_reserved": 0, "is_disabled": 0, "fusion_lon": 0.0, "bike_id": "656309bfc5dd3ca96008d6b819cfbb7e", "lon": -77.0333895, "rental_uris": {"ios": "https://dc.lft.to/lastmile_qr_scan", "android": "https://dc.lft.to/lastmile_qr_scan"}}, {"name": "e7e292941437773c596b2308708d7609", "fusion_lat": 0.0, "type": "electric_scooter", "lat": 38.8989055, "is_reserved": 0, "is_disabled": 0, "fusion_lon": 0.0, "bike_id": "e7e292941437773c596b2308708d7609", "lon": -77.03944083333333, "rental_uris": {"ios": "https://dc.lft.to/lastmile_qr_scan", "android": "https://dc.lft.to/lastmile_qr_scan"}}, {"name": "7bf816572c93173367a0e91485d727c5", "fusion_lat": 0.0, "type": "electric_scooter", "lat": 38.8749495, "is_reserved": 0, "is_disabled": 0, "fusion_lon": 0.0, "bike_id": "7bf816572c93173367a0e91485d727c5", "lon": -77.0017735, "rental_uris": {"ios": "https://dc.lft.to/lastmile_qr_scan", "android": "https://dc.lft.to/lastmile_qr_scan"}}, {"name": "f12db55470823f69428f19c95fc1f1ad", "fusion_lat": 0.0, "type": "electric_scooter", "lat": 38.899412, "is_reserved": 0, "is_disabled": 0, "fusion_lon": 0.0, "bike_id": "f12db55470823f69428f19c95fc1f1ad", "lon": -77.03114033333334, "rental_uris": {"ios": "https://dc.lft.to/lastmile_qr_scan", "android": "https://dc.lft.to/lastmile_qr_scan"}}, {"name": "c69635410bb52407643f1bb39c754794", "fusion_lat": 0.0, "type": "electric_scooter", "lat": 38.89597766666667, "is_reserved": 0, "is_disabled": 0, "fusion_lon": 0.0, "bike_id": "c69635410bb52407643f1bb39c754794", "lon": -77.046842, "rental_uris": {"ios": "https://dc.lft.to/lastmile_qr_scan", "android": "https://dc.lft.to/lastmile_qr_scan"}}, {"name": "b95c821123e71c1db5ad6bc6afd55850", "fusion_lat": 0.0, "type": "electric_scooter", "lat": 38.902980666666664, "is_reserved": 0, "is_disabled": 0, "fusion_lon": 0.0, "bike_id": "b95c821123e71c1db5ad6bc6afd55850", "lon": -77.04170583333334, "rental_uris": {"ios": "https://dc.lft.to/lastmile_qr_scan", "android": "https://dc.lft.to/lastmile_qr_scan"}}, {"name": "ab013911489002cd6d5aa60c7f4db6c7", "fusion_lat": 0.0, "type": "electric_bike", "lat": 38.8840525, "is_reserved": 0, "is_disabled": 0, "fusion_lon": 0.0, "bike_id": "ab013911489002cd6d5aa60c7f4db6c7", "lon": -76.96061133333333, "rental_uris": {"ios": "https://dc.lft.to/lastmile_qr_scan", "android": "https://dc.lft.to/lastmile_qr_scan"}}, {"name": "9e410ff881eb30dad961358fbb002f7f", "fusion_lat": 0.0, "type": "electric_scooter", "lat": 38.91014966666667, "is_reserved": 0, "is_disabled": 0, "fusion_lon": 0.0, "bike_id": "9e410ff881eb30dad961358fbb002f7f", "lon": -76.99674566666667, "rental_uris": {"ios": "https://dc.lft.to/lastmile_qr_scan", "android": "https://dc.lft.to/lastmile_qr_scan"}}, {"name": "44653874c330f7221b1430b10fb7b2fb", "fusion_lat": 0.0, "type": "electric_scooter", "lat": 38.93703683333333, "is_reserved": 0, "is_disabled": 0, "fusion_lon": 0.0, "bike_id": "44653874c330f7221b1430b10fb7b2fb", "lon": -77.06102016666667, "rental_uris": {"ios": "https://dc.lft.to/lastmile_qr_scan", "android": "https://dc.lft.to/lastmile_qr_scan"}}, {"name": "882b6886008d359eee9f22059aa538a9", "fusion_lat": 0.0, "type": "electric_scooter", "lat": 38.90046366666667, "is_reserved": 0, "is_disabled": 0, "fusion_lon": 0.0, "bike_id": "882b6886008d359eee9f22059aa538a9", "lon": -77.04846933333333, "rental_uris": {"ios": "https://dc.lft.to/lastmile_qr_scan", "android": "https://dc.lft.to/lastmile_qr_scan"}}, {"name": "3352af626e3a9d6c3d185cfc586e18c9", "fusion_lat": 0.0, "type": "electric_scooter", "lat": 38.913927666666666, "is_reserved": 0, "is_disabled": 0, "fusion_lon": 0.0, "bike_id": "3352af626e3a9d6c3d185cfc586e18c9", "lon": -77.04169766666666, "rental_uris": {"ios": "https://dc.lft.to/lastmile_qr_scan", "android": "https://dc.lft.to/lastmile_qr_scan"}}, {"name": "7926c2b3fd8150c8991f1bcf7e75d641", "fusion_lat": 0.0, "type": "electric_scooter", "lat": 38.900401333333335, "is_reserved": 0, "is_disabled": 0, "fusion_lon": 0.0, "bike_id": "7926c2b3fd8150c8991f1bcf7e75d641", "lon": -76.98840983333334, "rental_uris": {"ios": "https://dc.lft.to/lastmile_qr_scan", "android": "https://dc.lft.to/lastmile_qr_scan"}}, {"name": "3e471123e9d7571595fc0abca16ac5d3", "fusion_lat": 0.0, "type": "electric_scooter", "lat": 38.879198833333334, "is_reserved": 0, "is_disabled": 0, "fusion_lon": 0.0, "bike_id": "3e471123e9d7571595fc0abca16ac5d3", "lon": -76.995112, "rental_uris": {"ios": "https://dc.lft.to/lastmile_qr_scan", "android": "https://dc.lft.to/lastmile_qr_scan"}}, {"name": "2e2c73c7a21e909abb4dd5374189b8a9", "fusion_lat": 0.0, "type": "electric_scooter", "lat": 38.91804533333333, "is_reserved": 0, "is_disabled": 0, "fusion_lon": 0.0, "bike_id": "2e2c73c7a21e909abb4dd5374189b8a9", "lon": -77.02499016666667, "rental_uris": {"ios": "https://dc.lft.to/lastmile_qr_scan", "android": "https://dc.lft.to/lastmile_qr_scan"}}, {"name": "6a497043caca097d9c790d234caaffcf", "fusion_lat": 0.0, "type": "electric_bike", "lat": 39.024177, "is_reserved": 0, "is_disabled": 0, "fusion_lon": 0.0, "bike_id": "6a497043caca097d9c790d234caaffcf", "lon": -77.125074, "rental_uris": {"ios": "https://dc.lft.to/lastmile_qr_scan", "android": "https://dc.lft.to/lastmile_qr_scan"}}, {"name": "0660df495046c5e1221f4bbfaed9f58e", "fusion_lat": 0.0, "type": "electric_scooter", "lat": 38.892219, "is_reserved": 0, "is_disabled": 0, "fusion_lon": 0.0, "bike_id": "0660df495046c5e1221f4bbfaed9f58e", "lon": -77.039816, "rental_uris": {"ios": "https://dc.lft.to/lastmile_qr_scan", "android": "https://dc.lft.to/lastmile_qr_scan"}}, {"name": "ee8567b5127966d4fb6e3c7078fe614f", "fusion_lat": 0.0, "type": "electric_scooter", "lat": 38.8815305, "is_reserved": 0, "is_disabled": 0, "fusion_lon": 0.0, "bike_id": "ee8567b5127966d4fb6e3c7078fe614f", "lon": -77.01668933333333, "rental_uris": {"ios": "https://dc.lft.to/lastmile_qr_scan", "android": "https://dc.lft.to/lastmile_qr_scan"}}, {"name": "10ef124e7e84968f9e0c8bd9550a1e97", "fusion_lat": 0.0, "type": "electric_scooter", "lat": 38.89604333333333, "is_reserved": 0, "is_disabled": 0, "fusion_lon": 0.0, "bike_id": "10ef124e7e84968f9e0c8bd9550a1e97", "lon": -77.0413315, "rental_uris": {"ios": "https://dc.lft.to/lastmile_qr_scan", "android": "https://dc.lft.to/lastmile_qr_scan"}}, {"name": "f9eba719e29fe66305bcdca6a789b59c", "fusion_lat": 0.0, "type": "electric_scooter", "lat": 38.896058833333335, "is_reserved": 0, "is_disabled": 0, "fusion_lon": 0.0, "bike_id": "f9eba719e29fe66305bcdca6a789b59c", "lon": -77.04762183333334, "rental_uris": {"ios": "https://dc.lft.to/lastmile_qr_scan", "android": "https://dc.lft.to/lastmile_qr_scan"}}, {"name": "0f0fc44213784612edc73f98a36ac7b9", "fusion_lat": 0.0, "type": "electric_scooter", "lat": 38.902620166666665, "is_reserved": 0, "is_disabled": 0, "fusion_lon": 0.0, "bike_id": "0f0fc44213784612edc73f98a36ac7b9", "lon": -77.01760566666667, "rental_uris": {"ios": "https://dc.lft.to/lastmile_qr_scan", "android": "https://dc.lft.to/lastmile_qr_scan"}}, {"name": "8c8613f2fea6d90e8a834d1e27b62220", "fusion_lat": 0.0, "type": "electric_scooter", "lat": 38.89568, "is_reserved": 0, "is_disabled": 0, "fusion_lon": 0.0, "bike_id": "8c8613f2fea6d90e8a834d1e27b62220", "lon": -77.01353233333333, "rental_uris": {"ios": "https://dc.lft.to/lastmile_qr_scan", "android": "https://dc.lft.to/lastmile_qr_scan"}}, {"name": "7edc51b808bdaa39082a2560d6aebb06", "fusion_lat": 0.0, "type": "electric_scooter", "lat": 38.90851383333333, "is_reserved": 0, "is_disabled": 0, "fusion_lon": 0.0, "bike_id": "7edc51b808bdaa39082a2560d6aebb06", "lon": -77.04512583333333, "rental_uris": {"ios": "https://dc.lft.to/lastmile_qr_scan", "android": "https://dc.lft.to/lastmile_qr_scan"}}, {"name": "88424fc7154242c7e164bb73819d35b6", "fusion_lat": 0.0, "type": "electric_scooter", "lat": 38.91561333333333, "is_reserved": 0, "is_disabled": 0, "fusion_lon": 0.0, "bike_id": "88424fc7154242c7e164bb73819d35b6", "lon": -77.03897916666666, "rental_uris": {"ios": "https://dc.lft.to/lastmile_qr_scan", "android": "https://dc.lft.to/lastmile_qr_scan"}}, {"name": "9439e7d816e86bcf57e43d6232afa913", "fusion_lat": 0.0, "type": "electric_scooter", "lat": 38.959072666666664, "is_reserved": 0, "is_disabled": 0, "fusion_lon": 0.0, "bike_id": "9439e7d816e86bcf57e43d6232afa913", "lon": -77.0807995, "rental_uris": {"ios": "https://dc.lft.to/lastmile_qr_scan", "android": "https://dc.lft.to/lastmile_qr_scan"}}, {"name": "d4752ca17cc5460bf5a9a3c63e10cec8", "fusion_lat": 0.0, "type": "electric_bike", "lat": 38.80791033333333, "is_reserved": 0, "is_disabled": 0, "fusion_lon": 0.0, "bike_id": "d4752ca17cc5460bf5a9a3c63e10cec8", "lon": -77.1296235, "rental_uris": {"ios": "https://dc.lft.to/lastmile_qr_scan", "android": "https://dc.lft.to/lastmile_qr_scan"}}, {"name": "04cc84f73e76c539fc90cb7c9a352002", "fusion_lat": 0.0, "type": "electric_bike", "lat": 38.852089, "is_reserved": 0, "is_disabled": 0, "fusion_lon": 0.0, "bike_id": "04cc84f73e76c539fc90cb7c9a352002", "lon": -77.0464565, "rental_uris": {"ios": "https://dc.lft.to/lastmile_qr_scan", "android": "https://dc.lft.to/lastmile_qr_scan"}}, {"name": "64d3a38a0e51aa02080270b70ab7e460", "fusion_lat": 0.0, "type": "electric_scooter", "lat": 38.89410066666667, "is_reserved": 0, "is_disabled": 0, "fusion_lon": 0.0, "bike_id": "64d3a38a0e51aa02080270b70ab7e460", "lon": -76.932402, "rental_uris": {"ios": "https://dc.lft.to/lastmile_qr_scan", "android": "https://dc.lft.to/lastmile_qr_scan"}}, {"name": "a1a8b05834407206deb46c62db2b314d", "fusion_lat": 0.0, "type": "electric_bike", "lat": 38.93130383333333, "is_reserved": 0, "is_disabled": 0, "fusion_lon": 0.0, "bike_id": "a1a8b05834407206deb46c62db2b314d", "lon": -77.02031716666667, "rental_uris": {"ios": "https://dc.lft.to/lastmile_qr_scan", "android": "https://dc.lft.to/lastmile_qr_scan"}}, {"name": "5942006778973f3fe177aa0e43e9e769", "fusion_lat": 0.0, "type": "electric_scooter", "lat": 38.93201916666666, "is_reserved": 0, "is_disabled": 0, "fusion_lon": 0.0, "bike_id": "5942006778973f3fe177aa0e43e9e769", "lon": -77.03656533333333, "rental_uris": {"ios": "https://dc.lft.to/lastmile_qr_scan", "android": "https://dc.lft.to/lastmile_qr_scan"}}, {"name": "2cd484a3ebdf894cb8559081c0ec47f2", "fusion_lat": 0.0, "type": "electric_scooter", "lat": 38.906203, "is_reserved": 0, "is_disabled": 0, "fusion_lon": 0.0, "bike_id": "2cd484a3ebdf894cb8559081c0ec47f2", "lon": -77.00585766666667, "rental_uris": {"ios": "https://dc.lft.to/lastmile_qr_scan", "android": "https://dc.lft.to/lastmile_qr_scan"}}, {"name": "e11d95d358bd5c1230a0b0acee640bc0", "fusion_lat": 0.0, "type": "electric_scooter", "lat": 38.9041845, "is_reserved": 0, "is_disabled": 0, "fusion_lon": 0.0, "bike_id": "e11d95d358bd5c1230a0b0acee640bc0", "lon": -76.990745, "rental_uris": {"ios": "https://dc.lft.to/lastmile_qr_scan", "android": "https://dc.lft.to/lastmile_qr_scan"}}, {"name": "443d2499de86e2df64dcb7e7907b37d3", "fusion_lat": 0.0, "type": "electric_scooter", "lat": 38.87802533333333, "is_reserved": 0, "is_disabled": 0, "fusion_lon": 0.0, "bike_id": "443d2499de86e2df64dcb7e7907b37d3", "lon": -77.00582083333333, "rental_uris": {"ios": "https://dc.lft.to/lastmile_qr_scan", "android": "https://dc.lft.to/lastmile_qr_scan"}}, {"name": "7c3a3ca4a29365a3c9bfad298a00fcca", "fusion_lat": 0.0, "type": "electric_scooter", "lat": 38.85659416666667, "is_reserved": 0, "is_disabled": 0, "fusion_lon": 0.0, "bike_id": "7c3a3ca4a29365a3c9bfad298a00fcca", "lon": -76.99088216666667, "rental_uris": {"ios": "https://dc.lft.to/lastmile_qr_scan", "android": "https://dc.lft.to/lastmile_qr_scan"}}, {"name": "40df74d22da16b435448e4df48e8923f", "fusion_lat": 0.0, "type": "electric_bike", "lat": 38.9571525, "is_reserved": 0, "is_disabled": 0, "fusion_lon": 0.0, "bike_id": "40df74d22da16b435448e4df48e8923f", "lon": -77.0147495, "rental_uris": {"ios": "https://dc.lft.to/lastmile_qr_scan", "android": "https://dc.lft.to/lastmile_qr_scan"}}, {"name": "f556b6342a64ee3515b91f14c465779d", "fusion_lat": 0.0, "type": "electric_scooter", "lat": 38.92770133333333, "is_reserved": 0, "is_disabled": 0, "fusion_lon": 0.0, "bike_id": "f556b6342a64ee3515b91f14c465779d", "lon": -77.02786366666666, "rental_uris": {"ios": "https://dc.lft.to/lastmile_qr_scan", "android": "https://dc.lft.to/lastmile_qr_scan"}}, {"name": "53f77358897439c085e4a25a0917f0a7", "fusion_lat": 0.0, "type": "electric_scooter", "lat": 38.94701666666667, "is_reserved": 0, "is_disabled": 0, "fusion_lon": 0.0, "bike_id": "53f77358897439c085e4a25a0917f0a7", "lon": -77.01942166666667, "rental_uris": {"ios": "https://dc.lft.to/lastmile_qr_scan", "android": "https://dc.lft.to/lastmile_qr_scan"}}, {"name": "2243787694b2e856e984970b01948a84", "fusion_lat": 0.0, "type": "electric_bike", "lat": 39.0037695, "is_reserved": 0, "is_disabled": 0, "fusion_lon": 0.0, "bike_id": "2243787694b2e856e984970b01948a84", "lon": -77.01296166666667, "rental_uris": {"ios": "https://dc.lft.to/lastmile_qr_scan", "android": "https://dc.lft.to/lastmile_qr_scan"}}, {"name": "11b75168b22377a04f9db77568eb5b0f", "fusion_lat": 0.0, "type": "electric_scooter", "lat": 38.9236725, "is_reserved": 0, "is_disabled": 0, "fusion_lon": 0.0, "bike_id": "11b75168b22377a04f9db77568eb5b0f", "lon": -77.03162416666666, "rental_uris": {"ios": "https://dc.lft.to/lastmile_qr_scan", "android": "https://dc.lft.to/lastmile_qr_scan"}}, {"name": "d540ee674e8305b24d389c7958527057", "fusion_lat": 0.0, "type": "electric_scooter", "lat": 38.930649333333335, "is_reserved": 0, "is_disabled": 0, "fusion_lon": 0.0, "bike_id": "d540ee674e8305b24d389c7958527057", "lon": -77.023301, "rental_uris": {"ios": "https://dc.lft.to/lastmile_qr_scan", "android": "https://dc.lft.to/lastmile_qr_scan"}}, {"name": "248168eed31329a0ac38670d80975fff", "fusion_lat": 0.0, "type": "electric_scooter", "lat": 38.92355516666667, "is_reserved": 0, "is_disabled": 0, "fusion_lon": 0.0, "bike_id": "248168eed31329a0ac38670d80975fff", "lon": -77.054393, "rental_uris": {"ios": "https://dc.lft.to/lastmile_qr_scan", "android": "https://dc.lft.to/lastmile_qr_scan"}}, {"name": "1b1f9f7eef671bb1c5d18ccdcfa36934", "fusion_lat": 0.0, "type": "electric_scooter", "lat": 38.89675366666667, "is_reserved": 0, "is_disabled": 0, "fusion_lon": 0.0, "bike_id": "1b1f9f7eef671bb1c5d18ccdcfa36934", "lon": -77.05025283333333, "rental_uris": {"ios": "https://dc.lft.to/lastmile_qr_scan", "android": "https://dc.lft.to/lastmile_qr_scan"}}, {"name": "99c4f10f4f955a9d3f76898a29a80af3", "fusion_lat": 0.0, "type": "electric_bike", "lat": 38.863867, "is_reserved": 0, "is_disabled": 0, "fusion_lon": 0.0, "bike_id": "99c4f10f4f955a9d3f76898a29a80af3", "lon": -76.9899075, "rental_uris": {"ios": "https://dc.lft.to/lastmile_qr_scan", "android": "https://dc.lft.to/lastmile_qr_scan"}}, {"name": "7c0311cf71b50a13f4b9cd3e06d5c95b", "fusion_lat": 0.0, "type": "electric_scooter", "lat": 38.914880833333335, "is_reserved": 0, "is_disabled": 0, "fusion_lon": 0.0, "bike_id": "7c0311cf71b50a13f4b9cd3e06d5c95b", "lon": -77.03259933333334, "rental_uris": {"ios": "https://dc.lft.to/lastmile_qr_scan", "android": "https://dc.lft.to/lastmile_qr_scan"}}, {"name": "103993587cfa9c44364b4b1ac099791f", "fusion_lat": 0.0, "type": "electric_scooter", "lat": 38.9198655, "is_reserved": 0, "is_disabled": 0, "fusion_lon": 0.0, "bike_id": "103993587cfa9c44364b4b1ac099791f", "lon": -77.033261, "rental_uris": {"ios": "https://dc.lft.to/lastmile_qr_scan", "android": "https://dc.lft.to/lastmile_qr_scan"}}, {"name": "fe94b372c7fd964fd8bb11d585183a91", "fusion_lat": 0.0, "type": "electric_scooter", "lat": 38.9035295, "is_reserved": 0, "is_disabled": 0, "fusion_lon": 0.0, "bike_id": "fe94b372c7fd964fd8bb11d585183a91", "lon": -77.01106533333333, "rental_uris": {"ios": "https://dc.lft.to/lastmile_qr_scan", "android": "https://dc.lft.to/lastmile_qr_scan"}}, {"name": "31d57e03d2680a39c1365b6d85999e4c", "fusion_lat": 0.0, "type": "electric_scooter", "lat": 38.874170166666666, "is_reserved": 0, "is_disabled": 0, "fusion_lon": 0.0, "bike_id": "31d57e03d2680a39c1365b6d85999e4c", "lon": -76.9718575, "rental_uris": {"ios": "https://dc.lft.to/lastmile_qr_scan", "android": "https://dc.lft.to/lastmile_qr_scan"}}, {"name": "522bee3ff2d5569b875da2e445bcab36", "fusion_lat": 0.0, "type": "electric_bike", "lat": 38.94900583333333, "is_reserved": 0, "is_disabled": 0, "fusion_lon": 0.0, "bike_id": "522bee3ff2d5569b875da2e445bcab36", "lon": -76.96371833333333, "rental_uris": {"ios": "https://dc.lft.to/lastmile_qr_scan", "android": "https://dc.lft.to/lastmile_qr_scan"}}, {"name": "b7c902c21c6bc5de25f41e6614f40982", "fusion_lat": 0.0, "type": "electric_scooter", "lat": 38.91841183333333, "is_reserved": 0, "is_disabled": 0, "fusion_lon": 0.0, "bike_id": "b7c902c21c6bc5de25f41e6614f40982", "lon": -77.026067, "rental_uris": {"ios": "https://dc.lft.to/lastmile_qr_scan", "android": "https://dc.lft.to/lastmile_qr_scan"}}, {"name": "8b9bb02075c8f2183ada3779ea922a3c", "fusion_lat": 0.0, "type": "electric_scooter", "lat": 38.88371433333333, "is_reserved": 0, "is_disabled": 0, "fusion_lon": 0.0, "bike_id": "8b9bb02075c8f2183ada3779ea922a3c", "lon": -77.01950766666667, "rental_uris": {"ios": "https://dc.lft.to/lastmile_qr_scan", "android": "https://dc.lft.to/lastmile_qr_scan"}}, {"name": "de96b049538f695d903e0c5a4883d9dc", "fusion_lat": 0.0, "type": "electric_scooter", "lat": 38.91810816666667, "is_reserved": 0, "is_disabled": 0, "fusion_lon": 0.0, "bike_id": "de96b049538f695d903e0c5a4883d9dc", "lon": -77.031745, "rental_uris": {"ios": "https://dc.lft.to/lastmile_qr_scan", "android": "https://dc.lft.to/lastmile_qr_scan"}}, {"name": "8436744fa3acb3934426cf24ee0a1942", "fusion_lat": 0.0, "type": "electric_scooter", "lat": 38.905440666666664, "is_reserved": 0, "is_disabled": 0, "fusion_lon": 0.0, "bike_id": "8436744fa3acb3934426cf24ee0a1942", "lon": -77.04513433333334, "rental_uris": {"ios": "https://dc.lft.to/lastmile_qr_scan", "android": "https://dc.lft.to/lastmile_qr_scan"}}, {"name": "eb11c1271377392b2250f946cdf98348", "fusion_lat": 0.0, "type": "electric_scooter", "lat": 38.941738666666666, "is_reserved": 0, "is_disabled": 0, "fusion_lon": 0.0, "bike_id": "eb11c1271377392b2250f946cdf98348", "lon": -77.0414145, "rental_uris": {"ios": "https://dc.lft.to/lastmile_qr_scan", "android": "https://dc.lft.to/lastmile_qr_scan"}}, {"name": "4773ff9658b99519ee3c1ede99fa6737", "fusion_lat": 0.0, "type": "electric_scooter", "lat": 38.90052433333334, "is_reserved": 0, "is_disabled": 0, "fusion_lon": 0.0, "bike_id": "4773ff9658b99519ee3c1ede99fa6737", "lon": -76.94751966666666, "rental_uris": {"ios": "https://dc.lft.to/lastmile_qr_scan", "android": "https://dc.lft.to/lastmile_qr_scan"}}, {"name": "9c9ff5d7efec3b420035e58196059236", "fusion_lat": 0.0, "type": "electric_scooter", "lat": 38.90219416666667, "is_reserved": 0, "is_disabled": 0, "fusion_lon": 0.0, "bike_id": "9c9ff5d7efec3b420035e58196059236", "lon": -77.04067483333333, "rental_uris": {"ios": "https://dc.lft.to/lastmile_qr_scan", "android": "https://dc.lft.to/lastmile_qr_scan"}}, {"name": "286091e3dd48ec51eded26b03ccfd82c", "fusion_lat": 0.0, "type": "electric_bike", "lat": 38.81937516666667, "is_reserved": 0, "is_disabled": 0, "fusion_lon": 0.0, "bike_id": "286091e3dd48ec51eded26b03ccfd82c", "lon": -77.0020725, "rental_uris": {"ios": "https://dc.lft.to/lastmile_qr_scan", "android": "https://dc.lft.to/lastmile_qr_scan"}}, {"name": "59dc7f397d026f59739b03a0382fed70", "fusion_lat": 0.0, "type": "electric_scooter", "lat": 38.926724666666665, "is_reserved": 0, "is_disabled": 0, "fusion_lon": 0.0, "bike_id": "59dc7f397d026f59739b03a0382fed70", "lon": -77.01463283333334, "rental_uris": {"ios": "https://dc.lft.to/lastmile_qr_scan", "android": "https://dc.lft.to/lastmile_qr_scan"}}, {"name": "d7f90d8efce6c668bd3ff95b99f15e5d", "fusion_lat": 0.0, "type": "electric_bike", "lat": 38.96532966666667, "is_reserved": 0, "is_disabled": 0, "fusion_lon": 0.0, "bike_id": "d7f90d8efce6c668bd3ff95b99f15e5d", "lon": -77.0351865, "rental_uris": {"ios": "https://dc.lft.to/lastmile_qr_scan", "android": "https://dc.lft.to/lastmile_qr_scan"}}, {"name": "50404f7fdf7f5b48498601d346ca42d8", "fusion_lat": 0.0, "type": "electric_scooter", "lat": 38.903125833333334, "is_reserved": 0, "is_disabled": 0, "fusion_lon": 0.0, "bike_id": "50404f7fdf7f5b48498601d346ca42d8", "lon": -77.05328283333333, "rental_uris": {"ios": "https://dc.lft.to/lastmile_qr_scan", "android": "https://dc.lft.to/lastmile_qr_scan"}}, {"name": "56a8dc4b937306a95b929dabbad1a328", "fusion_lat": 0.0, "type": "electric_scooter", "lat": 38.8949015, "is_reserved": 0, "is_disabled": 0, "fusion_lon": 0.0, "bike_id": "56a8dc4b937306a95b929dabbad1a328", "lon": -77.010174, "rental_uris": {"ios": "https://dc.lft.to/lastmile_qr_scan", "android": "https://dc.lft.to/lastmile_qr_scan"}}, {"name": "7bbc5984d1949d1be274a29823007a5f", "fusion_lat": 0.0, "type": "electric_scooter", "lat": 38.910427166666665, "is_reserved": 0, "is_disabled": 0, "fusion_lon": 0.0, "bike_id": "7bbc5984d1949d1be274a29823007a5f", "lon": -77.02822683333333, "rental_uris": {"ios": "https://dc.lft.to/lastmile_qr_scan", "android": "https://dc.lft.to/lastmile_qr_scan"}}, {"name": "cf9d848f3e59d62e5f3ed0058f069dee", "fusion_lat": 0.0, "type": "electric_scooter", "lat": 38.90705166666667, "is_reserved": 0, "is_disabled": 0, "fusion_lon": 0.0, "bike_id": "cf9d848f3e59d62e5f3ed0058f069dee", "lon": -76.98704283333333, "rental_uris": {"ios": "https://dc.lft.to/lastmile_qr_scan", "android": "https://dc.lft.to/lastmile_qr_scan"}}, {"name": "59b16f63a0996ffcdaca886227cd927e", "fusion_lat": 0.0, "type": "electric_bike", "lat": 38.93019266666667, "is_reserved": 0, "is_disabled": 0, "fusion_lon": 0.0, "bike_id": "59b16f63a0996ffcdaca886227cd927e", "lon": -77.03797983333334, "rental_uris": {"ios": "https://dc.lft.to/lastmile_qr_scan", "android": "https://dc.lft.to/lastmile_qr_scan"}}, {"name": "b9f1ee863f93175aea3ddfa38c41a428", "fusion_lat": 0.0, "type": "electric_scooter", "lat": 38.91559083333333, "is_reserved": 0, "is_disabled": 0, "fusion_lon": 0.0, "bike_id": "b9f1ee863f93175aea3ddfa38c41a428", "lon": -77.04282416666666, "rental_uris": {"ios": "https://dc.lft.to/lastmile_qr_scan", "android": "https://dc.lft.to/lastmile_qr_scan"}}, {"name": "6bc1691725617069d5dc9b395ef41985", "fusion_lat": 0.0, "type": "electric_scooter", "lat": 38.894413166666666, "is_reserved": 0, "is_disabled": 0, "fusion_lon": 0.0, "bike_id": "6bc1691725617069d5dc9b395ef41985", "lon": -77.01095433333333, "rental_uris": {"ios": "https://dc.lft.to/lastmile_qr_scan", "android": "https://dc.lft.to/lastmile_qr_scan"}}, {"name": "4756ce9c4765b1139bc3c6fe5bc92b6f", "fusion_lat": 0.0, "type": "electric_bike", "lat": 38.86374383333333, "is_reserved": 0, "is_disabled": 0, "fusion_lon": 0.0, "bike_id": "4756ce9c4765b1139bc3c6fe5bc92b6f", "lon": -77.12901916666667, "rental_uris": {"ios": "https://dc.lft.to/lastmile_qr_scan", "android": "https://dc.lft.to/lastmile_qr_scan"}}, {"name": "f8372a44ada02ee0f0e9aa6b9bbd64f3", "fusion_lat": 0.0, "type": "electric_scooter", "lat": 38.9187305, "is_reserved": 0, "is_disabled": 0, "fusion_lon": 0.0, "bike_id": "f8372a44ada02ee0f0e9aa6b9bbd64f3", "lon": -77.04487816666666, "rental_uris": {"ios": "https://dc.lft.to/lastmile_qr_scan", "android": "https://dc.lft.to/lastmile_qr_scan"}}, {"name": "c93a2371118adfe28a24ffbbf48aa36c", "fusion_lat": 0.0, "type": "electric_scooter", "lat": 38.912437833333335, "is_reserved": 0, "is_disabled": 0, "fusion_lon": 0.0, "bike_id": "c93a2371118adfe28a24ffbbf48aa36c", "lon": -77.03216516666667, "rental_uris": {"ios": "https://dc.lft.to/lastmile_qr_scan", "android": "https://dc.lft.to/lastmile_qr_scan"}}, {"name": "3aee1ab98a881bf45d60110314f6653a", "fusion_lat": 0.0, "type": "electric_scooter", "lat": 38.9262465, "is_reserved": 0, "is_disabled": 0, "fusion_lon": 0.0, "bike_id": "3aee1ab98a881bf45d60110314f6653a", "lon": -77.03790916666667, "rental_uris": {"ios": "https://dc.lft.to/lastmile_qr_scan", "android": "https://dc.lft.to/lastmile_qr_scan"}}, {"name": "9d71c1baf9e7a946ccf8bee8c6589f90", "fusion_lat": 0.0, "type": "electric_scooter", "lat": 38.920104, "is_reserved": 0, "is_disabled": 0, "fusion_lon": 0.0, "bike_id": "9d71c1baf9e7a946ccf8bee8c6589f90", "lon": -77.03126833333333, "rental_uris": {"ios": "https://dc.lft.to/lastmile_qr_scan", "android": "https://dc.lft.to/lastmile_qr_scan"}}, {"name": "83a80f1f8dcda7279aa0548aed1a2aa9", "fusion_lat": 0.0, "type": "electric_scooter", "lat": 38.91690116666667, "is_reserved": 0, "is_disabled": 0, "fusion_lon": 0.0, "bike_id": "83a80f1f8dcda7279aa0548aed1a2aa9", "lon": -77.0376605, "rental_uris": {"ios": "https://dc.lft.to/lastmile_qr_scan", "android": "https://dc.lft.to/lastmile_qr_scan"}}, {"name": "3d8ddabaf50f1812d97d1e4e318c77f0", "fusion_lat": 0.0, "type": "electric_scooter", "lat": 38.910615166666666, "is_reserved": 0, "is_disabled": 0, "fusion_lon": 0.0, "bike_id": "3d8ddabaf50f1812d97d1e4e318c77f0", "lon": -77.00860333333334, "rental_uris": {"ios": "https://dc.lft.to/lastmile_qr_scan", "android": "https://dc.lft.to/lastmile_qr_scan"}}, {"name": "058c2af5d0101bf687b8d073a69f0b49", "fusion_lat": 0.0, "type": "electric_scooter", "lat": 38.888281666666664, "is_reserved": 0, "is_disabled": 0, "fusion_lon": 0.0, "bike_id": "058c2af5d0101bf687b8d073a69f0b49", "lon": -77.04939266666666, "rental_uris": {"ios": "https://dc.lft.to/lastmile_qr_scan", "android": "https://dc.lft.to/lastmile_qr_scan"}}, {"name": "60cee1a3a941c32289c9f3276d566ea0", "fusion_lat": 0.0, "type": "electric_bike", "lat": 38.9708815, "is_reserved": 0, "is_disabled": 0, "fusion_lon": 0.0, "bike_id": "60cee1a3a941c32289c9f3276d566ea0", "lon": -77.0696265, "rental_uris": {"ios": "https://dc.lft.to/lastmile_qr_scan", "android": "https://dc.lft.to/lastmile_qr_scan"}}, {"name": "98efc44d8db3c52db9b2b5f53a2f47a7", "fusion_lat": 0.0, "type": "electric_bike", "lat": 38.915493, "is_reserved": 0, "is_disabled": 0, "fusion_lon": 0.0, "bike_id": "98efc44d8db3c52db9b2b5f53a2f47a7", "lon": -77.06760416666667, "rental_uris": {"ios": "https://dc.lft.to/lastmile_qr_scan", "android": "https://dc.lft.to/lastmile_qr_scan"}}, {"name": "d50be857698345fffdcab009b9e3552e", "fusion_lat": 0.0, "type": "electric_scooter", "lat": 38.919192833333334, "is_reserved": 0, "is_disabled": 0, "fusion_lon": 0.0, "bike_id": "d50be857698345fffdcab009b9e3552e", "lon": -77.0342275, "rental_uris": {"ios": "https://dc.lft.to/lastmile_qr_scan", "android": "https://dc.lft.to/lastmile_qr_scan"}}, {"name": "0276d326599c3efb29ec1aa9c227d59a", "fusion_lat": 0.0, "type": "electric_scooter", "lat": 38.89239883333333, "is_reserved": 0, "is_disabled": 0, "fusion_lon": 0.0, "bike_id": "0276d326599c3efb29ec1aa9c227d59a", "lon": -77.01522216666666, "rental_uris": {"ios": "https://dc.lft.to/lastmile_qr_scan", "android": "https://dc.lft.to/lastmile_qr_scan"}}, {"name": "2fa31b92248d847fb30bef0e190e46d6", "fusion_lat": 0.0, "type": "electric_scooter", "lat": 38.87914983333334, "is_reserved": 0, "is_disabled": 0, "fusion_lon": 0.0, "bike_id": "2fa31b92248d847fb30bef0e190e46d6", "lon": -77.02114533333334, "rental_uris": {"ios": "https://dc.lft.to/lastmile_qr_scan", "android": "https://dc.lft.to/lastmile_qr_scan"}}, {"name": "a7862a09f4628ac3a06f8db07faf61bf", "fusion_lat": 0.0, "type": "electric_scooter", "lat": 38.92720883333333, "is_reserved": 0, "is_disabled": 0, "fusion_lon": 0.0, "bike_id": "a7862a09f4628ac3a06f8db07faf61bf", "lon": -77.00572516666666, "rental_uris": {"ios": "https://dc.lft.to/lastmile_qr_scan", "android": "https://dc.lft.to/lastmile_qr_scan"}}, {"name": "4454d4be6bbfccf63fdbf966d3c151e0", "fusion_lat": 0.0, "type": "electric_bike", "lat": 39.0946295, "is_reserved": 0, "is_disabled": 0, "fusion_lon": 0.0, "bike_id": "4454d4be6bbfccf63fdbf966d3c151e0", "lon": -77.15002366666667, "rental_uris": {"ios": "https://dc.lft.to/lastmile_qr_scan", "android": "https://dc.lft.to/lastmile_qr_scan"}}, {"name": "f28fd4731c65c9afeb5604cba1686639", "fusion_lat": 0.0, "type": "electric_scooter", "lat": 38.8845625, "is_reserved": 0, "is_disabled": 0, "fusion_lon": 0.0, "bike_id": "f28fd4731c65c9afeb5604cba1686639", "lon": -76.924695, "rental_uris": {"ios": "https://dc.lft.to/lastmile_qr_scan", "android": "https://dc.lft.to/lastmile_qr_scan"}}, {"name": "dc3a452652d467d94bd5c35d8f68a622", "fusion_lat": 0.0, "type": "electric_scooter", "lat": 38.91818383333333, "is_reserved": 0, "is_disabled": 0, "fusion_lon": 0.0, "bike_id": "dc3a452652d467d94bd5c35d8f68a622", "lon": -77.02801366666667, "rental_uris": {"ios": "https://dc.lft.to/lastmile_qr_scan", "android": "https://dc.lft.to/lastmile_qr_scan"}}, {"name": "43399bca9222f80c24fcc652abdb2a43", "fusion_lat": 0.0, "type": "electric_scooter", "lat": 38.8991495, "is_reserved": 0, "is_disabled": 0, "fusion_lon": 0.0, "bike_id": "43399bca9222f80c24fcc652abdb2a43", "lon": -76.93371133333333, "rental_uris": {"ios": "https://dc.lft.to/lastmile_qr_scan", "android": "https://dc.lft.to/lastmile_qr_scan"}}, {"name": "b6f94eddb641c4829c7831312f8db6dd", "fusion_lat": 0.0, "type": "electric_scooter", "lat": 38.921076, "is_reserved": 0, "is_disabled": 0, "fusion_lon": 0.0, "bike_id": "b6f94eddb641c4829c7831312f8db6dd", "lon": -77.0317985, "rental_uris": {"ios": "https://dc.lft.to/lastmile_qr_scan", "android": "https://dc.lft.to/lastmile_qr_scan"}}, {"name": "171c1183c5f3d2c2b1473e3c092b3f8b", "fusion_lat": 0.0, "type": "electric_bike", "lat": 38.87526866666666, "is_reserved": 0, "is_disabled": 0, "fusion_lon": 0.0, "bike_id": "171c1183c5f3d2c2b1473e3c092b3f8b", "lon": -77.19908, "rental_uris": {"ios": "https://dc.lft.to/lastmile_qr_scan", "android": "https://dc.lft.to/lastmile_qr_scan"}}, {"name": "be72f14fcb2743b1c88b7ceddd2271c4", "fusion_lat": 0.0, "type": "electric_scooter", "lat": 38.89772266666667, "is_reserved": 0, "is_disabled": 0, "fusion_lon": 0.0, "bike_id": "be72f14fcb2743b1c88b7ceddd2271c4", "lon": -77.02978433333334, "rental_uris": {"ios": "https://dc.lft.to/lastmile_qr_scan", "android": "https://dc.lft.to/lastmile_qr_scan"}}, {"name": "1586f1033f54a076e1630645eea6d2ac", "fusion_lat": 0.0, "type": "electric_bike", "lat": 38.8579, "is_reserved": 0, "is_disabled": 0, "fusion_lon": 0.0, "bike_id": "1586f1033f54a076e1630645eea6d2ac", "lon": -77.099669, "rental_uris": {"ios": "https://dc.lft.to/lastmile_qr_scan", "android": "https://dc.lft.to/lastmile_qr_scan"}}, {"name": "2ca10ff544546e7bfe2480904dbf046c", "fusion_lat": 0.0, "type": "electric_scooter", "lat": 38.87608133333333, "is_reserved": 0, "is_disabled": 0, "fusion_lon": 0.0, "bike_id": "2ca10ff544546e7bfe2480904dbf046c", "lon": -77.00760566666666, "rental_uris": {"ios": "https://dc.lft.to/lastmile_qr_scan", "android": "https://dc.lft.to/lastmile_qr_scan"}}, {"name": "9445cc5549cb1112c569b227294cbc2b", "fusion_lat": 0.0, "type": "electric_scooter", "lat": 38.895069166666666, "is_reserved": 0, "is_disabled": 0, "fusion_lon": 0.0, "bike_id": "9445cc5549cb1112c569b227294cbc2b", "lon": -77.04683016666667, "rental_uris": {"ios": "https://dc.lft.to/lastmile_qr_scan", "android": "https://dc.lft.to/lastmile_qr_scan"}}, {"name": "03584a58b30c683dd8008aa309d177ce", "fusion_lat": 0.0, "type": "electric_scooter", "lat": 38.9026965, "is_reserved": 0, "is_disabled": 0, "fusion_lon": 0.0, "bike_id": "03584a58b30c683dd8008aa309d177ce", "lon": -77.0155255, "rental_uris": {"ios": "https://dc.lft.to/lastmile_qr_scan", "android": "https://dc.lft.to/lastmile_qr_scan"}}, {"name": "e0ce3939b89eafac0baf98b1eaa37e23", "fusion_lat": 0.0, "type": "electric_scooter", "lat": 38.90230433333333, "is_reserved": 0, "is_disabled": 0, "fusion_lon": 0.0, "bike_id": "e0ce3939b89eafac0baf98b1eaa37e23", "lon": -77.01715283333333, "rental_uris": {"ios": "https://dc.lft.to/lastmile_qr_scan", "android": "https://dc.lft.to/lastmile_qr_scan"}}, {"name": "1a2775742db1df9f5419aeacbac0a78c", "fusion_lat": 0.0, "type": "electric_bike", "lat": 38.937249333333334, "is_reserved": 0, "is_disabled": 0, "fusion_lon": 0.0, "bike_id": "1a2775742db1df9f5419aeacbac0a78c", "lon": -77.0268745, "rental_uris": {"ios": "https://dc.lft.to/lastmile_qr_scan", "android": "https://dc.lft.to/lastmile_qr_scan"}}, {"name": "cae7b291c7ebbba4388a452cd4fe4980", "fusion_lat": 0.0, "type": "electric_bike", "lat": 38.94276416666666, "is_reserved": 0, "is_disabled": 0, "fusion_lon": 0.0, "bike_id": "cae7b291c7ebbba4388a452cd4fe4980", "lon": -76.980743, "rental_uris": {"ios": "https://dc.lft.to/lastmile_qr_scan", "android": "https://dc.lft.to/lastmile_qr_scan"}}, {"name": "d3f5c77c509c3da31362a8addb43a15d", "fusion_lat": 0.0, "type": "electric_scooter", "lat": 38.9422555, "is_reserved": 0, "is_disabled": 0, "fusion_lon": 0.0, "bike_id": "d3f5c77c509c3da31362a8addb43a15d", "lon": -77.021616, "rental_uris": {"ios": "https://dc.lft.to/lastmile_qr_scan", "android": "https://dc.lft.to/lastmile_qr_scan"}}, {"name": "27d25d05817160492f53c84f5cc1d0d8", "fusion_lat": 0.0, "type": "electric_scooter", "lat": 38.9217785, "is_reserved": 0, "is_disabled": 0, "fusion_lon": 0.0, "bike_id": "27d25d05817160492f53c84f5cc1d0d8", "lon": -77.026619, "rental_uris": {"ios": "https://dc.lft.to/lastmile_qr_scan", "android": "https://dc.lft.to/lastmile_qr_scan"}}, {"name": "8db6c2b814672fdb8e561690ca7691b2", "fusion_lat": 0.0, "type": "electric_scooter", "lat": 38.89220316666667, "is_reserved": 0, "is_disabled": 0, "fusion_lon": 0.0, "bike_id": "8db6c2b814672fdb8e561690ca7691b2", "lon": -77.02229766666666, "rental_uris": {"ios": "https://dc.lft.to/lastmile_qr_scan", "android": "https://dc.lft.to/lastmile_qr_scan"}}, {"name": "2c9d8ce6a8ccccbf773601b57b2d96fe", "fusion_lat": 0.0, "type": "electric_scooter", "lat": 38.917822666666666, "is_reserved": 0, "is_disabled": 0, "fusion_lon": 0.0, "bike_id": "2c9d8ce6a8ccccbf773601b57b2d96fe", "lon": -77.023447, "rental_uris": {"ios": "https://dc.lft.to/lastmile_qr_scan", "android": "https://dc.lft.to/lastmile_qr_scan"}}, {"name": "75626d53cc5b5f920880a3a84db97bc5", "fusion_lat": 0.0, "type": "electric_bike", "lat": 38.87479916666667, "is_reserved": 0, "is_disabled": 0, "fusion_lon": 0.0, "bike_id": "75626d53cc5b5f920880a3a84db97bc5", "lon": -76.96525133333333, "rental_uris": {"ios": "https://dc.lft.to/lastmile_qr_scan", "android": "https://dc.lft.to/lastmile_qr_scan"}}, {"name": "13ff721c8ac8472d9b01238c4920c1b4", "fusion_lat": 0.0, "type": "electric_bike", "lat": 38.81224183333333, "is_reserved": 0, "is_disabled": 0, "fusion_lon": 0.0, "bike_id": "13ff721c8ac8472d9b01238c4920c1b4", "lon": -77.10421566666666, "rental_uris": {"ios": "https://dc.lft.to/lastmile_qr_scan", "android": "https://dc.lft.to/lastmile_qr_scan"}}, {"name": "c30c56bc4d60da19cab24020f6e88625", "fusion_lat": 0.0, "type": "electric_scooter", "lat": 38.88378683333333, "is_reserved": 0, "is_disabled": 0, "fusion_lon": 0.0, "bike_id": "c30c56bc4d60da19cab24020f6e88625", "lon": -77.0260155, "rental_uris": {"ios": "https://dc.lft.to/lastmile_qr_scan", "android": "https://dc.lft.to/lastmile_qr_scan"}}, {"name": "f433deba9ea41d1a5acec90225c6db17", "fusion_lat": 0.0, "type": "electric_scooter", "lat": 38.918025, "is_reserved": 0, "is_disabled": 0, "fusion_lon": 0.0, "bike_id": "f433deba9ea41d1a5acec90225c6db17", "lon": -77.02817333333333, "rental_uris": {"ios": "https://dc.lft.to/lastmile_qr_scan", "android": "https://dc.lft.to/lastmile_qr_scan"}}, {"name": "2d5f012515c8e6e318be792f3526ebfd", "fusion_lat": 0.0, "type": "electric_scooter", "lat": 38.92061283333334, "is_reserved": 0, "is_disabled": 0, "fusion_lon": 0.0, "bike_id": "2d5f012515c8e6e318be792f3526ebfd", "lon": -77.04256683333334, "rental_uris": {"ios": "https://dc.lft.to/lastmile_qr_scan", "android": "https://dc.lft.to/lastmile_qr_scan"}}, {"name": "8ac9d346786be726bb9c5887cf23e83d", "fusion_lat": 0.0, "type": "electric_scooter", "lat": 38.9274555, "is_reserved": 0, "is_disabled": 0, "fusion_lon": 0.0, "bike_id": "8ac9d346786be726bb9c5887cf23e83d", "lon": -77.034777, "rental_uris": {"ios": "https://dc.lft.to/lastmile_qr_scan", "android": "https://dc.lft.to/lastmile_qr_scan"}}, {"name": "18eebee75b01ed6aded7b09de9765157", "fusion_lat": 0.0, "type": "electric_scooter", "lat": 38.90716333333334, "is_reserved": 0, "is_disabled": 0, "fusion_lon": 0.0, "bike_id": "18eebee75b01ed6aded7b09de9765157", "lon": -77.0345485, "rental_uris": {"ios": "https://dc.lft.to/lastmile_qr_scan", "android": "https://dc.lft.to/lastmile_qr_scan"}}, {"name": "5e44c9c3e0d5c4a631be3835393504a6", "fusion_lat": 0.0, "type": "electric_scooter", "lat": 38.906984, "is_reserved": 0, "is_disabled": 0, "fusion_lon": 0.0, "bike_id": "5e44c9c3e0d5c4a631be3835393504a6", "lon": -77.02380183333334, "rental_uris": {"ios": "https://dc.lft.to/lastmile_qr_scan", "android": "https://dc.lft.to/lastmile_qr_scan"}}, {"name": "f480b9017fdb8e0a4064e87da64f81b5", "fusion_lat": 0.0, "type": "electric_scooter", "lat": 38.92057916666667, "is_reserved": 0, "is_disabled": 0, "fusion_lon": 0.0, "bike_id": "f480b9017fdb8e0a4064e87da64f81b5", "lon": -76.9988615, "rental_uris": {"ios": "https://dc.lft.to/lastmile_qr_scan", "android": "https://dc.lft.to/lastmile_qr_scan"}}, {"name": "51143af1712bf79718fa846b68556d98", "fusion_lat": 0.0, "type": "electric_scooter", "lat": 38.875795833333335, "is_reserved": 0, "is_disabled": 0, "fusion_lon": 0.0, "bike_id": "51143af1712bf79718fa846b68556d98", "lon": -77.01062116666667, "rental_uris": {"ios": "https://dc.lft.to/lastmile_qr_scan", "android": "https://dc.lft.to/lastmile_qr_scan"}}, {"name": "b65ca1bf30913e11f58de0192c60ec57", "fusion_lat": 0.0, "type": "electric_scooter", "lat": 38.866587333333335, "is_reserved": 0, "is_disabled": 0, "fusion_lon": 0.0, "bike_id": "b65ca1bf30913e11f58de0192c60ec57", "lon": -76.98886833333333, "rental_uris": {"ios": "https://dc.lft.to/lastmile_qr_scan", "android": "https://dc.lft.to/lastmile_qr_scan"}}, {"name": "9e995358deca99611f06f0c79b67c97a", "fusion_lat": 0.0, "type": "electric_scooter", "lat": 38.90579816666666, "is_reserved": 0, "is_disabled": 0, "fusion_lon": 0.0, "bike_id": "9e995358deca99611f06f0c79b67c97a", "lon": -77.0220895, "rental_uris": {"ios": "https://dc.lft.to/lastmile_qr_scan", "android": "https://dc.lft.to/lastmile_qr_scan"}}, {"name": "657e0936a0835483ef44026d06decf5e", "fusion_lat": 0.0, "type": "electric_scooter", "lat": 38.922403, "is_reserved": 0, "is_disabled": 0, "fusion_lon": 0.0, "bike_id": "657e0936a0835483ef44026d06decf5e", "lon": -77.03660833333333, "rental_uris": {"ios": "https://dc.lft.to/lastmile_qr_scan", "android": "https://dc.lft.to/lastmile_qr_scan"}}, {"name": "57eb67015580083c45f6cdb9591e1235", "fusion_lat": 0.0, "type": "electric_scooter", "lat": 38.8859635, "is_reserved": 0, "is_disabled": 0, "fusion_lon": 0.0, "bike_id": "57eb67015580083c45f6cdb9591e1235", "lon": -77.01981483333333, "rental_uris": {"ios": "https://dc.lft.to/lastmile_qr_scan", "android": "https://dc.lft.to/lastmile_qr_scan"}}, {"name": "fb5551ae6377339d481c40916da9409e", "fusion_lat": 0.0, "type": "electric_scooter", "lat": 38.906768666666665, "is_reserved": 0, "is_disabled": 0, "fusion_lon": 0.0, "bike_id": "fb5551ae6377339d481c40916da9409e", "lon": -77.03485116666667, "rental_uris": {"ios": "https://dc.lft.to/lastmile_qr_scan", "android": "https://dc.lft.to/lastmile_qr_scan"}}, {"name": "588f57cd9aa60e7a2ecf92a63a8f3e76", "fusion_lat": 0.0, "type": "electric_scooter", "lat": 38.880508666666664, "is_reserved": 0, "is_disabled": 0, "fusion_lon": 0.0, "bike_id": "588f57cd9aa60e7a2ecf92a63a8f3e76", "lon": -77.02484683333333, "rental_uris": {"ios": "https://dc.lft.to/lastmile_qr_scan", "android": "https://dc.lft.to/lastmile_qr_scan"}}, {"name": "79cb6f0afc0e691dc26921336c28e9a3", "fusion_lat": 0.0, "type": "electric_scooter", "lat": 38.87371666666667, "is_reserved": 0, "is_disabled": 0, "fusion_lon": 0.0, "bike_id": "79cb6f0afc0e691dc26921336c28e9a3", "lon": -77.00029816666667, "rental_uris": {"ios": "https://dc.lft.to/lastmile_qr_scan", "android": "https://dc.lft.to/lastmile_qr_scan"}}, {"name": "5151a2b8134317d0870cdddd525544b8", "fusion_lat": 0.0, "type": "electric_scooter", "lat": 38.9126995, "is_reserved": 0, "is_disabled": 0, "fusion_lon": 0.0, "bike_id": "5151a2b8134317d0870cdddd525544b8", "lon": -77.0295655, "rental_uris": {"ios": "https://dc.lft.to/lastmile_qr_scan", "android": "https://dc.lft.to/lastmile_qr_scan"}}, {"name": "741ae42d9bd40565f22dad65ca49b570", "fusion_lat": 0.0, "type": "electric_scooter", "lat": 38.911945833333334, "is_reserved": 0, "is_disabled": 0, "fusion_lon": 0.0, "bike_id": "741ae42d9bd40565f22dad65ca49b570", "lon": -77.01893066666666, "rental_uris": {"ios": "https://dc.lft.to/lastmile_qr_scan", "android": "https://dc.lft.to/lastmile_qr_scan"}}, {"name": "3093a1b99b6a7b04c4a985cd6820645c", "fusion_lat": 0.0, "type": "electric_scooter", "lat": 38.91705, "is_reserved": 0, "is_disabled": 0, "fusion_lon": 0.0, "bike_id": "3093a1b99b6a7b04c4a985cd6820645c", "lon": -77.0314155, "rental_uris": {"ios": "https://dc.lft.to/lastmile_qr_scan", "android": "https://dc.lft.to/lastmile_qr_scan"}}, {"name": "aafb2335d1847978fd5e35a2bda33252", "fusion_lat": 0.0, "type": "electric_scooter", "lat": 38.893559333333336, "is_reserved": 0, "is_disabled": 0, "fusion_lon": 0.0, "bike_id": "aafb2335d1847978fd5e35a2bda33252", "lon": -77.04664916666667, "rental_uris": {"ios": "https://dc.lft.to/lastmile_qr_scan", "android": "https://dc.lft.to/lastmile_qr_scan"}}, {"name": "5c0daaf4a7be7ab9ebc5b3bcfee3af0f", "fusion_lat": 0.0, "type": "electric_scooter", "lat": 38.910546333333336, "is_reserved": 0, "is_disabled": 0, "fusion_lon": 0.0, "bike_id": "5c0daaf4a7be7ab9ebc5b3bcfee3af0f", "lon": -77.045829, "rental_uris": {"ios": "https://dc.lft.to/lastmile_qr_scan", "android": "https://dc.lft.to/lastmile_qr_scan"}}, {"name": "35301c18c20a7bfe3d3c84a2b6689b88", "fusion_lat": 0.0, "type": "electric_scooter", "lat": 38.918869666666666, "is_reserved": 0, "is_disabled": 0, "fusion_lon": 0.0, "bike_id": "35301c18c20a7bfe3d3c84a2b6689b88", "lon": -77.04323883333333, "rental_uris": {"ios": "https://dc.lft.to/lastmile_qr_scan", "android": "https://dc.lft.to/lastmile_qr_scan"}}, {"name": "60e6674fe0d72d6e23db192d90963e16", "fusion_lat": 0.0, "type": "electric_scooter", "lat": 38.911226, "is_reserved": 0, "is_disabled": 0, "fusion_lon": 0.0, "bike_id": "60e6674fe0d72d6e23db192d90963e16", "lon": -77.02203433333334, "rental_uris": {"ios": "https://dc.lft.to/lastmile_qr_scan", "android": "https://dc.lft.to/lastmile_qr_scan"}}, {"name": "77b9b431d1e46f330da89a9a09ab73bd", "fusion_lat": 0.0, "type": "electric_scooter", "lat": 38.9126905, "is_reserved": 0, "is_disabled": 0, "fusion_lon": 0.0, "bike_id": "77b9b431d1e46f330da89a9a09ab73bd", "lon": -77.0386745, "rental_uris": {"ios": "https://dc.lft.to/lastmile_qr_scan", "android": "https://dc.lft.to/lastmile_qr_scan"}}, {"name": "db655f7199d7c98b38ca9c20ee245d35", "fusion_lat": 0.0, "type": "electric_scooter", "lat": 38.909558833333335, "is_reserved": 0, "is_disabled": 0, "fusion_lon": 0.0, "bike_id": "db655f7199d7c98b38ca9c20ee245d35", "lon": -77.0238005, "rental_uris": {"ios": "https://dc.lft.to/lastmile_qr_scan", "android": "https://dc.lft.to/lastmile_qr_scan"}}, {"name": "faba114057f6e099c4baa91752a0da6b", "fusion_lat": 0.0, "type": "electric_scooter", "lat": 38.9169655, "is_reserved": 0, "is_disabled": 0, "fusion_lon": 0.0, "bike_id": "faba114057f6e099c4baa91752a0da6b", "lon": -77.03136266666667, "rental_uris": {"ios": "https://dc.lft.to/lastmile_qr_scan", "android": "https://dc.lft.to/lastmile_qr_scan"}}, {"name": "d534957c1a488337bb526b9b9235924b", "fusion_lat": 0.0, "type": "electric_scooter", "lat": 38.906165666666666, "is_reserved": 0, "is_disabled": 0, "fusion_lon": 0.0, "bike_id": "d534957c1a488337bb526b9b9235924b", "lon": -77.02407716666667, "rental_uris": {"ios": "https://dc.lft.to/lastmile_qr_scan", "android": "https://dc.lft.to/lastmile_qr_scan"}}, {"name": "721db37c25d48bf76c2642e1f76de4c9", "fusion_lat": 0.0, "type": "electric_scooter", "lat": 38.91251483333333, "is_reserved": 0, "is_disabled": 0, "fusion_lon": 0.0, "bike_id": "721db37c25d48bf76c2642e1f76de4c9", "lon": -77.03841816666667, "rental_uris": {"ios": "https://dc.lft.to/lastmile_qr_scan", "android": "https://dc.lft.to/lastmile_qr_scan"}}, {"name": "d8bd2c37e3e4e59f428ff68dd9398275", "fusion_lat": 0.0, "type": "electric_scooter", "lat": 38.95273433333333, "is_reserved": 0, "is_disabled": 0, "fusion_lon": 0.0, "bike_id": "d8bd2c37e3e4e59f428ff68dd9398275", "lon": -77.071457, "rental_uris": {"ios": "https://dc.lft.to/lastmile_qr_scan", "android": "https://dc.lft.to/lastmile_qr_scan"}}, {"name": "13a230c7f313f0f740235149349a535a", "fusion_lat": 0.0, "type": "electric_bike", "lat": 38.9068515, "is_reserved": 0, "is_disabled": 0, "fusion_lon": 0.0, "bike_id": "13a230c7f313f0f740235149349a535a", "lon": -76.9518725, "rental_uris": {"ios": "https://dc.lft.to/lastmile_qr_scan", "android": "https://dc.lft.to/lastmile_qr_scan"}}, {"name": "d6d802a08642444aa78aff009cf4e720", "fusion_lat": 0.0, "type": "electric_scooter", "lat": 38.9035295, "is_reserved": 0, "is_disabled": 0, "fusion_lon": 0.0, "bike_id": "d6d802a08642444aa78aff009cf4e720", "lon": -77.01108366666666, "rental_uris": {"ios": "https://dc.lft.to/lastmile_qr_scan", "android": "https://dc.lft.to/lastmile_qr_scan"}}, {"name": "8d9925eba30d45bf4d9c244251d81e54", "fusion_lat": 0.0, "type": "electric_scooter", "lat": 38.8983115, "is_reserved": 0, "is_disabled": 0, "fusion_lon": 0.0, "bike_id": "8d9925eba30d45bf4d9c244251d81e54", "lon": -76.94569983333334, "rental_uris": {"ios": "https://dc.lft.to/lastmile_qr_scan", "android": "https://dc.lft.to/lastmile_qr_scan"}}, {"name": "7b71b9a5b8975e0f86fe16fbbfa1c22f", "fusion_lat": 0.0, "type": "electric_scooter", "lat": 38.902691, "is_reserved": 0, "is_disabled": 0, "fusion_lon": 0.0, "bike_id": "7b71b9a5b8975e0f86fe16fbbfa1c22f", "lon": -76.99857966666667, "rental_uris": {"ios": "https://dc.lft.to/lastmile_qr_scan", "android": "https://dc.lft.to/lastmile_qr_scan"}}, {"name": "ab67c693b56a152aa7c7f418f59c0840", "fusion_lat": 0.0, "type": "electric_bike", "lat": 38.9356495, "is_reserved": 0, "is_disabled": 0, "fusion_lon": 0.0, "bike_id": "ab67c693b56a152aa7c7f418f59c0840", "lon": -77.10446783333333, "rental_uris": {"ios": "https://dc.lft.to/lastmile_qr_scan", "android": "https://dc.lft.to/lastmile_qr_scan"}}, {"name": "630f78ed1383261fe403c1f2f3c31683", "fusion_lat": 0.0, "type": "electric_scooter", "lat": 38.886515333333335, "is_reserved": 0, "is_disabled": 0, "fusion_lon": 0.0, "bike_id": "630f78ed1383261fe403c1f2f3c31683", "lon": -77.01370633333333, "rental_uris": {"ios": "https://dc.lft.to/lastmile_qr_scan", "android": "https://dc.lft.to/lastmile_qr_scan"}}, {"name": "24972114332886a1f9d6df5f017c1710", "fusion_lat": 0.0, "type": "electric_scooter", "lat": 38.895256, "is_reserved": 0, "is_disabled": 0, "fusion_lon": 0.0, "bike_id": "24972114332886a1f9d6df5f017c1710", "lon": -77.04288416666667, "rental_uris": {"ios": "https://dc.lft.to/lastmile_qr_scan", "android": "https://dc.lft.to/lastmile_qr_scan"}}, {"name": "45d06a6cbf69430b2c983d7ba6f39c31", "fusion_lat": 0.0, "type": "electric_scooter", "lat": 38.918663333333335, "is_reserved": 0, "is_disabled": 0, "fusion_lon": 0.0, "bike_id": "45d06a6cbf69430b2c983d7ba6f39c31", "lon": -77.03678683333334, "rental_uris": {"ios": "https://dc.lft.to/lastmile_qr_scan", "android": "https://dc.lft.to/lastmile_qr_scan"}}, {"name": "87e3243c7d6c4ab03c496557e7b4312e", "fusion_lat": 0.0, "type": "electric_bike", "lat": 38.80226016666667, "is_reserved": 0, "is_disabled": 0, "fusion_lon": 0.0, "bike_id": "87e3243c7d6c4ab03c496557e7b4312e", "lon": -77.079171, "rental_uris": {"ios": "https://dc.lft.to/lastmile_qr_scan", "android": "https://dc.lft.to/lastmile_qr_scan"}}, {"name": "c92e554c66ccdc6dc17cbd5ee8c18e5a", "fusion_lat": 0.0, "type": "electric_scooter", "lat": 38.911018166666665, "is_reserved": 0, "is_disabled": 0, "fusion_lon": 0.0, "bike_id": "c92e554c66ccdc6dc17cbd5ee8c18e5a", "lon": -77.0106085, "rental_uris": {"ios": "https://dc.lft.to/lastmile_qr_scan", "android": "https://dc.lft.to/lastmile_qr_scan"}}, {"name": "2132b4876f189bfb41448f90ea4cd210", "fusion_lat": 0.0, "type": "electric_scooter", "lat": 38.905096666666665, "is_reserved": 0, "is_disabled": 0, "fusion_lon": 0.0, "bike_id": "2132b4876f189bfb41448f90ea4cd210", "lon": -77.06941983333333, "rental_uris": {"ios": "https://dc.lft.to/lastmile_qr_scan", "android": "https://dc.lft.to/lastmile_qr_scan"}}, {"name": "70fd545fcbd8ed71b0557fb57bdf8d8b", "fusion_lat": 0.0, "type": "electric_scooter", "lat": 38.89845416666667, "is_reserved": 0, "is_disabled": 0, "fusion_lon": 0.0, "bike_id": "70fd545fcbd8ed71b0557fb57bdf8d8b", "lon": -77.03306533333334, "rental_uris": {"ios": "https://dc.lft.to/lastmile_qr_scan", "android": "https://dc.lft.to/lastmile_qr_scan"}}, {"name": "8e484e1f7a8e488e33a0792665f90b06", "fusion_lat": 0.0, "type": "electric_scooter", "lat": 38.9053225, "is_reserved": 0, "is_disabled": 0, "fusion_lon": 0.0, "bike_id": "8e484e1f7a8e488e33a0792665f90b06", "lon": -77.0501575, "rental_uris": {"ios": "https://dc.lft.to/lastmile_qr_scan", "android": "https://dc.lft.to/lastmile_qr_scan"}}, {"name": "3255af08067b946882b79009611a18b1", "fusion_lat": 0.0, "type": "electric_scooter", "lat": 38.91781966666667, "is_reserved": 0, "is_disabled": 0, "fusion_lon": 0.0, "bike_id": "3255af08067b946882b79009611a18b1", "lon": -77.023523, "rental_uris": {"ios": "https://dc.lft.to/lastmile_qr_scan", "android": "https://dc.lft.to/lastmile_qr_scan"}}, {"name": "556f5c232a2857e314aa939ff1e7f128", "fusion_lat": 0.0, "type": "electric_scooter", "lat": 38.931049333333334, "is_reserved": 0, "is_disabled": 0, "fusion_lon": 0.0, "bike_id": "556f5c232a2857e314aa939ff1e7f128", "lon": -77.03839883333333, "rental_uris": {"ios": "https://dc.lft.to/lastmile_qr_scan", "android": "https://dc.lft.to/lastmile_qr_scan"}}, {"name": "69215bb9e856813981c805a2b14a1995", "fusion_lat": 0.0, "type": "electric_scooter", "lat": 38.905223666666664, "is_reserved": 0, "is_disabled": 0, "fusion_lon": 0.0, "bike_id": "69215bb9e856813981c805a2b14a1995", "lon": -77.029741, "rental_uris": {"ios": "https://dc.lft.to/lastmile_qr_scan", "android": "https://dc.lft.to/lastmile_qr_scan"}}, {"name": "eb975a2b1fb67dcc3741c728e6a251cb", "fusion_lat": 0.0, "type": "electric_scooter", "lat": 38.93937416666667, "is_reserved": 0, "is_disabled": 0, "fusion_lon": 0.0, "bike_id": "eb975a2b1fb67dcc3741c728e6a251cb", "lon": -77.0362915, "rental_uris": {"ios": "https://dc.lft.to/lastmile_qr_scan", "android": "https://dc.lft.to/lastmile_qr_scan"}}, {"name": "0f8d9957e1df57dafca15d48c403afcd", "fusion_lat": 0.0, "type": "electric_scooter", "lat": 38.906793666666665, "is_reserved": 0, "is_disabled": 0, "fusion_lon": 0.0, "bike_id": "0f8d9957e1df57dafca15d48c403afcd", "lon": -76.9800325, "rental_uris": {"ios": "https://dc.lft.to/lastmile_qr_scan", "android": "https://dc.lft.to/lastmile_qr_scan"}}, {"name": "fa6671558bd31acaa4f0d592dd813c5a", "fusion_lat": 0.0, "type": "electric_bike", "lat": 38.935471, "is_reserved": 0, "is_disabled": 0, "fusion_lon": 0.0, "bike_id": "fa6671558bd31acaa4f0d592dd813c5a", "lon": -77.08238533333333, "rental_uris": {"ios": "https://dc.lft.to/lastmile_qr_scan", "android": "https://dc.lft.to/lastmile_qr_scan"}}, {"name": "faf179f7bfd8096ec0283aeee18aa64b", "fusion_lat": 0.0, "type": "electric_scooter", "lat": 38.911906333333334, "is_reserved": 0, "is_disabled": 0, "fusion_lon": 0.0, "bike_id": "faf179f7bfd8096ec0283aeee18aa64b", "lon": -77.00722133333333, "rental_uris": {"ios": "https://dc.lft.to/lastmile_qr_scan", "android": "https://dc.lft.to/lastmile_qr_scan"}}, {"name": "7a84f9ce1517b2d9a68d6411399a3b35", "fusion_lat": 0.0, "type": "electric_bike", "lat": 38.88592, "is_reserved": 0, "is_disabled": 0, "fusion_lon": 0.0, "bike_id": "7a84f9ce1517b2d9a68d6411399a3b35", "lon": -77.00065183333334, "rental_uris": {"ios": "https://dc.lft.to/lastmile_qr_scan", "android": "https://dc.lft.to/lastmile_qr_scan"}}, {"name": "570d8d834e941ae3bc8c749a673b0109", "fusion_lat": 0.0, "type": "electric_scooter", "lat": 38.9104395, "is_reserved": 0, "is_disabled": 0, "fusion_lon": 0.0, "bike_id": "570d8d834e941ae3bc8c749a673b0109", "lon": -77.0413995, "rental_uris": {"ios": "https://dc.lft.to/lastmile_qr_scan", "android": "https://dc.lft.to/lastmile_qr_scan"}}, {"name": "31ce799466c71b9ac4b3e72275c1353c", "fusion_lat": 0.0, "type": "electric_scooter", "lat": 38.90455033333333, "is_reserved": 0, "is_disabled": 0, "fusion_lon": 0.0, "bike_id": "31ce799466c71b9ac4b3e72275c1353c", "lon": -76.98525416666666, "rental_uris": {"ios": "https://dc.lft.to/lastmile_qr_scan", "android": "https://dc.lft.to/lastmile_qr_scan"}}, {"name": "13f92fea2ddac9f9dfa31b4e31cbce9f", "fusion_lat": 0.0, "type": "electric_scooter", "lat": 38.94175633333333, "is_reserved": 0, "is_disabled": 0, "fusion_lon": 0.0, "bike_id": "13f92fea2ddac9f9dfa31b4e31cbce9f", "lon": -77.02513833333333, "rental_uris": {"ios": "https://dc.lft.to/lastmile_qr_scan", "android": "https://dc.lft.to/lastmile_qr_scan"}}, {"name": "4689585448165cde32a714f5f1638107", "fusion_lat": 0.0, "type": "electric_scooter", "lat": 38.90823533333333, "is_reserved": 0, "is_disabled": 0, "fusion_lon": 0.0, "bike_id": "4689585448165cde32a714f5f1638107", "lon": -77.043447, "rental_uris": {"ios": "https://dc.lft.to/lastmile_qr_scan", "android": "https://dc.lft.to/lastmile_qr_scan"}}, {"name": "a64f4ddee657a49df48fcc9ed82bb8c8", "fusion_lat": 0.0, "type": "electric_scooter", "lat": 38.92179633333333, "is_reserved": 0, "is_disabled": 0, "fusion_lon": 0.0, "bike_id": "a64f4ddee657a49df48fcc9ed82bb8c8", "lon": -77.024181, "rental_uris": {"ios": "https://dc.lft.to/lastmile_qr_scan", "android": "https://dc.lft.to/lastmile_qr_scan"}}, {"name": "bc532365e2b6062ade46898cf3dbff42", "fusion_lat": 0.0, "type": "electric_scooter", "lat": 38.876856, "is_reserved": 0, "is_disabled": 0, "fusion_lon": 0.0, "bike_id": "bc532365e2b6062ade46898cf3dbff42", "lon": -77.0075505, "rental_uris": {"ios": "https://dc.lft.to/lastmile_qr_scan", "android": "https://dc.lft.to/lastmile_qr_scan"}}, {"name": "674838800556e32e68af1fdde44b1420", "fusion_lat": 0.0, "type": "electric_bike", "lat": 38.854924833333335, "is_reserved": 0, "is_disabled": 0, "fusion_lon": 0.0, "bike_id": "674838800556e32e68af1fdde44b1420", "lon": -77.115243, "rental_uris": {"ios": "https://dc.lft.to/lastmile_qr_scan", "android": "https://dc.lft.to/lastmile_qr_scan"}}, {"name": "56556ad003370f45a1db37adb44eec2b", "fusion_lat": 0.0, "type": "electric_scooter", "lat": 38.93251133333333, "is_reserved": 0, "is_disabled": 0, "fusion_lon": 0.0, "bike_id": "56556ad003370f45a1db37adb44eec2b", "lon": -77.0328275, "rental_uris": {"ios": "https://dc.lft.to/lastmile_qr_scan", "android": "https://dc.lft.to/lastmile_qr_scan"}}, {"name": "e9ae683d579769eeda40b893e4ce6f0e", "fusion_lat": 0.0, "type": "electric_scooter", "lat": 38.908548333333336, "is_reserved": 0, "is_disabled": 0, "fusion_lon": 0.0, "bike_id": "e9ae683d579769eeda40b893e4ce6f0e", "lon": -77.02096216666666, "rental_uris": {"ios": "https://dc.lft.to/lastmile_qr_scan", "android": "https://dc.lft.to/lastmile_qr_scan"}}, {"name": "017d85422c6fcf2dc00f0fcbfa9f0d23", "fusion_lat": 0.0, "type": "electric_scooter", "lat": 38.89912483333333, "is_reserved": 0, "is_disabled": 0, "fusion_lon": 0.0, "bike_id": "017d85422c6fcf2dc00f0fcbfa9f0d23", "lon": -77.0709805, "rental_uris": {"ios": "https://dc.lft.to/lastmile_qr_scan", "android": "https://dc.lft.to/lastmile_qr_scan"}}, {"name": "865495f271e2e80abe560afe51f6d9df", "fusion_lat": 0.0, "type": "electric_scooter", "lat": 38.906264666666665, "is_reserved": 0, "is_disabled": 0, "fusion_lon": 0.0, "bike_id": "865495f271e2e80abe560afe51f6d9df", "lon": -77.051441, "rental_uris": {"ios": "https://dc.lft.to/lastmile_qr_scan", "android": "https://dc.lft.to/lastmile_qr_scan"}}, {"name": "9231e9bb139406c395fe5093cf1b7450", "fusion_lat": 0.0, "type": "electric_scooter", "lat": 38.907308, "is_reserved": 0, "is_disabled": 0, "fusion_lon": 0.0, "bike_id": "9231e9bb139406c395fe5093cf1b7450", "lon": -77.03455933333333, "rental_uris": {"ios": "https://dc.lft.to/lastmile_qr_scan", "android": "https://dc.lft.to/lastmile_qr_scan"}}, {"name": "fbb1374302f12ab0fb691207acfb1c2b", "fusion_lat": 0.0, "type": "electric_scooter", "lat": 38.93187866666667, "is_reserved": 0, "is_disabled": 0, "fusion_lon": 0.0, "bike_id": "fbb1374302f12ab0fb691207acfb1c2b", "lon": -77.02838666666666, "rental_uris": {"ios": "https://dc.lft.to/lastmile_qr_scan", "android": "https://dc.lft.to/lastmile_qr_scan"}}, {"name": "6516db01d6bb7f821016e78f6aa55267", "fusion_lat": 0.0, "type": "electric_bike", "lat": 38.84844116666667, "is_reserved": 0, "is_disabled": 0, "fusion_lon": 0.0, "bike_id": "6516db01d6bb7f821016e78f6aa55267", "lon": -77.08047316666666, "rental_uris": {"ios": "https://dc.lft.to/lastmile_qr_scan", "android": "https://dc.lft.to/lastmile_qr_scan"}}, {"name": "50fd6b398c6c1322dfa100d979367f5d", "fusion_lat": 0.0, "type": "electric_scooter", "lat": 38.90729133333333, "is_reserved": 0, "is_disabled": 0, "fusion_lon": 0.0, "bike_id": "50fd6b398c6c1322dfa100d979367f5d", "lon": -77.02970933333333, "rental_uris": {"ios": "https://dc.lft.to/lastmile_qr_scan", "android": "https://dc.lft.to/lastmile_qr_scan"}}, {"name": "ef6b66c0a64227499f195b00adcd5a1e", "fusion_lat": 0.0, "type": "electric_scooter", "lat": 38.905619333333334, "is_reserved": 0, "is_disabled": 0, "fusion_lon": 0.0, "bike_id": "ef6b66c0a64227499f195b00adcd5a1e", "lon": -77.02214683333334, "rental_uris": {"ios": "https://dc.lft.to/lastmile_qr_scan", "android": "https://dc.lft.to/lastmile_qr_scan"}}, {"name": "4782b5222edb7625cdb498e97ba939f7", "fusion_lat": 0.0, "type": "electric_scooter", "lat": 38.93970433333333, "is_reserved": 0, "is_disabled": 0, "fusion_lon": 0.0, "bike_id": "4782b5222edb7625cdb498e97ba939f7", "lon": -77.03556533333334, "rental_uris": {"ios": "https://dc.lft.to/lastmile_qr_scan", "android": "https://dc.lft.to/lastmile_qr_scan"}}, {"name": "223fd607816783c897133427e6bf800a", "fusion_lat": 0.0, "type": "electric_bike", "lat": 38.91267666666667, "is_reserved": 0, "is_disabled": 0, "fusion_lon": 0.0, "bike_id": "223fd607816783c897133427e6bf800a", "lon": -77.0304495, "rental_uris": {"ios": "https://dc.lft.to/lastmile_qr_scan", "android": "https://dc.lft.to/lastmile_qr_scan"}}, {"name": "437b75f3e464f9e7380083e7adc957b8", "fusion_lat": 0.0, "type": "electric_scooter", "lat": 38.88740416666667, "is_reserved": 0, "is_disabled": 0, "fusion_lon": 0.0, "bike_id": "437b75f3e464f9e7380083e7adc957b8", "lon": -77.02136816666666, "rental_uris": {"ios": "https://dc.lft.to/lastmile_qr_scan", "android": "https://dc.lft.to/lastmile_qr_scan"}}, {"name": "f9a2dddbda27f982fbecde402b734eef", "fusion_lat": 0.0, "type": "electric_scooter", "lat": 38.92531266666667, "is_reserved": 0, "is_disabled": 0, "fusion_lon": 0.0, "bike_id": "f9a2dddbda27f982fbecde402b734eef", "lon": -77.05560716666666, "rental_uris": {"ios": "https://dc.lft.to/lastmile_qr_scan", "android": "https://dc.lft.to/lastmile_qr_scan"}}, {"name": "b60789cc05685f57ecdb7249a438bfec", "fusion_lat": 0.0, "type": "electric_bike", "lat": 38.88151366666666, "is_reserved": 0, "is_disabled": 0, "fusion_lon": 0.0, "bike_id": "b60789cc05685f57ecdb7249a438bfec", "lon": -77.016983, "rental_uris": {"ios": "https://dc.lft.to/lastmile_qr_scan", "android": "https://dc.lft.to/lastmile_qr_scan"}}, {"name": "18d74af08189be1c6f824a5676437beb", "fusion_lat": 0.0, "type": "electric_scooter", "lat": 38.89967816666667, "is_reserved": 0, "is_disabled": 0, "fusion_lon": 0.0, "bike_id": "18d74af08189be1c6f824a5676437beb", "lon": -76.93965233333333, "rental_uris": {"ios": "https://dc.lft.to/lastmile_qr_scan", "android": "https://dc.lft.to/lastmile_qr_scan"}}, {"name": "982b2249bc6b30aabe9702719f62eae7", "fusion_lat": 0.0, "type": "electric_scooter", "lat": 38.903322, "is_reserved": 0, "is_disabled": 0, "fusion_lon": 0.0, "bike_id": "982b2249bc6b30aabe9702719f62eae7", "lon": -77.06544133333334, "rental_uris": {"ios": "https://dc.lft.to/lastmile_qr_scan", "android": "https://dc.lft.to/lastmile_qr_scan"}}, {"name": "cd6da4309bff42b952b5dd107bf7cd75", "fusion_lat": 0.0, "type": "electric_scooter", "lat": 38.89758883333333, "is_reserved": 0, "is_disabled": 0, "fusion_lon": 0.0, "bike_id": "cd6da4309bff42b952b5dd107bf7cd75", "lon": -77.03115016666666, "rental_uris": {"ios": "https://dc.lft.to/lastmile_qr_scan", "android": "https://dc.lft.to/lastmile_qr_scan"}}, {"name": "5544fc66ab9800731becf86542f9f451", "fusion_lat": 0.0, "type": "electric_scooter", "lat": 38.8842895, "is_reserved": 0, "is_disabled": 0, "fusion_lon": 0.0, "bike_id": "5544fc66ab9800731becf86542f9f451", "lon": -76.9575585, "rental_uris": {"ios": "https://dc.lft.to/lastmile_qr_scan", "android": "https://dc.lft.to/lastmile_qr_scan"}}, {"name": "351bedf46c36ac4165df6df49fea4cb9", "fusion_lat": 0.0, "type": "electric_scooter", "lat": 38.85709766666667, "is_reserved": 0, "is_disabled": 0, "fusion_lon": 0.0, "bike_id": "351bedf46c36ac4165df6df49fea4cb9", "lon": -76.98131516666666, "rental_uris": {"ios": "https://dc.lft.to/lastmile_qr_scan", "android": "https://dc.lft.to/lastmile_qr_scan"}}, {"name": "b4308ecba7831838348c16a76730ef7c", "fusion_lat": 0.0, "type": "electric_scooter", "lat": 38.90543016666667, "is_reserved": 0, "is_disabled": 0, "fusion_lon": 0.0, "bike_id": "b4308ecba7831838348c16a76730ef7c", "lon": -77.00246516666667, "rental_uris": {"ios": "https://dc.lft.to/lastmile_qr_scan", "android": "https://dc.lft.to/lastmile_qr_scan"}}, {"name": "c041ad06f6f1231d677df989766bff2c", "fusion_lat": 0.0, "type": "electric_scooter", "lat": 38.8959585, "is_reserved": 0, "is_disabled": 0, "fusion_lon": 0.0, "bike_id": "c041ad06f6f1231d677df989766bff2c", "lon": -76.94866983333333, "rental_uris": {"ios": "https://dc.lft.to/lastmile_qr_scan", "android": "https://dc.lft.to/lastmile_qr_scan"}}, {"name": "3da09b72284b35e7e765a2268e3a9656", "fusion_lat": 0.0, "type": "electric_bike", "lat": 38.896497, "is_reserved": 0, "is_disabled": 0, "fusion_lon": 0.0, "bike_id": "3da09b72284b35e7e765a2268e3a9656", "lon": -77.104528, "rental_uris": {"ios": "https://dc.lft.to/lastmile_qr_scan", "android": "https://dc.lft.to/lastmile_qr_scan"}}, {"name": "4ea4efc6135ed7f3b6afb19001ad218c", "fusion_lat": 0.0, "type": "electric_scooter", "lat": 38.9154245, "is_reserved": 0, "is_disabled": 0, "fusion_lon": 0.0, "bike_id": "4ea4efc6135ed7f3b6afb19001ad218c", "lon": -77.03850416666667, "rental_uris": {"ios": "https://dc.lft.to/lastmile_qr_scan", "android": "https://dc.lft.to/lastmile_qr_scan"}}, {"name": "32ce99d652a156f41afb6f9c774ae296", "fusion_lat": 0.0, "type": "electric_scooter", "lat": 38.923556166666664, "is_reserved": 0, "is_disabled": 0, "fusion_lon": 0.0, "bike_id": "32ce99d652a156f41afb6f9c774ae296", "lon": -77.05057466666666, "rental_uris": {"ios": "https://dc.lft.to/lastmile_qr_scan", "android": "https://dc.lft.to/lastmile_qr_scan"}}, {"name": "94ee66dca2816634bb1b628a596ac0c7", "fusion_lat": 0.0, "type": "electric_bike", "lat": 38.868673, "is_reserved": 0, "is_disabled": 0, "fusion_lon": 0.0, "bike_id": "94ee66dca2816634bb1b628a596ac0c7", "lon": -76.91664083333333, "rental_uris": {"ios": "https://dc.lft.to/lastmile_qr_scan", "android": "https://dc.lft.to/lastmile_qr_scan"}}, {"name": "8b7ca74046f13a2ab2c63622d51a5c36", "fusion_lat": 0.0, "type": "electric_scooter", "lat": 38.874711, "is_reserved": 0, "is_disabled": 0, "fusion_lon": 0.0, "bike_id": "8b7ca74046f13a2ab2c63622d51a5c36", "lon": -77.01060733333334, "rental_uris": {"ios": "https://dc.lft.to/lastmile_qr_scan", "android": "https://dc.lft.to/lastmile_qr_scan"}}, {"name": "5901824bafb90fca9b6ed148dbff02ff", "fusion_lat": 0.0, "type": "electric_scooter", "lat": 38.921773333333334, "is_reserved": 0, "is_disabled": 0, "fusion_lon": 0.0, "bike_id": "5901824bafb90fca9b6ed148dbff02ff", "lon": -77.02419566666667, "rental_uris": {"ios": "https://dc.lft.to/lastmile_qr_scan", "android": "https://dc.lft.to/lastmile_qr_scan"}}, {"name": "186f72b53c4fc94cb7730ce159312dee", "fusion_lat": 0.0, "type": "electric_scooter", "lat": 38.907907333333334, "is_reserved": 0, "is_disabled": 0, "fusion_lon": 0.0, "bike_id": "186f72b53c4fc94cb7730ce159312dee", "lon": -77.0384255, "rental_uris": {"ios": "https://dc.lft.to/lastmile_qr_scan", "android": "https://dc.lft.to/lastmile_qr_scan"}}, {"name": "283ab02af55c97fc9484804e55d2dcf2", "fusion_lat": 0.0, "type": "electric_scooter", "lat": 38.916927, "is_reserved": 0, "is_disabled": 0, "fusion_lon": 0.0, "bike_id": "283ab02af55c97fc9484804e55d2dcf2", "lon": -77.0393825, "rental_uris": {"ios": "https://dc.lft.to/lastmile_qr_scan", "android": "https://dc.lft.to/lastmile_qr_scan"}}, {"name": "6be8aba23bf05a30ea377472906e5f2a", "fusion_lat": 0.0, "type": "electric_scooter", "lat": 38.91422166666667, "is_reserved": 0, "is_disabled": 0, "fusion_lon": 0.0, "bike_id": "6be8aba23bf05a30ea377472906e5f2a", "lon": -77.00974033333334, "rental_uris": {"ios": "https://dc.lft.to/lastmile_qr_scan", "android": "https://dc.lft.to/lastmile_qr_scan"}}, {"name": "2db8bd9efdd0ef0af2e27365b7d0db60", "fusion_lat": 0.0, "type": "electric_scooter", "lat": 38.91884533333333, "is_reserved": 0, "is_disabled": 0, "fusion_lon": 0.0, "bike_id": "2db8bd9efdd0ef0af2e27365b7d0db60", "lon": -77.03507066666667, "rental_uris": {"ios": "https://dc.lft.to/lastmile_qr_scan", "android": "https://dc.lft.to/lastmile_qr_scan"}}, {"name": "bfd5920892f2c0e2aad63961d85d11be", "fusion_lat": 0.0, "type": "electric_scooter", "lat": 38.91868233333334, "is_reserved": 0, "is_disabled": 0, "fusion_lon": 0.0, "bike_id": "bfd5920892f2c0e2aad63961d85d11be", "lon": -77.073462, "rental_uris": {"ios": "https://dc.lft.to/lastmile_qr_scan", "android": "https://dc.lft.to/lastmile_qr_scan"}}, {"name": "f94c8b9f35a2ef66b99c0ccc95768f49", "fusion_lat": 0.0, "type": "electric_scooter", "lat": 38.92650183333333, "is_reserved": 0, "is_disabled": 0, "fusion_lon": 0.0, "bike_id": "f94c8b9f35a2ef66b99c0ccc95768f49", "lon": -77.0332105, "rental_uris": {"ios": "https://dc.lft.to/lastmile_qr_scan", "android": "https://dc.lft.to/lastmile_qr_scan"}}, {"name": "a2ef55d617aa40d173e6ebfb72ad163f", "fusion_lat": 0.0, "type": "electric_scooter", "lat": 38.915626333333336, "is_reserved": 0, "is_disabled": 0, "fusion_lon": 0.0, "bike_id": "a2ef55d617aa40d173e6ebfb72ad163f", "lon": -77.0324245, "rental_uris": {"ios": "https://dc.lft.to/lastmile_qr_scan", "android": "https://dc.lft.to/lastmile_qr_scan"}}, {"name": "7a046b17ec523f3536cbda4fe4847522", "fusion_lat": 0.0, "type": "electric_bike", "lat": 38.9067925, "is_reserved": 0, "is_disabled": 0, "fusion_lon": 0.0, "bike_id": "7a046b17ec523f3536cbda4fe4847522", "lon": -77.06375816666667, "rental_uris": {"ios": "https://dc.lft.to/lastmile_qr_scan", "android": "https://dc.lft.to/lastmile_qr_scan"}}, {"name": "5053adcd5dc414d862c7d8901a0c5329", "fusion_lat": 0.0, "type": "electric_scooter", "lat": 38.90976883333333, "is_reserved": 0, "is_disabled": 0, "fusion_lon": 0.0, "bike_id": "5053adcd5dc414d862c7d8901a0c5329", "lon": -77.03867616666666, "rental_uris": {"ios": "https://dc.lft.to/lastmile_qr_scan", "android": "https://dc.lft.to/lastmile_qr_scan"}}, {"name": "a1b0b95efb5cdf070093a0a74de0ea69", "fusion_lat": 0.0, "type": "electric_scooter", "lat": 38.887676666666664, "is_reserved": 0, "is_disabled": 0, "fusion_lon": 0.0, "bike_id": "a1b0b95efb5cdf070093a0a74de0ea69", "lon": -76.98025516666667, "rental_uris": {"ios": "https://dc.lft.to/lastmile_qr_scan", "android": "https://dc.lft.to/lastmile_qr_scan"}}, {"name": "8798361f1ebcee77a1810d96d6acf000", "fusion_lat": 0.0, "type": "electric_bike", "lat": 38.87079466666667, "is_reserved": 0, "is_disabled": 0, "fusion_lon": 0.0, "bike_id": "8798361f1ebcee77a1810d96d6acf000", "lon": -77.110561, "rental_uris": {"ios": "https://dc.lft.to/lastmile_qr_scan", "android": "https://dc.lft.to/lastmile_qr_scan"}}, {"name": "b84a949a1c05fb76d42aade25fc3d167", "fusion_lat": 0.0, "type": "electric_scooter", "lat": 38.91765616666667, "is_reserved": 0, "is_disabled": 0, "fusion_lon": 0.0, "bike_id": "b84a949a1c05fb76d42aade25fc3d167", "lon": -77.01765816666666, "rental_uris": {"ios": "https://dc.lft.to/lastmile_qr_scan", "android": "https://dc.lft.to/lastmile_qr_scan"}}, {"name": "012f8c47065fab3bbc7f895d5ab1a87b", "fusion_lat": 0.0, "type": "electric_scooter", "lat": 38.87749916666667, "is_reserved": 0, "is_disabled": 0, "fusion_lon": 0.0, "bike_id": "012f8c47065fab3bbc7f895d5ab1a87b", "lon": -76.97242283333334, "rental_uris": {"ios": "https://dc.lft.to/lastmile_qr_scan", "android": "https://dc.lft.to/lastmile_qr_scan"}}, {"name": "1a5e791ea01758af67f18bb4e6bef80b", "fusion_lat": 0.0, "type": "electric_scooter", "lat": 38.897271333333336, "is_reserved": 0, "is_disabled": 0, "fusion_lon": 0.0, "bike_id": "1a5e791ea01758af67f18bb4e6bef80b", "lon": -77.04729033333334, "rental_uris": {"ios": "https://dc.lft.to/lastmile_qr_scan", "android": "https://dc.lft.to/lastmile_qr_scan"}}, {"name": "2a4599fe9031027601f1a209fa820a1c", "fusion_lat": 0.0, "type": "electric_scooter", "lat": 38.90133266666667, "is_reserved": 0, "is_disabled": 0, "fusion_lon": 0.0, "bike_id": "2a4599fe9031027601f1a209fa820a1c", "lon": -77.039824, "rental_uris": {"ios": "https://dc.lft.to/lastmile_qr_scan", "android": "https://dc.lft.to/lastmile_qr_scan"}}, {"name": "de6ce159fba644f8eb9e1fdcec0ad68d", "fusion_lat": 0.0, "type": "electric_scooter", "lat": 38.889859333333334, "is_reserved": 0, "is_disabled": 0, "fusion_lon": 0.0, "bike_id": "de6ce159fba644f8eb9e1fdcec0ad68d", "lon": -77.00124966666667, "rental_uris": {"ios": "https://dc.lft.to/lastmile_qr_scan", "android": "https://dc.lft.to/lastmile_qr_scan"}}, {"name": "0a56191f6365d93e7814d85d894f6e77", "fusion_lat": 0.0, "type": "electric_scooter", "lat": 38.9483195, "is_reserved": 0, "is_disabled": 0, "fusion_lon": 0.0, "bike_id": "0a56191f6365d93e7814d85d894f6e77", "lon": -77.025575, "rental_uris": {"ios": "https://dc.lft.to/lastmile_qr_scan", "android": "https://dc.lft.to/lastmile_qr_scan"}}, {"name": "4d54e4d5b26228037ed8fa1190babc5c", "fusion_lat": 0.0, "type": "electric_scooter", "lat": 38.928859333333335, "is_reserved": 0, "is_disabled": 0, "fusion_lon": 0.0, "bike_id": "4d54e4d5b26228037ed8fa1190babc5c", "lon": -77.05451916666667, "rental_uris": {"ios": "https://dc.lft.to/lastmile_qr_scan", "android": "https://dc.lft.to/lastmile_qr_scan"}}, {"name": "bd9acac90479d479058df975fb2dadb8", "fusion_lat": 0.0, "type": "electric_scooter", "lat": 38.92725933333333, "is_reserved": 0, "is_disabled": 0, "fusion_lon": 0.0, "bike_id": "bd9acac90479d479058df975fb2dadb8", "lon": -77.0714565, "rental_uris": {"ios": "https://dc.lft.to/lastmile_qr_scan", "android": "https://dc.lft.to/lastmile_qr_scan"}}, {"name": "9d36052751b9873f28940073d365e780", "fusion_lat": 0.0, "type": "electric_bike", "lat": 38.883458, "is_reserved": 0, "is_disabled": 0, "fusion_lon": 0.0, "bike_id": "9d36052751b9873f28940073d365e780", "lon": -77.18285916666666, "rental_uris": {"ios": "https://dc.lft.to/lastmile_qr_scan", "android": "https://dc.lft.to/lastmile_qr_scan"}}, {"name": "94f44bf4a14ccd284b92fba826854c00", "fusion_lat": 0.0, "type": "electric_scooter", "lat": 38.9200455, "is_reserved": 0, "is_disabled": 0, "fusion_lon": 0.0, "bike_id": "94f44bf4a14ccd284b92fba826854c00", "lon": -77.08190733333333, "rental_uris": {"ios": "https://dc.lft.to/lastmile_qr_scan", "android": "https://dc.lft.to/lastmile_qr_scan"}}, {"name": "dcb6206ebc211582a37da33668ded8f5", "fusion_lat": 0.0, "type": "electric_scooter", "lat": 38.91391433333333, "is_reserved": 0, "is_disabled": 0, "fusion_lon": 0.0, "bike_id": "dcb6206ebc211582a37da33668ded8f5", "lon": -77.04168083333333, "rental_uris": {"ios": "https://dc.lft.to/lastmile_qr_scan", "android": "https://dc.lft.to/lastmile_qr_scan"}}, {"name": "103e9dfb8eb5843fe7cd72f39542e188", "fusion_lat": 0.0, "type": "electric_scooter", "lat": 38.89372683333333, "is_reserved": 0, "is_disabled": 0, "fusion_lon": 0.0, "bike_id": "103e9dfb8eb5843fe7cd72f39542e188", "lon": -76.94998733333334, "rental_uris": {"ios": "https://dc.lft.to/lastmile_qr_scan", "android": "https://dc.lft.to/lastmile_qr_scan"}}, {"name": "5de20eb71922606a68d9d594e194f699", "fusion_lat": 0.0, "type": "electric_scooter", "lat": 38.909791, "is_reserved": 0, "is_disabled": 0, "fusion_lon": 0.0, "bike_id": "5de20eb71922606a68d9d594e194f699", "lon": -77.03185266666667, "rental_uris": {"ios": "https://dc.lft.to/lastmile_qr_scan", "android": "https://dc.lft.to/lastmile_qr_scan"}}, {"name": "c68e6a64c2120310416403a9d2907bc1", "fusion_lat": 0.0, "type": "electric_bike", "lat": 38.897212833333334, "is_reserved": 0, "is_disabled": 0, "fusion_lon": 0.0, "bike_id": "c68e6a64c2120310416403a9d2907bc1", "lon": -77.019152, "rental_uris": {"ios": "https://dc.lft.to/lastmile_qr_scan", "android": "https://dc.lft.to/lastmile_qr_scan"}}, {"name": "368e1d0999988eafd2c5713c71665e62", "fusion_lat": 0.0, "type": "electric_scooter", "lat": 38.88595383333333, "is_reserved": 0, "is_disabled": 0, "fusion_lon": 0.0, "bike_id": "368e1d0999988eafd2c5713c71665e62", "lon": -77.022057, "rental_uris": {"ios": "https://dc.lft.to/lastmile_qr_scan", "android": "https://dc.lft.to/lastmile_qr_scan"}}, {"name": "37178584721a92aeada82457fc75d1a5", "fusion_lat": 0.0, "type": "electric_scooter", "lat": 38.90515633333333, "is_reserved": 0, "is_disabled": 0, "fusion_lon": 0.0, "bike_id": "37178584721a92aeada82457fc75d1a5", "lon": -77.06892583333334, "rental_uris": {"ios": "https://dc.lft.to/lastmile_qr_scan", "android": "https://dc.lft.to/lastmile_qr_scan"}}, {"name": "fb3cd5847edce3ca487a42e565d0201c", "fusion_lat": 0.0, "type": "electric_scooter", "lat": 38.938240666666665, "is_reserved": 0, "is_disabled": 0, "fusion_lon": 0.0, "bike_id": "fb3cd5847edce3ca487a42e565d0201c", "lon": -77.02473733333333, "rental_uris": {"ios": "https://dc.lft.to/lastmile_qr_scan", "android": "https://dc.lft.to/lastmile_qr_scan"}}, {"name": "f827732c0b3428bc44c7f55c975a7e61", "fusion_lat": 0.0, "type": "electric_scooter", "lat": 38.925957, "is_reserved": 0, "is_disabled": 0, "fusion_lon": 0.0, "bike_id": "f827732c0b3428bc44c7f55c975a7e61", "lon": -77.02495616666667, "rental_uris": {"ios": "https://dc.lft.to/lastmile_qr_scan", "android": "https://dc.lft.to/lastmile_qr_scan"}}, {"name": "5fb121e90ccf8bbb32f70b9f49852ab8", "fusion_lat": 0.0, "type": "electric_scooter", "lat": 38.907317, "is_reserved": 0, "is_disabled": 0, "fusion_lon": 0.0, "bike_id": "5fb121e90ccf8bbb32f70b9f49852ab8", "lon": -77.03209966666667, "rental_uris": {"ios": "https://dc.lft.to/lastmile_qr_scan", "android": "https://dc.lft.to/lastmile_qr_scan"}}, {"name": "b3189ea7b50a4cd4ba02900d70c3bde9", "fusion_lat": 0.0, "type": "electric_scooter", "lat": 38.936110166666666, "is_reserved": 0, "is_disabled": 0, "fusion_lon": 0.0, "bike_id": "b3189ea7b50a4cd4ba02900d70c3bde9", "lon": -77.05589233333333, "rental_uris": {"ios": "https://dc.lft.to/lastmile_qr_scan", "android": "https://dc.lft.to/lastmile_qr_scan"}}, {"name": "c9a16b75a4997fecfeb382398454aaa5", "fusion_lat": 0.0, "type": "electric_scooter", "lat": 38.90082616666667, "is_reserved": 0, "is_disabled": 0, "fusion_lon": 0.0, "bike_id": "c9a16b75a4997fecfeb382398454aaa5", "lon": -77.01787066666667, "rental_uris": {"ios": "https://dc.lft.to/lastmile_qr_scan", "android": "https://dc.lft.to/lastmile_qr_scan"}}, {"name": "c5472e75f68f7d926bc76e8f1f05efd8", "fusion_lat": 0.0, "type": "electric_scooter", "lat": 38.906445166666664, "is_reserved": 0, "is_disabled": 0, "fusion_lon": 0.0, "bike_id": "c5472e75f68f7d926bc76e8f1f05efd8", "lon": -77.0140205, "rental_uris": {"ios": "https://dc.lft.to/lastmile_qr_scan", "android": "https://dc.lft.to/lastmile_qr_scan"}}, {"name": "4d8f6bff287448336ce5134aae2f65c4", "fusion_lat": 0.0, "type": "electric_scooter", "lat": 38.902394, "is_reserved": 0, "is_disabled": 0, "fusion_lon": 0.0, "bike_id": "4d8f6bff287448336ce5134aae2f65c4", "lon": -77.0020425, "rental_uris": {"ios": "https://dc.lft.to/lastmile_qr_scan", "android": "https://dc.lft.to/lastmile_qr_scan"}}, {"name": "3e8ce3f581ead4c5470fe987ab8b1910", "fusion_lat": 0.0, "type": "electric_scooter", "lat": 38.91269616666666, "is_reserved": 0, "is_disabled": 0, "fusion_lon": 0.0, "bike_id": "3e8ce3f581ead4c5470fe987ab8b1910", "lon": -77.03873266666666, "rental_uris": {"ios": "https://dc.lft.to/lastmile_qr_scan", "android": "https://dc.lft.to/lastmile_qr_scan"}}, {"name": "3b9653d7c9a24371953a6525e3472b27", "fusion_lat": 0.0, "type": "electric_scooter", "lat": 38.903909666666664, "is_reserved": 0, "is_disabled": 0, "fusion_lon": 0.0, "bike_id": "3b9653d7c9a24371953a6525e3472b27", "lon": -77.06441033333333, "rental_uris": {"ios": "https://dc.lft.to/lastmile_qr_scan", "android": "https://dc.lft.to/lastmile_qr_scan"}}, {"name": "666f4b8f6ccf4656ed6be321c2c05505", "fusion_lat": 0.0, "type": "electric_scooter", "lat": 38.9326425, "is_reserved": 0, "is_disabled": 0, "fusion_lon": 0.0, "bike_id": "666f4b8f6ccf4656ed6be321c2c05505", "lon": -77.03904266666666, "rental_uris": {"ios": "https://dc.lft.to/lastmile_qr_scan", "android": "https://dc.lft.to/lastmile_qr_scan"}}, {"name": "85a860e7bad28a9d9c8f95575a309e12", "fusion_lat": 0.0, "type": "electric_scooter", "lat": 38.906992333333335, "is_reserved": 0, "is_disabled": 0, "fusion_lon": 0.0, "bike_id": "85a860e7bad28a9d9c8f95575a309e12", "lon": -77.0239025, "rental_uris": {"ios": "https://dc.lft.to/lastmile_qr_scan", "android": "https://dc.lft.to/lastmile_qr_scan"}}, {"name": "7d2a45eaaa0ad31f205ce361110a91ab", "fusion_lat": 0.0, "type": "electric_scooter", "lat": 38.936109, "is_reserved": 0, "is_disabled": 0, "fusion_lon": 0.0, "bike_id": "7d2a45eaaa0ad31f205ce361110a91ab", "lon": -77.032187, "rental_uris": {"ios": "https://dc.lft.to/lastmile_qr_scan", "android": "https://dc.lft.to/lastmile_qr_scan"}}, {"name": "94d99f82d1d5c6534fa7eb7bf32781b4", "fusion_lat": 0.0, "type": "electric_scooter", "lat": 38.911717, "is_reserved": 0, "is_disabled": 0, "fusion_lon": 0.0, "bike_id": "94d99f82d1d5c6534fa7eb7bf32781b4", "lon": -77.01129233333333, "rental_uris": {"ios": "https://dc.lft.to/lastmile_qr_scan", "android": "https://dc.lft.to/lastmile_qr_scan"}}, {"name": "1ebc1f3391673ab376da5ce2920c3cec", "fusion_lat": 0.0, "type": "electric_scooter", "lat": 38.887612833333336, "is_reserved": 0, "is_disabled": 0, "fusion_lon": 0.0, "bike_id": "1ebc1f3391673ab376da5ce2920c3cec", "lon": -76.95604083333333, "rental_uris": {"ios": "https://dc.lft.to/lastmile_qr_scan", "android": "https://dc.lft.to/lastmile_qr_scan"}}, {"name": "5ac25ae1ad3c8eb0d771d283a7afd6c4", "fusion_lat": 0.0, "type": "electric_scooter", "lat": 38.934261, "is_reserved": 0, "is_disabled": 0, "fusion_lon": 0.0, "bike_id": "5ac25ae1ad3c8eb0d771d283a7afd6c4", "lon": -77.04005033333334, "rental_uris": {"ios": "https://dc.lft.to/lastmile_qr_scan", "android": "https://dc.lft.to/lastmile_qr_scan"}}, {"name": "d97af6c5f0c9fa29b3ac114122961447", "fusion_lat": 0.0, "type": "electric_scooter", "lat": 38.91818166666667, "is_reserved": 0, "is_disabled": 0, "fusion_lon": 0.0, "bike_id": "d97af6c5f0c9fa29b3ac114122961447", "lon": -77.0322065, "rental_uris": {"ios": "https://dc.lft.to/lastmile_qr_scan", "android": "https://dc.lft.to/lastmile_qr_scan"}}, {"name": "e0dcf0ace861ad14e257a6cbf4bbf583", "fusion_lat": 0.0, "type": "electric_scooter", "lat": 38.91704983333333, "is_reserved": 0, "is_disabled": 0, "fusion_lon": 0.0, "bike_id": "e0dcf0ace861ad14e257a6cbf4bbf583", "lon": -77.02898166666667, "rental_uris": {"ios": "https://dc.lft.to/lastmile_qr_scan", "android": "https://dc.lft.to/lastmile_qr_scan"}}, {"name": "15096898aa792a175ac59bd7e1726b10", "fusion_lat": 0.0, "type": "electric_scooter", "lat": 38.89737183333333, "is_reserved": 0, "is_disabled": 0, "fusion_lon": 0.0, "bike_id": "15096898aa792a175ac59bd7e1726b10", "lon": -76.942593, "rental_uris": {"ios": "https://dc.lft.to/lastmile_qr_scan", "android": "https://dc.lft.to/lastmile_qr_scan"}}, {"name": "259d51bf2b5963b95a438369bc4324aa", "fusion_lat": 0.0, "type": "electric_scooter", "lat": 38.9198985, "is_reserved": 0, "is_disabled": 0, "fusion_lon": 0.0, "bike_id": "259d51bf2b5963b95a438369bc4324aa", "lon": -76.9730535, "rental_uris": {"ios": "https://dc.lft.to/lastmile_qr_scan", "android": "https://dc.lft.to/lastmile_qr_scan"}}, {"name": "f3c20d4491a39fe7f949efdb12969a5b", "fusion_lat": 0.0, "type": "electric_scooter", "lat": 38.932392666666665, "is_reserved": 0, "is_disabled": 0, "fusion_lon": 0.0, "bike_id": "f3c20d4491a39fe7f949efdb12969a5b", "lon": -77.0358675, "rental_uris": {"ios": "https://dc.lft.to/lastmile_qr_scan", "android": "https://dc.lft.to/lastmile_qr_scan"}}, {"name": "c2547a8ae84f8603f6204e3fa0f4a91b", "fusion_lat": 0.0, "type": "electric_scooter", "lat": 38.8637295, "is_reserved": 0, "is_disabled": 0, "fusion_lon": 0.0, "bike_id": "c2547a8ae84f8603f6204e3fa0f4a91b", "lon": -77.01366983333334, "rental_uris": {"ios": "https://dc.lft.to/lastmile_qr_scan", "android": "https://dc.lft.to/lastmile_qr_scan"}}, {"name": "cb8eb98eb3b7af849a041869df1bfbcd", "fusion_lat": 0.0, "type": "electric_scooter", "lat": 38.9429295, "is_reserved": 0, "is_disabled": 0, "fusion_lon": 0.0, "bike_id": "cb8eb98eb3b7af849a041869df1bfbcd", "lon": -77.02173333333333, "rental_uris": {"ios": "https://dc.lft.to/lastmile_qr_scan", "android": "https://dc.lft.to/lastmile_qr_scan"}}, {"name": "29be5c38751f8e6e05f09da785f6dc47", "fusion_lat": 0.0, "type": "electric_scooter", "lat": 38.907952, "is_reserved": 0, "is_disabled": 0, "fusion_lon": 0.0, "bike_id": "29be5c38751f8e6e05f09da785f6dc47", "lon": -77.04817316666667, "rental_uris": {"ios": "https://dc.lft.to/lastmile_qr_scan", "android": "https://dc.lft.to/lastmile_qr_scan"}}, {"name": "05208e672fef3a207045b91894a0d6e2", "fusion_lat": 0.0, "type": "electric_bike", "lat": 38.9210705, "is_reserved": 0, "is_disabled": 0, "fusion_lon": 0.0, "bike_id": "05208e672fef3a207045b91894a0d6e2", "lon": -77.063339, "rental_uris": {"ios": "https://dc.lft.to/lastmile_qr_scan", "android": "https://dc.lft.to/lastmile_qr_scan"}}, {"name": "d7606fd1d421f40be96562032eaf3b09", "fusion_lat": 0.0, "type": "electric_scooter", "lat": 38.9300845, "is_reserved": 0, "is_disabled": 0, "fusion_lon": 0.0, "bike_id": "d7606fd1d421f40be96562032eaf3b09", "lon": -77.02308766666667, "rental_uris": {"ios": "https://dc.lft.to/lastmile_qr_scan", "android": "https://dc.lft.to/lastmile_qr_scan"}}, {"name": "78733d31e86e62f9c9cbaea22fba7c7d", "fusion_lat": 0.0, "type": "electric_scooter", "lat": 38.91336966666667, "is_reserved": 0, "is_disabled": 0, "fusion_lon": 0.0, "bike_id": "78733d31e86e62f9c9cbaea22fba7c7d", "lon": -77.00226, "rental_uris": {"ios": "https://dc.lft.to/lastmile_qr_scan", "android": "https://dc.lft.to/lastmile_qr_scan"}}, {"name": "903b80e9fc7d23ae11617adcf4fe0340", "fusion_lat": 0.0, "type": "electric_scooter", "lat": 38.90558933333333, "is_reserved": 0, "is_disabled": 0, "fusion_lon": 0.0, "bike_id": "903b80e9fc7d23ae11617adcf4fe0340", "lon": -77.0181485, "rental_uris": {"ios": "https://dc.lft.to/lastmile_qr_scan", "android": "https://dc.lft.to/lastmile_qr_scan"}}, {"name": "280db74d59c56d17600e213e8d11f6a9", "fusion_lat": 0.0, "type": "electric_bike", "lat": 38.90486716666667, "is_reserved": 0, "is_disabled": 0, "fusion_lon": 0.0, "bike_id": "280db74d59c56d17600e213e8d11f6a9", "lon": -77.0271115, "rental_uris": {"ios": "https://dc.lft.to/lastmile_qr_scan", "android": "https://dc.lft.to/lastmile_qr_scan"}}, {"name": "4ca941442a1573ba8b8a11e8dda7d200", "fusion_lat": 0.0, "type": "electric_scooter", "lat": 38.90237283333333, "is_reserved": 0, "is_disabled": 0, "fusion_lon": 0.0, "bike_id": "4ca941442a1573ba8b8a11e8dda7d200", "lon": -76.974155, "rental_uris": {"ios": "https://dc.lft.to/lastmile_qr_scan", "android": "https://dc.lft.to/lastmile_qr_scan"}}, {"name": "1b318aba54cd148c05b94a9795178063", "fusion_lat": 0.0, "type": "electric_scooter", "lat": 38.909582666666665, "is_reserved": 0, "is_disabled": 0, "fusion_lon": 0.0, "bike_id": "1b318aba54cd148c05b94a9795178063", "lon": -77.02748116666666, "rental_uris": {"ios": "https://dc.lft.to/lastmile_qr_scan", "android": "https://dc.lft.to/lastmile_qr_scan"}}, {"name": "b2af1df301a98eaa5b216fc1e43002e7", "fusion_lat": 0.0, "type": "electric_scooter", "lat": 38.883516666666665, "is_reserved": 0, "is_disabled": 0, "fusion_lon": 0.0, "bike_id": "b2af1df301a98eaa5b216fc1e43002e7", "lon": -77.02345033333333, "rental_uris": {"ios": "https://dc.lft.to/lastmile_qr_scan", "android": "https://dc.lft.to/lastmile_qr_scan"}}, {"name": "fbf39cb650ae2fe0b8da2370ce755754", "fusion_lat": 0.0, "type": "electric_scooter", "lat": 38.88585883333333, "is_reserved": 0, "is_disabled": 0, "fusion_lon": 0.0, "bike_id": "fbf39cb650ae2fe0b8da2370ce755754", "lon": -77.0198275, "rental_uris": {"ios": "https://dc.lft.to/lastmile_qr_scan", "android": "https://dc.lft.to/lastmile_qr_scan"}}, {"name": "c1b7c3c28d936199923145d06a54863a", "fusion_lat": 0.0, "type": "electric_bike", "lat": 38.967607, "is_reserved": 0, "is_disabled": 0, "fusion_lon": 0.0, "bike_id": "c1b7c3c28d936199923145d06a54863a", "lon": -77.09162966666666, "rental_uris": {"ios": "https://dc.lft.to/lastmile_qr_scan", "android": "https://dc.lft.to/lastmile_qr_scan"}}, {"name": "c43983ae32d59f34eb5fd56a587c9263", "fusion_lat": 0.0, "type": "electric_scooter", "lat": 38.92179466666666, "is_reserved": 0, "is_disabled": 0, "fusion_lon": 0.0, "bike_id": "c43983ae32d59f34eb5fd56a587c9263", "lon": -77.02661166666667, "rental_uris": {"ios": "https://dc.lft.to/lastmile_qr_scan", "android": "https://dc.lft.to/lastmile_qr_scan"}}, {"name": "9e802b96e4e579e1ff1484db4b688892", "fusion_lat": 0.0, "type": "electric_scooter", "lat": 38.92066466666667, "is_reserved": 0, "is_disabled": 0, "fusion_lon": 0.0, "bike_id": "9e802b96e4e579e1ff1484db4b688892", "lon": -77.03196683333333, "rental_uris": {"ios": "https://dc.lft.to/lastmile_qr_scan", "android": "https://dc.lft.to/lastmile_qr_scan"}}, {"name": "186c7c3a96a4a556b01099f8bcf0e45d", "fusion_lat": 0.0, "type": "electric_scooter", "lat": 38.897419, "is_reserved": 0, "is_disabled": 0, "fusion_lon": 0.0, "bike_id": "186c7c3a96a4a556b01099f8bcf0e45d", "lon": -77.04959283333334, "rental_uris": {"ios": "https://dc.lft.to/lastmile_qr_scan", "android": "https://dc.lft.to/lastmile_qr_scan"}}, {"name": "ba32bc9d358af25d2b6ee5581033808a", "fusion_lat": 0.0, "type": "electric_scooter", "lat": 38.90557783333333, "is_reserved": 0, "is_disabled": 0, "fusion_lon": 0.0, "bike_id": "ba32bc9d358af25d2b6ee5581033808a", "lon": -77.034252, "rental_uris": {"ios": "https://dc.lft.to/lastmile_qr_scan", "android": "https://dc.lft.to/lastmile_qr_scan"}}, {"name": "8deddf7fc9b39119c65186613c29a875", "fusion_lat": 0.0, "type": "electric_bike", "lat": 38.86162183333333, "is_reserved": 0, "is_disabled": 0, "fusion_lon": 0.0, "bike_id": "8deddf7fc9b39119c65186613c29a875", "lon": -77.13097716666667, "rental_uris": {"ios": "https://dc.lft.to/lastmile_qr_scan", "android": "https://dc.lft.to/lastmile_qr_scan"}}, {"name": "1fb5acdb9aeb467214e02063bd790499", "fusion_lat": 0.0, "type": "electric_scooter", "lat": 38.91400983333333, "is_reserved": 0, "is_disabled": 0, "fusion_lon": 0.0, "bike_id": "1fb5acdb9aeb467214e02063bd790499", "lon": -77.00811983333334, "rental_uris": {"ios": "https://dc.lft.to/lastmile_qr_scan", "android": "https://dc.lft.to/lastmile_qr_scan"}}, {"name": "a5d8152f4a73338660287b4dee014727", "fusion_lat": 0.0, "type": "electric_scooter", "lat": 38.90236316666667, "is_reserved": 0, "is_disabled": 0, "fusion_lon": 0.0, "bike_id": "a5d8152f4a73338660287b4dee014727", "lon": -77.0436165, "rental_uris": {"ios": "https://dc.lft.to/lastmile_qr_scan", "android": "https://dc.lft.to/lastmile_qr_scan"}}, {"name": "5ea97dc0580685d02b19ebc17e64bb11", "fusion_lat": 0.0, "type": "electric_scooter", "lat": 38.92365683333333, "is_reserved": 0, "is_disabled": 0, "fusion_lon": 0.0, "bike_id": "5ea97dc0580685d02b19ebc17e64bb11", "lon": -77.05133716666667, "rental_uris": {"ios": "https://dc.lft.to/lastmile_qr_scan", "android": "https://dc.lft.to/lastmile_qr_scan"}}, {"name": "241275ce2a57608dcd3fd0c9297fde29", "fusion_lat": 0.0, "type": "electric_scooter", "lat": 38.8607335, "is_reserved": 0, "is_disabled": 0, "fusion_lon": 0.0, "bike_id": "241275ce2a57608dcd3fd0c9297fde29", "lon": -76.967249, "rental_uris": {"ios": "https://dc.lft.to/lastmile_qr_scan", "android": "https://dc.lft.to/lastmile_qr_scan"}}, {"name": "67de1e6a5caab94d55899e7c3eca0655", "fusion_lat": 0.0, "type": "electric_scooter", "lat": 38.92201983333333, "is_reserved": 0, "is_disabled": 0, "fusion_lon": 0.0, "bike_id": "67de1e6a5caab94d55899e7c3eca0655", "lon": -77.04320783333333, "rental_uris": {"ios": "https://dc.lft.to/lastmile_qr_scan", "android": "https://dc.lft.to/lastmile_qr_scan"}}, {"name": "ad281e073c5ae128925435c1e1dcb5f9", "fusion_lat": 0.0, "type": "electric_scooter", "lat": 38.9324505, "is_reserved": 0, "is_disabled": 0, "fusion_lon": 0.0, "bike_id": "ad281e073c5ae128925435c1e1dcb5f9", "lon": -77.02022083333334, "rental_uris": {"ios": "https://dc.lft.to/lastmile_qr_scan", "android": "https://dc.lft.to/lastmile_qr_scan"}}, {"name": "f8ece8e40154fbb76ae1fb84010e23aa", "fusion_lat": 0.0, "type": "electric_scooter", "lat": 38.917085, "is_reserved": 0, "is_disabled": 0, "fusion_lon": 0.0, "bike_id": "f8ece8e40154fbb76ae1fb84010e23aa", "lon": -77.03141583333333, "rental_uris": {"ios": "https://dc.lft.to/lastmile_qr_scan", "android": "https://dc.lft.to/lastmile_qr_scan"}}, {"name": "95b6cd77ceba13508c3d61f10e51eb8b", "fusion_lat": 0.0, "type": "electric_scooter", "lat": 38.88594416666667, "is_reserved": 0, "is_disabled": 0, "fusion_lon": 0.0, "bike_id": "95b6cd77ceba13508c3d61f10e51eb8b", "lon": -77.0221005, "rental_uris": {"ios": "https://dc.lft.to/lastmile_qr_scan", "android": "https://dc.lft.to/lastmile_qr_scan"}},