{"data": {"bikes": [{"is_disabled": 0, "is_reserved": 0, "type": "electric_scooter", "lon": -77.0329985, "fusion_lon": 0.0, "lat": 38.92850516666667, "rental_uris": {"android": "https://dc.lft.to/lastmile_qr_scan", "ios": "https://dc.lft.to/lastmile_qr_scan"}, "fusion_lat": 0.0, "name": "2d30aca7275aa3e4c83911ad285504bd", "bike_id": "2d30aca7275aa3e4c83911ad285504bd"}, {"is_disabled": 0, "is_reserved": 0, "type": "electric_scooter", "lon": -77.04279116666666, "fusion_lon": 0.0, "lat": 38.911102666666665, "rental_uris": {"android": "https://dc.lft.to/lastmile_qr_scan", "ios": "https://dc.lft.to/lastmile_qr_scan"}, "fusion_lat": 0.0, "name": "dc2dca47cea44b0240de565bf52bf675", "bike_id": "dc2dca47cea44b0240de565bf52bf675"}, {"is_disabled": 0, "is_reserved": 0, "type": "electric_scooter", "lon": -77.02468083333333, "fusion_lon": 0.0, "lat": 38.93902766666667, "rental_uris": {"android": "https://dc.lft.to/lastmile_qr_scan", "ios": "https://dc.lft.to/lastmile_qr_scan"}, "fusion_lat": 0.0, "name": "f1d24946849e55169254032f192e6968", "bike_id": "f1d24946849e55169254032f192e6968"}, {"is_disabled": 0, "is_reserved": 0, "type": "electric_bike", "lon": -77.182825, "fusion_lon": 0.0, "lat": 38.88341916666667, "rental_uris": {"android": "https://dc.lft.to/lastmile_qr_scan", "ios": "https://dc.lft.to/lastmile_qr_scan"}, "fusion_lat": 0.0, "name": "c006f466d606af32ae91ae64e9b9d719", "bike_id": "c006f466d606af32ae91ae64e9b9d719"}, {"is_disabled": 0, "is_reserved": 0, "type": "electric_scooter", "lon": -77.05930833333333, "fusion_lon": 0.0, "lat": 38.93668983333333, "rental_uris": {"android": "https://dc.lft.to/lastmile_qr_scan", "ios": "https://dc.lft.to/lastmile_qr_scan"}, "fusion_lat": 0.0, "name": "6fd79e6f5bd4feedf4c4ee04c27cb1d4", "bike_id": "6fd79e6f5bd4feedf4c4ee04c27cb1d4"}, {"is_disabled": 0, "is_reserved": 0, "type": "electric_scooter", "lon": -76.93110616666667, "fusion_lon": 0.0, "lat": 38.880151833333336, "rental_uris": {"android": "https://dc.lft.to/lastmile_qr_scan", "ios": "https://dc.lft.to/lastmile_qr_scan"}, "fusion_lat": 0.0, "name": "e62af7f94db7f63ce2a8d634350f9563", "bike_id": "e62af7f94db7f63ce2a8d634350f9563"}, {"is_disabled": 0, "is_reserved": 0, "type": "electric_scooter", "lon": -77.02841666666667, "fusion_lon": 0.0, "lat": 38.8952015, "rental_uris": {"android": "https://dc.lft.to/lastmile_qr_scan", "ios": "https://dc.lft.to/lastmile_qr_scan"}, "fusion_lat": 0.0, "name": "60ebe9d49dfb19ff7f219118d680f010", "bike_id": "60ebe9d49dfb19ff7f219118d680f010"}, {"is_disabled": 0, "is_reserved": 0, "type": "electric_scooter", "lon": -77.03491216666667, "fusion_lon": 0.0, "lat": 38.9188135, "rental_uris": {"android": "https://dc.lft.to/lastmile_qr_scan", "ios": "https://dc.lft.to/lastmile_qr_scan"}, "fusion_lat": 0.0, "name": "ce44eec9800954a3e11598c42f965476", "bike_id": "ce44eec9800954a3e11598c42f965476"}, {"is_disabled": 0, "is_reserved": 0, "type": "electric_scooter", "lon": -76.9891065, "fusion_lon": 0.0, "lat": 38.866598, "rental_uris": {"android": "https://dc.lft.to/lastmile_qr_scan", "ios": "https://dc.lft.to/lastmile_qr_scan"}, "fusion_lat": 0.0, "name": "f190049e4b60a6cd81b3238df2183f1f", "bike_id": "f190049e4b60a6cd81b3238df2183f1f"}, {"is_disabled": 0, "is_reserved": 0, "type": "electric_scooter", "lon": -76.9808925, "fusion_lon": 0.0, "lat": 38.85719816666667, "rental_uris": {"android": "https://dc.lft.to/lastmile_qr_scan", "ios": "https://dc.lft.to/lastmile_qr_scan"}, "fusion_lat": 0.0, "name": "1b3537b02da99b3b15ab1ea5f0282945", "bike_id": "1b3537b02da99b3b15ab1ea5f0282945"}, {"is_disabled": 0, "is_reserved": 0, "type": "electric_scooter", "lon": -77.05099433333334, "fusion_lon": 0.0, "lat": 38.923453, "rental_uris": {"android": "https://dc.lft.to/lastmile_qr_scan", "ios": "https://dc.lft.to/lastmile_qr_scan"}, "fusion_lat": 0.0, "name": "d193326ebef07635949abf23c0428266", "bike_id": "d193326ebef07635949abf23c0428266"}, {"is_disabled": 0, "is_reserved": 0, "type": "electric_scooter", "lon": -77.041078, "fusion_lon": 0.0, "lat": 38.9244865, "rental_uris": {"android": "https://dc.lft.to/lastmile_qr_scan", "ios": "https://dc.lft.to/lastmile_qr_scan"}, "fusion_lat": 0.0, "name": "7c6a074c73c463d3335ddb044d7d7330", "bike_id": "7c6a074c73c463d3335ddb044d7d7330"}, {"is_disabled": 0, "is_reserved": 0, "type": "electric_scooter", "lon": -77.042629, "fusion_lon": 0.0, "lat": 38.909833166666665, "rental_uris": {"android": "https://dc.lft.to/lastmile_qr_scan", "ios": "https://dc.lft.to/lastmile_qr_scan"}, "fusion_lat": 0.0, "name": "be9262431db132a943e02d10df265a8b", "bike_id": "be9262431db132a943e02d10df265a8b"}, {"is_disabled": 0, "is_reserved": 0, "type": "electric_scooter", "lon": -77.02806316666667, "fusion_lon": 0.0, "lat": 38.9061875, "rental_uris": {"android": "https://dc.lft.to/lastmile_qr_scan", "ios": "https://dc.lft.to/lastmile_qr_scan"}, "fusion_lat": 0.0, "name": "444392871ec0cf81da9043db101bf62c", "bike_id": "444392871ec0cf81da9043db101bf62c"}, {"is_disabled": 0, "is_reserved": 0, "type": "electric_scooter", "lon": -77.03281066666666, "fusion_lon": 0.0, "lat": 38.91916616666666, "rental_uris": {"android": "https://dc.lft.to/lastmile_qr_scan", "ios": "https://dc.lft.to/lastmile_qr_scan"}, "fusion_lat": 0.0, "name": "24f67169a02aa8ab1835a09b40961180", "bike_id": "24f67169a02aa8ab1835a09b40961180"}, {"is_disabled": 0, "is_reserved": 0, "type": "electric_scooter", "lon": -77.026238, "fusion_lon": 0.0, "lat": 38.887513166666665, "rental_uris": {"android": "https://dc.lft.to/lastmile_qr_scan", "ios": "https://dc.lft.to/lastmile_qr_scan"}, "fusion_lat": 0.0, "name": "d817aecb4fb6208b571ee45405713ae4", "bike_id": "d817aecb4fb6208b571ee45405713ae4"}, {"is_disabled": 0, "is_reserved": 0, "type": "electric_scooter", "lon": -77.02392766666667, "fusion_lon": 0.0, "lat": 38.91918866666666, "rental_uris": {"android": "https://dc.lft.to/lastmile_qr_scan", "ios": "https://dc.lft.to/lastmile_qr_scan"}, "fusion_lat": 0.0, "name": "232af16e7675df15afc1f8b422236ecf", "bike_id": "232af16e7675df15afc1f8b422236ecf"}, {"is_disabled": 0, "is_reserved": 0, "type": "electric_scooter", "lon": -77.029928, "fusion_lon": 0.0, "lat": 38.897367333333335, "rental_uris": {"android": "https://dc.lft.to/lastmile_qr_scan", "ios": "https://dc.lft.to/lastmile_qr_scan"}, "fusion_lat": 0.0, "name": "42ad5cf4c46872112f13db390a7d876b", "bike_id": "42ad5cf4c46872112f13db390a7d876b"}, {"is_disabled": 0, "is_reserved": 0, "type": "electric_scooter", "lon": -77.03411683333333, "fusion_lon": 0.0, "lat": 38.92944716666667, "rental_uris": {"android": "https://dc.lft.to/lastmile_qr_scan", "ios": "https://dc.lft.to/lastmile_qr_scan"}, "fusion_lat": 0.0, "name": "1aa7ca634123d7454d243499d28301f4", "bike_id": "1aa7ca634123d7454d243499d28301f4"}, {"is_disabled": 0, "is_reserved": 0, "type": "electric_scooter", "lon": -76.99693416666666, "fusion_lon": 0.0, "lat": 38.90836216666667, "rental_uris": {"android": "https://dc.lft.to/lastmile_qr_scan", "ios": "https://dc.lft.to/lastmile_qr_scan"}, "fusion_lat": 0.0, "name": "120088147728805825ceab4411458b81", "bike_id": "120088147728805825ceab4411458b81"}, {"is_disabled": 0, "is_reserved": 0, "type": "electric_bike", "lon": -77.1318025, "fusion_lon": 0.0, "lat": 38.86909883333333, "rental_uris": {"android": "https://dc.lft.to/lastmile_qr_scan", "ios": "https://dc.lft.to/lastmile_qr_scan"}, "fusion_lat": 0.0, "name": "2a46abe6221560f3721993e599adff8f", "bike_id": "2a46abe6221560f3721993e599adff8f"}, {"is_disabled": 0, "is_reserved": 0, "type": "electric_scooter", "lon": -77.02811716666666, "fusion_lon": 0.0, "lat": 38.910484333333336, "rental_uris": {"android": "https://dc.lft.to/lastmile_qr_scan", "ios": "https://dc.lft.to/lastmile_qr_scan"}, "fusion_lat": 0.0, "name": "e9617dcb6996a961a193361d9db4c337", "bike_id": "e9617dcb6996a961a193361d9db4c337"}, {"is_disabled": 0, "is_reserved": 0, "type": "electric_scooter", "lon": -77.01626466666667, "fusion_lon": 0.0, "lat": 38.895435666666664, "rental_uris": {"android": "https://dc.lft.to/lastmile_qr_scan", "ios": "https://dc.lft.to/lastmile_qr_scan"}, "fusion_lat": 0.0, "name": "6838f03dca978d9b830fb1af26bbe9ec", "bike_id": "6838f03dca978d9b830fb1af26bbe9ec"}, {"is_disabled": 0, "is_reserved": 0, "type": "electric_scooter", "lon": -77.02306366666667, "fusion_lon": 0.0, "lat": 38.8787995, "rental_uris": {"android": "https://dc.lft.to/lastmile_qr_scan", "ios": "https://dc.lft.to/lastmile_qr_scan"}, "fusion_lat": 0.0, "name": "529b7934f782b9a4a73c79bb621f4ab2", "bike_id": "529b7934f782b9a4a73c79bb621f4ab2"}, {"is_disabled": 0, "is_reserved": 0, "type": "electric_scooter", "lon": -77.02975416666666, "fusion_lon": 0.0, "lat": 38.91687866666667, "rental_uris": {"android": "https://dc.lft.to/lastmile_qr_scan", "ios": "https://dc.lft.to/lastmile_qr_scan"}, "fusion_lat": 0.0, "name": "68c60db6590e1713b19ddc6b0a3c747c", "bike_id": "68c60db6590e1713b19ddc6b0a3c747c"}, {"is_disabled": 0, "is_reserved": 0, "type": "electric_scooter", "lon": -77.03169066666666, "fusion_lon": 0.0, "lat": 38.91106833333333, "rental_uris": {"android": "https://dc.lft.to/lastmile_qr_scan", "ios": "https://dc.lft.to/lastmile_qr_scan"}, "fusion_lat": 0.0, "name": "f95c6e864547a4ee065c98908576dfcf", "bike_id": "f95c6e864547a4ee065c98908576dfcf"}, {"is_disabled": 0, "is_reserved": 0, "type": "electric_scooter", "lon": -76.98469566666667, "fusion_lon": 0.0, "lat": 38.92895816666667, "rental_uris": {"android": "https://dc.lft.to/lastmile_qr_scan", "ios": "https://dc.lft.to/lastmile_qr_scan"}, "fusion_lat": 0.0, "name": "6c04fef22054b397dba17be130772e13", "bike_id": "6c04fef22054b397dba17be130772e13"}, {"is_disabled": 0, "is_reserved": 0, "type": "electric_scooter", "lon": -76.9463265, "fusion_lon": 0.0, "lat": 38.898319666666666, "rental_uris": {"android": "https://dc.lft.to/lastmile_qr_scan", "ios": "https://dc.lft.to/lastmile_qr_scan"}, "fusion_lat": 0.0, "name": "d01118d8d2ab283334b2a94cbcee5fe7", "bike_id": "d01118d8d2ab283334b2a94cbcee5fe7"}, {"is_disabled": 0, "is_reserved": 0, "type": "electric_bike", "lon": -77.007646, "fusion_lon": 0.0, "lat": 38.9005345, "rental_uris": {"android": "https://dc.lft.to/lastmile_qr_scan", "ios": "https://dc.lft.to/lastmile_qr_scan"}, "fusion_lat": 0.0, "name": "d6544f835767bc606bb79083a62a9c75", "bike_id": "d6544f835767bc606bb79083a62a9c75"}, {"is_disabled": 0, "is_reserved": 0, "type": "electric_scooter", "lon": -77.04529016666666, "fusion_lon": 0.0, "lat": 38.903714, "rental_uris": {"android": "https://dc.lft.to/lastmile_qr_scan", "ios": "https://dc.lft.to/lastmile_qr_scan"}, "fusion_lat": 0.0, "name": "8bcf3b242b810a79f3e3f28d2d60ec85", "bike_id": "8bcf3b242b810a79f3e3f28d2d60ec85"}, {"is_disabled": 0, "is_reserved": 0, "type": "electric_scooter", "lon": -77.03815816666666, "fusion_lon": 0.0, "lat": 38.919711666666664, "rental_uris": {"android": "https://dc.lft.to/lastmile_qr_scan", "ios": "https://dc.lft.to/lastmile_qr_scan"}, "fusion_lat": 0.0, "name": "415b75fbee8027c2ecd945d8f7eceb54", "bike_id": "415b75fbee8027c2ecd945d8f7eceb54"}, {"is_disabled": 0, "is_reserved": 0, "type": "electric_scooter", "lon": -76.98558933333334, "fusion_lon": 0.0, "lat": 38.878697, "rental_uris": {"android": "https://dc.lft.to/lastmile_qr_scan", "ios": "https://dc.lft.to/lastmile_qr_scan"}, "fusion_lat": 0.0, "name": "93280857d046e776759a794cb4e361dc", "bike_id": "93280857d046e776759a794cb4e361dc"}, {"is_disabled": 0, "is_reserved": 0, "type": "electric_scooter", "lon": -77.0113615, "fusion_lon": 0.0, "lat": 38.90357066666667, "rental_uris": {"android": "https://dc.lft.to/lastmile_qr_scan", "ios": "https://dc.lft.to/lastmile_qr_scan"}, "fusion_lat": 0.0, "name": "3d2224808e72bdbb6f75378495600801", "bike_id": "3d2224808e72bdbb6f75378495600801"}, {"is_disabled": 0, "is_reserved": 0, "type": "electric_scooter", "lon": -77.031908, "fusion_lon": 0.0, "lat": 38.911348833333335, "rental_uris": {"android": "https://dc.lft.to/lastmile_qr_scan", "ios": "https://dc.lft.to/lastmile_qr_scan"}, "fusion_lat": 0.0, "name": "5b23f79a4fbb6eb4418bc24d92a9fe66", "bike_id": "5b23f79a4fbb6eb4418bc24d92a9fe66"}, {"is_disabled": 0, "is_reserved": 0, "type": "electric_bike", "lon": -77.02627216666667, "fusion_lon": 0.0, "lat": 38.962161, "rental_uris": {"android": "https://dc.lft.to/lastmile_qr_scan", "ios": "https://dc.lft.to/lastmile_qr_scan"}, "fusion_lat": 0.0, "name": "31f26d7c97f9bcf0d960cc9fa0e9dec2", "bike_id": "31f26d7c97f9bcf0d960cc9fa0e9dec2"}, {"is_disabled": 0, "is_reserved": 0, "type": "electric_scooter", "lon": -77.02799333333333, "fusion_lon": 0.0, "lat": 38.8961675, "rental_uris": {"android": "https://dc.lft.to/lastmile_qr_scan", "ios": "https://dc.lft.to/lastmile_qr_scan"}, "fusion_lat": 0.0, "name": "e0e89e95cc616380e219d6fb8fdc725a", "bike_id": "e0e89e95cc616380e219d6fb8fdc725a"}, {"is_disabled": 0, "is_reserved": 0, "type": "electric_scooter", "lon": -77.04166866666667, "fusion_lon": 0.0, "lat": 38.91944316666667, "rental_uris": {"android": "https://dc.lft.to/lastmile_qr_scan", "ios": "https://dc.lft.to/lastmile_qr_scan"}, "fusion_lat": 0.0, "name": "899c0fc507434071029e20d3c88aba5c", "bike_id": "899c0fc507434071029e20d3c88aba5c"}, {"is_disabled": 0, "is_reserved": 0, "type": "electric_scooter", "lon": -76.93760816666666, "fusion_lon": 0.0, "lat": 38.90383533333333, "rental_uris": {"android": "https://dc.lft.to/lastmile_qr_scan", "ios": "https://dc.lft.to/lastmile_qr_scan"}, "fusion_lat": 0.0, "name": "d4902fc7c72e5627989e536950237462", "bike_id": "d4902fc7c72e5627989e536950237462"}, {"is_disabled": 0, "is_reserved": 0, "type": "electric_bike", "lon": -77.08526566666667, "fusion_lon": 0.0, "lat": 38.85646766666667, "rental_uris": {"android": "https://dc.lft.to/lastmile_qr_scan", "ios": "https://dc.lft.to/lastmile_qr_scan"}, "fusion_lat": 0.0, "name": "6cd041f4001417a041c3946de8faf1f2", "bike_id": "6cd041f4001417a041c3946de8faf1f2"}, {"is_disabled": 0, "is_reserved": 0, "type": "electric_scooter", "lon": -77.03155816666667, "fusion_lon": 0.0, "lat": 38.887591, "rental_uris": {"android": "https://dc.lft.to/lastmile_qr_scan", "ios": "https://dc.lft.to/lastmile_qr_scan"}, "fusion_lat": 0.0, "name": "3511e3468df54d341f683f699b90594e", "bike_id": "3511e3468df54d341f683f699b90594e"}, {"is_disabled": 0, "is_reserved": 0, "type": "electric_scooter", "lon": -77.0258305, "fusion_lon": 0.0, "lat": 38.89989116666667, "rental_uris": {"android": "https://dc.lft.to/lastmile_qr_scan", "ios": "https://dc.lft.to/lastmile_qr_scan"}, "fusion_lat": 0.0, "name": "097af4e8566d400ded55443a4bbbe2df", "bike_id": "097af4e8566d400ded55443a4bbbe2df"}, {"is_disabled": 0, "is_reserved": 0, "type": "electric_scooter", "lon": -77.04331516666667, "fusion_lon": 0.0, "lat": 38.904760833333334, "rental_uris": {"android": "https://dc.lft.to/lastmile_qr_scan", "ios": "https://dc.lft.to/lastmile_qr_scan"}, "fusion_lat": 0.0, "name": "02291796540c2ceb21ef3288ef6b2efd", "bike_id": "02291796540c2ceb21ef3288ef6b2efd"}, {"is_disabled": 0, "is_reserved": 0, "type": "electric_scooter", "lon": -77.01823066666667, "fusion_lon": 0.0, "lat": 38.92204383333333, "rental_uris": {"android": "https://dc.lft.to/lastmile_qr_scan", "ios": "https://dc.lft.to/lastmile_qr_scan"}, "fusion_lat": 0.0, "name": "6d97b218191ede962abdc6e757f553e9", "bike_id": "6d97b218191ede962abdc6e757f553e9"}, {"is_disabled": 0, "is_reserved": 0, "type": "electric_scooter", "lon": -77.0447745, "fusion_lon": 0.0, "lat": 38.908556833333336, "rental_uris": {"android": "https://dc.lft.to/lastmile_qr_scan", "ios": "https://dc.lft.to/lastmile_qr_scan"}, "fusion_lat": 0.0, "name": "3e40ab2297f98931bb3566ed7f719442", "bike_id": "3e40ab2297f98931bb3566ed7f719442"}, {"is_disabled": 0, "is_reserved": 0, "type": "electric_scooter", "lon": -77.0418735, "fusion_lon": 0.0, "lat": 38.90786416666667, "rental_uris": {"android": "https://dc.lft.to/lastmile_qr_scan", "ios": "https://dc.lft.to/lastmile_qr_scan"}, "fusion_lat": 0.0, "name": "7c0eda553dd1df7f0e4d5935f474b2f5", "bike_id": "7c0eda553dd1df7f0e4d5935f474b2f5"}, {"is_disabled": 0, "is_reserved": 0, "type": "electric_scooter", "lon": -77.0328475, "fusion_lon": 0.0, "lat": 38.934481, "rental_uris": {"android": "https://dc.lft.to/lastmile_qr_scan", "ios": "https://dc.lft.to/lastmile_qr_scan"}, "fusion_lat": 0.0, "name": "fe9aaf20b284e255987e6ecc33dda91c", "bike_id": "fe9aaf20b284e255987e6ecc33dda91c"}, {"is_disabled": 0, "is_reserved": 0, "type": "electric_scooter", "lon": -77.03662916666667, "fusion_lon": 0.0, "lat": 38.912474, "rental_uris": {"android": "https://dc.lft.to/lastmile_qr_scan", "ios": "https://dc.lft.to/lastmile_qr_scan"}, "fusion_lat": 0.0, "name": "b0436edec2a3793c849fe0c442b810eb", "bike_id": "b0436edec2a3793c849fe0c442b810eb"}, {"is_disabled": 0, "is_reserved": 0, "type": "electric_bike", "lon": -77.04303966666667, "fusion_lon": 0.0, "lat": 39.054468166666666, "rental_uris": {"android": "https://dc.lft.to/lastmile_qr_scan", "ios": "https://dc.lft.to/lastmile_qr_scan"}, "fusion_lat": 0.0, "name": "cf606c4b4401c79be0813996eee2ed75", "bike_id": "cf606c4b4401c79be0813996eee2ed75"}, {"is_disabled": 0, "is_reserved": 0, "type": "electric_scooter", "lon": -76.93184133333334, "fusion_lon": 0.0, "lat": 38.898767166666666, "rental_uris": {"android": "https://dc.lft.to/lastmile_qr_scan", "ios": "https://dc.lft.to/lastmile_qr_scan"}, "fusion_lat": 0.0, "name": "6a9ef82ec7a0fdb36847bd5aaf27dbf1", "bike_id": "6a9ef82ec7a0fdb36847bd5aaf27dbf1"}, {"is_disabled": 0, "is_reserved": 0, "type": "electric_scooter", "lon": -76.9866555, "fusion_lon": 0.0, "lat": 38.90138666666667, "rental_uris": {"android": "https://dc.lft.to/lastmile_qr_scan", "ios": "https://dc.lft.to/lastmile_qr_scan"}, "fusion_lat": 0.0, "name": "9d059301fc25067fb2f6e4b44540308c", "bike_id": "9d059301fc25067fb2f6e4b44540308c"}, {"is_disabled": 0, "is_reserved": 0, "type": "electric_scooter", "lon": -77.03830683333334, "fusion_lon": 0.0, "lat": 38.9111115, "rental_uris": {"android": "https://dc.lft.to/lastmile_qr_scan", "ios": "https://dc.lft.to/lastmile_qr_scan"}, "fusion_lat": 0.0, "name": "9d5f2277f534a69d78df43d88c1dd3dd", "bike_id": "9d5f2277f534a69d78df43d88c1dd3dd"}, {"is_disabled": 0, "is_reserved": 0, "type": "electric_bike", "lon": -77.0445315, "fusion_lon": 0.0, "lat": 38.910156, "rental_uris": {"android": "https://dc.lft.to/lastmile_qr_scan", "ios": "https://dc.lft.to/lastmile_qr_scan"}, "fusion_lat": 0.0, "name": "d6209113a73b465ac11d39f4e5af42a3", "bike_id": "d6209113a73b465ac11d39f4e5af42a3"}, {"is_disabled": 0, "is_reserved": 0, "type": "electric_scooter", "lon": -77.0318125, "fusion_lon": 0.0, "lat": 38.89988816666666, "rental_uris": {"android": "https://dc.lft.to/lastmile_qr_scan", "ios": "https://dc.lft.to/lastmile_qr_scan"}, "fusion_lat": 0.0, "name": "0c69a1bc5769412ea4bdf918a2cdbda3", "bike_id": "0c69a1bc5769412ea4bdf918a2cdbda3"}, {"is_disabled": 0, "is_reserved": 0, "type": "electric_scooter", "lon": -77.03657, "fusion_lon": 0.0, "lat": 38.91720266666667, "rental_uris": {"android": "https://dc.lft.to/lastmile_qr_scan", "ios": "https://dc.lft.to/lastmile_qr_scan"}, "fusion_lat": 0.0, "name": "324b64797738fa1e7790989c2b96a536", "bike_id": "324b64797738fa1e7790989c2b96a536"}, {"is_disabled": 0, "is_reserved": 0, "type": "electric_bike", "lon": -76.96369216666666, "fusion_lon": 0.0, "lat": 38.94898383333334, "rental_uris": {"android": "https://dc.lft.to/lastmile_qr_scan", "ios": "https://dc.lft.to/lastmile_qr_scan"}, "fusion_lat": 0.0, "name": "c0b0a247c5c1fa0104f297b04a626e55", "bike_id": "c0b0a247c5c1fa0104f297b04a626e55"}, {"is_disabled": 0, "is_reserved": 0, "type": "electric_scooter", "lon": -77.0238295, "fusion_lon": 0.0, "lat": 38.88723433333333, "rental_uris": {"android": "https://dc.lft.to/lastmile_qr_scan", "ios": "https://dc.lft.to/lastmile_qr_scan"}, "fusion_lat": 0.0, "name": "3db8f53597f1db8f31b1c8119209e95c", "bike_id": "3db8f53597f1db8f31b1c8119209e95c"}, {"is_disabled": 0, "is_reserved": 0, "type": "electric_scooter", "lon": -77.02837083333333, "fusion_lon": 0.0, "lat": 38.922406333333335, "rental_uris": {"android": "https://dc.lft.to/lastmile_qr_scan", "ios": "https://dc.lft.to/lastmile_qr_scan"}, "fusion_lat": 0.0, "name": "1cc2563ec4080f0116d57eb050c26912", "bike_id": "1cc2563ec4080f0116d57eb050c26912"}, {"is_disabled": 0, "is_reserved": 0, "type": "electric_scooter", "lon": -76.94631916666667, "fusion_lon": 0.0, "lat": 38.89842516666667, "rental_uris": {"android": "https://dc.lft.to/lastmile_qr_scan", "ios": "https://dc.lft.to/lastmile_qr_scan"}, "fusion_lat": 0.0, "name": "b2eb7e1eac6f2c549570b185cf089425", "bike_id": "b2eb7e1eac6f2c549570b185cf089425"}, {"is_disabled": 0, "is_reserved": 0, "type": "electric_scooter", "lon": -77.02695583333333, "fusion_lon": 0.0, "lat": 38.93635583333333, "rental_uris": {"android": "https://dc.lft.to/lastmile_qr_scan", "ios": "https://dc.lft.to/lastmile_qr_scan"}, "fusion_lat": 0.0, "name": "04c7c31ae0ee64d3cec4cbede2882303", "bike_id": "04c7c31ae0ee64d3cec4cbede2882303"}, {"is_disabled": 0, "is_reserved": 0, "type": "electric_scooter", "lon": -77.04416933333333, "fusion_lon": 0.0, "lat": 38.8940565, "rental_uris": {"android": "https://dc.lft.to/lastmile_qr_scan", "ios": "https://dc.lft.to/lastmile_qr_scan"}, "fusion_lat": 0.0, "name": "39a5e5b0f6d198e231f27fb3fa4c68a1", "bike_id": "39a5e5b0f6d198e231f27fb3fa4c68a1"}, {"is_disabled": 0, "is_reserved": 0, "type": "electric_scooter", "lon": -77.02582916666667, "fusion_lon": 0.0, "lat": 38.942128333333336, "rental_uris": {"android": "https://dc.lft.to/lastmile_qr_scan", "ios": "https://dc.lft.to/lastmile_qr_scan"}, "fusion_lat": 0.0, "name": "ffed1c5a8fc5b43f3a83aadef1cbf017", "bike_id": "ffed1c5a8fc5b43f3a83aadef1cbf017"}, {"is_disabled": 0, "is_reserved": 0, "type": "electric_scooter", "lon": -76.989948, "fusion_lon": 0.0, "lat": 38.86435866666667, "rental_uris": {"android": "https://dc.lft.to/lastmile_qr_scan", "ios": "https://dc.lft.to/lastmile_qr_scan"}, "fusion_lat": 0.0, "name": "7d9f0c3a482a9b367427f7f48107df6a", "bike_id": "7d9f0c3a482a9b367427f7f48107df6a"}, {"is_disabled": 0, "is_reserved": 0, "type": "electric_scooter", "lon": -77.05005466666667, "fusion_lon": 0.0, "lat": 38.893647666666666, "rental_uris": {"android": "https://dc.lft.to/lastmile_qr_scan", "ios": "https://dc.lft.to/lastmile_qr_scan"}, "fusion_lat": 0.0, "name": "bc7e91553873e4c50e2c5349e91ca984", "bike_id": "bc7e91553873e4c50e2c5349e91ca984"}, {"is_disabled": 0, "is_reserved": 0, "type": "electric_scooter", "lon": -77.03945283333333, "fusion_lon": 0.0, "lat": 38.909645166666664, "rental_uris": {"android": "https://dc.lft.to/lastmile_qr_scan", "ios": "https://dc.lft.to/lastmile_qr_scan"}, "fusion_lat": 0.0, "name": "d1cd6e25cc5fde6c68666a8160f1806f", "bike_id": "d1cd6e25cc5fde6c68666a8160f1806f"}, {"is_disabled": 0, "is_reserved": 0, "type": "electric_scooter", "lon": -76.99375733333333, "fusion_lon": 0.0, "lat": 38.92398133333333, "rental_uris": {"android": "https://dc.lft.to/lastmile_qr_scan", "ios": "https://dc.lft.to/lastmile_qr_scan"}, "fusion_lat": 0.0, "name": "56c6a25befb5adcc61538e12b7ccc61f", "bike_id": "56c6a25befb5adcc61538e12b7ccc61f"}, {"is_disabled": 0, "is_reserved": 0, "type": "electric_scooter", "lon": -77.02413933333334, "fusion_lon": 0.0, "lat": 38.912574666666664, "rental_uris": {"android": "https://dc.lft.to/lastmile_qr_scan", "ios": "https://dc.lft.to/lastmile_qr_scan"}, "fusion_lat": 0.0, "name": "3a5690997779689796f7615c82883cfc", "bike_id": "3a5690997779689796f7615c82883cfc"}, {"is_disabled": 0, "is_reserved": 0, "type": "electric_scooter", "lon": -77.04156, "fusion_lon": 0.0, "lat": 38.917499, "rental_uris": {"android": "https://dc.lft.to/lastmile_qr_scan", "ios": "https://dc.lft.to/lastmile_qr_scan"}, "fusion_lat": 0.0, "name": "3ce189db8e52e9a54cc7366aed2a06da", "bike_id": "3ce189db8e52e9a54cc7366aed2a06da"}, {"is_disabled": 0, "is_reserved": 0, "type": "electric_scooter", "lon": -77.04704433333333, "fusion_lon": 0.0, "lat": 38.905978166666664, "rental_uris": {"android": "https://dc.lft.to/lastmile_qr_scan", "ios": "https://dc.lft.to/lastmile_qr_scan"}, "fusion_lat": 0.0, "name": "406cfe9f06cded2cfc185730ac6c91d0", "bike_id": "406cfe9f06cded2cfc185730ac6c91d0"}, {"is_disabled": 0, "is_reserved": 0, "type": "electric_scooter", "lon": -77.03382266666667, "fusion_lon": 0.0, "lat": 38.928668, "rental_uris": {"android": "https://dc.lft.to/lastmile_qr_scan", "ios": "https://dc.lft.to/lastmile_qr_scan"}, "fusion_lat": 0.0, "name": "f5ebe3d0eb2bbc205186a90b33c49aaa", "bike_id": "f5ebe3d0eb2bbc205186a90b33c49aaa"}, {"is_disabled": 0, "is_reserved": 0, "type": "electric_scooter", "lon": -77.043994, "fusion_lon": 0.0, "lat": 38.90025633333333, "rental_uris": {"android": "https://dc.lft.to/lastmile_qr_scan", "ios": "https://dc.lft.to/lastmile_qr_scan"}, "fusion_lat": 0.0, "name": "8c33cb7da6b89d3db9df94822cb44c8c", "bike_id": "8c33cb7da6b89d3db9df94822cb44c8c"}, {"is_disabled": 0, "is_reserved": 0, "type": "electric_scooter", "lon": -76.99845633333334, "fusion_lon": 0.0, "lat": 38.902420666666664, "rental_uris": {"android": "https://dc.lft.to/lastmile_qr_scan", "ios": "https://dc.lft.to/lastmile_qr_scan"}, "fusion_lat": 0.0, "name": "806aac61a98c55866c6f7ac7585fe26a", "bike_id": "806aac61a98c55866c6f7ac7585fe26a"}, {"is_disabled": 0, "is_reserved": 0, "type": "electric_scooter", "lon": -77.04355116666666, "fusion_lon": 0.0, "lat": 38.9209495, "rental_uris": {"android": "https://dc.lft.to/lastmile_qr_scan", "ios": "https://dc.lft.to/lastmile_qr_scan"}, "fusion_lat": 0.0, "name": "676247eac8db9aed65dc9e0909147d00", "bike_id": "676247eac8db9aed65dc9e0909147d00"}, {"is_disabled": 0, "is_reserved": 0, "type": "electric_bike", "lon": -77.12899533333334, "fusion_lon": 0.0, "lat": 38.86376966666667, "rental_uris": {"android": "https://dc.lft.to/lastmile_qr_scan", "ios": "https://dc.lft.to/lastmile_qr_scan"}, "fusion_lat": 0.0, "name": "9a688f65164cbc086b9b76b576288bb1", "bike_id": "9a688f65164cbc086b9b76b576288bb1"}, {"is_disabled": 0, "is_reserved": 0, "type": "electric_scooter", "lon": -77.05861416666667, "fusion_lon": 0.0, "lat": 38.936065, "rental_uris": {"android": "https://dc.lft.to/lastmile_qr_scan", "ios": "https://dc.lft.to/lastmile_qr_scan"}, "fusion_lat": 0.0, "name": "5c2b9ccb166e49f012c2b833162ec07e", "bike_id": "5c2b9ccb166e49f012c2b833162ec07e"}, {"is_disabled": 0, "is_reserved": 0, "type": "electric_scooter", "lon": -77.02228683333334, "fusion_lon": 0.0, "lat": 38.8983205, "rental_uris": {"android": "https://dc.lft.to/lastmile_qr_scan", "ios": "https://dc.lft.to/lastmile_qr_scan"}, "fusion_lat": 0.0, "name": "66afde38fb31bf0381a95976635d7e5f", "bike_id": "66afde38fb31bf0381a95976635d7e5f"}, {"is_disabled": 0, "is_reserved": 0, "type": "electric_scooter", "lon": -77.02721966666667, "fusion_lon": 0.0, "lat": 38.9408895, "rental_uris": {"android": "https://dc.lft.to/lastmile_qr_scan", "ios": "https://dc.lft.to/lastmile_qr_scan"}, "fusion_lat": 0.0, "name": "c96fa07247a15d6190025d38284bd813", "bike_id": "c96fa07247a15d6190025d38284bd813"}, {"is_disabled": 0, "is_reserved": 0, "type": "electric_scooter", "lon": -77.0416435, "fusion_lon": 0.0, "lat": 38.901311666666665, "rental_uris": {"android": "https://dc.lft.to/lastmile_qr_scan", "ios": "https://dc.lft.to/lastmile_qr_scan"}, "fusion_lat": 0.0, "name": "aaa41f540570808884826f326c67e5e7", "bike_id": "aaa41f540570808884826f326c67e5e7"}, {"is_disabled": 0, "is_reserved": 0, "type": "electric_bike", "lon": -77.0210155, "fusion_lon": 0.0, "lat": 39.0229995, "rental_uris": {"android": "https://dc.lft.to/lastmile_qr_scan", "ios": "https://dc.lft.to/lastmile_qr_scan"}, "fusion_lat": 0.0, "name": "6fbeffb59b9bb09fdf7894ac306e2c18", "bike_id": "6fbeffb59b9bb09fdf7894ac306e2c18"}, {"is_disabled": 0, "is_reserved": 0, "type": "electric_scooter", "lon": -77.07437783333333, "fusion_lon": 0.0, "lat": 38.91094183333333, "rental_uris": {"android": "https://dc.lft.to/lastmile_qr_scan", "ios": "https://dc.lft.to/lastmile_qr_scan"}, "fusion_lat": 0.0, "name": "9ec1d335ec31e4b4a679dcca19bb0e3a", "bike_id": "9ec1d335ec31e4b4a679dcca19bb0e3a"}, {"is_disabled": 0, "is_reserved": 0, "type": "electric_scooter", "lon": -77.02676916666667, "fusion_lon": 0.0, "lat": 38.90963466666667, "rental_uris": {"android": "https://dc.lft.to/lastmile_qr_scan", "ios": "https://dc.lft.to/lastmile_qr_scan"}, "fusion_lat": 0.0, "name": "433340ece38f60290a3caa9e4d0f96e5", "bike_id": "433340ece38f60290a3caa9e4d0f96e5"}, {"is_disabled": 0, "is_reserved": 0, "type": "electric_scooter", "lon": -77.009143, "fusion_lon": 0.0, "lat": 38.959529, "rental_uris": {"android": "https://dc.lft.to/lastmile_qr_scan", "ios": "https://dc.lft.to/lastmile_qr_scan"}, "fusion_lat": 0.0, "name": "70ca1b14019519e204751410691fb28a", "bike_id": "70ca1b14019519e204751410691fb28a"}, {"is_disabled": 0, "is_reserved": 0, "type": "electric_scooter", "lon": -77.02483133333334, "fusion_lon": 0.0, "lat": 38.91696816666666, "rental_uris": {"android": "https://dc.lft.to/lastmile_qr_scan", "ios": "https://dc.lft.to/lastmile_qr_scan"}, "fusion_lat": 0.0, "name": "3113a84aa167bd47df62a8381367dec3", "bike_id": "3113a84aa167bd47df62a8381367dec3"}, {"is_disabled": 0, "is_reserved": 0, "type": "electric_scooter", "lon": -77.02374083333333, "fusion_lon": 0.0, "lat": 38.919617833333334, "rental_uris": {"android": "https://dc.lft.to/lastmile_qr_scan", "ios": "https://dc.lft.to/lastmile_qr_scan"}, "fusion_lat": 0.0, "name": "79d5d2504e94a0b7c4bc8d16182cce55", "bike_id": "79d5d2504e94a0b7c4bc8d16182cce55"}, {"is_disabled": 0, "is_reserved": 0, "type": "electric_bike", "lon": -77.000463, "fusion_lon": 0.0, "lat": 38.87629783333333, "rental_uris": {"android": "https://dc.lft.to/lastmile_qr_scan", "ios": "https://dc.lft.to/lastmile_qr_scan"}, "fusion_lat": 0.0, "name": "4e83a13d6b40369edc1dc04743aac2b2", "bike_id": "4e83a13d6b40369edc1dc04743aac2b2"}, {"is_disabled": 0, "is_reserved": 0, "type": "electric_scooter", "lon": -76.99699633333333, "fusion_lon": 0.0, "lat": 38.83851933333333, "rental_uris": {"android": "https://dc.lft.to/lastmile_qr_scan", "ios": "https://dc.lft.to/lastmile_qr_scan"}, "fusion_lat": 0.0, "name": "7b2fe4a1d173c6b440c0739303ef06ab", "bike_id": "7b2fe4a1d173c6b440c0739303ef06ab"}, {"is_disabled": 0, "is_reserved": 0, "type": "electric_scooter", "lon": -77.037527, "fusion_lon": 0.0, "lat": 38.912684, "rental_uris": {"android": "https://dc.lft.to/lastmile_qr_scan", "ios": "https://dc.lft.to/lastmile_qr_scan"}, "fusion_lat": 0.0, "name": "10ad6d8cf7152b1c656379c4b430190c", "bike_id": "10ad6d8cf7152b1c656379c4b430190c"}, {"is_disabled": 0, "is_reserved": 0, "type": "electric_scooter", "lon": -77.0342715, "fusion_lon": 0.0, "lat": 38.93537533333333, "rental_uris": {"android": "https://dc.lft.to/lastmile_qr_scan", "ios": "https://dc.lft.to/lastmile_qr_scan"}, "fusion_lat": 0.0, "name": "4e4844690d2f5718bf14862697bf6da0", "bike_id": "4e4844690d2f5718bf14862697bf6da0"}, {"is_disabled": 0, "is_reserved": 0, "type": "electric_scooter", "lon": -76.940615, "fusion_lon": 0.0, "lat": 38.89019616666667, "rental_uris": {"android": "https://dc.lft.to/lastmile_qr_scan", "ios": "https://dc.lft.to/lastmile_qr_scan"}, "fusion_lat": 0.0, "name": "2feeda6164d68a3fc452fdf99b6a6537", "bike_id": "2feeda6164d68a3fc452fdf99b6a6537"}, {"is_disabled": 0, "is_reserved": 0, "type": "electric_scooter", "lon": -77.02841683333334, "fusion_lon": 0.0, "lat": 38.937569833333335, "rental_uris": {"android": "https://dc.lft.to/lastmile_qr_scan", "ios": "https://dc.lft.to/lastmile_qr_scan"}, "fusion_lat": 0.0, "name": "855b029e29b975ad15c92c0dd939a6db", "bike_id": "855b029e29b975ad15c92c0dd939a6db"}, {"is_disabled": 0, "is_reserved": 0, "type": "electric_scooter", "lon": -77.0260285, "fusion_lon": 0.0, "lat": 38.916371166666664, "rental_uris": {"android": "https://dc.lft.to/lastmile_qr_scan", "ios": "https://dc.lft.to/lastmile_qr_scan"}, "fusion_lat": 0.0, "name": "27fc889d326a1f8c1fd937229aa8577a", "bike_id": "27fc889d326a1f8c1fd937229aa8577a"}, {"is_disabled": 0, "is_reserved": 0, "type": "electric_bike", "lon": -77.03203466666666, "fusion_lon": 0.0, "lat": 38.911542833333336, "rental_uris": {"android": "https://dc.lft.to/lastmile_qr_scan", "ios": "https://dc.lft.to/lastmile_qr_scan"}, "fusion_lat": 0.0, "name": "df953037cf2863b232b5a57717c976d3", "bike_id": "df953037cf2863b232b5a57717c976d3"}, {"is_disabled": 0, "is_reserved": 0, "type": "electric_bike", "lon": -76.932305, "fusion_lon": 0.0, "lat": 38.865953, "rental_uris": {"android": "https://dc.lft.to/lastmile_qr_scan", "ios": "https://dc.lft.to/lastmile_qr_scan"}, "fusion_lat": 0.0, "name": "6e74978b7583a19a41e3fcef943b1625", "bike_id": "6e74978b7583a19a41e3fcef943b1625"}, {"is_disabled": 0, "is_reserved": 0, "type": "electric_scooter", "lon": -77.036783, "fusion_lon": 0.0, "lat": 38.908519166666665, "rental_uris": {"android": "https://dc.lft.to/lastmile_qr_scan", "ios": "https://dc.lft.to/lastmile_qr_scan"}, "fusion_lat": 0.0, "name": "0e32cde29fa04f01ee5fa728384d6c9d", "bike_id": "0e32cde29fa04f01ee5fa728384d6c9d"}, {"is_disabled": 0, "is_reserved": 0, "type": "electric_scooter", "lon": -77.04734033333334, "fusion_lon": 0.0, "lat": 38.90593533333333, "rental_uris": {"android": "https://dc.lft.to/lastmile_qr_scan", "ios": "https://dc.lft.to/lastmile_qr_scan"}, "fusion_lat": 0.0, "name": "19d0ccc6178086a985c6ad18f058d618", "bike_id": "19d0ccc6178086a985c6ad18f058d618"}, {"is_disabled": 0, "is_reserved": 0, "type": "electric_scooter", "lon": -77.018406, "fusion_lon": 0.0, "lat": 38.921929, "rental_uris": {"android": "https://dc.lft.to/lastmile_qr_scan", "ios": "https://dc.lft.to/lastmile_qr_scan"}, "fusion_lat": 0.0, "name": "c5c39b66c3f91f5dc631751483e6f204", "bike_id": "c5c39b66c3f91f5dc631751483e6f204"}, {"is_disabled": 0, "is_reserved": 0, "type": "electric_scooter", "lon": -76.9877105, "fusion_lon": 0.0, "lat": 38.9117165, "rental_uris": {"android": "https://dc.lft.to/lastmile_qr_scan", "ios": "https://dc.lft.to/lastmile_qr_scan"}, "fusion_lat": 0.0, "name": "704423ff763dc1a107061b10f4151d4c", "bike_id": "704423ff763dc1a107061b10f4151d4c"}, {"is_disabled": 0, "is_reserved": 0, "type": "electric_scooter", "lon": -77.04653233333333, "fusion_lon": 0.0, "lat": 38.89238233333333, "rental_uris": {"android": "https://dc.lft.to/lastmile_qr_scan", "ios": "https://dc.lft.to/lastmile_qr_scan"}, "fusion_lat": 0.0, "name": "59096d0528c9c0867b5556e4174e84a0", "bike_id": "59096d0528c9c0867b5556e4174e84a0"}, {"is_disabled": 0, "is_reserved": 0, "type": "electric_bike", "lon": -77.12584183333334, "fusion_lon": 0.0, "lat": 38.851468833333335, "rental_uris": {"android": "https://dc.lft.to/lastmile_qr_scan", "ios": "https://dc.lft.to/lastmile_qr_scan"}, "fusion_lat": 0.0, "name": "cbeb3f4af32ee37dc69239cb68f5a919", "bike_id": "cbeb3f4af32ee37dc69239cb68f5a919"}, {"is_disabled": 0, "is_reserved": 0, "type": "electric_scooter", "lon": -77.03226116666667, "fusion_lon": 0.0, "lat": 38.91754566666667, "rental_uris": {"android": "https://dc.lft.to/lastmile_qr_scan", "ios": "https://dc.lft.to/lastmile_qr_scan"}, "fusion_lat": 0.0, "name": "76e541b27db58f9342e15b1fcd647eee", "bike_id": "76e541b27db58f9342e15b1fcd647eee"}, {"is_disabled": 0, "is_reserved": 0, "type": "electric_scooter", "lon": -77.04173933333334, "fusion_lon": 0.0, "lat": 38.9173375, "rental_uris": {"android": "https://dc.lft.to/lastmile_qr_scan", "ios": "https://dc.lft.to/lastmile_qr_scan"}, "fusion_lat": 0.0, "name": "df82dfd24cd28fe162b373365084e79e", "bike_id": "df82dfd24cd28fe162b373365084e79e"}, {"is_disabled": 0, "is_reserved": 0, "type": "electric_bike", "lon": -77.02869866666667, "fusion_lon": 0.0, "lat": 38.998589, "rental_uris": {"android": "https://dc.lft.to/lastmile_qr_scan", "ios": "https://dc.lft.to/lastmile_qr_scan"}, "fusion_lat": 0.0, "name": "2a1c02cee13e12353f4be1e6f3b374cd", "bike_id": "2a1c02cee13e12353f4be1e6f3b374cd"}, {"is_disabled": 0, "is_reserved": 0, "type": "electric_scooter", "lon": -76.973411, "fusion_lon": 0.0, "lat": 38.8651055, "rental_uris": {"android": "https://dc.lft.to/lastmile_qr_scan", "ios": "https://dc.lft.to/lastmile_qr_scan"}, "fusion_lat": 0.0, "name": "3caa0ead34436dcce8de3e9a83f72570", "bike_id": "3caa0ead34436dcce8de3e9a83f72570"}, {"is_disabled": 0, "is_reserved": 0, "type": "electric_scooter", "lon": -77.06759983333333, "fusion_lon": 0.0, "lat": 38.949713833333334, "rental_uris": {"android": "https://dc.lft.to/lastmile_qr_scan", "ios": "https://dc.lft.to/lastmile_qr_scan"}, "fusion_lat": 0.0, "name": "a626846768ba8443db8ce3e83eb05f50", "bike_id": "a626846768ba8443db8ce3e83eb05f50"}, {"is_disabled": 0, "is_reserved": 0, "type": "electric_scooter", "lon": -77.05835433333333, "fusion_lon": 0.0, "lat": 38.935458833333335, "rental_uris": {"android": "https://dc.lft.to/lastmile_qr_scan", "ios": "https://dc.lft.to/lastmile_qr_scan"}, "fusion_lat": 0.0, "name": "1f904918d2db4a7b16b12b10a0dc5129", "bike_id": "1f904918d2db4a7b16b12b10a0dc5129"}, {"is_disabled": 0, "is_reserved": 0, "type": "electric_scooter", "lon": -77.026952, "fusion_lon": 0.0, "lat": 38.908652333333336, "rental_uris": {"android": "https://dc.lft.to/lastmile_qr_scan", "ios": "https://dc.lft.to/lastmile_qr_scan"}, "fusion_lat": 0.0, "name": "0a47b5f9d60fb3b145e58a08bdcbac36", "bike_id": "0a47b5f9d60fb3b145e58a08bdcbac36"}, {"is_disabled": 0, "is_reserved": 0, "type": "electric_bike", "lon": -76.97214533333333, "fusion_lon": 0.0, "lat": 38.844816333333334, "rental_uris": {"android": "https://dc.lft.to/lastmile_qr_scan", "ios": "https://dc.lft.to/lastmile_qr_scan"}, "fusion_lat": 0.0, "name": "7c2ca251af29bc38329a39f2933f815e", "bike_id": "7c2ca251af29bc38329a39f2933f815e"}, {"is_disabled": 0, "is_reserved": 0, "type": "electric_scooter", "lon": -77.04730266666667, "fusion_lon": 0.0, "lat": 38.898422, "rental_uris": {"android": "https://dc.lft.to/lastmile_qr_scan", "ios": "https://dc.lft.to/lastmile_qr_scan"}, "fusion_lat": 0.0, "name": "5c7e40507236e9823de81c7d847b9bc0", "bike_id": "5c7e40507236e9823de81c7d847b9bc0"}, {"is_disabled": 0, "is_reserved": 0, "type": "electric_scooter", "lon": -77.040566, "fusion_lon": 0.0, "lat": 38.92401233333333, "rental_uris": {"android": "https://dc.lft.to/lastmile_qr_scan", "ios": "https://dc.lft.to/lastmile_qr_scan"}, "fusion_lat": 0.0, "name": "a72b15b2343b4936ac1ef52feaea10d2", "bike_id": "a72b15b2343b4936ac1ef52feaea10d2"}, {"is_disabled": 0, "is_reserved": 0, "type": "electric_bike", "lon": -77.03697516666666, "fusion_lon": 0.0, "lat": 38.935636333333335, "rental_uris": {"android": "https://dc.lft.to/lastmile_qr_scan", "ios": "https://dc.lft.to/lastmile_qr_scan"}, "fusion_lat": 0.0, "name": "8cbe85bb5685b00083dbd3c8b1446d7b", "bike_id": "8cbe85bb5685b00083dbd3c8b1446d7b"}, {"is_disabled": 0, "is_reserved": 0, "type": "electric_scooter", "lon": -77.021506, "fusion_lon": 0.0, "lat": 38.92605483333333, "rental_uris": {"android": "https://dc.lft.to/lastmile_qr_scan", "ios": "https://dc.lft.to/lastmile_qr_scan"}, "fusion_lat": 0.0, "name": "012fc88e5f512888f1a1cc432f9ca2c2", "bike_id": "012fc88e5f512888f1a1cc432f9ca2c2"}, {"is_disabled": 0, "is_reserved": 0, "type": "electric_scooter", "lon": -77.04171433333333, "fusion_lon": 0.0, "lat": 38.92005433333333, "rental_uris": {"android": "https://dc.lft.to/lastmile_qr_scan", "ios": "https://dc.lft.to/lastmile_qr_scan"}, "fusion_lat": 0.0, "name": "0b97ba70940dc4ee17eb243160f142d9", "bike_id": "0b97ba70940dc4ee17eb243160f142d9"}, {"is_disabled": 0, "is_reserved": 0, "type": "electric_scooter", "lon": -77.03110966666667, "fusion_lon": 0.0, "lat": 38.920149, "rental_uris": {"android": "https://dc.lft.to/lastmile_qr_scan", "ios": "https://dc.lft.to/lastmile_qr_scan"}, "fusion_lat": 0.0, "name": "7a32685d2d6e1934b95597a00283658d", "bike_id": "7a32685d2d6e1934b95597a00283658d"}, {"is_disabled": 0, "is_reserved": 0, "type": "electric_scooter", "lon": -77.0331155, "fusion_lon": 0.0, "lat": 38.90549033333333, "rental_uris": {"android": "https://dc.lft.to/lastmile_qr_scan", "ios": "https://dc.lft.to/lastmile_qr_scan"}, "fusion_lat": 0.0, "name": "a9707c489e9253791ea164da0c292b2c", "bike_id": "a9707c489e9253791ea164da0c292b2c"}, {"is_disabled": 0, "is_reserved": 0, "type": "electric_scooter", "lon": -77.01997483333334, "fusion_lon": 0.0, "lat": 38.966302666666664, "rental_uris": {"android": "https://dc.lft.to/lastmile_qr_scan", "ios": "https://dc.lft.to/lastmile_qr_scan"}, "fusion_lat": 0.0, "name": "d07bfaa8977a311e13729196c2aa5b6f", "bike_id": "d07bfaa8977a311e13729196c2aa5b6f"}, {"is_disabled": 0, "is_reserved": 0, "type": "electric_scooter", "lon": -77.03699516666667, "fusion_lon": 0.0, "lat": 38.926457, "rental_uris": {"android": "https://dc.lft.to/lastmile_qr_scan", "ios": "https://dc.lft.to/lastmile_qr_scan"}, "fusion_lat": 0.0, "name": "f6fcfdc1cb909ddc7ee4f6de43412f11", "bike_id": "f6fcfdc1cb909ddc7ee4f6de43412f11"}, {"is_disabled": 0, "is_reserved": 0, "type": "electric_bike", "lon": -76.94802783333333, "fusion_lon": 0.0, "lat": 38.86200216666667, "rental_uris": {"android": "https://dc.lft.to/lastmile_qr_scan", "ios": "https://dc.lft.to/lastmile_qr_scan"}, "fusion_lat": 0.0, "name": "e1dce6dc5f19418d467b35795d3bdc8c", "bike_id": "e1dce6dc5f19418d467b35795d3bdc8c"}, {"is_disabled": 0, "is_reserved": 0, "type": "electric_scooter", "lon": -77.0151025, "fusion_lon": 0.0, "lat": 38.9103275, "rental_uris": {"android": "https://dc.lft.to/lastmile_qr_scan", "ios": "https://dc.lft.to/lastmile_qr_scan"}, "fusion_lat": 0.0, "name": "19a266c4846149bb8905bfff6cbcff05", "bike_id": "19a266c4846149bb8905bfff6cbcff05"}, {"is_disabled": 0, "is_reserved": 0, "type": "electric_scooter", "lon": -77.04236816666666, "fusion_lon": 0.0, "lat": 38.905497, "rental_uris": {"android": "https://dc.lft.to/lastmile_qr_scan", "ios": "https://dc.lft.to/lastmile_qr_scan"}, "fusion_lat": 0.0, "name": "6995c4ae058514d85da269c2138b2696", "bike_id": "6995c4ae058514d85da269c2138b2696"}, {"is_disabled": 0, "is_reserved": 0, "type": "electric_scooter", "lon": -77.04579666666666, "fusion_lon": 0.0, "lat": 38.92417483333333, "rental_uris": {"android": "https://dc.lft.to/lastmile_qr_scan", "ios": "https://dc.lft.to/lastmile_qr_scan"}, "fusion_lat": 0.0, "name": "577a6bcc1caa69719ba6c2c76660c451", "bike_id": "577a6bcc1caa69719ba6c2c76660c451"}, {"is_disabled": 0, "is_reserved": 0, "type": "electric_scooter", "lon": -77.02718616666667, "fusion_lon": 0.0, "lat": 38.91098, "rental_uris": {"android": "https://dc.lft.to/lastmile_qr_scan", "ios": "https://dc.lft.to/lastmile_qr_scan"}, "fusion_lat": 0.0, "name": "043ff92b20c0dbfd958ec7770a9f6356", "bike_id": "043ff92b20c0dbfd958ec7770a9f6356"}, {"is_disabled": 0, "is_reserved": 0, "type": "electric_bike", "lon": -77.04185533333333, "fusion_lon": 0.0, "lat": 38.915509166666666, "rental_uris": {"android": "https://dc.lft.to/lastmile_qr_scan", "ios": "https://dc.lft.to/lastmile_qr_scan"}, "fusion_lat": 0.0, "name": "30d76467a8294ad5c239b5325170d222", "bike_id": "30d76467a8294ad5c239b5325170d222"}, {"is_disabled": 0, "is_reserved": 0, "type": "electric_scooter", "lon": -77.022933, "fusion_lon": 0.0, "lat": 38.91784616666666, "rental_uris": {"android": "https://dc.lft.to/lastmile_qr_scan", "ios": "https://dc.lft.to/lastmile_qr_scan"}, "fusion_lat": 0.0, "name": "fba1866a2ada35579287f861854a5578", "bike_id": "fba1866a2ada35579287f861854a5578"}, {"is_disabled": 0, "is_reserved": 0, "type": "electric_bike", "lon": -77.07084416666666, "fusion_lon": 0.0, "lat": 38.90624366666667, "rental_uris": {"android": "https://dc.lft.to/lastmile_qr_scan", "ios": "https://dc.lft.to/lastmile_qr_scan"}, "fusion_lat": 0.0, "name": "610049428a90ba00752909735c5d8bd4", "bike_id": "610049428a90ba00752909735c5d8bd4"}, {"is_disabled": 0, "is_reserved": 0, "type": "electric_scooter", "lon": -77.046811, "fusion_lon": 0.0, "lat": 38.90568733333333, "rental_uris": {"android": "https://dc.lft.to/lastmile_qr_scan", "ios": "https://dc.lft.to/lastmile_qr_scan"}, "fusion_lat": 0.0, "name": "3a7dcf19a381f57d445dd3f671ea010c", "bike_id": "3a7dcf19a381f57d445dd3f671ea010c"}, {"is_disabled": 0, "is_reserved": 0, "type": "electric_scooter", "lon": -77.00917916666667, "fusion_lon": 0.0, "lat": 38.896408666666666, "rental_uris": {"android": "https://dc.lft.to/lastmile_qr_scan", "ios": "https://dc.lft.to/lastmile_qr_scan"}, "fusion_lat": 0.0, "name": "041dd04d71647ffaaf7ea3eec1fddff5", "bike_id": "041dd04d71647ffaaf7ea3eec1fddff5"}, {"is_disabled": 0, "is_reserved": 0, "type": "electric_bike", "lon": -77.03894, "fusion_lon": 0.0, "lat": 38.94394966666667, "rental_uris": {"android": "https://dc.lft.to/lastmile_qr_scan", "ios": "https://dc.lft.to/lastmile_qr_scan"}, "fusion_lat": 0.0, "name": "50676ee0fea85c9c8915c91e635958c9", "bike_id": "50676ee0fea85c9c8915c91e635958c9"}, {"is_disabled": 0, "is_reserved": 0, "type": "electric_scooter", "lon": -77.05014866666667, "fusion_lon": 0.0, "lat": 38.900786833333335, "rental_uris": {"android": "https://dc.lft.to/lastmile_qr_scan", "ios": "https://dc.lft.to/lastmile_qr_scan"}, "fusion_lat": 0.0, "name": "7454ea65f17974f2a6a9d5fb67d0a698", "bike_id": "7454ea65f17974f2a6a9d5fb67d0a698"}, {"is_disabled": 0, "is_reserved": 0, "type": "electric_scooter", "lon": -77.0330985, "fusion_lon": 0.0, "lat": 38.95612883333333, "rental_uris": {"android": "https://dc.lft.to/lastmile_qr_scan", "ios": "https://dc.lft.to/lastmile_qr_scan"}, "fusion_lat": 0.0, "name": "654112cdb6c1e9eeb62c31d0169f7f0f", "bike_id": "654112cdb6c1e9eeb62c31d0169f7f0f"}, {"is_disabled": 0, "is_reserved": 0, "type": "electric_bike", "lon": -77.005968, "fusion_lon": 0.0, "lat": 38.898074333333334, "rental_uris": {"android": "https://dc.lft.to/lastmile_qr_scan", "ios": "https://dc.lft.to/lastmile_qr_scan"}, "fusion_lat": 0.0, "name": "27185075378e7ddf5f9e15a9122fad0e", "bike_id": "27185075378e7ddf5f9e15a9122fad0e"}, {"is_disabled": 0, "is_reserved": 0, "type": "electric_scooter", "lon": -77.02483166666667, "fusion_lon": 0.0, "lat": 38.91408233333333, "rental_uris": {"android": "https://dc.lft.to/lastmile_qr_scan", "ios": "https://dc.lft.to/lastmile_qr_scan"}, "fusion_lat": 0.0, "name": "905fe2ff89740244ad0f0cee7c5cbc93", "bike_id": "905fe2ff89740244ad0f0cee7c5cbc93"}, {"is_disabled": 0, "is_reserved": 0, "type": "electric_scooter", "lon": -77.01201416666666, "fusion_lon": 0.0, "lat": 38.9110795, "rental_uris": {"android": "https://dc.lft.to/lastmile_qr_scan", "ios": "https://dc.lft.to/lastmile_qr_scan"}, "fusion_lat": 0.0, "name": "0e1d32fde7d0801a14cc6c7fcba79234", "bike_id": "0e1d32fde7d0801a14cc6c7fcba79234"}, {"is_disabled": 0, "is_reserved": 0, "type": "electric_scooter", "lon": -77.0543175, "fusion_lon": 0.0, "lat": 38.928253166666664, "rental_uris": {"android": "https://dc.lft.to/lastmile_qr_scan", "ios": "https://dc.lft.to/lastmile_qr_scan"}, "fusion_lat": 0.0, "name": "749d1516246c7629ada6b2d976d99011", "bike_id": "749d1516246c7629ada6b2d976d99011"}, {"is_disabled": 0, "is_reserved": 0, "type": "electric_scooter", "lon": -77.0006695, "fusion_lon": 0.0, "lat": 38.900528666666666, "rental_uris": {"android": "https://dc.lft.to/lastmile_qr_scan", "ios": "https://dc.lft.to/lastmile_qr_scan"}, "fusion_lat": 0.0, "name": "e92ff619c82352950ef1d1134463bb67", "bike_id": "e92ff619c82352950ef1d1134463bb67"}, {"is_disabled": 0, "is_reserved": 0, "type": "electric_scooter", "lon": -77.04414333333334, "fusion_lon": 0.0, "lat": 38.9177605, "rental_uris": {"android": "https://dc.lft.to/lastmile_qr_scan", "ios": "https://dc.lft.to/lastmile_qr_scan"}, "fusion_lat": 0.0, "name": "7e2b2110b5cbc8ffb3f57e62fccf1efb", "bike_id": "7e2b2110b5cbc8ffb3f57e62fccf1efb"}, {"is_disabled": 0, "is_reserved": 0, "type": "electric_scooter", "lon": -77.0400885, "fusion_lon": 0.0, "lat": 38.90588283333334, "rental_uris": {"android": "https://dc.lft.to/lastmile_qr_scan", "ios": "https://dc.lft.to/lastmile_qr_scan"}, "fusion_lat": 0.0, "name": "233b4646e2eef28b72ff1c7dc2b6f57b", "bike_id": "233b4646e2eef28b72ff1c7dc2b6f57b"}, {"is_disabled": 0, "is_reserved": 0, "type": "electric_scooter", "lon": -77.0375875, "fusion_lon": 0.0, "lat": 38.916898833333335, "rental_uris": {"android": "https://dc.lft.to/lastmile_qr_scan", "ios": "https://dc.lft.to/lastmile_qr_scan"}, "fusion_lat": 0.0, "name": "a06cbd3dd7e1c760636db4f63fc9cee0", "bike_id": "a06cbd3dd7e1c760636db4f63fc9cee0"}, {"is_disabled": 0, "is_reserved": 0, "type": "electric_scooter", "lon": -77.04155933333334, "fusion_lon": 0.0, "lat": 38.898897833333336, "rental_uris": {"android": "https://dc.lft.to/lastmile_qr_scan", "ios": "https://dc.lft.to/lastmile_qr_scan"}, "fusion_lat": 0.0, "name": "29fbc39e419af4ff521a2c2d8e6e3d26", "bike_id": "29fbc39e419af4ff521a2c2d8e6e3d26"}, {"is_disabled": 0, "is_reserved": 0, "type": "electric_scooter", "lon": -77.05282816666667, "fusion_lon": 0.0, "lat": 38.92250633333333, "rental_uris": {"android": "https://dc.lft.to/lastmile_qr_scan", "ios": "https://dc.lft.to/lastmile_qr_scan"}, "fusion_lat": 0.0, "name": "615ce8c058f2754c0b97b1265cb030bf", "bike_id": "615ce8c058f2754c0b97b1265cb030bf"}, {"is_disabled": 0, "is_reserved": 0, "type": "electric_scooter", "lon": -77.03701216666667, "fusion_lon": 0.0, "lat": 38.92645066666667, "rental_uris": {"android": "https://dc.lft.to/lastmile_qr_scan", "ios": "https://dc.lft.to/lastmile_qr_scan"}, "fusion_lat": 0.0, "name": "e8d8ed00bd2be88a9b603d8eb43f9ebc", "bike_id": "e8d8ed00bd2be88a9b603d8eb43f9ebc"}, {"is_disabled": 0, "is_reserved": 0, "type": "electric_scooter", "lon": -77.04476983333333, "fusion_lon": 0.0, "lat": 38.902243666666664, "rental_uris": {"android": "https://dc.lft.to/lastmile_qr_scan", "ios": "https://dc.lft.to/lastmile_qr_scan"}, "fusion_lat": 0.0, "name": "2b5d1e7e7f0af8127d7283c3ce152946", "bike_id": "2b5d1e7e7f0af8127d7283c3ce152946"}, {"is_disabled": 0, "is_reserved": 0, "type": "electric_bike", "lon": -77.00894633333333, "fusion_lon": 0.0, "lat": 38.874450833333334, "rental_uris": {"android": "https://dc.lft.to/lastmile_qr_scan", "ios": "https://dc.lft.to/lastmile_qr_scan"}, "fusion_lat": 0.0, "name": "94ca51a3302ce4bb10b311ed8cd015c9", "bike_id": "94ca51a3302ce4bb10b311ed8cd015c9"}, {"is_disabled": 0, "is_reserved": 0, "type": "electric_bike", "lon": -77.05101333333333, "fusion_lon": 0.0, "lat": 38.8975245, "rental_uris": {"android": "https://dc.lft.to/lastmile_qr_scan", "ios": "https://dc.lft.to/lastmile_qr_scan"}, "fusion_lat": 0.0, "name": "982d2f3b27069868c0ff29a20db2614e", "bike_id": "982d2f3b27069868c0ff29a20db2614e"}, {"is_disabled": 0, "is_reserved": 0, "type": "electric_scooter", "lon": -76.98729816666666, "fusion_lon": 0.0, "lat": 38.86712, "rental_uris": {"android": "https://dc.lft.to/lastmile_qr_scan", "ios": "https://dc.lft.to/lastmile_qr_scan"}, "fusion_lat": 0.0, "name": "552dc79742815956907b6947ff1a6ef6", "bike_id": "552dc79742815956907b6947ff1a6ef6"}, {"is_disabled": 0, "is_reserved": 0, "type": "electric_scooter", "lon": -77.02307283333333, "fusion_lon": 0.0, "lat": 38.91783383333333, "rental_uris": {"android": "https://dc.lft.to/lastmile_qr_scan", "ios": "https://dc.lft.to/lastmile_qr_scan"}, "fusion_lat": 0.0, "name": "5a5e4c667d6d2e87c43f1c5400710a6f", "bike_id": "5a5e4c667d6d2e87c43f1c5400710a6f"}, {"is_disabled": 0, "is_reserved": 0, "type": "electric_scooter", "lon": -76.993941, "fusion_lon": 0.0, "lat": 38.92170433333333, "rental_uris": {"android": "https://dc.lft.to/lastmile_qr_scan", "ios": "https://dc.lft.to/lastmile_qr_scan"}, "fusion_lat": 0.0, "name": "81234e9d8533d91151870e59806183ce", "bike_id": "81234e9d8533d91151870e59806183ce"}, {"is_disabled": 0, "is_reserved": 0, "type": "electric_scooter", "lon": -77.03124066666666, "fusion_lon": 0.0, "lat": 38.92022016666667, "rental_uris": {"android": "https://dc.lft.to/lastmile_qr_scan", "ios": "https://dc.lft.to/lastmile_qr_scan"}, "fusion_lat": 0.0, "name": "e560af2ea13c0fcc8af5cb27ee007e66", "bike_id": "e560af2ea13c0fcc8af5cb27ee007e66"}, {"is_disabled": 0, "is_reserved": 0, "type": "electric_scooter", "lon": -76.94154133333333, "fusion_lon": 0.0, "lat": 38.88364, "rental_uris": {"android": "https://dc.lft.to/lastmile_qr_scan", "ios": "https://dc.lft.to/lastmile_qr_scan"}, "fusion_lat": 0.0, "name": "d83822368f79043330ea864059fe5bf3", "bike_id": "d83822368f79043330ea864059fe5bf3"}, {"is_disabled": 0, "is_reserved": 0, "type": "electric_scooter", "lon": -77.02931883333333, "fusion_lon": 0.0, "lat": 38.8952285, "rental_uris": {"android": "https://dc.lft.to/lastmile_qr_scan", "ios": "https://dc.lft.to/lastmile_qr_scan"}, "fusion_lat": 0.0, "name": "a382fdcc8c884f048fdc332ebefe3e19", "bike_id": "a382fdcc8c884f048fdc332ebefe3e19"}, {"is_disabled": 0, "is_reserved": 0, "type": "electric_scooter", "lon": -76.995328, "fusion_lon": 0.0, "lat": 38.86252916666667, "rental_uris": {"android": "https://dc.lft.to/lastmile_qr_scan", "ios": "https://dc.lft.to/lastmile_qr_scan"}, "fusion_lat": 0.0, "name": "24eed49515fc32d284f3149c9bfd924c", "bike_id": "24eed49515fc32d284f3149c9bfd924c"}, {"is_disabled": 0, "is_reserved": 0, "type": "electric_scooter", "lon": -77.00336133333333, "fusion_lon": 0.0, "lat": 38.8832985, "rental_uris": {"android": "https://dc.lft.to/lastmile_qr_scan", "ios": "https://dc.lft.to/lastmile_qr_scan"}, "fusion_lat": 0.0, "name": "62b5aeae937e20f6fef4732a5f84971c", "bike_id": "62b5aeae937e20f6fef4732a5f84971c"}, {"is_disabled": 0, "is_reserved": 0, "type": "electric_scooter", "lon": -77.06660116666667, "fusion_lon": 0.0, "lat": 38.903565, "rental_uris": {"android": "https://dc.lft.to/lastmile_qr_scan", "ios": "https://dc.lft.to/lastmile_qr_scan"}, "fusion_lat": 0.0, "name": "948c854f5b46899d0fc22d10595f1f84", "bike_id": "948c854f5b46899d0fc22d10595f1f84"}, {"is_disabled": 0, "is_reserved": 0, "type": "electric_scooter", "lon": -76.98337666666667, "fusion_lon": 0.0, "lat": 38.91271866666666, "rental_uris": {"android": "https://dc.lft.to/lastmile_qr_scan", "ios": "https://dc.lft.to/lastmile_qr_scan"}, "fusion_lat": 0.0, "name": "31c968195dfde47742db19a3bddcf096", "bike_id": "31c968195dfde47742db19a3bddcf096"}, {"is_disabled": 0, "is_reserved": 0, "type": "electric_bike", "lon": -76.9159425, "fusion_lon": 0.0, "lat": 38.88010966666667, "rental_uris": {"android": "https://dc.lft.to/lastmile_qr_scan", "ios": "https://dc.lft.to/lastmile_qr_scan"}, "fusion_lat": 0.0, "name": "3089eb43cf1777407d6f2ebee1a2feb1", "bike_id": "3089eb43cf1777407d6f2ebee1a2feb1"}, {"is_disabled": 0, "is_reserved": 0, "type": "electric_scooter", "lon": -77.02791866666666, "fusion_lon": 0.0, "lat": 38.93086983333333, "rental_uris": {"android": "https://dc.lft.to/lastmile_qr_scan", "ios": "https://dc.lft.to/lastmile_qr_scan"}, "fusion_lat": 0.0, "name": "1e69b930dc49af4d0111aec9c6b13b8a", "bike_id": "1e69b930dc49af4d0111aec9c6b13b8a"}, {"is_disabled": 0, "is_reserved": 0, "type": "electric_scooter", "lon": -77.02813833333333, "fusion_lon": 0.0, "lat": 38.9617175, "rental_uris": {"android": "https://dc.lft.to/lastmile_qr_scan", "ios": "https://dc.lft.to/lastmile_qr_scan"}, "fusion_lat": 0.0, "name": "3765a5ecaa3a5ab953ee0f0869fca476", "bike_id": "3765a5ecaa3a5ab953ee0f0869fca476"}, {"is_disabled": 0, "is_reserved": 0, "type": "electric_scooter", "lon": -77.008352, "fusion_lon": 0.0, "lat": 38.876546166666664, "rental_uris": {"android": "https://dc.lft.to/lastmile_qr_scan", "ios": "https://dc.lft.to/lastmile_qr_scan"}, "fusion_lat": 0.0, "name": "1effc85c0bfb5575dc5d2ad2b672e9cc", "bike_id": "1effc85c0bfb5575dc5d2ad2b672e9cc"}, {"is_disabled": 0, "is_reserved": 0, "type": "electric_bike", "lon": -76.90816616666666, "fusion_lon": 0.0, "lat": 38.99453666666667, "rental_uris": {"android": "https://dc.lft.to/lastmile_qr_scan", "ios": "https://dc.lft.to/lastmile_qr_scan"}, "fusion_lat": 0.0, "name": "f9c09253408c91b45e52347a298f0ea3", "bike_id": "f9c09253408c91b45e52347a298f0ea3"}, {"is_disabled": 0, "is_reserved": 0, "type": "electric_scooter", "lon": -77.05095066666667, "fusion_lon": 0.0, "lat": 38.9234235, "rental_uris": {"android": "https://dc.lft.to/lastmile_qr_scan", "ios": "https://dc.lft.to/lastmile_qr_scan"}, "fusion_lat": 0.0, "name": "03a76a588052e9219e47579187783ff0", "bike_id": "03a76a588052e9219e47579187783ff0"}, {"is_disabled": 0, "is_reserved": 0, "type": "electric_scooter", "lon": -77.05061983333333, "fusion_lon": 0.0, "lat": 38.90061716666666, "rental_uris": {"android": "https://dc.lft.to/lastmile_qr_scan", "ios": "https://dc.lft.to/lastmile_qr_scan"}, "fusion_lat": 0.0, "name": "ef30ba862f8138114490f44b0acd2469", "bike_id": "ef30ba862f8138114490f44b0acd2469"}, {"is_disabled": 0, "is_reserved": 0, "type": "electric_scooter", "lon": -76.9489365, "fusion_lon": 0.0, "lat": 38.895298, "rental_uris": {"android": "https://dc.lft.to/lastmile_qr_scan", "ios": "https://dc.lft.to/lastmile_qr_scan"}, "fusion_lat": 0.0, "name": "f84986b7d66db8481579500008cf62a2", "bike_id": "f84986b7d66db8481579500008cf62a2"}, {"is_disabled": 0, "is_reserved": 0, "type": "electric_scooter", "lon": -77.016314, "fusion_lon": 0.0, "lat": 38.8830595, "rental_uris": {"android": "https://dc.lft.to/lastmile_qr_scan", "ios": "https://dc.lft.to/lastmile_qr_scan"}, "fusion_lat": 0.0, "name": "a172bcc13276e66c20a5ab9fbacfd288", "bike_id": "a172bcc13276e66c20a5ab9fbacfd288"}, {"is_disabled": 0, "is_reserved": 0, "type": "electric_bike", "lon": -76.9789415, "fusion_lon": 0.0, "lat": 38.854909166666665, "rental_uris": {"android": "https://dc.lft.to/lastmile_qr_scan", "ios": "https://dc.lft.to/lastmile_qr_scan"}, "fusion_lat": 0.0, "name": "f55cf2ecc6b3b9b2f377de5b30a4857b", "bike_id": "f55cf2ecc6b3b9b2f377de5b30a4857b"}, {"is_disabled": 0, "is_reserved": 0, "type": "electric_scooter", "lon": -76.99861183333333, "fusion_lon": 0.0, "lat": 38.90014733333334, "rental_uris": {"android": "https://dc.lft.to/lastmile_qr_scan", "ios": "https://dc.lft.to/lastmile_qr_scan"}, "fusion_lat": 0.0, "name": "506d2bdf71a3aad4b5cdbd89368ea8f6", "bike_id": "506d2bdf71a3aad4b5cdbd89368ea8f6"}, {"is_disabled": 0, "is_reserved": 0, "type": "electric_scooter", "lon": -77.04028083333333, "fusion_lon": 0.0, "lat": 38.9178605, "rental_uris": {"android": "https://dc.lft.to/lastmile_qr_scan", "ios": "https://dc.lft.to/lastmile_qr_scan"}, "fusion_lat": 0.0, "name": "e39ded780bd3d67f325b81e932406d5f", "bike_id": "e39ded780bd3d67f325b81e932406d5f"}, {"is_disabled": 0, "is_reserved": 0, "type": "electric_scooter", "lon": -77.0387815, "fusion_lon": 0.0, "lat": 38.93428516666667, "rental_uris": {"android": "https://dc.lft.to/lastmile_qr_scan", "ios": "https://dc.lft.to/lastmile_qr_scan"}, "fusion_lat": 0.0, "name": "bbaf0a8e7fd3d092de2a2f8d4dddd192", "bike_id": "bbaf0a8e7fd3d092de2a2f8d4dddd192"}, {"is_disabled": 0, "is_reserved": 0, "type": "electric_scooter", "lon": -76.995747, "fusion_lon": 0.0, "lat": 38.920738, "rental_uris": {"android": "https://dc.lft.to/lastmile_qr_scan", "ios": "https://dc.lft.to/lastmile_qr_scan"}, "fusion_lat": 0.0, "name": "a17f41b979043e4417088afdc6fb024c", "bike_id": "a17f41b979043e4417088afdc6fb024c"}, {"is_disabled": 0, "is_reserved": 0, "type": "electric_scooter", "lon": -77.025442, "fusion_lon": 0.0, "lat": 38.90716483333333, "rental_uris": {"android": "https://dc.lft.to/lastmile_qr_scan", "ios": "https://dc.lft.to/lastmile_qr_scan"}, "fusion_lat": 0.0, "name": "b93a6d04f05f77bd64784ac89c51c3a5", "bike_id": "b93a6d04f05f77bd64784ac89c51c3a5"}, {"is_disabled": 0, "is_reserved": 0, "type": "electric_bike", "lon": -77.10719783333333, "fusion_lon": 0.0, "lat": 38.8554045, "rental_uris": {"android": "https://dc.lft.to/lastmile_qr_scan", "ios": "https://dc.lft.to/lastmile_qr_scan"}, "fusion_lat": 0.0, "name": "309e98adcd2d0ca47c301618c36a4381", "bike_id": "309e98adcd2d0ca47c301618c36a4381"}, {"is_disabled": 0, "is_reserved": 0, "type": "electric_bike", "lon": -77.05110383333333, "fusion_lon": 0.0, "lat": 38.94564583333333, "rental_uris": {"android": "https://dc.lft.to/lastmile_qr_scan", "ios": "https://dc.lft.to/lastmile_qr_scan"}, "fusion_lat": 0.0, "name": "78954f9d63b3b69b535f715bca2738de", "bike_id": "78954f9d63b3b69b535f715bca2738de"}, {"is_disabled": 0, "is_reserved": 0, "type": "electric_scooter", "lon": -77.02779, "fusion_lon": 0.0, "lat": 38.892186, "rental_uris": {"android": "https://dc.lft.to/lastmile_qr_scan", "ios": "https://dc.lft.to/lastmile_qr_scan"}, "fusion_lat": 0.0, "name": "7107c251a03cc83164d916c838708ace", "bike_id": "7107c251a03cc83164d916c838708ace"}, {"is_disabled": 0, "is_reserved": 0, "type": "electric_scooter", "lon": -77.063624, "fusion_lon": 0.0, "lat": 38.9441615, "rental_uris": {"android": "https://dc.lft.to/lastmile_qr_scan", "ios": "https://dc.lft.to/lastmile_qr_scan"}, "fusion_lat": 0.0, "name": "54727ccf75128545de625c3f5df4bcb4", "bike_id": "54727ccf75128545de625c3f5df4bcb4"}, {"is_disabled": 0, "is_reserved": 0, "type": "electric_scooter", "lon": -77.00217816666667, "fusion_lon": 0.0, "lat": 38.895027, "rental_uris": {"android": "https://dc.lft.to/lastmile_qr_scan", "ios": "https://dc.lft.to/lastmile_qr_scan"}, "fusion_lat": 0.0, "name": "5e7037b77f7b712fd99e144f273dbf82", "bike_id": "5e7037b77f7b712fd99e144f273dbf82"}, {"is_disabled": 0, "is_reserved": 0, "type": "electric_scooter", "lon": -77.00199966666666, "fusion_lon": 0.0, "lat": 38.9003325, "rental_uris": {"android": "https://dc.lft.to/lastmile_qr_scan", "ios": "https://dc.lft.to/lastmile_qr_scan"}, "fusion_lat": 0.0, "name": "9e2349d7d3dd443a4d2d75e0d1ace65c", "bike_id": "9e2349d7d3dd443a4d2d75e0d1ace65c"}, {"is_disabled": 0, "is_reserved": 0, "type": "electric_scooter", "lon": -77.031736, "fusion_lon": 0.0, "lat": 38.915566166666665, "rental_uris": {"android": "https://dc.lft.to/lastmile_qr_scan", "ios": "https://dc.lft.to/lastmile_qr_scan"}, "fusion_lat": 0.0, "name": "607b5d89946a2281f4bb494d149b0292", "bike_id": "607b5d89946a2281f4bb494d149b0292"}, {"is_disabled": 0, "is_reserved": 0, "type": "electric_scooter", "lon": -77.00248116666667, "fusion_lon": 0.0, "lat": 38.90253366666666, "rental_uris": {"android": "https://dc.lft.to/lastmile_qr_scan", "ios": "https://dc.lft.to/lastmile_qr_scan"}, "fusion_lat": 0.0, "name": "93b8706c781ec041ccb796883caba99d", "bike_id": "93b8706c781ec041ccb796883caba99d"}, {"is_disabled": 0, "is_reserved": 0, "type": "electric_scooter", "lon": -76.93051616666666, "fusion_lon": 0.0, "lat": 38.89794766666667, "rental_uris": {"android": "https://dc.lft.to/lastmile_qr_scan", "ios": "https://dc.lft.to/lastmile_qr_scan"}, "fusion_lat": 0.0, "name": "12e67a52b70ce8f5fef0a2bb15b9b780", "bike_id": "12e67a52b70ce8f5fef0a2bb15b9b780"}, {"is_disabled": 0, "is_reserved": 0, "type": "electric_bike", "lon": -77.12402733333333, "fusion_lon": 0.0, "lat": 38.89334, "rental_uris": {"android": "https://dc.lft.to/lastmile_qr_scan", "ios": "https://dc.lft.to/lastmile_qr_scan"}, "fusion_lat": 0.0, "name": "ae8271ea850896a8537398c3e13a4bc0", "bike_id": "ae8271ea850896a8537398c3e13a4bc0"}, {"is_disabled": 0, "is_reserved": 0, "type": "electric_bike", "lon": -77.04634366666667, "fusion_lon": 0.0, "lat": 38.91632233333333, "rental_uris": {"android": "https://dc.lft.to/lastmile_qr_scan", "ios": "https://dc.lft.to/lastmile_qr_scan"}, "fusion_lat": 0.0, "name": "a1c6185b5bceebdc6dd4bf6a0b75e0a1", "bike_id": "a1c6185b5bceebdc6dd4bf6a0b75e0a1"}, {"is_disabled": 0, "is_reserved": 0, "type": "electric_scooter", "lon": -76.99631333333333, "fusion_lon": 0.0, "lat": 38.846204, "rental_uris": {"android": "https://dc.lft.to/lastmile_qr_scan", "ios": "https://dc.lft.to/lastmile_qr_scan"}, "fusion_lat": 0.0, "name": "b1fe361309264424a69290e0038f67ba", "bike_id": "b1fe361309264424a69290e0038f67ba"}, {"is_disabled": 0, "is_reserved": 0, "type": "electric_scooter", "lon": -77.036348, "fusion_lon": 0.0, "lat": 38.903125, "rental_uris": {"android": "https://dc.lft.to/lastmile_qr_scan", "ios": "https://dc.lft.to/lastmile_qr_scan"}, "fusion_lat": 0.0, "name": "ada2e5e14fd5da88188a214e1022e763", "bike_id": "ada2e5e14fd5da88188a214e1022e763"}, {"is_disabled": 0, "is_reserved": 0, "type": "electric_scooter", "lon": -77.00582933333334, "fusion_lon": 0.0, "lat": 38.875347833333336, "rental_uris": {"android": "https://dc.lft.to/lastmile_qr_scan", "ios": "https://dc.lft.to/lastmile_qr_scan"}, "fusion_lat": 0.0, "name": "07875931af4ae75bfd61f32e3bb2a611", "bike_id": "07875931af4ae75bfd61f32e3bb2a611"}, {"is_disabled": 0, "is_reserved": 0, "type": "electric_scooter", "lon": -77.04158166666667, "fusion_lon": 0.0, "lat": 38.91417783333333, "rental_uris": {"android": "https://dc.lft.to/lastmile_qr_scan", "ios": "https://dc.lft.to/lastmile_qr_scan"}, "fusion_lat": 0.0, "name": "a507f907b543b0d57707394d5e7eed30", "bike_id": "a507f907b543b0d57707394d5e7eed30"}, {"is_disabled": 0, "is_reserved": 0, "type": "electric_scooter", "lon": -77.03924866666667, "fusion_lon": 0.0, "lat": 38.91910283333333, "rental_uris": {"android": "https://dc.lft.to/lastmile_qr_scan", "ios": "https://dc.lft.to/lastmile_qr_scan"}, "fusion_lat": 0.0, "name": "0e78658215578a452ed4033dc9c71660", "bike_id": "0e78658215578a452ed4033dc9c71660"}, {"is_disabled": 0, "is_reserved": 0, "type": "electric_scooter", "lon": -77.029504, "fusion_lon": 0.0, "lat": 38.8961815, "rental_uris": {"android": "https://dc.lft.to/lastmile_qr_scan", "ios": "https://dc.lft.to/lastmile_qr_scan"}, "fusion_lat": 0.0, "name": "77413eb8173d2a3146987f77657ffc27", "bike_id": "77413eb8173d2a3146987f77657ffc27"}, {"is_disabled": 0, "is_reserved": 0, "type": "electric_scooter", "lon": -77.04491166666666, "fusion_lon": 0.0, "lat": 38.9125535, "rental_uris": {"android": "https://dc.lft.to/lastmile_qr_scan", "ios": "https://dc.lft.to/lastmile_qr_scan"}, "fusion_lat": 0.0, "name": "43810a870ae48844c5c3f9053eddc35f", "bike_id": "43810a870ae48844c5c3f9053eddc35f"}, {"is_disabled": 0, "is_reserved": 0, "type": "electric_scooter", "lon": -77.03426583333334, "fusion_lon": 0.0, "lat": 38.927335, "rental_uris": {"android": "https://dc.lft.to/lastmile_qr_scan", "ios": "https://dc.lft.to/lastmile_qr_scan"}, "fusion_lat": 0.0, "name": "043033163476b2490e18f14ad2c7c72d", "bike_id": "043033163476b2490e18f14ad2c7c72d"}, {"is_disabled": 0, "is_reserved": 0, "type": "electric_scooter", "lon": -77.033466, "fusion_lon": 0.0, "lat": 38.91802066666666, "rental_uris": {"android": "https://dc.lft.to/lastmile_qr_scan", "ios": "https://dc.lft.to/lastmile_qr_scan"}, "fusion_lat": 0.0, "name": "51e94c0f6d61143ed82700acf61784cf", "bike_id": "51e94c0f6d61143ed82700acf61784cf"}, {"is_disabled": 0, "is_reserved": 0, "type": "electric_scooter", "lon": -77.03347766666667, "fusion_lon": 0.0, "lat": 38.89845283333333, "rental_uris": {"android": "https://dc.lft.to/lastmile_qr_scan", "ios": "https://dc.lft.to/lastmile_qr_scan"}, "fusion_lat": 0.0, "name": "646916f7f6666b702b8efc41fb3eb46e", "bike_id": "646916f7f6666b702b8efc41fb3eb46e"}, {"is_disabled": 0, "is_reserved": 0, "type": "electric_scooter", "lon": -77.03234766666667, "fusion_lon": 0.0, "lat": 38.9126015, "rental_uris": {"android": "https://dc.lft.to/lastmile_qr_scan", "ios": "https://dc.lft.to/lastmile_qr_scan"}, "fusion_lat": 0.0, "name": "8d59d634a68e4b5cb1077092ddbe160f", "bike_id": "8d59d634a68e4b5cb1077092ddbe160f"}, {"is_disabled": 0, "is_reserved": 0, "type": "electric_scooter", "lon": -77.02222866666666, "fusion_lon": 0.0, "lat": 38.9355065, "rental_uris": {"android": "https://dc.lft.to/lastmile_qr_scan", "ios": "https://dc.lft.to/lastmile_qr_scan"}, "fusion_lat": 0.0, "name": "405afeb6224199765edbf898d8b5fc54", "bike_id": "405afeb6224199765edbf898d8b5fc54"}, {"is_disabled": 0, "is_reserved": 0, "type": "electric_scooter", "lon": -77.02161866666667, "fusion_lon": 0.0, "lat": 38.926134833333336, "rental_uris": {"android": "https://dc.lft.to/lastmile_qr_scan", "ios": "https://dc.lft.to/lastmile_qr_scan"}, "fusion_lat": 0.0, "name": "482f606c1fa185f1b95fd71e829db8f9", "bike_id": "482f606c1fa185f1b95fd71e829db8f9"}, {"is_disabled": 0, "is_reserved": 0, "type": "electric_scooter", "lon": -76.9787655, "fusion_lon": 0.0, "lat": 38.89928533333333, "rental_uris": {"android": "https://dc.lft.to/lastmile_qr_scan", "ios": "https://dc.lft.to/lastmile_qr_scan"}, "fusion_lat": 0.0, "name": "62d6204c7e192f7995526da666f774f2", "bike_id": "62d6204c7e192f7995526da666f774f2"}, {"is_disabled": 0, "is_reserved": 0, "type": "electric_scooter", "lon": -77.03998883333334, "fusion_lon": 0.0, "lat": 38.90365233333333, "rental_uris": {"android": "https://dc.lft.to/lastmile_qr_scan", "ios": "https://dc.lft.to/lastmile_qr_scan"}, "fusion_lat": 0.0, "name": "98ac3c801a955f435db6a6322fad02e4", "bike_id": "98ac3c801a955f435db6a6322fad02e4"}, {"is_disabled": 0, "is_reserved": 0, "type": "electric_scooter", "lon": -77.04473933333334, "fusion_lon": 0.0, "lat": 38.904043, "rental_uris": {"android": "https://dc.lft.to/lastmile_qr_scan", "ios": "https://dc.lft.to/lastmile_qr_scan"}, "fusion_lat": 0.0, "name": "caaed99c02493c3ee3ab31943e65b29f", "bike_id": "caaed99c02493c3ee3ab31943e65b29f"}, {"is_disabled": 0, "is_reserved": 0, "type": "electric_bike", "lon": -77.07041966666667, "fusion_lon": 0.0, "lat": 38.824475166666666, "rental_uris": {"android": "https://dc.lft.to/lastmile_qr_scan", "ios": "https://dc.lft.to/lastmile_qr_scan"}, "fusion_lat": 0.0, "name": "ea5e2a82abb5e81099d1f4cbf1f02511", "bike_id": "ea5e2a82abb5e81099d1f4cbf1f02511"}, {"is_disabled": 0, "is_reserved": 0, "type": "electric_scooter", "lon": -77.03845833333334, "fusion_lon": 0.0, "lat": 38.926457166666665, "rental_uris": {"android": "https://dc.lft.to/lastmile_qr_scan", "ios": "https://dc.lft.to/lastmile_qr_scan"}, "fusion_lat": 0.0, "name": "3652da61263de68cedd979c63f86d1fc", "bike_id": "3652da61263de68cedd979c63f86d1fc"}, {"is_disabled": 0, "is_reserved": 0, "type": "electric_bike", "lon": -77.128204, "fusion_lon": 0.0, "lat": 38.86526516666667, "rental_uris": {"android": "https://dc.lft.to/lastmile_qr_scan", "ios": "https://dc.lft.to/lastmile_qr_scan"}, "fusion_lat": 0.0, "name": "e40293b5f6c1c8036e4efe8838fad04c", "bike_id": "e40293b5f6c1c8036e4efe8838fad04c"}, {"is_disabled": 0, "is_reserved": 0, "type": "electric_scooter", "lon": -77.02251266666667, "fusion_lon": 0.0, "lat": 38.878650666666665, "rental_uris": {"android": "https://dc.lft.to/lastmile_qr_scan", "ios": "https://dc.lft.to/lastmile_qr_scan"}, "fusion_lat": 0.0, "name": "af1e03b5722ee4ebad20da402ec45d82", "bike_id": "af1e03b5722ee4ebad20da402ec45d82"}, {"is_disabled": 0, "is_reserved": 0, "type": "electric_scooter", "lon": -77.04160483333334, "fusion_lon": 0.0, "lat": 38.9157535, "rental_uris": {"android": "https://dc.lft.to/lastmile_qr_scan", "ios": "https://dc.lft.to/lastmile_qr_scan"}, "fusion_lat": 0.0, "name": "6121ec3714033ec7427a771961a18b9c", "bike_id": "6121ec3714033ec7427a771961a18b9c"}, {"is_disabled": 0, "is_reserved": 0, "type": "electric_scooter", "lon": -76.98707666666667, "fusion_lon": 0.0, "lat": 38.865344, "rental_uris": {"android": "https://dc.lft.to/lastmile_qr_scan", "ios": "https://dc.lft.to/lastmile_qr_scan"}, "fusion_lat": 0.0, "name": "d081e221954df2e3e8a26bf22e1771cb", "bike_id": "d081e221954df2e3e8a26bf22e1771cb"}, {"is_disabled": 0, "is_reserved": 0, "type": "electric_scooter", "lon": -77.046729, "fusion_lon": 0.0, "lat": 38.89559283333333, "rental_uris": {"android": "https://dc.lft.to/lastmile_qr_scan", "ios": "https://dc.lft.to/lastmile_qr_scan"}, "fusion_lat": 0.0, "name": "bfdc7bd24d9f372b06bff6bbe5d4a041", "bike_id": "bfdc7bd24d9f372b06bff6bbe5d4a041"}, {"is_disabled": 0, "is_reserved": 0, "type": "electric_scooter", "lon": -77.02335283333333, "fusion_lon": 0.0, "lat": 38.922312833333336, "rental_uris": {"android": "https://dc.lft.to/lastmile_qr_scan", "ios": "https://dc.lft.to/lastmile_qr_scan"}, "fusion_lat": 0.0, "name": "4cb54a01e0a8f9c053fbc639f55fa9d9", "bike_id": "4cb54a01e0a8f9c053fbc639f55fa9d9"}, {"is_disabled": 0, "is_reserved": 0, "type": "electric_bike", "lon": -76.9749565, "fusion_lon": 0.0, "lat": 38.919378, "rental_uris": {"android": "https://dc.lft.to/lastmile_qr_scan", "ios": "https://dc.lft.to/lastmile_qr_scan"}, "fusion_lat": 0.0, "name": "23b5a04a445aa76c843de9851fba83a8", "bike_id": "23b5a04a445aa76c843de9851fba83a8"}, {"is_disabled": 0, "is_reserved": 0, "type": "electric_scooter", "lon": -77.00564583333333, "fusion_lon": 0.0, "lat": 38.886011, "rental_uris": {"android": "https://dc.lft.to/lastmile_qr_scan", "ios": "https://dc.lft.to/lastmile_qr_scan"}, "fusion_lat": 0.0, "name": "62266468cc5f091fb745eef52695ac0a", "bike_id": "62266468cc5f091fb745eef52695ac0a"}, {"is_disabled": 0, "is_reserved": 0, "type": "electric_scooter", "lon": -77.042793, "fusion_lon": 0.0, "lat": 38.917012166666666, "rental_uris": {"android": "https://dc.lft.to/lastmile_qr_scan", "ios": "https://dc.lft.to/lastmile_qr_scan"}, "fusion_lat": 0.0, "name": "5eeb409e1c3f791e9aa97b9b523f3304", "bike_id": "5eeb409e1c3f791e9aa97b9b523f3304"}, {"is_disabled": 0, "is_reserved": 0, "type": "electric_scooter", "lon": -77.02298283333333, "fusion_lon": 0.0, "lat": 38.917353, "rental_uris": {"android": "https://dc.lft.to/lastmile_qr_scan", "ios": "https://dc.lft.to/lastmile_qr_scan"}, "fusion_lat": 0.0, "name": "aa54ef1aac9875867ab02732bafd5204", "bike_id": "aa54ef1aac9875867ab02732bafd5204"}, {"is_disabled": 0, "is_reserved": 0, "type": "electric_scooter", "lon": -77.02767633333333, "fusion_lon": 0.0, "lat": 38.942995333333336, "rental_uris": {"android": "https://dc.lft.to/lastmile_qr_scan", "ios": "https://dc.lft.to/lastmile_qr_scan"}, "fusion_lat": 0.0, "name": "c1544c278c73db4642b5f15916c5101b", "bike_id": "c1544c278c73db4642b5f15916c5101b"}, {"is_disabled": 0, "is_reserved": 0, "type": "electric_scooter", "lon": -76.97904633333333, "fusion_lon": 0.0, "lat": 38.90402566666667, "rental_uris": {"android": "https://dc.lft.to/lastmile_qr_scan", "ios": "https://dc.lft.to/lastmile_qr_scan"}, "fusion_lat": 0.0, "name": "df3111d37b41127f66f8cb6a68a9a6b9", "bike_id": "df3111d37b41127f66f8cb6a68a9a6b9"}, {"is_disabled": 0, "is_reserved": 0, "type": "electric_scooter", "lon": -77.04145666666666, "fusion_lon": 0.0, "lat": 38.92301466666667, "rental_uris": {"android": "https://dc.lft.to/lastmile_qr_scan", "ios": "https://dc.lft.to/lastmile_qr_scan"}, "fusion_lat": 0.0, "name": "be7f24d2b2d63c0cb6cbb4962f30693c", "bike_id": "be7f24d2b2d63c0cb6cbb4962f30693c"}, {"is_disabled": 0, "is_reserved": 0, "type": "electric_scooter", "lon": -76.9494085, "fusion_lon": 0.0, "lat": 38.8936455, "rental_uris": {"android": "https://dc.lft.to/lastmile_qr_scan", "ios": "https://dc.lft.to/lastmile_qr_scan"}, "fusion_lat": 0.0, "name": "44352b536a6bff867a18c35cc08ae8e0", "bike_id": "44352b536a6bff867a18c35cc08ae8e0"}, {"is_disabled": 0, "is_reserved": 0, "type": "electric_scooter", "lon": -76.99035766666667, "fusion_lon": 0.0, "lat": 38.89876066666667, "rental_uris": {"android": "https://dc.lft.to/lastmile_qr_scan", "ios": "https://dc.lft.to/lastmile_qr_scan"}, "fusion_lat": 0.0, "name": "b7c1ecd11d82b31c95411e54059588ff", "bike_id": "b7c1ecd11d82b31c95411e54059588ff"}, {"is_disabled": 0, "is_reserved": 0, "type": "electric_scooter", "lon": -77.00292466666667, "fusion_lon": 0.0, "lat": 38.905755166666665, "rental_uris": {"android": "https://dc.lft.to/lastmile_qr_scan", "ios": "https://dc.lft.to/lastmile_qr_scan"}, "fusion_lat": 0.0, "name": "5d5ba6453f82aad39806b39bf23efcd2", "bike_id": "5d5ba6453f82aad39806b39bf23efcd2"}, {"is_disabled": 0, "is_reserved": 0, "type": "electric_scooter", "lon": -77.00943733333334, "fusion_lon": 0.0, "lat": 38.89498183333333, "rental_uris": {"android": "https://dc.lft.to/lastmile_qr_scan", "ios": "https://dc.lft.to/lastmile_qr_scan"}, "fusion_lat": 0.0, "name": "1ddae5ba544ab5cb0a2b7d1424a82ef8", "bike_id": "1ddae5ba544ab5cb0a2b7d1424a82ef8"}, {"is_disabled": 0, "is_reserved": 0, "type": "electric_scooter", "lon": -77.04059583333333, "fusion_lon": 0.0, "lat": 38.9176755, "rental_uris": {"android": "https://dc.lft.to/lastmile_qr_scan", "ios": "https://dc.lft.to/lastmile_qr_scan"}, "fusion_lat": 0.0, "name": "2a2ad95f2b89ee32868104f14153cf75", "bike_id": "2a2ad95f2b89ee32868104f14153cf75"}, {"is_disabled": 0, "is_reserved": 0, "type": "electric_scooter", "lon": -77.00222716666667, "fusion_lon": 0.0, "lat": 38.91338533333333, "rental_uris": {"android": "https://dc.lft.to/lastmile_qr_scan", "ios": "https://dc.lft.to/lastmile_qr_scan"}, "fusion_lat": 0.0, "name": "37209c46d08bff4fde0de061b09b07a0", "bike_id": "37209c46d08bff4fde0de061b09b07a0"}, {"is_disabled": 0, "is_reserved": 0, "type": "electric_bike", "lon": -77.08440366666666, "fusion_lon": 0.0, "lat": 38.810297166666665, "rental_uris": {"android": "https://dc.lft.to/lastmile_qr_scan", "ios": "https://dc.lft.to/lastmile_qr_scan"}, "fusion_lat": 0.0, "name": "bd8926d5372ca4f363336ec67fde74eb", "bike_id": "bd8926d5372ca4f363336ec67fde74eb"}, {"is_disabled": 0, "is_reserved": 0, "type": "electric_bike", "lon": -76.94866633333334, "fusion_lon": 0.0, "lat": 38.889677166666665, "rental_uris": {"android": "https://dc.lft.to/lastmile_qr_scan", "ios": "https://dc.lft.to/lastmile_qr_scan"}, "fusion_lat": 0.0, "name": "2d9eeb830e81f9941916ad7a6de07c48", "bike_id": "2d9eeb830e81f9941916ad7a6de07c48"}, {"is_disabled": 0, "is_reserved": 0, "type": "electric_scooter", "lon": -77.0326325, "fusion_lon": 0.0, "lat": 38.91915866666667, "rental_uris": {"android": "https://dc.lft.to/lastmile_qr_scan", "ios": "https://dc.lft.to/lastmile_qr_scan"}, "fusion_lat": 0.0, "name": "cb2946a97c9e68411c274fc804f97080", "bike_id": "cb2946a97c9e68411c274fc804f97080"}, {"is_disabled": 0, "is_reserved": 0, "type": "electric_scooter", "lon": -76.978177, "fusion_lon": 0.0, "lat": 38.84606, "rental_uris": {"android": "https://dc.lft.to/lastmile_qr_scan", "ios": "https://dc.lft.to/lastmile_qr_scan"}, "fusion_lat": 0.0, "name": "f7e53c4f1fa80669a58b9fdda8125d8d", "bike_id": "f7e53c4f1fa80669a58b9fdda8125d8d"}, {"is_disabled": 0, "is_reserved": 0, "type": "electric_bike", "lon": -77.10719083333333, "fusion_lon": 0.0, "lat": 38.855218666666666, "rental_uris": {"android": "https://dc.lft.to/lastmile_qr_scan", "ios": "https://dc.lft.to/lastmile_qr_scan"}, "fusion_lat": 0.0, "name": "6dca11f092042993dbde0e3b5a47b045", "bike_id": "6dca11f092042993dbde0e3b5a47b045"}, {"is_disabled": 0, "is_reserved": 0, "type": "electric_scooter", "lon": -76.94888366666666, "fusion_lon": 0.0, "lat": 38.8951675, "rental_uris": {"android": "https://dc.lft.to/lastmile_qr_scan", "ios": "https://dc.lft.to/lastmile_qr_scan"}, "fusion_lat": 0.0, "name": "c7e9fba44b328342f6f94b8c4c850320", "bike_id": "c7e9fba44b328342f6f94b8c4c850320"}, {"is_disabled": 0, "is_reserved": 0, "type": "electric_scooter", "lon": -77.00835066666667, "fusion_lon": 0.0, "lat": 38.87646183333333, "rental_uris": {"android": "https://dc.lft.to/lastmile_qr_scan", "ios": "https://dc.lft.to/lastmile_qr_scan"}, "fusion_lat": 0.0, "name": "ec44f9e4370a0286a5f843dfad045540", "bike_id": "ec44f9e4370a0286a5f843dfad045540"}, {"is_disabled": 0, "is_reserved": 0, "type": "electric_scooter", "lon": -77.01649816666666, "fusion_lon": 0.0, "lat": 38.92897766666667, "rental_uris": {"android": "https://dc.lft.to/lastmile_qr_scan", "ios": "https://dc.lft.to/lastmile_qr_scan"}, "fusion_lat": 0.0, "name": "a7dd1041bc6d48505ca8dc2c7ebc9c1f", "bike_id": "a7dd1041bc6d48505ca8dc2c7ebc9c1f"}, {"is_disabled": 0, "is_reserved": 0, "type": "electric_scooter", "lon": -77.04493, "fusion_lon": 0.0, "lat": 38.8961485, "rental_uris": {"android": "https://dc.lft.to/lastmile_qr_scan", "ios": "https://dc.lft.to/lastmile_qr_scan"}, "fusion_lat": 0.0, "name": "92981e677cb1fa509b146b48d82a756b", "bike_id": "92981e677cb1fa509b146b48d82a756b"}, {"is_disabled": 0, "is_reserved": 0, "type": "electric_scooter", "lon": -76.99533366666667, "fusion_lon": 0.0, "lat": 38.900318, "rental_uris": {"android": "https://dc.lft.to/lastmile_qr_scan", "ios": "https://dc.lft.to/lastmile_qr_scan"}, "fusion_lat": 0.0, "name": "0276ca8c1ca3e01f8a6e79d04015b83e", "bike_id": "0276ca8c1ca3e01f8a6e79d04015b83e"}, {"is_disabled": 0, "is_reserved": 0, "type": "electric_scooter", "lon": -77.023161, "fusion_lon": 0.0, "lat": 38.91761416666667, "rental_uris": {"android": "https://dc.lft.to/lastmile_qr_scan", "ios": "https://dc.lft.to/lastmile_qr_scan"}, "fusion_lat": 0.0, "name": "ce679444392a20f4872127bd196fea44", "bike_id": "ce679444392a20f4872127bd196fea44"}, {"is_disabled": 0, "is_reserved": 0, "type": "electric_scooter", "lon": -77.02389333333333, "fusion_lon": 0.0, "lat": 38.89254183333333, "rental_uris": {"android": "https://dc.lft.to/lastmile_qr_scan", "ios": "https://dc.lft.to/lastmile_qr_scan"}, "fusion_lat": 0.0, "name": "7fcf5a0de4eef6444af23baea54ed93c", "bike_id": "7fcf5a0de4eef6444af23baea54ed93c"}, {"is_disabled": 0, "is_reserved": 0, "type": "electric_bike", "lon": -76.9638775, "fusion_lon": 0.0, "lat": 38.97579316666667, "rental_uris": {"android": "https://dc.lft.to/lastmile_qr_scan", "ios": "https://dc.lft.to/lastmile_qr_scan"}, "fusion_lat": 0.0, "name": "d9867bcc8ce375572f7fd2d1a20887ac", "bike_id": "d9867bcc8ce375572f7fd2d1a20887ac"}, {"is_disabled": 0, "is_reserved": 0, "type": "electric_bike", "lon": -77.03317183333333, "fusion_lon": 0.0, "lat": 38.89228716666667, "rental_uris": {"android": "https://dc.lft.to/lastmile_qr_scan", "ios": "https://dc.lft.to/lastmile_qr_scan"}, "fusion_lat": 0.0, "name": "2654b6e5c86659d9461761531c95d018", "bike_id": "2654b6e5c86659d9461761531c95d018"}, {"is_disabled": 0, "is_reserved": 0, "type": "electric_bike", "lon": -76.877685, "fusion_lon": 0.0, "lat": 38.992308, "rental_uris": {"android": "https://dc.lft.to/lastmile_qr_scan", "ios": "https://dc.lft.to/lastmile_qr_scan"}, "fusion_lat": 0.0, "name": "6fbd6012d5ee030f5a423c905f944f61", "bike_id": "6fbd6012d5ee030f5a423c905f944f61"}, {"is_disabled": 0, "is_reserved": 0, "type": "electric_scooter", "lon": -77.03771083333334, "fusion_lon": 0.0, "lat": 38.93615116666667, "rental_uris": {"android": "https://dc.lft.to/lastmile_qr_scan", "ios": "https://dc.lft.to/lastmile_qr_scan"}, "fusion_lat": 0.0, "name": "904254679ff1a40c0f58cac03c14e5b9", "bike_id": "904254679ff1a40c0f58cac03c14e5b9"}, {"is_disabled": 0, "is_reserved": 0, "type": "electric_bike", "lon": -77.01232766666666, "fusion_lon": 0.0, "lat": 38.9508995, "rental_uris": {"android": "https://dc.lft.to/lastmile_qr_scan", "ios": "https://dc.lft.to/lastmile_qr_scan"}, "fusion_lat": 0.0, "name": "7315db939aeecaaa8195a79c15d12028", "bike_id": "7315db939aeecaaa8195a79c15d12028"}, {"is_disabled": 0, "is_reserved": 0, "type": "electric_scooter", "lon": -77.0178155, "fusion_lon": 0.0, "lat": 38.8769715, "rental_uris": {"android": "https://dc.lft.to/lastmile_qr_scan", "ios": "https://dc.lft.to/lastmile_qr_scan"}, "fusion_lat": 0.0, "name": "b9f3af009866e7500d70189ecab40569", "bike_id": "b9f3af009866e7500d70189ecab40569"}, {"is_disabled": 0, "is_reserved": 0, "type": "electric_scooter", "lon": -77.0305785, "fusion_lon": 0.0, "lat": 38.901125666666665, "rental_uris": {"android": "https://dc.lft.to/lastmile_qr_scan", "ios": "https://dc.lft.to/lastmile_qr_scan"}, "fusion_lat": 0.0, "name": "f15389a5d4c3cc7ab20d15675a9cfd69", "bike_id": "f15389a5d4c3cc7ab20d15675a9cfd69"}, {"is_disabled": 0, "is_reserved": 0, "type": "electric_scooter", "lon": -76.94207883333333, "fusion_lon": 0.0, "lat": 38.889919166666665, "rental_uris": {"android": "https://dc.lft.to/lastmile_qr_scan", "ios": "https://dc.lft.to/lastmile_qr_scan"}, "fusion_lat": 0.0, "name": "01376507ecb464ceb55c246440b574c6", "bike_id": "01376507ecb464ceb55c246440b574c6"}, {"is_disabled": 0, "is_reserved": 0, "type": "electric_scooter", "lon": -77.05134416666667, "fusion_lon": 0.0, "lat": 38.9071835, "rental_uris": {"android": "https://dc.lft.to/lastmile_qr_scan", "ios": "https://dc.lft.to/lastmile_qr_scan"}, "fusion_lat": 0.0, "name": "29d352a91374dc095825cd4949d697e5", "bike_id": "29d352a91374dc095825cd4949d697e5"}, {"is_disabled": 0, "is_reserved": 0, "type": "electric_bike", "lon": -76.90956283333334, "fusion_lon": 0.0, "lat": 38.85421783333334, "rental_uris": {"android": "https://dc.lft.to/lastmile_qr_scan", "ios": "https://dc.lft.to/lastmile_qr_scan"}, "fusion_lat": 0.0, "name": "0ebc00b09b3e31d023600bd6039fdfc0", "bike_id": "0ebc00b09b3e31d023600bd6039fdfc0"}, {"is_disabled": 0, "is_reserved": 0, "type": "electric_scooter", "lon": -77.02386566666667, "fusion_lon": 0.0, "lat": 38.92077116666667, "rental_uris": {"android": "https://dc.lft.to/lastmile_qr_scan", "ios": "https://dc.lft.to/lastmile_qr_scan"}, "fusion_lat": 0.0, "name": "79357a9ee722559e5002a1a92671f47b", "bike_id": "79357a9ee722559e5002a1a92671f47b"}, {"is_disabled": 0, "is_reserved": 0, "type": "electric_scooter", "lon": -77.01015833333334, "fusion_lon": 0.0, "lat": 38.86722683333333, "rental_uris": {"android": "https://dc.lft.to/lastmile_qr_scan", "ios": "https://dc.lft.to/lastmile_qr_scan"}, "fusion_lat": 0.0, "name": "a8dd38e220c2bf363d12992c12086d8c", "bike_id": "a8dd38e220c2bf363d12992c12086d8c"}, {"is_disabled": 0, "is_reserved": 0, "type": "electric_scooter", "lon": -77.01406816666666, "fusion_lon": 0.0, "lat": 38.927924, "rental_uris": {"android": "https://dc.lft.to/lastmile_qr_scan", "ios": "https://dc.lft.to/lastmile_qr_scan"}, "fusion_lat": 0.0, "name": "2c8ffbd7880d2e133e466a88068bde62", "bike_id": "2c8ffbd7880d2e133e466a88068bde62"}, {"is_disabled": 0, "is_reserved": 0, "type": "electric_scooter", "lon": -77.03234866666666, "fusion_lon": 0.0, "lat": 38.92492216666667, "rental_uris": {"android": "https://dc.lft.to/lastmile_qr_scan", "ios": "https://dc.lft.to/lastmile_qr_scan"}, "fusion_lat": 0.0, "name": "cb4780a1465883e0fdfed47314c5e283", "bike_id": "cb4780a1465883e0fdfed47314c5e283"}, {"is_disabled": 0, "is_reserved": 0, "type": "electric_scooter", "lon": -77.03351566666667, "fusion_lon": 0.0, "lat": 38.896252833333335, "rental_uris": {"android": "https://dc.lft.to/lastmile_qr_scan", "ios": "https://dc.lft.to/lastmile_qr_scan"}, "fusion_lat": 0.0, "name": "5038ecd2b3209d1acb54cee68fd3b7d3", "bike_id": "5038ecd2b3209d1acb54cee68fd3b7d3"}, {"is_disabled": 0, "is_reserved": 0, "type": "electric_scooter", "lon": -77.021335, "fusion_lon": 0.0, "lat": 38.9159315, "rental_uris": {"android": "https://dc.lft.to/lastmile_qr_scan", "ios": "https://dc.lft.to/lastmile_qr_scan"}, "fusion_lat": 0.0, "name": "ceb080bef1d76c427c0b5d6803207f3b", "bike_id": "ceb080bef1d76c427c0b5d6803207f3b"}, {"is_disabled": 0, "is_reserved": 0, "type": "electric_scooter", "lon": -77.06267316666667, "fusion_lon": 0.0, "lat": 38.90523483333333, "rental_uris": {"android": "https://dc.lft.to/lastmile_qr_scan", "ios": "https://dc.lft.to/lastmile_qr_scan"}, "fusion_lat": 0.0, "name": "e46931bc3abae0a14378e83aed2ca244", "bike_id": "e46931bc3abae0a14378e83aed2ca244"}, {"is_disabled": 0, "is_reserved": 0, "type": "electric_scooter", "lon": -77.06146216666667, "fusion_lon": 0.0, "lat": 38.943546, "rental_uris": {"android": "https://dc.lft.to/lastmile_qr_scan", "ios": "https://dc.lft.to/lastmile_qr_scan"}, "fusion_lat": 0.0, "name": "7fc0d4537c97aa5631b54334735c2ce2", "bike_id": "7fc0d4537c97aa5631b54334735c2ce2"}, {"is_disabled": 0, "is_reserved": 0, "type": "electric_scooter", "lon": -77.03105683333334, "fusion_lon": 0.0, "lat": 38.9045445, "rental_uris": {"android": "https://dc.lft.to/lastmile_qr_scan", "ios": "https://dc.lft.to/lastmile_qr_scan"}, "fusion_lat": 0.0, "name": "8bcb58f138bb9dfce44fcd3cc6fa4d0e", "bike_id": "8bcb58f138bb9dfce44fcd3cc6fa4d0e"}, {"is_disabled": 0, "is_reserved": 0, "type": "electric_scooter", "lon": -77.03679516666666, "fusion_lon": 0.0, "lat": 38.916851666666666, "rental_uris": {"android": "https://dc.lft.to/lastmile_qr_scan", "ios": "https://dc.lft.to/lastmile_qr_scan"}, "fusion_lat": 0.0, "name": "5d3989de7520be8328a82f13d401bfb0", "bike_id": "5d3989de7520be8328a82f13d401bfb0"}, {"is_disabled": 0, "is_reserved": 0, "type": "electric_bike", "lon": -76.9683695, "fusion_lon": 0.0, "lat": 38.92448516666666, "rental_uris": {"android": "https://dc.lft.to/lastmile_qr_scan", "ios": "https://dc.lft.to/lastmile_qr_scan"}, "fusion_lat": 0.0, "name": "7adf053f24aa9d8f32e3f1cf0a8f5e20", "bike_id": "7adf053f24aa9d8f32e3f1cf0a8f5e20"}, {"is_disabled": 0, "is_reserved": 0, "type": "electric_scooter", "lon": -77.03450516666666, "fusion_lon": 0.0, "lat": 38.9642955, "rental_uris": {"android": "https://dc.lft.to/lastmile_qr_scan", "ios": "https://dc.lft.to/lastmile_qr_scan"}, "fusion_lat": 0.0, "name": "d829148d32cc035ec29b986cfe1a51de", "bike_id": "d829148d32cc035ec29b986cfe1a51de"}, {"is_disabled": 0, "is_reserved": 0, "type": "electric_scooter", "lon": -77.04722083333333, "fusion_lon": 0.0, "lat": 38.899529666666666, "rental_uris": {"android": "https://dc.lft.to/lastmile_qr_scan", "ios": "https://dc.lft.to/lastmile_qr_scan"}, "fusion_lat": 0.0, "name": "f98f407bf8953c05864e298bb4bc2cb5", "bike_id": "f98f407bf8953c05864e298bb4bc2cb5"}, {"is_disabled": 0, "is_reserved": 0, "type": "electric_scooter", "lon": -76.9832505, "fusion_lon": 0.0, "lat": 38.86174583333333, "rental_uris": {"android": "https://dc.lft.to/lastmile_qr_scan", "ios": "https://dc.lft.to/lastmile_qr_scan"}, "fusion_lat": 0.0, "name": "bb08e8b089d064c6dac74d2cf9018ab8", "bike_id": "bb08e8b089d064c6dac74d2cf9018ab8"}, {"is_disabled": 0, "is_reserved": 0, "type": "electric_scooter", "lon": -77.02246816666667, "fusion_lon": 0.0, "lat": 38.892245333333335, "rental_uris": {"android": "https://dc.lft.to/lastmile_qr_scan", "ios": "https://dc.lft.to/lastmile_qr_scan"}, "fusion_lat": 0.0, "name": "e21c84fbd27cb2ae82e6ba66d9814002", "bike_id": "e21c84fbd27cb2ae82e6ba66d9814002"}, {"is_disabled": 0, "is_reserved": 0, "type": "electric_bike", "lon": -77.15265333333333, "fusion_lon": 0.0, "lat": 39.105662, "rental_uris": {"android": "https://dc.lft.to/lastmile_qr_scan", "ios": "https://dc.lft.to/lastmile_qr_scan"}, "fusion_lat": 0.0, "name": "644f2935b438b6a97e2b3788635506d0", "bike_id": "644f2935b438b6a97e2b3788635506d0"}, {"is_disabled": 0, "is_reserved": 0, "type": "electric_scooter", "lon": -77.0458625, "fusion_lon": 0.0, "lat": 38.909579, "rental_uris": {"android": "https://dc.lft.to/lastmile_qr_scan", "ios": "https://dc.lft.to/lastmile_qr_scan"}, "fusion_lat": 0.0, "name": "8275873ab832e955d7d4e7062a212c18", "bike_id": "8275873ab832e955d7d4e7062a212c18"}, {"is_disabled": 0, "is_reserved": 0, "type": "electric_scooter", "lon": -77.04499866666667, "fusion_lon": 0.0, "lat": 38.89612616666667, "rental_uris": {"android": "https://dc.lft.to/lastmile_qr_scan", "ios": "https://dc.lft.to/lastmile_qr_scan"}, "fusion_lat": 0.0, "name": "0cfe70e48f6daca79ab8a871518a6c1d", "bike_id": "0cfe70e48f6daca79ab8a871518a6c1d"}, {"is_disabled": 0, "is_reserved": 0, "type": "electric_scooter", "lon": -77.057277, "fusion_lon": 0.0, "lat": 38.933669, "rental_uris": {"android": "https://dc.lft.to/lastmile_qr_scan", "ios": "https://dc.lft.to/lastmile_qr_scan"}, "fusion_lat": 0.0, "name": "022f1f167986f4ab425c53d8573d6a58", "bike_id": "022f1f167986f4ab425c53d8573d6a58"}, {"is_disabled": 0, "is_reserved": 0, "type": "electric_scooter", "lon": -77.00307983333333, "fusion_lon": 0.0, "lat": 38.905923333333334, "rental_uris": {"android": "https://dc.lft.to/lastmile_qr_scan", "ios": "https://dc.lft.to/lastmile_qr_scan"}, "fusion_lat": 0.0, "name": "6c7f51885ffd3d582530b2cf88131c58", "bike_id": "6c7f51885ffd3d582530b2cf88131c58"}, {"is_disabled": 0, "is_reserved": 0, "type": "electric_scooter", "lon": -77.05169333333333, "fusion_lon": 0.0, "lat": 38.92342383333333, "rental_uris": {"android": "https://dc.lft.to/lastmile_qr_scan", "ios": "https://dc.lft.to/lastmile_qr_scan"}, "fusion_lat": 0.0, "name": "91d7aabfc6bede8f43f81b1bbee10a26", "bike_id": "91d7aabfc6bede8f43f81b1bbee10a26"}, {"is_disabled": 0, "is_reserved": 0, "type": "electric_bike", "lon": -77.063633, "fusion_lon": 0.0, "lat": 38.862713166666666, "rental_uris": {"android": "https://dc.lft.to/lastmile_qr_scan", "ios": "https://dc.lft.to/lastmile_qr_scan"}, "fusion_lat": 0.0, "name": "d8e32346443eb92ed71a1d7e8392acb6", "bike_id": "d8e32346443eb92ed71a1d7e8392acb6"}, {"is_disabled": 0, "is_reserved": 0, "type": "electric_scooter", "lon": -77.0337655, "fusion_lon": 0.0, "lat": 38.909657333333335, "rental_uris": {"android": "https://dc.lft.to/lastmile_qr_scan", "ios": "https://dc.lft.to/lastmile_qr_scan"}, "fusion_lat": 0.0, "name": "3a01499b67d8f6012015c21693a68a52", "bike_id": "3a01499b67d8f6012015c21693a68a52"}, {"is_disabled": 0, "is_reserved": 0, "type": "electric_scooter", "lon": -77.0323625, "fusion_lon": 0.0, "lat": 38.91328516666667, "rental_uris": {"android": "https://dc.lft.to/lastmile_qr_scan", "ios": "https://dc.lft.to/lastmile_qr_scan"}, "fusion_lat": 0.0, "name": "b047b4930e20d1b87a1c790a16ac2713", "bike_id": "b047b4930e20d1b87a1c790a16ac2713"}, {"is_disabled": 0, "is_reserved": 0, "type": "electric_scooter", "lon": -76.98754783333334, "fusion_lon": 0.0, "lat": 38.900133333333336, "rental_uris": {"android": "https://dc.lft.to/lastmile_qr_scan", "ios": "https://dc.lft.to/lastmile_qr_scan"}, "fusion_lat": 0.0, "name": "98392d078c13a8c1421235d659ed21d1", "bike_id": "98392d078c13a8c1421235d659ed21d1"}, {"is_disabled": 0, "is_reserved": 0, "type": "electric_scooter", "lon": -77.01523633333333, "fusion_lon": 0.0, "lat": 38.9005485, "rental_uris": {"android": "https://dc.lft.to/lastmile_qr_scan", "ios": "https://dc.lft.to/lastmile_qr_scan"}, "fusion_lat": 0.0, "name": "ef423bb29bc41a127432f8f91ca84d74", "bike_id": "ef423bb29bc41a127432f8f91ca84d74"}, {"is_disabled": 0, "is_reserved": 0, "type": "electric_scooter", "lon": -77.01048316666666, "fusion_lon": 0.0, "lat": 38.899078833333334, "rental_uris": {"android": "https://dc.lft.to/lastmile_qr_scan", "ios": "https://dc.lft.to/lastmile_qr_scan"}, "fusion_lat": 0.0, "name": "805954145e58479c7e9a32634709576b", "bike_id": "805954145e58479c7e9a32634709576b"}, {"is_disabled": 0, "is_reserved": 0, "type": "electric_scooter", "lon": -77.05861366666667, "fusion_lon": 0.0, "lat": 38.936075833333334, "rental_uris": {"android": "https://dc.lft.to/lastmile_qr_scan", "ios": "https://dc.lft.to/lastmile_qr_scan"}, "fusion_lat": 0.0, "name": "b0c70a704ac8381c6c1a78930608a117", "bike_id": "b0c70a704ac8381c6c1a78930608a117"}, {"is_disabled": 0, "is_reserved": 0, "type": "electric_bike", "lon": -77.12738533333334, "fusion_lon": 0.0, "lat": 38.8881965, "rental_uris": {"android": "https://dc.lft.to/lastmile_qr_scan", "ios": "https://dc.lft.to/lastmile_qr_scan"}, "fusion_lat": 0.0, "name": "62fb092b48c3098a0a7f1386fccfb65e", "bike_id": "62fb092b48c3098a0a7f1386fccfb65e"}, {"is_disabled": 0, "is_reserved": 0, "type": "electric_scooter", "lon": -77.04333383333334, "fusion_lon": 0.0, "lat": 38.90042316666667, "rental_uris": {"android": "https://dc.lft.to/lastmile_qr_scan", "ios": "https://dc.lft.to/lastmile_qr_scan"}, "fusion_lat": 0.0, "name": "201657456c2fe124be75394ea67fda01", "bike_id": "201657456c2fe124be75394ea67fda01"}, {"is_disabled": 0, "is_reserved": 0, "type": "electric_scooter", "lon": -77.032351, "fusion_lon": 0.0, "lat": 38.90132783333333, "rental_uris": {"android": "https://dc.lft.to/lastmile_qr_scan", "ios": "https://dc.lft.to/lastmile_qr_scan"}, "fusion_lat": 0.0, "name": "f4766649b80d6f5c55439bf9e03f3b24", "bike_id": "f4766649b80d6f5c55439bf9e03f3b24"}, {"is_disabled": 0, "is_reserved": 0, "type": "electric_scooter", "lon": -77.021732, "fusion_lon": 0.0, "lat": 38.89512716666667, "rental_uris": {"android": "https://dc.lft.to/lastmile_qr_scan", "ios": "https://dc.lft.to/lastmile_qr_scan"}, "fusion_lat": 0.0, "name": "7a864e718de4a522525d48b12d219f96", "bike_id": "7a864e718de4a522525d48b12d219f96"}, {"is_disabled": 0, "is_reserved": 0, "type": "electric_scooter", "lon": -77.00556816666666, "fusion_lon": 0.0, "lat": 38.8746115, "rental_uris": {"android": "https://dc.lft.to/lastmile_qr_scan", "ios": "https://dc.lft.to/lastmile_qr_scan"}, "fusion_lat": 0.0, "name": "542a3301f21146d3aa21201b337f82f2", "bike_id": "542a3301f21146d3aa21201b337f82f2"}, {"is_disabled": 0, "is_reserved": 0, "type": "electric_scooter", "lon": -77.00770316666667, "fusion_lon": 0.0, "lat": 38.9056925, "rental_uris": {"android": "https://dc.lft.to/lastmile_qr_scan", "ios": "https://dc.lft.to/lastmile_qr_scan"}, "fusion_lat": 0.0, "name": "8afe25503f31927f2a14b861326b7f55", "bike_id": "8afe25503f31927f2a14b861326b7f55"}, {"is_disabled": 0, "is_reserved": 0, "type": "electric_scooter", "lon": -77.04511883333333, "fusion_lon": 0.0, "lat": 38.905681, "rental_uris": {"android": "https://dc.lft.to/lastmile_qr_scan", "ios": "https://dc.lft.to/lastmile_qr_scan"}, "fusion_lat": 0.0, "name": "21bfc5714d5b2c1d2d02207e971c79aa", "bike_id": "21bfc5714d5b2c1d2d02207e971c79aa"}, {"is_disabled": 0, "is_reserved": 0, "type": "electric_scooter", "lon": -77.027991, "fusion_lon": 0.0, "lat": 38.90742766666666, "rental_uris": {"android": "https://dc.lft.to/lastmile_qr_scan", "ios": "https://dc.lft.to/lastmile_qr_scan"}, "fusion_lat": 0.0, "name": "12dbd5f22a893596258b54404a554169", "bike_id": "12dbd5f22a893596258b54404a554169"}, {"is_disabled": 0, "is_reserved": 0, "type": "electric_scooter", "lon": -77.043362, "fusion_lon": 0.0, "lat": 38.92171166666667, "rental_uris": {"android": "https://dc.lft.to/lastmile_qr_scan", "ios": "https://dc.lft.to/lastmile_qr_scan"}, "fusion_lat": 0.0, "name": "83049fb07588cf6aebbd95190bf4a674", "bike_id": "83049fb07588cf6aebbd95190bf4a674"}, {"is_disabled": 0, "is_reserved": 0, "type": "electric_scooter", "lon": -77.02466916666667, "fusion_lon": 0.0, "lat": 38.8973065, "rental_uris": {"android": "https://dc.lft.to/lastmile_qr_scan", "ios": "https://dc.lft.to/lastmile_qr_scan"}, "fusion_lat": 0.0, "name": "3b4bee41691225c1d20d2aa39e41d32b", "bike_id": "3b4bee41691225c1d20d2aa39e41d32b"}, {"is_disabled": 0, "is_reserved": 0, "type": "electric_scooter", "lon": -77.03179033333333, "fusion_lon": 0.0, "lat": 38.89176533333333, "rental_uris": {"android": "https://dc.lft.to/lastmile_qr_scan", "ios": "https://dc.lft.to/lastmile_qr_scan"}, "fusion_lat": 0.0, "name": "8bb36680cb5fa07b99c05285af032ca9", "bike_id": "8bb36680cb5fa07b99c05285af032ca9"}, {"is_disabled": 0, "is_reserved": 0, "type": "electric_scooter", "lon": -77.0465935, "fusion_lon": 0.0, "lat": 38.896961, "rental_uris": {"android": "https://dc.lft.to/lastmile_qr_scan", "ios": "https://dc.lft.to/lastmile_qr_scan"}, "fusion_lat": 0.0, "name": "8326cca44283c666e8b754e76b48eb7d", "bike_id": "8326cca44283c666e8b754e76b48eb7d"}, {"is_disabled": 0, "is_reserved": 0, "type": "electric_scooter", "lon": -77.01059683333334, "fusion_lon": 0.0, "lat": 38.87242783333333, "rental_uris": {"android": "https://dc.lft.to/lastmile_qr_scan", "ios": "https://dc.lft.to/lastmile_qr_scan"}, "fusion_lat": 0.0, "name": "28011e27a0b0ed9d8cfe0110304a7e7c", "bike_id": "28011e27a0b0ed9d8cfe0110304a7e7c"}, {"is_disabled": 0, "is_reserved": 0, "type": "electric_scooter", "lon": -77.02780333333334, "fusion_lon": 0.0, "lat": 38.91020316666667, "rental_uris": {"android": "https://dc.lft.to/lastmile_qr_scan", "ios": "https://dc.lft.to/lastmile_qr_scan"}, "fusion_lat": 0.0, "name": "5cd99e5564abcc56d03fb109ec8b4e78", "bike_id": "5cd99e5564abcc56d03fb109ec8b4e78"}, {"is_disabled": 0, "is_reserved": 0, "type": "electric_scooter", "lon": -77.03466, "fusion_lon": 0.0, "lat": 38.92149033333333, "rental_uris": {"android": "https://dc.lft.to/lastmile_qr_scan", "ios": "https://dc.lft.to/lastmile_qr_scan"}, "fusion_lat": 0.0, "name": "0339704b3bb2d1df59ab149f9fad7f14", "bike_id": "0339704b3bb2d1df59ab149f9fad7f14"}, {"is_disabled": 0, "is_reserved": 0, "type": "electric_scooter", "lon": -77.02161283333334, "fusion_lon": 0.0, "lat": 38.9261255, "rental_uris": {"android": "https://dc.lft.to/lastmile_qr_scan", "ios": "https://dc.lft.to/lastmile_qr_scan"}, "fusion_lat": 0.0, "name": "373358fb9f069f11f483eb001cac3139", "bike_id": "373358fb9f069f11f483eb001cac3139"}, {"is_disabled": 0, "is_reserved": 0, "type": "electric_scooter", "lon": -77.03453016666667, "fusion_lon": 0.0, "lat": 38.93429116666667, "rental_uris": {"android": "https://dc.lft.to/lastmile_qr_scan", "ios": "https://dc.lft.to/lastmile_qr_scan"}, "fusion_lat": 0.0, "name": "6e4bd1bfdef5459368d46ec2354cdf18", "bike_id": "6e4bd1bfdef5459368d46ec2354cdf18"}, {"is_disabled": 0, "is_reserved": 0, "type": "electric_scooter", "lon": -77.03567216666667, "fusion_lon": 0.0, "lat": 38.92744066666667, "rental_uris": {"android": "https://dc.lft.to/lastmile_qr_scan", "ios": "https://dc.lft.to/lastmile_qr_scan"},