{"data": {"bikes": [{"name": "6785048656de9d857da500c3e36d6904", "type": "electric_scooter", "lat": 38.88277166666666, "is_reserved": 0, "lon": -76.98613833333333, "fusion_lon": 0.0, "is_disabled": 0, "fusion_lat": 0.0, "bike_id": "6785048656de9d857da500c3e36d6904", "rental_uris": {"ios": "https://dc.lft.to/lastmile_qr_scan", "android": "https://dc.lft.to/lastmile_qr_scan"}}, {"name": "3aa69881154daa06da1159e30930cd01", "type": "electric_scooter", "lat": 38.9003825, "is_reserved": 0, "lon": -77.00219716666666, "fusion_lon": 0.0, "is_disabled": 0, "fusion_lat": 0.0, "bike_id": "3aa69881154daa06da1159e30930cd01", "rental_uris": {"ios": "https://dc.lft.to/lastmile_qr_scan", "android": "https://dc.lft.to/lastmile_qr_scan"}}, {"name": "0ee50aa584040827b4d5de2d9d95c0e9", "type": "electric_scooter", "lat": 38.868309833333335, "is_reserved": 0, "lon": -76.98611666666666, "fusion_lon": 0.0, "is_disabled": 0, "fusion_lat": 0.0, "bike_id": "0ee50aa584040827b4d5de2d9d95c0e9", "rental_uris": {"ios": "https://dc.lft.to/lastmile_qr_scan", "android": "https://dc.lft.to/lastmile_qr_scan"}}, {"name": "171bbc2fde0e1f59d12e9845e7d0f74f", "type": "electric_scooter", "lat": 38.92480616666667, "is_reserved": 0, "lon": -77.02997933333333, "fusion_lon": 0.0, "is_disabled": 0, "fusion_lat": 0.0, "bike_id": "171bbc2fde0e1f59d12e9845e7d0f74f", "rental_uris": {"ios": "https://dc.lft.to/lastmile_qr_scan", "android": "https://dc.lft.to/lastmile_qr_scan"}}, {"name": "0a4771ada2c4cc40354da843bf86fc86", "type": "electric_scooter", "lat": 38.907759166666665, "is_reserved": 0, "lon": -77.07165383333333, "fusion_lon": 0.0, "is_disabled": 0, "fusion_lat": 0.0, "bike_id": "0a4771ada2c4cc40354da843bf86fc86", "rental_uris": {"ios": "https://dc.lft.to/lastmile_qr_scan", "android": "https://dc.lft.to/lastmile_qr_scan"}}, {"name": "ac5326fa8ad4ba4a5b0719f7c69f25ba", "type": "electric_scooter", "lat": 38.915870166666664, "is_reserved": 0, "lon": -77.042594, "fusion_lon": 0.0, "is_disabled": 0, "fusion_lat": 0.0, "bike_id": "ac5326fa8ad4ba4a5b0719f7c69f25ba", "rental_uris": {"ios": "https://dc.lft.to/lastmile_qr_scan", "android": "https://dc.lft.to/lastmile_qr_scan"}}, {"name": "21902947f59f9e205830ef87998f10b0", "type": "electric_scooter", "lat": 38.928362, "is_reserved": 0, "lon": -77.01408816666667, "fusion_lon": 0.0, "is_disabled": 0, "fusion_lat": 0.0, "bike_id": "21902947f59f9e205830ef87998f10b0", "rental_uris": {"ios": "https://dc.lft.to/lastmile_qr_scan", "android": "https://dc.lft.to/lastmile_qr_scan"}}, {"name": "87cd3613802f5e1bb492955fb6056b99", "type": "electric_scooter", "lat": 38.9096525, "is_reserved": 0, "lon": -77.04564233333333, "fusion_lon": 0.0, "is_disabled": 0, "fusion_lat": 0.0, "bike_id": "87cd3613802f5e1bb492955fb6056b99", "rental_uris": {"ios": "https://dc.lft.to/lastmile_qr_scan", "android": "https://dc.lft.to/lastmile_qr_scan"}}, {"name": "c7cc13437cc8802a0e052c72976c7d49", "type": "electric_scooter", "lat": 38.9032625, "is_reserved": 0, "lon": -77.03456366666667, "fusion_lon": 0.0, "is_disabled": 0, "fusion_lat": 0.0, "bike_id": "c7cc13437cc8802a0e052c72976c7d49", "rental_uris": {"ios": "https://dc.lft.to/lastmile_qr_scan", "android": "https://dc.lft.to/lastmile_qr_scan"}}, {"name": "ad6ce3ee3e97f9fbb6507661ea61d23a", "type": "electric_scooter", "lat": 38.90448133333334, "is_reserved": 0, "lon": -76.99621833333333, "fusion_lon": 0.0, "is_disabled": 0, "fusion_lat": 0.0, "bike_id": "ad6ce3ee3e97f9fbb6507661ea61d23a", "rental_uris": {"ios": "https://dc.lft.to/lastmile_qr_scan", "android": "https://dc.lft.to/lastmile_qr_scan"}}, {"name": "ac58e9757cf39d668b5e18842d3376d9", "type": "electric_scooter", "lat": 38.920084, "is_reserved": 0, "lon": -77.04176166666667, "fusion_lon": 0.0, "is_disabled": 0, "fusion_lat": 0.0, "bike_id": "ac58e9757cf39d668b5e18842d3376d9", "rental_uris": {"ios": "https://dc.lft.to/lastmile_qr_scan", "android": "https://dc.lft.to/lastmile_qr_scan"}}, {"name": "fc7b95907d3cf4396ed6d34814c50984", "type": "electric_scooter", "lat": 38.84297, "is_reserved": 0, "lon": -76.99945383333333, "fusion_lon": 0.0, "is_disabled": 0, "fusion_lat": 0.0, "bike_id": "fc7b95907d3cf4396ed6d34814c50984", "rental_uris": {"ios": "https://dc.lft.to/lastmile_qr_scan", "android": "https://dc.lft.to/lastmile_qr_scan"}}, {"name": "a578958f6a86fcb570ac739d88301879", "type": "electric_scooter", "lat": 38.912225166666666, "is_reserved": 0, "lon": -77.07628666666666, "fusion_lon": 0.0, "is_disabled": 0, "fusion_lat": 0.0, "bike_id": "a578958f6a86fcb570ac739d88301879", "rental_uris": {"ios": "https://dc.lft.to/lastmile_qr_scan", "android": "https://dc.lft.to/lastmile_qr_scan"}}, {"name": "3bd3cad97b1b5577e1f8f1e349424326", "type": "electric_scooter", "lat": 38.8783745, "is_reserved": 0, "lon": -76.990375, "fusion_lon": 0.0, "is_disabled": 0, "fusion_lat": 0.0, "bike_id": "3bd3cad97b1b5577e1f8f1e349424326", "rental_uris": {"ios": "https://dc.lft.to/lastmile_qr_scan", "android": "https://dc.lft.to/lastmile_qr_scan"}}, {"name": "fbd7997ce9fcd1fa7ac2882eca0a66e1", "type": "electric_scooter", "lat": 38.906579666666666, "is_reserved": 0, "lon": -77.00605066666667, "fusion_lon": 0.0, "is_disabled": 0, "fusion_lat": 0.0, "bike_id": "fbd7997ce9fcd1fa7ac2882eca0a66e1", "rental_uris": {"ios": "https://dc.lft.to/lastmile_qr_scan", "android": "https://dc.lft.to/lastmile_qr_scan"}}, {"name": "eb89b44d4a4b34ec36ce728a3faeabda", "type": "electric_scooter", "lat": 38.9348855, "is_reserved": 0, "lon": -77.03289283333334, "fusion_lon": 0.0, "is_disabled": 0, "fusion_lat": 0.0, "bike_id": "eb89b44d4a4b34ec36ce728a3faeabda", "rental_uris": {"ios": "https://dc.lft.to/lastmile_qr_scan", "android": "https://dc.lft.to/lastmile_qr_scan"}}, {"name": "2361efc91ffc1842278c078f16bcd441", "type": "electric_scooter", "lat": 38.91003366666666, "is_reserved": 0, "lon": -76.99412516666666, "fusion_lon": 0.0, "is_disabled": 0, "fusion_lat": 0.0, "bike_id": "2361efc91ffc1842278c078f16bcd441", "rental_uris": {"ios": "https://dc.lft.to/lastmile_qr_scan", "android": "https://dc.lft.to/lastmile_qr_scan"}}, {"name": "7ab7b593c87a5652effd65075b36997d", "type": "electric_scooter", "lat": 38.915567833333334, "is_reserved": 0, "lon": -77.020188, "fusion_lon": 0.0, "is_disabled": 0, "fusion_lat": 0.0, "bike_id": "7ab7b593c87a5652effd65075b36997d", "rental_uris": {"ios": "https://dc.lft.to/lastmile_qr_scan", "android": "https://dc.lft.to/lastmile_qr_scan"}}, {"name": "3c9fa8e7fd81f95023160aeeb7894e74", "type": "electric_scooter", "lat": 38.85620016666667, "is_reserved": 0, "lon": -76.980217, "fusion_lon": 0.0, "is_disabled": 0, "fusion_lat": 0.0, "bike_id": "3c9fa8e7fd81f95023160aeeb7894e74", "rental_uris": {"ios": "https://dc.lft.to/lastmile_qr_scan", "android": "https://dc.lft.to/lastmile_qr_scan"}}, {"name": "effaf6934ecf9739c08077cdb88a4c1f", "type": "electric_scooter", "lat": 38.91272433333334, "is_reserved": 0, "lon": -77.060889, "fusion_lon": 0.0, "is_disabled": 0, "fusion_lat": 0.0, "bike_id": "effaf6934ecf9739c08077cdb88a4c1f", "rental_uris": {"ios": "https://dc.lft.to/lastmile_qr_scan", "android": "https://dc.lft.to/lastmile_qr_scan"}}, {"name": "f80bf851f24aac86292dee9f8a73a2ad", "type": "electric_scooter", "lat": 38.8958445, "is_reserved": 0, "lon": -76.93721166666667, "fusion_lon": 0.0, "is_disabled": 0, "fusion_lat": 0.0, "bike_id": "f80bf851f24aac86292dee9f8a73a2ad", "rental_uris": {"ios": "https://dc.lft.to/lastmile_qr_scan", "android": "https://dc.lft.to/lastmile_qr_scan"}}, {"name": "78a10362bd11e5b5bce1075e5d951c4a", "type": "electric_scooter", "lat": 38.92041316666667, "is_reserved": 0, "lon": -77.03340666666666, "fusion_lon": 0.0, "is_disabled": 0, "fusion_lat": 0.0, "bike_id": "78a10362bd11e5b5bce1075e5d951c4a", "rental_uris": {"ios": "https://dc.lft.to/lastmile_qr_scan", "android": "https://dc.lft.to/lastmile_qr_scan"}}, {"name": "42a163b5c4561ffd14ca7789820fb56f", "type": "electric_scooter", "lat": 38.9224075, "is_reserved": 0, "lon": -77.03665216666667, "fusion_lon": 0.0, "is_disabled": 0, "fusion_lat": 0.0, "bike_id": "42a163b5c4561ffd14ca7789820fb56f", "rental_uris": {"ios": "https://dc.lft.to/lastmile_qr_scan", "android": "https://dc.lft.to/lastmile_qr_scan"}}, {"name": "543621bee1773457413842239214c8c8", "type": "electric_scooter", "lat": 38.916949333333335, "is_reserved": 0, "lon": -77.03771216666667, "fusion_lon": 0.0, "is_disabled": 0, "fusion_lat": 0.0, "bike_id": "543621bee1773457413842239214c8c8", "rental_uris": {"ios": "https://dc.lft.to/lastmile_qr_scan", "android": "https://dc.lft.to/lastmile_qr_scan"}}, {"name": "789ef4c5382e3eae17dfa35c3a515dd4", "type": "electric_bike", "lat": 38.966236333333335, "is_reserved": 0, "lon": -76.97669333333333, "fusion_lon": 0.0, "is_disabled": 0, "fusion_lat": 0.0, "bike_id": "789ef4c5382e3eae17dfa35c3a515dd4", "rental_uris": {"ios": "https://dc.lft.to/lastmile_qr_scan", "android": "https://dc.lft.to/lastmile_qr_scan"}}, {"name": "d960c0687cf86677404106a72845c8d1", "type": "electric_scooter", "lat": 38.86697133333333, "is_reserved": 0, "lon": -76.98709033333333, "fusion_lon": 0.0, "is_disabled": 0, "fusion_lat": 0.0, "bike_id": "d960c0687cf86677404106a72845c8d1", "rental_uris": {"ios": "https://dc.lft.to/lastmile_qr_scan", "android": "https://dc.lft.to/lastmile_qr_scan"}}, {"name": "fb6c326c404b6714fe01fdceac362a16", "type": "electric_bike", "lat": 38.85689633333333, "is_reserved": 0, "lon": -77.08535816666667, "fusion_lon": 0.0, "is_disabled": 0, "fusion_lat": 0.0, "bike_id": "fb6c326c404b6714fe01fdceac362a16", "rental_uris": {"ios": "https://dc.lft.to/lastmile_qr_scan", "android": "https://dc.lft.to/lastmile_qr_scan"}}, {"name": "7ff701aac3eb13f221bcdde48cfe9a05", "type": "electric_bike", "lat": 38.99938216666666, "is_reserved": 0, "lon": -77.017689, "fusion_lon": 0.0, "is_disabled": 0, "fusion_lat": 0.0, "bike_id": "7ff701aac3eb13f221bcdde48cfe9a05", "rental_uris": {"ios": "https://dc.lft.to/lastmile_qr_scan", "android": "https://dc.lft.to/lastmile_qr_scan"}}, {"name": "76b6277ab2ee7d30dd0b1adb36a1e7d0", "type": "electric_scooter", "lat": 38.896701, "is_reserved": 0, "lon": -76.98564333333333, "fusion_lon": 0.0, "is_disabled": 0, "fusion_lat": 0.0, "bike_id": "76b6277ab2ee7d30dd0b1adb36a1e7d0", "rental_uris": {"ios": "https://dc.lft.to/lastmile_qr_scan", "android": "https://dc.lft.to/lastmile_qr_scan"}}, {"name": "0cd3958e46fdc78392e9d1e1062f1c81", "type": "electric_scooter", "lat": 38.924439, "is_reserved": 0, "lon": -77.032752, "fusion_lon": 0.0, "is_disabled": 0, "fusion_lat": 0.0, "bike_id": "0cd3958e46fdc78392e9d1e1062f1c81", "rental_uris": {"ios": "https://dc.lft.to/lastmile_qr_scan", "android": "https://dc.lft.to/lastmile_qr_scan"}}, {"name": "f86b6f42cafa23234e4c92bb559d904b", "type": "electric_scooter", "lat": 38.93989416666667, "is_reserved": 0, "lon": -77.02897933333334, "fusion_lon": 0.0, "is_disabled": 0, "fusion_lat": 0.0, "bike_id": "f86b6f42cafa23234e4c92bb559d904b", "rental_uris": {"ios": "https://dc.lft.to/lastmile_qr_scan", "android": "https://dc.lft.to/lastmile_qr_scan"}}, {"name": "45755920d8132e54f75d5c54d90c4fd1", "type": "electric_scooter", "lat": 38.9082975, "is_reserved": 0, "lon": -76.99693966666666, "fusion_lon": 0.0, "is_disabled": 0, "fusion_lat": 0.0, "bike_id": "45755920d8132e54f75d5c54d90c4fd1", "rental_uris": {"ios": "https://dc.lft.to/lastmile_qr_scan", "android": "https://dc.lft.to/lastmile_qr_scan"}}, {"name": "1b16eb711aced45eb314197a2aef34ec", "type": "electric_scooter", "lat": 38.903290166666665, "is_reserved": 0, "lon": -77.050721, "fusion_lon": 0.0, "is_disabled": 0, "fusion_lat": 0.0, "bike_id": "1b16eb711aced45eb314197a2aef34ec", "rental_uris": {"ios": "https://dc.lft.to/lastmile_qr_scan", "android": "https://dc.lft.to/lastmile_qr_scan"}}, {"name": "0cfe04bb6517cf01b7cdd4738af7e53f", "type": "electric_bike", "lat": 39.030485666666664, "is_reserved": 0, "lon": -77.094815, "fusion_lon": 0.0, "is_disabled": 0, "fusion_lat": 0.0, "bike_id": "0cfe04bb6517cf01b7cdd4738af7e53f", "rental_uris": {"ios": "https://dc.lft.to/lastmile_qr_scan", "android": "https://dc.lft.to/lastmile_qr_scan"}}, {"name": "b8f5a118ad454882c678221ca78ac87f", "type": "electric_scooter", "lat": 38.90672133333333, "is_reserved": 0, "lon": -77.027116, "fusion_lon": 0.0, "is_disabled": 0, "fusion_lat": 0.0, "bike_id": "b8f5a118ad454882c678221ca78ac87f", "rental_uris": {"ios": "https://dc.lft.to/lastmile_qr_scan", "android": "https://dc.lft.to/lastmile_qr_scan"}}, {"name": "6d92a438e3331a4d93893faf8470c482", "type": "electric_scooter", "lat": 38.91807383333333, "is_reserved": 0, "lon": -77.0017105, "fusion_lon": 0.0, "is_disabled": 0, "fusion_lat": 0.0, "bike_id": "6d92a438e3331a4d93893faf8470c482", "rental_uris": {"ios": "https://dc.lft.to/lastmile_qr_scan", "android": "https://dc.lft.to/lastmile_qr_scan"}}, {"name": "88797c5b46b70a5cfde4fe62b60e46a9", "type": "electric_scooter", "lat": 38.8936415, "is_reserved": 0, "lon": -77.04773766666666, "fusion_lon": 0.0, "is_disabled": 0, "fusion_lat": 0.0, "bike_id": "88797c5b46b70a5cfde4fe62b60e46a9", "rental_uris": {"ios": "https://dc.lft.to/lastmile_qr_scan", "android": "https://dc.lft.to/lastmile_qr_scan"}}, {"name": "d454ce5ef476d351058118b387290310", "type": "electric_scooter", "lat": 38.913221666666665, "is_reserved": 0, "lon": -77.0197115, "fusion_lon": 0.0, "is_disabled": 0, "fusion_lat": 0.0, "bike_id": "d454ce5ef476d351058118b387290310", "rental_uris": {"ios": "https://dc.lft.to/lastmile_qr_scan", "android": "https://dc.lft.to/lastmile_qr_scan"}}, {"name": "b59e3225f930b2b0d1af28cd411663e2", "type": "electric_scooter", "lat": 38.90779466666667, "is_reserved": 0, "lon": -77.02978466666667, "fusion_lon": 0.0, "is_disabled": 0, "fusion_lat": 0.0, "bike_id": "b59e3225f930b2b0d1af28cd411663e2", "rental_uris": {"ios": "https://dc.lft.to/lastmile_qr_scan", "android": "https://dc.lft.to/lastmile_qr_scan"}}, {"name": "02bb742abaa65b6a8f00c7043c534c5a", "type": "electric_scooter", "lat": 38.908403666666665, "is_reserved": 0, "lon": -77.00067566666667, "fusion_lon": 0.0, "is_disabled": 0, "fusion_lat": 0.0, "bike_id": "02bb742abaa65b6a8f00c7043c534c5a", "rental_uris": {"ios": "https://dc.lft.to/lastmile_qr_scan", "android": "https://dc.lft.to/lastmile_qr_scan"}}, {"name": "450951a0e5d05583b83318a036c747f5", "type": "electric_scooter", "lat": 38.87234633333333, "is_reserved": 0, "lon": -77.01148416666666, "fusion_lon": 0.0, "is_disabled": 0, "fusion_lat": 0.0, "bike_id": "450951a0e5d05583b83318a036c747f5", "rental_uris": {"ios": "https://dc.lft.to/lastmile_qr_scan", "android": "https://dc.lft.to/lastmile_qr_scan"}}, {"name": "518f9280a6b2eb586e52a8cbb6a8a811", "type": "electric_scooter", "lat": 38.92015883333333, "is_reserved": 0, "lon": -77.03968216666667, "fusion_lon": 0.0, "is_disabled": 0, "fusion_lat": 0.0, "bike_id": "518f9280a6b2eb586e52a8cbb6a8a811", "rental_uris": {"ios": "https://dc.lft.to/lastmile_qr_scan", "android": "https://dc.lft.to/lastmile_qr_scan"}}, {"name": "77abf637de920ecb0bcf6a996904a4da", "type": "electric_scooter", "lat": 38.883744166666666, "is_reserved": 0, "lon": -77.0194475, "fusion_lon": 0.0, "is_disabled": 0, "fusion_lat": 0.0, "bike_id": "77abf637de920ecb0bcf6a996904a4da", "rental_uris": {"ios": "https://dc.lft.to/lastmile_qr_scan", "android": "https://dc.lft.to/lastmile_qr_scan"}}, {"name": "1d796997977e0b178f42e98653cb1637", "type": "electric_scooter", "lat": 38.876726833333336, "is_reserved": 0, "lon": -77.0006195, "fusion_lon": 0.0, "is_disabled": 0, "fusion_lat": 0.0, "bike_id": "1d796997977e0b178f42e98653cb1637", "rental_uris": {"ios": "https://dc.lft.to/lastmile_qr_scan", "android": "https://dc.lft.to/lastmile_qr_scan"}}, {"name": "ea1f9f38c314105452a076d76e4bd2e8", "type": "electric_scooter", "lat": 38.89221666666667, "is_reserved": 0, "lon": -77.02143883333333, "fusion_lon": 0.0, "is_disabled": 0, "fusion_lat": 0.0, "bike_id": "ea1f9f38c314105452a076d76e4bd2e8", "rental_uris": {"ios": "https://dc.lft.to/lastmile_qr_scan", "android": "https://dc.lft.to/lastmile_qr_scan"}}, {"name": "0e946262278b66ae5045c3849853899e", "type": "electric_scooter", "lat": 38.89607083333333, "is_reserved": 0, "lon": -77.0257475, "fusion_lon": 0.0, "is_disabled": 0, "fusion_lat": 0.0, "bike_id": "0e946262278b66ae5045c3849853899e", "rental_uris": {"ios": "https://dc.lft.to/lastmile_qr_scan", "android": "https://dc.lft.to/lastmile_qr_scan"}}, {"name": "87d019eeca740be197e5241c10c4f418", "type": "electric_scooter", "lat": 38.9060925, "is_reserved": 0, "lon": -77.03213083333333, "fusion_lon": 0.0, "is_disabled": 0, "fusion_lat": 0.0, "bike_id": "87d019eeca740be197e5241c10c4f418", "rental_uris": {"ios": "https://dc.lft.to/lastmile_qr_scan", "android": "https://dc.lft.to/lastmile_qr_scan"}}, {"name": "e4ed23eaa03d749e138f7797bc3127b3", "type": "electric_scooter", "lat": 38.883264833333335, "is_reserved": 0, "lon": -77.017517, "fusion_lon": 0.0, "is_disabled": 0, "fusion_lat": 0.0, "bike_id": "e4ed23eaa03d749e138f7797bc3127b3", "rental_uris": {"ios": "https://dc.lft.to/lastmile_qr_scan", "android": "https://dc.lft.to/lastmile_qr_scan"}}, {"name": "528a2b5af6f9b02fde7d7ba7f83e6826", "type": "electric_scooter", "lat": 38.905023666666665, "is_reserved": 0, "lon": -77.05220733333333, "fusion_lon": 0.0, "is_disabled": 0, "fusion_lat": 0.0, "bike_id": "528a2b5af6f9b02fde7d7ba7f83e6826", "rental_uris": {"ios": "https://dc.lft.to/lastmile_qr_scan", "android": "https://dc.lft.to/lastmile_qr_scan"}}, {"name": "9cab1e0a4a8a19d5d5bd3fc54afd989d", "type": "electric_scooter", "lat": 38.88507233333333, "is_reserved": 0, "lon": -77.03068016666667, "fusion_lon": 0.0, "is_disabled": 0, "fusion_lat": 0.0, "bike_id": "9cab1e0a4a8a19d5d5bd3fc54afd989d", "rental_uris": {"ios": "https://dc.lft.to/lastmile_qr_scan", "android": "https://dc.lft.to/lastmile_qr_scan"}}, {"name": "a80e9be4ba5f83d3aa3d106d25588fae", "type": "electric_scooter", "lat": 38.9186065, "is_reserved": 0, "lon": -77.04175216666667, "fusion_lon": 0.0, "is_disabled": 0, "fusion_lat": 0.0, "bike_id": "a80e9be4ba5f83d3aa3d106d25588fae", "rental_uris": {"ios": "https://dc.lft.to/lastmile_qr_scan", "android": "https://dc.lft.to/lastmile_qr_scan"}}, {"name": "8ebe89b17e47def5b3c3cae797326ede", "type": "electric_bike", "lat": 39.038812666666665, "is_reserved": 0, "lon": -76.990447, "fusion_lon": 0.0, "is_disabled": 0, "fusion_lat": 0.0, "bike_id": "8ebe89b17e47def5b3c3cae797326ede", "rental_uris": {"ios": "https://dc.lft.to/lastmile_qr_scan", "android": "https://dc.lft.to/lastmile_qr_scan"}}, {"name": "5297d50555bb2729896a8c149e2732bd", "type": "electric_scooter", "lat": 38.901209333333334, "is_reserved": 0, "lon": -77.04149966666667, "fusion_lon": 0.0, "is_disabled": 0, "fusion_lat": 0.0, "bike_id": "5297d50555bb2729896a8c149e2732bd", "rental_uris": {"ios": "https://dc.lft.to/lastmile_qr_scan", "android": "https://dc.lft.to/lastmile_qr_scan"}}, {"name": "bef5fba1fd20994c3ea2536246afdb64", "type": "electric_scooter", "lat": 38.915738833333336, "is_reserved": 0, "lon": -77.04496616666667, "fusion_lon": 0.0, "is_disabled": 0, "fusion_lat": 0.0, "bike_id": "bef5fba1fd20994c3ea2536246afdb64", "rental_uris": {"ios": "https://dc.lft.to/lastmile_qr_scan", "android": "https://dc.lft.to/lastmile_qr_scan"}}, {"name": "ef1c17a17474139a919f350c79637a64", "type": "electric_scooter", "lat": 38.90369, "is_reserved": 0, "lon": -77.05372316666667, "fusion_lon": 0.0, "is_disabled": 0, "fusion_lat": 0.0, "bike_id": "ef1c17a17474139a919f350c79637a64", "rental_uris": {"ios": "https://dc.lft.to/lastmile_qr_scan", "android": "https://dc.lft.to/lastmile_qr_scan"}}, {"name": "920ca7477f9104cfd650e81260932a77", "type": "electric_scooter", "lat": 38.943084166666665, "is_reserved": 0, "lon": -77.05937466666667, "fusion_lon": 0.0, "is_disabled": 0, "fusion_lat": 0.0, "bike_id": "920ca7477f9104cfd650e81260932a77", "rental_uris": {"ios": "https://dc.lft.to/lastmile_qr_scan", "android": "https://dc.lft.to/lastmile_qr_scan"}}, {"name": "aac5a7b6980c75d3bb1c386bebc9e1f8", "type": "electric_scooter", "lat": 38.93427066666667, "is_reserved": 0, "lon": -77.04002383333334, "fusion_lon": 0.0, "is_disabled": 0, "fusion_lat": 0.0, "bike_id": "aac5a7b6980c75d3bb1c386bebc9e1f8", "rental_uris": {"ios": "https://dc.lft.to/lastmile_qr_scan", "android": "https://dc.lft.to/lastmile_qr_scan"}}, {"name": "44075fb707b521687dbc5e1f2e204ad1", "type": "electric_scooter", "lat": 38.9048815, "is_reserved": 0, "lon": -77.03845516666667, "fusion_lon": 0.0, "is_disabled": 0, "fusion_lat": 0.0, "bike_id": "44075fb707b521687dbc5e1f2e204ad1", "rental_uris": {"ios": "https://dc.lft.to/lastmile_qr_scan", "android": "https://dc.lft.to/lastmile_qr_scan"}}, {"name": "9f3729ea2e7c0ef49185ecf265ed528f", "type": "electric_scooter", "lat": 38.9017515, "is_reserved": 0, "lon": -77.02514383333333, "fusion_lon": 0.0, "is_disabled": 0, "fusion_lat": 0.0, "bike_id": "9f3729ea2e7c0ef49185ecf265ed528f", "rental_uris": {"ios": "https://dc.lft.to/lastmile_qr_scan", "android": "https://dc.lft.to/lastmile_qr_scan"}}, {"name": "70d8dfd2bf67654fb6b08a16f6620e5c", "type": "electric_bike", "lat": 38.968684333333336, "is_reserved": 0, "lon": -77.03336266666666, "fusion_lon": 0.0, "is_disabled": 0, "fusion_lat": 0.0, "bike_id": "70d8dfd2bf67654fb6b08a16f6620e5c", "rental_uris": {"ios": "https://dc.lft.to/lastmile_qr_scan", "android": "https://dc.lft.to/lastmile_qr_scan"}}, {"name": "0b6a22b2efe10b20ed2eb071d668b6c6", "type": "electric_scooter", "lat": 38.885924333333335, "is_reserved": 0, "lon": -77.01768533333333, "fusion_lon": 0.0, "is_disabled": 0, "fusion_lat": 0.0, "bike_id": "0b6a22b2efe10b20ed2eb071d668b6c6", "rental_uris": {"ios": "https://dc.lft.to/lastmile_qr_scan", "android": "https://dc.lft.to/lastmile_qr_scan"}}, {"name": "7a0b88ec2701dbff95fbe78372395524", "type": "electric_bike", "lat": 38.959097, "is_reserved": 0, "lon": -77.00154033333334, "fusion_lon": 0.0, "is_disabled": 0, "fusion_lat": 0.0, "bike_id": "7a0b88ec2701dbff95fbe78372395524", "rental_uris": {"ios": "https://dc.lft.to/lastmile_qr_scan", "android": "https://dc.lft.to/lastmile_qr_scan"}}, {"name": "e44b57234c5b93f56db63221fe6340ea", "type": "electric_scooter", "lat": 38.8624155, "is_reserved": 0, "lon": -76.99493233333334, "fusion_lon": 0.0, "is_disabled": 0, "fusion_lat": 0.0, "bike_id": "e44b57234c5b93f56db63221fe6340ea", "rental_uris": {"ios": "https://dc.lft.to/lastmile_qr_scan", "android": "https://dc.lft.to/lastmile_qr_scan"}}, {"name": "eea17b37c6b3d84a9c4ee387cbd5e4bc", "type": "electric_scooter", "lat": 38.916868, "is_reserved": 0, "lon": -77.02891933333333, "fusion_lon": 0.0, "is_disabled": 0, "fusion_lat": 0.0, "bike_id": "eea17b37c6b3d84a9c4ee387cbd5e4bc", "rental_uris": {"ios": "https://dc.lft.to/lastmile_qr_scan", "android": "https://dc.lft.to/lastmile_qr_scan"}}, {"name": "817083e19934d8f06f8c2a1e98cc42b7", "type": "electric_scooter", "lat": 38.918751666666665, "is_reserved": 0, "lon": -77.043501, "fusion_lon": 0.0, "is_disabled": 0, "fusion_lat": 0.0, "bike_id": "817083e19934d8f06f8c2a1e98cc42b7", "rental_uris": {"ios": "https://dc.lft.to/lastmile_qr_scan", "android": "https://dc.lft.to/lastmile_qr_scan"}}, {"name": "0c85e7119aca78d1f7fc77a0c27e1b92", "type": "electric_scooter", "lat": 38.93226716666667, "is_reserved": 0, "lon": -77.02840816666667, "fusion_lon": 0.0, "is_disabled": 0, "fusion_lat": 0.0, "bike_id": "0c85e7119aca78d1f7fc77a0c27e1b92", "rental_uris": {"ios": "https://dc.lft.to/lastmile_qr_scan", "android": "https://dc.lft.to/lastmile_qr_scan"}}, {"name": "660aba961baf8ea74ad449fac29566ce", "type": "electric_scooter", "lat": 38.899324666666665, "is_reserved": 0, "lon": -77.03102183333333, "fusion_lon": 0.0, "is_disabled": 0, "fusion_lat": 0.0, "bike_id": "660aba961baf8ea74ad449fac29566ce", "rental_uris": {"ios": "https://dc.lft.to/lastmile_qr_scan", "android": "https://dc.lft.to/lastmile_qr_scan"}}, {"name": "dac19b430d33ec56c02386b2a0c019a1", "type": "electric_scooter", "lat": 38.89350016666667, "is_reserved": 0, "lon": -76.94949583333333, "fusion_lon": 0.0, "is_disabled": 0, "fusion_lat": 0.0, "bike_id": "dac19b430d33ec56c02386b2a0c019a1", "rental_uris": {"ios": "https://dc.lft.to/lastmile_qr_scan", "android": "https://dc.lft.to/lastmile_qr_scan"}}, {"name": "b61831c0c3649e4b42627016a06693e1", "type": "electric_scooter", "lat": 38.8970345, "is_reserved": 0, "lon": -77.03263583333333, "fusion_lon": 0.0, "is_disabled": 0, "fusion_lat": 0.0, "bike_id": "b61831c0c3649e4b42627016a06693e1", "rental_uris": {"ios": "https://dc.lft.to/lastmile_qr_scan", "android": "https://dc.lft.to/lastmile_qr_scan"}}, {"name": "ebf030c751d889f0016a6ce6520e7105", "type": "electric_scooter", "lat": 38.9012925, "is_reserved": 0, "lon": -77.04028066666666, "fusion_lon": 0.0, "is_disabled": 0, "fusion_lat": 0.0, "bike_id": "ebf030c751d889f0016a6ce6520e7105", "rental_uris": {"ios": "https://dc.lft.to/lastmile_qr_scan", "android": "https://dc.lft.to/lastmile_qr_scan"}}, {"name": "b379a63b47bad1db101067eec5c12b1f", "type": "electric_scooter", "lat": 38.923049, "is_reserved": 0, "lon": -77.01209883333334, "fusion_lon": 0.0, "is_disabled": 0, "fusion_lat": 0.0, "bike_id": "b379a63b47bad1db101067eec5c12b1f", "rental_uris": {"ios": "https://dc.lft.to/lastmile_qr_scan", "android": "https://dc.lft.to/lastmile_qr_scan"}}, {"name": "7fa5782d4c253c71e2d4be65cd7fd8b3", "type": "electric_scooter", "lat": 38.916993166666664, "is_reserved": 0, "lon": -77.03218266666667, "fusion_lon": 0.0, "is_disabled": 0, "fusion_lat": 0.0, "bike_id": "7fa5782d4c253c71e2d4be65cd7fd8b3", "rental_uris": {"ios": "https://dc.lft.to/lastmile_qr_scan", "android": "https://dc.lft.to/lastmile_qr_scan"}}, {"name": "b07afbead655c49f6936b117df1f8f9a", "type": "electric_scooter", "lat": 38.9111465, "is_reserved": 0, "lon": -77.0422675, "fusion_lon": 0.0, "is_disabled": 0, "fusion_lat": 0.0, "bike_id": "b07afbead655c49f6936b117df1f8f9a", "rental_uris": {"ios": "https://dc.lft.to/lastmile_qr_scan", "android": "https://dc.lft.to/lastmile_qr_scan"}}, {"name": "971a652756fe51259295bbce534354b3", "type": "electric_scooter", "lat": 38.9370335, "is_reserved": 0, "lon": -77.06102616666666, "fusion_lon": 0.0, "is_disabled": 0, "fusion_lat": 0.0, "bike_id": "971a652756fe51259295bbce534354b3", "rental_uris": {"ios": "https://dc.lft.to/lastmile_qr_scan", "android": "https://dc.lft.to/lastmile_qr_scan"}}, {"name": "bdecc1316f4d304064d3506d4b033fd0", "type": "electric_scooter", "lat": 38.873922666666665, "is_reserved": 0, "lon": -77.000268, "fusion_lon": 0.0, "is_disabled": 0, "fusion_lat": 0.0, "bike_id": "bdecc1316f4d304064d3506d4b033fd0", "rental_uris": {"ios": "https://dc.lft.to/lastmile_qr_scan", "android": "https://dc.lft.to/lastmile_qr_scan"}}, {"name": "4392d7f198a03dff268f24c8cc11842a", "type": "electric_scooter", "lat": 38.93019316666667, "is_reserved": 0, "lon": -77.02333666666667, "fusion_lon": 0.0, "is_disabled": 0, "fusion_lat": 0.0, "bike_id": "4392d7f198a03dff268f24c8cc11842a", "rental_uris": {"ios": "https://dc.lft.to/lastmile_qr_scan", "android": "https://dc.lft.to/lastmile_qr_scan"}}, {"name": "4f6cbbf8a3d260c8759bd66e0b617a29", "type": "electric_scooter", "lat": 38.89712816666667, "is_reserved": 0, "lon": -77.031416, "fusion_lon": 0.0, "is_disabled": 0, "fusion_lat": 0.0, "bike_id": "4f6cbbf8a3d260c8759bd66e0b617a29", "rental_uris": {"ios": "https://dc.lft.to/lastmile_qr_scan", "android": "https://dc.lft.to/lastmile_qr_scan"}}, {"name": "a66ec4341a5f88bdd3547c79255c9596", "type": "electric_scooter", "lat": 38.9243505, "is_reserved": 0, "lon": -77.05209316666667, "fusion_lon": 0.0, "is_disabled": 0, "fusion_lat": 0.0, "bike_id": "a66ec4341a5f88bdd3547c79255c9596", "rental_uris": {"ios": "https://dc.lft.to/lastmile_qr_scan", "android": "https://dc.lft.to/lastmile_qr_scan"}}, {"name": "64d7bb7660cae9ba0f74d3ff9527a969", "type": "electric_bike", "lat": 38.845724, "is_reserved": 0, "lon": -77.0962465, "fusion_lon": 0.0, "is_disabled": 0, "fusion_lat": 0.0, "bike_id": "64d7bb7660cae9ba0f74d3ff9527a969", "rental_uris": {"ios": "https://dc.lft.to/lastmile_qr_scan", "android": "https://dc.lft.to/lastmile_qr_scan"}}, {"name": "a89e81dbd57842e6f15d2b6fe06a1a69", "type": "electric_bike", "lat": 38.99911483333333, "is_reserved": 0, "lon": -77.04622716666667, "fusion_lon": 0.0, "is_disabled": 0, "fusion_lat": 0.0, "bike_id": "a89e81dbd57842e6f15d2b6fe06a1a69", "rental_uris": {"ios": "https://dc.lft.to/lastmile_qr_scan", "android": "https://dc.lft.to/lastmile_qr_scan"}}, {"name": "db2b62dedc590d9e0ab284a442774442", "type": "electric_scooter", "lat": 38.8871945, "is_reserved": 0, "lon": -77.02206466666667, "fusion_lon": 0.0, "is_disabled": 0, "fusion_lat": 0.0, "bike_id": "db2b62dedc590d9e0ab284a442774442", "rental_uris": {"ios": "https://dc.lft.to/lastmile_qr_scan", "android": "https://dc.lft.to/lastmile_qr_scan"}}, {"name": "0dcd268ea7569034f9cf85ccd050159f", "type": "electric_scooter", "lat": 38.9611495, "is_reserved": 0, "lon": -77.02814633333334, "fusion_lon": 0.0, "is_disabled": 0, "fusion_lat": 0.0, "bike_id": "0dcd268ea7569034f9cf85ccd050159f", "rental_uris": {"ios": "https://dc.lft.to/lastmile_qr_scan", "android": "https://dc.lft.to/lastmile_qr_scan"}}, {"name": "a323af0cb08ae024e13f1a464931b3cf", "type": "electric_scooter", "lat": 38.874566333333334, "is_reserved": 0, "lon": -77.00759983333333, "fusion_lon": 0.0, "is_disabled": 0, "fusion_lat": 0.0, "bike_id": "a323af0cb08ae024e13f1a464931b3cf", "rental_uris": {"ios": "https://dc.lft.to/lastmile_qr_scan", "android": "https://dc.lft.to/lastmile_qr_scan"}}, {"name": "18e3d6ed6b93c4c32aa343605be5a511", "type": "electric_scooter", "lat": 38.904953666666664, "is_reserved": 0, "lon": -77.00929783333333, "fusion_lon": 0.0, "is_disabled": 0, "fusion_lat": 0.0, "bike_id": "18e3d6ed6b93c4c32aa343605be5a511", "rental_uris": {"ios": "https://dc.lft.to/lastmile_qr_scan", "android": "https://dc.lft.to/lastmile_qr_scan"}}, {"name": "a467b5db36cf78b65c4625dc2eda94b5", "type": "electric_scooter", "lat": 38.87708083333333, "is_reserved": 0, "lon": -76.9938225, "fusion_lon": 0.0, "is_disabled": 0, "fusion_lat": 0.0, "bike_id": "a467b5db36cf78b65c4625dc2eda94b5", "rental_uris": {"ios": "https://dc.lft.to/lastmile_qr_scan", "android": "https://dc.lft.to/lastmile_qr_scan"}}, {"name": "defc94ad4a80ed0d8b6fa375b83b0621", "type": "electric_scooter", "lat": 38.90918533333333, "is_reserved": 0, "lon": -77.03663466666667, "fusion_lon": 0.0, "is_disabled": 0, "fusion_lat": 0.0, "bike_id": "defc94ad4a80ed0d8b6fa375b83b0621", "rental_uris": {"ios": "https://dc.lft.to/lastmile_qr_scan", "android": "https://dc.lft.to/lastmile_qr_scan"}}, {"name": "cd716dcea3a1a51af0ef907b8b864b8c", "type": "electric_scooter", "lat": 38.90027333333333, "is_reserved": 0, "lon": -77.00096533333334, "fusion_lon": 0.0, "is_disabled": 0, "fusion_lat": 0.0, "bike_id": "cd716dcea3a1a51af0ef907b8b864b8c", "rental_uris": {"ios": "https://dc.lft.to/lastmile_qr_scan", "android": "https://dc.lft.to/lastmile_qr_scan"}}, {"name": "63ef955b3600b2b1e35ad5617357591e", "type": "electric_scooter", "lat": 38.874993833333335, "is_reserved": 0, "lon": -76.997954, "fusion_lon": 0.0, "is_disabled": 0, "fusion_lat": 0.0, "bike_id": "63ef955b3600b2b1e35ad5617357591e", "rental_uris": {"ios": "https://dc.lft.to/lastmile_qr_scan", "android": "https://dc.lft.to/lastmile_qr_scan"}}, {"name": "108189a10213c8cddb3513c610af04a6", "type": "electric_scooter", "lat": 38.9188975, "is_reserved": 0, "lon": -77.01969683333333, "fusion_lon": 0.0, "is_disabled": 0, "fusion_lat": 0.0, "bike_id": "108189a10213c8cddb3513c610af04a6", "rental_uris": {"ios": "https://dc.lft.to/lastmile_qr_scan", "android": "https://dc.lft.to/lastmile_qr_scan"}}, {"name": "37a75dcec8f31bf3f1eff4bcafe9bd87", "type": "electric_bike", "lat": 38.8886245, "is_reserved": 0, "lon": -76.9947825, "fusion_lon": 0.0, "is_disabled": 0, "fusion_lat": 0.0, "bike_id": "37a75dcec8f31bf3f1eff4bcafe9bd87", "rental_uris": {"ios": "https://dc.lft.to/lastmile_qr_scan", "android": "https://dc.lft.to/lastmile_qr_scan"}}, {"name": "d995696329f862714c5ad293d50f98f6", "type": "electric_scooter", "lat": 38.92373833333333, "is_reserved": 0, "lon": -77.04307866666667, "fusion_lon": 0.0, "is_disabled": 0, "fusion_lat": 0.0, "bike_id": "d995696329f862714c5ad293d50f98f6", "rental_uris": {"ios": "https://dc.lft.to/lastmile_qr_scan", "android": "https://dc.lft.to/lastmile_qr_scan"}}, {"name": "731c551d3857694d72f453db5bb50142", "type": "electric_scooter", "lat": 38.920435499999996, "is_reserved": 0, "lon": -77.03198, "fusion_lon": 0.0, "is_disabled": 0, "fusion_lat": 0.0, "bike_id": "731c551d3857694d72f453db5bb50142", "rental_uris": {"ios": "https://dc.lft.to/lastmile_qr_scan", "android": "https://dc.lft.to/lastmile_qr_scan"}}, {"name": "305c87a80afa2b056217716467423219", "type": "electric_scooter", "lat": 38.87269283333333, "is_reserved": 0, "lon": -77.0152935, "fusion_lon": 0.0, "is_disabled": 0, "fusion_lat": 0.0, "bike_id": "305c87a80afa2b056217716467423219", "rental_uris": {"ios": "https://dc.lft.to/lastmile_qr_scan", "android": "https://dc.lft.to/lastmile_qr_scan"}}, {"name": "6d58dc2a1c2b100382478e1071e95239", "type": "electric_scooter", "lat": 38.921783166666664, "is_reserved": 0, "lon": -77.04127616666666, "fusion_lon": 0.0, "is_disabled": 0, "fusion_lat": 0.0, "bike_id": "6d58dc2a1c2b100382478e1071e95239", "rental_uris": {"ios": "https://dc.lft.to/lastmile_qr_scan", "android": "https://dc.lft.to/lastmile_qr_scan"}}, {"name": "aa014d7a239eabb537cfc4de2748c60d", "type": "electric_scooter", "lat": 38.93818533333334, "is_reserved": 0, "lon": -77.0264595, "fusion_lon": 0.0, "is_disabled": 0, "fusion_lat": 0.0, "bike_id": "aa014d7a239eabb537cfc4de2748c60d", "rental_uris": {"ios": "https://dc.lft.to/lastmile_qr_scan", "android": "https://dc.lft.to/lastmile_qr_scan"}}, {"name": "b03cb8862bd0ffe6b6f12c857bb711db", "type": "electric_scooter", "lat": 38.897728, "is_reserved": 0, "lon": -77.02709166666666, "fusion_lon": 0.0, "is_disabled": 0, "fusion_lat": 0.0, "bike_id": "b03cb8862bd0ffe6b6f12c857bb711db", "rental_uris": {"ios": "https://dc.lft.to/lastmile_qr_scan", "android": "https://dc.lft.to/lastmile_qr_scan"}}, {"name": "fa1317dcd7f28c11ce61c3a860553662", "type": "electric_bike", "lat": 38.95180583333333, "is_reserved": 0, "lon": -76.935443, "fusion_lon": 0.0, "is_disabled": 0, "fusion_lat": 0.0, "bike_id": "fa1317dcd7f28c11ce61c3a860553662", "rental_uris": {"ios": "https://dc.lft.to/lastmile_qr_scan", "android": "https://dc.lft.to/lastmile_qr_scan"}}, {"name": "06c75a3eb360c99d017a8146caf569ca", "type": "electric_scooter", "lat": 38.941847833333334, "is_reserved": 0, "lon": -77.02487583333334, "fusion_lon": 0.0, "is_disabled": 0, "fusion_lat": 0.0, "bike_id": "06c75a3eb360c99d017a8146caf569ca", "rental_uris": {"ios": "https://dc.lft.to/lastmile_qr_scan", "android": "https://dc.lft.to/lastmile_qr_scan"}}, {"name": "41eabc63b49fca988bdf7edcbb234fe2", "type": "electric_scooter", "lat": 38.89842566666667, "is_reserved": 0, "lon": -77.02927533333333, "fusion_lon": 0.0, "is_disabled": 0, "fusion_lat": 0.0, "bike_id": "41eabc63b49fca988bdf7edcbb234fe2", "rental_uris": {"ios": "https://dc.lft.to/lastmile_qr_scan", "android": "https://dc.lft.to/lastmile_qr_scan"}}, {"name": "f50ead334ddf529251f5f8ea57550d49", "type": "electric_scooter", "lat": 38.89372866666667, "is_reserved": 0, "lon": -76.94995033333333, "fusion_lon": 0.0, "is_disabled": 0, "fusion_lat": 0.0, "bike_id": "f50ead334ddf529251f5f8ea57550d49", "rental_uris": {"ios": "https://dc.lft.to/lastmile_qr_scan", "android": "https://dc.lft.to/lastmile_qr_scan"}}, {"name": "23ae55a384880089e5169784983451c9", "type": "electric_scooter", "lat": 38.91255683333333, "is_reserved": 0, "lon": -77.03804166666667, "fusion_lon": 0.0, "is_disabled": 0, "fusion_lat": 0.0, "bike_id": "23ae55a384880089e5169784983451c9", "rental_uris": {"ios": "https://dc.lft.to/lastmile_qr_scan", "android": "https://dc.lft.to/lastmile_qr_scan"}}, {"name": "6df22c5f3081b4b1f6bf5abd794a7ac5", "type": "electric_scooter", "lat": 38.89947333333333, "is_reserved": 0, "lon": -77.03148966666667, "fusion_lon": 0.0, "is_disabled": 0, "fusion_lat": 0.0, "bike_id": "6df22c5f3081b4b1f6bf5abd794a7ac5", "rental_uris": {"ios": "https://dc.lft.to/lastmile_qr_scan", "android": "https://dc.lft.to/lastmile_qr_scan"}}, {"name": "0df9104f02e059cfc4a9ccb3b186a132", "type": "electric_scooter", "lat": 38.9064465, "is_reserved": 0, "lon": -76.98571933333334, "fusion_lon": 0.0, "is_disabled": 0, "fusion_lat": 0.0, "bike_id": "0df9104f02e059cfc4a9ccb3b186a132", "rental_uris": {"ios": "https://dc.lft.to/lastmile_qr_scan", "android": "https://dc.lft.to/lastmile_qr_scan"}}, {"name": "c3960caf52cca400443d5b179f4bdb3e", "type": "electric_scooter", "lat": 38.896022, "is_reserved": 0, "lon": -77.02848316666666, "fusion_lon": 0.0, "is_disabled": 0, "fusion_lat": 0.0, "bike_id": "c3960caf52cca400443d5b179f4bdb3e", "rental_uris": {"ios": "https://dc.lft.to/lastmile_qr_scan", "android": "https://dc.lft.to/lastmile_qr_scan"}}, {"name": "e3b1a36d5e2d7b531701c613235f64b6", "type": "electric_bike", "lat": 38.869071, "is_reserved": 0, "lon": -77.13179633333333, "fusion_lon": 0.0, "is_disabled": 0, "fusion_lat": 0.0, "bike_id": "e3b1a36d5e2d7b531701c613235f64b6", "rental_uris": {"ios": "https://dc.lft.to/lastmile_qr_scan", "android": "https://dc.lft.to/lastmile_qr_scan"}}, {"name": "21cc9ca923424f10a330c1163047b6d1", "type": "electric_scooter", "lat": 38.916898833333335, "is_reserved": 0, "lon": -77.02806616666666, "fusion_lon": 0.0, "is_disabled": 0, "fusion_lat": 0.0, "bike_id": "21cc9ca923424f10a330c1163047b6d1", "rental_uris": {"ios": "https://dc.lft.to/lastmile_qr_scan", "android": "https://dc.lft.to/lastmile_qr_scan"}}, {"name": "a6c6baff2fd97b34c02aab45c8ea1367", "type": "electric_scooter", "lat": 38.91235266666666, "is_reserved": 0, "lon": -77.00117016666667, "fusion_lon": 0.0, "is_disabled": 0, "fusion_lat": 0.0, "bike_id": "a6c6baff2fd97b34c02aab45c8ea1367", "rental_uris": {"ios": "https://dc.lft.to/lastmile_qr_scan", "android": "https://dc.lft.to/lastmile_qr_scan"}}, {"name": "55e247280c3660452e49b7a2e7e70b10", "type": "electric_scooter", "lat": 38.9125, "is_reserved": 0, "lon": -77.036411, "fusion_lon": 0.0, "is_disabled": 0, "fusion_lat": 0.0, "bike_id": "55e247280c3660452e49b7a2e7e70b10", "rental_uris": {"ios": "https://dc.lft.to/lastmile_qr_scan", "android": "https://dc.lft.to/lastmile_qr_scan"}}, {"name": "64cc23d0dd91bc5ec14828459b2a6cf8", "type": "electric_scooter", "lat": 38.90052716666667, "is_reserved": 0, "lon": -77.01669016666666, "fusion_lon": 0.0, "is_disabled": 0, "fusion_lat": 0.0, "bike_id": "64cc23d0dd91bc5ec14828459b2a6cf8", "rental_uris": {"ios": "https://dc.lft.to/lastmile_qr_scan", "android": "https://dc.lft.to/lastmile_qr_scan"}}, {"name": "9d9ed803514b31d1fa7c559c8257c060", "type": "electric_scooter", "lat": 38.8804145, "is_reserved": 0, "lon": -77.0036395, "fusion_lon": 0.0, "is_disabled": 0, "fusion_lat": 0.0, "bike_id": "9d9ed803514b31d1fa7c559c8257c060", "rental_uris": {"ios": "https://dc.lft.to/lastmile_qr_scan", "android": "https://dc.lft.to/lastmile_qr_scan"}}, {"name": "23e81494596c5d8434650dfde9783530", "type": "electric_scooter", "lat": 38.844273333333334, "is_reserved": 0, "lon": -76.99782, "fusion_lon": 0.0, "is_disabled": 0, "fusion_lat": 0.0, "bike_id": "23e81494596c5d8434650dfde9783530", "rental_uris": {"ios": "https://dc.lft.to/lastmile_qr_scan", "android": "https://dc.lft.to/lastmile_qr_scan"}}, {"name": "abd539e708c19ef1de307f0697f08fd3", "type": "electric_scooter", "lat": 38.91802233333333, "is_reserved": 0, "lon": -77.02813633333334, "fusion_lon": 0.0, "is_disabled": 0, "fusion_lat": 0.0, "bike_id": "abd539e708c19ef1de307f0697f08fd3", "rental_uris": {"ios": "https://dc.lft.to/lastmile_qr_scan", "android": "https://dc.lft.to/lastmile_qr_scan"}}, {"name": "2429946a3bd7c49a65d64f3415e74125", "type": "electric_scooter", "lat": 38.89222933333333, "is_reserved": 0, "lon": -77.04262766666666, "fusion_lon": 0.0, "is_disabled": 0, "fusion_lat": 0.0, "bike_id": "2429946a3bd7c49a65d64f3415e74125", "rental_uris": {"ios": "https://dc.lft.to/lastmile_qr_scan", "android": "https://dc.lft.to/lastmile_qr_scan"}}, {"name": "45545bf50737d4a0255b8fcbdd0b6879", "type": "electric_scooter", "lat": 38.909698666666664, "is_reserved": 0, "lon": -77.03986483333334, "fusion_lon": 0.0, "is_disabled": 0, "fusion_lat": 0.0, "bike_id": "45545bf50737d4a0255b8fcbdd0b6879", "rental_uris": {"ios": "https://dc.lft.to/lastmile_qr_scan", "android": "https://dc.lft.to/lastmile_qr_scan"}}, {"name": "f9e3fc67d02cf6b2baff98a2c30c375c", "type": "electric_scooter", "lat": 38.92516616666666, "is_reserved": 0, "lon": -77.02362683333334, "fusion_lon": 0.0, "is_disabled": 0, "fusion_lat": 0.0, "bike_id": "f9e3fc67d02cf6b2baff98a2c30c375c", "rental_uris": {"ios": "https://dc.lft.to/lastmile_qr_scan", "android": "https://dc.lft.to/lastmile_qr_scan"}}, {"name": "16c37ae84192af73a599aa8eca6c719d", "type": "electric_scooter", "lat": 38.9262065, "is_reserved": 0, "lon": -77.00578316666666, "fusion_lon": 0.0, "is_disabled": 0, "fusion_lat": 0.0, "bike_id": "16c37ae84192af73a599aa8eca6c719d", "rental_uris": {"ios": "https://dc.lft.to/lastmile_qr_scan", "android": "https://dc.lft.to/lastmile_qr_scan"}}, {"name": "e966ec2586bbf606881f5ec4a6040b84", "type": "electric_scooter", "lat": 38.9245065, "is_reserved": 0, "lon": -77.02031916666667, "fusion_lon": 0.0, "is_disabled": 0, "fusion_lat": 0.0, "bike_id": "e966ec2586bbf606881f5ec4a6040b84", "rental_uris": {"ios": "https://dc.lft.to/lastmile_qr_scan", "android": "https://dc.lft.to/lastmile_qr_scan"}}, {"name": "0b62f746d92a0a2be19e8d83361c9549", "type": "electric_bike", "lat": 38.89961916666667, "is_reserved": 0, "lon": -76.98678316666667, "fusion_lon": 0.0, "is_disabled": 0, "fusion_lat": 0.0, "bike_id": "0b62f746d92a0a2be19e8d83361c9549", "rental_uris": {"ios": "https://dc.lft.to/lastmile_qr_scan", "android": "https://dc.lft.to/lastmile_qr_scan"}}, {"name": "29ffd4889ffbbc0596e23024d87f5ad4", "type": "electric_scooter", "lat": 38.883935, "is_reserved": 0, "lon": -76.98586983333334, "fusion_lon": 0.0, "is_disabled": 0, "fusion_lat": 0.0, "bike_id": "29ffd4889ffbbc0596e23024d87f5ad4", "rental_uris": {"ios": "https://dc.lft.to/lastmile_qr_scan", "android": "https://dc.lft.to/lastmile_qr_scan"}}, {"name": "1b402a2a22abac39d22da4e286e4a91c", "type": "electric_scooter", "lat": 38.90142616666667, "is_reserved": 0, "lon": -77.0332695, "fusion_lon": 0.0, "is_disabled": 0, "fusion_lat": 0.0, "bike_id": "1b402a2a22abac39d22da4e286e4a91c", "rental_uris": {"ios": "https://dc.lft.to/lastmile_qr_scan", "android": "https://dc.lft.to/lastmile_qr_scan"}}, {"name": "98472e73689cc1244c926213b2ab9661", "type": "electric_scooter", "lat": 38.92614833333333, "is_reserved": 0, "lon": -77.021622, "fusion_lon": 0.0, "is_disabled": 0, "fusion_lat": 0.0, "bike_id": "98472e73689cc1244c926213b2ab9661", "rental_uris": {"ios": "https://dc.lft.to/lastmile_qr_scan", "android": "https://dc.lft.to/lastmile_qr_scan"}}, {"name": "78c8cc521a53819013c605eccaaca9fc", "type": "electric_bike", "lat": 38.8963985, "is_reserved": 0, "lon": -77.10453233333334, "fusion_lon": 0.0, "is_disabled": 0, "fusion_lat": 0.0, "bike_id": "78c8cc521a53819013c605eccaaca9fc", "rental_uris": {"ios": "https://dc.lft.to/lastmile_qr_scan", "android": "https://dc.lft.to/lastmile_qr_scan"}}, {"name": "ba610ea594cd1d17389242e895fc517e", "type": "electric_scooter", "lat": 38.92486316666667, "is_reserved": 0, "lon": -77.05212966666667, "fusion_lon": 0.0, "is_disabled": 0, "fusion_lat": 0.0, "bike_id": "ba610ea594cd1d17389242e895fc517e", "rental_uris": {"ios": "https://dc.lft.to/lastmile_qr_scan", "android": "https://dc.lft.to/lastmile_qr_scan"}}, {"name": "f1b2d272011090e5a92a2c8dfe371613", "type": "electric_scooter", "lat": 38.905376833333335, "is_reserved": 0, "lon": -77.04994616666667, "fusion_lon": 0.0, "is_disabled": 0, "fusion_lat": 0.0, "bike_id": "f1b2d272011090e5a92a2c8dfe371613", "rental_uris": {"ios": "https://dc.lft.to/lastmile_qr_scan", "android": "https://dc.lft.to/lastmile_qr_scan"}}, {"name": "5c9cb9cad3d222a4fa57819ea412156f", "type": "electric_scooter", "lat": 38.8641435, "is_reserved": 0, "lon": -76.98045016666667, "fusion_lon": 0.0, "is_disabled": 0, "fusion_lat": 0.0, "bike_id": "5c9cb9cad3d222a4fa57819ea412156f", "rental_uris": {"ios": "https://dc.lft.to/lastmile_qr_scan", "android": "https://dc.lft.to/lastmile_qr_scan"}}, {"name": "62dec6593cb19a21c06706b983220c2d", "type": "electric_scooter", "lat": 38.8940405, "is_reserved": 0, "lon": -76.94803316666666, "fusion_lon": 0.0, "is_disabled": 0, "fusion_lat": 0.0, "bike_id": "62dec6593cb19a21c06706b983220c2d", "rental_uris": {"ios": "https://dc.lft.to/lastmile_qr_scan", "android": "https://dc.lft.to/lastmile_qr_scan"}}, {"name": "b38bcc4b7456942a3daf980d7b087ba6", "type": "electric_scooter", "lat": 38.9326345, "is_reserved": 0, "lon": -77.03271466666666, "fusion_lon": 0.0, "is_disabled": 0, "fusion_lat": 0.0, "bike_id": "b38bcc4b7456942a3daf980d7b087ba6", "rental_uris": {"ios": "https://dc.lft.to/lastmile_qr_scan", "android": "https://dc.lft.to/lastmile_qr_scan"}}, {"name": "2f601346c0b5794c7af678865c365dc7", "type": "electric_scooter", "lat": 38.957805, "is_reserved": 0, "lon": -77.02752583333333, "fusion_lon": 0.0, "is_disabled": 0, "fusion_lat": 0.0, "bike_id": "2f601346c0b5794c7af678865c365dc7", "rental_uris": {"ios": "https://dc.lft.to/lastmile_qr_scan", "android": "https://dc.lft.to/lastmile_qr_scan"}}, {"name": "6ebd3c0d394436b310ae235733b0e953", "type": "electric_scooter", "lat": 38.917900833333334, "is_reserved": 0, "lon": -77.036017, "fusion_lon": 0.0, "is_disabled": 0, "fusion_lat": 0.0, "bike_id": "6ebd3c0d394436b310ae235733b0e953", "rental_uris": {"ios": "https://dc.lft.to/lastmile_qr_scan", "android": "https://dc.lft.to/lastmile_qr_scan"}}, {"name": "190440fd945d6e11986931f2011a4021", "type": "electric_scooter", "lat": 38.855268, "is_reserved": 0, "lon": -76.9691805, "fusion_lon": 0.0, "is_disabled": 0, "fusion_lat": 0.0, "bike_id": "190440fd945d6e11986931f2011a4021", "rental_uris": {"ios": "https://dc.lft.to/lastmile_qr_scan", "android": "https://dc.lft.to/lastmile_qr_scan"}}, {"name": "69555532350b301313f00387fe2fff73", "type": "electric_bike", "lat": 38.838589666666664, "is_reserved": 0, "lon": -77.0886815, "fusion_lon": 0.0, "is_disabled": 0, "fusion_lat": 0.0, "bike_id": "69555532350b301313f00387fe2fff73", "rental_uris": {"ios": "https://dc.lft.to/lastmile_qr_scan", "android": "https://dc.lft.to/lastmile_qr_scan"}}, {"name": "3385d52edf822f50d63229c6bb55949e", "type": "electric_bike", "lat": 38.97324833333333, "is_reserved": 0, "lon": -77.02154633333333, "fusion_lon": 0.0, "is_disabled": 0, "fusion_lat": 0.0, "bike_id": "3385d52edf822f50d63229c6bb55949e", "rental_uris": {"ios": "https://dc.lft.to/lastmile_qr_scan", "android": "https://dc.lft.to/lastmile_qr_scan"}}, {"name": "06fe554eaf1bfdf258d1bd85bb8b6b53", "type": "electric_scooter", "lat": 38.91737583333333, "is_reserved": 0, "lon": -77.036429, "fusion_lon": 0.0, "is_disabled": 0, "fusion_lat": 0.0, "bike_id": "06fe554eaf1bfdf258d1bd85bb8b6b53", "rental_uris": {"ios": "https://dc.lft.to/lastmile_qr_scan", "android": "https://dc.lft.to/lastmile_qr_scan"}}, {"name": "463c6e473df243d8b904dbc7e2334032", "type": "electric_scooter", "lat": 38.93231333333333, "is_reserved": 0, "lon": -77.0354155, "fusion_lon": 0.0, "is_disabled": 0, "fusion_lat": 0.0, "bike_id": "463c6e473df243d8b904dbc7e2334032", "rental_uris": {"ios": "https://dc.lft.to/lastmile_qr_scan", "android": "https://dc.lft.to/lastmile_qr_scan"}}, {"name": "003171a82a813f2892135ff089ac5e8b", "type": "electric_scooter", "lat": 38.903268, "is_reserved": 0, "lon": -77.0385225, "fusion_lon": 0.0, "is_disabled": 0, "fusion_lat": 0.0, "bike_id": "003171a82a813f2892135ff089ac5e8b", "rental_uris": {"ios": "https://dc.lft.to/lastmile_qr_scan", "android": "https://dc.lft.to/lastmile_qr_scan"}}, {"name": "d03e3d7e33c1e07337f89241aa2ca8c4", "type": "electric_scooter", "lat": 38.92212383333333, "is_reserved": 0, "lon": -77.04238233333334, "fusion_lon": 0.0, "is_disabled": 0, "fusion_lat": 0.0, "bike_id": "d03e3d7e33c1e07337f89241aa2ca8c4", "rental_uris": {"ios": "https://dc.lft.to/lastmile_qr_scan", "android": "https://dc.lft.to/lastmile_qr_scan"}}, {"name": "80e75dc41f186fca820aa0e4fe055de2", "type": "electric_scooter", "lat": 38.902379333333336, "is_reserved": 0, "lon": -77.000502, "fusion_lon": 0.0, "is_disabled": 0, "fusion_lat": 0.0, "bike_id": "80e75dc41f186fca820aa0e4fe055de2", "rental_uris": {"ios": "https://dc.lft.to/lastmile_qr_scan", "android": "https://dc.lft.to/lastmile_qr_scan"}}, {"name": "51919d6073fc11138055adb12b4f2ebe", "type": "electric_scooter", "lat": 38.93079783333334, "is_reserved": 0, "lon": -77.024048, "fusion_lon": 0.0, "is_disabled": 0, "fusion_lat": 0.0, "bike_id": "51919d6073fc11138055adb12b4f2ebe", "rental_uris": {"ios": "https://dc.lft.to/lastmile_qr_scan", "android": "https://dc.lft.to/lastmile_qr_scan"}}, {"name": "c0555033294bd31aae0f3d5716fa1a92", "type": "electric_bike", "lat": 38.9036245, "is_reserved": 0, "lon": -76.98099216666667, "fusion_lon": 0.0, "is_disabled": 0, "fusion_lat": 0.0, "bike_id": "c0555033294bd31aae0f3d5716fa1a92", "rental_uris": {"ios": "https://dc.lft.to/lastmile_qr_scan", "android": "https://dc.lft.to/lastmile_qr_scan"}}, {"name": "8b7cb3a7b0ea780b487758214818bbeb", "type": "electric_scooter", "lat": 38.88929183333333, "is_reserved": 0, "lon": -76.947821, "fusion_lon": 0.0, "is_disabled": 0, "fusion_lat": 0.0, "bike_id": "8b7cb3a7b0ea780b487758214818bbeb", "rental_uris": {"ios": "https://dc.lft.to/lastmile_qr_scan", "android": "https://dc.lft.to/lastmile_qr_scan"}}, {"name": "8577a6c6e4a1ecf89d807d5924b303dd", "type": "electric_scooter", "lat": 38.9039175, "is_reserved": 0, "lon": -77.04500533333334, "fusion_lon": 0.0, "is_disabled": 0, "fusion_lat": 0.0, "bike_id": "8577a6c6e4a1ecf89d807d5924b303dd", "rental_uris": {"ios": "https://dc.lft.to/lastmile_qr_scan", "android": "https://dc.lft.to/lastmile_qr_scan"}}, {"name": "5b49a9a0d7ff0bc229bb5f43435a8871", "type": "electric_scooter", "lat": 38.9312755, "is_reserved": 0, "lon": -77.03602966666666, "fusion_lon": 0.0, "is_disabled": 0, "fusion_lat": 0.0, "bike_id": "5b49a9a0d7ff0bc229bb5f43435a8871", "rental_uris": {"ios": "https://dc.lft.to/lastmile_qr_scan", "android": "https://dc.lft.to/lastmile_qr_scan"}}, {"name": "71fda76ca6880ea7f17beee5a4c5e296", "type": "electric_scooter", "lat": 38.89868716666667, "is_reserved": 0, "lon": -77.03333783333333, "fusion_lon": 0.0, "is_disabled": 0, "fusion_lat": 0.0, "bike_id": "71fda76ca6880ea7f17beee5a4c5e296", "rental_uris": {"ios": "https://dc.lft.to/lastmile_qr_scan", "android": "https://dc.lft.to/lastmile_qr_scan"}}, {"name": "dbd2b39f4a87d800417eaa0f6e326c00", "type": "electric_scooter", "lat": 38.9390195, "is_reserved": 0, "lon": -77.03288133333334, "fusion_lon": 0.0, "is_disabled": 0, "fusion_lat": 0.0, "bike_id": "dbd2b39f4a87d800417eaa0f6e326c00", "rental_uris": {"ios": "https://dc.lft.to/lastmile_qr_scan", "android": "https://dc.lft.to/lastmile_qr_scan"}}, {"name": "11fd9cd1e636085f22b2abf4161d5fbe", "type": "electric_scooter", "lat": 38.933404, "is_reserved": 0, "lon": -77.02620966666667, "fusion_lon": 0.0, "is_disabled": 0, "fusion_lat": 0.0, "bike_id": "11fd9cd1e636085f22b2abf4161d5fbe", "rental_uris": {"ios": "https://dc.lft.to/lastmile_qr_scan", "android": "https://dc.lft.to/lastmile_qr_scan"}}, {"name": "8965b6174b875c68da387cb942327f96", "type": "electric_scooter", "lat": 38.92350533333333, "is_reserved": 0, "lon": -77.03416533333333, "fusion_lon": 0.0, "is_disabled": 0, "fusion_lat": 0.0, "bike_id": "8965b6174b875c68da387cb942327f96", "rental_uris": {"ios": "https://dc.lft.to/lastmile_qr_scan", "android": "https://dc.lft.to/lastmile_qr_scan"}}, {"name": "5fc5c4c99fadaa7e1c1b5115bf2c4fd5", "type": "electric_scooter", "lat": 38.9324405, "is_reserved": 0, "lon": -77.03246783333333, "fusion_lon": 0.0, "is_disabled": 0, "fusion_lat": 0.0, "bike_id": "5fc5c4c99fadaa7e1c1b5115bf2c4fd5", "rental_uris": {"ios": "https://dc.lft.to/lastmile_qr_scan", "android": "https://dc.lft.to/lastmile_qr_scan"}}, {"name": "882b521b7fc9e950c4df30f44f29437f", "type": "electric_scooter", "lat": 38.8729015, "is_reserved": 0, "lon": -77.00987583333334, "fusion_lon": 0.0, "is_disabled": 0, "fusion_lat": 0.0, "bike_id": "882b521b7fc9e950c4df30f44f29437f", "rental_uris": {"ios": "https://dc.lft.to/lastmile_qr_scan", "android": "https://dc.lft.to/lastmile_qr_scan"}}, {"name": "35e04f5f3889948575ea1c3f8227e893", "type": "electric_bike", "lat": 38.897762166666666, "is_reserved": 0, "lon": -76.90437583333333, "fusion_lon": 0.0, "is_disabled": 0, "fusion_lat": 0.0, "bike_id": "35e04f5f3889948575ea1c3f8227e893", "rental_uris": {"ios": "https://dc.lft.to/lastmile_qr_scan", "android": "https://dc.lft.to/lastmile_qr_scan"}}, {"name": "a0eb3464a5cc36de5c27abefed4cd874", "type": "electric_scooter", "lat": 38.90284, "is_reserved": 0, "lon": -77.03843766666667, "fusion_lon": 0.0, "is_disabled": 0, "fusion_lat": 0.0, "bike_id": "a0eb3464a5cc36de5c27abefed4cd874", "rental_uris": {"ios": "https://dc.lft.to/lastmile_qr_scan", "android": "https://dc.lft.to/lastmile_qr_scan"}}, {"name": "f5d011a284b65319363ea8e36baa9874", "type": "electric_scooter", "lat": 38.8994935, "is_reserved": 0, "lon": -77.03174183333333, "fusion_lon": 0.0, "is_disabled": 0, "fusion_lat": 0.0, "bike_id": "f5d011a284b65319363ea8e36baa9874", "rental_uris": {"ios": "https://dc.lft.to/lastmile_qr_scan", "android": "https://dc.lft.to/lastmile_qr_scan"}}, {"name": "0ecf7496305b677c70556f63146b3fd6", "type": "electric_scooter", "lat": 38.898210666666664, "is_reserved": 0, "lon": -77.01207366666667, "fusion_lon": 0.0, "is_disabled": 0, "fusion_lat": 0.0, "bike_id": "0ecf7496305b677c70556f63146b3fd6", "rental_uris": {"ios": "https://dc.lft.to/lastmile_qr_scan", "android": "https://dc.lft.to/lastmile_qr_scan"}}, {"name": "409ff26feaf095b61279082e9a7b87cd", "type": "electric_scooter", "lat": 38.931191166666665, "is_reserved": 0, "lon": -77.0208945, "fusion_lon": 0.0, "is_disabled": 0, "fusion_lat": 0.0, "bike_id": "409ff26feaf095b61279082e9a7b87cd", "rental_uris": {"ios": "https://dc.lft.to/lastmile_qr_scan", "android": "https://dc.lft.to/lastmile_qr_scan"}}, {"name": "11a12344f8d078bf69ab83536c96a541", "type": "electric_bike", "lat": 38.94624533333333, "is_reserved": 0, "lon": -76.94628116666667, "fusion_lon": 0.0, "is_disabled": 0, "fusion_lat": 0.0, "bike_id": "11a12344f8d078bf69ab83536c96a541", "rental_uris": {"ios": "https://dc.lft.to/lastmile_qr_scan", "android": "https://dc.lft.to/lastmile_qr_scan"}}, {"name": "74edfec03798014d40c4a8f31259f7f1", "type": "electric_scooter", "lat": 38.9370685, "is_reserved": 0, "lon": -77.02399866666667, "fusion_lon": 0.0, "is_disabled": 0, "fusion_lat": 0.0, "bike_id": "74edfec03798014d40c4a8f31259f7f1", "rental_uris": {"ios": "https://dc.lft.to/lastmile_qr_scan", "android": "https://dc.lft.to/lastmile_qr_scan"}}, {"name": "0a141a078a3acd301107cba45ca1ab5b", "type": "electric_scooter", "lat": 38.90573933333334, "is_reserved": 0, "lon": -77.0438105, "fusion_lon": 0.0, "is_disabled": 0, "fusion_lat": 0.0, "bike_id": "0a141a078a3acd301107cba45ca1ab5b", "rental_uris": {"ios": "https://dc.lft.to/lastmile_qr_scan", "android": "https://dc.lft.to/lastmile_qr_scan"}}, {"name": "c5af8718d6c9e134d26fad2dc1c0ddc4", "type": "electric_scooter", "lat": 38.896132333333334, "is_reserved": 0, "lon": -77.0508105, "fusion_lon": 0.0, "is_disabled": 0, "fusion_lat": 0.0, "bike_id": "c5af8718d6c9e134d26fad2dc1c0ddc4", "rental_uris": {"ios": "https://dc.lft.to/lastmile_qr_scan", "android": "https://dc.lft.to/lastmile_qr_scan"}}, {"name": "cb9d634c183a7cdc7ff0131a7ae526b3", "type": "electric_scooter", "lat": 38.89761333333333, "is_reserved": 0, "lon": -77.007456, "fusion_lon": 0.0, "is_disabled": 0, "fusion_lat": 0.0, "bike_id": "cb9d634c183a7cdc7ff0131a7ae526b3", "rental_uris": {"ios": "https://dc.lft.to/lastmile_qr_scan", "android": "https://dc.lft.to/lastmile_qr_scan"}}, {"name": "cea51be563d3d4f9b41d125906a264fe", "type": "electric_bike", "lat": 38.90534483333333, "is_reserved": 0, "lon": -76.9980745, "fusion_lon": 0.0, "is_disabled": 0, "fusion_lat": 0.0, "bike_id": "cea51be563d3d4f9b41d125906a264fe", "rental_uris": {"ios": "https://dc.lft.to/lastmile_qr_scan", "android": "https://dc.lft.to/lastmile_qr_scan"}}, {"name": "0f13fef76a1c19e4ee5ae7b24bf7343c", "type": "electric_scooter", "lat": 38.9153505, "is_reserved": 0, "lon": -77.02198133333333, "fusion_lon": 0.0, "is_disabled": 0, "fusion_lat": 0.0, "bike_id": "0f13fef76a1c19e4ee5ae7b24bf7343c", "rental_uris": {"ios": "https://dc.lft.to/lastmile_qr_scan", "android": "https://dc.lft.to/lastmile_qr_scan"}}, {"name": "419c9d7ac7842d07897f8d343df808d8", "type": "electric_scooter", "lat": 38.915526166666666, "is_reserved": 0, "lon": -77.0255835, "fusion_lon": 0.0, "is_disabled": 0, "fusion_lat": 0.0, "bike_id": "419c9d7ac7842d07897f8d343df808d8", "rental_uris": {"ios": "https://dc.lft.to/lastmile_qr_scan", "android": "https://dc.lft.to/lastmile_qr_scan"}}, {"name": "f8f465dbe3ecc1ed4318d8633c28b516", "type": "electric_scooter", "lat": 38.90866783333333, "is_reserved": 0, "lon": -77.027112, "fusion_lon": 0.0, "is_disabled": 0, "fusion_lat": 0.0, "bike_id": "f8f465dbe3ecc1ed4318d8633c28b516", "rental_uris": {"ios": "https://dc.lft.to/lastmile_qr_scan", "android": "https://dc.lft.to/lastmile_qr_scan"}}, {"name": "a9d106db52f1a87d4147da3a5aa2d0cc", "type": "electric_bike", "lat": 38.990884333333334, "is_reserved": 0, "lon": -76.874992, "fusion_lon": 0.0, "is_disabled": 0, "fusion_lat": 0.0, "bike_id": "a9d106db52f1a87d4147da3a5aa2d0cc", "rental_uris": {"ios": "https://dc.lft.to/lastmile_qr_scan", "android": "https://dc.lft.to/lastmile_qr_scan"}}, {"name": "ebb96c094297d42dd9f83079d83fbc53", "type": "electric_scooter", "lat": 38.90978283333333, "is_reserved": 0, "lon": -77.03183266666667, "fusion_lon": 0.0, "is_disabled": 0, "fusion_lat": 0.0, "bike_id": "ebb96c094297d42dd9f83079d83fbc53", "rental_uris": {"ios": "https://dc.lft.to/lastmile_qr_scan", "android": "https://dc.lft.to/lastmile_qr_scan"}}, {"name": "0e372bbf725c85bebca4360dcf7fe148", "type": "electric_scooter", "lat": 38.9229275, "is_reserved": 0, "lon": -77.0207675, "fusion_lon": 0.0, "is_disabled": 0, "fusion_lat": 0.0, "bike_id": "0e372bbf725c85bebca4360dcf7fe148", "rental_uris": {"ios": "https://dc.lft.to/lastmile_qr_scan", "android": "https://dc.lft.to/lastmile_qr_scan"}}, {"name": "c068045e1de3bb29f63bb777ea149a82", "type": "electric_scooter", "lat": 38.91204716666667, "is_reserved": 0, "lon": -77.04467283333334, "fusion_lon": 0.0, "is_disabled": 0, "fusion_lat": 0.0, "bike_id": "c068045e1de3bb29f63bb777ea149a82", "rental_uris": {"ios": "https://dc.lft.to/lastmile_qr_scan", "android": "https://dc.lft.to/lastmile_qr_scan"}}, {"name": "a34e02b6eebec5fb4bbae6ce67769509", "type": "electric_scooter", "lat": 38.898897166666664, "is_reserved": 0, "lon": -76.931801, "fusion_lon": 0.0, "is_disabled": 0, "fusion_lat": 0.0, "bike_id": "a34e02b6eebec5fb4bbae6ce67769509", "rental_uris": {"ios": "https://dc.lft.to/lastmile_qr_scan", "android": "https://dc.lft.to/lastmile_qr_scan"}}, {"name": "e9a80766fd844379fba8c351a384f8c6", "type": "electric_scooter", "lat": 38.937173, "is_reserved": 0, "lon": -77.03650666666667, "fusion_lon": 0.0, "is_disabled": 0, "fusion_lat": 0.0, "bike_id": "e9a80766fd844379fba8c351a384f8c6", "rental_uris": {"ios": "https://dc.lft.to/lastmile_qr_scan", "android": "https://dc.lft.to/lastmile_qr_scan"}}, {"name": "5c105f54f651b1f5c9dd397d98a6a291", "type": "electric_scooter", "lat": 38.918572166666664, "is_reserved": 0, "lon": -77.0444045, "fusion_lon": 0.0, "is_disabled": 0, "fusion_lat": 0.0, "bike_id": "5c105f54f651b1f5c9dd397d98a6a291", "rental_uris": {"ios": "https://dc.lft.to/lastmile_qr_scan", "android": "https://dc.lft.to/lastmile_qr_scan"}}, {"name": "fdc3dab13d5d872acfe95789c6d222ef", "type": "electric_scooter", "lat": 38.910037833333334, "is_reserved": 0, "lon": -77.028979, "fusion_lon": 0.0, "is_disabled": 0, "fusion_lat": 0.0, "bike_id": "fdc3dab13d5d872acfe95789c6d222ef", "rental_uris": {"ios": "https://dc.lft.to/lastmile_qr_scan", "android": "https://dc.lft.to/lastmile_qr_scan"}}, {"name": "c8f55b39e2fcd8fb91b146f674fa7334", "type": "electric_scooter", "lat": 38.887219, "is_reserved": 0, "lon": -77.02824316666667, "fusion_lon": 0.0, "is_disabled": 0, "fusion_lat": 0.0, "bike_id": "c8f55b39e2fcd8fb91b146f674fa7334", "rental_uris": {"ios": "https://dc.lft.to/lastmile_qr_scan", "android": "https://dc.lft.to/lastmile_qr_scan"}}, {"name": "aa736aa8b24835b9e19474e8028c9cac", "type": "electric_scooter", "lat": 38.933069333333336, "is_reserved": 0, "lon": -77.03765266666667, "fusion_lon": 0.0, "is_disabled": 0, "fusion_lat": 0.0, "bike_id": "aa736aa8b24835b9e19474e8028c9cac", "rental_uris": {"ios": "https://dc.lft.to/lastmile_qr_scan", "android": "https://dc.lft.to/lastmile_qr_scan"}}, {"name": "ab3bf8f065268d54fb61bffb21369be4", "type": "electric_scooter", "lat": 38.90630216666667, "is_reserved": 0, "lon": -77.051431, "fusion_lon": 0.0, "is_disabled": 0, "fusion_lat": 0.0, "bike_id": "ab3bf8f065268d54fb61bffb21369be4", "rental_uris": {"ios": "https://dc.lft.to/lastmile_qr_scan", "android": "https://dc.lft.to/lastmile_qr_scan"}}, {"name": "ce09ef3a341fe0c2485250ebaba50cdc", "type": "electric_scooter", "lat": 38.920709333333335, "is_reserved": 0, "lon": -77.0238155, "fusion_lon": 0.0, "is_disabled": 0, "fusion_lat": 0.0, "bike_id": "ce09ef3a341fe0c2485250ebaba50cdc", "rental_uris": {"ios": "https://dc.lft.to/lastmile_qr_scan", "android": "https://dc.lft.to/lastmile_qr_scan"}}, {"name": "e1e8bd3da853da298b825eb3db8b43de", "type": "electric_scooter", "lat": 38.89507483333333, "is_reserved": 0, "lon": -77.01144916666667, "fusion_lon": 0.0, "is_disabled": 0, "fusion_lat": 0.0, "bike_id": "e1e8bd3da853da298b825eb3db8b43de", "rental_uris": {"ios": "https://dc.lft.to/lastmile_qr_scan", "android": "https://dc.lft.to/lastmile_qr_scan"}}, {"name": "39ea8f894b20c5131d92403d2627e1b6", "type": "electric_scooter", "lat": 38.93603516666667, "is_reserved": 0, "lon": -77.05865483333334, "fusion_lon": 0.0, "is_disabled": 0, "fusion_lat": 0.0, "bike_id": "39ea8f894b20c5131d92403d2627e1b6", "rental_uris": {"ios": "https://dc.lft.to/lastmile_qr_scan", "android": "https://dc.lft.to/lastmile_qr_scan"}}, {"name": "bb775e2dfdab9dbac625bdc82e7e7025", "type": "electric_bike", "lat": 39.02933616666667, "is_reserved": 0, "lon": -77.049297, "fusion_lon": 0.0, "is_disabled": 0, "fusion_lat": 0.0, "bike_id": "bb775e2dfdab9dbac625bdc82e7e7025", "rental_uris": {"ios": "https://dc.lft.to/lastmile_qr_scan", "android": "https://dc.lft.to/lastmile_qr_scan"}}, {"name": "7779b18d30391214653a988304c84001", "type": "electric_scooter", "lat": 38.89850466666667, "is_reserved": 0, "lon": -77.0427125, "fusion_lon": 0.0, "is_disabled": 0, "fusion_lat": 0.0, "bike_id": "7779b18d30391214653a988304c84001", "rental_uris": {"ios": "https://dc.lft.to/lastmile_qr_scan", "android": "https://dc.lft.to/lastmile_qr_scan"}}, {"name": "292ac4535467c19106940d4673e01993", "type": "electric_scooter", "lat": 38.96821933333333, "is_reserved": 0, "lon": -77.01788216666667, "fusion_lon": 0.0, "is_disabled": 0, "fusion_lat": 0.0, "bike_id": "292ac4535467c19106940d4673e01993", "rental_uris": {"ios": "https://dc.lft.to/lastmile_qr_scan", "android": "https://dc.lft.to/lastmile_qr_scan"}}, {"name": "c31d2bb51cccb873f473d68658434b06", "type": "electric_scooter", "lat": 38.902778, "is_reserved": 0, "lon": -77.03983133333334, "fusion_lon": 0.0, "is_disabled": 0, "fusion_lat": 0.0, "bike_id": "c31d2bb51cccb873f473d68658434b06", "rental_uris": {"ios": "https://dc.lft.to/lastmile_qr_scan", "android": "https://dc.lft.to/lastmile_qr_scan"}}, {"name": "4a1b339766d0b2a5ec20dee478446ac6", "type": "electric_scooter", "lat": 38.9100595, "is_reserved": 0, "lon": -77.04425133333334, "fusion_lon": 0.0, "is_disabled": 0, "fusion_lat": 0.0, "bike_id": "4a1b339766d0b2a5ec20dee478446ac6", "rental_uris": {"ios": "https://dc.lft.to/lastmile_qr_scan", "android": "https://dc.lft.to/lastmile_qr_scan"}}, {"name": "55c14928178f9ffb5c5c1f47fa945607", "type": "electric_scooter", "lat": 38.9447555, "is_reserved": 0, "lon": -77.0413845, "fusion_lon": 0.0, "is_disabled": 0, "fusion_lat": 0.0, "bike_id": "55c14928178f9ffb5c5c1f47fa945607", "rental_uris": {"ios": "https://dc.lft.to/lastmile_qr_scan", "android": "https://dc.lft.to/lastmile_qr_scan"}}, {"name": "bc156165c62f7b4ac6e550b8c332ca34", "type": "electric_bike", "lat": 38.961285333333336, "is_reserved": 0, "lon": -77.03273816666666, "fusion_lon": 0.0, "is_disabled": 0, "fusion_lat": 0.0, "bike_id": "bc156165c62f7b4ac6e550b8c332ca34", "rental_uris": {"ios": "https://dc.lft.to/lastmile_qr_scan", "android": "https://dc.lft.to/lastmile_qr_scan"}}, {"name": "26942a3a5c75a0c12f1ee4e410fb048b", "type": "electric_scooter", "lat": 38.92443266666667, "is_reserved": 0, "lon": -76.99333716666666, "fusion_lon": 0.0, "is_disabled": 0, "fusion_lat": 0.0, "bike_id": "26942a3a5c75a0c12f1ee4e410fb048b", "rental_uris": {"ios": "https://dc.lft.to/lastmile_qr_scan", "android": "https://dc.lft.to/lastmile_qr_scan"}}, {"name": "7b7992c510215400b66f16bdb6d280e4", "type": "electric_scooter", "lat": 38.9130355, "is_reserved": 0, "lon": -77.03211033333334, "fusion_lon": 0.0, "is_disabled": 0, "fusion_lat": 0.0, "bike_id": "7b7992c510215400b66f16bdb6d280e4", "rental_uris": {"ios": "https://dc.lft.to/lastmile_qr_scan", "android": "https://dc.lft.to/lastmile_qr_scan"}}, {"name": "6b8671da31c180de96e32829e8f107e2", "type": "electric_scooter", "lat": 38.905762833333334, "is_reserved": 0, "lon": -77.02193733333333, "fusion_lon": 0.0, "is_disabled": 0, "fusion_lat": 0.0, "bike_id": "6b8671da31c180de96e32829e8f107e2", "rental_uris": {"ios": "https://dc.lft.to/lastmile_qr_scan", "android": "https://dc.lft.to/lastmile_qr_scan"}}, {"name": "24123829e990ac64975de7822f527d9d", "type": "electric_scooter", "lat": 38.917521666666666, "is_reserved": 0, "lon": -77.01882966666666, "fusion_lon": 0.0, "is_disabled": 0, "fusion_lat": 0.0, "bike_id": "24123829e990ac64975de7822f527d9d", "rental_uris": {"ios": "https://dc.lft.to/lastmile_qr_scan", "android": "https://dc.lft.to/lastmile_qr_scan"}}, {"name": "5f5dbb33108753d8f189a148e556cd24", "type": "electric_scooter", "lat": 38.93353233333333, "is_reserved": 0, "lon": -77.02467633333333, "fusion_lon": 0.0, "is_disabled": 0, "fusion_lat": 0.0, "bike_id": "5f5dbb33108753d8f189a148e556cd24", "rental_uris": {"ios": "https://dc.lft.to/lastmile_qr_scan", "android": "https://dc.lft.to/lastmile_qr_scan"}}, {"name": "06c471a8c1e4b1a315daddaea6582918", "type": "electric_scooter", "lat": 38.9235485, "is_reserved": 0, "lon": -77.052421, "fusion_lon": 0.0, "is_disabled": 0, "fusion_lat": 0.0, "bike_id": "06c471a8c1e4b1a315daddaea6582918", "rental_uris": {"ios": "https://dc.lft.to/lastmile_qr_scan", "android": "https://dc.lft.to/lastmile_qr_scan"}}, {"name": "eab5c90804e67e2db820de005e141488", "type": "electric_scooter", "lat": 38.91915066666667, "is_reserved": 0, "lon": -77.02169266666667, "fusion_lon": 0.0, "is_disabled": 0, "fusion_lat": 0.0, "bike_id": "eab5c90804e67e2db820de005e141488", "rental_uris": {"ios": "https://dc.lft.to/lastmile_qr_scan", "android": "https://dc.lft.to/lastmile_qr_scan"}}, {"name": "448dcb42371d2a6698347db732d3a2a0", "type": "electric_scooter", "lat": 38.901619, "is_reserved": 0, "lon": -77.031751, "fusion_lon": 0.0, "is_disabled": 0, "fusion_lat": 0.0, "bike_id": "448dcb42371d2a6698347db732d3a2a0", "rental_uris": {"ios": "https://dc.lft.to/lastmile_qr_scan", "android": "https://dc.lft.to/lastmile_qr_scan"}}, {"name": "1370dc44d477d9fd00137a3d76de6107", "type": "electric_scooter", "lat": 38.927998, "is_reserved": 0, "lon": -77.039768, "fusion_lon": 0.0, "is_disabled": 0, "fusion_lat": 0.0, "bike_id": "1370dc44d477d9fd00137a3d76de6107", "rental_uris": {"ios": "https://dc.lft.to/lastmile_qr_scan", "android": "https://dc.lft.to/lastmile_qr_scan"}}, {"name": "30d6f8ba0cc75bfa6bf4b1e231ee72b8", "type": "electric_scooter", "lat": 38.90892083333333, "is_reserved": 0, "lon": -77.005765, "fusion_lon": 0.0, "is_disabled": 0, "fusion_lat": 0.0, "bike_id": "30d6f8ba0cc75bfa6bf4b1e231ee72b8", "rental_uris": {"ios": "https://dc.lft.to/lastmile_qr_scan", "android": "https://dc.lft.to/lastmile_qr_scan"}}, {"name": "02ac01c81e5ceb2c328e3b797c8424b8", "type": "electric_scooter", "lat": 38.89482616666667, "is_reserved": 0, "lon": -77.02285366666666, "fusion_lon": 0.0, "is_disabled": 0, "fusion_lat": 0.0, "bike_id": "02ac01c81e5ceb2c328e3b797c8424b8", "rental_uris": {"ios": "https://dc.lft.to/lastmile_qr_scan", "android": "https://dc.lft.to/lastmile_qr_scan"}}, {"name": "c51d470101121d39588c060cfd007611", "type": "electric_scooter", "lat": 38.89873683333333, "is_reserved": 0, "lon": -76.93161766666667, "fusion_lon": 0.0, "is_disabled": 0, "fusion_lat": 0.0, "bike_id": "c51d470101121d39588c060cfd007611", "rental_uris": {"ios": "https://dc.lft.to/lastmile_qr_scan", "android": "https://dc.lft.to/lastmile_qr_scan"}}, {"name": "2ebb123867aabd2bedd8aa86f3304d68", "type": "electric_scooter", "lat": 38.91733983333334, "is_reserved": 0, "lon": -77.010265, "fusion_lon": 0.0, "is_disabled": 0, "fusion_lat": 0.0, "bike_id": "2ebb123867aabd2bedd8aa86f3304d68", "rental_uris": {"ios": "https://dc.lft.to/lastmile_qr_scan", "android": "https://dc.lft.to/lastmile_qr_scan"}}, {"name": "a758644bab91aec574ecf6c0bfec2ce5", "type": "electric_scooter", "lat": 38.932391333333335, "is_reserved": 0, "lon": -77.03847466666667, "fusion_lon": 0.0, "is_disabled": 0, "fusion_lat": 0.0, "bike_id": "a758644bab91aec574ecf6c0bfec2ce5", "rental_uris": {"ios": "https://dc.lft.to/lastmile_qr_scan", "android": "https://dc.lft.to/lastmile_qr_scan"}}, {"name": "f7997957f140f7c01e1bea0a53522463", "type": "electric_scooter", "lat": 38.917835, "is_reserved": 0, "lon": -77.0442545, "fusion_lon": 0.0, "is_disabled": 0, "fusion_lat": 0.0, "bike_id": "f7997957f140f7c01e1bea0a53522463", "rental_uris": {"ios": "https://dc.lft.to/lastmile_qr_scan", "android": "https://dc.lft.to/lastmile_qr_scan"}}, {"name": "8f13e5e0ce8d00607ac2b4962c88b88d", "type": "electric_scooter", "lat": 38.900152166666665, "is_reserved": 0, "lon": -76.997418, "fusion_lon": 0.0, "is_disabled": 0, "fusion_lat": 0.0, "bike_id": "8f13e5e0ce8d00607ac2b4962c88b88d", "rental_uris": {"ios": "https://dc.lft.to/lastmile_qr_scan", "android": "https://dc.lft.to/lastmile_qr_scan"}}, {"name": "5ad995757769d1eb6aa4cf9bc0872c3b", "type": "electric_scooter", "lat": 38.892467833333335, "is_reserved": 0, "lon": -77.03216866666666, "fusion_lon": 0.0, "is_disabled": 0, "fusion_lat": 0.0, "bike_id": "5ad995757769d1eb6aa4cf9bc0872c3b", "rental_uris": {"ios": "https://dc.lft.to/lastmile_qr_scan", "android": "https://dc.lft.to/lastmile_qr_scan"}}, {"name": "6896fac2f68ffdaf9fa6932e6ce5349f", "type": "electric_bike", "lat": 38.824478, "is_reserved": 0, "lon": -77.07044416666666, "fusion_lon": 0.0, "is_disabled": 0, "fusion_lat": 0.0, "bike_id": "6896fac2f68ffdaf9fa6932e6ce5349f", "rental_uris": {"ios": "https://dc.lft.to/lastmile_qr_scan", "android": "https://dc.lft.to/lastmile_qr_scan"}}, {"name": "0d76b7a4f5ee97f54d90c9d42b28b8a5", "type": "electric_scooter", "lat": 38.89631816666667, "is_reserved": 0, "lon": -77.02967416666667, "fusion_lon": 0.0, "is_disabled": 0, "fusion_lat": 0.0, "bike_id": "0d76b7a4f5ee97f54d90c9d42b28b8a5", "rental_uris": {"ios": "https://dc.lft.to/lastmile_qr_scan", "android": "https://dc.lft.to/lastmile_qr_scan"}}, {"name": "b2215c0066402f359d40f22df9b87398", "type": "electric_scooter", "lat": 38.92459683333333, "is_reserved": 0, "lon": -77.02156266666667, "fusion_lon": 0.0, "is_disabled": 0, "fusion_lat": 0.0, "bike_id": "b2215c0066402f359d40f22df9b87398", "rental_uris": {"ios": "https://dc.lft.to/lastmile_qr_scan", "android": "https://dc.lft.to/lastmile_qr_scan"}}, {"name": "56484f4cab7ac78a9a88ef7fc6a137f9", "type": "electric_scooter", "lat": 38.923191333333335, "is_reserved": 0, "lon": -77.0297565, "fusion_lon": 0.0, "is_disabled": 0, "fusion_lat": 0.0, "bike_id": "56484f4cab7ac78a9a88ef7fc6a137f9", "rental_uris": {"ios": "https://dc.lft.to/lastmile_qr_scan", "android": "https://dc.lft.to/lastmile_qr_scan"}}, {"name": "8b99267f9e7a55b30f92e40bc3d7ba6e", "type": "electric_scooter", "lat": 38.89913466666667, "is_reserved": 0, "lon": -76.933851, "fusion_lon": 0.0, "is_disabled": 0, "fusion_lat": 0.0, "bike_id": "8b99267f9e7a55b30f92e40bc3d7ba6e", "rental_uris": {"ios": "https://dc.lft.to/lastmile_qr_scan", "android": "https://dc.lft.to/lastmile_qr_scan"}}, {"name": "b86928c88d70a2eb3a2c4bcc4ecdc1ad", "type": "electric_scooter", "lat": 38.91720566666667, "is_reserved": 0, "lon": -77.038384, "fusion_lon": 0.0, "is_disabled": 0, "fusion_lat": 0.0, "bike_id": "b86928c88d70a2eb3a2c4bcc4ecdc1ad", "rental_uris": {"ios": "https://dc.lft.to/lastmile_qr_scan", "android": "https://dc.lft.to/lastmile_qr_scan"}}, {"name": "6f2a483f3b13ddd5b6092e3f0e709477", "type": "electric_scooter", "lat": 38.92314233333333, "is_reserved": 0, "lon": -77.0353995, "fusion_lon": 0.0, "is_disabled": 0, "fusion_lat": 0.0, "bike_id": "6f2a483f3b13ddd5b6092e3f0e709477", "rental_uris": {"ios": "https://dc.lft.to/lastmile_qr_scan", "android": "https://dc.lft.to/lastmile_qr_scan"}}, {"name": "eebc7b808f233dc45c53c1afd444c54d", "type": "electric_bike", "lat": 38.918533333333336, "is_reserved": 0, "lon": -76.96091166666666, "fusion_lon": 0.0, "is_disabled": 0, "fusion_lat": 0.0, "bike_id": "eebc7b808f233dc45c53c1afd444c54d", "rental_uris": {"ios": "https://dc.lft.to/lastmile_qr_scan", "android": "https://dc.lft.to/lastmile_qr_scan"}}, {"name": "1404744e60d617e225f4940bbb8092c1", "type": "electric_bike", "lat": 38.92642683333333, "is_reserved": 0, "lon": -77.02840566666667, "fusion_lon": 0.0, "is_disabled": 0, "fusion_lat": 0.0, "bike_id": "1404744e60d617e225f4940bbb8092c1", "rental_uris": {"ios": "https://dc.lft.to/lastmile_qr_scan", "android": "https://dc.lft.to/lastmile_qr_scan"}}, {"name": "54fc69abf3027eefbc2211d841f71f64", "type": "electric_scooter", "lat": 38.920501, "is_reserved": 0, "lon": -77.03474583333333, "fusion_lon": 0.0, "is_disabled": 0, "fusion_lat": 0.0, "bike_id": "54fc69abf3027eefbc2211d841f71f64", "rental_uris": {"ios": "https://dc.lft.to/lastmile_qr_scan", "android": "https://dc.lft.to/lastmile_qr_scan"}}, {"name": "3a3b4148f3e751e154c09fb299611fde", "type": "electric_scooter", "lat": 38.908907666666664, "is_reserved": 0, "lon": -77.086673, "fusion_lon": 0.0, "is_disabled": 0, "fusion_lat": 0.0, "bike_id": "3a3b4148f3e751e154c09fb299611fde", "rental_uris": {"ios": "https://dc.lft.to/lastmile_qr_scan", "android": "https://dc.lft.to/lastmile_qr_scan"}}, {"name": "abbae8d9db6e8038d62b8be98513cdb5", "type": "electric_scooter", "lat": 38.90652933333333, "is_reserved": 0, "lon": -77.038527, "fusion_lon": 0.0, "is_disabled": 0, "fusion_lat": 0.0, "bike_id": "abbae8d9db6e8038d62b8be98513cdb5", "rental_uris": {"ios": "https://dc.lft.to/lastmile_qr_scan", "android": "https://dc.lft.to/lastmile_qr_scan"}}, {"name": "c8f583fb428613ca9f1b4075b2c1e1c7", "type": "electric_scooter", "lat": 38.87752733333333, "is_reserved": 0, "lon": -77.00827016666666, "fusion_lon": 0.0, "is_disabled": 0, "fusion_lat": 0.0, "bike_id": "c8f583fb428613ca9f1b4075b2c1e1c7", "rental_uris": {"ios": "https://dc.lft.to/lastmile_qr_scan", "android": "https://dc.lft.to/lastmile_qr_scan"}}, {"name": "70042c94c9ef6f6826875d32c0c94a01", "type": "electric_scooter", "lat": 38.91739883333334, "is_reserved": 0, "lon": -77.03646783333333, "fusion_lon": 0.0, "is_disabled": 0, "fusion_lat": 0.0, "bike_id": "70042c94c9ef6f6826875d32c0c94a01", "rental_uris": {"ios": "https://dc.lft.to/lastmile_qr_scan", "android": "https://dc.lft.to/lastmile_qr_scan"}}, {"name": "f1e03c52f51152ac6a67e54f120b279c", "type": "electric_scooter", "lat": 38.90958883333333, "is_reserved": 0, "lon": -77.03931066666667, "fusion_lon": 0.0, "is_disabled": 0, "fusion_lat": 0.0, "bike_id": "f1e03c52f51152ac6a67e54f120b279c", "rental_uris": {"ios": "https://dc.lft.to/lastmile_qr_scan", "android": "https://dc.lft.to/lastmile_qr_scan"}}, {"name": "04723c8946d3e0f2f6c92e3a6ad4daf9", "type": "electric_bike", "lat": 38.93557083333334, "is_reserved": 0, "lon": -77.037043, "fusion_lon": 0.0, "is_disabled": 0, "fusion_lat": 0.0, "bike_id": "04723c8946d3e0f2f6c92e3a6ad4daf9", "rental_uris": {"ios": "https://dc.lft.to/lastmile_qr_scan", "android": "https://dc.lft.to/lastmile_qr_scan"}}, {"name": "e1d161d94ebb7df2ce6ea0471c9df073", "type": "electric_scooter", "lat": 38.92001916666667, "is_reserved": 0, "lon": -76.95811466666666, "fusion_lon": 0.0, "is_disabled": 0, "fusion_lat": 0.0, "bike_id": "e1d161d94ebb7df2ce6ea0471c9df073", "rental_uris": {"ios": "https://dc.lft.to/lastmile_qr_scan", "android": "https://dc.lft.to/lastmile_qr_scan"}}, {"name": "f6da3bb968884503097266d6acb32eb3", "type": "electric_scooter", "lat": 38.90064383333333, "is_reserved": 0, "lon": -77.04536783333333, "fusion_lon": 0.0, "is_disabled": 0, "fusion_lat": 0.0, "bike_id": "f6da3bb968884503097266d6acb32eb3", "rental_uris": {"ios": "https://dc.lft.to/lastmile_qr_scan", "android": "https://dc.lft.to/lastmile_qr_scan"}}, {"name": "327d6abded94ce436857d712f3dbccc3", "type": "electric_scooter", "lat": 38.9234195, "is_reserved": 0, "lon": -77.041769, "fusion_lon": 0.0, "is_disabled": 0, "fusion_lat": 0.0, "bike_id": "327d6abded94ce436857d712f3dbccc3", "rental_uris": {"ios": "https://dc.lft.to/lastmile_qr_scan", "android": "https://dc.lft.to/lastmile_qr_scan"}}, {"name": "32b073a88bf531ae8d06b370f8546d3c", "type": "electric_scooter", "lat": 38.911221166666664, "is_reserved": 0, "lon": -77.03730983333334, "fusion_lon": 0.0, "is_disabled": 0, "fusion_lat": 0.0, "bike_id": "32b073a88bf531ae8d06b370f8546d3c", "rental_uris": {"ios": "https://dc.lft.to/lastmile_qr_scan", "android": "https://dc.lft.to/lastmile_qr_scan"}}, {"name": "439860417afd53fe58dcb8afe8056468", "type": "electric_scooter", "lat": 38.928676333333335, "is_reserved": 0, "lon": -77.03314666666667, "fusion_lon": 0.0, "is_disabled": 0, "fusion_lat": 0.0, "bike_id": "439860417afd53fe58dcb8afe8056468", "rental_uris": {"ios": "https://dc.lft.to/lastmile_qr_scan", "android": "https://dc.lft.to/lastmile_qr_scan"}}, {"name": "4b3e7bc173e5cfd3d7ba48b8d7ed6b38", "type": "electric_scooter", "lat": 38.917266833333336, "is_reserved": 0, "lon": -77.0440145, "fusion_lon": 0.0, "is_disabled": 0, "fusion_lat": 0.0, "bike_id": "4b3e7bc173e5cfd3d7ba48b8d7ed6b38", "rental_uris": {"ios": "https://dc.lft.to/lastmile_qr_scan", "android": "https://dc.lft.to/lastmile_qr_scan"}}, {"name": "959a8cd4d0e23b58bf0a9db673bf7d18", "type": "electric_scooter", "lat": 38.936065666666664, "is_reserved": 0, "lon": -77.05861383333334, "fusion_lon": 0.0, "is_disabled": 0, "fusion_lat": 0.0, "bike_id": "959a8cd4d0e23b58bf0a9db673bf7d18", "rental_uris": {"ios": "https://dc.lft.to/lastmile_qr_scan", "android": "https://dc.lft.to/lastmile_qr_scan"}}, {"name": "6380adfc1708fea191f974e763b6a263", "type": "electric_scooter", "lat": 38.89552916666667, "is_reserved": 0, "lon": -76.9265485, "fusion_lon": 0.0, "is_disabled": 0, "fusion_lat": 0.0, "bike_id": "6380adfc1708fea191f974e763b6a263", "rental_uris": {"ios": "https://dc.lft.to/lastmile_qr_scan", "android": "https://dc.lft.to/lastmile_qr_scan"}}, {"name": "6c49fa48564e5e6f044a198f0131ea73", "type": "electric_scooter", "lat": 38.8940765, "is_reserved": 0, "lon": -77.021822, "fusion_lon": 0.0, "is_disabled": 0, "fusion_lat": 0.0, "bike_id": "6c49fa48564e5e6f044a198f0131ea73", "rental_uris": {"ios": "https://dc.lft.to/lastmile_qr_scan", "android": "https://dc.lft.to/lastmile_qr_scan"}}, {"name": "7161bbc297c593fda657defae742beb8", "type": "electric_scooter", "lat": 38.90114116666667, "is_reserved": 0, "lon": -77.04228466666666, "fusion_lon": 0.0, "is_disabled": 0, "fusion_lat": 0.0, "bike_id": "7161bbc297c593fda657defae742beb8", "rental_uris": {"ios": "https://dc.lft.to/lastmile_qr_scan", "android": "https://dc.lft.to/lastmile_qr_scan"}}, {"name": "d6d3d092bcfefd9994df7e5be8b5b5cc", "type": "electric_scooter", "lat": 38.89755983333333, "is_reserved": 0, "lon": -77.03255433333334, "fusion_lon": 0.0, "is_disabled": 0, "fusion_lat": 0.0, "bike_id": "d6d3d092bcfefd9994df7e5be8b5b5cc", "rental_uris": {"ios": "https://dc.lft.to/lastmile_qr_scan", "android": "https://dc.lft.to/lastmile_qr_scan"}}, {"name": "bddc9e76d6ffda94dacfb0b5d4be3550", "type": "electric_scooter", "lat": 38.94122083333333, "is_reserved": 0, "lon": -77.0265685, "fusion_lon": 0.0, "is_disabled": 0, "fusion_lat": 0.0, "bike_id": "bddc9e76d6ffda94dacfb0b5d4be3550", "rental_uris": {"ios": "https://dc.lft.to/lastmile_qr_scan", "android": "https://dc.lft.to/lastmile_qr_scan"}}, {"name": "fc39404e548783199237b200d2c05d07", "type": "electric_scooter", "lat": 38.90863433333333, "is_reserved": 0, "lon": -76.98618933333333, "fusion_lon": 0.0, "is_disabled": 0, "fusion_lat": 0.0, "bike_id": "fc39404e548783199237b200d2c05d07", "rental_uris": {"ios": "https://dc.lft.to/lastmile_qr_scan", "android": "https://dc.lft.to/lastmile_qr_scan"}}, {"name": "5600087fa7b5af4eb4f7df3149bfaa7d", "type": "electric_bike", "lat": 38.9300085, "is_reserved": 0, "lon": -77.01087916666667, "fusion_lon": 0.0, "is_disabled": 0, "fusion_lat": 0.0, "bike_id": "5600087fa7b5af4eb4f7df3149bfaa7d", "rental_uris": {"ios": "https://dc.lft.to/lastmile_qr_scan", "android": "https://dc.lft.to/lastmile_qr_scan"}}, {"name": "fe048e2d27a46ccfdb30ac7ca68bf8ac", "type": "electric_scooter", "lat": 38.90776116666667, "is_reserved": 0, "lon": -77.0717015, "fusion_lon": 0.0, "is_disabled": 0, "fusion_lat": 0.0, "bike_id": "fe048e2d27a46ccfdb30ac7ca68bf8ac", "rental_uris": {"ios": "https://dc.lft.to/lastmile_qr_scan", "android": "https://dc.lft.to/lastmile_qr_scan"}}, {"name": "2a96996ea6dd273e25a3001e6e41df8b", "type": "electric_scooter", "lat": 38.96562866666667, "is_reserved": 0, "lon": -77.01627016666667, "fusion_lon": 0.0, "is_disabled": 0, "fusion_lat": 0.0, "bike_id": "2a96996ea6dd273e25a3001e6e41df8b", "rental_uris": {"ios": "https://dc.lft.to/lastmile_qr_scan", "android": "https://dc.lft.to/lastmile_qr_scan"}}, {"name": "75f5b5460caa54ab79aa99dc205bd6f5", "type": "electric_scooter", "lat": 38.900043, "is_reserved": 0, "lon": -77.01156983333334, "fusion_lon": 0.0, "is_disabled": 0, "fusion_lat": 0.0, "bike_id": "75f5b5460caa54ab79aa99dc205bd6f5", "rental_uris": {"ios": "https://dc.lft.to/lastmile_qr_scan", "android": "https://dc.lft.to/lastmile_qr_scan"}}, {"name": "a5518bdfff0b89962eea8e1a38569ec7", "type": "electric_scooter", "lat": 38.88464366666667, "is_reserved": 0, "lon": -77.02807883333334, "fusion_lon": 0.0, "is_disabled": 0, "fusion_lat": 0.0, "bike_id": "a5518bdfff0b89962eea8e1a38569ec7", "rental_uris": {"ios": "https://dc.lft.to/lastmile_qr_scan", "android": "https://dc.lft.to/lastmile_qr_scan"}}, {"name": "6b6718bef653a89ca2912a25a0a9ade6", "type": "electric_bike", "lat": 38.92866316666667, "is_reserved": 0, "lon": -76.961088, "fusion_lon": 0.0, "is_disabled": 0, "fusion_lat": 0.0, "bike_id": "6b6718bef653a89ca2912a25a0a9ade6", "rental_uris": {"ios": "https://dc.lft.to/lastmile_qr_scan", "android": "https://dc.lft.to/lastmile_qr_scan"}}, {"name": "d94d19ca9a0b1a71294a098c6438130f", "type": "electric_scooter", "lat": 38.90100666666667, "is_reserved": 0, "lon": -77.00210316666667, "fusion_lon": 0.0, "is_disabled": 0, "fusion_lat": 0.0, "bike_id": "d94d19ca9a0b1a71294a098c6438130f", "rental_uris": {"ios": "https://dc.lft.to/lastmile_qr_scan", "android": "https://dc.lft.to/lastmile_qr_scan"}}, {"name": "418d6932f686c233abe344927f5d468b", "type": "electric_scooter", "lat": 38.89666833333333, "is_reserved": 0, "lon": -77.01192366666666, "fusion_lon": 0.0, "is_disabled": 0, "fusion_lat": 0.0, "bike_id": "418d6932f686c233abe344927f5d468b", "rental_uris": {"ios": "https://dc.lft.to/lastmile_qr_scan", "android": "https://dc.lft.to/lastmile_qr_scan"}}, {"name": "ad3eca8da9012f3bad4446d2710c98e0", "type": "electric_scooter", "lat": 38.928231833333335, "is_reserved": 0, "lon": -77.02258716666667, "fusion_lon": 0.0, "is_disabled": 0, "fusion_lat": 0.0, "bike_id": "ad3eca8da9012f3bad4446d2710c98e0", "rental_uris": {"ios": "https://dc.lft.to/lastmile_qr_scan", "android": "https://dc.lft.to/lastmile_qr_scan"}}, {"name": "7cd12db10324a4460aff760c31ff75c1", "type": "electric_bike", "lat": 38.88401983333333, "is_reserved": 0, "lon": -76.96057033333334, "fusion_lon": 0.0, "is_disabled": 0, "fusion_lat": 0.0, "bike_id": "7cd12db10324a4460aff760c31ff75c1", "rental_uris": {"ios": "https://dc.lft.to/lastmile_qr_scan", "android": "https://dc.lft.to/lastmile_qr_scan"}}, {"name": "bb76a7eb3f432943aaa97caf3a70928c", "type": "electric_scooter", "lat": 38.905278333333335, "is_reserved": 0, "lon": -77.03441966666666, "fusion_lon": 0.0, "is_disabled": 0, "fusion_lat": 0.0, "bike_id": "bb76a7eb3f432943aaa97caf3a70928c", "rental_uris": {"ios": "https://dc.lft.to/lastmile_qr_scan", "android": "https://dc.lft.to/lastmile_qr_scan"}}, {"name": "9be331575ca478c476c876fcb74a2efa", "type": "electric_bike", "lat": 38.831508666666664, "is_reserved": 0, "lon": -77.11326383333333, "fusion_lon": 0.0, "is_disabled": 0, "fusion_lat": 0.0, "bike_id": "9be331575ca478c476c876fcb74a2efa", "rental_uris": {"ios": "https://dc.lft.to/lastmile_qr_scan", "android": "https://dc.lft.to/lastmile_qr_scan"}}, {"name": "07cb52f389571a8678699794aaa4d222", "type": "electric_scooter", "lat": 38.91780216666667, "is_reserved": 0, "lon": -77.04298383333334, "fusion_lon": 0.0, "is_disabled": 0, "fusion_lat": 0.0, "bike_id": "07cb52f389571a8678699794aaa4d222", "rental_uris": {"ios": "https://dc.lft.to/lastmile_qr_scan", "android": "https://dc.lft.to/lastmile_qr_scan"}}, {"name": "c730d6cfff6325a2ba5c0951eec04cc6", "type": "electric_scooter", "lat": 38.93433783333333, "is_reserved": 0, "lon": -77.0400665, "fusion_lon": 0.0, "is_disabled": 0, "fusion_lat": 0.0, "bike_id": "c730d6cfff6325a2ba5c0951eec04cc6", "rental_uris": {"ios": "https://dc.lft.to/lastmile_qr_scan", "android": "https://dc.lft.to/lastmile_qr_scan"}}, {"name": "75288fd63241ca3bc81c609a703d9631", "type": "electric_bike", "lat": 38.950739, "is_reserved": 0, "lon": -77.01197816666667, "fusion_lon": 0.0, "is_disabled": 0, "fusion_lat": 0.0, "bike_id": "75288fd63241ca3bc81c609a703d9631", "rental_uris": {"ios": "https://dc.lft.to/lastmile_qr_scan", "android": "https://dc.lft.to/lastmile_qr_scan"}}, {"name": "c9a3fd6637c3879cc635a8cb29e01502", "type": "electric_scooter", "lat": 38.9012605, "is_reserved": 0, "lon": -77.04718033333333, "fusion_lon": 0.0, "is_disabled": 0, "fusion_lat": 0.0, "bike_id": "c9a3fd6637c3879cc635a8cb29e01502", "rental_uris": {"ios": "https://dc.lft.to/lastmile_qr_scan", "android": "https://dc.lft.to/lastmile_qr_scan"}}, {"name": "f23f80fe53372b1452cfdf5722f7e6f2", "type": "electric_bike", "lat": 38.84295216666666, "is_reserved": 0, "lon": -76.988399, "fusion_lon": 0.0, "is_disabled": 0, "fusion_lat": 0.0, "bike_id": "f23f80fe53372b1452cfdf5722f7e6f2", "rental_uris": {"ios": "https://dc.lft.to/lastmile_qr_scan", "android": "https://dc.lft.to/lastmile_qr_scan"}}, {"name": "2236bcd9026caca2f1eb5b5bd8b81612", "type": "electric_scooter", "lat": 38.91872816666667, "is_reserved": 0, "lon": -77.03501616666667, "fusion_lon": 0.0, "is_disabled": 0, "fusion_lat": 0.0, "bike_id": "2236bcd9026caca2f1eb5b5bd8b81612", "rental_uris": {"ios": "https://dc.lft.to/lastmile_qr_scan", "android": "https://dc.lft.to/lastmile_qr_scan"}}, {"name": "ff5e2057bdaa20f9fc62c92df04ea2c3", "type": "electric_scooter", "lat": 38.892213, "is_reserved": 0, "lon": -77.03092133333334, "fusion_lon": 0.0, "is_disabled": 0, "fusion_lat": 0.0, "bike_id": "ff5e2057bdaa20f9fc62c92df04ea2c3", "rental_uris": {"ios": "https://dc.lft.to/lastmile_qr_scan", "android": "https://dc.lft.to/lastmile_qr_scan"}}, {"name": "274a06b5d2e49d88d46a98927b222c52", "type": "electric_scooter", "lat": 38.9031825, "is_reserved": 0, "lon": -77.03631133333333, "fusion_lon": 0.0, "is_disabled": 0, "fusion_lat": 0.0, "bike_id": "274a06b5d2e49d88d46a98927b222c52", "rental_uris": {"ios": "https://dc.lft.to/lastmile_qr_scan", "android": "https://dc.lft.to/lastmile_qr_scan"}}, {"name": "4770fa31a4cbbbaa1e272a94650147da", "type": "electric_scooter", "lat": 38.880517, "is_reserved": 0, "lon": -76.95984166666666, "fusion_lon": 0.0, "is_disabled": 0, "fusion_lat": 0.0, "bike_id": "4770fa31a4cbbbaa1e272a94650147da", "rental_uris": {"ios": "https://dc.lft.to/lastmile_qr_scan", "android": "https://dc.lft.to/lastmile_qr_scan"}}, {"name": "f61ea14184598d31fa4e825559d12ca1", "type": "electric_scooter", "lat": 38.93945133333333, "is_reserved": 0, "lon": -77.03271583333333, "fusion_lon": 0.0, "is_disabled": 0, "fusion_lat": 0.0, "bike_id": "f61ea14184598d31fa4e825559d12ca1", "rental_uris": {"ios": "https://dc.lft.to/lastmile_qr_scan", "android": "https://dc.lft.to/lastmile_qr_scan"}}, {"name": "d6c3f3f5fcd654853b8b7afb1602e553", "type": "electric_bike", "lat": 38.85219133333333, "is_reserved": 0, "lon": -77.12953983333334, "fusion_lon": 0.0, "is_disabled": 0, "fusion_lat": 0.0, "bike_id": "d6c3f3f5fcd654853b8b7afb1602e553", "rental_uris": {"ios": "https://dc.lft.to/lastmile_qr_scan", "android": "https://dc.lft.to/lastmile_qr_scan"}}, {"name": "063b742268c9f2ec26b24f388cb4d912", "type": "electric_scooter", "lat": 38.91113166666667, "is_reserved": 0, "lon": -77.0423915, "fusion_lon": 0.0, "is_disabled": 0, "fusion_lat": 0.0, "bike_id": "063b742268c9f2ec26b24f388cb4d912", "rental_uris": {"ios": "https://dc.lft.to/lastmile_qr_scan", "android": "https://dc.lft.to/lastmile_qr_scan"}}, {"name": "cb625f6b2a0d92b772732fbf1a15776b", "type": "electric_bike", "lat": 38.83235533333333, "is_reserved": 0, "lon": -77.00724033333333, "fusion_lon": 0.0, "is_disabled": 0, "fusion_lat": 0.0, "bike_id": "cb625f6b2a0d92b772732fbf1a15776b", "rental_uris": {"ios": "https://dc.lft.to/lastmile_qr_scan", "android": "https://dc.lft.to/lastmile_qr_scan"}}, {"name": "87c3049832f775eff7028194c6dd4ffd", "type": "electric_scooter", "lat": 38.88353033333333, "is_reserved": 0, "lon": -76.9856195, "fusion_lon": 0.0, "is_disabled": 0, "fusion_lat": 0.0, "bike_id": "87c3049832f775eff7028194c6dd4ffd", "rental_uris": {"ios": "https://dc.lft.to/lastmile_qr_scan", "android": "https://dc.lft.to/lastmile_qr_scan"}}, {"name": "e79cb3323586a9e1a3dd5aa850a8ea43", "type": "electric_scooter", "lat": 38.939478333333334, "is_reserved": 0, "lon": -77.03272583333333, "fusion_lon": 0.0, "is_disabled": 0, "fusion_lat": 0.0, "bike_id": "e79cb3323586a9e1a3dd5aa850a8ea43", "rental_uris": {"ios": "https://dc.lft.to/lastmile_qr_scan", "android": "https://dc.lft.to/lastmile_qr_scan"}}, {"name": "39731497e8492a66d8d94e5d4d3b33d7", "type": "electric_scooter", "lat": 38.902852833333334, "is_reserved": 0, "lon": -77.0405845, "fusion_lon": 0.0, "is_disabled": 0, "fusion_lat": 0.0, "bike_id": "39731497e8492a66d8d94e5d4d3b33d7", "rental_uris": {"ios": "https://dc.lft.to/lastmile_qr_scan", "android": "https://dc.lft.to/lastmile_qr_scan"}}, {"name": "d0f6752fe06d70632104bcb3a01c4c0a", "type": "electric_bike", "lat": 38.865978166666665, "is_reserved": 0, "lon": -76.9322765, "fusion_lon": 0.0, "is_disabled": 0, "fusion_lat": 0.0, "bike_id": "d0f6752fe06d70632104bcb3a01c4c0a", "rental_uris": {"ios": "https://dc.lft.to/lastmile_qr_scan", "android": "https://dc.lft.to/lastmile_qr_scan"}}, {"name": "29b0b00ab7e6312e187c77683e54622c", "type": "electric_scooter", "lat": 38.92765983333334, "is_reserved": 0, "lon": -77.05377583333333, "fusion_lon": 0.0, "is_disabled": 0, "fusion_lat": 0.0, "bike_id": "29b0b00ab7e6312e187c77683e54622c", "rental_uris": {"ios": "https://dc.lft.to/lastmile_qr_scan", "android": "https://dc.lft.to/lastmile_qr_scan"}}, {"name": "3c8ed3f4e36d842f2218433cf18d6ba4", "type": "electric_scooter", "lat": 38.91731166666667, "is_reserved": 0, "lon": -77.0383715, "fusion_lon": 0.0, "is_disabled": 0, "fusion_lat": 0.0, "bike_id": "3c8ed3f4e36d842f2218433cf18d6ba4", "rental_uris": {"ios": "https://dc.lft.to/lastmile_qr_scan", "android": "https://dc.lft.to/lastmile_qr_scan"}}, {"name": "f7d05d843b3bb2820b7a404c96e09147", "type": "electric_scooter", "lat": 38.9196625, "is_reserved": 0, "lon": -77.031816, "fusion_lon": 0.0, "is_disabled": 0, "fusion_lat": 0.0, "bike_id": "f7d05d843b3bb2820b7a404c96e09147", "rental_uris": {"ios": "https://dc.lft.to/lastmile_qr_scan", "android": "https://dc.lft.to/lastmile_qr_scan"}}, {"name": "76ae0deed538f881cdc9c0e2587cd651", "type": "electric_bike", "lat": 38.9845325, "is_reserved": 0, "lon": -76.95524183333333, "fusion_lon": 0.0, "is_disabled": 0, "fusion_lat": 0.0, "bike_id": "76ae0deed538f881cdc9c0e2587cd651", "rental_uris": {"ios": "https://dc.lft.to/lastmile_qr_scan", "android": "https://dc.lft.to/lastmile_qr_scan"}}, {"name": "daa9db876083dbfa83ce6577451da758", "type": "electric_scooter", "lat": 38.91821216666666, "is_reserved": 0, "lon": -77.045245, "fusion_lon": 0.0, "is_disabled": 0, "fusion_lat": 0.0, "bike_id": "daa9db876083dbfa83ce6577451da758", "rental_uris": {"ios": "https://dc.lft.to/lastmile_qr_scan", "android": "https://dc.lft.to/lastmile_qr_scan"}}, {"name": "ac5f0dddf263420cf7acb40865b3ff10", "type": "electric_scooter", "lat": 38.91690066666666, "is_reserved": 0, "lon": -77.0290315, "fusion_lon": 0.0, "is_disabled": 0, "fusion_lat": 0.0, "bike_id": "ac5f0dddf263420cf7acb40865b3ff10", "rental_uris": {"ios": "https://dc.lft.to/lastmile_qr_scan", "android": "https://dc.lft.to/lastmile_qr_scan"}}, {"name": "e48e54bee08c2b1484525676fa48489e", "type": "electric_scooter", "lat": 38.883252, "is_reserved": 0, "lon": -77.01749766666667, "fusion_lon": 0.0, "is_disabled": 0, "fusion_lat": 0.0, "bike_id": "e48e54bee08c2b1484525676fa48489e", "rental_uris": {"ios": "https://dc.lft.to/lastmile_qr_scan", "android": "https://dc.lft.to/lastmile_qr_scan"}}, {"name": "a524447dd9a639fbc685945c2523a27e", "type": "electric_scooter", "lat": 38.902268666666664, "is_reserved": 0, "lon": -76.97412066666666, "fusion_lon": 0.0, "is_disabled": 0, "fusion_lat": 0.0, "bike_id": "a524447dd9a639fbc685945c2523a27e", "rental_uris": {"ios": "https://dc.lft.to/lastmile_qr_scan", "android": "https://dc.lft.to/lastmile_qr_scan"}}, {"name": "9288237a9ded953b3fa1c1c7f341beac", "type": "electric_scooter", "lat": 38.90612633333333, "is_reserved": 0, "lon": -77.002566, "fusion_lon": 0.0, "is_disabled": 0, "fusion_lat": 0.0, "bike_id": "9288237a9ded953b3fa1c1c7f341beac", "rental_uris": {"ios": "https://dc.lft.to/lastmile_qr_scan", "android": "https://dc.lft.to/lastmile_qr_scan"}}, {"name": "e8a84dfabf8cab5e06e7a1178c6f6a26", "type": "electric_scooter", "lat": 38.90355183333333, "is_reserved": 0, "lon": -77.02588733333333, "fusion_lon": 0.0, "is_disabled": 0, "fusion_lat": 0.0, "bike_id": "e8a84dfabf8cab5e06e7a1178c6f6a26", "rental_uris": {"ios": "https://dc.lft.to/lastmile_qr_scan", "android": "https://dc.lft.to/lastmile_qr_scan"}}, {"name": "3c0d7afed05d3f591d53faafc76ef50d", "type": "electric_bike", "lat": 38.86867066666667, "is_reserved": 0, "lon": -76.91665166666667, "fusion_lon": 0.0, "is_disabled": 0, "fusion_lat": 0.0, "bike_id": "3c0d7afed05d3f591d53faafc76ef50d", "rental_uris": {"ios": "https://dc.lft.to/lastmile_qr_scan", "android": "https://dc.lft.to/lastmile_qr_scan"}}, {"name": "59a5e6cf551c87a827083ed12ca60021", "type": "electric_scooter", "lat": 38.924845166666664, "is_reserved": 0, "lon": -77.02272116666667, "fusion_lon": 0.0, "is_disabled": 0, "fusion_lat": 0.0, "bike_id": "59a5e6cf551c87a827083ed12ca60021", "rental_uris": {"ios": "https://dc.lft.to/lastmile_qr_scan", "android": "https://dc.lft.to/lastmile_qr_scan"}}, {"name": "1ab114a50107ea1ad12fb67959d90b06", "type": "electric_scooter", "lat": 38.896883333333335, "is_reserved": 0, "lon": -76.94735416666667, "fusion_lon": 0.0, "is_disabled": 0, "fusion_lat": 0.0, "bike_id": "1ab114a50107ea1ad12fb67959d90b06", "rental_uris": {"ios": "https://dc.lft.to/lastmile_qr_scan", "android": "https://dc.lft.to/lastmile_qr_scan"}}, {"name": "edd269a4c2c4a4d441aef345c066c8db", "type": "electric_scooter", "lat": 38.87965883333333, "is_reserved": 0, "lon": -77.02438966666666, "fusion_lon": 0.0, "is_disabled": 0, "fusion_lat": 0.0, "bike_id": "edd269a4c2c4a4d441aef345c066c8db", "rental_uris": {"ios": "https://dc.lft.to/lastmile_qr_scan", "android": "https://dc.lft.to/lastmile_qr_scan"}}, {"name": "d06f92c224f01b3be61cf756f8458a96", "type": "electric_scooter", "lat": 38.894549, "is_reserved": 0, "lon": -77.00346516666667, "fusion_lon": 0.0, "is_disabled": 0, "fusion_lat": 0.0, "bike_id": "d06f92c224f01b3be61cf756f8458a96", "rental_uris": {"ios": "https://dc.lft.to/lastmile_qr_scan", "android": "https://dc.lft.to/lastmile_qr_scan"}}, {"name": "efc8b71ed850c504be138164cbb5bf1d", "type": "electric_scooter", "lat": 38.914162166666664, "is_reserved": 0, "lon": -77.0097545, "fusion_lon": 0.0, "is_disabled": 0, "fusion_lat": 0.0, "bike_id": "efc8b71ed850c504be138164cbb5bf1d", "rental_uris": {"ios": "https://dc.lft.to/lastmile_qr_scan", "android": "https://dc.lft.to/lastmile_qr_scan"}}, {"name": "4541533755101bee38d2005f8c739aba", "type": "electric_bike", "lat": 38.91781316666667, "is_reserved": 0, "lon": -77.043344, "fusion_lon": 0.0, "is_disabled": 0, "fusion_lat": 0.0, "bike_id": "4541533755101bee38d2005f8c739aba", "rental_uris": {"ios": "https://dc.lft.to/lastmile_qr_scan", "android": "https://dc.lft.to/lastmile_qr_scan"}}, {"name": "b3df3791325e7a3939286226b291687a", "type": "electric_scooter", "lat": 38.90567, "is_reserved": 0, "lon": -77.0056325, "fusion_lon": 0.0, "is_disabled": 0, "fusion_lat": 0.0, "bike_id": "b3df3791325e7a3939286226b291687a", "rental_uris": {"ios": "https://dc.lft.to/lastmile_qr_scan", "android": "https://dc.lft.to/lastmile_qr_scan"}}, {"name": "c4f2c4f1c9fbe2400906bbe27e900152", "type": "electric_scooter", "lat": 38.904768833333335, "is_reserved": 0, "lon": -77.03567016666666, "fusion_lon": 0.0, "is_disabled": 0, "fusion_lat": 0.0, "bike_id": "c4f2c4f1c9fbe2400906bbe27e900152", "rental_uris": {"ios": "https://dc.lft.to/lastmile_qr_scan", "android": "https://dc.lft.to/lastmile_qr_scan"}}, {"name": "88712ebf08edb334f3ab18744a4bc50d", "type": "electric_scooter", "lat": 38.90239366666667, "is_reserved": 0, "lon": -77.00197683333333, "fusion_lon": 0.0, "is_disabled": 0, "fusion_lat": 0.0, "bike_id": "88712ebf08edb334f3ab18744a4bc50d", "rental_uris": {"ios": "https://dc.lft.to/lastmile_qr_scan", "android": "https://dc.lft.to/lastmile_qr_scan"}}, {"name": "8f4446ffa71cc51a0abcd00392d16e98", "type": "electric_scooter", "lat": 38.90273366666667, "is_reserved": 0, "lon": -77.034533, "fusion_lon": 0.0, "is_disabled": 0, "fusion_lat": 0.0, "bike_id": "8f4446ffa71cc51a0abcd00392d16e98", "rental_uris": {"ios": "https://dc.lft.to/lastmile_qr_scan", "android": "https://dc.lft.to/lastmile_qr_scan"}}, {"name": "e21a59b3bff51a611ae0f434eed86627", "type": "electric_scooter", "lat": 38.90550066666667, "is_reserved": 0, "lon": -77.06261566666667, "fusion_lon": 0.0, "is_disabled": 0, "fusion_lat": 0.0, "bike_id": "e21a59b3bff51a611ae0f434eed86627", "rental_uris": {"ios": "https://dc.lft.to/lastmile_qr_scan", "android": "https://dc.lft.to/lastmile_qr_scan"}}, {"name": "750acac30c1807e2d82c06ebb4d4b34a", "type": "electric_scooter", "lat": 38.86220566666667, "is_reserved": 0, "lon": -76.994916, "fusion_lon": 0.0, "is_disabled": 0, "fusion_lat": 0.0, "bike_id": "750acac30c1807e2d82c06ebb4d4b34a", "rental_uris": {"ios": "https://dc.lft.to/lastmile_qr_scan", "android": "https://dc.lft.to/lastmile_qr_scan"}}, {"name": "689c4a36c3a6b6ba6ac8f51ee6ea66f8", "type": "electric_scooter", "lat": 38.906262, "is_reserved": 0, "lon": -76.98314516666667, "fusion_lon": 0.0, "is_disabled": 0, "fusion_lat": 0.0, "bike_id": "689c4a36c3a6b6ba6ac8f51ee6ea66f8", "rental_uris": {"ios": "https://dc.lft.to/lastmile_qr_scan", "android": "https://dc.lft.to/lastmile_qr_scan"}},