{"data": {"bikes": [{"fusion_lat": 0.0, "lon": -77.07398183333333, "is_reserved": 0, "bike_id": "9ffdefe664c624d09f4fb51ff430e3fc", "fusion_lon": 0.0, "rental_uris": {"android": "https://dc.lft.to/lastmile_qr_scan", "ios": "https://dc.lft.to/lastmile_qr_scan"}, "name": "9ffdefe664c624d09f4fb51ff430e3fc", "type": "electric_bike", "lat": 38.9619195, "is_disabled": 0}, {"fusion_lat": 0.0, "lon": -77.031732, "is_reserved": 0, "bike_id": "2aaa5ce713f5add2dd9375366d8b8507", "fusion_lon": 0.0, "rental_uris": {"android": "https://dc.lft.to/lastmile_qr_scan", "ios": "https://dc.lft.to/lastmile_qr_scan"}, "name": "2aaa5ce713f5add2dd9375366d8b8507", "type": "electric_scooter", "lat": 38.915552166666664, "is_disabled": 0}, {"fusion_lat": 0.0, "lon": -77.0249135, "is_reserved": 0, "bike_id": "85a0cb24bb057482cf9e242ef164978e", "fusion_lon": 0.0, "rental_uris": {"android": "https://dc.lft.to/lastmile_qr_scan", "ios": "https://dc.lft.to/lastmile_qr_scan"}, "name": "85a0cb24bb057482cf9e242ef164978e", "type": "electric_scooter", "lat": 38.94185316666667, "is_disabled": 0}, {"fusion_lat": 0.0, "lon": -77.0123105, "is_reserved": 0, "bike_id": "69ad249c69000034f81b51097fe384e1", "fusion_lon": 0.0, "rental_uris": {"android": "https://dc.lft.to/lastmile_qr_scan", "ios": "https://dc.lft.to/lastmile_qr_scan"}, "name": "69ad249c69000034f81b51097fe384e1", "type": "electric_scooter", "lat": 38.9287775, "is_disabled": 0}, {"fusion_lat": 0.0, "lon": -77.017944, "is_reserved": 0, "bike_id": "62cf222faaad457e716878c4059f2531", "fusion_lon": 0.0, "rental_uris": {"android": "https://dc.lft.to/lastmile_qr_scan", "ios": "https://dc.lft.to/lastmile_qr_scan"}, "name": "62cf222faaad457e716878c4059f2531", "type": "electric_scooter", "lat": 38.90400783333333, "is_disabled": 0}, {"fusion_lat": 0.0, "lon": -77.04548283333334, "is_reserved": 0, "bike_id": "46cd75d7566481aeaabd72cceda19d64", "fusion_lon": 0.0, "rental_uris": {"android": "https://dc.lft.to/lastmile_qr_scan", "ios": "https://dc.lft.to/lastmile_qr_scan"}, "name": "46cd75d7566481aeaabd72cceda19d64", "type": "electric_scooter", "lat": 38.9340685, "is_disabled": 0}, {"fusion_lat": 0.0, "lon": -77.03934433333333, "is_reserved": 0, "bike_id": "53a82238e13c82625ce5272c034cd798", "fusion_lon": 0.0, "rental_uris": {"android": "https://dc.lft.to/lastmile_qr_scan", "ios": "https://dc.lft.to/lastmile_qr_scan"}, "name": "53a82238e13c82625ce5272c034cd798", "type": "electric_scooter", "lat": 38.917588, "is_disabled": 0}, {"fusion_lat": 0.0, "lon": -77.03777716666667, "is_reserved": 0, "bike_id": "f2ecec39575d52a0c10e14beb02b885a", "fusion_lon": 0.0, "rental_uris": {"android": "https://dc.lft.to/lastmile_qr_scan", "ios": "https://dc.lft.to/lastmile_qr_scan"}, "name": "f2ecec39575d52a0c10e14beb02b885a", "type": "electric_scooter", "lat": 38.922085833333334, "is_disabled": 0}, {"fusion_lat": 0.0, "lon": -77.026619, "is_reserved": 0, "bike_id": "b34ccdb61c64d779cf42c1f24110bbdb", "fusion_lon": 0.0, "rental_uris": {"android": "https://dc.lft.to/lastmile_qr_scan", "ios": "https://dc.lft.to/lastmile_qr_scan"}, "name": "b34ccdb61c64d779cf42c1f24110bbdb", "type": "electric_scooter", "lat": 38.931018, "is_disabled": 0}, {"fusion_lat": 0.0, "lon": -77.06448883333333, "is_reserved": 0, "bike_id": "ef77da5be34f9d2fd664216cdf0485fa", "fusion_lon": 0.0, "rental_uris": {"android": "https://dc.lft.to/lastmile_qr_scan", "ios": "https://dc.lft.to/lastmile_qr_scan"}, "name": "ef77da5be34f9d2fd664216cdf0485fa", "type": "electric_scooter", "lat": 38.90522166666667, "is_disabled": 0}, {"fusion_lat": 0.0, "lon": -76.9624005, "is_reserved": 0, "bike_id": "bd0c332da8348c69d0a9846b3af0ae40", "fusion_lon": 0.0, "rental_uris": {"android": "https://dc.lft.to/lastmile_qr_scan", "ios": "https://dc.lft.to/lastmile_qr_scan"}, "name": "bd0c332da8348c69d0a9846b3af0ae40", "type": "electric_scooter", "lat": 38.877692, "is_disabled": 0}, {"fusion_lat": 0.0, "lon": -77.03867216666667, "is_reserved": 0, "bike_id": "9b19fdc47e97f6ed5e981db00c296b4f", "fusion_lon": 0.0, "rental_uris": {"android": "https://dc.lft.to/lastmile_qr_scan", "ios": "https://dc.lft.to/lastmile_qr_scan"}, "name": "9b19fdc47e97f6ed5e981db00c296b4f", "type": "electric_scooter", "lat": 38.90789933333333, "is_disabled": 0}, {"fusion_lat": 0.0, "lon": -77.01210583333334, "is_reserved": 0, "bike_id": "c8c99da79e32b9e7c90c20c74f6bbb95", "fusion_lon": 0.0, "rental_uris": {"android": "https://dc.lft.to/lastmile_qr_scan", "ios": "https://dc.lft.to/lastmile_qr_scan"}, "name": "c8c99da79e32b9e7c90c20c74f6bbb95", "type": "electric_scooter", "lat": 38.9184, "is_disabled": 0}, {"fusion_lat": 0.0, "lon": -77.04400083333333, "is_reserved": 0, "bike_id": "6c32075f79ce5638dbf9db422c332cda", "fusion_lon": 0.0, "rental_uris": {"android": "https://dc.lft.to/lastmile_qr_scan", "ios": "https://dc.lft.to/lastmile_qr_scan"}, "name": "6c32075f79ce5638dbf9db422c332cda", "type": "electric_scooter", "lat": 38.9023365, "is_disabled": 0}, {"fusion_lat": 0.0, "lon": -77.01673316666667, "is_reserved": 0, "bike_id": "56a6acd4e55b5d177f89541672795a05", "fusion_lon": 0.0, "rental_uris": {"android": "https://dc.lft.to/lastmile_qr_scan", "ios": "https://dc.lft.to/lastmile_qr_scan"}, "name": "56a6acd4e55b5d177f89541672795a05", "type": "electric_scooter", "lat": 38.88121433333333, "is_disabled": 0}, {"fusion_lat": 0.0, "lon": -76.9993545, "is_reserved": 0, "bike_id": "470f8684679f3182c499e464edee662b", "fusion_lon": 0.0, "rental_uris": {"android": "https://dc.lft.to/lastmile_qr_scan", "ios": "https://dc.lft.to/lastmile_qr_scan"}, "name": "470f8684679f3182c499e464edee662b", "type": "electric_scooter", "lat": 38.843006833333334, "is_disabled": 0}, {"fusion_lat": 0.0, "lon": -77.02712516666666, "is_reserved": 0, "bike_id": "65a7f1a8d8f0c30c0babc4c0744ea534", "fusion_lon": 0.0, "rental_uris": {"android": "https://dc.lft.to/lastmile_qr_scan", "ios": "https://dc.lft.to/lastmile_qr_scan"}, "name": "65a7f1a8d8f0c30c0babc4c0744ea534", "type": "electric_scooter", "lat": 38.89734883333333, "is_disabled": 0}, {"fusion_lat": 0.0, "lon": -76.99901983333334, "is_reserved": 0, "bike_id": "b606087a33897c8a35343e2c3bb702c4", "fusion_lon": 0.0, "rental_uris": {"android": "https://dc.lft.to/lastmile_qr_scan", "ios": "https://dc.lft.to/lastmile_qr_scan"}, "name": "b606087a33897c8a35343e2c3bb702c4", "type": "electric_scooter", "lat": 38.94816983333333, "is_disabled": 0}, {"fusion_lat": 0.0, "lon": -76.97206466666667, "is_reserved": 0, "bike_id": "2fad99f7d3968f3326ac440580ddb0a6", "fusion_lon": 0.0, "rental_uris": {"android": "https://dc.lft.to/lastmile_qr_scan", "ios": "https://dc.lft.to/lastmile_qr_scan"}, "name": "2fad99f7d3968f3326ac440580ddb0a6", "type": "electric_bike", "lat": 38.892922166666665, "is_disabled": 0}, {"fusion_lat": 0.0, "lon": -77.13925633333334, "is_reserved": 0, "bike_id": "8a42ea6807ce5bac0a6246ccc9d140d5", "fusion_lon": 0.0, "rental_uris": {"android": "https://dc.lft.to/lastmile_qr_scan", "ios": "https://dc.lft.to/lastmile_qr_scan"}, "name": "8a42ea6807ce5bac0a6246ccc9d140d5", "type": "electric_bike", "lat": 38.8730045, "is_disabled": 0}, {"fusion_lat": 0.0, "lon": -77.04227066666667, "is_reserved": 0, "bike_id": "d46d6edaa3fdcd096019e921292b3db9", "fusion_lon": 0.0, "rental_uris": {"android": "https://dc.lft.to/lastmile_qr_scan", "ios": "https://dc.lft.to/lastmile_qr_scan"}, "name": "d46d6edaa3fdcd096019e921292b3db9", "type": "electric_scooter", "lat": 38.92277966666666, "is_disabled": 0}, {"fusion_lat": 0.0, "lon": -76.93077883333333, "is_reserved": 0, "bike_id": "eae72f53fcfd82c473f6adb89a6f8e38", "fusion_lon": 0.0, "rental_uris": {"android": "https://dc.lft.to/lastmile_qr_scan", "ios": "https://dc.lft.to/lastmile_qr_scan"}, "name": "eae72f53fcfd82c473f6adb89a6f8e38", "type": "electric_scooter", "lat": 38.901641833333336, "is_disabled": 0}, {"fusion_lat": 0.0, "lon": -77.0345195, "is_reserved": 0, "bike_id": "4a912d96ec146772b15260163cd73884", "fusion_lon": 0.0, "rental_uris": {"android": "https://dc.lft.to/lastmile_qr_scan", "ios": "https://dc.lft.to/lastmile_qr_scan"}, "name": "4a912d96ec146772b15260163cd73884", "type": "electric_scooter", "lat": 38.90558016666667, "is_disabled": 0}, {"fusion_lat": 0.0, "lon": -77.02162883333334, "is_reserved": 0, "bike_id": "f039fdcd6873705fea69f2751dcc88b8", "fusion_lon": 0.0, "rental_uris": {"android": "https://dc.lft.to/lastmile_qr_scan", "ios": "https://dc.lft.to/lastmile_qr_scan"}, "name": "f039fdcd6873705fea69f2751dcc88b8", "type": "electric_scooter", "lat": 38.926153, "is_disabled": 0}, {"fusion_lat": 0.0, "lon": -77.0369355, "is_reserved": 0, "bike_id": "4c6d29fe9f35cf8c0d602bcbe3f0604b", "fusion_lon": 0.0, "rental_uris": {"android": "https://dc.lft.to/lastmile_qr_scan", "ios": "https://dc.lft.to/lastmile_qr_scan"}, "name": "4c6d29fe9f35cf8c0d602bcbe3f0604b", "type": "electric_scooter", "lat": 38.926121333333334, "is_disabled": 0}, {"fusion_lat": 0.0, "lon": -77.02124616666667, "is_reserved": 0, "bike_id": "865742d9494c54e6873328e58fbf22a8", "fusion_lon": 0.0, "rental_uris": {"android": "https://dc.lft.to/lastmile_qr_scan", "ios": "https://dc.lft.to/lastmile_qr_scan"}, "name": "865742d9494c54e6873328e58fbf22a8", "type": "electric_scooter", "lat": 38.89642833333333, "is_disabled": 0}, {"fusion_lat": 0.0, "lon": -77.127323, "is_reserved": 0, "bike_id": "e22ae73402028ee6820dbbb9609d5b49", "fusion_lon": 0.0, "rental_uris": {"android": "https://dc.lft.to/lastmile_qr_scan", "ios": "https://dc.lft.to/lastmile_qr_scan"}, "name": "e22ae73402028ee6820dbbb9609d5b49", "type": "electric_bike", "lat": 38.895652, "is_disabled": 0}, {"fusion_lat": 0.0, "lon": -77.042392, "is_reserved": 0, "bike_id": "2101c222034a01829df0b1c5575108b8", "fusion_lon": 0.0, "rental_uris": {"android": "https://dc.lft.to/lastmile_qr_scan", "ios": "https://dc.lft.to/lastmile_qr_scan"}, "name": "2101c222034a01829df0b1c5575108b8", "type": "electric_scooter", "lat": 38.92185716666667, "is_disabled": 0}, {"fusion_lat": 0.0, "lon": -76.9947805, "is_reserved": 0, "bike_id": "96bd13873de335ba972cf6f52e08fadb", "fusion_lon": 0.0, "rental_uris": {"android": "https://dc.lft.to/lastmile_qr_scan", "ios": "https://dc.lft.to/lastmile_qr_scan"}, "name": "96bd13873de335ba972cf6f52e08fadb", "type": "electric_scooter", "lat": 38.862166, "is_disabled": 0}, {"fusion_lat": 0.0, "lon": -77.025974, "is_reserved": 0, "bike_id": "4e6e9ae5a84338ff290c39a0be53260a", "fusion_lon": 0.0, "rental_uris": {"android": "https://dc.lft.to/lastmile_qr_scan", "ios": "https://dc.lft.to/lastmile_qr_scan"}, "name": "4e6e9ae5a84338ff290c39a0be53260a", "type": "electric_scooter", "lat": 38.92582983333333, "is_disabled": 0}, {"fusion_lat": 0.0, "lon": -77.04757283333333, "is_reserved": 0, "bike_id": "71c5f553a39ba366486a35cd666236ca", "fusion_lon": 0.0, "rental_uris": {"android": "https://dc.lft.to/lastmile_qr_scan", "ios": "https://dc.lft.to/lastmile_qr_scan"}, "name": "71c5f553a39ba366486a35cd666236ca", "type": "electric_scooter", "lat": 38.90221866666667, "is_disabled": 0}, {"fusion_lat": 0.0, "lon": -77.02162066666666, "is_reserved": 0, "bike_id": "66b4a4d89054672374266c1cddd2593a", "fusion_lon": 0.0, "rental_uris": {"android": "https://dc.lft.to/lastmile_qr_scan", "ios": "https://dc.lft.to/lastmile_qr_scan"}, "name": "66b4a4d89054672374266c1cddd2593a", "type": "electric_scooter", "lat": 38.9290615, "is_disabled": 0}, {"fusion_lat": 0.0, "lon": -77.03841216666666, "is_reserved": 0, "bike_id": "81ae5b9260e22ce0081b53667e393533", "fusion_lon": 0.0, "rental_uris": {"android": "https://dc.lft.to/lastmile_qr_scan", "ios": "https://dc.lft.to/lastmile_qr_scan"}, "name": "81ae5b9260e22ce0081b53667e393533", "type": "electric_scooter", "lat": 38.90808716666667, "is_disabled": 0}, {"fusion_lat": 0.0, "lon": -77.03160433333333, "is_reserved": 0, "bike_id": "2f0aff6ee989b809a992562be853e014", "fusion_lon": 0.0, "rental_uris": {"android": "https://dc.lft.to/lastmile_qr_scan", "ios": "https://dc.lft.to/lastmile_qr_scan"}, "name": "2f0aff6ee989b809a992562be853e014", "type": "electric_scooter", "lat": 38.90361133333333, "is_disabled": 0}, {"fusion_lat": 0.0, "lon": -77.01775433333333, "is_reserved": 0, "bike_id": "1656bf0c378c681a4ccb0fc9ad1a94f9", "fusion_lon": 0.0, "rental_uris": {"android": "https://dc.lft.to/lastmile_qr_scan", "ios": "https://dc.lft.to/lastmile_qr_scan"}, "name": "1656bf0c378c681a4ccb0fc9ad1a94f9", "type": "electric_scooter", "lat": 38.88714866666667, "is_disabled": 0}, {"fusion_lat": 0.0, "lon": -77.021565, "is_reserved": 0, "bike_id": "7a82a5091c4635ec413ed4cb658a75fd", "fusion_lon": 0.0, "rental_uris": {"android": "https://dc.lft.to/lastmile_qr_scan", "ios": "https://dc.lft.to/lastmile_qr_scan"}, "name": "7a82a5091c4635ec413ed4cb658a75fd", "type": "electric_scooter", "lat": 38.926086, "is_disabled": 0}, {"fusion_lat": 0.0, "lon": -77.04207733333334, "is_reserved": 0, "bike_id": "a13d57642c0684e521264354d5a96124", "fusion_lon": 0.0, "rental_uris": {"android": "https://dc.lft.to/lastmile_qr_scan", "ios": "https://dc.lft.to/lastmile_qr_scan"}, "name": "a13d57642c0684e521264354d5a96124", "type": "electric_scooter", "lat": 38.91699716666667, "is_disabled": 0}, {"fusion_lat": 0.0, "lon": -77.0673195, "is_reserved": 0, "bike_id": "2eaf411a84c08ad3f47f473f5b90423b", "fusion_lon": 0.0, "rental_uris": {"android": "https://dc.lft.to/lastmile_qr_scan", "ios": "https://dc.lft.to/lastmile_qr_scan"}, "name": "2eaf411a84c08ad3f47f473f5b90423b", "type": "electric_scooter", "lat": 38.9068955, "is_disabled": 0}, {"fusion_lat": 0.0, "lon": -77.03384683333333, "is_reserved": 0, "bike_id": "1d939085d6ed96f745d803127c6fdfcb", "fusion_lon": 0.0, "rental_uris": {"android": "https://dc.lft.to/lastmile_qr_scan", "ios": "https://dc.lft.to/lastmile_qr_scan"}, "name": "1d939085d6ed96f745d803127c6fdfcb", "type": "electric_scooter", "lat": 38.92358883333333, "is_disabled": 0}, {"fusion_lat": 0.0, "lon": -76.996535, "is_reserved": 0, "bike_id": "c4c2a020386e93a71dbe091fb569a09b", "fusion_lon": 0.0, "rental_uris": {"android": "https://dc.lft.to/lastmile_qr_scan", "ios": "https://dc.lft.to/lastmile_qr_scan"}, "name": "c4c2a020386e93a71dbe091fb569a09b", "type": "electric_bike", "lat": 38.988308333333336, "is_disabled": 0}, {"fusion_lat": 0.0, "lon": -76.98843483333333, "is_reserved": 0, "bike_id": "bea5b80389b5b38484cd7e1fe237cc21", "fusion_lon": 0.0, "rental_uris": {"android": "https://dc.lft.to/lastmile_qr_scan", "ios": "https://dc.lft.to/lastmile_qr_scan"}, "name": "bea5b80389b5b38484cd7e1fe237cc21", "type": "electric_scooter", "lat": 38.90042283333333, "is_disabled": 0}, {"fusion_lat": 0.0, "lon": -77.00748566666667, "is_reserved": 0, "bike_id": "d9a00f4ab854599c3bf33d1504bfc7cd", "fusion_lon": 0.0, "rental_uris": {"android": "https://dc.lft.to/lastmile_qr_scan", "ios": "https://dc.lft.to/lastmile_qr_scan"}, "name": "d9a00f4ab854599c3bf33d1504bfc7cd", "type": "electric_scooter", "lat": 38.9006145, "is_disabled": 0}, {"fusion_lat": 0.0, "lon": -77.0481805, "is_reserved": 0, "bike_id": "c197c87298c1d11b97444e6994cf202f", "fusion_lon": 0.0, "rental_uris": {"android": "https://dc.lft.to/lastmile_qr_scan", "ios": "https://dc.lft.to/lastmile_qr_scan"}, "name": "c197c87298c1d11b97444e6994cf202f", "type": "electric_scooter", "lat": 38.9048305, "is_disabled": 0}, {"fusion_lat": 0.0, "lon": -77.02612016666667, "is_reserved": 0, "bike_id": "df0b29e5b2173608685f7fe3f49ffdfe", "fusion_lon": 0.0, "rental_uris": {"android": "https://dc.lft.to/lastmile_qr_scan", "ios": "https://dc.lft.to/lastmile_qr_scan"}, "name": "df0b29e5b2173608685f7fe3f49ffdfe", "type": "electric_scooter", "lat": 38.89840616666667, "is_disabled": 0}, {"fusion_lat": 0.0, "lon": -77.07415066666667, "is_reserved": 0, "bike_id": "cf7a885764d1b93b39766d04dc06ab97", "fusion_lon": 0.0, "rental_uris": {"android": "https://dc.lft.to/lastmile_qr_scan", "ios": "https://dc.lft.to/lastmile_qr_scan"}, "name": "cf7a885764d1b93b39766d04dc06ab97", "type": "electric_scooter", "lat": 38.92888933333333, "is_disabled": 0}, {"fusion_lat": 0.0, "lon": -77.0280795, "is_reserved": 0, "bike_id": "5626a24ff4244968dd2bd1fdc9398e63", "fusion_lon": 0.0, "rental_uris": {"android": "https://dc.lft.to/lastmile_qr_scan", "ios": "https://dc.lft.to/lastmile_qr_scan"}, "name": "5626a24ff4244968dd2bd1fdc9398e63", "type": "electric_scooter", "lat": 38.899791, "is_disabled": 0}, {"fusion_lat": 0.0, "lon": -76.98597933333333, "is_reserved": 0, "bike_id": "9ad6489dce8ee878e481d086aa1d47d6", "fusion_lon": 0.0, "rental_uris": {"android": "https://dc.lft.to/lastmile_qr_scan", "ios": "https://dc.lft.to/lastmile_qr_scan"}, "name": "9ad6489dce8ee878e481d086aa1d47d6", "type": "electric_scooter", "lat": 38.900144833333336, "is_disabled": 0}, {"fusion_lat": 0.0, "lon": -76.9348335, "is_reserved": 0, "bike_id": "e0b2e286ff58fe53370f985eddb25d72", "fusion_lon": 0.0, "rental_uris": {"android": "https://dc.lft.to/lastmile_qr_scan", "ios": "https://dc.lft.to/lastmile_qr_scan"}, "name": "e0b2e286ff58fe53370f985eddb25d72", "type": "electric_scooter", "lat": 38.90585766666667, "is_disabled": 0}, {"fusion_lat": 0.0, "lon": -77.06342483333333, "is_reserved": 0, "bike_id": "bfca1d2fd4a3ee451c055693f53c6310", "fusion_lon": 0.0, "rental_uris": {"android": "https://dc.lft.to/lastmile_qr_scan", "ios": "https://dc.lft.to/lastmile_qr_scan"}, "name": "bfca1d2fd4a3ee451c055693f53c6310", "type": "electric_scooter", "lat": 38.907379, "is_disabled": 0}, {"fusion_lat": 0.0, "lon": -76.9891425, "is_reserved": 0, "bike_id": "fe95592f4c46cfe1ab348d11142867fe", "fusion_lon": 0.0, "rental_uris": {"android": "https://dc.lft.to/lastmile_qr_scan", "ios": "https://dc.lft.to/lastmile_qr_scan"}, "name": "fe95592f4c46cfe1ab348d11142867fe", "type": "electric_scooter", "lat": 38.864930666666666, "is_disabled": 0}, {"fusion_lat": 0.0, "lon": -77.06595666666666, "is_reserved": 0, "bike_id": "7a4fa3dfe64721a76e81b12915d7e901", "fusion_lon": 0.0, "rental_uris": {"android": "https://dc.lft.to/lastmile_qr_scan", "ios": "https://dc.lft.to/lastmile_qr_scan"}, "name": "7a4fa3dfe64721a76e81b12915d7e901", "type": "electric_scooter", "lat": 38.904110833333334, "is_disabled": 0}, {"fusion_lat": 0.0, "lon": -77.03129716666666, "is_reserved": 0, "bike_id": "33af083ea31689a5d00222d01dcc12b9", "fusion_lon": 0.0, "rental_uris": {"android": "https://dc.lft.to/lastmile_qr_scan", "ios": "https://dc.lft.to/lastmile_qr_scan"}, "name": "33af083ea31689a5d00222d01dcc12b9", "type": "electric_bike", "lat": 38.89893633333333, "is_disabled": 0}, {"fusion_lat": 0.0, "lon": -77.03896533333334, "is_reserved": 0, "bike_id": "a94841fbb0cc3e44ceefd0df75ab9d1c", "fusion_lon": 0.0, "rental_uris": {"android": "https://dc.lft.to/lastmile_qr_scan", "ios": "https://dc.lft.to/lastmile_qr_scan"}, "name": "a94841fbb0cc3e44ceefd0df75ab9d1c", "type": "electric_scooter", "lat": 38.90654966666666, "is_disabled": 0}, {"fusion_lat": 0.0, "lon": -77.012489, "is_reserved": 0, "bike_id": "fc6d238de4733920d819aed42519af2c", "fusion_lon": 0.0, "rental_uris": {"android": "https://dc.lft.to/lastmile_qr_scan", "ios": "https://dc.lft.to/lastmile_qr_scan"}, "name": "fc6d238de4733920d819aed42519af2c", "type": "electric_scooter", "lat": 38.9157685, "is_disabled": 0}, {"fusion_lat": 0.0, "lon": -77.02434416666667, "is_reserved": 0, "bike_id": "9d2846890d90b794f3feaaab550df774", "fusion_lon": 0.0, "rental_uris": {"android": "https://dc.lft.to/lastmile_qr_scan", "ios": "https://dc.lft.to/lastmile_qr_scan"}, "name": "9d2846890d90b794f3feaaab550df774", "type": "electric_scooter", "lat": 38.930983166666664, "is_disabled": 0}, {"fusion_lat": 0.0, "lon": -77.02713916666667, "is_reserved": 0, "bike_id": "3b3c78f68595dbe00597d67f2dcaf5fa", "fusion_lon": 0.0, "rental_uris": {"android": "https://dc.lft.to/lastmile_qr_scan", "ios": "https://dc.lft.to/lastmile_qr_scan"}, "name": "3b3c78f68595dbe00597d67f2dcaf5fa", "type": "electric_scooter", "lat": 38.92465833333333, "is_disabled": 0}, {"fusion_lat": 0.0, "lon": -77.02313833333334, "is_reserved": 0, "bike_id": "b9f610d4aa9fabf7f909c3661c156f80", "fusion_lon": 0.0, "rental_uris": {"android": "https://dc.lft.to/lastmile_qr_scan", "ios": "https://dc.lft.to/lastmile_qr_scan"}, "name": "b9f610d4aa9fabf7f909c3661c156f80", "type": "electric_scooter", "lat": 38.91842333333334, "is_disabled": 0}, {"fusion_lat": 0.0, "lon": -76.94596583333333, "is_reserved": 0, "bike_id": "d448efd0e898a96306e21bb0fd4a936b", "fusion_lon": 0.0, "rental_uris": {"android": "https://dc.lft.to/lastmile_qr_scan", "ios": "https://dc.lft.to/lastmile_qr_scan"}, "name": "d448efd0e898a96306e21bb0fd4a936b", "type": "electric_scooter", "lat": 38.901615166666666, "is_disabled": 0}, {"fusion_lat": 0.0, "lon": -76.99954533333333, "is_reserved": 0, "bike_id": "1f8140067b3adc04228ad82422f56035", "fusion_lon": 0.0, "rental_uris": {"android": "https://dc.lft.to/lastmile_qr_scan", "ios": "https://dc.lft.to/lastmile_qr_scan"}, "name": "1f8140067b3adc04228ad82422f56035", "type": "electric_scooter", "lat": 38.90683716666667, "is_disabled": 0}, {"fusion_lat": 0.0, "lon": -77.03913133333333, "is_reserved": 0, "bike_id": "e09f6896507aa9b0f6e23d8f0f7cfde5", "fusion_lon": 0.0, "rental_uris": {"android": "https://dc.lft.to/lastmile_qr_scan", "ios": "https://dc.lft.to/lastmile_qr_scan"}, "name": "e09f6896507aa9b0f6e23d8f0f7cfde5", "type": "electric_scooter", "lat": 38.93254533333333, "is_disabled": 0}, {"fusion_lat": 0.0, "lon": -76.97396216666667, "is_reserved": 0, "bike_id": "9e7882d85fc3eabd78cd0c37fab14e16", "fusion_lon": 0.0, "rental_uris": {"android": "https://dc.lft.to/lastmile_qr_scan", "ios": "https://dc.lft.to/lastmile_qr_scan"}, "name": "9e7882d85fc3eabd78cd0c37fab14e16", "type": "electric_scooter", "lat": 38.902992833333336, "is_disabled": 0}, {"fusion_lat": 0.0, "lon": -77.09850216666666, "is_reserved": 0, "bike_id": "e231735f122f8a9ffd06da1324680814", "fusion_lon": 0.0, "rental_uris": {"android": "https://dc.lft.to/lastmile_qr_scan", "ios": "https://dc.lft.to/lastmile_qr_scan"}, "name": "e231735f122f8a9ffd06da1324680814", "type": "electric_bike", "lat": 38.848522333333335, "is_disabled": 0}, {"fusion_lat": 0.0, "lon": -77.00079466666666, "is_reserved": 0, "bike_id": "447e9bd625176afed7fc20cfb441348a", "fusion_lon": 0.0, "rental_uris": {"android": "https://dc.lft.to/lastmile_qr_scan", "ios": "https://dc.lft.to/lastmile_qr_scan"}, "name": "447e9bd625176afed7fc20cfb441348a", "type": "electric_scooter", "lat": 38.9071075, "is_disabled": 0}, {"fusion_lat": 0.0, "lon": -77.00055033333334, "is_reserved": 0, "bike_id": "b71770127f56ae9e13e223d45953b6b4", "fusion_lon": 0.0, "rental_uris": {"android": "https://dc.lft.to/lastmile_qr_scan", "ios": "https://dc.lft.to/lastmile_qr_scan"}, "name": "b71770127f56ae9e13e223d45953b6b4", "type": "electric_scooter", "lat": 38.900080833333334, "is_disabled": 0}, {"fusion_lat": 0.0, "lon": -77.01814633333333, "is_reserved": 0, "bike_id": "bb681352265b4eba35e3918df389a929", "fusion_lon": 0.0, "rental_uris": {"android": "https://dc.lft.to/lastmile_qr_scan", "ios": "https://dc.lft.to/lastmile_qr_scan"}, "name": "bb681352265b4eba35e3918df389a929", "type": "electric_scooter", "lat": 38.93044616666667, "is_disabled": 0}, {"fusion_lat": 0.0, "lon": -77.03905733333333, "is_reserved": 0, "bike_id": "616d3727a269290a3bde6659e9831e97", "fusion_lon": 0.0, "rental_uris": {"android": "https://dc.lft.to/lastmile_qr_scan", "ios": "https://dc.lft.to/lastmile_qr_scan"}, "name": "616d3727a269290a3bde6659e9831e97", "type": "electric_scooter", "lat": 38.91871483333333, "is_disabled": 0}, {"fusion_lat": 0.0, "lon": -76.98093933333334, "is_reserved": 0, "bike_id": "f9970d160a8c068f6a4606e1851049d5", "fusion_lon": 0.0, "rental_uris": {"android": "https://dc.lft.to/lastmile_qr_scan", "ios": "https://dc.lft.to/lastmile_qr_scan"}, "name": "f9970d160a8c068f6a4606e1851049d5", "type": "electric_bike", "lat": 38.9536155, "is_disabled": 0}, {"fusion_lat": 0.0, "lon": -77.01351666666666, "is_reserved": 0, "bike_id": "f200da6c2c07717014922af1f4e2f00e", "fusion_lon": 0.0, "rental_uris": {"android": "https://dc.lft.to/lastmile_qr_scan", "ios": "https://dc.lft.to/lastmile_qr_scan"}, "name": "f200da6c2c07717014922af1f4e2f00e", "type": "electric_scooter", "lat": 38.8697735, "is_disabled": 0}, {"fusion_lat": 0.0, "lon": -77.0162925, "is_reserved": 0, "bike_id": "35432c2ca108c5e89a50a38965c4e389", "fusion_lon": 0.0, "rental_uris": {"android": "https://dc.lft.to/lastmile_qr_scan", "ios": "https://dc.lft.to/lastmile_qr_scan"}, "name": "35432c2ca108c5e89a50a38965c4e389", "type": "electric_scooter", "lat": 38.928994333333335, "is_disabled": 0}, {"fusion_lat": 0.0, "lon": -77.0216515, "is_reserved": 0, "bike_id": "a15ef8a8f23cf7cecf0180c5cbc62a61", "fusion_lon": 0.0, "rental_uris": {"android": "https://dc.lft.to/lastmile_qr_scan", "ios": "https://dc.lft.to/lastmile_qr_scan"}, "name": "a15ef8a8f23cf7cecf0180c5cbc62a61", "type": "electric_scooter", "lat": 38.926157, "is_disabled": 0}, {"fusion_lat": 0.0, "lon": -77.03911833333333, "is_reserved": 0, "bike_id": "cf99203790c24c960615637b0a96c509", "fusion_lon": 0.0, "rental_uris": {"android": "https://dc.lft.to/lastmile_qr_scan", "ios": "https://dc.lft.to/lastmile_qr_scan"}, "name": "cf99203790c24c960615637b0a96c509", "type": "electric_scooter", "lat": 38.923143333333336, "is_disabled": 0}, {"fusion_lat": 0.0, "lon": -76.995486, "is_reserved": 0, "bike_id": "2feafecbcc4159aa0ca4f1f2c22f58e7", "fusion_lon": 0.0, "rental_uris": {"android": "https://dc.lft.to/lastmile_qr_scan", "ios": "https://dc.lft.to/lastmile_qr_scan"}, "name": "2feafecbcc4159aa0ca4f1f2c22f58e7", "type": "electric_scooter", "lat": 38.86263666666667, "is_disabled": 0}, {"fusion_lat": 0.0, "lon": -77.03851883333333, "is_reserved": 0, "bike_id": "c60be2fa0c323c5198e7011e9d5e4eeb", "fusion_lon": 0.0, "rental_uris": {"android": "https://dc.lft.to/lastmile_qr_scan", "ios": "https://dc.lft.to/lastmile_qr_scan"}, "name": "c60be2fa0c323c5198e7011e9d5e4eeb", "type": "electric_scooter", "lat": 38.91547766666667, "is_disabled": 0}, {"fusion_lat": 0.0, "lon": -76.9954505, "is_reserved": 0, "bike_id": "47925ba48b8bab8cb2a0dd141e4df353", "fusion_lon": 0.0, "rental_uris": {"android": "https://dc.lft.to/lastmile_qr_scan", "ios": "https://dc.lft.to/lastmile_qr_scan"}, "name": "47925ba48b8bab8cb2a0dd141e4df353", "type": "electric_scooter", "lat": 38.9267285, "is_disabled": 0}, {"fusion_lat": 0.0, "lon": -76.931308, "is_reserved": 0, "bike_id": "a58cd22be20d945bc3110e01cd8296f0", "fusion_lon": 0.0, "rental_uris": {"android": "https://dc.lft.to/lastmile_qr_scan", "ios": "https://dc.lft.to/lastmile_qr_scan"}, "name": "a58cd22be20d945bc3110e01cd8296f0", "type": "electric_scooter", "lat": 38.876145333333334, "is_disabled": 0}, {"fusion_lat": 0.0, "lon": -77.0487105, "is_reserved": 0, "bike_id": "43463667c7918e5b3b3cb9bb9046a78c", "fusion_lon": 0.0, "rental_uris": {"android": "https://dc.lft.to/lastmile_qr_scan", "ios": "https://dc.lft.to/lastmile_qr_scan"}, "name": "43463667c7918e5b3b3cb9bb9046a78c", "type": "electric_scooter", "lat": 38.909803, "is_disabled": 0}, {"fusion_lat": 0.0, "lon": -77.02361966666666, "is_reserved": 0, "bike_id": "b6e47722e08af3998d59e522ad1fa6d9", "fusion_lon": 0.0, "rental_uris": {"android": "https://dc.lft.to/lastmile_qr_scan", "ios": "https://dc.lft.to/lastmile_qr_scan"}, "name": "b6e47722e08af3998d59e522ad1fa6d9", "type": "electric_scooter", "lat": 38.892199833333336, "is_disabled": 0}, {"fusion_lat": 0.0, "lon": -77.02542433333333, "is_reserved": 0, "bike_id": "656449ee52d07ad922bfce90e4b2b8da", "fusion_lon": 0.0, "rental_uris": {"android": "https://dc.lft.to/lastmile_qr_scan", "ios": "https://dc.lft.to/lastmile_qr_scan"}, "name": "656449ee52d07ad922bfce90e4b2b8da", "type": "electric_scooter", "lat": 38.9071915, "is_disabled": 0}, {"fusion_lat": 0.0, "lon": -77.048786, "is_reserved": 0, "bike_id": "3541dc3dda6715fa275a5ec7ac5b7d2e", "fusion_lon": 0.0, "rental_uris": {"android": "https://dc.lft.to/lastmile_qr_scan", "ios": "https://dc.lft.to/lastmile_qr_scan"}, "name": "3541dc3dda6715fa275a5ec7ac5b7d2e", "type": "electric_scooter", "lat": 38.90119, "is_disabled": 0}, {"fusion_lat": 0.0, "lon": -77.01980633333334, "is_reserved": 0, "bike_id": "8a2051a1ac1a3650171ce5a20ef5b734", "fusion_lon": 0.0, "rental_uris": {"android": "https://dc.lft.to/lastmile_qr_scan", "ios": "https://dc.lft.to/lastmile_qr_scan"}, "name": "8a2051a1ac1a3650171ce5a20ef5b734", "type": "electric_scooter", "lat": 38.9127555, "is_disabled": 0}, {"fusion_lat": 0.0, "lon": -77.019847, "is_reserved": 0, "bike_id": "ed5b71f7961c290aef3c853b063cdff5", "fusion_lon": 0.0, "rental_uris": {"android": "https://dc.lft.to/lastmile_qr_scan", "ios": "https://dc.lft.to/lastmile_qr_scan"}, "name": "ed5b71f7961c290aef3c853b063cdff5", "type": "electric_scooter", "lat": 38.9110215, "is_disabled": 0}, {"fusion_lat": 0.0, "lon": -77.03131783333333, "is_reserved": 0, "bike_id": "3dcd1e4063780617883ce3d99a59c89c", "fusion_lon": 0.0, "rental_uris": {"android": "https://dc.lft.to/lastmile_qr_scan", "ios": "https://dc.lft.to/lastmile_qr_scan"}, "name": "3dcd1e4063780617883ce3d99a59c89c", "type": "electric_scooter", "lat": 38.925762, "is_disabled": 0}, {"fusion_lat": 0.0, "lon": -77.02618266666667, "is_reserved": 0, "bike_id": "1d0d5a86f08fe7f6a55287d31680daac", "fusion_lon": 0.0, "rental_uris": {"android": "https://dc.lft.to/lastmile_qr_scan", "ios": "https://dc.lft.to/lastmile_qr_scan"}, "name": "1d0d5a86f08fe7f6a55287d31680daac", "type": "electric_scooter", "lat": 38.9086465, "is_disabled": 0}, {"fusion_lat": 0.0, "lon": -77.035128, "is_reserved": 0, "bike_id": "dd0cffa3d680a27a0b77a4f097d82a40", "fusion_lon": 0.0, "rental_uris": {"android": "https://dc.lft.to/lastmile_qr_scan", "ios": "https://dc.lft.to/lastmile_qr_scan"}, "name": "dd0cffa3d680a27a0b77a4f097d82a40", "type": "electric_scooter", "lat": 38.92157733333333, "is_disabled": 0}, {"fusion_lat": 0.0, "lon": -77.02111833333333, "is_reserved": 0, "bike_id": "43a6ead45060f6bfe1e638c0364f681a", "fusion_lon": 0.0, "rental_uris": {"android": "https://dc.lft.to/lastmile_qr_scan", "ios": "https://dc.lft.to/lastmile_qr_scan"}, "name": "43a6ead45060f6bfe1e638c0364f681a", "type": "electric_scooter", "lat": 38.924685333333336, "is_disabled": 0}, {"fusion_lat": 0.0, "lon": -77.05049533333333, "is_reserved": 0, "bike_id": "e510129a40ef686ec0a542d0f32ce8ea", "fusion_lon": 0.0, "rental_uris": {"android": "https://dc.lft.to/lastmile_qr_scan", "ios": "https://dc.lft.to/lastmile_qr_scan"}, "name": "e510129a40ef686ec0a542d0f32ce8ea", "type": "electric_scooter", "lat": 38.92375466666667, "is_disabled": 0}, {"fusion_lat": 0.0, "lon": -77.051558, "is_reserved": 0, "bike_id": "63af1dc3cfe3f35d7df8cfa37bf2c5de", "fusion_lon": 0.0, "rental_uris": {"android": "https://dc.lft.to/lastmile_qr_scan", "ios": "https://dc.lft.to/lastmile_qr_scan"}, "name": "63af1dc3cfe3f35d7df8cfa37bf2c5de", "type": "electric_scooter", "lat": 38.90550916666667, "is_disabled": 0}, {"fusion_lat": 0.0, "lon": -77.0385025, "is_reserved": 0, "bike_id": "2ed70046051bab0487254d4ad0fd64dc", "fusion_lon": 0.0, "rental_uris": {"android": "https://dc.lft.to/lastmile_qr_scan", "ios": "https://dc.lft.to/lastmile_qr_scan"}, "name": "2ed70046051bab0487254d4ad0fd64dc", "type": "electric_scooter", "lat": 38.915571666666665, "is_disabled": 0}, {"fusion_lat": 0.0, "lon": -76.9237115, "is_reserved": 0, "bike_id": "122574c2a659bc738185db31410d3ce1", "fusion_lon": 0.0, "rental_uris": {"android": "https://dc.lft.to/lastmile_qr_scan", "ios": "https://dc.lft.to/lastmile_qr_scan"}, "name": "122574c2a659bc738185db31410d3ce1", "type": "electric_bike", "lat": 38.8837605, "is_disabled": 0}, {"fusion_lat": 0.0, "lon": -77.034653, "is_reserved": 0, "bike_id": "e5c2aa439e5fa6577f0fbfb586b1eb3a", "fusion_lon": 0.0, "rental_uris": {"android": "https://dc.lft.to/lastmile_qr_scan", "ios": "https://dc.lft.to/lastmile_qr_scan"}, "name": "e5c2aa439e5fa6577f0fbfb586b1eb3a", "type": "electric_scooter", "lat": 38.90806, "is_disabled": 0}, {"fusion_lat": 0.0, "lon": -76.9319695, "is_reserved": 0, "bike_id": "3730c94eaafa3da80ec127a3855f353a", "fusion_lon": 0.0, "rental_uris": {"android": "https://dc.lft.to/lastmile_qr_scan", "ios": "https://dc.lft.to/lastmile_qr_scan"}, "name": "3730c94eaafa3da80ec127a3855f353a", "type": "electric_scooter", "lat": 38.898790166666664, "is_disabled": 0}, {"fusion_lat": 0.0, "lon": -76.98518216666666, "is_reserved": 0, "bike_id": "1d44dabf8963c9dcb830725ee5a7372f", "fusion_lon": 0.0, "rental_uris": {"android": "https://dc.lft.to/lastmile_qr_scan", "ios": "https://dc.lft.to/lastmile_qr_scan"}, "name": "1d44dabf8963c9dcb830725ee5a7372f", "type": "electric_scooter", "lat": 38.86664, "is_disabled": 0}, {"fusion_lat": 0.0, "lon": -76.93546233333333, "is_reserved": 0, "bike_id": "f3affd4f1c2dc07092d2e7fb8fe82089", "fusion_lon": 0.0, "rental_uris": {"android": "https://dc.lft.to/lastmile_qr_scan", "ios": "https://dc.lft.to/lastmile_qr_scan"}, "name": "f3affd4f1c2dc07092d2e7fb8fe82089", "type": "electric_bike", "lat": 38.955540166666665, "is_disabled": 0}, {"fusion_lat": 0.0, "lon": -76.9855595, "is_reserved": 0, "bike_id": "b1105db003dec5e194a01b689886e07c", "fusion_lon": 0.0, "rental_uris": {"android": "https://dc.lft.to/lastmile_qr_scan", "ios": "https://dc.lft.to/lastmile_qr_scan"}, "name": "b1105db003dec5e194a01b689886e07c", "type": "electric_scooter", "lat": 38.910372833333334, "is_disabled": 0}, {"fusion_lat": 0.0, "lon": -77.0433645, "is_reserved": 0, "bike_id": "1e127953263f248c361d8b00f8a3ac3a", "fusion_lon": 0.0, "rental_uris": {"android": "https://dc.lft.to/lastmile_qr_scan", "ios": "https://dc.lft.to/lastmile_qr_scan"}, "name": "1e127953263f248c361d8b00f8a3ac3a", "type": "electric_scooter", "lat": 38.89831066666667, "is_disabled": 0}, {"fusion_lat": 0.0, "lon": -77.039638, "is_reserved": 0, "bike_id": "31239bb2b06517e6483dccbacb59846f", "fusion_lon": 0.0, "rental_uris": {"android": "https://dc.lft.to/lastmile_qr_scan", "ios": "https://dc.lft.to/lastmile_qr_scan"}, "name": "31239bb2b06517e6483dccbacb59846f", "type": "electric_scooter", "lat": 38.897221333333334, "is_disabled": 0}, {"fusion_lat": 0.0, "lon": -77.02787933333333, "is_reserved": 0, "bike_id": "ad366cdce62b1a4f145c8d94afa54c4d", "fusion_lon": 0.0, "rental_uris": {"android": "https://dc.lft.to/lastmile_qr_scan", "ios": "https://dc.lft.to/lastmile_qr_scan"}, "name": "ad366cdce62b1a4f145c8d94afa54c4d", "type": "electric_scooter", "lat": 38.927687166666665, "is_disabled": 0}, {"fusion_lat": 0.0, "lon": -77.00828033333333, "is_reserved": 0, "bike_id": "61ecc04893c9d2b207488b3af88d55b5", "fusion_lon": 0.0, "rental_uris": {"android": "https://dc.lft.to/lastmile_qr_scan", "ios": "https://dc.lft.to/lastmile_qr_scan"}, "name": "61ecc04893c9d2b207488b3af88d55b5", "type": "electric_scooter", "lat": 38.9130365, "is_disabled": 0}, {"fusion_lat": 0.0, "lon": -77.026889, "is_reserved": 0, "bike_id": "e83cced4dda754489a65beb51fcb4501", "fusion_lon": 0.0, "rental_uris": {"android": "https://dc.lft.to/lastmile_qr_scan", "ios": "https://dc.lft.to/lastmile_qr_scan"}, "name": "e83cced4dda754489a65beb51fcb4501", "type": "electric_scooter", "lat": 38.898187, "is_disabled": 0}, {"fusion_lat": 0.0, "lon": -76.99711016666667, "is_reserved": 0, "bike_id": "108a662ee3eba6c68e1e651e9ebf421c", "fusion_lon": 0.0, "rental_uris": {"android": "https://dc.lft.to/lastmile_qr_scan", "ios": "https://dc.lft.to/lastmile_qr_scan"}, "name": "108a662ee3eba6c68e1e651e9ebf421c", "type": "electric_scooter", "lat": 38.91107816666667, "is_disabled": 0}, {"fusion_lat": 0.0, "lon": -77.10911466666667, "is_reserved": 0, "bike_id": "d97b065a1bbb57c1e4b4e62c74d63c50", "fusion_lon": 0.0, "rental_uris": {"android": "https://dc.lft.to/lastmile_qr_scan", "ios": "https://dc.lft.to/lastmile_qr_scan"}, "name": "d97b065a1bbb57c1e4b4e62c74d63c50", "type": "electric_bike", "lat": 39.0521255, "is_disabled": 0}, {"fusion_lat": 0.0, "lon": -77.00197016666667, "is_reserved": 0, "bike_id": "6bbeaf833062b848370e9a0c9d53d18e", "fusion_lon": 0.0, "rental_uris": {"android": "https://dc.lft.to/lastmile_qr_scan", "ios": "https://dc.lft.to/lastmile_qr_scan"}, "name": "6bbeaf833062b848370e9a0c9d53d18e", "type": "electric_scooter", "lat": 38.900346666666664, "is_disabled": 0}, {"fusion_lat": 0.0, "lon": -76.92999366666666, "is_reserved": 0, "bike_id": "b4ad8a6c991cf1a4fb7ff3856f8e5407", "fusion_lon": 0.0, "rental_uris": {"android": "https://dc.lft.to/lastmile_qr_scan", "ios": "https://dc.lft.to/lastmile_qr_scan"}, "name": "b4ad8a6c991cf1a4fb7ff3856f8e5407", "type": "electric_scooter", "lat": 38.901893666666666, "is_disabled": 0}, {"fusion_lat": 0.0, "lon": -77.04662183333333, "is_reserved": 0, "bike_id": "40ce0b9ff8f9368d17b8ba46e6c8494a", "fusion_lon": 0.0, "rental_uris": {"android": "https://dc.lft.to/lastmile_qr_scan", "ios": "https://dc.lft.to/lastmile_qr_scan"}, "name": "40ce0b9ff8f9368d17b8ba46e6c8494a", "type": "electric_scooter", "lat": 38.90356766666667, "is_disabled": 0}, {"fusion_lat": 0.0, "lon": -77.04824083333334, "is_reserved": 0, "bike_id": "b4a15c3c8249558ccc766dcbdf33c77e", "fusion_lon": 0.0, "rental_uris": {"android": "https://dc.lft.to/lastmile_qr_scan", "ios": "https://dc.lft.to/lastmile_qr_scan"}, "name": "b4a15c3c8249558ccc766dcbdf33c77e", "type": "electric_scooter", "lat": 38.90507516666667, "is_disabled": 0}, {"fusion_lat": 0.0, "lon": -77.03833366666667, "is_reserved": 0, "bike_id": "1eda2ca90fb07f06a40a327a056651d4", "fusion_lon": 0.0, "rental_uris": {"android": "https://dc.lft.to/lastmile_qr_scan", "ios": "https://dc.lft.to/lastmile_qr_scan"}, "name": "1eda2ca90fb07f06a40a327a056651d4", "type": "electric_scooter", "lat": 38.906794166666664, "is_disabled": 0}, {"fusion_lat": 0.0, "lon": -77.028323, "is_reserved": 0, "bike_id": "da19feffe105942e3a4691cb1ef8f70c", "fusion_lon": 0.0, "rental_uris": {"android": "https://dc.lft.to/lastmile_qr_scan", "ios": "https://dc.lft.to/lastmile_qr_scan"}, "name": "da19feffe105942e3a4691cb1ef8f70c", "type": "electric_scooter", "lat": 38.92471333333334, "is_disabled": 0}, {"fusion_lat": 0.0, "lon": -77.0219245, "is_reserved": 0, "bike_id": "9d91e3ebd4f24b4717156f08cea04673", "fusion_lon": 0.0, "rental_uris": {"android": "https://dc.lft.to/lastmile_qr_scan", "ios": "https://dc.lft.to/lastmile_qr_scan"}, "name": "9d91e3ebd4f24b4717156f08cea04673", "type": "electric_scooter", "lat": 38.911330166666666, "is_disabled": 0}, {"fusion_lat": 0.0, "lon": -77.01415033333333, "is_reserved": 0, "bike_id": "eb86ed352572333da36a8d57e34f6785", "fusion_lon": 0.0, "rental_uris": {"android": "https://dc.lft.to/lastmile_qr_scan", "ios": "https://dc.lft.to/lastmile_qr_scan"}, "name": "eb86ed352572333da36a8d57e34f6785", "type": "electric_scooter", "lat": 38.928415333333334, "is_disabled": 0}, {"fusion_lat": 0.0, "lon": -77.02476366666667, "is_reserved": 0, "bike_id": "59de1234251d303efb6a0e0988386eb5", "fusion_lon": 0.0, "rental_uris": {"android": "https://dc.lft.to/lastmile_qr_scan", "ios": "https://dc.lft.to/lastmile_qr_scan"}, "name": "59de1234251d303efb6a0e0988386eb5", "type": "electric_scooter", "lat": 38.93868616666666, "is_disabled": 0}, {"fusion_lat": 0.0, "lon": -77.0004375, "is_reserved": 0, "bike_id": "d9d9fd74f9726749e2fa52ac988281bf", "fusion_lon": 0.0, "rental_uris": {"android": "https://dc.lft.to/lastmile_qr_scan", "ios": "https://dc.lft.to/lastmile_qr_scan"}, "name": "d9d9fd74f9726749e2fa52ac988281bf", "type": "electric_scooter", "lat": 38.896425666666666, "is_disabled": 0}, {"fusion_lat": 0.0, "lon": -77.0086525, "is_reserved": 0, "bike_id": "4953a3dd37e28b73618345ee3cdf2684", "fusion_lon": 0.0, "rental_uris": {"android": "https://dc.lft.to/lastmile_qr_scan", "ios": "https://dc.lft.to/lastmile_qr_scan"}, "name": "4953a3dd37e28b73618345ee3cdf2684", "type": "electric_scooter", "lat": 38.906415833333334, "is_disabled": 0}, {"fusion_lat": 0.0, "lon": -77.02457383333333, "is_reserved": 0, "bike_id": "5945e9c36c2ff394b5f5133a16ff1dc2", "fusion_lon": 0.0, "rental_uris": {"android": "https://dc.lft.to/lastmile_qr_scan", "ios": "https://dc.lft.to/lastmile_qr_scan"}, "name": "5945e9c36c2ff394b5f5133a16ff1dc2", "type": "electric_scooter", "lat": 38.900289, "is_disabled": 0}, {"fusion_lat": 0.0, "lon": -77.03852233333333, "is_reserved": 0, "bike_id": "bfef9d25396ecf7fd9ab36d1215c07e9", "fusion_lon": 0.0, "rental_uris": {"android": "https://dc.lft.to/lastmile_qr_scan", "ios": "https://dc.lft.to/lastmile_qr_scan"}, "name": "bfef9d25396ecf7fd9ab36d1215c07e9", "type": "electric_scooter", "lat": 38.90263016666667, "is_disabled": 0}, {"fusion_lat": 0.0, "lon": -77.028013, "is_reserved": 0, "bike_id": "683c4a03c617616a6615ce628d58aab0", "fusion_lon": 0.0, "rental_uris": {"android": "https://dc.lft.to/lastmile_qr_scan", "ios": "https://dc.lft.to/lastmile_qr_scan"}, "name": "683c4a03c617616a6615ce628d58aab0", "type": "electric_scooter", "lat": 38.89232066666667, "is_disabled": 0}, {"fusion_lat": 0.0, "lon": -77.0131985, "is_reserved": 0, "bike_id": "d3f2ad738ee64bbcdbf8fb2a983de376", "fusion_lon": 0.0, "rental_uris": {"android": "https://dc.lft.to/lastmile_qr_scan", "ios": "https://dc.lft.to/lastmile_qr_scan"}, "name": "d3f2ad738ee64bbcdbf8fb2a983de376", "type": "electric_scooter", "lat": 38.871638833333336, "is_disabled": 0}, {"fusion_lat": 0.0, "lon": -76.99548933333334, "is_reserved": 0, "bike_id": "49af5cd101f707e2496dbbe60532b695", "fusion_lon": 0.0, "rental_uris": {"android": "https://dc.lft.to/lastmile_qr_scan", "ios": "https://dc.lft.to/lastmile_qr_scan"}, "name": "49af5cd101f707e2496dbbe60532b695", "type": "electric_scooter", "lat": 38.862592666666664, "is_disabled": 0}, {"fusion_lat": 0.0, "lon": -77.04305183333334, "is_reserved": 0, "bike_id": "50622579f73cecf8789e4f29bec23521", "fusion_lon": 0.0, "rental_uris": {"android": "https://dc.lft.to/lastmile_qr_scan", "ios": "https://dc.lft.to/lastmile_qr_scan"}, "name": "50622579f73cecf8789e4f29bec23521", "type": "electric_scooter", "lat": 38.92328933333334, "is_disabled": 0}, {"fusion_lat": 0.0, "lon": -77.01749533333333, "is_reserved": 0, "bike_id": "7b3ccc2574336293b0a855490c458e92", "fusion_lon": 0.0, "rental_uris": {"android": "https://dc.lft.to/lastmile_qr_scan", "ios": "https://dc.lft.to/lastmile_qr_scan"}, "name": "7b3ccc2574336293b0a855490c458e92", "type": "electric_scooter", "lat": 38.88323316666666, "is_disabled": 0}, {"fusion_lat": 0.0, "lon": -77.038659, "is_reserved": 0, "bike_id": "7a360f23548513a035805edbfa9b7c7d", "fusion_lon": 0.0, "rental_uris": {"android": "https://dc.lft.to/lastmile_qr_scan", "ios": "https://dc.lft.to/lastmile_qr_scan"}, "name": "7a360f23548513a035805edbfa9b7c7d", "type": "electric_scooter", "lat": 38.907923333333336, "is_disabled": 0}, {"fusion_lat": 0.0, "lon": -77.08653416666667, "is_reserved": 0, "bike_id": "51313c43eb7b2581cbe0e70932bc2523", "fusion_lon": 0.0, "rental_uris": {"android": "https://dc.lft.to/lastmile_qr_scan", "ios": "https://dc.lft.to/lastmile_qr_scan"}, "name": "51313c43eb7b2581cbe0e70932bc2523", "type": "electric_bike", "lat": 38.862511166666664, "is_disabled": 0}, {"fusion_lat": 0.0, "lon": -77.0289645, "is_reserved": 0, "bike_id": "6679e9d04b14cec286132ecfd22cb009", "fusion_lon": 0.0, "rental_uris": {"android": "https://dc.lft.to/lastmile_qr_scan", "ios": "https://dc.lft.to/lastmile_qr_scan"}, "name": "6679e9d04b14cec286132ecfd22cb009", "type": "electric_scooter", "lat": 38.917094666666664, "is_disabled": 0}, {"fusion_lat": 0.0, "lon": -76.9945945, "is_reserved": 0, "bike_id": "c8df0a0637adf39aea8e0e0e19991ec8", "fusion_lon": 0.0, "rental_uris": {"android": "https://dc.lft.to/lastmile_qr_scan", "ios": "https://dc.lft.to/lastmile_qr_scan"}, "name": "c8df0a0637adf39aea8e0e0e19991ec8", "type": "electric_bike", "lat": 38.96618866666667, "is_disabled": 0}, {"fusion_lat": 0.0, "lon": -77.03077816666666, "is_reserved": 0, "bike_id": "cdefb5f4c2bf78bcc07d35fd7649e437", "fusion_lon": 0.0, "rental_uris": {"android": "https://dc.lft.to/lastmile_qr_scan", "ios": "https://dc.lft.to/lastmile_qr_scan"}, "name": "cdefb5f4c2bf78bcc07d35fd7649e437", "type": "electric_scooter", "lat": 38.92386533333333, "is_disabled": 0}, {"fusion_lat": 0.0, "lon": -77.046956, "is_reserved": 0, "bike_id": "d67e6402fdc5d0b69453a58086fa65b2", "fusion_lon": 0.0, "rental_uris": {"android": "https://dc.lft.to/lastmile_qr_scan", "ios": "https://dc.lft.to/lastmile_qr_scan"}, "name": "d67e6402fdc5d0b69453a58086fa65b2", "type": "electric_scooter", "lat": 38.921663833333334, "is_disabled": 0}, {"fusion_lat": 0.0, "lon": -77.03045983333334, "is_reserved": 0, "bike_id": "804af45b115a6e7bda1149748dd535f3", "fusion_lon": 0.0, "rental_uris": {"android": "https://dc.lft.to/lastmile_qr_scan", "ios": "https://dc.lft.to/lastmile_qr_scan"}, "name": "804af45b115a6e7bda1149748dd535f3", "type": "electric_scooter", "lat": 38.88411166666667, "is_disabled": 0}, {"fusion_lat": 0.0, "lon": -77.0037525, "is_reserved": 0, "bike_id": "f6462da274454c677730d4692b8e3ae6", "fusion_lon": 0.0, "rental_uris": {"android": "https://dc.lft.to/lastmile_qr_scan", "ios": "https://dc.lft.to/lastmile_qr_scan"}, "name": "f6462da274454c677730d4692b8e3ae6", "type": "electric_scooter", "lat": 38.89735016666667, "is_disabled": 0}, {"fusion_lat": 0.0, "lon": -77.03548183333334, "is_reserved": 0, "bike_id": "e52e45119817d0c6f9759d0f470a6bb7", "fusion_lon": 0.0, "rental_uris": {"android": "https://dc.lft.to/lastmile_qr_scan", "ios": "https://dc.lft.to/lastmile_qr_scan"}, "name": "e52e45119817d0c6f9759d0f470a6bb7", "type": "electric_scooter", "lat": 38.91710883333333, "is_disabled": 0}, {"fusion_lat": 0.0, "lon": -77.00340516666667, "is_reserved": 0, "bike_id": "5b68f10edfa120aea3ec2d0109536915", "fusion_lon": 0.0, "rental_uris": {"android": "https://dc.lft.to/lastmile_qr_scan", "ios": "https://dc.lft.to/lastmile_qr_scan"}, "name": "5b68f10edfa120aea3ec2d0109536915", "type": "electric_scooter", "lat": 38.90362283333333, "is_disabled": 0}, {"fusion_lat": 0.0, "lon": -77.06913683333333, "is_reserved": 0, "bike_id": "e645848dd8a59627bcb964184a17b350", "fusion_lon": 0.0, "rental_uris": {"android": "https://dc.lft.to/lastmile_qr_scan", "ios": "https://dc.lft.to/lastmile_qr_scan"}, "name": "e645848dd8a59627bcb964184a17b350", "type": "electric_bike", "lat": 38.908405333333334, "is_disabled": 0}, {"fusion_lat": 0.0, "lon": -77.0487235, "is_reserved": 0, "bike_id": "69685f1333dc37ce23324b75989c96d7", "fusion_lon": 0.0, "rental_uris": {"android": "https://dc.lft.to/lastmile_qr_scan", "ios": "https://dc.lft.to/lastmile_qr_scan"}, "name": "69685f1333dc37ce23324b75989c96d7", "type": "electric_scooter", "lat": 38.912070666666665, "is_disabled": 0}, {"fusion_lat": 0.0, "lon": -77.00381383333334, "is_reserved": 0, "bike_id": "ae5d2496ec76e60ece9251f810e86f78", "fusion_lon": 0.0, "rental_uris": {"android": "https://dc.lft.to/lastmile_qr_scan", "ios": "https://dc.lft.to/lastmile_qr_scan"}, "name": "ae5d2496ec76e60ece9251f810e86f78", "type": "electric_scooter", "lat": 38.876368166666666, "is_disabled": 0}, {"fusion_lat": 0.0, "lon": -77.044958, "is_reserved": 0, "bike_id": "797306ff17230b11d3bbf76341518f21", "fusion_lon": 0.0, "rental_uris": {"android": "https://dc.lft.to/lastmile_qr_scan", "ios": "https://dc.lft.to/lastmile_qr_scan"}, "name": "797306ff17230b11d3bbf76341518f21", "type": "electric_scooter", "lat": 38.90512016666667, "is_disabled": 0}, {"fusion_lat": 0.0, "lon": -77.03751783333334, "is_reserved": 0, "bike_id": "27eb671e42cfae7dd2e99e6838574a4c", "fusion_lon": 0.0, "rental_uris": {"android": "https://dc.lft.to/lastmile_qr_scan", "ios": "https://dc.lft.to/lastmile_qr_scan"}, "name": "27eb671e42cfae7dd2e99e6838574a4c", "type": "electric_scooter", "lat": 38.91104133333333, "is_disabled": 0}, {"fusion_lat": 0.0, "lon": -77.02396933333333, "is_reserved": 0, "bike_id": "a342a334f1413e296195e880ddb23d9a", "fusion_lon": 0.0, "rental_uris": {"android": "https://dc.lft.to/lastmile_qr_scan", "ios": "https://dc.lft.to/lastmile_qr_scan"}, "name": "a342a334f1413e296195e880ddb23d9a", "type": "electric_scooter", "lat": 38.895971833333334, "is_disabled": 0}, {"fusion_lat": 0.0, "lon": -77.01899433333334, "is_reserved": 0, "bike_id": "f15463f1a51fb4fd6802b8b6f9b3f502", "fusion_lon": 0.0, "rental_uris": {"android": "https://dc.lft.to/lastmile_qr_scan", "ios": "https://dc.lft.to/lastmile_qr_scan"}, "name": "f15463f1a51fb4fd6802b8b6f9b3f502", "type": "electric_scooter", "lat": 38.923462666666666, "is_disabled": 0}, {"fusion_lat": 0.0, "lon": -76.94197733333333, "is_reserved": 0, "bike_id": "9d67b0add7fef0a195422f582f838fcb", "fusion_lon": 0.0, "rental_uris": {"android": "https://dc.lft.to/lastmile_qr_scan", "ios": "https://dc.lft.to/lastmile_qr_scan"}, "name": "9d67b0add7fef0a195422f582f838fcb", "type": "electric_scooter", "lat": 38.893752, "is_disabled": 0}, {"fusion_lat": 0.0, "lon": -77.0380425, "is_reserved": 0, "bike_id": "a67674188e214febf278aa26df13ac91", "fusion_lon": 0.0, "rental_uris": {"android": "https://dc.lft.to/lastmile_qr_scan", "ios": "https://dc.lft.to/lastmile_qr_scan"}, "name": "a67674188e214febf278aa26df13ac91", "type": "electric_scooter", "lat": 38.9306845, "is_disabled": 0}, {"fusion_lat": 0.0, "lon": -76.99758883333334, "is_reserved": 0, "bike_id": "c7853cce7cc99678947cbcc6e4429c3b", "fusion_lon": 0.0, "rental_uris": {"android": "https://dc.lft.to/lastmile_qr_scan", "ios": "https://dc.lft.to/lastmile_qr_scan"}, "name": "c7853cce7cc99678947cbcc6e4429c3b", "type": "electric_scooter", "lat": 38.88769116666667, "is_disabled": 0}, {"fusion_lat": 0.0, "lon": -77.021808, "is_reserved": 0, "bike_id": "a730a12b88ffc0c32945b0cd71949e28", "fusion_lon": 0.0, "rental_uris": {"android": "https://dc.lft.to/lastmile_qr_scan", "ios": "https://dc.lft.to/lastmile_qr_scan"}, "name": "a730a12b88ffc0c32945b0cd71949e28", "type": "electric_scooter", "lat": 38.905756333333336, "is_disabled": 0}, {"fusion_lat": 0.0, "lon": -76.94684333333333, "is_reserved": 0, "bike_id": "f339f07cbc4afb02c022971471fbbb35", "fusion_lon": 0.0, "rental_uris": {"android": "https://dc.lft.to/lastmile_qr_scan", "ios": "https://dc.lft.to/lastmile_qr_scan"}, "name": "f339f07cbc4afb02c022971471fbbb35", "type": "electric_scooter", "lat": 38.88634483333333, "is_disabled": 0}, {"fusion_lat": 0.0, "lon": -77.0788815, "is_reserved": 0, "bike_id": "a8f76900eb2abe89584b21f0f04526dc", "fusion_lon": 0.0, "rental_uris": {"android": "https://dc.lft.to/lastmile_qr_scan", "ios": "https://dc.lft.to/lastmile_qr_scan"}, "name": "a8f76900eb2abe89584b21f0f04526dc", "type": "electric_bike", "lat": 38.95030116666667, "is_disabled": 0}, {"fusion_lat": 0.0, "lon": -77.0435935, "is_reserved": 0, "bike_id": "d1addbaf0931719e1d9159ae5e739623", "fusion_lon": 0.0, "rental_uris": {"android": "https://dc.lft.to/lastmile_qr_scan", "ios": "https://dc.lft.to/lastmile_qr_scan"}, "name": "d1addbaf0931719e1d9159ae5e739623", "type": "electric_scooter", "lat": 38.89233933333333, "is_disabled": 0}, {"fusion_lat": 0.0, "lon": -77.02163466666667, "is_reserved": 0, "bike_id": "d912b7ef2a43d644259272a62cee4e88", "fusion_lon": 0.0, "rental_uris": {"android": "https://dc.lft.to/lastmile_qr_scan", "ios": "https://dc.lft.to/lastmile_qr_scan"}, "name": "d912b7ef2a43d644259272a62cee4e88", "type": "electric_scooter", "lat": 38.9261515, "is_disabled": 0}, {"fusion_lat": 0.0, "lon": -77.02423133333333, "is_reserved": 0, "bike_id": "69cb92618856c56e8eabebd793fe34c6", "fusion_lon": 0.0, "rental_uris": {"android": "https://dc.lft.to/lastmile_qr_scan", "ios": "https://dc.lft.to/lastmile_qr_scan"}, "name": "69cb92618856c56e8eabebd793fe34c6", "type": "electric_scooter", "lat": 38.9371925, "is_disabled": 0}, {"fusion_lat": 0.0, "lon": -77.048496, "is_reserved": 0, "bike_id": "3846505ad5331642b814d5621a44f891", "fusion_lon": 0.0, "rental_uris": {"android": "https://dc.lft.to/lastmile_qr_scan", "ios": "https://dc.lft.to/lastmile_qr_scan"}, "name": "3846505ad5331642b814d5621a44f891", "type": "electric_scooter", "lat": 38.919654, "is_disabled": 0}, {"fusion_lat": 0.0, "lon": -77.0410865, "is_reserved": 0, "bike_id": "20c7015dd875ce6d3d28c169c44882d7", "fusion_lon": 0.0, "rental_uris": {"android": "https://dc.lft.to/lastmile_qr_scan", "ios": "https://dc.lft.to/lastmile_qr_scan"}, "name": "20c7015dd875ce6d3d28c169c44882d7", "type": "electric_scooter", "lat": 38.91256333333333, "is_disabled": 0}, {"fusion_lat": 0.0, "lon": -77.02798233333333, "is_reserved": 0, "bike_id": "925fdbb28b290c7233aae894e6abeddf", "fusion_lon": 0.0, "rental_uris": {"android": "https://dc.lft.to/lastmile_qr_scan", "ios": "https://dc.lft.to/lastmile_qr_scan"}, "name": "925fdbb28b290c7233aae894e6abeddf", "type": "electric_scooter", "lat": 38.892345, "is_disabled": 0}, {"fusion_lat": 0.0, "lon": -77.01998033333334, "is_reserved": 0, "bike_id": "379f2156b020226b4ec28d6bd818f029", "fusion_lon": 0.0, "rental_uris": {"android": "https://dc.lft.to/lastmile_qr_scan", "ios": "https://dc.lft.to/lastmile_qr_scan"}, "name": "379f2156b020226b4ec28d6bd818f029", "type": "electric_scooter", "lat": 38.87595983333333, "is_disabled": 0}, {"fusion_lat": 0.0, "lon": -77.05337883333333, "is_reserved": 0, "bike_id": "2a9f488919d929ad7bcf7894e8ad448a", "fusion_lon": 0.0, "rental_uris": {"android": "https://dc.lft.to/lastmile_qr_scan", "ios": "https://dc.lft.to/lastmile_qr_scan"}, "name": "2a9f488919d929ad7bcf7894e8ad448a", "type": "electric_scooter", "lat": 38.90235416666667, "is_disabled": 0}, {"fusion_lat": 0.0, "lon": -76.98883766666667, "is_reserved": 0, "bike_id": "61eb6d9d3931854e8dc80eea7bb9f2d5", "fusion_lon": 0.0, "rental_uris": {"android": "https://dc.lft.to/lastmile_qr_scan", "ios": "https://dc.lft.to/lastmile_qr_scan"}, "name": "61eb6d9d3931854e8dc80eea7bb9f2d5", "type": "electric_scooter", "lat": 38.8666095, "is_disabled": 0}, {"fusion_lat": 0.0, "lon": -76.983687, "is_reserved": 0, "bike_id": "e23f8e3d387933bbc3be8fc1f83e26dc", "fusion_lon": 0.0, "rental_uris": {"android": "https://dc.lft.to/lastmile_qr_scan", "ios": "https://dc.lft.to/lastmile_qr_scan"}, "name": "e23f8e3d387933bbc3be8fc1f83e26dc", "type": "electric_bike", "lat": 38.91614216666667, "is_disabled": 0}, {"fusion_lat": 0.0, "lon": -76.98746083333333, "is_reserved": 0, "bike_id": "e7a095ea26127f71c147d432d86702d9", "fusion_lon": 0.0, "rental_uris": {"android": "https://dc.lft.to/lastmile_qr_scan", "ios": "https://dc.lft.to/lastmile_qr_scan"}, "name": "e7a095ea26127f71c147d432d86702d9", "type": "electric_scooter", "lat": 38.88611933333333, "is_disabled": 0}, {"fusion_lat": 0.0, "lon": -77.03271133333334, "is_reserved": 0, "bike_id": "d7cadfc8f8ddb5c6422ed68bb53c4f0c", "fusion_lon": 0.0, "rental_uris": {"android": "https://dc.lft.to/lastmile_qr_scan", "ios": "https://dc.lft.to/lastmile_qr_scan"}, "name": "d7cadfc8f8ddb5c6422ed68bb53c4f0c", "type": "electric_scooter", "lat": 38.929677833333336, "is_disabled": 0}, {"fusion_lat": 0.0, "lon": -76.9372885, "is_reserved": 0, "bike_id": "eb56cf51aaf19889d26c6d438f3fe6a2", "fusion_lon": 0.0, "rental_uris": {"android": "https://dc.lft.to/lastmile_qr_scan", "ios": "https://dc.lft.to/lastmile_qr_scan"}, "name": "eb56cf51aaf19889d26c6d438f3fe6a2", "type": "electric_scooter", "lat": 38.8901505, "is_disabled": 0}, {"fusion_lat": 0.0, "lon": -77.01534366666667, "is_reserved": 0, "bike_id": "3abe6986c769a56ed29080093fab4958", "fusion_lon": 0.0, "rental_uris": {"android": "https://dc.lft.to/lastmile_qr_scan", "ios": "https://dc.lft.to/lastmile_qr_scan"}, "name": "3abe6986c769a56ed29080093fab4958", "type": "electric_scooter", "lat": 38.892360333333336, "is_disabled": 0}, {"fusion_lat": 0.0, "lon": -77.0268295, "is_reserved": 0, "bike_id": "c3b1229bd36f4be709843c98b4c6064f", "fusion_lon": 0.0, "rental_uris": {"android": "https://dc.lft.to/lastmile_qr_scan", "ios": "https://dc.lft.to/lastmile_qr_scan"}, "name": "c3b1229bd36f4be709843c98b4c6064f", "type": "electric_scooter", "lat": 38.902594666666666, "is_disabled": 0}, {"fusion_lat": 0.0, "lon": -77.007327, "is_reserved": 0, "bike_id": "4abe5e2cf6e4b8dad1bbed095fb04da5", "fusion_lon": 0.0, "rental_uris": {"android": "https://dc.lft.to/lastmile_qr_scan", "ios": "https://dc.lft.to/lastmile_qr_scan"}, "name": "4abe5e2cf6e4b8dad1bbed095fb04da5", "type": "electric_scooter", "lat": 38.89784916666667, "is_disabled": 0}, {"fusion_lat": 0.0, "lon": -77.00598516666666, "is_reserved": 0, "bike_id": "c656a5d8cbb1a484a435f4c0302af019", "fusion_lon": 0.0, "rental_uris": {"android": "https://dc.lft.to/lastmile_qr_scan", "ios": "https://dc.lft.to/lastmile_qr_scan"}, "name": "c656a5d8cbb1a484a435f4c0302af019", "type": "electric_scooter", "lat": 38.885201333333335, "is_disabled": 0}, {"fusion_lat": 0.0, "lon": -77.04505816666666, "is_reserved": 0, "bike_id": "370c12521ad16dc21dd9222190598131", "fusion_lon": 0.0, "rental_uris": {"android": "https://dc.lft.to/lastmile_qr_scan", "ios": "https://dc.lft.to/lastmile_qr_scan"}, "name": "370c12521ad16dc21dd9222190598131", "type": "electric_scooter", "lat": 38.902474166666664, "is_disabled": 0}, {"fusion_lat": 0.0, "lon": -77.044702, "is_reserved": 0, "bike_id": "0e78ba05d6580fca6f2af686fcf9a1d4", "fusion_lon": 0.0, "rental_uris": {"android": "https://dc.lft.to/lastmile_qr_scan", "ios": "https://dc.lft.to/lastmile_qr_scan"}, "name": "0e78ba05d6580fca6f2af686fcf9a1d4", "type": "electric_scooter", "lat": 38.90953316666667, "is_disabled": 0}, {"fusion_lat": 0.0, "lon": -77.07480533333333, "is_reserved": 0, "bike_id": "29c76e90907828e18c8a2eb2bb23bec8", "fusion_lon": 0.0, "rental_uris": {"android": "https://dc.lft.to/lastmile_qr_scan", "ios": "https://dc.lft.to/lastmile_qr_scan"}, "name": "29c76e90907828e18c8a2eb2bb23bec8", "type": "electric_scooter", "lat": 38.963256666666666, "is_disabled": 0}, {"fusion_lat": 0.0, "lon": -76.89536933333333, "is_reserved": 0, "bike_id": "4abdda71aa972bbe880b4826fb92bea7", "fusion_lon": 0.0, "rental_uris": {"android": "https://dc.lft.to/lastmile_qr_scan", "ios": "https://dc.lft.to/lastmile_qr_scan"}, "name": "4abdda71aa972bbe880b4826fb92bea7", "type": "electric_bike", "lat": 38.945508333333336, "is_disabled": 0}, {"fusion_lat": 0.0, "lon": -77.03833766666666, "is_reserved": 0, "bike_id": "cce91613c5a9d0702f6dabc716ac7fb6", "fusion_lon": 0.0, "rental_uris": {"android": "https://dc.lft.to/lastmile_qr_scan", "ios": "https://dc.lft.to/lastmile_qr_scan"}, "name": "cce91613c5a9d0702f6dabc716ac7fb6", "type": "electric_scooter", "lat": 38.90680783333333, "is_disabled": 0}, {"fusion_lat": 0.0, "lon": -77.02283983333334, "is_reserved": 0, "bike_id": "818505744e7c51c3cdd638b215f15d98", "fusion_lon": 0.0, "rental_uris": {"android": "https://dc.lft.to/lastmile_qr_scan", "ios": "https://dc.lft.to/lastmile_qr_scan"}, "name": "818505744e7c51c3cdd638b215f15d98", "type": "electric_scooter", "lat": 38.914223666666665, "is_disabled": 0}, {"fusion_lat": 0.0, "lon": -77.027279, "is_reserved": 0, "bike_id": "844d537cc5d4419a91c282aaf3c2044a", "fusion_lon": 0.0, "rental_uris": {"android": "https://dc.lft.to/lastmile_qr_scan", "ios": "https://dc.lft.to/lastmile_qr_scan"}, "name": "844d537cc5d4419a91c282aaf3c2044a", "type": "electric_scooter", "lat": 38.940872666666664, "is_disabled": 0}, {"fusion_lat": 0.0, "lon": -77.06864433333334, "is_reserved": 0, "bike_id": "10d08f40c2e6366229c9d0cc49666c09", "fusion_lon": 0.0, "rental_uris": {"android": "https://dc.lft.to/lastmile_qr_scan", "ios": "https://dc.lft.to/lastmile_qr_scan"}, "name": "10d08f40c2e6366229c9d0cc49666c09", "type": "electric_bike", "lat": 38.8058025, "is_disabled": 0}, {"fusion_lat": 0.0, "lon": -76.97436116666667, "is_reserved": 0, "bike_id": "135acd22928507a889d6130af1fea52a", "fusion_lon": 0.0, "rental_uris": {"android": "https://dc.lft.to/lastmile_qr_scan", "ios": "https://dc.lft.to/lastmile_qr_scan"}, "name": "135acd22928507a889d6130af1fea52a", "type": "electric_bike", "lat": 38.86400883333334, "is_disabled": 0}, {"fusion_lat": 0.0, "lon": -77.04659066666666, "is_reserved": 0, "bike_id": "99dcc0b8db84b466984f3175cd585401", "fusion_lon": 0.0, "rental_uris": {"android": "https://dc.lft.to/lastmile_qr_scan", "ios": "https://dc.lft.to/lastmile_qr_scan"}, "name": "99dcc0b8db84b466984f3175cd585401", "type": "electric_scooter", "lat": 38.90335066666667, "is_disabled": 0}, {"fusion_lat": 0.0, "lon": -77.013643, "is_reserved": 0, "bike_id": "d5e96ffcdcc7f35693df7f0981a448f9", "fusion_lon": 0.0, "rental_uris": {"android": "https://dc.lft.to/lastmile_qr_scan", "ios": "https://dc.lft.to/lastmile_qr_scan"}, "name": "d5e96ffcdcc7f35693df7f0981a448f9", "type": "electric_scooter", "lat": 38.9288745, "is_disabled": 0}, {"fusion_lat": 0.0, "lon": -77.00621866666667, "is_reserved": 0, "bike_id": "b57713225195ad84ff34de862f14803e", "fusion_lon": 0.0, "rental_uris": {"android": "https://dc.lft.to/lastmile_qr_scan", "ios": "https://dc.lft.to/lastmile_qr_scan"}, "name": "b57713225195ad84ff34de862f14803e", "type": "electric_scooter", "lat": 38.87176433333333, "is_disabled": 0}, {"fusion_lat": 0.0, "lon": -77.02331016666666, "is_reserved": 0, "bike_id": "4e33a62e99696087d507db6f1aff1c36", "fusion_lon": 0.0, "rental_uris": {"android": "https://dc.lft.to/lastmile_qr_scan", "ios": "https://dc.lft.to/lastmile_qr_scan"}, "name": "4e33a62e99696087d507db6f1aff1c36", "type": "electric_scooter", "lat": 38.9271045, "is_disabled": 0}, {"fusion_lat": 0.0, "lon": -77.02814166666667, "is_reserved": 0, "bike_id": "6433b8edcbe59c5150eecc2316e79d7b", "fusion_lon": 0.0, "rental_uris": {"android": "https://dc.lft.to/lastmile_qr_scan", "ios": "https://dc.lft.to/lastmile_qr_scan"}, "name": "6433b8edcbe59c5150eecc2316e79d7b", "type": "electric_scooter", "lat": 38.89978966666666, "is_disabled": 0}, {"fusion_lat": 0.0, "lon": -77.028031, "is_reserved": 0, "bike_id": "12218d877b2531e2c821b2037912f3fd", "fusion_lon": 0.0, "rental_uris": {"android": "https://dc.lft.to/lastmile_qr_scan", "ios": "https://dc.lft.to/lastmile_qr_scan"}, "name": "12218d877b2531e2c821b2037912f3fd", "type": "electric_scooter", "lat": 38.892295, "is_disabled": 0}, {"fusion_lat": 0.0, "lon": -77.02916466666667, "is_reserved": 0, "bike_id": "6af4b9bd0e1d83d65ef7966315a24fde", "fusion_lon": 0.0, "rental_uris": {"android": "https://dc.lft.to/lastmile_qr_scan", "ios": "https://dc.lft.to/lastmile_qr_scan"}, "name": "6af4b9bd0e1d83d65ef7966315a24fde", "type": "electric_scooter", "lat": 38.94043116666667, "is_disabled": 0}, {"fusion_lat": 0.0, "lon": -77.05308, "is_reserved": 0, "bike_id": "f3559fd22d54918d27b58d6a8f73815f", "fusion_lon": 0.0, "rental_uris": {"android": "https://dc.lft.to/lastmile_qr_scan", "ios": "https://dc.lft.to/lastmile_qr_scan"}, "name": "f3559fd22d54918d27b58d6a8f73815f", "type": "electric_scooter", "lat": 38.898498333333336, "is_disabled": 0}, {"fusion_lat": 0.0, "lon": -77.01224383333333, "is_reserved": 0, "bike_id": "f45932a63c66a1e8531f383d3514f75c", "fusion_lon": 0.0, "rental_uris": {"android": "https://dc.lft.to/lastmile_qr_scan", "ios": "https://dc.lft.to/lastmile_qr_scan"}, "name": "f45932a63c66a1e8531f383d3514f75c", "type": "electric_scooter", "lat": 38.914380333333334, "is_disabled": 0}, {"fusion_lat": 0.0, "lon": -77.04006516666666, "is_reserved": 0, "bike_id": "47f4a2ab0bf1d01a05a30c9c56967ac6", "fusion_lon": 0.0, "rental_uris": {"android": "https://dc.lft.to/lastmile_qr_scan", "ios": "https://dc.lft.to/lastmile_qr_scan"}, "name": "47f4a2ab0bf1d01a05a30c9c56967ac6", "type": "electric_scooter", "lat": 38.89937066666667, "is_disabled": 0}, {"fusion_lat": 0.0, "lon": -76.97854566666666, "is_reserved": 0, "bike_id": "7899770b09aaab91b8d5e691fec55de8", "fusion_lon": 0.0, "rental_uris": {"android": "https://dc.lft.to/lastmile_qr_scan", "ios": "https://dc.lft.to/lastmile_qr_scan"}, "name": "7899770b09aaab91b8d5e691fec55de8", "type": "electric_scooter", "lat": 38.87072833333333, "is_disabled": 0}, {"fusion_lat": 0.0, "lon": -77.02899116666667, "is_reserved": 0, "bike_id": "1e72fbcd11638b6fdaa3891360d97e1b", "fusion_lon": 0.0, "rental_uris": {"android": "https://dc.lft.to/lastmile_qr_scan", "ios": "https://dc.lft.to/lastmile_qr_scan"}, "name": "1e72fbcd11638b6fdaa3891360d97e1b", "type": "electric_scooter", "lat": 38.961317666666666, "is_disabled": 0}, {"fusion_lat": 0.0, "lon": -77.04535716666666, "is_reserved": 0, "bike_id": "3a5c5ed78d90dacca611b4ec6b426f48", "fusion_lon": 0.0, "rental_uris": {"android": "https://dc.lft.to/lastmile_qr_scan", "ios": "https://dc.lft.to/lastmile_qr_scan"}, "name": "3a5c5ed78d90dacca611b4ec6b426f48", "type": "electric_scooter", "lat": 38.900659, "is_disabled": 0}, {"fusion_lat": 0.0, "lon": -77.04347416666667, "is_reserved": 0, "bike_id": "4e490f6f2a916d51239c385095e8db50", "fusion_lon": 0.0, "rental_uris": {"android": "https://dc.lft.to/lastmile_qr_scan", "ios": "https://dc.lft.to/lastmile_qr_scan"}, "name": "4e490f6f2a916d51239c385095e8db50", "type": "electric_scooter", "lat": 38.90751366666667, "is_disabled": 0}, {"fusion_lat": 0.0, "lon": -77.0620885, "is_reserved": 0, "bike_id": "ef201640837c1d6f240477b67cfb77cf", "fusion_lon": 0.0, "rental_uris": {"android": "https://dc.lft.to/lastmile_qr_scan", "ios": "https://dc.lft.to/lastmile_qr_scan"}, "name": "ef201640837c1d6f240477b67cfb77cf", "type": "electric_bike", "lat": 38.9204305, "is_disabled": 0}, {"fusion_lat": 0.0, "lon": -76.99901533333333, "is_reserved": 0, "bike_id": "cc9d99d4938c64fbb6c5567c5095df5c", "fusion_lon": 0.0, "rental_uris": {"android": "https://dc.lft.to/lastmile_qr_scan", "ios": "https://dc.lft.to/lastmile_qr_scan"}, "name": "cc9d99d4938c64fbb6c5567c5095df5c", "type": "electric_scooter", "lat": 38.924558, "is_disabled": 0}, {"fusion_lat": 0.0, "lon": -77.0335145, "is_reserved": 0, "bike_id": "1eca9c9fcf683231202cc55880f9b3d9", "fusion_lon": 0.0, "rental_uris": {"android": "https://dc.lft.to/lastmile_qr_scan", "ios": "https://dc.lft.to/lastmile_qr_scan"}, "name": "1eca9c9fcf683231202cc55880f9b3d9", "type": "electric_scooter", "lat": 38.898430833333336, "is_disabled": 0}, {"fusion_lat": 0.0, "lon": -77.00501466666667, "is_reserved": 0, "bike_id": "cb4bfb63493f1de8ee4a3c55ccf367b1", "fusion_lon": 0.0, "rental_uris": {"android": "https://dc.lft.to/lastmile_qr_scan", "ios": "https://dc.lft.to/lastmile_qr_scan"}, "name": "cb4bfb63493f1de8ee4a3c55ccf367b1", "type": "electric_scooter", "lat": 38.9055035, "is_disabled": 0}, {"fusion_lat": 0.0, "lon": -77.03506116666667, "is_reserved": 0, "bike_id": "01661cb72939ab37da318d971d753d6d", "fusion_lon": 0.0, "rental_uris": {"android": "https://dc.lft.to/lastmile_qr_scan", "ios": "https://dc.lft.to/lastmile_qr_scan"}, "name": "01661cb72939ab37da318d971d753d6d", "type": "electric_scooter", "lat": 38.91879216666667, "is_disabled": 0}, {"fusion_lat": 0.0, "lon": -77.02950816666667, "is_reserved": 0, "bike_id": "80fd35a8903c04e6e3e633248abef25c", "fusion_lon": 0.0, "rental_uris": {"android": "https://dc.lft.to/lastmile_qr_scan", "ios": "https://dc.lft.to/lastmile_qr_scan"}, "name": "80fd35a8903c04e6e3e633248abef25c", "type": "electric_scooter", "lat": 38.92174033333333, "is_disabled": 0}, {"fusion_lat": 0.0, "lon": -77.0352295, "is_reserved": 0, "bike_id": "b6d9288c3e08694d5f387801b95f17f3", "fusion_lon": 0.0, "rental_uris": {"android": "https://dc.lft.to/lastmile_qr_scan", "ios": "https://dc.lft.to/lastmile_qr_scan"}, "name": "b6d9288c3e08694d5f387801b95f17f3", "type": "electric_scooter", "lat": 38.92197916666667, "is_disabled": 0}, {"fusion_lat": 0.0, "lon": -77.1159045, "is_reserved": 0, "bike_id": "6692bc216ecfa75c4a076ac513b44c1a", "fusion_lon": 0.0, "rental_uris": {"android": "https://dc.lft.to/lastmile_qr_scan", "ios": "https://dc.lft.to/lastmile_qr_scan"}, "name": "6692bc216ecfa75c4a076ac513b44c1a", "type": "electric_bike", "lat": 39.07494533333333, "is_disabled": 0}, {"fusion_lat": 0.0, "lon": -77.029782, "is_reserved": 0, "bike_id": "eb7eec3943b1aed15757e6ed9fa500cc", "fusion_lon": 0.0, "rental_uris": {"android": "https://dc.lft.to/lastmile_qr_scan", "ios": "https://dc.lft.to/lastmile_qr_scan"}, "name": "eb7eec3943b1aed15757e6ed9fa500cc", "type": "electric_scooter", "lat": 38.929521666666666, "is_disabled": 0}, {"fusion_lat": 0.0, "lon": -77.01636533333334, "is_reserved": 0, "bike_id": "673f91a55ebea3c91a8b1258867a98ae", "fusion_lon": 0.0, "rental_uris": {"android": "https://dc.lft.to/lastmile_qr_scan", "ios": "https://dc.lft.to/lastmile_qr_scan"}, "name": "673f91a55ebea3c91a8b1258867a98ae", "type": "electric_scooter", "lat": 38.89959833333333, "is_disabled": 0}, {"fusion_lat": 0.0, "lon": -77.021704, "is_reserved": 0, "bike_id": "228718007d12eab4f2132abac81b376e", "fusion_lon": 0.0, "rental_uris": {"android": "https://dc.lft.to/lastmile_qr_scan", "ios": "https://dc.lft.to/lastmile_qr_scan"}, "name": "228718007d12eab4f2132abac81b376e", "type": "electric_bike", "lat": 38.893923666666666, "is_disabled": 0}, {"fusion_lat": 0.0, "lon": -77.05064316666666, "is_reserved": 0, "bike_id": "cb282f6bce8421b8880e878235033f57", "fusion_lon": 0.0, "rental_uris": {"android": "https://dc.lft.to/lastmile_qr_scan", "ios": "https://dc.lft.to/lastmile_qr_scan"}, "name": "cb282f6bce8421b8880e878235033f57", "type": "electric_scooter", "lat": 38.901867333333335, "is_disabled": 0}, {"fusion_lat": 0.0, "lon": -77.02366716666667, "is_reserved": 0, "bike_id": "efb7f1fb60b8f6de35728db34b815d64", "fusion_lon": 0.0, "rental_uris": {"android": "https://dc.lft.to/lastmile_qr_scan", "ios": "https://dc.lft.to/lastmile_qr_scan"}, "name": "efb7f1fb60b8f6de35728db34b815d64", "type": "electric_scooter", "lat": 38.89966616666667, "is_disabled": 0}, {"fusion_lat": 0.0, "lon": -77.04566766666667, "is_reserved": 0, "bike_id": "e5005b91baa156d2fb82f613f6532422", "fusion_lon": 0.0, "rental_uris": {"android": "https://dc.lft.to/lastmile_qr_scan", "ios": "https://dc.lft.to/lastmile_qr_scan"}, "name": "e5005b91baa156d2fb82f613f6532422", "type": "electric_scooter", "lat": 38.897399166666666, "is_disabled": 0}, {"fusion_lat": 0.0, "lon": -77.00599083333333, "is_reserved": 0, "bike_id": "7ab57a34b7a2b8fc59d57be3b7524128", "fusion_lon": 0.0, "rental_uris": {"android": "https://dc.lft.to/lastmile_qr_scan", "ios": "https://dc.lft.to/lastmile_qr_scan"}, "name": "7ab57a34b7a2b8fc59d57be3b7524128", "type": "electric_scooter", "lat": 38.905667, "is_disabled": 0}, {"fusion_lat": 0.0, "lon": -77.02397133333334, "is_reserved": 0, "bike_id": "6602240d08834ce7c2ecc120a76ac5a0", "fusion_lon": 0.0, "rental_uris": {"android": "https://dc.lft.to/lastmile_qr_scan", "ios": "https://dc.lft.to/lastmile_qr_scan"}, "name": "6602240d08834ce7c2ecc120a76ac5a0", "type": "electric_scooter", "lat": 38.919888666666665, "is_disabled": 0}, {"fusion_lat": 0.0, "lon": -77.04110383333334, "is_reserved": 0, "bike_id": "504bb658c3261188b648f1a66e5a757c", "fusion_lon": 0.0, "rental_uris": {"android": "https://dc.lft.to/lastmile_qr_scan", "ios": "https://dc.lft.to/lastmile_qr_scan"}, "name": "504bb658c3261188b648f1a66e5a757c", "type": "electric_scooter", "lat": 38.92509616666667, "is_disabled": 0}, {"fusion_lat": 0.0, "lon": -77.02581566666667, "is_reserved": 0, "bike_id": "7da0bf597963776ea728713a0592bc02", "fusion_lon": 0.0, "rental_uris": {"android": "https://dc.lft.to/lastmile_qr_scan", "ios": "https://dc.lft.to/lastmile_qr_scan"}, "name": "7da0bf597963776ea728713a0592bc02", "type": "electric_scooter", "lat": 38.9205585, "is_disabled": 0}, {"fusion_lat": 0.0, "lon": -77.017642, "is_reserved": 0, "bike_id": "08e8c507485b857303c05bc83da5d298", "fusion_lon": 0.0, "rental_uris": {"android": "https://dc.lft.to/lastmile_qr_scan", "ios": "https://dc.lft.to/lastmile_qr_scan"}, "name": "08e8c507485b857303c05bc83da5d298", "type": "electric_scooter", "lat": 38.975965, "is_disabled": 0}, {"fusion_lat": 0.0, "lon": -77.046728, "is_reserved": 0, "bike_id": "3095487394fb32d853b8e623ec1a4ea6", "fusion_lon": 0.0, "rental_uris": {"android": "https://dc.lft.to/lastmile_qr_scan", "ios": "https://dc.lft.to/lastmile_qr_scan"}, "name": "3095487394fb32d853b8e623ec1a4ea6", "type": "electric_scooter", "lat": 38.8955735, "is_disabled": 0}, {"fusion_lat": 0.0, "lon": -77.0272195, "is_reserved": 0, "bike_id": "018753ea642acbb8508ea111ec713b16", "fusion_lon": 0.0, "rental_uris": {"android": "https://dc.lft.to/lastmile_qr_scan", "ios": "https://dc.lft.to/lastmile_qr_scan"}, "name": "018753ea642acbb8508ea111ec713b16", "type": "electric_scooter", "lat": 38.94960416666667, "is_disabled": 0}, {"fusion_lat": 0.0, "lon": -77.0256305, "is_reserved": 0, "bike_id": "2d537d1e42cd963ab9a531832e5b0da5", "fusion_lon": 0.0, "rental_uris": {"android": "https://dc.lft.to/lastmile_qr_scan", "ios": "https://dc.lft.to/lastmile_qr_scan"}, "name": "2d537d1e42cd963ab9a531832e5b0da5", "type": "electric_scooter", "lat": 38.93874533333333, "is_disabled": 0}, {"fusion_lat": 0.0, "lon": -77.04487833333333, "is_reserved": 0, "bike_id": "8ab6e027407704e2ca11fde0cb6c9ca6", "fusion_lon": 0.0, "rental_uris": {"android": "https://dc.lft.to/lastmile_qr_scan", "ios": "https://dc.lft.to/lastmile_qr_scan"}, "name": "8ab6e027407704e2ca11fde0cb6c9ca6", "type": "electric_scooter", "lat": 38.903747833333334, "is_disabled": 0}, {"fusion_lat": 0.0, "lon": -76.93366083333333, "is_reserved": 0, "bike_id": "87d4f28160067694ee0ee91a93a3d170", "fusion_lon": 0.0, "rental_uris": {"android": "https://dc.lft.to/lastmile_qr_scan", "ios": "https://dc.lft.to/lastmile_qr_scan"}, "name": "87d4f28160067694ee0ee91a93a3d170", "type": "electric_scooter", "lat": 38.88798383333334, "is_disabled": 0}, {"fusion_lat": 0.0, "lon": -77.0521325, "is_reserved": 0, "bike_id": "7c7c9ca6e6ac0d0e806533343bfefb22", "fusion_lon": 0.0, "rental_uris": {"android": "https://dc.lft.to/lastmile_qr_scan", "ios": "https://dc.lft.to/lastmile_qr_scan"}, "name": "7c7c9ca6e6ac0d0e806533343bfefb22", "type": "electric_scooter", "lat": 38.91566133333333, "is_disabled": 0}, {"fusion_lat": 0.0, "lon": -77.00344016666666, "is_reserved": 0, "bike_id": "29c28724f56631b9cef77e384a779d49", "fusion_lon": 0.0, "rental_uris": {"android": "https://dc.lft.to/lastmile_qr_scan", "ios": "https://dc.lft.to/lastmile_qr_scan"}, "name": "29c28724f56631b9cef77e384a779d49", "type": "electric_scooter", "lat": 38.8953535, "is_disabled": 0}, {"fusion_lat": 0.0, "lon": -77.04514883333333, "is_reserved": 0, "bike_id": "42e0f1f96d4219138ad193a1d681ece5", "fusion_lon": 0.0, "rental_uris": {"android": "https://dc.lft.to/lastmile_qr_scan", "ios": "https://dc.lft.to/lastmile_qr_scan"}, "name": "42e0f1f96d4219138ad193a1d681ece5", "type": "electric_scooter", "lat": 38.91291366666667, "is_disabled": 0}, {"fusion_lat": 0.0, "lon": -77.03635466666667, "is_reserved": 0, "bike_id": "2e8ed36d5880894d9f1768f7083f6da6", "fusion_lon": 0.0, "rental_uris": {"android": "https://dc.lft.to/lastmile_qr_scan", "ios": "https://dc.lft.to/lastmile_qr_scan"}, "name": "2e8ed36d5880894d9f1768f7083f6da6", "type": "electric_scooter", "lat": 38.909958, "is_disabled": 0}, {"fusion_lat": 0.0, "lon": -76.96602466666667, "is_reserved": 0, "bike_id": "d741b955b236df513b1ad13b33f3044f", "fusion_lon": 0.0, "rental_uris": {"android": "https://dc.lft.to/lastmile_qr_scan", "ios": "https://dc.lft.to/lastmile_qr_scan"}, "name": "d741b955b236df513b1ad13b33f3044f", "type": "electric_scooter", "lat": 38.871106166666664, "is_disabled": 0}, {"fusion_lat": 0.0, "lon": -77.02483783333334, "is_reserved": 0, "bike_id": "4f7ac0d1f00d554500b672c8d03a5f0e", "fusion_lon": 0.0, "rental_uris": {"android": "https://dc.lft.to/lastmile_qr_scan", "ios": "https://dc.lft.to/lastmile_qr_scan"}, "name": "4f7ac0d1f00d554500b672c8d03a5f0e", "type": "electric_scooter", "lat": 38.938716666666664, "is_disabled": 0}, {"fusion_lat": 0.0, "lon": -77.02765683333334, "is_reserved": 0, "bike_id": "4e9cbc8c9272bb14a516376e91c16035", "fusion_lon": 0.0, "rental_uris": {"android": "https://dc.lft.to/lastmile_qr_scan", "ios": "https://dc.lft.to/lastmile_qr_scan"}, "name": "4e9cbc8c9272bb14a516376e91c16035", "type": "electric_scooter", "lat": 38.95426033333333, "is_disabled": 0}, {"fusion_lat": 0.0, "lon": -76.98655233333334, "is_reserved": 0, "bike_id": "83c61f11d73ed2a733100b7e09c6f507", "fusion_lon": 0.0, "rental_uris": {"android": "https://dc.lft.to/lastmile_qr_scan", "ios": "https://dc.lft.to/lastmile_qr_scan"}, "name": "83c61f11d73ed2a733100b7e09c6f507", "type": "electric_bike", "lat": 38.900171666666665, "is_disabled": 0}, {"fusion_lat": 0.0, "lon": -77.02627266666667, "is_reserved": 0, "bike_id": "cc0a66ce22afedbe9412bb2754f7782a", "fusion_lon": 0.0, "rental_uris": {"android": "https://dc.lft.to/lastmile_qr_scan", "ios": "https://dc.lft.to/lastmile_qr_scan"}, "name": "cc0a66ce22afedbe9412bb2754f7782a", "type": "electric_bike", "lat": 38.9621825, "is_disabled": 0}, {"fusion_lat": 0.0, "lon": -77.02276433333333, "is_reserved": 0, "bike_id": "d884a5c48a9e7ac33e9a2890580ac7d6", "fusion_lon": 0.0, "rental_uris": {"android": "https://dc.lft.to/lastmile_qr_scan", "ios": "https://dc.lft.to/lastmile_qr_scan"}, "name": "d884a5c48a9e7ac33e9a2890580ac7d6", "type": "electric_scooter", "lat": 38.89846166666667, "is_disabled": 0}, {"fusion_lat": 0.0, "lon": -77.02392233333333, "is_reserved": 0, "bike_id": "ae7c107492fa7e2ace4875c13252226b", "fusion_lon": 0.0, "rental_uris": {"android": "https://dc.lft.to/lastmile_qr_scan", "ios": "https://dc.lft.to/lastmile_qr_scan"}, "name": "ae7c107492fa7e2ace4875c13252226b", "type": "electric_scooter", "lat": 38.896065666666665, "is_disabled": 0}, {"fusion_lat": 0.0, "lon": -77.03870416666666, "is_reserved": 0, "bike_id": "0181882f5bd01229889fdffc8399cc80", "fusion_lon": 0.0, "rental_uris": {"android": "https://dc.lft.to/lastmile_qr_scan", "ios": "https://dc.lft.to/lastmile_qr_scan"}, "name": "0181882f5bd01229889fdffc8399cc80", "type": "electric_scooter", "lat": 38.921551, "is_disabled": 0}, {"fusion_lat": 0.0, "lon": -77.032202, "is_reserved": 0, "bike_id": "0b7118eb1354697952dd9edb1b3b23c9", "fusion_lon": 0.0, "rental_uris": {"android": "https://dc.lft.to/lastmile_qr_scan", "ios": "https://dc.lft.to/lastmile_qr_scan"}, "name": "0b7118eb1354697952dd9edb1b3b23c9", "type": "electric_scooter", "lat": 38.916313, "is_disabled": 0}, {"fusion_lat": 0.0, "lon": -77.05718483333334, "is_reserved": 0, "bike_id": "6341eb5006cf75d95af2d3051023aa20", "fusion_lon": 0.0, "rental_uris": {"android": "https://dc.lft.to/lastmile_qr_scan", "ios": "https://dc.lft.to/lastmile_qr_scan"}, "name": "6341eb5006cf75d95af2d3051023aa20", "type": "electric_scooter", "lat": 38.93129533333333, "is_disabled": 0}, {"fusion_lat": 0.0, "lon": -77.02971833333334, "is_reserved": 0, "bike_id": "acfc480b609e26e17a8e2bc8429e0b4b", "fusion_lon": 0.0, "rental_uris": {"android": "https://dc.lft.to/lastmile_qr_scan", "ios": "https://dc.lft.to/lastmile_qr_scan"}, "name": "acfc480b609e26e17a8e2bc8429e0b4b", "type": "electric_scooter", "lat": 38.91685433333333, "is_disabled": 0}, {"fusion_lat": 0.0, "lon": -77.054753, "is_reserved": 0, "bike_id": "bb37414fccc46294e32a4584c6836e97", "fusion_lon": 0.0, "rental_uris": {"android": "https://dc.lft.to/lastmile_qr_scan", "ios": "https://dc.lft.to/lastmile_qr_scan"}, "name": "bb37414fccc46294e32a4584c6836e97", "type": "electric_scooter", "lat": 38.910627166666664, "is_disabled": 0}, {"fusion_lat": 0.0, "lon": -77.071478, "is_reserved": 0, "bike_id": "8b8c72f7741716929869ee94ac8b24c0", "fusion_lon": 0.0, "rental_uris": {"android": "https://dc.lft.to/lastmile_qr_scan", "ios": "https://dc.lft.to/lastmile_qr_scan"}, "name": "8b8c72f7741716929869ee94ac8b24c0", "type": "electric_scooter", "lat": 38.94563, "is_disabled": 0}, {"fusion_lat": 0.0, "lon": -77.06664283333333, "is_reserved": 0, "bike_id": "b02fb780fec7b2044c4b737e7bd755a4", "fusion_lon": 0.0, "rental_uris": {"android": "https://dc.lft.to/lastmile_qr_scan", "ios": "https://dc.lft.to/lastmile_qr_scan"}, "name": "b02fb780fec7b2044c4b737e7bd755a4", "type": "electric_scooter", "lat": 38.949542, "is_disabled": 0}, {"fusion_lat": 0.0, "lon": -77.0176205, "is_reserved": 0, "bike_id": "e5338f1402107f32134e50aecafc44ee", "fusion_lon": 0.0, "rental_uris": {"android": "https://dc.lft.to/lastmile_qr_scan", "ios": "https://dc.lft.to/lastmile_qr_scan"}, "name": "e5338f1402107f32134e50aecafc44ee", "type": "electric_scooter", "lat": 38.90267466666667, "is_disabled": 0}, {"fusion_lat": 0.0, "lon": -77.1009225, "is_reserved": 0, "bike_id": "b01210e99c68f6cad73efe6fd5b41020", "fusion_lon": 0.0, "rental_uris": {"android": "https://dc.lft.to/lastmile_qr_scan", "ios": "https://dc.lft.to/lastmile_qr_scan"}, "name": "b01210e99c68f6cad73efe6fd5b41020", "type": "electric_bike", "lat": 38.95961966666667, "is_disabled": 0}, {"fusion_lat": 0.0, "lon": -77.03248266666667, "is_reserved": 0, "bike_id": "7f5183d26cdeab447e0b8afd961f08eb", "fusion_lon": 0.0, "rental_uris": {"android": "https://dc.lft.to/lastmile_qr_scan", "ios": "https://dc.lft.to/lastmile_qr_scan"}, "name": "7f5183d26cdeab447e0b8afd961f08eb", "type": "electric_scooter", "lat": 38.9096515, "is_disabled": 0}, {"fusion_lat": 0.0, "lon": -77.01163266666667, "is_reserved": 0, "bike_id": "2eabdcd09685140934564d597d116aba", "fusion_lon": 0.0, "rental_uris": {"android": "https://dc.lft.to/lastmile_qr_scan", "ios": "https://dc.lft.to/lastmile_qr_scan"}, "name": "2eabdcd09685140934564d597d116aba", "type": "electric_scooter", "lat": 38.90024366666667, "is_disabled": 0}, {"fusion_lat": 0.0, "lon": -77.04210366666666, "is_reserved": 0, "bike_id": "f57164613e3b849a5d9fd82fb1988c0c", "fusion_lon": 0.0, "rental_uris": {"android": "https://dc.lft.to/lastmile_qr_scan", "ios": "https://dc.lft.to/lastmile_qr_scan"}, "name": "f57164613e3b849a5d9fd82fb1988c0c", "type": "electric_scooter", "lat": 38.9090665, "is_disabled": 0}, {"fusion_lat": 0.0, "lon": -77.05757316666667, "is_reserved": 0, "bike_id": "b5105b9e8803ac0f24d76be0fe86125d", "fusion_lon": 0.0, "rental_uris": {"android": "https://dc.lft.to/lastmile_qr_scan", "ios": "https://dc.lft.to/lastmile_qr_scan"}, "name": "b5105b9e8803ac0f24d76be0fe86125d", "type": "electric_scooter", "lat": 38.92472566666667, "is_disabled": 0}, {"fusion_lat": 0.0, "lon": -77.027308, "is_reserved": 0, "bike_id": "db6e22fa61d68217af67a7d6f692f2fc", "fusion_lon": 0.0, "rental_uris": {"android": "https://dc.lft.to/lastmile_qr_scan", "ios": "https://dc.lft.to/lastmile_qr_scan"}, "name": "db6e22fa61d68217af67a7d6f692f2fc", "type": "electric_scooter", "lat": 38.8975425, "is_disabled": 0}, {"fusion_lat": 0.0, "lon": -76.98067133333333, "is_reserved": 0, "bike_id": "f2a8b6a1900a123622a1b91b596cde0a", "fusion_lon": 0.0, "rental_uris": {"android": "https://dc.lft.to/lastmile_qr_scan", "ios": "https://dc.lft.to/lastmile_qr_scan"}, "name": "f2a8b6a1900a123622a1b91b596cde0a", "type": "electric_scooter", "lat": 38.90171083333333, "is_disabled": 0}, {"fusion_lat": 0.0, "lon": -77.03801533333333, "is_reserved": 0, "bike_id": "28d2705bc8106043d2118df287dc88e1", "fusion_lon": 0.0, "rental_uris": {"android": "https://dc.lft.to/lastmile_qr_scan", "ios": "https://dc.lft.to/lastmile_qr_scan"}, "name": "28d2705bc8106043d2118df287dc88e1", "type": "electric_scooter", "lat": 38.910359166666666, "is_disabled": 0}, {"fusion_lat": 0.0, "lon": -77.01096966666667, "is_reserved": 0, "bike_id": "59d92163d21a13fe076339002a43a8b2", "fusion_lon": 0.0, "rental_uris": {"android": "https://dc.lft.to/lastmile_qr_scan", "ios": "https://dc.lft.to/lastmile_qr_scan"}, "name": "59d92163d21a13fe076339002a43a8b2", "type": "electric_bike", "lat": 38.8730565, "is_disabled": 0}, {"fusion_lat": 0.0, "lon": -77.00206366666667, "is_reserved": 0, "bike_id": "29188acfa46732ce9fa8aacfeeea7942", "fusion_lon": 0.0, "rental_uris": {"android": "https://dc.lft.to/lastmile_qr_scan", "ios": "https://dc.lft.to/lastmile_qr_scan"}, "name": "29188acfa46732ce9fa8aacfeeea7942", "type": "electric_scooter", "lat": 38.90033716666667, "is_disabled": 0}, {"fusion_lat": 0.0, "lon": -77.0263875, "is_reserved": 0, "bike_id": "7e770125801a92e91a0f7d0ef53309bc", "fusion_lon": 0.0, "rental_uris": {"android": "https://dc.lft.to/lastmile_qr_scan", "ios": "https://dc.lft.to/lastmile_qr_scan"}, "name": "7e770125801a92e91a0f7d0ef53309bc", "type": "electric_scooter", "lat": 38.89221933333334, "is_disabled": 0}, {"fusion_lat": 0.0, "lon": -77.04195316666667, "is_reserved": 0, "bike_id": "0d0c143c826eb49591395723187c0a8f", "fusion_lon": 0.0, "rental_uris": {"android": "https://dc.lft.to/lastmile_qr_scan", "ios": "https://dc.lft.to/lastmile_qr_scan"}, "name": "0d0c143c826eb49591395723187c0a8f", "type": "electric_scooter", "lat": 38.90361816666667, "is_disabled": 0}, {"fusion_lat": 0.0, "lon": -76.99408, "is_reserved": 0, "bike_id": "a70e00cfd6628474a16e34d5bc34f877", "fusion_lon": 0.0, "rental_uris": {"android": "https://dc.lft.to/lastmile_qr_scan", "ios": "https://dc.lft.to/lastmile_qr_scan"}, "name": "a70e00cfd6628474a16e34d5bc34f877", "type": "electric_bike", "lat": 38.831391333333336, "is_disabled": 0}, {"fusion_lat": 0.0, "lon": -77.0164735, "is_reserved": 0, "bike_id": "a368704997f7b8409227f61428a50447", "fusion_lon": 0.0, "rental_uris": {"android": "https://dc.lft.to/lastmile_qr_scan", "ios": "https://dc.lft.to/lastmile_qr_scan"}, "name": "a368704997f7b8409227f61428a50447", "type": "electric_scooter", "lat": 38.881275333333335, "is_disabled": 0}, {"fusion_lat": 0.0, "lon": -77.0213095, "is_reserved": 0, "bike_id": "fa41b85eba194c884ff75e4449822292", "fusion_lon": 0.0, "rental_uris": {"android": "https://dc.lft.to/lastmile_qr_scan", "ios": "https://dc.lft.to/lastmile_qr_scan"}, "name": "fa41b85eba194c884ff75e4449822292", "type": "electric_scooter", "lat": 38.923296666666666, "is_disabled": 0}, {"fusion_lat": 0.0, "lon": -76.933687, "is_reserved": 0, "bike_id": "913d43a979d0d65f0f7aefa0f3435dae", "fusion_lon": 0.0, "rental_uris": {"android": "https://dc.lft.to/lastmile_qr_scan", "ios": "https://dc.lft.to/lastmile_qr_scan"}, "name": "913d43a979d0d65f0f7aefa0f3435dae", "type": "electric_scooter", "lat": 38.8991465, "is_disabled": 0}, {"fusion_lat": 0.0, "lon": -77.04512333333334, "is_reserved": 0, "bike_id": "e62ab0b669f1e7676a3aaddd3e9c3c10", "fusion_lon": 0.0, "rental_uris": {"android": "https://dc.lft.to/lastmile_qr_scan", "ios": "https://dc.lft.to/lastmile_qr_scan"}, "name": "e62ab0b669f1e7676a3aaddd3e9c3c10", "type": "electric_scooter", "lat": 38.903612333333335, "is_disabled": 0}, {"fusion_lat": 0.0, "lon": -77.02537383333333, "is_reserved": 0, "bike_id": "bf54452fcf12334e910939113212ce56", "fusion_lon": 0.0, "rental_uris": {"android": "https://dc.lft.to/lastmile_qr_scan", "ios": "https://dc.lft.to/lastmile_qr_scan"}, "name": "bf54452fcf12334e910939113212ce56", "type": "electric_scooter", "lat": 38.92748516666666, "is_disabled": 0}, {"fusion_lat": 0.0, "lon": -77.029015, "is_reserved": 0, "bike_id": "2163b3f2355a23ed8e1ffda1756f7904", "fusion_lon": 0.0, "rental_uris": {"android": "https://dc.lft.to/lastmile_qr_scan", "ios": "https://dc.lft.to/lastmile_qr_scan"}, "name": "2163b3f2355a23ed8e1ffda1756f7904", "type": "electric_scooter", "lat": 38.940449, "is_disabled": 0}, {"fusion_lat": 0.0, "lon": -77.00345983333334, "is_reserved": 0, "bike_id": "46dfbdda469dc9956aea1b68c814aab7", "fusion_lon": 0.0, "rental_uris": {"android": "https://dc.lft.to/lastmile_qr_scan", "ios": "https://dc.lft.to/lastmile_qr_scan"}, "name": "46dfbdda469dc9956aea1b68c814aab7", "type": "electric_scooter", "lat": 38.886145666666664, "is_disabled": 0}, {"fusion_lat": 0.0, "lon": -76.995272, "is_reserved": 0, "bike_id": "4b4381a4d64dcb657a899eb536d34feb", "fusion_lon": 0.0, "rental_uris": {"android": "https://dc.lft.to/lastmile_qr_scan", "ios": "https://dc.lft.to/lastmile_qr_scan"}, "name": "4b4381a4d64dcb657a899eb536d34feb", "type": "electric_scooter", "lat": 38.8837115, "is_disabled": 0}, {"fusion_lat": 0.0, "lon": -77.03775016666667, "is_reserved": 0, "bike_id": "2f2bbb0b4e6b04664d6437996b89a97c", "fusion_lon": 0.0, "rental_uris": {"android": "https://dc.lft.to/lastmile_qr_scan", "ios": "https://dc.lft.to/lastmile_qr_scan"}, "name": "2f2bbb0b4e6b04664d6437996b89a97c", "type": "electric_scooter", "lat": 38.922085833333334, "is_disabled": 0}, {"fusion_lat": 0.0, "lon": -76.98092166666666, "is_reserved": 0, "bike_id": "ce277085340f99a7617c4391919b5bf2", "fusion_lon": 0.0, "rental_uris": {"android": "https://dc.lft.to/lastmile_qr_scan", "ios": "https://dc.lft.to/lastmile_qr_scan"}, "name": "ce277085340f99a7617c4391919b5bf2", "type": "electric_bike", "lat": 38.921108833333335, "is_disabled": 0}, {"fusion_lat": 0.0, "lon": -77.047389, "is_reserved": 0, "bike_id": "13679e0070034af26dc789a5e2ad107b", "fusion_lon": 0.0, "rental_uris": {"android": "https://dc.lft.to/lastmile_qr_scan", "ios": "https://dc.lft.to/lastmile_qr_scan"}, "name": "13679e0070034af26dc789a5e2ad107b", "type": "electric_scooter", "lat": 38.90980033333334, "is_disabled": 0}, {"fusion_lat": 0.0, "lon": -76.99794533333333, "is_reserved": 0, "bike_id": "55232ec5a26eaaaf1eea5e3417c4819b", "fusion_lon": 0.0, "rental_uris": {"android": "https://dc.lft.to/lastmile_qr_scan", "ios": "https://dc.lft.to/lastmile_qr_scan"}, "name": "55232ec5a26eaaaf1eea5e3417c4819b", "type": "electric_bike", "lat": 38.956429166666666, "is_disabled": 0}, {"fusion_lat": 0.0, "lon": -77.03841716666666, "is_reserved": 0, "bike_id": "5117ae5e8b69137659bc8339e2788a75", "fusion_lon": 0.0, "rental_uris": {"android": "https://dc.lft.to/lastmile_qr_scan", "ios": "https://dc.lft.to/lastmile_qr_scan"}, "name": "5117ae5e8b69137659bc8339e2788a75", "type": "electric_scooter", "lat": 38.902757333333334, "is_disabled": 0}, {"fusion_lat": 0.0, "lon": -77.04322633333334, "is_reserved": 0, "bike_id": "b901c2c7a8adeb0ca05fd6a26ca321f9", "fusion_lon": 0.0, "rental_uris": {"android": "https://dc.lft.to/lastmile_qr_scan", "ios": "https://dc.lft.to/lastmile_qr_scan"}, "name": "b901c2c7a8adeb0ca05fd6a26ca321f9", "type": "electric_scooter", "lat": 38.89224466666667, "is_disabled": 0}, {"fusion_lat": 0.0, "lon": -76.99578483333333, "is_reserved": 0, "bike_id": "215949d19d9ae3391548649d6fb85ba7", "fusion_lon": 0.0, "rental_uris": {"android": "https://dc.lft.to/lastmile_qr_scan", "ios": "https://dc.lft.to/lastmile_qr_scan"}, "name": "215949d19d9ae3391548649d6fb85ba7", "type": "electric_bike", "lat": 38.85295883333333, "is_disabled": 0}, {"fusion_lat": 0.0, "lon": -77.00485833333333, "is_reserved": 0, "bike_id": "b7ce21a97e39f20b9331da16d03bfc2b", "fusion_lon": 0.0, "rental_uris": {"android": "https://dc.lft.to/lastmile_qr_scan", "ios": "https://dc.lft.to/lastmile_qr_scan"}, "name": "b7ce21a97e39f20b9331da16d03bfc2b", "type": "electric_scooter", "lat": 38.87479916666667, "is_disabled": 0}, {"fusion_lat": 0.0, "lon": -76.95534633333334, "is_reserved": 0, "bike_id": "0fb0f3d4170de5083642d8ccfd84b765", "fusion_lon": 0.0, "rental_uris": {"android": "https://dc.lft.to/lastmile_qr_scan", "ios": "https://dc.lft.to/lastmile_qr_scan"}, "name": "0fb0f3d4170de5083642d8ccfd84b765", "type": "electric_scooter", "lat": 38.887781833333335, "is_disabled": 0}, {"fusion_lat": 0.0, "lon": -77.03259066666666, "is_reserved": 0, "bike_id": "2f20a9e35c556742c818d43b5d835c34", "fusion_lon": 0.0, "rental_uris": {"android": "https://dc.lft.to/lastmile_qr_scan", "ios": "https://dc.lft.to/lastmile_qr_scan"}, "name": "2f20a9e35c556742c818d43b5d835c34", "type": "electric_scooter", "lat": 38.946268333333336, "is_disabled": 0}, {"fusion_lat": 0.0, "lon": -77.04929866666667, "is_reserved": 0, "bike_id": "e68e30d3806a8f268cafcedc51b5f484", "fusion_lon": 0.0, "rental_uris": {"android": "https://dc.lft.to/lastmile_qr_scan", "ios": "https://dc.lft.to/lastmile_qr_scan"}, "name": "e68e30d3806a8f268cafcedc51b5f484", "type": "electric_scooter", "lat": 38.89533083333333, "is_disabled": 0}, {"fusion_lat": 0.0, "lon": -77.05356366666666, "is_reserved": 0, "bike_id": "ec4cf676394a3ff2d979d140ca7751e3", "fusion_lon": 0.0, "rental_uris": {"android": "https://dc.lft.to/lastmile_qr_scan", "ios": "https://dc.lft.to/lastmile_qr_scan"}, "name": "ec4cf676394a3ff2d979d140ca7751e3", "type": "electric_scooter", "lat": 38.927239166666666, "is_disabled": 0}, {"fusion_lat": 0.0, "lon": -77.02378966666667, "is_reserved": 0, "bike_id": "1fc2844c408ccf21ff164c986a093ee7", "fusion_lon": 0.0, "rental_uris": {"android": "https://dc.lft.to/lastmile_qr_scan", "ios": "https://dc.lft.to/lastmile_qr_scan"}, "name": "1fc2844c408ccf21ff164c986a093ee7", "type": "electric_scooter", "lat": 38.90746633333333, "is_disabled": 0}, {"fusion_lat": 0.0, "lon": -76.996387, "is_reserved": 0, "bike_id": "5f8ec7b597ce6e21b88d0c6112cda7ef", "fusion_lon": 0.0, "rental_uris": {"android": "https://dc.lft.to/lastmile_qr_scan", "ios": "https://dc.lft.to/lastmile_qr_scan"}, "name": "5f8ec7b597ce6e21b88d0c6112cda7ef", "type": "electric_scooter", "lat": 38.90038116666667, "is_disabled": 0}, {"fusion_lat": 0.0, "lon": -77.02551133333333, "is_reserved": 0, "bike_id": "5368caad7f6187322bc36ae7ee69c64c", "fusion_lon": 0.0, "rental_uris": {"android": "https://dc.lft.to/lastmile_qr_scan", "ios": "https://dc.lft.to/lastmile_qr_scan"}, "name": "5368caad7f6187322bc36ae7ee69c64c", "type": "electric_scooter", "lat": 38.941426666666665, "is_disabled": 0}, {"fusion_lat": 0.0, "lon": -77.01074866666667, "is_reserved": 0, "bike_id": "c9ef3906e1e707abb82a9c162749ec40", "fusion_lon": 0.0, "rental_uris": {"android": "https://dc.lft.to/lastmile_qr_scan", "ios": "https://dc.lft.to/lastmile_qr_scan"}, "name": "c9ef3906e1e707abb82a9c162749ec40", "type": "electric_scooter", "lat": 38.91768966666667, "is_disabled": 0}, {"fusion_lat": 0.0, "lon": -77.041959, "is_reserved": 0, "bike_id": "09957a9be9fbaef90a32c418617ff64d", "fusion_lon": 0.0, "rental_uris": {"android": "https://dc.lft.to/lastmile_qr_scan", "ios": "https://dc.lft.to/lastmile_qr_scan"}, "name": "09957a9be9fbaef90a32c418617ff64d", "type": "electric_scooter", "lat": 38.9197185, "is_disabled": 0}, {"fusion_lat": 0.0, "lon": -77.03199866666667, "is_reserved": 0, "bike_id": "7101c83804704121a154f2195c85610a", "fusion_lon": 0.0, "rental_uris": {"android": "https://dc.lft.to/lastmile_qr_scan", "ios": "https://dc.lft.to/lastmile_qr_scan"}, "name": "7101c83804704121a154f2195c85610a", "type": "electric_scooter", "lat": 38.9085435, "is_disabled": 0}, {"fusion_lat": 0.0, "lon": -76.99378266666666, "is_reserved": 0, "bike_id": "e8096375cb2b72ec124c77c1e7089f40", "fusion_lon": 0.0, "rental_uris": {"android": "https://dc.lft.to/lastmile_qr_scan", "ios": "https://dc.lft.to/lastmile_qr_scan"}, "name": "e8096375cb2b72ec124c77c1e7089f40", "type": "electric_bike", "lat": 38.97188833333333, "is_disabled": 0}, {"fusion_lat": 0.0, "lon": -77.00338866666667, "is_reserved": 0, "bike_id": "d98ec910256ff0a815fcf83c623e14cc", "fusion_lon": 0.0, "rental_uris": {"android": "https://dc.lft.to/lastmile_qr_scan", "ios": "https://dc.lft.to/lastmile_qr_scan"}, "name": "d98ec910256ff0a815fcf83c623e14cc", "type": "electric_scooter", "lat": 38.895265, "is_disabled": 0}, {"fusion_lat": 0.0, "lon": -77.05741883333333, "is_reserved": 0, "bike_id": "8b9af75eb4e34fd08909cddd0d750811", "fusion_lon": 0.0, "rental_uris": {"android": "https://dc.lft.to/lastmile_qr_scan", "ios": "https://dc.lft.to/lastmile_qr_scan"}, "name": "8b9af75eb4e34fd08909cddd0d750811", "type": "electric_scooter", "lat": 38.9339005, "is_disabled": 0}, {"fusion_lat": 0.0, "lon": -77.0248855, "is_reserved": 0, "bike_id": "52d1bf3c474b70bb5267b1ba85986a7c", "fusion_lon": 0.0, "rental_uris": {"android": "https://dc.lft.to/lastmile_qr_scan", "ios": "https://dc.lft.to/lastmile_qr_scan"}, "name": "52d1bf3c474b70bb5267b1ba85986a7c", "type": "electric_scooter", "lat": 38.93756483333333, "is_disabled": 0}, {"fusion_lat": 0.0, "lon": -76.9984875, "is_reserved": 0, "bike_id": "ca12be7858de6d8b49497111f53e1f1a", "fusion_lon": 0.0, "rental_uris": {"android": "https://dc.lft.to/lastmile_qr_scan", "ios": "https://dc.lft.to/lastmile_qr_scan"}, "name": "ca12be7858de6d8b49497111f53e1f1a", "type": "electric_scooter", "lat": 38.900304, "is_disabled": 0}, {"fusion_lat": 0.0, "lon": -77.06278216666666, "is_reserved": 0, "bike_id": "6f7de2aa4f6b51f13132ceb54ebdebed", "fusion_lon": 0.0, "rental_uris": {"android": "https://dc.lft.to/lastmile_qr_scan", "ios": "https://dc.lft.to/lastmile_qr_scan"}, "name": "6f7de2aa4f6b51f13132ceb54ebdebed", "type": "electric_scooter", "lat": 38.90583266666667, "is_disabled": 0}, {"fusion_lat": 0.0, "lon": -76.94877783333334, "is_reserved": 0, "bike_id": "76b4dd4d994af885cb2bc2f1d616c0ae", "fusion_lon": 0.0, "rental_uris": {"android": "https://dc.lft.to/lastmile_qr_scan", "ios": "https://dc.lft.to/lastmile_qr_scan"}, "name": "76b4dd4d994af885cb2bc2f1d616c0ae", "type": "electric_scooter", "lat": 38.895489166666664, "is_disabled": 0}, {"fusion_lat": 0.0, "lon": -77.07332333333333, "is_reserved": 0, "bike_id": "cbf278d566db26be19a974bad8c729ee", "fusion_lon": 0.0, "rental_uris": {"android": "https://dc.lft.to/lastmile_qr_scan", "ios": "https://dc.lft.to/lastmile_qr_scan"}, "name": "cbf278d566db26be19a974bad8c729ee", "type": "electric_scooter", "lat": 38.926144, "is_disabled": 0}, {"fusion_lat": 0.0, "lon": -76.99934516666667, "is_reserved": 0, "bike_id": "2feef3d46efc5e4d9fdfd08d73f2c707", "fusion_lon": 0.0, "rental_uris": {"android": "https://dc.lft.to/lastmile_qr_scan", "ios": "https://dc.lft.to/lastmile_qr_scan"}, "name": "2feef3d46efc5e4d9fdfd08d73f2c707", "type": "electric_scooter", "lat": 38.8430125, "is_disabled": 0}, {"fusion_lat": 0.0, "lon": -77.0474215, "is_reserved": 0, "bike_id": "aa06b2ad78aeda0bb4b3a4eec9f9293d", "fusion_lon": 0.0, "rental_uris": {"android": "https://dc.lft.to/lastmile_qr_scan", "ios": "https://dc.lft.to/lastmile_qr_scan"}, "name": "aa06b2ad78aeda0bb4b3a4eec9f9293d", "type": "electric_scooter", "lat": 38.905473666666666, "is_disabled": 0}, {"fusion_lat": 0.0, "lon": -77.06332583333334, "is_reserved": 0, "bike_id": "6eadcb25406d894b1fcfd58b47b90b84", "fusion_lon": 0.0, "rental_uris": {"android": "https://dc.lft.to/lastmile_qr_scan", "ios": "https://dc.lft.to/lastmile_qr_scan"}, "name": "6eadcb25406d894b1fcfd58b47b90b84", "type": "electric_bike", "lat": 38.92100516666667, "is_disabled": 0}, {"fusion_lat": 0.0, "lon": -77.106003, "is_reserved": 0, "bike_id": "8c92fb8838bf72d14f05ceefa10a2fe7", "fusion_lon": 0.0, "rental_uris": {"android": "https://dc.lft.to/lastmile_qr_scan", "ios": "https://dc.lft.to/lastmile_qr_scan"}, "name": "8c92fb8838bf72d14f05ceefa10a2fe7", "type": "electric_bike", "lat": 38.92893633333333, "is_disabled": 0}, {"fusion_lat": 0.0, "lon": -77.02816066666666, "is_reserved": 0, "bike_id": "ef9d6ca7e1faa0f91c744a9dd054b84d", "fusion_lon": 0.0, "rental_uris": {"android": "https://dc.lft.to/lastmile_qr_scan", "ios": "https://dc.lft.to/lastmile_qr_scan"}, "name": "ef9d6ca7e1faa0f91c744a9dd054b84d", "type": "electric_scooter", "lat": 38.899776, "is_disabled": 0}, {"fusion_lat": 0.0, "lon": -77.00189916666666, "is_reserved": 0, "bike_id": "b0f0f132b2d453db6f9fcca95a40f347", "fusion_lon": 0.0, "rental_uris": {"android": "https://dc.lft.to/lastmile_qr_scan", "ios": "https://dc.lft.to/lastmile_qr_scan"}, "name": "b0f0f132b2d453db6f9fcca95a40f347", "type": "electric_scooter", "lat": 38.821983, "is_disabled": 0}, {"fusion_lat": 0.0, "lon": -77.04056466666667, "is_reserved": 0, "bike_id": "f5e581a70347955843ccdbaabab126ab", "fusion_lon": 0.0, "rental_uris": {"android": "https://dc.lft.to/lastmile_qr_scan", "ios": "https://dc.lft.to/lastmile_qr_scan"}, "name": "f5e581a70347955843ccdbaabab126ab", "type": "electric_scooter", "lat": 38.903965166666666, "is_disabled": 0}, {"fusion_lat": 0.0, "lon": -77.0208055, "is_reserved": 0, "bike_id": "93ae4f1af244feed740ba7b532ee326f", "fusion_lon": 0.0, "rental_uris": {"android": "https://dc.lft.to/lastmile_qr_scan", "ios": "https://dc.lft.to/lastmile_qr_scan"}, "name": "93ae4f1af244feed740ba7b532ee326f", "type": "electric_scooter", "lat": 38.92698083333333, "is_disabled": 0}, {"fusion_lat": 0.0, "lon": -77.04353833333333, "is_reserved": 0, "bike_id": "0cb2458972cf991141459f402e33a57c", "fusion_lon": 0.0, "rental_uris": {"android": "https://dc.lft.to/lastmile_qr_scan", "ios": "https://dc.lft.to/lastmile_qr_scan"}, "name": "0cb2458972cf991141459f402e33a57c", "type": "electric_scooter", "lat": 38.907226, "is_disabled": 0}, {"fusion_lat": 0.0, "lon": -77.03428116666667, "is_reserved": 0, "bike_id": "3650580aeaa8821a9e0af1774499b241", "fusion_lon": 0.0, "rental_uris": {"android": "https://dc.lft.to/lastmile_qr_scan", "ios": "https://dc.lft.to/lastmile_qr_scan"}, "name": "3650580aeaa8821a9e0af1774499b241", "type": "electric_scooter", "lat": 38.90720266666667, "is_disabled": 0},