{"data": {"bikes": [{"lon": -77.04052333333334, "bike_id": "5d369790524470f0f872272d6dd17857", "lat": 38.8899135, "fusion_lon": 0.0, "fusion_lat": 0.0, "type": "electric_scooter", "name": "5d369790524470f0f872272d6dd17857", "is_disabled": 0, "rental_uris": {"ios": "https://dc.lft.to/lastmile_qr_scan", "android": "https://dc.lft.to/lastmile_qr_scan"}, "is_reserved": 0}, {"lon": -76.93010266666667, "bike_id": "446c9518a2ca93b35c98e21e78de51fb", "lat": 38.896522166666664, "fusion_lon": 0.0, "fusion_lat": 0.0, "type": "electric_bike", "name": "446c9518a2ca93b35c98e21e78de51fb", "is_disabled": 0, "rental_uris": {"ios": "https://dc.lft.to/lastmile_qr_scan", "android": "https://dc.lft.to/lastmile_qr_scan"}, "is_reserved": 0}, {"lon": -76.93646216666667, "bike_id": "b65fe78bd14ceeda31365187ff97b429", "lat": 38.900628, "fusion_lon": 0.0, "fusion_lat": 0.0, "type": "electric_scooter", "name": "b65fe78bd14ceeda31365187ff97b429", "is_disabled": 0, "rental_uris": {"ios": "https://dc.lft.to/lastmile_qr_scan", "android": "https://dc.lft.to/lastmile_qr_scan"}, "is_reserved": 0}, {"lon": -76.874959, "bike_id": "be03807fa626022eb859ad270a0e2915", "lat": 38.99090416666667, "fusion_lon": 0.0, "fusion_lat": 0.0, "type": "electric_bike", "name": "be03807fa626022eb859ad270a0e2915", "is_disabled": 0, "rental_uris": {"ios": "https://dc.lft.to/lastmile_qr_scan", "android": "https://dc.lft.to/lastmile_qr_scan"}, "is_reserved": 0}, {"lon": -76.95751833333334, "bike_id": "426aedb738b5214ef16d7a7b2aa14a1f", "lat": 38.88426916666667, "fusion_lon": 0.0, "fusion_lat": 0.0, "type": "electric_scooter", "name": "426aedb738b5214ef16d7a7b2aa14a1f", "is_disabled": 0, "rental_uris": {"ios": "https://dc.lft.to/lastmile_qr_scan", "android": "https://dc.lft.to/lastmile_qr_scan"}, "is_reserved": 0}, {"lon": -77.03288916666666, "bike_id": "5533f1c960d93dfeb5debdb65d35cae2", "lat": 38.95646033333333, "fusion_lon": 0.0, "fusion_lat": 0.0, "type": "electric_scooter", "name": "5533f1c960d93dfeb5debdb65d35cae2", "is_disabled": 0, "rental_uris": {"ios": "https://dc.lft.to/lastmile_qr_scan", "android": "https://dc.lft.to/lastmile_qr_scan"}, "is_reserved": 0}, {"lon": -77.0064855, "bike_id": "a7e90e2fb0384dc1a6536c8a86769d32", "lat": 38.83887083333333, "fusion_lon": 0.0, "fusion_lat": 0.0, "type": "electric_scooter", "name": "a7e90e2fb0384dc1a6536c8a86769d32", "is_disabled": 0, "rental_uris": {"ios": "https://dc.lft.to/lastmile_qr_scan", "android": "https://dc.lft.to/lastmile_qr_scan"}, "is_reserved": 0}, {"lon": -77.03877366666667, "bike_id": "ee2ca95e11dde3f63e01a9bf73b27388", "lat": 38.915575, "fusion_lon": 0.0, "fusion_lat": 0.0, "type": "electric_scooter", "name": "ee2ca95e11dde3f63e01a9bf73b27388", "is_disabled": 0, "rental_uris": {"ios": "https://dc.lft.to/lastmile_qr_scan", "android": "https://dc.lft.to/lastmile_qr_scan"}, "is_reserved": 0}, {"lon": -76.93176533333333, "bike_id": "1a6f4264cb4b64523ba8eebb93119d61", "lat": 38.89882383333333, "fusion_lon": 0.0, "fusion_lat": 0.0, "type": "electric_scooter", "name": "1a6f4264cb4b64523ba8eebb93119d61", "is_disabled": 0, "rental_uris": {"ios": "https://dc.lft.to/lastmile_qr_scan", "android": "https://dc.lft.to/lastmile_qr_scan"}, "is_reserved": 0}, {"lon": -77.03420233333334, "bike_id": "00b88ccdbbf86a85e319870a4e781a0e", "lat": 38.933637, "fusion_lon": 0.0, "fusion_lat": 0.0, "type": "electric_scooter", "name": "00b88ccdbbf86a85e319870a4e781a0e", "is_disabled": 0, "rental_uris": {"ios": "https://dc.lft.to/lastmile_qr_scan", "android": "https://dc.lft.to/lastmile_qr_scan"}, "is_reserved": 0}, {"lon": -77.04224716666667, "bike_id": "d01d523bb7ea68f881e0d96b58513d89", "lat": 38.913252, "fusion_lon": 0.0, "fusion_lat": 0.0, "type": "electric_scooter", "name": "d01d523bb7ea68f881e0d96b58513d89", "is_disabled": 0, "rental_uris": {"ios": "https://dc.lft.to/lastmile_qr_scan", "android": "https://dc.lft.to/lastmile_qr_scan"}, "is_reserved": 0}, {"lon": -77.03266983333333, "bike_id": "96fa4b7b38d73b42f485943e93d3b716", "lat": 38.932441, "fusion_lon": 0.0, "fusion_lat": 0.0, "type": "electric_scooter", "name": "96fa4b7b38d73b42f485943e93d3b716", "is_disabled": 0, "rental_uris": {"ios": "https://dc.lft.to/lastmile_qr_scan", "android": "https://dc.lft.to/lastmile_qr_scan"}, "is_reserved": 0}, {"lon": -77.04420016666667, "bike_id": "964fdd8ecb3f7ca446e3145e68d4582e", "lat": 38.911324, "fusion_lon": 0.0, "fusion_lat": 0.0, "type": "electric_scooter", "name": "964fdd8ecb3f7ca446e3145e68d4582e", "is_disabled": 0, "rental_uris": {"ios": "https://dc.lft.to/lastmile_qr_scan", "android": "https://dc.lft.to/lastmile_qr_scan"}, "is_reserved": 0}, {"lon": -76.99291466666666, "bike_id": "dddf6e294db8990d66bc60dd54297860", "lat": 38.898875, "fusion_lon": 0.0, "fusion_lat": 0.0, "type": "electric_scooter", "name": "dddf6e294db8990d66bc60dd54297860", "is_disabled": 0, "rental_uris": {"ios": "https://dc.lft.to/lastmile_qr_scan", "android": "https://dc.lft.to/lastmile_qr_scan"}, "is_reserved": 0}, {"lon": -77.02745516666667, "bike_id": "fa059fab4292d6de5f9542bf8054b272", "lat": 38.933335166666666, "fusion_lon": 0.0, "fusion_lat": 0.0, "type": "electric_scooter", "name": "fa059fab4292d6de5f9542bf8054b272", "is_disabled": 0, "rental_uris": {"ios": "https://dc.lft.to/lastmile_qr_scan", "android": "https://dc.lft.to/lastmile_qr_scan"}, "is_reserved": 0}, {"lon": -77.04176283333334, "bike_id": "305840c7b1a4733c1cf43c30028ff22e", "lat": 38.90549866666667, "fusion_lon": 0.0, "fusion_lat": 0.0, "type": "electric_scooter", "name": "305840c7b1a4733c1cf43c30028ff22e", "is_disabled": 0, "rental_uris": {"ios": "https://dc.lft.to/lastmile_qr_scan", "android": "https://dc.lft.to/lastmile_qr_scan"}, "is_reserved": 0}, {"lon": -77.0318, "bike_id": "4c73224cd7c8dbfeacad00c82222115e", "lat": 38.918377666666665, "fusion_lon": 0.0, "fusion_lat": 0.0, "type": "electric_scooter", "name": "4c73224cd7c8dbfeacad00c82222115e", "is_disabled": 0, "rental_uris": {"ios": "https://dc.lft.to/lastmile_qr_scan", "android": "https://dc.lft.to/lastmile_qr_scan"}, "is_reserved": 0}, {"lon": -77.03542783333333, "bike_id": "9a824a1828be4e91350f1678868f9ce9", "lat": 38.925716, "fusion_lon": 0.0, "fusion_lat": 0.0, "type": "electric_scooter", "name": "9a824a1828be4e91350f1678868f9ce9", "is_disabled": 0, "rental_uris": {"ios": "https://dc.lft.to/lastmile_qr_scan", "android": "https://dc.lft.to/lastmile_qr_scan"}, "is_reserved": 0}, {"lon": -77.02166533333333, "bike_id": "b093265765331b597bb6c5e402232b97", "lat": 38.92995366666667, "fusion_lon": 0.0, "fusion_lat": 0.0, "type": "electric_scooter", "name": "b093265765331b597bb6c5e402232b97", "is_disabled": 0, "rental_uris": {"ios": "https://dc.lft.to/lastmile_qr_scan", "android": "https://dc.lft.to/lastmile_qr_scan"}, "is_reserved": 0}, {"lon": -77.00379033333333, "bike_id": "23a0df591253f8992057af3b0346d00c", "lat": 38.83599783333333, "fusion_lon": 0.0, "fusion_lat": 0.0, "type": "electric_bike", "name": "23a0df591253f8992057af3b0346d00c", "is_disabled": 0, "rental_uris": {"ios": "https://dc.lft.to/lastmile_qr_scan", "android": "https://dc.lft.to/lastmile_qr_scan"}, "is_reserved": 0}, {"lon": -77.0467345, "bike_id": "005c824323b736e41b406110f9cb7494", "lat": 38.9072385, "fusion_lon": 0.0, "fusion_lat": 0.0, "type": "electric_scooter", "name": "005c824323b736e41b406110f9cb7494", "is_disabled": 0, "rental_uris": {"ios": "https://dc.lft.to/lastmile_qr_scan", "android": "https://dc.lft.to/lastmile_qr_scan"}, "is_reserved": 0}, {"lon": -77.0358745, "bike_id": "af6eb10f632d7cb5257d1f079724940d", "lat": 38.91041083333333, "fusion_lon": 0.0, "fusion_lat": 0.0, "type": "electric_scooter", "name": "af6eb10f632d7cb5257d1f079724940d", "is_disabled": 0, "rental_uris": {"ios": "https://dc.lft.to/lastmile_qr_scan", "android": "https://dc.lft.to/lastmile_qr_scan"}, "is_reserved": 0}, {"lon": -77.03260333333333, "bike_id": "868dceb9a107069597182153f8be9a4e", "lat": 38.93775866666667, "fusion_lon": 0.0, "fusion_lat": 0.0, "type": "electric_scooter", "name": "868dceb9a107069597182153f8be9a4e", "is_disabled": 0, "rental_uris": {"ios": "https://dc.lft.to/lastmile_qr_scan", "android": "https://dc.lft.to/lastmile_qr_scan"}, "is_reserved": 0}, {"lon": -77.0333025, "bike_id": "eb6212e07e116cec72abe553c2b8afab", "lat": 38.947131166666665, "fusion_lon": 0.0, "fusion_lat": 0.0, "type": "electric_scooter", "name": "eb6212e07e116cec72abe553c2b8afab", "is_disabled": 0, "rental_uris": {"ios": "https://dc.lft.to/lastmile_qr_scan", "android": "https://dc.lft.to/lastmile_qr_scan"}, "is_reserved": 0}, {"lon": -77.03183766666666, "bike_id": "71e6d20be1c2b42f66fff30d632074aa", "lat": 38.917404833333336, "fusion_lon": 0.0, "fusion_lat": 0.0, "type": "electric_scooter", "name": "71e6d20be1c2b42f66fff30d632074aa", "is_disabled": 0, "rental_uris": {"ios": "https://dc.lft.to/lastmile_qr_scan", "android": "https://dc.lft.to/lastmile_qr_scan"}, "is_reserved": 0}, {"lon": -77.01766983333333, "bike_id": "1a33c118bf7d2c3d5e52975392445461", "lat": 38.887408666666666, "fusion_lon": 0.0, "fusion_lat": 0.0, "type": "electric_scooter", "name": "1a33c118bf7d2c3d5e52975392445461", "is_disabled": 0, "rental_uris": {"ios": "https://dc.lft.to/lastmile_qr_scan", "android": "https://dc.lft.to/lastmile_qr_scan"}, "is_reserved": 0}, {"lon": -76.9488055, "bike_id": "1b66504a4975bb7d355b717585ecc5e8", "lat": 38.8942605, "fusion_lon": 0.0, "fusion_lat": 0.0, "type": "electric_scooter", "name": "1b66504a4975bb7d355b717585ecc5e8", "is_disabled": 0, "rental_uris": {"ios": "https://dc.lft.to/lastmile_qr_scan", "android": "https://dc.lft.to/lastmile_qr_scan"}, "is_reserved": 0}, {"lon": -76.99626116666667, "bike_id": "6463b3e93cfdee1ed5979b94a4005659", "lat": 38.88798166666667, "fusion_lon": 0.0, "fusion_lat": 0.0, "type": "electric_scooter", "name": "6463b3e93cfdee1ed5979b94a4005659", "is_disabled": 0, "rental_uris": {"ios": "https://dc.lft.to/lastmile_qr_scan", "android": "https://dc.lft.to/lastmile_qr_scan"}, "is_reserved": 0}, {"lon": -77.04421866666667, "bike_id": "3417b5e17ae24e1897936b889a4415da", "lat": 38.91128916666667, "fusion_lon": 0.0, "fusion_lat": 0.0, "type": "electric_scooter", "name": "3417b5e17ae24e1897936b889a4415da", "is_disabled": 0, "rental_uris": {"ios": "https://dc.lft.to/lastmile_qr_scan", "android": "https://dc.lft.to/lastmile_qr_scan"}, "is_reserved": 0}, {"lon": -77.018193, "bike_id": "0d1c266eeb4c0d4f245e49080541f0cf", "lat": 38.901258, "fusion_lon": 0.0, "fusion_lat": 0.0, "type": "electric_scooter", "name": "0d1c266eeb4c0d4f245e49080541f0cf", "is_disabled": 0, "rental_uris": {"ios": "https://dc.lft.to/lastmile_qr_scan", "android": "https://dc.lft.to/lastmile_qr_scan"}, "is_reserved": 0}, {"lon": -77.044613, "bike_id": "5f83d1dd765c433078f846635e795904", "lat": 38.911169, "fusion_lon": 0.0, "fusion_lat": 0.0, "type": "electric_scooter", "name": "5f83d1dd765c433078f846635e795904", "is_disabled": 0, "rental_uris": {"ios": "https://dc.lft.to/lastmile_qr_scan", "android": "https://dc.lft.to/lastmile_qr_scan"}, "is_reserved": 0}, {"lon": -76.9412515, "bike_id": "4b2d1c4652935897534b2f5896879b0c", "lat": 38.90823533333333, "fusion_lon": 0.0, "fusion_lat": 0.0, "type": "electric_scooter", "name": "4b2d1c4652935897534b2f5896879b0c", "is_disabled": 0, "rental_uris": {"ios": "https://dc.lft.to/lastmile_qr_scan", "android": "https://dc.lft.to/lastmile_qr_scan"}, "is_reserved": 0}, {"lon": -77.04486083333333, "bike_id": "7c6fc7c7c2e6ee0652535b0e30c8df7b", "lat": 38.9193595, "fusion_lon": 0.0, "fusion_lat": 0.0, "type": "electric_scooter", "name": "7c6fc7c7c2e6ee0652535b0e30c8df7b", "is_disabled": 0, "rental_uris": {"ios": "https://dc.lft.to/lastmile_qr_scan", "android": "https://dc.lft.to/lastmile_qr_scan"}, "is_reserved": 0}, {"lon": -77.02691916666667, "bike_id": "fa4f1a68a045eca7cdaab9bfe112d8d3", "lat": 38.90842033333333, "fusion_lon": 0.0, "fusion_lat": 0.0, "type": "electric_scooter", "name": "fa4f1a68a045eca7cdaab9bfe112d8d3", "is_disabled": 0, "rental_uris": {"ios": "https://dc.lft.to/lastmile_qr_scan", "android": "https://dc.lft.to/lastmile_qr_scan"}, "is_reserved": 0}, {"lon": -77.02245383333333, "bike_id": "48d57b3d423651016247cc5e0f2ed9a2", "lat": 38.955262, "fusion_lon": 0.0, "fusion_lat": 0.0, "type": "electric_scooter", "name": "48d57b3d423651016247cc5e0f2ed9a2", "is_disabled": 0, "rental_uris": {"ios": "https://dc.lft.to/lastmile_qr_scan", "android": "https://dc.lft.to/lastmile_qr_scan"}, "is_reserved": 0}, {"lon": -76.99051716666666, "bike_id": "bf746559906d213742f63d88b3de6f52", "lat": 38.8637685, "fusion_lon": 0.0, "fusion_lat": 0.0, "type": "electric_scooter", "name": "bf746559906d213742f63d88b3de6f52", "is_disabled": 0, "rental_uris": {"ios": "https://dc.lft.to/lastmile_qr_scan", "android": "https://dc.lft.to/lastmile_qr_scan"}, "is_reserved": 0}, {"lon": -77.027685, "bike_id": "3404d0389ad20d9a0110b728bf66805a", "lat": 38.892225833333335, "fusion_lon": 0.0, "fusion_lat": 0.0, "type": "electric_scooter", "name": "3404d0389ad20d9a0110b728bf66805a", "is_disabled": 0, "rental_uris": {"ios": "https://dc.lft.to/lastmile_qr_scan", "android": "https://dc.lft.to/lastmile_qr_scan"}, "is_reserved": 0}, {"lon": -77.01606733333334, "bike_id": "39c573ba55e82e75a7f0e569a386b096", "lat": 38.917592166666665, "fusion_lon": 0.0, "fusion_lat": 0.0, "type": "electric_scooter", "name": "39c573ba55e82e75a7f0e569a386b096", "is_disabled": 0, "rental_uris": {"ios": "https://dc.lft.to/lastmile_qr_scan", "android": "https://dc.lft.to/lastmile_qr_scan"}, "is_reserved": 0}, {"lon": -77.05292466666667, "bike_id": "98ad19584e512ead67c3af2817931f6b", "lat": 38.903377, "fusion_lon": 0.0, "fusion_lat": 0.0, "type": "electric_scooter", "name": "98ad19584e512ead67c3af2817931f6b", "is_disabled": 0, "rental_uris": {"ios": "https://dc.lft.to/lastmile_qr_scan", "android": "https://dc.lft.to/lastmile_qr_scan"}, "is_reserved": 0}, {"lon": -77.00056033333334, "bike_id": "bd78f70175109a1455f6ff463c5217ce", "lat": 38.900822833333336, "fusion_lon": 0.0, "fusion_lat": 0.0, "type": "electric_scooter", "name": "bd78f70175109a1455f6ff463c5217ce", "is_disabled": 0, "rental_uris": {"ios": "https://dc.lft.to/lastmile_qr_scan", "android": "https://dc.lft.to/lastmile_qr_scan"}, "is_reserved": 0}, {"lon": -77.02581866666667, "bike_id": "78350e349403cba4b828d3c8e4fc265a", "lat": 38.88739666666667, "fusion_lon": 0.0, "fusion_lat": 0.0, "type": "electric_scooter", "name": "78350e349403cba4b828d3c8e4fc265a", "is_disabled": 0, "rental_uris": {"ios": "https://dc.lft.to/lastmile_qr_scan", "android": "https://dc.lft.to/lastmile_qr_scan"}, "is_reserved": 0}, {"lon": -77.00680783333334, "bike_id": "c0c49328cbf7fee76d086a13fb4f029c", "lat": 38.8349525, "fusion_lon": 0.0, "fusion_lat": 0.0, "type": "electric_scooter", "name": "c0c49328cbf7fee76d086a13fb4f029c", "is_disabled": 0, "rental_uris": {"ios": "https://dc.lft.to/lastmile_qr_scan", "android": "https://dc.lft.to/lastmile_qr_scan"}, "is_reserved": 0}, {"lon": -76.99366933333333, "bike_id": "7f9aa2fe7b658bb8f26073a3cd490b37", "lat": 38.89372766666666, "fusion_lon": 0.0, "fusion_lat": 0.0, "type": "electric_scooter", "name": "7f9aa2fe7b658bb8f26073a3cd490b37", "is_disabled": 0, "rental_uris": {"ios": "https://dc.lft.to/lastmile_qr_scan", "android": "https://dc.lft.to/lastmile_qr_scan"}, "is_reserved": 0}, {"lon": -77.01984283333333, "bike_id": "6741c8bb1037f2b1513c33bd6280314b", "lat": 38.925485, "fusion_lon": 0.0, "fusion_lat": 0.0, "type": "electric_bike", "name": "6741c8bb1037f2b1513c33bd6280314b", "is_disabled": 0, "rental_uris": {"ios": "https://dc.lft.to/lastmile_qr_scan", "android": "https://dc.lft.to/lastmile_qr_scan"}, "is_reserved": 0}, {"lon": -77.04249366666667, "bike_id": "ac19b799736b27f5b2eced68c0a9b841", "lat": 38.92426966666667, "fusion_lon": 0.0, "fusion_lat": 0.0, "type": "electric_scooter", "name": "ac19b799736b27f5b2eced68c0a9b841", "is_disabled": 0, "rental_uris": {"ios": "https://dc.lft.to/lastmile_qr_scan", "android": "https://dc.lft.to/lastmile_qr_scan"}, "is_reserved": 0}, {"lon": -77.0557985, "bike_id": "5493cba9937a516679f4bb42a56b3c38", "lat": 38.91602983333333, "fusion_lon": 0.0, "fusion_lat": 0.0, "type": "electric_scooter", "name": "5493cba9937a516679f4bb42a56b3c38", "is_disabled": 0, "rental_uris": {"ios": "https://dc.lft.to/lastmile_qr_scan", "android": "https://dc.lft.to/lastmile_qr_scan"}, "is_reserved": 0}, {"lon": -77.051281, "bike_id": "80a226b451bf04ed857db2c3c048bab2", "lat": 38.923633333333335, "fusion_lon": 0.0, "fusion_lat": 0.0, "type": "electric_scooter", "name": "80a226b451bf04ed857db2c3c048bab2", "is_disabled": 0, "rental_uris": {"ios": "https://dc.lft.to/lastmile_qr_scan", "android": "https://dc.lft.to/lastmile_qr_scan"}, "is_reserved": 0}, {"lon": -76.94885416666666, "bike_id": "fcaf346d44476c7a38ca758ba8004103", "lat": 38.895109, "fusion_lon": 0.0, "fusion_lat": 0.0, "type": "electric_scooter", "name": "fcaf346d44476c7a38ca758ba8004103", "is_disabled": 0, "rental_uris": {"ios": "https://dc.lft.to/lastmile_qr_scan", "android": "https://dc.lft.to/lastmile_qr_scan"}, "is_reserved": 0}, {"lon": -77.02685783333334, "bike_id": "c7f037ea8264e544af2a856d9d4dbb27", "lat": 38.9006335, "fusion_lon": 0.0, "fusion_lat": 0.0, "type": "electric_scooter", "name": "c7f037ea8264e544af2a856d9d4dbb27", "is_disabled": 0, "rental_uris": {"ios": "https://dc.lft.to/lastmile_qr_scan", "android": "https://dc.lft.to/lastmile_qr_scan"}, "is_reserved": 0}, {"lon": -77.02167, "bike_id": "b5c06e5190406208b1e95c08b8158fbb", "lat": 38.8972885, "fusion_lon": 0.0, "fusion_lat": 0.0, "type": "electric_scooter", "name": "b5c06e5190406208b1e95c08b8158fbb", "is_disabled": 0, "rental_uris": {"ios": "https://dc.lft.to/lastmile_qr_scan", "android": "https://dc.lft.to/lastmile_qr_scan"}, "is_reserved": 0}, {"lon": -77.05861183333333, "bike_id": "e1fd2eb3ba6c8a9b3ec5a7c444ab535e", "lat": 38.93606283333333, "fusion_lon": 0.0, "fusion_lat": 0.0, "type": "electric_scooter", "name": "e1fd2eb3ba6c8a9b3ec5a7c444ab535e", "is_disabled": 0, "rental_uris": {"ios": "https://dc.lft.to/lastmile_qr_scan", "android": "https://dc.lft.to/lastmile_qr_scan"}, "is_reserved": 0}, {"lon": -76.98214366666667, "bike_id": "9e10fd363098741c227491d9bbd74cc3", "lat": 38.866250666666666, "fusion_lon": 0.0, "fusion_lat": 0.0, "type": "electric_scooter", "name": "9e10fd363098741c227491d9bbd74cc3", "is_disabled": 0, "rental_uris": {"ios": "https://dc.lft.to/lastmile_qr_scan", "android": "https://dc.lft.to/lastmile_qr_scan"}, "is_reserved": 0}, {"lon": -76.99050433333333, "bike_id": "e052438533b99b5a5aadd72834bc0222", "lat": 38.88416183333333, "fusion_lon": 0.0, "fusion_lat": 0.0, "type": "electric_scooter", "name": "e052438533b99b5a5aadd72834bc0222", "is_disabled": 0, "rental_uris": {"ios": "https://dc.lft.to/lastmile_qr_scan", "android": "https://dc.lft.to/lastmile_qr_scan"}, "is_reserved": 0}, {"lon": -76.97329483333333, "bike_id": "969d997ebd91c076b9f5a9a8d317e980", "lat": 38.904847333333336, "fusion_lon": 0.0, "fusion_lat": 0.0, "type": "electric_bike", "name": "969d997ebd91c076b9f5a9a8d317e980", "is_disabled": 0, "rental_uris": {"ios": "https://dc.lft.to/lastmile_qr_scan", "android": "https://dc.lft.to/lastmile_qr_scan"}, "is_reserved": 0}, {"lon": -76.91597033333333, "bike_id": "1dfdb836b93ddefc4aedb27a93fa95a1", "lat": 38.8798165, "fusion_lon": 0.0, "fusion_lat": 0.0, "type": "electric_bike", "name": "1dfdb836b93ddefc4aedb27a93fa95a1", "is_disabled": 0, "rental_uris": {"ios": "https://dc.lft.to/lastmile_qr_scan", "android": "https://dc.lft.to/lastmile_qr_scan"}, "is_reserved": 0}, {"lon": -77.02189533333333, "bike_id": "31016bb4efae92cbcf80f3692182ec99", "lat": 38.9106015, "fusion_lon": 0.0, "fusion_lat": 0.0, "type": "electric_scooter", "name": "31016bb4efae92cbcf80f3692182ec99", "is_disabled": 0, "rental_uris": {"ios": "https://dc.lft.to/lastmile_qr_scan", "android": "https://dc.lft.to/lastmile_qr_scan"}, "is_reserved": 0}, {"lon": -77.00271966666666, "bike_id": "4112c1b90a9f16ea05a7d14a6f5c9cec", "lat": 38.911048666666666, "fusion_lon": 0.0, "fusion_lat": 0.0, "type": "electric_scooter", "name": "4112c1b90a9f16ea05a7d14a6f5c9cec", "is_disabled": 0, "rental_uris": {"ios": "https://dc.lft.to/lastmile_qr_scan", "android": "https://dc.lft.to/lastmile_qr_scan"}, "is_reserved": 0}, {"lon": -77.02976616666666, "bike_id": "86a9f91292b77d0b5766e8e5493ec434", "lat": 38.935008833333335, "fusion_lon": 0.0, "fusion_lat": 0.0, "type": "electric_scooter", "name": "86a9f91292b77d0b5766e8e5493ec434", "is_disabled": 0, "rental_uris": {"ios": "https://dc.lft.to/lastmile_qr_scan", "android": "https://dc.lft.to/lastmile_qr_scan"}, "is_reserved": 0}, {"lon": -77.0229415, "bike_id": "3a5978bd83dbd0a8343bd608df998e7b", "lat": 38.9088595, "fusion_lon": 0.0, "fusion_lat": 0.0, "type": "electric_scooter", "name": "3a5978bd83dbd0a8343bd608df998e7b", "is_disabled": 0, "rental_uris": {"ios": "https://dc.lft.to/lastmile_qr_scan", "android": "https://dc.lft.to/lastmile_qr_scan"}, "is_reserved": 0}, {"lon": -76.9782655, "bike_id": "d4ad153335fffcabe1fa7e120c860e14", "lat": 38.8436575, "fusion_lon": 0.0, "fusion_lat": 0.0, "type": "electric_bike", "name": "d4ad153335fffcabe1fa7e120c860e14", "is_disabled": 0, "rental_uris": {"ios": "https://dc.lft.to/lastmile_qr_scan", "android": "https://dc.lft.to/lastmile_qr_scan"}, "is_reserved": 0}, {"lon": -77.024883, "bike_id": "a68aa10956aafff80368171ab62d30bb", "lat": 38.90410166666667, "fusion_lon": 0.0, "fusion_lat": 0.0, "type": "electric_scooter", "name": "a68aa10956aafff80368171ab62d30bb", "is_disabled": 0, "rental_uris": {"ios": "https://dc.lft.to/lastmile_qr_scan", "android": "https://dc.lft.to/lastmile_qr_scan"}, "is_reserved": 0}, {"lon": -77.009298, "bike_id": "206dfd5b360ea8b2aeb50372f1b619ac", "lat": 38.89989633333333, "fusion_lon": 0.0, "fusion_lat": 0.0, "type": "electric_scooter", "name": "206dfd5b360ea8b2aeb50372f1b619ac", "is_disabled": 0, "rental_uris": {"ios": "https://dc.lft.to/lastmile_qr_scan", "android": "https://dc.lft.to/lastmile_qr_scan"}, "is_reserved": 0}, {"lon": -77.02615066666667, "bike_id": "42f7a7fb66dc26e94f2c24a676f4f17e", "lat": 38.92581416666667, "fusion_lon": 0.0, "fusion_lat": 0.0, "type": "electric_scooter", "name": "42f7a7fb66dc26e94f2c24a676f4f17e", "is_disabled": 0, "rental_uris": {"ios": "https://dc.lft.to/lastmile_qr_scan", "android": "https://dc.lft.to/lastmile_qr_scan"}, "is_reserved": 0}, {"lon": -77.02226283333333, "bike_id": "9edd609b6e374ff2ec19dc38389a378b", "lat": 38.887420166666665, "fusion_lon": 0.0, "fusion_lat": 0.0, "type": "electric_scooter", "name": "9edd609b6e374ff2ec19dc38389a378b", "is_disabled": 0, "rental_uris": {"ios": "https://dc.lft.to/lastmile_qr_scan", "android": "https://dc.lft.to/lastmile_qr_scan"}, "is_reserved": 0}, {"lon": -77.0358695, "bike_id": "1b169b139865d4fbc66067504f4663b0", "lat": 38.992284833333336, "fusion_lon": 0.0, "fusion_lat": 0.0, "type": "electric_scooter", "name": "1b169b139865d4fbc66067504f4663b0", "is_disabled": 0, "rental_uris": {"ios": "https://dc.lft.to/lastmile_qr_scan", "android": "https://dc.lft.to/lastmile_qr_scan"}, "is_reserved": 0}, {"lon": -77.01719183333333, "bike_id": "1ddbeccf19abbc2d034e09454231c55f", "lat": 38.905587, "fusion_lon": 0.0, "fusion_lat": 0.0, "type": "electric_scooter", "name": "1ddbeccf19abbc2d034e09454231c55f", "is_disabled": 0, "rental_uris": {"ios": "https://dc.lft.to/lastmile_qr_scan", "android": "https://dc.lft.to/lastmile_qr_scan"}, "is_reserved": 0}, {"lon": -77.03520983333334, "bike_id": "620365edc9521b9a3888dd21a9048d6a", "lat": 38.9273045, "fusion_lon": 0.0, "fusion_lat": 0.0, "type": "electric_scooter", "name": "620365edc9521b9a3888dd21a9048d6a", "is_disabled": 0, "rental_uris": {"ios": "https://dc.lft.to/lastmile_qr_scan", "android": "https://dc.lft.to/lastmile_qr_scan"}, "is_reserved": 0}, {"lon": -77.08335083333333, "bike_id": "2fd3ff7ef49ce781335bb170ae3fe7f1", "lat": 38.8544045, "fusion_lon": 0.0, "fusion_lat": 0.0, "type": "electric_bike", "name": "2fd3ff7ef49ce781335bb170ae3fe7f1", "is_disabled": 0, "rental_uris": {"ios": "https://dc.lft.to/lastmile_qr_scan", "android": "https://dc.lft.to/lastmile_qr_scan"}, "is_reserved": 0}, {"lon": -77.01344233333333, "bike_id": "9607e96c1997f86afa97cc779b26ed80", "lat": 38.878124, "fusion_lon": 0.0, "fusion_lat": 0.0, "type": "electric_scooter", "name": "9607e96c1997f86afa97cc779b26ed80", "is_disabled": 0, "rental_uris": {"ios": "https://dc.lft.to/lastmile_qr_scan", "android": "https://dc.lft.to/lastmile_qr_scan"}, "is_reserved": 0}, {"lon": -77.02083616666667, "bike_id": "5257bf50e22ad4ff719624c3eafdae37", "lat": 38.881847666666665, "fusion_lon": 0.0, "fusion_lat": 0.0, "type": "electric_scooter", "name": "5257bf50e22ad4ff719624c3eafdae37", "is_disabled": 0, "rental_uris": {"ios": "https://dc.lft.to/lastmile_qr_scan", "android": "https://dc.lft.to/lastmile_qr_scan"}, "is_reserved": 0}, {"lon": -77.02530116666667, "bike_id": "55b0f707457404c98f2d26c53b9670e8", "lat": 38.928936, "fusion_lon": 0.0, "fusion_lat": 0.0, "type": "electric_scooter", "name": "55b0f707457404c98f2d26c53b9670e8", "is_disabled": 0, "rental_uris": {"ios": "https://dc.lft.to/lastmile_qr_scan", "android": "https://dc.lft.to/lastmile_qr_scan"}, "is_reserved": 0}, {"lon": -77.02491233333333, "bike_id": "476e34abf03ac702284da425d4b8a533", "lat": 38.91807083333333, "fusion_lon": 0.0, "fusion_lat": 0.0, "type": "electric_scooter", "name": "476e34abf03ac702284da425d4b8a533", "is_disabled": 0, "rental_uris": {"ios": "https://dc.lft.to/lastmile_qr_scan", "android": "https://dc.lft.to/lastmile_qr_scan"}, "is_reserved": 0}, {"lon": -76.96526366666667, "bike_id": "db4190b2612b7848e150bfa80b0867a9", "lat": 38.87631066666667, "fusion_lon": 0.0, "fusion_lat": 0.0, "type": "electric_scooter", "name": "db4190b2612b7848e150bfa80b0867a9", "is_disabled": 0, "rental_uris": {"ios": "https://dc.lft.to/lastmile_qr_scan", "android": "https://dc.lft.to/lastmile_qr_scan"}, "is_reserved": 0}, {"lon": -77.0057435, "bike_id": "376ee697461d3a0c6f7a657d7feab163", "lat": 38.905605, "fusion_lon": 0.0, "fusion_lat": 0.0, "type": "electric_scooter", "name": "376ee697461d3a0c6f7a657d7feab163", "is_disabled": 0, "rental_uris": {"ios": "https://dc.lft.to/lastmile_qr_scan", "android": "https://dc.lft.to/lastmile_qr_scan"}, "is_reserved": 0}, {"lon": -77.02874683333333, "bike_id": "3644f2f45d33c36df201fcf35e939204", "lat": 38.91686716666667, "fusion_lon": 0.0, "fusion_lat": 0.0, "type": "electric_scooter", "name": "3644f2f45d33c36df201fcf35e939204", "is_disabled": 0, "rental_uris": {"ios": "https://dc.lft.to/lastmile_qr_scan", "android": "https://dc.lft.to/lastmile_qr_scan"}, "is_reserved": 0}, {"lon": -77.02843316666667, "bike_id": "071e2f0f51b4f42e65d6fbe1f3bdbf48", "lat": 38.93419, "fusion_lon": 0.0, "fusion_lat": 0.0, "type": "electric_scooter", "name": "071e2f0f51b4f42e65d6fbe1f3bdbf48", "is_disabled": 0, "rental_uris": {"ios": "https://dc.lft.to/lastmile_qr_scan", "android": "https://dc.lft.to/lastmile_qr_scan"}, "is_reserved": 0}, {"lon": -77.037588, "bike_id": "3c7a0a1ab559c30abbbaf7a15c43d186", "lat": 38.90779916666666, "fusion_lon": 0.0, "fusion_lat": 0.0, "type": "electric_scooter", "name": "3c7a0a1ab559c30abbbaf7a15c43d186", "is_disabled": 0, "rental_uris": {"ios": "https://dc.lft.to/lastmile_qr_scan", "android": "https://dc.lft.to/lastmile_qr_scan"}, "is_reserved": 0}, {"lon": -77.033439, "bike_id": "aa4f630fb468304968ae3c6e5afcf5f8", "lat": 38.898289166666665, "fusion_lon": 0.0, "fusion_lat": 0.0, "type": "electric_scooter", "name": "aa4f630fb468304968ae3c6e5afcf5f8", "is_disabled": 0, "rental_uris": {"ios": "https://dc.lft.to/lastmile_qr_scan", "android": "https://dc.lft.to/lastmile_qr_scan"}, "is_reserved": 0}, {"lon": -77.10026866666666, "bike_id": "17dbb918a853ff3b7e821e459b08c255", "lat": 38.8713465, "fusion_lon": 0.0, "fusion_lat": 0.0, "type": "electric_bike", "name": "17dbb918a853ff3b7e821e459b08c255", "is_disabled": 0, "rental_uris": {"ios": "https://dc.lft.to/lastmile_qr_scan", "android": "https://dc.lft.to/lastmile_qr_scan"}, "is_reserved": 0}, {"lon": -77.03180416666666, "bike_id": "5c5e43040dcbc0c8a067f4d3ea1f2236", "lat": 38.917414666666666, "fusion_lon": 0.0, "fusion_lat": 0.0, "type": "electric_scooter", "name": "5c5e43040dcbc0c8a067f4d3ea1f2236", "is_disabled": 0, "rental_uris": {"ios": "https://dc.lft.to/lastmile_qr_scan", "android": "https://dc.lft.to/lastmile_qr_scan"}, "is_reserved": 0}, {"lon": -77.01999316666667, "bike_id": "0bacfedc394d1a1269d91dec1a410eb2", "lat": 38.9136, "fusion_lon": 0.0, "fusion_lat": 0.0, "type": "electric_scooter", "name": "0bacfedc394d1a1269d91dec1a410eb2", "is_disabled": 0, "rental_uris": {"ios": "https://dc.lft.to/lastmile_qr_scan", "android": "https://dc.lft.to/lastmile_qr_scan"}, "is_reserved": 0}, {"lon": -77.04245916666666, "bike_id": "9ce3f636716c44e15f77c89f8e1944df", "lat": 38.91479916666667, "fusion_lon": 0.0, "fusion_lat": 0.0, "type": "electric_scooter", "name": "9ce3f636716c44e15f77c89f8e1944df", "is_disabled": 0, "rental_uris": {"ios": "https://dc.lft.to/lastmile_qr_scan", "android": "https://dc.lft.to/lastmile_qr_scan"}, "is_reserved": 0}, {"lon": -76.97533, "bike_id": "ad077ab3c9ec2be35d3be0d11f3265fd", "lat": 38.9032735, "fusion_lon": 0.0, "fusion_lat": 0.0, "type": "electric_bike", "name": "ad077ab3c9ec2be35d3be0d11f3265fd", "is_disabled": 0, "rental_uris": {"ios": "https://dc.lft.to/lastmile_qr_scan", "android": "https://dc.lft.to/lastmile_qr_scan"}, "is_reserved": 0}, {"lon": -77.01015866666667, "bike_id": "aa39a3822378b141d5342c767dac1b13", "lat": 38.867202, "fusion_lon": 0.0, "fusion_lat": 0.0, "type": "electric_scooter", "name": "aa39a3822378b141d5342c767dac1b13", "is_disabled": 0, "rental_uris": {"ios": "https://dc.lft.to/lastmile_qr_scan", "android": "https://dc.lft.to/lastmile_qr_scan"}, "is_reserved": 0}, {"lon": -77.02008083333334, "bike_id": "36994d815dc5e5c658928b9e6e92dfde", "lat": 38.89926083333334, "fusion_lon": 0.0, "fusion_lat": 0.0, "type": "electric_scooter", "name": "36994d815dc5e5c658928b9e6e92dfde", "is_disabled": 0, "rental_uris": {"ios": "https://dc.lft.to/lastmile_qr_scan", "android": "https://dc.lft.to/lastmile_qr_scan"}, "is_reserved": 0}, {"lon": -77.01748016666667, "bike_id": "df05bbc8ed4be59c52955afc34a9a72e", "lat": 38.902449, "fusion_lon": 0.0, "fusion_lat": 0.0, "type": "electric_scooter", "name": "df05bbc8ed4be59c52955afc34a9a72e", "is_disabled": 0, "rental_uris": {"ios": "https://dc.lft.to/lastmile_qr_scan", "android": "https://dc.lft.to/lastmile_qr_scan"}, "is_reserved": 0}, {"lon": -77.03660733333334, "bike_id": "dfcd997d9910bbce0a53b4ee770447e8", "lat": 38.920904166666666, "fusion_lon": 0.0, "fusion_lat": 0.0, "type": "electric_scooter", "name": "dfcd997d9910bbce0a53b4ee770447e8", "is_disabled": 0, "rental_uris": {"ios": "https://dc.lft.to/lastmile_qr_scan", "android": "https://dc.lft.to/lastmile_qr_scan"}, "is_reserved": 0}, {"lon": -77.02139766666667, "bike_id": "d0bb2ade9cd2713060788e07a66d1802", "lat": 38.900814, "fusion_lon": 0.0, "fusion_lat": 0.0, "type": "electric_scooter", "name": "d0bb2ade9cd2713060788e07a66d1802", "is_disabled": 0, "rental_uris": {"ios": "https://dc.lft.to/lastmile_qr_scan", "android": "https://dc.lft.to/lastmile_qr_scan"}, "is_reserved": 0}, {"lon": -77.03829166666667, "bike_id": "44834c7854275c1d04206ee09535f28d", "lat": 38.906703, "fusion_lon": 0.0, "fusion_lat": 0.0, "type": "electric_scooter", "name": "44834c7854275c1d04206ee09535f28d", "is_disabled": 0, "rental_uris": {"ios": "https://dc.lft.to/lastmile_qr_scan", "android": "https://dc.lft.to/lastmile_qr_scan"}, "is_reserved": 0}, {"lon": -77.05863716666667, "bike_id": "db158bff86d984f622899e01ad35270e", "lat": 38.936088833333336, "fusion_lon": 0.0, "fusion_lat": 0.0, "type": "electric_scooter", "name": "db158bff86d984f622899e01ad35270e", "is_disabled": 0, "rental_uris": {"ios": "https://dc.lft.to/lastmile_qr_scan", "android": "https://dc.lft.to/lastmile_qr_scan"}, "is_reserved": 0}, {"lon": -77.02760233333333, "bike_id": "5e33498b2f84fe5ecef18a8697bd93a7", "lat": 38.94404316666667, "fusion_lon": 0.0, "fusion_lat": 0.0, "type": "electric_scooter", "name": "5e33498b2f84fe5ecef18a8697bd93a7", "is_disabled": 0, "rental_uris": {"ios": "https://dc.lft.to/lastmile_qr_scan", "android": "https://dc.lft.to/lastmile_qr_scan"}, "is_reserved": 0}, {"lon": -77.03070666666666, "bike_id": "88b85f39b5874f900e06e111984f223d", "lat": 38.90264633333334, "fusion_lon": 0.0, "fusion_lat": 0.0, "type": "electric_scooter", "name": "88b85f39b5874f900e06e111984f223d", "is_disabled": 0, "rental_uris": {"ios": "https://dc.lft.to/lastmile_qr_scan", "android": "https://dc.lft.to/lastmile_qr_scan"}, "is_reserved": 0}, {"lon": -77.05507916666667, "bike_id": "d6042b93e462c830713c30b2dd4fb53d", "lat": 38.899977, "fusion_lon": 0.0, "fusion_lat": 0.0, "type": "electric_scooter", "name": "d6042b93e462c830713c30b2dd4fb53d", "is_disabled": 0, "rental_uris": {"ios": "https://dc.lft.to/lastmile_qr_scan", "android": "https://dc.lft.to/lastmile_qr_scan"}, "is_reserved": 0}, {"lon": -77.02389533333333, "bike_id": "793444d29bbfee9722c94163ab08ede6", "lat": 38.920095, "fusion_lon": 0.0, "fusion_lat": 0.0, "type": "electric_scooter", "name": "793444d29bbfee9722c94163ab08ede6", "is_disabled": 0, "rental_uris": {"ios": "https://dc.lft.to/lastmile_qr_scan", "android": "https://dc.lft.to/lastmile_qr_scan"}, "is_reserved": 0}, {"lon": -77.05142283333333, "bike_id": "cda272c5826f27f1762ee5a883cc87c0", "lat": 38.89864133333333, "fusion_lon": 0.0, "fusion_lat": 0.0, "type": "electric_scooter", "name": "cda272c5826f27f1762ee5a883cc87c0", "is_disabled": 0, "rental_uris": {"ios": "https://dc.lft.to/lastmile_qr_scan", "android": "https://dc.lft.to/lastmile_qr_scan"}, "is_reserved": 0}, {"lon": -77.0269925, "bike_id": "06e68fca3ae5f035a15a0c3301fe463f", "lat": 38.90622783333333, "fusion_lon": 0.0, "fusion_lat": 0.0, "type": "electric_scooter", "name": "06e68fca3ae5f035a15a0c3301fe463f", "is_disabled": 0, "rental_uris": {"ios": "https://dc.lft.to/lastmile_qr_scan", "android": "https://dc.lft.to/lastmile_qr_scan"}, "is_reserved": 0}, {"lon": -77.02438083333334, "bike_id": "ad7be65cce08c94c5308eba8411a9e12", "lat": 38.922622, "fusion_lon": 0.0, "fusion_lat": 0.0, "type": "electric_scooter", "name": "ad7be65cce08c94c5308eba8411a9e12", "is_disabled": 0, "rental_uris": {"ios": "https://dc.lft.to/lastmile_qr_scan", "android": "https://dc.lft.to/lastmile_qr_scan"}, "is_reserved": 0}, {"lon": -76.99368183333333, "bike_id": "16baf85993a31e6c56956248756761b6", "lat": 38.9402685, "fusion_lon": 0.0, "fusion_lat": 0.0, "type": "electric_scooter", "name": "16baf85993a31e6c56956248756761b6", "is_disabled": 0, "rental_uris": {"ios": "https://dc.lft.to/lastmile_qr_scan", "android": "https://dc.lft.to/lastmile_qr_scan"}, "is_reserved": 0}, {"lon": -76.99014566666666, "bike_id": "5ab5299711882fb826b711bd268e086e", "lat": 38.94606483333333, "fusion_lon": 0.0, "fusion_lat": 0.0, "type": "electric_scooter", "name": "5ab5299711882fb826b711bd268e086e", "is_disabled": 0, "rental_uris": {"ios": "https://dc.lft.to/lastmile_qr_scan", "android": "https://dc.lft.to/lastmile_qr_scan"}, "is_reserved": 0}, {"lon": -77.03864066666667, "bike_id": "23655f295fc10409a34cf6c48caef6a1", "lat": 38.920142, "fusion_lon": 0.0, "fusion_lat": 0.0, "type": "electric_scooter", "name": "23655f295fc10409a34cf6c48caef6a1", "is_disabled": 0, "rental_uris": {"ios": "https://dc.lft.to/lastmile_qr_scan", "android": "https://dc.lft.to/lastmile_qr_scan"}, "is_reserved": 0}, {"lon": -77.07661266666666, "bike_id": "f59671d2c7e99dcca76c061a4ad81e30", "lat": 38.86260033333333, "fusion_lon": 0.0, "fusion_lat": 0.0, "type": "electric_bike", "name": "f59671d2c7e99dcca76c061a4ad81e30", "is_disabled": 0, "rental_uris": {"ios": "https://dc.lft.to/lastmile_qr_scan", "android": "https://dc.lft.to/lastmile_qr_scan"}, "is_reserved": 0}, {"lon": -77.0497715, "bike_id": "cef03ecdddb9f3c992f274f72439dea7", "lat": 39.06293066666667, "fusion_lon": 0.0, "fusion_lat": 0.0, "type": "electric_bike", "name": "cef03ecdddb9f3c992f274f72439dea7", "is_disabled": 0, "rental_uris": {"ios": "https://dc.lft.to/lastmile_qr_scan", "android": "https://dc.lft.to/lastmile_qr_scan"}, "is_reserved": 0}, {"lon": -77.03653316666667, "bike_id": "0981f6f50ed9f689ed5ef8e08aa7d784", "lat": 38.929908166666664, "fusion_lon": 0.0, "fusion_lat": 0.0, "type": "electric_scooter", "name": "0981f6f50ed9f689ed5ef8e08aa7d784", "is_disabled": 0, "rental_uris": {"ios": "https://dc.lft.to/lastmile_qr_scan", "android": "https://dc.lft.to/lastmile_qr_scan"}, "is_reserved": 0}, {"lon": -76.994907, "bike_id": "7845a70b5126d479b3abe1f4059edcf4", "lat": 38.87949, "fusion_lon": 0.0, "fusion_lat": 0.0, "type": "electric_scooter", "name": "7845a70b5126d479b3abe1f4059edcf4", "is_disabled": 0, "rental_uris": {"ios": "https://dc.lft.to/lastmile_qr_scan", "android": "https://dc.lft.to/lastmile_qr_scan"}, "is_reserved": 0}, {"lon": -76.99850166666667, "bike_id": "06d5faddb11b2fabc413281dbdd1f295", "lat": 38.901034333333335, "fusion_lon": 0.0, "fusion_lat": 0.0, "type": "electric_scooter", "name": "06d5faddb11b2fabc413281dbdd1f295", "is_disabled": 0, "rental_uris": {"ios": "https://dc.lft.to/lastmile_qr_scan", "android": "https://dc.lft.to/lastmile_qr_scan"}, "is_reserved": 0}, {"lon": -77.03178466666667, "bike_id": "fbc272991b83d3f944d337b83410b95d", "lat": 38.919225, "fusion_lon": 0.0, "fusion_lat": 0.0, "type": "electric_scooter", "name": "fbc272991b83d3f944d337b83410b95d", "is_disabled": 0, "rental_uris": {"ios": "https://dc.lft.to/lastmile_qr_scan", "android": "https://dc.lft.to/lastmile_qr_scan"}, "is_reserved": 0}, {"lon": -77.02949966666667, "bike_id": "33c0446faefd95c524299e056072222f", "lat": 38.92368583333333, "fusion_lon": 0.0, "fusion_lat": 0.0, "type": "electric_scooter", "name": "33c0446faefd95c524299e056072222f", "is_disabled": 0, "rental_uris": {"ios": "https://dc.lft.to/lastmile_qr_scan", "android": "https://dc.lft.to/lastmile_qr_scan"}, "is_reserved": 0}, {"lon": -77.01001566666666, "bike_id": "5c797f332e7215a500881fc1bfbdef49", "lat": 38.91923766666667, "fusion_lon": 0.0, "fusion_lat": 0.0, "type": "electric_scooter", "name": "5c797f332e7215a500881fc1bfbdef49", "is_disabled": 0, "rental_uris": {"ios": "https://dc.lft.to/lastmile_qr_scan", "android": "https://dc.lft.to/lastmile_qr_scan"}, "is_reserved": 0}, {"lon": -77.025135, "bike_id": "2713b9aec5e8ca54e28dd5d74f5b0550", "lat": 38.9309135, "fusion_lon": 0.0, "fusion_lat": 0.0, "type": "electric_scooter", "name": "2713b9aec5e8ca54e28dd5d74f5b0550", "is_disabled": 0, "rental_uris": {"ios": "https://dc.lft.to/lastmile_qr_scan", "android": "https://dc.lft.to/lastmile_qr_scan"}, "is_reserved": 0}, {"lon": -77.02223683333334, "bike_id": "c3ff3f74d8fe3670740808478394345a", "lat": 38.89221466666667, "fusion_lon": 0.0, "fusion_lat": 0.0, "type": "electric_scooter", "name": "c3ff3f74d8fe3670740808478394345a", "is_disabled": 0, "rental_uris": {"ios": "https://dc.lft.to/lastmile_qr_scan", "android": "https://dc.lft.to/lastmile_qr_scan"}, "is_reserved": 0}, {"lon": -77.047992, "bike_id": "2405eb5dc3c4b2718b6b5f3081bb03b6", "lat": 38.909541833333336, "fusion_lon": 0.0, "fusion_lat": 0.0, "type": "electric_scooter", "name": "2405eb5dc3c4b2718b6b5f3081bb03b6", "is_disabled": 0, "rental_uris": {"ios": "https://dc.lft.to/lastmile_qr_scan", "android": "https://dc.lft.to/lastmile_qr_scan"}, "is_reserved": 0}, {"lon": -76.93361416666667, "bike_id": "ad4e7da0c652da796ba203681ebc5c33", "lat": 38.887989, "fusion_lon": 0.0, "fusion_lat": 0.0, "type": "electric_scooter", "name": "ad4e7da0c652da796ba203681ebc5c33", "is_disabled": 0, "rental_uris": {"ios": "https://dc.lft.to/lastmile_qr_scan", "android": "https://dc.lft.to/lastmile_qr_scan"}, "is_reserved": 0}, {"lon": -76.946356, "bike_id": "4a6d858591003fb1541f11e6e1ba3633", "lat": 38.89835, "fusion_lon": 0.0, "fusion_lat": 0.0, "type": "electric_scooter", "name": "4a6d858591003fb1541f11e6e1ba3633", "is_disabled": 0, "rental_uris": {"ios": "https://dc.lft.to/lastmile_qr_scan", "android": "https://dc.lft.to/lastmile_qr_scan"}, "is_reserved": 0}, {"lon": -77.04255483333333, "bike_id": "b8ff7b67c487462fae1f1d9dd312688c", "lat": 38.90708766666667, "fusion_lon": 0.0, "fusion_lat": 0.0, "type": "electric_scooter", "name": "b8ff7b67c487462fae1f1d9dd312688c", "is_disabled": 0, "rental_uris": {"ios": "https://dc.lft.to/lastmile_qr_scan", "android": "https://dc.lft.to/lastmile_qr_scan"}, "is_reserved": 0}, {"lon": -77.03169916666667, "bike_id": "bf0f10713acd260403f34e31c068c169", "lat": 38.914153666666664, "fusion_lon": 0.0, "fusion_lat": 0.0, "type": "electric_scooter", "name": "bf0f10713acd260403f34e31c068c169", "is_disabled": 0, "rental_uris": {"ios": "https://dc.lft.to/lastmile_qr_scan", "android": "https://dc.lft.to/lastmile_qr_scan"}, "is_reserved": 0}, {"lon": -76.97423166666667, "bike_id": "ce0fbb80b1b986f7c232a9297d6b5cdf", "lat": 38.90401033333333, "fusion_lon": 0.0, "fusion_lat": 0.0, "type": "electric_scooter", "name": "ce0fbb80b1b986f7c232a9297d6b5cdf", "is_disabled": 0, "rental_uris": {"ios": "https://dc.lft.to/lastmile_qr_scan", "android": "https://dc.lft.to/lastmile_qr_scan"}, "is_reserved": 0}, {"lon": -77.00006533333334, "bike_id": "e52b6538d06cb73795aa1e5c80bb657d", "lat": 38.897404333333334, "fusion_lon": 0.0, "fusion_lat": 0.0, "type": "electric_scooter", "name": "e52b6538d06cb73795aa1e5c80bb657d", "is_disabled": 0, "rental_uris": {"ios": "https://dc.lft.to/lastmile_qr_scan", "android": "https://dc.lft.to/lastmile_qr_scan"}, "is_reserved": 0}, {"lon": -77.00231866666667, "bike_id": "77f807486affb71dc06cdeb50d293738", "lat": 38.900324499999996, "fusion_lon": 0.0, "fusion_lat": 0.0, "type": "electric_scooter", "name": "77f807486affb71dc06cdeb50d293738", "is_disabled": 0, "rental_uris": {"ios": "https://dc.lft.to/lastmile_qr_scan", "android": "https://dc.lft.to/lastmile_qr_scan"}, "is_reserved": 0}, {"lon": -77.03344383333334, "bike_id": "7a770a19cc9d166281eac6b71387ba46", "lat": 38.90719766666667, "fusion_lon": 0.0, "fusion_lat": 0.0, "type": "electric_scooter", "name": "7a770a19cc9d166281eac6b71387ba46", "is_disabled": 0, "rental_uris": {"ios": "https://dc.lft.to/lastmile_qr_scan", "android": "https://dc.lft.to/lastmile_qr_scan"}, "is_reserved": 0}, {"lon": -77.031913, "bike_id": "0c863b372fb3319b5905cffd29836023", "lat": 38.9029735, "fusion_lon": 0.0, "fusion_lat": 0.0, "type": "electric_scooter", "name": "0c863b372fb3319b5905cffd29836023", "is_disabled": 0, "rental_uris": {"ios": "https://dc.lft.to/lastmile_qr_scan", "android": "https://dc.lft.to/lastmile_qr_scan"}, "is_reserved": 0}, {"lon": -77.108064, "bike_id": "70f535db1caccdb046e6436942d36d50", "lat": 38.812032333333335, "fusion_lon": 0.0, "fusion_lat": 0.0, "type": "electric_bike", "name": "70f535db1caccdb046e6436942d36d50", "is_disabled": 0, "rental_uris": {"ios": "https://dc.lft.to/lastmile_qr_scan", "android": "https://dc.lft.to/lastmile_qr_scan"}, "is_reserved": 0}, {"lon": -77.03217783333334, "bike_id": "f11c50058d0104ee45ec90ad19b30485", "lat": 38.89224266666667, "fusion_lon": 0.0, "fusion_lat": 0.0, "type": "electric_scooter", "name": "f11c50058d0104ee45ec90ad19b30485", "is_disabled": 0, "rental_uris": {"ios": "https://dc.lft.to/lastmile_qr_scan", "android": "https://dc.lft.to/lastmile_qr_scan"}, "is_reserved": 0}, {"lon": -77.04168183333333, "bike_id": "66bd88abcd1e1d006d8bc8a5c788527c", "lat": 38.9054395, "fusion_lon": 0.0, "fusion_lat": 0.0, "type": "electric_scooter", "name": "66bd88abcd1e1d006d8bc8a5c788527c", "is_disabled": 0, "rental_uris": {"ios": "https://dc.lft.to/lastmile_qr_scan", "android": "https://dc.lft.to/lastmile_qr_scan"}, "is_reserved": 0}, {"lon": -77.01519416666666, "bike_id": "be10788418d6936d7d82ee7d3e219f25", "lat": 38.88505816666667, "fusion_lon": 0.0, "fusion_lat": 0.0, "type": "electric_scooter", "name": "be10788418d6936d7d82ee7d3e219f25", "is_disabled": 0, "rental_uris": {"ios": "https://dc.lft.to/lastmile_qr_scan", "android": "https://dc.lft.to/lastmile_qr_scan"}, "is_reserved": 0}, {"lon": -77.03507533333334, "bike_id": "23578c04ee1472223081f18344244323", "lat": 38.921516833333335, "fusion_lon": 0.0, "fusion_lat": 0.0, "type": "electric_scooter", "name": "23578c04ee1472223081f18344244323", "is_disabled": 0, "rental_uris": {"ios": "https://dc.lft.to/lastmile_qr_scan", "android": "https://dc.lft.to/lastmile_qr_scan"}, "is_reserved": 0}, {"lon": -77.0459105, "bike_id": "bc2a550e569e2e64c987d387c3903eab", "lat": 38.91356866666667, "fusion_lon": 0.0, "fusion_lat": 0.0, "type": "electric_scooter", "name": "bc2a550e569e2e64c987d387c3903eab", "is_disabled": 0, "rental_uris": {"ios": "https://dc.lft.to/lastmile_qr_scan", "android": "https://dc.lft.to/lastmile_qr_scan"}, "is_reserved": 0}, {"lon": -77.02404883333334, "bike_id": "6425f2c0cd7a02d8864c3906feaa9846", "lat": 38.92085, "fusion_lon": 0.0, "fusion_lat": 0.0, "type": "electric_scooter", "name": "6425f2c0cd7a02d8864c3906feaa9846", "is_disabled": 0, "rental_uris": {"ios": "https://dc.lft.to/lastmile_qr_scan", "android": "https://dc.lft.to/lastmile_qr_scan"}, "is_reserved": 0}, {"lon": -77.02180233333333, "bike_id": "71ae90ad9d4d85bc6ba157049d3e4716", "lat": 38.893563, "fusion_lon": 0.0, "fusion_lat": 0.0, "type": "electric_scooter", "name": "71ae90ad9d4d85bc6ba157049d3e4716", "is_disabled": 0, "rental_uris": {"ios": "https://dc.lft.to/lastmile_qr_scan", "android": "https://dc.lft.to/lastmile_qr_scan"}, "is_reserved": 0}, {"lon": -77.0269545, "bike_id": "b191ae838ea110af591c68815354f3c4", "lat": 38.90419966666666, "fusion_lon": 0.0, "fusion_lat": 0.0, "type": "electric_scooter", "name": "b191ae838ea110af591c68815354f3c4", "is_disabled": 0, "rental_uris": {"ios": "https://dc.lft.to/lastmile_qr_scan", "android": "https://dc.lft.to/lastmile_qr_scan"}, "is_reserved": 0}, {"lon": -77.03502683333333, "bike_id": "59c86705944f8e398f3423887608016a", "lat": 38.92335466666667, "fusion_lon": 0.0, "fusion_lat": 0.0, "type": "electric_scooter", "name": "59c86705944f8e398f3423887608016a", "is_disabled": 0, "rental_uris": {"ios": "https://dc.lft.to/lastmile_qr_scan", "android": "https://dc.lft.to/lastmile_qr_scan"}, "is_reserved": 0}, {"lon": -76.945946, "bike_id": "8f0a1ce1b9287cc73c1a0ab8ed89b347", "lat": 38.901537, "fusion_lon": 0.0, "fusion_lat": 0.0, "type": "electric_scooter", "name": "8f0a1ce1b9287cc73c1a0ab8ed89b347", "is_disabled": 0, "rental_uris": {"ios": "https://dc.lft.to/lastmile_qr_scan", "android": "https://dc.lft.to/lastmile_qr_scan"}, "is_reserved": 0}, {"lon": -76.93191333333333, "bike_id": "c1251b28f023f5e6e73fbe41fc3972d7", "lat": 38.898774333333336, "fusion_lon": 0.0, "fusion_lat": 0.0, "type": "electric_scooter", "name": "c1251b28f023f5e6e73fbe41fc3972d7", "is_disabled": 0, "rental_uris": {"ios": "https://dc.lft.to/lastmile_qr_scan", "android": "https://dc.lft.to/lastmile_qr_scan"}, "is_reserved": 0}, {"lon": -77.02176433333334, "bike_id": "96e36929cce73cc311bd339b6a8e2ce3", "lat": 38.89724833333333, "fusion_lon": 0.0, "fusion_lat": 0.0, "type": "electric_scooter", "name": "96e36929cce73cc311bd339b6a8e2ce3", "is_disabled": 0, "rental_uris": {"ios": "https://dc.lft.to/lastmile_qr_scan", "android": "https://dc.lft.to/lastmile_qr_scan"}, "is_reserved": 0}, {"lon": -77.02396366666666, "bike_id": "e02f5499b03eaac7bcc58cb4c31aaebb", "lat": 38.9199025, "fusion_lon": 0.0, "fusion_lat": 0.0, "type": "electric_scooter", "name": "e02f5499b03eaac7bcc58cb4c31aaebb", "is_disabled": 0, "rental_uris": {"ios": "https://dc.lft.to/lastmile_qr_scan", "android": "https://dc.lft.to/lastmile_qr_scan"}, "is_reserved": 0}, {"lon": -77.039989, "bike_id": "d40c369f3883ed138507dd4edbac5b28", "lat": 38.93431133333333, "fusion_lon": 0.0, "fusion_lat": 0.0, "type": "electric_scooter", "name": "d40c369f3883ed138507dd4edbac5b28", "is_disabled": 0, "rental_uris": {"ios": "https://dc.lft.to/lastmile_qr_scan", "android": "https://dc.lft.to/lastmile_qr_scan"}, "is_reserved": 0}, {"lon": -76.97398233333334, "bike_id": "398feeaa23f664101a16d80d0fb09151", "lat": 38.90296683333333, "fusion_lon": 0.0, "fusion_lat": 0.0, "type": "electric_scooter", "name": "398feeaa23f664101a16d80d0fb09151", "is_disabled": 0, "rental_uris": {"ios": "https://dc.lft.to/lastmile_qr_scan", "android": "https://dc.lft.to/lastmile_qr_scan"}, "is_reserved": 0}, {"lon": -77.03036716666666, "bike_id": "c43c5de68defecf4915b70033d9fad0a", "lat": 38.937135, "fusion_lon": 0.0, "fusion_lat": 0.0, "type": "electric_scooter", "name": "c43c5de68defecf4915b70033d9fad0a", "is_disabled": 0, "rental_uris": {"ios": "https://dc.lft.to/lastmile_qr_scan", "android": "https://dc.lft.to/lastmile_qr_scan"}, "is_reserved": 0}, {"lon": -77.0271335, "bike_id": "45c97c1bca62406877825f3b4819a693", "lat": 38.92466566666667, "fusion_lon": 0.0, "fusion_lat": 0.0, "type": "electric_scooter", "name": "45c97c1bca62406877825f3b4819a693", "is_disabled": 0, "rental_uris": {"ios": "https://dc.lft.to/lastmile_qr_scan", "android": "https://dc.lft.to/lastmile_qr_scan"}, "is_reserved": 0}, {"lon": -76.98917916666667, "bike_id": "417c46312555fb05ceadf2f3762dee7f", "lat": 38.864931, "fusion_lon": 0.0, "fusion_lat": 0.0, "type": "electric_scooter", "name": "417c46312555fb05ceadf2f3762dee7f", "is_disabled": 0, "rental_uris": {"ios": "https://dc.lft.to/lastmile_qr_scan", "android": "https://dc.lft.to/lastmile_qr_scan"}, "is_reserved": 0}, {"lon": -77.02715883333333, "bike_id": "5ee437a467e8ef47f7ab9654a2b5c21a", "lat": 38.92282516666667, "fusion_lon": 0.0, "fusion_lat": 0.0, "type": "electric_scooter", "name": "5ee437a467e8ef47f7ab9654a2b5c21a", "is_disabled": 0, "rental_uris": {"ios": "https://dc.lft.to/lastmile_qr_scan", "android": "https://dc.lft.to/lastmile_qr_scan"}, "is_reserved": 0}, {"lon": -77.04333766666667, "bike_id": "24b73f854757405dcfe0676fc74b2689", "lat": 38.92216716666667, "fusion_lon": 0.0, "fusion_lat": 0.0, "type": "electric_scooter", "name": "24b73f854757405dcfe0676fc74b2689", "is_disabled": 0, "rental_uris": {"ios": "https://dc.lft.to/lastmile_qr_scan", "android": "https://dc.lft.to/lastmile_qr_scan"}, "is_reserved": 0}, {"lon": -77.0281825, "bike_id": "e687e088459abc4d43c3fd42a0c39e04", "lat": 38.8953835, "fusion_lon": 0.0, "fusion_lat": 0.0, "type": "electric_scooter", "name": "e687e088459abc4d43c3fd42a0c39e04", "is_disabled": 0, "rental_uris": {"ios": "https://dc.lft.to/lastmile_qr_scan", "android": "https://dc.lft.to/lastmile_qr_scan"}, "is_reserved": 0}, {"lon": -77.0382155, "bike_id": "453e9e03e376fcdae2b605deebdf0a12", "lat": 38.90974666666666, "fusion_lon": 0.0, "fusion_lat": 0.0, "type": "electric_scooter", "name": "453e9e03e376fcdae2b605deebdf0a12", "is_disabled": 0, "rental_uris": {"ios": "https://dc.lft.to/lastmile_qr_scan", "android": "https://dc.lft.to/lastmile_qr_scan"}, "is_reserved": 0}, {"lon": -77.0471965, "bike_id": "3c8390c4b278cbf354628012d67dec0c", "lat": 38.903115166666666, "fusion_lon": 0.0, "fusion_lat": 0.0, "type": "electric_scooter", "name": "3c8390c4b278cbf354628012d67dec0c", "is_disabled": 0, "rental_uris": {"ios": "https://dc.lft.to/lastmile_qr_scan", "android": "https://dc.lft.to/lastmile_qr_scan"}, "is_reserved": 0}, {"lon": -77.00617133333333, "bike_id": "23d1a268cb6616a25e96680c033fc008", "lat": 38.90822983333333, "fusion_lon": 0.0, "fusion_lat": 0.0, "type": "electric_scooter", "name": "23d1a268cb6616a25e96680c033fc008", "is_disabled": 0, "rental_uris": {"ios": "https://dc.lft.to/lastmile_qr_scan", "android": "https://dc.lft.to/lastmile_qr_scan"}, "is_reserved": 0}, {"lon": -77.044611, "bike_id": "b44eae2912c5f4570bcd95def8786672", "lat": 38.92435966666667, "fusion_lon": 0.0, "fusion_lat": 0.0, "type": "electric_scooter", "name": "b44eae2912c5f4570bcd95def8786672", "is_disabled": 0, "rental_uris": {"ios": "https://dc.lft.to/lastmile_qr_scan", "android": "https://dc.lft.to/lastmile_qr_scan"}, "is_reserved": 0}, {"lon": -77.03423866666667, "bike_id": "2107378998f07deae1cd210032768d96", "lat": 38.919271333333334, "fusion_lon": 0.0, "fusion_lat": 0.0, "type": "electric_scooter", "name": "2107378998f07deae1cd210032768d96", "is_disabled": 0, "rental_uris": {"ios": "https://dc.lft.to/lastmile_qr_scan", "android": "https://dc.lft.to/lastmile_qr_scan"}, "is_reserved": 0}, {"lon": -77.084908, "bike_id": "dcee3a4606a027b1772b7d88df31d5ad", "lat": 38.84849066666666, "fusion_lon": 0.0, "fusion_lat": 0.0, "type": "electric_bike", "name": "dcee3a4606a027b1772b7d88df31d5ad", "is_disabled": 0, "rental_uris": {"ios": "https://dc.lft.to/lastmile_qr_scan", "android": "https://dc.lft.to/lastmile_qr_scan"}, "is_reserved": 0}, {"lon": -77.03675216666667, "bike_id": "498cfedeb7a58607b7daf7d524a68e0d", "lat": 38.9210135, "fusion_lon": 0.0, "fusion_lat": 0.0, "type": "electric_scooter", "name": "498cfedeb7a58607b7daf7d524a68e0d", "is_disabled": 0, "rental_uris": {"ios": "https://dc.lft.to/lastmile_qr_scan", "android": "https://dc.lft.to/lastmile_qr_scan"}, "is_reserved": 0}, {"lon": -77.04499916666667, "bike_id": "a8dc3320835834b67046826f7c18ca05", "lat": 38.909816666666664, "fusion_lon": 0.0, "fusion_lat": 0.0, "type": "electric_scooter", "name": "a8dc3320835834b67046826f7c18ca05", "is_disabled": 0, "rental_uris": {"ios": "https://dc.lft.to/lastmile_qr_scan", "android": "https://dc.lft.to/lastmile_qr_scan"}, "is_reserved": 0}, {"lon": -76.94112783333334, "bike_id": "5ea90fd3a6200b68c2552d0c966ba75a", "lat": 38.88643883333334, "fusion_lon": 0.0, "fusion_lat": 0.0, "type": "electric_scooter", "name": "5ea90fd3a6200b68c2552d0c966ba75a", "is_disabled": 0, "rental_uris": {"ios": "https://dc.lft.to/lastmile_qr_scan", "android": "https://dc.lft.to/lastmile_qr_scan"}, "is_reserved": 0}, {"lon": -76.965238, "bike_id": "4e7ff9a6937dc04d3dd24ec865aa28ac", "lat": 38.87626983333333, "fusion_lon": 0.0, "fusion_lat": 0.0, "type": "electric_scooter", "name": "4e7ff9a6937dc04d3dd24ec865aa28ac", "is_disabled": 0, "rental_uris": {"ios": "https://dc.lft.to/lastmile_qr_scan", "android": "https://dc.lft.to/lastmile_qr_scan"}, "is_reserved": 0}, {"lon": -77.048507, "bike_id": "16bf6e346c50e939b23db94b84e7b805", "lat": 38.904438666666664, "fusion_lon": 0.0, "fusion_lat": 0.0, "type": "electric_scooter", "name": "16bf6e346c50e939b23db94b84e7b805", "is_disabled": 0, "rental_uris": {"ios": "https://dc.lft.to/lastmile_qr_scan", "android": "https://dc.lft.to/lastmile_qr_scan"}, "is_reserved": 0}, {"lon": -76.98492283333333, "bike_id": "c6d09b9fa302f764f5b0e12da0396a25", "lat": 38.87832983333333, "fusion_lon": 0.0, "fusion_lat": 0.0, "type": "electric_scooter", "name": "c6d09b9fa302f764f5b0e12da0396a25", "is_disabled": 0, "rental_uris": {"ios": "https://dc.lft.to/lastmile_qr_scan", "android": "https://dc.lft.to/lastmile_qr_scan"}, "is_reserved": 0}, {"lon": -77.03263366666667, "bike_id": "59aed5c0fa58b05afdb8a439c70fc4f6", "lat": 38.93771366666667, "fusion_lon": 0.0, "fusion_lat": 0.0, "type": "electric_scooter", "name": "59aed5c0fa58b05afdb8a439c70fc4f6", "is_disabled": 0, "rental_uris": {"ios": "https://dc.lft.to/lastmile_qr_scan", "android": "https://dc.lft.to/lastmile_qr_scan"}, "is_reserved": 0}, {"lon": -77.02794066666667, "bike_id": "1f9940d2ca4a6664eafb7f54597ec065", "lat": 38.93079066666667, "fusion_lon": 0.0, "fusion_lat": 0.0, "type": "electric_scooter", "name": "1f9940d2ca4a6664eafb7f54597ec065", "is_disabled": 0, "rental_uris": {"ios": "https://dc.lft.to/lastmile_qr_scan", "android": "https://dc.lft.to/lastmile_qr_scan"}, "is_reserved": 0}, {"lon": -77.02565033333333, "bike_id": "55a069ae3fc1695b1b54fd45392db63b", "lat": 38.92085266666667, "fusion_lon": 0.0, "fusion_lat": 0.0, "type": "electric_scooter", "name": "55a069ae3fc1695b1b54fd45392db63b", "is_disabled": 0, "rental_uris": {"ios": "https://dc.lft.to/lastmile_qr_scan", "android": "https://dc.lft.to/lastmile_qr_scan"}, "is_reserved": 0}, {"lon": -77.028237, "bike_id": "84f32642a61788868f591ff8bb134dd2", "lat": 38.898317666666664, "fusion_lon": 0.0, "fusion_lat": 0.0, "type": "electric_scooter", "name": "84f32642a61788868f591ff8bb134dd2", "is_disabled": 0, "rental_uris": {"ios": "https://dc.lft.to/lastmile_qr_scan", "android": "https://dc.lft.to/lastmile_qr_scan"}, "is_reserved": 0}, {"lon": -77.05216766666666, "bike_id": "215f8678fc07668d0869ae92f562be85", "lat": 38.915578, "fusion_lon": 0.0, "fusion_lat": 0.0, "type": "electric_scooter", "name": "215f8678fc07668d0869ae92f562be85", "is_disabled": 0, "rental_uris": {"ios": "https://dc.lft.to/lastmile_qr_scan", "android": "https://dc.lft.to/lastmile_qr_scan"}, "is_reserved": 0}, {"lon": -77.05705083333334, "bike_id": "dd090ebd909b6032bad936fcb79cf94f", "lat": 38.905470666666666, "fusion_lon": 0.0, "fusion_lat": 0.0, "type": "electric_scooter", "name": "dd090ebd909b6032bad936fcb79cf94f", "is_disabled": 0, "rental_uris": {"ios": "https://dc.lft.to/lastmile_qr_scan", "android": "https://dc.lft.to/lastmile_qr_scan"}, "is_reserved": 0}, {"lon": -77.024515, "bike_id": "9c91384d4a8156c36c5a47567769a588", "lat": 38.914073333333334, "fusion_lon": 0.0, "fusion_lat": 0.0, "type": "electric_scooter", "name": "9c91384d4a8156c36c5a47567769a588", "is_disabled": 0, "rental_uris": {"ios": "https://dc.lft.to/lastmile_qr_scan", "android": "https://dc.lft.to/lastmile_qr_scan"}, "is_reserved": 0}, {"lon": -77.03496316666667, "bike_id": "6b03d2e940498e6ae74baaebbd8a93c7", "lat": 38.932629666666664, "fusion_lon": 0.0, "fusion_lat": 0.0, "type": "electric_scooter", "name": "6b03d2e940498e6ae74baaebbd8a93c7", "is_disabled": 0, "rental_uris": {"ios": "https://dc.lft.to/lastmile_qr_scan", "android": "https://dc.lft.to/lastmile_qr_scan"}, "is_reserved": 0}, {"lon": -77.01622366666666, "bike_id": "2210d0e5b27b672fa36665e2d1459fee", "lat": 38.908654166666665, "fusion_lon": 0.0, "fusion_lat": 0.0, "type": "electric_scooter", "name": "2210d0e5b27b672fa36665e2d1459fee", "is_disabled": 0, "rental_uris": {"ios": "https://dc.lft.to/lastmile_qr_scan", "android": "https://dc.lft.to/lastmile_qr_scan"}, "is_reserved": 0}, {"lon": -77.048637, "bike_id": "d9b39945d6a5bf24c0759da2f7e991d4", "lat": 38.90955983333333, "fusion_lon": 0.0, "fusion_lat": 0.0, "type": "electric_scooter", "name": "d9b39945d6a5bf24c0759da2f7e991d4", "is_disabled": 0, "rental_uris": {"ios": "https://dc.lft.to/lastmile_qr_scan", "android": "https://dc.lft.to/lastmile_qr_scan"}, "is_reserved": 0}, {"lon": -76.99871483333334, "bike_id": "e3bf8aa8d6d79757d62313cf47d7f018", "lat": 38.900285333333336, "fusion_lon": 0.0, "fusion_lat": 0.0, "type": "electric_scooter", "name": "e3bf8aa8d6d79757d62313cf47d7f018", "is_disabled": 0, "rental_uris": {"ios": "https://dc.lft.to/lastmile_qr_scan", "android": "https://dc.lft.to/lastmile_qr_scan"}, "is_reserved": 0}, {"lon": -76.941968, "bike_id": "92c96c3e55f3fd795def20ab5532f946", "lat": 38.893131333333336, "fusion_lon": 0.0, "fusion_lat": 0.0, "type": "electric_bike", "name": "92c96c3e55f3fd795def20ab5532f946", "is_disabled": 0, "rental_uris": {"ios": "https://dc.lft.to/lastmile_qr_scan", "android": "https://dc.lft.to/lastmile_qr_scan"}, "is_reserved": 0}, {"lon": -77.00207933333333, "bike_id": "13d585a1b2344c41bdb586d9c9cd6ef7", "lat": 38.91461816666666, "fusion_lon": 0.0, "fusion_lat": 0.0, "type": "electric_scooter", "name": "13d585a1b2344c41bdb586d9c9cd6ef7", "is_disabled": 0, "rental_uris": {"ios": "https://dc.lft.to/lastmile_qr_scan", "android": "https://dc.lft.to/lastmile_qr_scan"}, "is_reserved": 0}, {"lon": -76.973316, "bike_id": "353828218befffb19869b85b50818330", "lat": 38.904128166666666, "fusion_lon": 0.0, "fusion_lat": 0.0, "type": "electric_scooter", "name": "353828218befffb19869b85b50818330", "is_disabled": 0, "rental_uris": {"ios": "https://dc.lft.to/lastmile_qr_scan", "android": "https://dc.lft.to/lastmile_qr_scan"}, "is_reserved": 0}, {"lon": -77.02966583333334, "bike_id": "89156df3f2812a8bffdcd5ef25054c7a", "lat": 38.91664383333333, "fusion_lon": 0.0, "fusion_lat": 0.0, "type": "electric_scooter", "name": "89156df3f2812a8bffdcd5ef25054c7a", "is_disabled": 0, "rental_uris": {"ios": "https://dc.lft.to/lastmile_qr_scan", "android": "https://dc.lft.to/lastmile_qr_scan"}, "is_reserved": 0}, {"lon": -77.04482983333334, "bike_id": "e5966405ff29204d6d7af4f598f33ec2", "lat": 38.913606, "fusion_lon": 0.0, "fusion_lat": 0.0, "type": "electric_scooter", "name": "e5966405ff29204d6d7af4f598f33ec2", "is_disabled": 0, "rental_uris": {"ios": "https://dc.lft.to/lastmile_qr_scan", "android": "https://dc.lft.to/lastmile_qr_scan"}, "is_reserved": 0}, {"lon": -77.04165183333333, "bike_id": "3076a83d34e41de6fd9fc6aa7b5b86d3", "lat": 38.931507333333336, "fusion_lon": 0.0, "fusion_lat": 0.0, "type": "electric_scooter", "name": "3076a83d34e41de6fd9fc6aa7b5b86d3", "is_disabled": 0, "rental_uris": {"ios": "https://dc.lft.to/lastmile_qr_scan", "android": "https://dc.lft.to/lastmile_qr_scan"}, "is_reserved": 0}, {"lon": -77.02211133333333, "bike_id": "7c02a679f53ecd495e4fa2287927088b", "lat": 38.914161166666666, "fusion_lon": 0.0, "fusion_lat": 0.0, "type": "electric_scooter", "name": "7c02a679f53ecd495e4fa2287927088b", "is_disabled": 0, "rental_uris": {"ios": "https://dc.lft.to/lastmile_qr_scan", "android": "https://dc.lft.to/lastmile_qr_scan"}, "is_reserved": 0}, {"lon": -76.99457383333333, "bike_id": "a904d492bfdb2a445e61eb886a67f39d", "lat": 38.966174333333335, "fusion_lon": 0.0, "fusion_lat": 0.0, "type": "electric_bike", "name": "a904d492bfdb2a445e61eb886a67f39d", "is_disabled": 0, "rental_uris": {"ios": "https://dc.lft.to/lastmile_qr_scan", "android": "https://dc.lft.to/lastmile_qr_scan"}, "is_reserved": 0}, {"lon": -77.04337983333333, "bike_id": "cd1e2bd4611cacac358b84f63844a422", "lat": 38.90721816666667, "fusion_lon": 0.0, "fusion_lat": 0.0, "type": "electric_scooter", "name": "cd1e2bd4611cacac358b84f63844a422", "is_disabled": 0, "rental_uris": {"ios": "https://dc.lft.to/lastmile_qr_scan", "android": "https://dc.lft.to/lastmile_qr_scan"}, "is_reserved": 0}, {"lon": -76.99033933333334, "bike_id": "9160f10c4643d6b81a4948c2e43d5698", "lat": 38.89853566666667, "fusion_lon": 0.0, "fusion_lat": 0.0, "type": "electric_scooter", "name": "9160f10c4643d6b81a4948c2e43d5698", "is_disabled": 0, "rental_uris": {"ios": "https://dc.lft.to/lastmile_qr_scan", "android": "https://dc.lft.to/lastmile_qr_scan"}, "is_reserved": 0}, {"lon": -76.97926766666667, "bike_id": "426e3c267f2ff83fb73824961696991e", "lat": 38.905028, "fusion_lon": 0.0, "fusion_lat": 0.0, "type": "electric_scooter", "name": "426e3c267f2ff83fb73824961696991e", "is_disabled": 0, "rental_uris": {"ios": "https://dc.lft.to/lastmile_qr_scan", "android": "https://dc.lft.to/lastmile_qr_scan"}, "is_reserved": 0}, {"lon": -76.99369866666666, "bike_id": "f0cbae1ab5fcb42b73dcbf6d96636400", "lat": 38.879721333333336, "fusion_lon": 0.0, "fusion_lat": 0.0, "type": "electric_scooter", "name": "f0cbae1ab5fcb42b73dcbf6d96636400", "is_disabled": 0, "rental_uris": {"ios": "https://dc.lft.to/lastmile_qr_scan", "android": "https://dc.lft.to/lastmile_qr_scan"}, "is_reserved": 0}, {"lon": -77.0276925, "bike_id": "98f99e2f9049668ef8d5683a59d47d93", "lat": 38.89221966666667, "fusion_lon": 0.0, "fusion_lat": 0.0, "type": "electric_scooter", "name": "98f99e2f9049668ef8d5683a59d47d93", "is_disabled": 0, "rental_uris": {"ios": "https://dc.lft.to/lastmile_qr_scan", "android": "https://dc.lft.to/lastmile_qr_scan"}, "is_reserved": 0}, {"lon": -77.098655, "bike_id": "50118b1d36bf2491e13cc2fc1edfe9d4", "lat": 38.949659, "fusion_lon": 0.0, "fusion_lat": 0.0, "type": "electric_scooter", "name": "50118b1d36bf2491e13cc2fc1edfe9d4", "is_disabled": 0, "rental_uris": {"ios": "https://dc.lft.to/lastmile_qr_scan", "android": "https://dc.lft.to/lastmile_qr_scan"}, "is_reserved": 0}, {"lon": -77.013148, "bike_id": "68af7dfc4565105eab582dfbb9fb5636", "lat": 38.87154966666667, "fusion_lon": 0.0, "fusion_lat": 0.0, "type": "electric_scooter", "name": "68af7dfc4565105eab582dfbb9fb5636", "is_disabled": 0, "rental_uris": {"ios": "https://dc.lft.to/lastmile_qr_scan", "android": "https://dc.lft.to/lastmile_qr_scan"}, "is_reserved": 0}, {"lon": -76.9900135, "bike_id": "4f9b49204e927cbfead37011893c9703", "lat": 38.8650905, "fusion_lon": 0.0, "fusion_lat": 0.0, "type": "electric_scooter", "name": "4f9b49204e927cbfead37011893c9703", "is_disabled": 0, "rental_uris": {"ios": "https://dc.lft.to/lastmile_qr_scan", "android": "https://dc.lft.to/lastmile_qr_scan"}, "is_reserved": 0}, {"lon": -77.03745983333333, "bike_id": "c4ea2e51406fdc40af58aae915eef4c1", "lat": 38.918101166666666, "fusion_lon": 0.0, "fusion_lat": 0.0, "type": "electric_scooter", "name": "c4ea2e51406fdc40af58aae915eef4c1", "is_disabled": 0, "rental_uris": {"ios": "https://dc.lft.to/lastmile_qr_scan", "android": "https://dc.lft.to/lastmile_qr_scan"}, "is_reserved": 0}, {"lon": -77.02723916666666, "bike_id": "bfeaa719ea5e545e7baedf9dae86c065", "lat": 38.91336583333333, "fusion_lon": 0.0, "fusion_lat": 0.0, "type": "electric_scooter", "name": "bfeaa719ea5e545e7baedf9dae86c065", "is_disabled": 0, "rental_uris": {"ios": "https://dc.lft.to/lastmile_qr_scan", "android": "https://dc.lft.to/lastmile_qr_scan"}, "is_reserved": 0}, {"lon": -77.02733866666667, "bike_id": "7e9e23911f1ed3e8168b06a2ae3cd4a3", "lat": 38.897174666666665, "fusion_lon": 0.0, "fusion_lat": 0.0, "type": "electric_scooter", "name": "7e9e23911f1ed3e8168b06a2ae3cd4a3", "is_disabled": 0, "rental_uris": {"ios": "https://dc.lft.to/lastmile_qr_scan", "android": "https://dc.lft.to/lastmile_qr_scan"}, "is_reserved": 0}, {"lon": -77.0318285, "bike_id": "ce0a275c1ebc7479a15b9a3f08574956", "lat": 38.895755666666666, "fusion_lon": 0.0, "fusion_lat": 0.0, "type": "electric_scooter", "name": "ce0a275c1ebc7479a15b9a3f08574956", "is_disabled": 0, "rental_uris": {"ios": "https://dc.lft.to/lastmile_qr_scan", "android": "https://dc.lft.to/lastmile_qr_scan"}, "is_reserved": 0}, {"lon": -77.04650766666667, "bike_id": "516d51df571a495726209949601054c5", "lat": 39.0549645, "fusion_lon": 0.0, "fusion_lat": 0.0, "type": "electric_bike", "name": "516d51df571a495726209949601054c5", "is_disabled": 0, "rental_uris": {"ios": "https://dc.lft.to/lastmile_qr_scan", "android": "https://dc.lft.to/lastmile_qr_scan"}, "is_reserved": 0}, {"lon": -77.031512, "bike_id": "7cbb2a314796fb0c4459de8acdb378d8", "lat": 38.9286255, "fusion_lon": 0.0, "fusion_lat": 0.0, "type": "electric_scooter", "name": "7cbb2a314796fb0c4459de8acdb378d8", "is_disabled": 0, "rental_uris": {"ios": "https://dc.lft.to/lastmile_qr_scan", "android": "https://dc.lft.to/lastmile_qr_scan"}, "is_reserved": 0}, {"lon": -76.95656616666666, "bike_id": "3219551f70334a17c1e09a8e51204acb", "lat": 38.896217666666665, "fusion_lon": 0.0, "fusion_lat": 0.0, "type": "electric_scooter", "name": "3219551f70334a17c1e09a8e51204acb", "is_disabled": 0, "rental_uris": {"ios": "https://dc.lft.to/lastmile_qr_scan", "android": "https://dc.lft.to/lastmile_qr_scan"}, "is_reserved": 0}, {"lon": -76.88404533333333, "bike_id": "0c19198d07ad84219b15c9b54d2093a3", "lat": 38.93169683333333, "fusion_lon": 0.0, "fusion_lat": 0.0, "type": "electric_bike", "name": "0c19198d07ad84219b15c9b54d2093a3", "is_disabled": 0, "rental_uris": {"ios": "https://dc.lft.to/lastmile_qr_scan", "android": "https://dc.lft.to/lastmile_qr_scan"}, "is_reserved": 0}, {"lon": -77.03672266666666, "bike_id": "e34ec4d152baec596d6dceb8a938cff5", "lat": 38.932080166666665, "fusion_lon": 0.0, "fusion_lat": 0.0, "type": "electric_scooter", "name": "e34ec4d152baec596d6dceb8a938cff5", "is_disabled": 0, "rental_uris": {"ios": "https://dc.lft.to/lastmile_qr_scan", "android": "https://dc.lft.to/lastmile_qr_scan"}, "is_reserved": 0}, {"lon": -77.05585183333334, "bike_id": "176964b20e7f49f2aaa6a5bd9f9f7fed", "lat": 38.9335705, "fusion_lon": 0.0, "fusion_lat": 0.0, "type": "electric_scooter", "name": "176964b20e7f49f2aaa6a5bd9f9f7fed", "is_disabled": 0, "rental_uris": {"ios": "https://dc.lft.to/lastmile_qr_scan", "android": "https://dc.lft.to/lastmile_qr_scan"}, "is_reserved": 0}, {"lon": -77.01810133333333, "bike_id": "34f76ec20f8e7ac41fed4fe9ebbced6e", "lat": 38.9648425, "fusion_lon": 0.0, "fusion_lat": 0.0, "type": "electric_scooter", "name": "34f76ec20f8e7ac41fed4fe9ebbced6e", "is_disabled": 0, "rental_uris": {"ios": "https://dc.lft.to/lastmile_qr_scan", "android": "https://dc.lft.to/lastmile_qr_scan"}, "is_reserved": 0}, {"lon": -77.02753816666667, "bike_id": "68581b984cc2de6ff9b37ebde1cf7ef3", "lat": 38.965676, "fusion_lon": 0.0, "fusion_lat": 0.0, "type": "electric_bike", "name": "68581b984cc2de6ff9b37ebde1cf7ef3", "is_disabled": 0, "rental_uris": {"ios": "https://dc.lft.to/lastmile_qr_scan", "android": "https://dc.lft.to/lastmile_qr_scan"}, "is_reserved": 0}, {"lon": -77.0602965, "bike_id": "1fe17a9e95008d092f6956f0defcfb6a", "lat": 38.933574166666666, "fusion_lon": 0.0, "fusion_lat": 0.0, "type": "electric_scooter", "name": "1fe17a9e95008d092f6956f0defcfb6a", "is_disabled": 0, "rental_uris": {"ios": "https://dc.lft.to/lastmile_qr_scan", "android": "https://dc.lft.to/lastmile_qr_scan"}, "is_reserved": 0}, {"lon": -77.127395, "bike_id": "4792e0fb4ec24f2d67f59f0df69c9d1b", "lat": 38.89565533333333, "fusion_lon": 0.0, "fusion_lat": 0.0, "type": "electric_bike", "name": "4792e0fb4ec24f2d67f59f0df69c9d1b", "is_disabled": 0, "rental_uris": {"ios": "https://dc.lft.to/lastmile_qr_scan", "android": "https://dc.lft.to/lastmile_qr_scan"}, "is_reserved": 0}, {"lon": -77.038848, "bike_id": "c27c35c210fb0964ac46004386c9d9f5", "lat": 38.9487375, "fusion_lon": 0.0, "fusion_lat": 0.0, "type": "electric_scooter", "name": "c27c35c210fb0964ac46004386c9d9f5", "is_disabled": 0, "rental_uris": {"ios": "https://dc.lft.to/lastmile_qr_scan", "android": "https://dc.lft.to/lastmile_qr_scan"}, "is_reserved": 0}, {"lon": -77.03443683333333, "bike_id": "13a84765437b92e2b908b6eb8300b4e0", "lat": 38.906400833333336, "fusion_lon": 0.0, "fusion_lat": 0.0, "type": "electric_scooter", "name": "13a84765437b92e2b908b6eb8300b4e0", "is_disabled": 0, "rental_uris": {"ios": "https://dc.lft.to/lastmile_qr_scan", "android": "https://dc.lft.to/lastmile_qr_scan"}, "is_reserved": 0}, {"lon": -77.03182433333333, "bike_id": "d5ffe0fc0a23fc8c72744a9f8316b765", "lat": 38.89574316666667, "fusion_lon": 0.0, "fusion_lat": 0.0, "type": "electric_scooter", "name": "d5ffe0fc0a23fc8c72744a9f8316b765", "is_disabled": 0, "rental_uris": {"ios": "https://dc.lft.to/lastmile_qr_scan", "android": "https://dc.lft.to/lastmile_qr_scan"}, "is_reserved": 0}, {"lon": -77.01768933333334, "bike_id": "c5de8ffa70e1ce01d70f9493739c7870", "lat": 38.887421833333335, "fusion_lon": 0.0, "fusion_lat": 0.0, "type": "electric_scooter", "name": "c5de8ffa70e1ce01d70f9493739c7870", "is_disabled": 0, "rental_uris": {"ios": "https://dc.lft.to/lastmile_qr_scan", "android": "https://dc.lft.to/lastmile_qr_scan"}, "is_reserved": 0}, {"lon": -76.983688, "bike_id": "4fc4adad6e64464d37892e1ebcefe015", "lat": 38.891451, "fusion_lon": 0.0, "fusion_lat": 0.0, "type": "electric_scooter", "name": "4fc4adad6e64464d37892e1ebcefe015", "is_disabled": 0, "rental_uris": {"ios": "https://dc.lft.to/lastmile_qr_scan", "android": "https://dc.lft.to/lastmile_qr_scan"}, "is_reserved": 0}, {"lon": -76.98840183333333, "bike_id": "7ecfbf7f9792f9dfaaac7aaf4d29e632", "lat": 38.90076583333333, "fusion_lon": 0.0, "fusion_lat": 0.0, "type": "electric_scooter", "name": "7ecfbf7f9792f9dfaaac7aaf4d29e632", "is_disabled": 0, "rental_uris": {"ios": "https://dc.lft.to/lastmile_qr_scan", "android": "https://dc.lft.to/lastmile_qr_scan"}, "is_reserved": 0}, {"lon": -76.9947945, "bike_id": "92296933ceb9ec48c97dac22cf0263ad", "lat": 38.862160833333334, "fusion_lon": 0.0, "fusion_lat": 0.0, "type": "electric_scooter", "name": "92296933ceb9ec48c97dac22cf0263ad", "is_disabled": 0, "rental_uris": {"ios": "https://dc.lft.to/lastmile_qr_scan", "android": "https://dc.lft.to/lastmile_qr_scan"}, "is_reserved": 0}, {"lon": -77.0238355, "bike_id": "41e1620e58578635bc1f76e5b0fab29f", "lat": 38.92002566666667, "fusion_lon": 0.0, "fusion_lat": 0.0, "type": "electric_scooter", "name": "41e1620e58578635bc1f76e5b0fab29f", "is_disabled": 0, "rental_uris": {"ios": "https://dc.lft.to/lastmile_qr_scan", "android": "https://dc.lft.to/lastmile_qr_scan"}, "is_reserved": 0}, {"lon": -77.06108616666667, "bike_id": "45f669e40d6d3fe7c30f56f875c703ea", "lat": 38.943674666666666, "fusion_lon": 0.0, "fusion_lat": 0.0, "type": "electric_scooter", "name": "45f669e40d6d3fe7c30f56f875c703ea", "is_disabled": 0, "rental_uris": {"ios": "https://dc.lft.to/lastmile_qr_scan", "android": "https://dc.lft.to/lastmile_qr_scan"}, "is_reserved": 0}, {"lon": -77.03181733333334, "bike_id": "ae3d4ee245874e63b72c22ebcf73c599", "lat": 38.93608783333333, "fusion_lon": 0.0, "fusion_lat": 0.0, "type": "electric_scooter", "name": "ae3d4ee245874e63b72c22ebcf73c599", "is_disabled": 0, "rental_uris": {"ios": "https://dc.lft.to/lastmile_qr_scan", "android": "https://dc.lft.to/lastmile_qr_scan"}, "is_reserved": 0}, {"lon": -77.042417, "bike_id": "7c32804612f03c4bad7974308c9e9a1a", "lat": 38.916369333333336, "fusion_lon": 0.0, "fusion_lat": 0.0, "type": "electric_scooter", "name": "7c32804612f03c4bad7974308c9e9a1a", "is_disabled": 0, "rental_uris": {"ios": "https://dc.lft.to/lastmile_qr_scan", "android": "https://dc.lft.to/lastmile_qr_scan"}, "is_reserved": 0}, {"lon": -77.03184466666667, "bike_id": "236504ad63d7e9aa488ca472ecac4a95", "lat": 38.911989, "fusion_lon": 0.0, "fusion_lat": 0.0, "type": "electric_scooter", "name": "236504ad63d7e9aa488ca472ecac4a95", "is_disabled": 0, "rental_uris": {"ios": "https://dc.lft.to/lastmile_qr_scan", "android": "https://dc.lft.to/lastmile_qr_scan"}, "is_reserved": 0}, {"lon": -77.02948216666667, "bike_id": "356b497a520af22f753ea76a18693b91", "lat": 38.90747016666667, "fusion_lon": 0.0, "fusion_lat": 0.0, "type": "electric_scooter", "name": "356b497a520af22f753ea76a18693b91", "is_disabled": 0, "rental_uris": {"ios": "https://dc.lft.to/lastmile_qr_scan", "android": "https://dc.lft.to/lastmile_qr_scan"}, "is_reserved": 0}, {"lon": -77.034151, "bike_id": "2b8a7ba2ddc08ce93430a40e1df64fcf", "lat": 38.917865166666665, "fusion_lon": 0.0, "fusion_lat": 0.0, "type": "electric_scooter", "name": "2b8a7ba2ddc08ce93430a40e1df64fcf", "is_disabled": 0, "rental_uris": {"ios": "https://dc.lft.to/lastmile_qr_scan", "android": "https://dc.lft.to/lastmile_qr_scan"}, "is_reserved": 0}, {"lon": -77.0560805, "bike_id": "872913d07435b5e9d5d76fd6ae611485", "lat": 38.9316055, "fusion_lon": 0.0, "fusion_lat": 0.0, "type": "electric_scooter", "name": "872913d07435b5e9d5d76fd6ae611485", "is_disabled": 0, "rental_uris": {"ios": "https://dc.lft.to/lastmile_qr_scan", "android": "https://dc.lft.to/lastmile_qr_scan"}, "is_reserved": 0}, {"lon": -77.0057835, "bike_id": "61d1dd01fc8adcbd65133589d3e57f5a", "lat": 38.905629, "fusion_lon": 0.0, "fusion_lat": 0.0, "type": "electric_scooter", "name": "61d1dd01fc8adcbd65133589d3e57f5a", "is_disabled": 0, "rental_uris": {"ios": "https://dc.lft.to/lastmile_qr_scan", "android": "https://dc.lft.to/lastmile_qr_scan"}, "is_reserved": 0}, {"lon": -77.00337283333333, "bike_id": "e881d560a2fa62df50db8055fb55d65d", "lat": 38.891869666666665, "fusion_lon": 0.0, "fusion_lat": 0.0, "type": "electric_scooter", "name": "e881d560a2fa62df50db8055fb55d65d", "is_disabled": 0, "rental_uris": {"ios": "https://dc.lft.to/lastmile_qr_scan", "android": "https://dc.lft.to/lastmile_qr_scan"}, "is_reserved": 0}, {"lon": -76.99174316666667, "bike_id": "cf8a7ecfb36dd444f925f885e639340f", "lat": 38.8899255, "fusion_lon": 0.0, "fusion_lat": 0.0, "type": "electric_scooter", "name": "cf8a7ecfb36dd444f925f885e639340f", "is_disabled": 0, "rental_uris": {"ios": "https://dc.lft.to/lastmile_qr_scan", "android": "https://dc.lft.to/lastmile_qr_scan"}, "is_reserved": 0}, {"lon": -77.003467, "bike_id": "0eb1fba636a22592f8ac26da9fc5a1de", "lat": 38.91625583333333, "fusion_lon": 0.0, "fusion_lat": 0.0, "type": "electric_scooter", "name": "0eb1fba636a22592f8ac26da9fc5a1de", "is_disabled": 0, "rental_uris": {"ios": "https://dc.lft.to/lastmile_qr_scan", "android": "https://dc.lft.to/lastmile_qr_scan"}, "is_reserved": 0}, {"lon": -77.02439, "bike_id": "1d42389a7fa882deae05b7194fca0079", "lat": 38.9234765, "fusion_lon": 0.0, "fusion_lat": 0.0, "type": "electric_scooter", "name": "1d42389a7fa882deae05b7194fca0079", "is_disabled": 0, "rental_uris": {"ios": "https://dc.lft.to/lastmile_qr_scan", "android": "https://dc.lft.to/lastmile_qr_scan"}, "is_reserved": 0}, {"lon": -77.0325525, "bike_id": "25203eb1ce44fb2f9d67a5740aee5faa", "lat": 38.941535333333334, "fusion_lon": 0.0, "fusion_lat": 0.0, "type": "electric_scooter", "name": "25203eb1ce44fb2f9d67a5740aee5faa", "is_disabled": 0, "rental_uris": {"ios": "https://dc.lft.to/lastmile_qr_scan", "android": "https://dc.lft.to/lastmile_qr_scan"}, "is_reserved": 0}, {"lon": -77.02223883333333, "bike_id": "d77fc956520d596ee9056b5b5c5ffb3e", "lat": 38.892209, "fusion_lon": 0.0, "fusion_lat": 0.0, "type": "electric_scooter", "name": "d77fc956520d596ee9056b5b5c5ffb3e", "is_disabled": 0, "rental_uris": {"ios": "https://dc.lft.to/lastmile_qr_scan", "android": "https://dc.lft.to/lastmile_qr_scan"}, "is_reserved": 0}, {"lon": -77.04089783333333, "bike_id": "f9640cfb026e42af7cb00657c5e4d7a8", "lat": 38.909564833333334, "fusion_lon": 0.0, "fusion_lat": 0.0, "type": "electric_scooter", "name": "f9640cfb026e42af7cb00657c5e4d7a8", "is_disabled": 0, "rental_uris": {"ios": "https://dc.lft.to/lastmile_qr_scan", "android": "https://dc.lft.to/lastmile_qr_scan"}, "is_reserved": 0}, {"lon": -77.0505485, "bike_id": "429f8f4a6fc857c88fd7950c2150e70e", "lat": 38.925892166666664, "fusion_lon": 0.0, "fusion_lat": 0.0, "type": "electric_scooter", "name": "429f8f4a6fc857c88fd7950c2150e70e", "is_disabled": 0, "rental_uris": {"ios": "https://dc.lft.to/lastmile_qr_scan", "android": "https://dc.lft.to/lastmile_qr_scan"}, "is_reserved": 0}, {"lon": -77.0376085, "bike_id": "99cb95141632bea1c983c81a21c4de1b", "lat": 38.9287675, "fusion_lon": 0.0, "fusion_lat": 0.0, "type": "electric_scooter", "name": "99cb95141632bea1c983c81a21c4de1b", "is_disabled": 0, "rental_uris": {"ios": "https://dc.lft.to/lastmile_qr_scan", "android": "https://dc.lft.to/lastmile_qr_scan"}, "is_reserved": 0}, {"lon": -76.98456366666667, "bike_id": "f8a6ef645ffa2dbaf02460fca55956c4", "lat": 38.9055145, "fusion_lon": 0.0, "fusion_lat": 0.0, "type": "electric_scooter", "name": "f8a6ef645ffa2dbaf02460fca55956c4", "is_disabled": 0, "rental_uris": {"ios": "https://dc.lft.to/lastmile_qr_scan", "android": "https://dc.lft.to/lastmile_qr_scan"}, "is_reserved": 0}, {"lon": -77.03640833333333, "bike_id": "623786f0c6f61a5e6787d9eac1bb330f", "lat": 38.916856833333334, "fusion_lon": 0.0, "fusion_lat": 0.0, "type": "electric_scooter", "name": "623786f0c6f61a5e6787d9eac1bb330f", "is_disabled": 0, "rental_uris": {"ios": "https://dc.lft.to/lastmile_qr_scan", "android": "https://dc.lft.to/lastmile_qr_scan"}, "is_reserved": 0}, {"lon": -76.99608916666666, "bike_id": "80fb89afb76fab9fc2a26a954620b1a7", "lat": 38.887076, "fusion_lon": 0.0, "fusion_lat": 0.0, "type": "electric_scooter", "name": "80fb89afb76fab9fc2a26a954620b1a7", "is_disabled": 0, "rental_uris": {"ios": "https://dc.lft.to/lastmile_qr_scan", "android": "https://dc.lft.to/lastmile_qr_scan"}, "is_reserved": 0}, {"lon": -77.02210783333334, "bike_id": "e296975bbfd8fb0936ea389cd6180d58", "lat": 38.914159166666664, "fusion_lon": 0.0, "fusion_lat": 0.0, "type": "electric_scooter", "name": "e296975bbfd8fb0936ea389cd6180d58", "is_disabled": 0, "rental_uris": {"ios": "https://dc.lft.to/lastmile_qr_scan", "android": "https://dc.lft.to/lastmile_qr_scan"}, "is_reserved": 0}, {"lon": -77.00324033333334, "bike_id": "39e871e97d67e9ee3d6e48f616a75d32", "lat": 38.9026575, "fusion_lon": 0.0, "fusion_lat": 0.0, "type": "electric_scooter", "name": "39e871e97d67e9ee3d6e48f616a75d32", "is_disabled": 0, "rental_uris": {"ios": "https://dc.lft.to/lastmile_qr_scan", "android": "https://dc.lft.to/lastmile_qr_scan"}, "is_reserved": 0}, {"lon": -77.02099366666667, "bike_id": "215d98437c05aab4d618fe2839d8d8ae", "lat": 38.93115983333333, "fusion_lon": 0.0, "fusion_lat": 0.0, "type": "electric_scooter", "name": "215d98437c05aab4d618fe2839d8d8ae", "is_disabled": 0, "rental_uris": {"ios": "https://dc.lft.to/lastmile_qr_scan", "android": "https://dc.lft.to/lastmile_qr_scan"}, "is_reserved": 0}, {"lon": -77.02711916666667, "bike_id": "a34828391dafe40968d7caa7929cb9dc", "lat": 38.934770666666665, "fusion_lon": 0.0, "fusion_lat": 0.0, "type": "electric_scooter", "name": "a34828391dafe40968d7caa7929cb9dc", "is_disabled": 0, "rental_uris": {"ios": "https://dc.lft.to/lastmile_qr_scan", "android": "https://dc.lft.to/lastmile_qr_scan"}, "is_reserved": 0}, {"lon": -76.965785, "bike_id": "c25242e5590fcb7de64eb68d28b1bfa3", "lat": 38.87135333333333, "fusion_lon": 0.0, "fusion_lat": 0.0, "type": "electric_scooter", "name": "c25242e5590fcb7de64eb68d28b1bfa3", "is_disabled": 0, "rental_uris": {"ios": "https://dc.lft.to/lastmile_qr_scan", "android": "https://dc.lft.to/lastmile_qr_scan"}, "is_reserved": 0}, {"lon": -77.04322983333333, "bike_id": "113d91e07310d2d0a3a5e38f6422d81a", "lat": 38.91882416666667, "fusion_lon": 0.0, "fusion_lat": 0.0, "type": "electric_scooter", "name": "113d91e07310d2d0a3a5e38f6422d81a", "is_disabled": 0, "rental_uris": {"ios": "https://dc.lft.to/lastmile_qr_scan", "android": "https://dc.lft.to/lastmile_qr_scan"}, "is_reserved": 0}, {"lon": -77.12484916666666, "bike_id": "968c363ae6e71048cccd69bb81bdef1e", "lat": 38.827837833333334, "fusion_lon": 0.0, "fusion_lat": 0.0, "type": "electric_bike", "name": "968c363ae6e71048cccd69bb81bdef1e", "is_disabled": 0, "rental_uris": {"ios": "https://dc.lft.to/lastmile_qr_scan", "android": "https://dc.lft.to/lastmile_qr_scan"}, "is_reserved": 0}, {"lon": -77.06422766666667, "bike_id": "d8a5ecdfde53558d164044f9eb37a6bb", "lat": 38.908892333333334, "fusion_lon": 0.0, "fusion_lat": 0.0, "type": "electric_scooter", "name": "d8a5ecdfde53558d164044f9eb37a6bb", "is_disabled": 0, "rental_uris": {"ios": "https://dc.lft.to/lastmile_qr_scan", "android": "https://dc.lft.to/lastmile_qr_scan"}, "is_reserved": 0}, {"lon": -77.04503083333333, "bike_id": "91209d0444c84d74af5d3433b5a3a8f4", "lat": 38.911098, "fusion_lon": 0.0, "fusion_lat": 0.0, "type": "electric_scooter", "name": "91209d0444c84d74af5d3433b5a3a8f4", "is_disabled": 0, "rental_uris": {"ios": "https://dc.lft.to/lastmile_qr_scan", "android": "https://dc.lft.to/lastmile_qr_scan"}, "is_reserved": 0}, {"lon": -77.03403966666667, "bike_id": "79c2575335783e4ed731a3fbad37b52a", "lat": 38.960277166666664, "fusion_lon": 0.0, "fusion_lat": 0.0, "type": "electric_bike", "name": "79c2575335783e4ed731a3fbad37b52a", "is_disabled": 0, "rental_uris": {"ios": "https://dc.lft.to/lastmile_qr_scan", "android": "https://dc.lft.to/lastmile_qr_scan"}, "is_reserved": 0}, {"lon": -76.99852766666666, "bike_id": "d440bc039afc6d46c2ad7f0449ea40ae", "lat": 38.84160033333333, "fusion_lon": 0.0, "fusion_lat": 0.0, "type": "electric_scooter", "name": "d440bc039afc6d46c2ad7f0449ea40ae", "is_disabled": 0, "rental_uris": {"ios": "https://dc.lft.to/lastmile_qr_scan", "android": "https://dc.lft.to/lastmile_qr_scan"}, "is_reserved": 0}, {"lon": -77.057661, "bike_id": "3a83eb5d13e3f7fc9b646f24f8156774", "lat": 38.936210333333335, "fusion_lon": 0.0, "fusion_lat": 0.0, "type": "electric_scooter", "name": "3a83eb5d13e3f7fc9b646f24f8156774", "is_disabled": 0, "rental_uris": {"ios": "https://dc.lft.to/lastmile_qr_scan", "android": "https://dc.lft.to/lastmile_qr_scan"}, "is_reserved": 0}, {"lon": -77.00282766666666, "bike_id": "50483999bfe55abe8df3221d27e77f75", "lat": 38.957096666666665, "fusion_lon": 0.0, "fusion_lat": 0.0, "type": "electric_bike", "name": "50483999bfe55abe8df3221d27e77f75", "is_disabled": 0, "rental_uris": {"ios": "https://dc.lft.to/lastmile_qr_scan", "android": "https://dc.lft.to/lastmile_qr_scan"}, "is_reserved": 0}, {"lon": -77.0342045, "bike_id": "d3d7e892768c6d2866687b125df54338", "lat": 38.9274435, "fusion_lon": 0.0, "fusion_lat": 0.0, "type": "electric_scooter", "name": "d3d7e892768c6d2866687b125df54338", "is_disabled": 0, "rental_uris": {"ios": "https://dc.lft.to/lastmile_qr_scan", "android": "https://dc.lft.to/lastmile_qr_scan"}, "is_reserved": 0}, {"lon": -77.04704583333333, "bike_id": "f459dd1f3c4bc4f57c96776f193700bd", "lat": 38.916672, "fusion_lon": 0.0, "fusion_lat": 0.0, "type": "electric_bike", "name": "f459dd1f3c4bc4f57c96776f193700bd", "is_disabled": 0, "rental_uris": {"ios": "https://dc.lft.to/lastmile_qr_scan", "android": "https://dc.lft.to/lastmile_qr_scan"}, "is_reserved": 0}, {"lon": -77.06114866666667, "bike_id": "13f996fb9e278e5d9ab323d199e3db23", "lat": 38.904819, "fusion_lon": 0.0, "fusion_lat": 0.0, "type": "electric_scooter", "name": "13f996fb9e278e5d9ab323d199e3db23", "is_disabled": 0, "rental_uris": {"ios": "https://dc.lft.to/lastmile_qr_scan", "android": "https://dc.lft.to/lastmile_qr_scan"}, "is_reserved": 0}, {"lon": -77.03211816666666, "bike_id": "9cef8a8fdbf910f9b0f437b51f27777e", "lat": 38.93614516666667, "fusion_lon": 0.0, "fusion_lat": 0.0, "type": "electric_scooter", "name": "9cef8a8fdbf910f9b0f437b51f27777e", "is_disabled": 0, "rental_uris": {"ios": "https://dc.lft.to/lastmile_qr_scan", "android": "https://dc.lft.to/lastmile_qr_scan"}, "is_reserved": 0}, {"lon": -77.05601866666667, "bike_id": "0f6d86f0c94dc359752e223ad21eeca1", "lat": 38.93697266666667, "fusion_lon": 0.0, "fusion_lat": 0.0, "type": "electric_scooter", "name": "0f6d86f0c94dc359752e223ad21eeca1", "is_disabled": 0, "rental_uris": {"ios": "https://dc.lft.to/lastmile_qr_scan", "android": "https://dc.lft.to/lastmile_qr_scan"}, "is_reserved": 0}, {"lon": -76.93278266666667, "bike_id": "c8402ea6be69ce7a2d7d31122df21ad9", "lat": 38.954217, "fusion_lon": 0.0, "fusion_lat": 0.0, "type": "electric_bike", "name": "c8402ea6be69ce7a2d7d31122df21ad9", "is_disabled": 0, "rental_uris": {"ios": "https://dc.lft.to/lastmile_qr_scan", "android": "https://dc.lft.to/lastmile_qr_scan"}, "is_reserved": 0}, {"lon": -77.0177245, "bike_id": "3c3810cc255b1f4270dea8e0a3d68f60", "lat": 38.903789, "fusion_lon": 0.0, "fusion_lat": 0.0, "type": "electric_scooter", "name": "3c3810cc255b1f4270dea8e0a3d68f60", "is_disabled": 0, "rental_uris": {"ios": "https://dc.lft.to/lastmile_qr_scan", "android": "https://dc.lft.to/lastmile_qr_scan"}, "is_reserved": 0}, {"lon": -77.02285083333334, "bike_id": "905bae6353bd10d3821cefd1a1a7c6f6", "lat": 38.9167505, "fusion_lon": 0.0, "fusion_lat": 0.0, "type": "electric_scooter", "name": "905bae6353bd10d3821cefd1a1a7c6f6", "is_disabled": 0, "rental_uris": {"ios": "https://dc.lft.to/lastmile_qr_scan", "android": "https://dc.lft.to/lastmile_qr_scan"}, "is_reserved": 0}, {"lon": -77.03625683333334, "bike_id": "131b2ba0d7abb0b1b69a34cf02d2610d", "lat": 38.915502333333336, "fusion_lon": 0.0, "fusion_lat": 0.0, "type": "electric_scooter", "name": "131b2ba0d7abb0b1b69a34cf02d2610d", "is_disabled": 0, "rental_uris": {"ios": "https://dc.lft.to/lastmile_qr_scan", "android": "https://dc.lft.to/lastmile_qr_scan"}, "is_reserved": 0}, {"lon": -77.016503, "bike_id": "33ae7f01077e082c7a405132c75cf378", "lat": 38.89981983333333, "fusion_lon": 0.0, "fusion_lat": 0.0, "type": "electric_scooter", "name": "33ae7f01077e082c7a405132c75cf378", "is_disabled": 0, "rental_uris": {"ios": "https://dc.lft.to/lastmile_qr_scan", "android": "https://dc.lft.to/lastmile_qr_scan"}, "is_reserved": 0}, {"lon": -77.0293685, "bike_id": "6e0d3df23f302e74cb908f2ff9172cb4", "lat": 38.89648583333334, "fusion_lon": 0.0, "fusion_lat": 0.0, "type": "electric_scooter", "name": "6e0d3df23f302e74cb908f2ff9172cb4", "is_disabled": 0, "rental_uris": {"ios": "https://dc.lft.to/lastmile_qr_scan", "android": "https://dc.lft.to/lastmile_qr_scan"}, "is_reserved": 0}, {"lon": -77.00536766666667, "bike_id": "334927685ab774cd3afa7674472c9d87", "lat": 38.87545516666667, "fusion_lon": 0.0, "fusion_lat": 0.0, "type": "electric_scooter", "name": "334927685ab774cd3afa7674472c9d87", "is_disabled": 0, "rental_uris": {"ios": "https://dc.lft.to/lastmile_qr_scan", "android": "https://dc.lft.to/lastmile_qr_scan"}, "is_reserved": 0}, {"lon": -77.001234, "bike_id": "808b6aee6ab4c58d2f2a93963a154dcd", "lat": 38.878184, "fusion_lon": 0.0, "fusion_lat": 0.0, "type": "electric_scooter", "name": "808b6aee6ab4c58d2f2a93963a154dcd", "is_disabled": 0, "rental_uris": {"ios": "https://dc.lft.to/lastmile_qr_scan", "android": "https://dc.lft.to/lastmile_qr_scan"}, "is_reserved": 0}, {"lon": -77.0450195, "bike_id": "3ca393a7117fac3d137c10cba569de24", "lat": 38.911076333333334, "fusion_lon": 0.0, "fusion_lat": 0.0, "type": "electric_scooter", "name": "3ca393a7117fac3d137c10cba569de24", "is_disabled": 0, "rental_uris": {"ios": "https://dc.lft.to/lastmile_qr_scan", "android": "https://dc.lft.to/lastmile_qr_scan"}, "is_reserved": 0}, {"lon": -77.03222933333333, "bike_id": "07a30e5c582ebcb907c1f5a4675f7aec", "lat": 38.9096845, "fusion_lon": 0.0, "fusion_lat": 0.0, "type": "electric_scooter", "name": "07a30e5c582ebcb907c1f5a4675f7aec", "is_disabled": 0, "rental_uris": {"ios": "https://dc.lft.to/lastmile_qr_scan", "android": "https://dc.lft.to/lastmile_qr_scan"}, "is_reserved": 0}, {"lon": -77.02387083333333, "bike_id": "3df5c16fe91acc0c6f08597b2ec6bc09", "lat": 38.9062455, "fusion_lon": 0.0, "fusion_lat": 0.0, "type": "electric_scooter", "name": "3df5c16fe91acc0c6f08597b2ec6bc09", "is_disabled": 0, "rental_uris": {"ios": "https://dc.lft.to/lastmile_qr_scan", "android": "https://dc.lft.to/lastmile_qr_scan"}, "is_reserved": 0}, {"lon": -77.03503233333333, "bike_id": "78bd01c6946f57dbbc133b7924fdafd7", "lat": 38.9118305, "fusion_lon": 0.0, "fusion_lat": 0.0, "type": "electric_scooter", "name": "78bd01c6946f57dbbc133b7924fdafd7", "is_disabled": 0, "rental_uris": {"ios": "https://dc.lft.to/lastmile_qr_scan", "android": "https://dc.lft.to/lastmile_qr_scan"}, "is_reserved": 0}, {"lon": -77.020923, "bike_id": "80e81ab3250b2badf2ef0a17a3ad0972", "lat": 38.929106166666664, "fusion_lon": 0.0, "fusion_lat": 0.0, "type": "electric_scooter", "name": "80e81ab3250b2badf2ef0a17a3ad0972", "is_disabled": 0, "rental_uris": {"ios": "https://dc.lft.to/lastmile_qr_scan", "android": "https://dc.lft.to/lastmile_qr_scan"}, "is_reserved": 0}, {"lon": -77.03272333333334, "bike_id": "a20cc0c9534ec89f89c956244a4975e1", "lat": 38.91991266666667, "fusion_lon": 0.0, "fusion_lat": 0.0, "type": "electric_scooter", "name": "a20cc0c9534ec89f89c956244a4975e1", "is_disabled": 0, "rental_uris": {"ios": "https://dc.lft.to/lastmile_qr_scan", "android": "https://dc.lft.to/lastmile_qr_scan"}, "is_reserved": 0}, {"lon": -76.90739116666667, "bike_id": "ec63e31691e3ca200beb2cd79d60621a", "lat": 38.89612983333333, "fusion_lon": 0.0, "fusion_lat": 0.0, "type": "electric_bike", "name": "ec63e31691e3ca200beb2cd79d60621a", "is_disabled": 0, "rental_uris": {"ios": "https://dc.lft.to/lastmile_qr_scan", "android": "https://dc.lft.to/lastmile_qr_scan"}, "is_reserved": 0}, {"lon": -76.98525816666667, "bike_id": "e1ab83b48afd140443e8eb624455e407", "lat": 38.86686066666667, "fusion_lon": 0.0, "fusion_lat": 0.0, "type": "electric_scooter", "name": "e1ab83b48afd140443e8eb624455e407", "is_disabled": 0, "rental_uris": {"ios": "https://dc.lft.to/lastmile_qr_scan", "android": "https://dc.lft.to/lastmile_qr_scan"}, "is_reserved": 0}, {"lon": -77.00561816666666, "bike_id": "add89a5bd890cd1b9d3c26fe1e0ced62", "lat": 38.874730666666665, "fusion_lon": 0.0, "fusion_lat": 0.0, "type": "electric_scooter", "name": "add89a5bd890cd1b9d3c26fe1e0ced62", "is_disabled": 0, "rental_uris": {"ios": "https://dc.lft.to/lastmile_qr_scan", "android": "https://dc.lft.to/lastmile_qr_scan"}, "is_reserved": 0}, {"lon": -77.04829016666666, "bike_id": "4de5d3cde17a7cb546da82daed26ea1e", "lat": 38.89734383333333, "fusion_lon": 0.0, "fusion_lat": 0.0, "type": "electric_scooter", "name": "4de5d3cde17a7cb546da82daed26ea1e", "is_disabled": 0, "rental_uris": {"ios": "https://dc.lft.to/lastmile_qr_scan", "android": "https://dc.lft.to/lastmile_qr_scan"}, "is_reserved": 0}, {"lon": -77.03803583333334, "bike_id": "eb7a1a8d1ff5e4340c7022e117e9ddb1", "lat": 38.931135833333336, "fusion_lon": 0.0, "fusion_lat": 0.0, "type": "electric_scooter", "name": "eb7a1a8d1ff5e4340c7022e117e9ddb1", "is_disabled": 0, "rental_uris": {"ios": "https://dc.lft.to/lastmile_qr_scan", "android": "https://dc.lft.to/lastmile_qr_scan"}, "is_reserved": 0}, {"lon": -77.03177166666667, "bike_id": "6e268b17fe5f6cc0686f7cbae2d41dfd", "lat": 38.91839266666667, "fusion_lon": 0.0, "fusion_lat": 0.0, "type": "electric_scooter", "name": "6e268b17fe5f6cc0686f7cbae2d41dfd", "is_disabled": 0, "rental_uris": {"ios": "https://dc.lft.to/lastmile_qr_scan", "android": "https://dc.lft.to/lastmile_qr_scan"}, "is_reserved": 0}, {"lon": -77.02027733333334, "bike_id": "34f10d52061d3e367c32452a14b64c54", "lat": 38.905599333333335, "fusion_lon": 0.0, "fusion_lat": 0.0, "type": "electric_scooter", "name": "34f10d52061d3e367c32452a14b64c54", "is_disabled": 0, "rental_uris": {"ios": "https://dc.lft.to/lastmile_qr_scan", "android": "https://dc.lft.to/lastmile_qr_scan"}, "is_reserved": 0}, {"lon": -77.02779533333333, "bike_id": "3fe32c31c59ca7b2c9328c40d327a1bf", "lat": 38.954254166666665, "fusion_lon": 0.0, "fusion_lat": 0.0, "type": "electric_scooter", "name": "3fe32c31c59ca7b2c9328c40d327a1bf", "is_disabled": 0, "rental_uris": {"ios": "https://dc.lft.to/lastmile_qr_scan", "android": "https://dc.lft.to/lastmile_qr_scan"}, "is_reserved": 0}, {"lon": -77.04815316666667, "bike_id": "210b35bbc63cbbec60afa8220dbab751", "lat": 38.91107233333334, "fusion_lon": 0.0, "fusion_lat": 0.0, "type": "electric_scooter", "name": "210b35bbc63cbbec60afa8220dbab751", "is_disabled": 0, "rental_uris": {"ios": "https://dc.lft.to/lastmile_qr_scan", "android": "https://dc.lft.to/lastmile_qr_scan"}, "is_reserved": 0}, {"lon": -77.022919, "bike_id": "bfbc2e1fb3be49b95bbc594aacc91711", "lat": 38.922299333333335, "fusion_lon": 0.0, "fusion_lat": 0.0, "type": "electric_scooter", "name": "bfbc2e1fb3be49b95bbc594aacc91711", "is_disabled": 0, "rental_uris": {"ios": "https://dc.lft.to/lastmile_qr_scan", "android": "https://dc.lft.to/lastmile_qr_scan"}, "is_reserved": 0}, {"lon": -77.05573566666666, "bike_id": "54504242a77252c80a43828008a7df30", "lat": 38.89991766666667, "fusion_lon": 0.0, "fusion_lat": 0.0, "type": "electric_scooter", "name": "54504242a77252c80a43828008a7df30", "is_disabled": 0, "rental_uris": {"ios": "https://dc.lft.to/lastmile_qr_scan", "android": "https://dc.lft.to/lastmile_qr_scan"}, "is_reserved": 0}, {"lon": -77.044717, "bike_id": "8ede364be0cd8a7d3bf7b170297474a9", "lat": 38.9238735, "fusion_lon": 0.0, "fusion_lat": 0.0, "type": "electric_scooter", "name": "8ede364be0cd8a7d3bf7b170297474a9", "is_disabled": 0, "rental_uris": {"ios": "https://dc.lft.to/lastmile_qr_scan", "android": "https://dc.lft.to/lastmile_qr_scan"}, "is_reserved": 0}, {"lon": -77.00497233333333, "bike_id": "bcdf94b88c02ec6f17376543597df342", "lat": 38.905452, "fusion_lon": 0.0, "fusion_lat": 0.0, "type": "electric_scooter", "name": "bcdf94b88c02ec6f17376543597df342", "is_disabled": 0, "rental_uris": {"ios": "https://dc.lft.to/lastmile_qr_scan", "android": "https://dc.lft.to/lastmile_qr_scan"}, "is_reserved": 0}, {"lon": -77.01904716666667, "bike_id": "778682f326f6e6000053cb3bda6527dd", "lat": 38.8997315, "fusion_lon": 0.0, "fusion_lat": 0.0, "type": "electric_scooter", "name": "778682f326f6e6000053cb3bda6527dd", "is_disabled": 0, "rental_uris": {"ios": "https://dc.lft.to/lastmile_qr_scan", "android": "https://dc.lft.to/lastmile_qr_scan"}, "is_reserved": 0}, {"lon": -76.97428416666666, "bike_id": "27c4a51b06fc16715369ce198e9cf804", "lat": 38.9040135, "fusion_lon": 0.0, "fusion_lat": 0.0, "type": "electric_scooter", "name": "27c4a51b06fc16715369ce198e9cf804", "is_disabled": 0, "rental_uris": {"ios": "https://dc.lft.to/lastmile_qr_scan", "android": "https://dc.lft.to/lastmile_qr_scan"}, "is_reserved": 0}, {"lon": -77.02697566666667, "bike_id": "578a850c063840fa5d2e76884ccf2275", "lat": 38.91778466666667, "fusion_lon": 0.0, "fusion_lat": 0.0, "type": "electric_scooter", "name": "578a850c063840fa5d2e76884ccf2275", "is_disabled": 0, "rental_uris": {"ios": "https://dc.lft.to/lastmile_qr_scan", "android": "https://dc.lft.to/lastmile_qr_scan"}, "is_reserved": 0}, {"lon": -77.042253, "bike_id": "add9a53490fd870166a954dd9719b9f8", "lat": 38.91410283333333, "fusion_lon": 0.0, "fusion_lat": 0.0, "type": "electric_scooter", "name": "add9a53490fd870166a954dd9719b9f8", "is_disabled": 0, "rental_uris": {"ios": "https://dc.lft.to/lastmile_qr_scan", "android": "https://dc.lft.to/lastmile_qr_scan"}, "is_reserved": 0}, {"lon": -76.98735216666667, "bike_id": "08d5aaf2d2241926b5eebce202c5b877", "lat": 38.865814, "fusion_lon": 0.0, "fusion_lat": 0.0, "type": "electric_bike", "name": "08d5aaf2d2241926b5eebce202c5b877", "is_disabled": 0, "rental_uris": {"ios": "https://dc.lft.to/lastmile_qr_scan", "android": "https://dc.lft.to/lastmile_qr_scan"}, "is_reserved": 0}, {"lon": -77.029822, "bike_id": "0fa9981bc0d4da205408fc56e8444266", "lat": 38.939311000000004, "fusion_lon": 0.0, "fusion_lat": 0.0, "type": "electric_scooter", "name": "0fa9981bc0d4da205408fc56e8444266", "is_disabled": 0, "rental_uris": {"ios": "https://dc.lft.to/lastmile_qr_scan", "android": "https://dc.lft.to/lastmile_qr_scan"}, "is_reserved": 0}, {"lon": -76.94157316666667, "bike_id": "541af29c932a612c674f5cc8cb3cc608", "lat": 38.90828466666667, "fusion_lon": 0.0, "fusion_lat": 0.0, "type": "electric_bike", "name": "541af29c932a612c674f5cc8cb3cc608", "is_disabled": 0, "rental_uris": {"ios": "https://dc.lft.to/lastmile_qr_scan", "android": "https://dc.lft.to/lastmile_qr_scan"}, "is_reserved": 0}, {"lon": -77.06416633333333, "bike_id": "d7cbd893fabbc49b8ce958530eefba06", "lat": 38.993326833333334, "fusion_lon": 0.0, "fusion_lat": 0.0, "type": "electric_scooter", "name": "d7cbd893fabbc49b8ce958530eefba06", "is_disabled": 0, "rental_uris": {"ios": "https://dc.lft.to/lastmile_qr_scan", "android": "https://dc.lft.to/lastmile_qr_scan"}, "is_reserved": 0}, {"lon": -77.02105316666666, "bike_id": "1fb6dd36e2b2eef7808ef987262b0c0b", "lat": 38.90556933333333, "fusion_lon": 0.0, "fusion_lat": 0.0, "type": "electric_scooter", "name": "1fb6dd36e2b2eef7808ef987262b0c0b", "is_disabled": 0, "rental_uris": {"ios": "https://dc.lft.to/lastmile_qr_scan", "android": "https://dc.lft.to/lastmile_qr_scan"}, "is_reserved": 0}, {"lon": -76.96527383333333, "bike_id": "22d50e9a8f0ca27c4cc17cd28d5e9706", "lat": 38.876282333333336, "fusion_lon": 0.0, "fusion_lat": 0.0, "type": "electric_scooter", "name": "22d50e9a8f0ca27c4cc17cd28d5e9706", "is_disabled": 0, "rental_uris": {"ios": "https://dc.lft.to/lastmile_qr_scan", "android": "https://dc.lft.to/lastmile_qr_scan"}, "is_reserved": 0}, {"lon": -77.03630433333333, "bike_id": "310d8fb2dcff2adb489eb001f6715efb", "lat": 38.94494866666667, "fusion_lon": 0.0, "fusion_lat": 0.0, "type": "electric_scooter", "name": "310d8fb2dcff2adb489eb001f6715efb", "is_disabled": 0, "rental_uris": {"ios": "https://dc.lft.to/lastmile_qr_scan", "android": "https://dc.lft.to/lastmile_qr_scan"}, "is_reserved": 0}, {"lon": -77.03683966666667, "bike_id": "452b4d13544d95133c5b8ea621fed5ff", "lat": 38.9392045, "fusion_lon": 0.0, "fusion_lat": 0.0, "type": "electric_scooter", "name": "452b4d13544d95133c5b8ea621fed5ff", "is_disabled": 0, "rental_uris": {"ios": "https://dc.lft.to/lastmile_qr_scan", "android": "https://dc.lft.to/lastmile_qr_scan"}, "is_reserved": 0}, {"lon": -77.02325816666666, "bike_id": "e046566043d46cd69fbe5fe281e23125", "lat": 38.92408183333333, "fusion_lon": 0.0, "fusion_lat": 0.0, "type": "electric_scooter", "name": "e046566043d46cd69fbe5fe281e23125", "is_disabled": 0, "rental_uris": {"ios": "https://dc.lft.to/lastmile_qr_scan", "android": "https://dc.lft.to/lastmile_qr_scan"}, "is_reserved": 0}, {"lon": -77.05544166666667, "bike_id": "bd1b965435fbd3fdf17a4b29d48d2638", "lat": 38.9300865, "fusion_lon": 0.0, "fusion_lat": 0.0, "type": "electric_scooter", "name": "bd1b965435fbd3fdf17a4b29d48d2638", "is_disabled": 0, "rental_uris": {"ios": "https://dc.lft.to/lastmile_qr_scan", "android": "https://dc.lft.to/lastmile_qr_scan"}, "is_reserved": 0},