{"data": {"bikes": [{"is_disabled": 0, "is_reserved": 0, "fusion_lat": 0.0, "lat": 38.87942483333333, "fusion_lon": 0.0, "rental_uris": {"ios": "https://dc.lft.to/lastmile_qr_scan", "android": "https://dc.lft.to/lastmile_qr_scan"}, "lon": -77.01268316666666, "bike_id": "03a1e6aa2e39a4c26e5b8289b2b5cf60", "type": "electric_scooter", "name": "03a1e6aa2e39a4c26e5b8289b2b5cf60"}, {"is_disabled": 0, "is_reserved": 0, "fusion_lat": 0.0, "lat": 38.904988833333334, "fusion_lon": 0.0, "rental_uris": {"ios": "https://dc.lft.to/lastmile_qr_scan", "android": "https://dc.lft.to/lastmile_qr_scan"}, "lon": -77.06108533333334, "bike_id": "d7953930678e9971fc4d982e2d877a5d", "type": "electric_scooter", "name": "d7953930678e9971fc4d982e2d877a5d"}, {"is_disabled": 0, "is_reserved": 0, "fusion_lat": 0.0, "lat": 38.911229166666665, "fusion_lon": 0.0, "rental_uris": {"ios": "https://dc.lft.to/lastmile_qr_scan", "android": "https://dc.lft.to/lastmile_qr_scan"}, "lon": -76.99745133333333, "bike_id": "d2224adcd43a173b8a3f3ba2ef5aa957", "type": "electric_scooter", "name": "d2224adcd43a173b8a3f3ba2ef5aa957"}, {"is_disabled": 0, "is_reserved": 0, "fusion_lat": 0.0, "lat": 38.96781816666667, "fusion_lon": 0.0, "rental_uris": {"ios": "https://dc.lft.to/lastmile_qr_scan", "android": "https://dc.lft.to/lastmile_qr_scan"}, "lon": -76.99650166666666, "bike_id": "48575de28aca953559e94d59f5830f72", "type": "electric_bike", "name": "48575de28aca953559e94d59f5830f72"}, {"is_disabled": 0, "is_reserved": 0, "fusion_lat": 0.0, "lat": 38.91265883333333, "fusion_lon": 0.0, "rental_uris": {"ios": "https://dc.lft.to/lastmile_qr_scan", "android": "https://dc.lft.to/lastmile_qr_scan"}, "lon": -77.04124933333334, "bike_id": "a6686065f19ff55f3b6c0948f15a2ad7", "type": "electric_scooter", "name": "a6686065f19ff55f3b6c0948f15a2ad7"}, {"is_disabled": 0, "is_reserved": 0, "fusion_lat": 0.0, "lat": 38.9288455, "fusion_lon": 0.0, "rental_uris": {"ios": "https://dc.lft.to/lastmile_qr_scan", "android": "https://dc.lft.to/lastmile_qr_scan"}, "lon": -77.03404883333333, "bike_id": "31be69b9e016fd88ef4064b3be9f0bc3", "type": "electric_scooter", "name": "31be69b9e016fd88ef4064b3be9f0bc3"}, {"is_disabled": 0, "is_reserved": 0, "fusion_lat": 0.0, "lat": 38.89851933333333, "fusion_lon": 0.0, "rental_uris": {"ios": "https://dc.lft.to/lastmile_qr_scan", "android": "https://dc.lft.to/lastmile_qr_scan"}, "lon": -77.02858383333333, "bike_id": "3c2ffc54dc8aa37a22a323d1bc511a1a", "type": "electric_scooter", "name": "3c2ffc54dc8aa37a22a323d1bc511a1a"}, {"is_disabled": 0, "is_reserved": 0, "fusion_lat": 0.0, "lat": 38.929017, "fusion_lon": 0.0, "rental_uris": {"ios": "https://dc.lft.to/lastmile_qr_scan", "android": "https://dc.lft.to/lastmile_qr_scan"}, "lon": -77.037613, "bike_id": "c200b30012c1f7037bab3faed9cb7844", "type": "electric_scooter", "name": "c200b30012c1f7037bab3faed9cb7844"}, {"is_disabled": 0, "is_reserved": 0, "fusion_lat": 0.0, "lat": 38.949773, "fusion_lon": 0.0, "rental_uris": {"ios": "https://dc.lft.to/lastmile_qr_scan", "android": "https://dc.lft.to/lastmile_qr_scan"}, "lon": -77.02448916666667, "bike_id": "e1297b9f2aa66fb665f71f0b60eec00a", "type": "electric_scooter", "name": "e1297b9f2aa66fb665f71f0b60eec00a"}, {"is_disabled": 0, "is_reserved": 0, "fusion_lat": 0.0, "lat": 38.91195533333333, "fusion_lon": 0.0, "rental_uris": {"ios": "https://dc.lft.to/lastmile_qr_scan", "android": "https://dc.lft.to/lastmile_qr_scan"}, "lon": -77.00197116666666, "bike_id": "1c0d17031455d59e59cf2311f16d6d97", "type": "electric_scooter", "name": "1c0d17031455d59e59cf2311f16d6d97"}, {"is_disabled": 0, "is_reserved": 0, "fusion_lat": 0.0, "lat": 38.94916033333333, "fusion_lon": 0.0, "rental_uris": {"ios": "https://dc.lft.to/lastmile_qr_scan", "android": "https://dc.lft.to/lastmile_qr_scan"}, "lon": -77.0080135, "bike_id": "2db1500da27cc5d94a08c398ac57a071", "type": "electric_bike", "name": "2db1500da27cc5d94a08c398ac57a071"}, {"is_disabled": 0, "is_reserved": 0, "fusion_lat": 0.0, "lat": 38.8813105, "fusion_lon": 0.0, "rental_uris": {"ios": "https://dc.lft.to/lastmile_qr_scan", "android": "https://dc.lft.to/lastmile_qr_scan"}, "lon": -77.02277366666667, "bike_id": "d76a86dc60e40de6686a1a27fd93dbbc", "type": "electric_scooter", "name": "d76a86dc60e40de6686a1a27fd93dbbc"}, {"is_disabled": 0, "is_reserved": 0, "fusion_lat": 0.0, "lat": 38.813297666666664, "fusion_lon": 0.0, "rental_uris": {"ios": "https://dc.lft.to/lastmile_qr_scan", "android": "https://dc.lft.to/lastmile_qr_scan"}, "lon": -77.05085416666667, "bike_id": "5e887da8b844d7fe71b9c17b43029ad4", "type": "electric_bike", "name": "5e887da8b844d7fe71b9c17b43029ad4"}, {"is_disabled": 0, "is_reserved": 0, "fusion_lat": 0.0, "lat": 38.88449133333334, "fusion_lon": 0.0, "rental_uris": {"ios": "https://dc.lft.to/lastmile_qr_scan", "android": "https://dc.lft.to/lastmile_qr_scan"}, "lon": -76.95098183333333, "bike_id": "804587fb537b7838ec47103a827d0992", "type": "electric_scooter", "name": "804587fb537b7838ec47103a827d0992"}, {"is_disabled": 0, "is_reserved": 0, "fusion_lat": 0.0, "lat": 39.00647383333333, "fusion_lon": 0.0, "rental_uris": {"ios": "https://dc.lft.to/lastmile_qr_scan", "android": "https://dc.lft.to/lastmile_qr_scan"}, "lon": -76.900221, "bike_id": "a51c055b896231ab10656b7ce1b4e89c", "type": "electric_bike", "name": "a51c055b896231ab10656b7ce1b4e89c"}, {"is_disabled": 0, "is_reserved": 0, "fusion_lat": 0.0, "lat": 38.89673883333333, "fusion_lon": 0.0, "rental_uris": {"ios": "https://dc.lft.to/lastmile_qr_scan", "android": "https://dc.lft.to/lastmile_qr_scan"}, "lon": -77.0489585, "bike_id": "e13601f2adc0ce81ce4715dcbedca253", "type": "electric_scooter", "name": "e13601f2adc0ce81ce4715dcbedca253"}, {"is_disabled": 0, "is_reserved": 0, "fusion_lat": 0.0, "lat": 38.911088166666666, "fusion_lon": 0.0, "rental_uris": {"ios": "https://dc.lft.to/lastmile_qr_scan", "android": "https://dc.lft.to/lastmile_qr_scan"}, "lon": -77.02173316666666, "bike_id": "b9d22bc4ee19d107be64cd5b452a16e6", "type": "electric_scooter", "name": "b9d22bc4ee19d107be64cd5b452a16e6"}, {"is_disabled": 0, "is_reserved": 0, "fusion_lat": 0.0, "lat": 38.90686016666667, "fusion_lon": 0.0, "rental_uris": {"ios": "https://dc.lft.to/lastmile_qr_scan", "android": "https://dc.lft.to/lastmile_qr_scan"}, "lon": -77.062908, "bike_id": "ecc79480d7beea521401ff6a7b9a7dfe", "type": "electric_scooter", "name": "ecc79480d7beea521401ff6a7b9a7dfe"}, {"is_disabled": 0, "is_reserved": 0, "fusion_lat": 0.0, "lat": 38.906503, "fusion_lon": 0.0, "rental_uris": {"ios": "https://dc.lft.to/lastmile_qr_scan", "android": "https://dc.lft.to/lastmile_qr_scan"}, "lon": -77.04560733333334, "bike_id": "d36072c3365458e5dc97748c304d0a1a", "type": "electric_scooter", "name": "d36072c3365458e5dc97748c304d0a1a"}, {"is_disabled": 0, "is_reserved": 0, "fusion_lat": 0.0, "lat": 38.901485, "fusion_lon": 0.0, "rental_uris": {"ios": "https://dc.lft.to/lastmile_qr_scan", "android": "https://dc.lft.to/lastmile_qr_scan"}, "lon": -76.92985, "bike_id": "05cea158e4d6af0a8c7c38b060ef810f", "type": "electric_scooter", "name": "05cea158e4d6af0a8c7c38b060ef810f"}, {"is_disabled": 0, "is_reserved": 0, "fusion_lat": 0.0, "lat": 38.85244633333333, "fusion_lon": 0.0, "rental_uris": {"ios": "https://dc.lft.to/lastmile_qr_scan", "android": "https://dc.lft.to/lastmile_qr_scan"}, "lon": -77.11410383333333, "bike_id": "c8c985d45a529117eb6f1528337e3721", "type": "electric_bike", "name": "c8c985d45a529117eb6f1528337e3721"}, {"is_disabled": 0, "is_reserved": 0, "fusion_lat": 0.0, "lat": 38.914145833333336, "fusion_lon": 0.0, "rental_uris": {"ios": "https://dc.lft.to/lastmile_qr_scan", "android": "https://dc.lft.to/lastmile_qr_scan"}, "lon": -77.02425733333334, "bike_id": "f6921489c8e91f8c67c752defd9d83b1", "type": "electric_scooter", "name": "f6921489c8e91f8c67c752defd9d83b1"}, {"is_disabled": 0, "is_reserved": 0, "fusion_lat": 0.0, "lat": 38.89508583333333, "fusion_lon": 0.0, "rental_uris": {"ios": "https://dc.lft.to/lastmile_qr_scan", "android": "https://dc.lft.to/lastmile_qr_scan"}, "lon": -77.02296516666667, "bike_id": "fe36f88275da35a5964d4cb9817ef0f3", "type": "electric_scooter", "name": "fe36f88275da35a5964d4cb9817ef0f3"}, {"is_disabled": 0, "is_reserved": 0, "fusion_lat": 0.0, "lat": 38.910470333333336, "fusion_lon": 0.0, "rental_uris": {"ios": "https://dc.lft.to/lastmile_qr_scan", "android": "https://dc.lft.to/lastmile_qr_scan"}, "lon": -76.99802166666667, "bike_id": "856d6c55e39ef43e26328441514f569e", "type": "electric_scooter", "name": "856d6c55e39ef43e26328441514f569e"}, {"is_disabled": 0, "is_reserved": 0, "fusion_lat": 0.0, "lat": 38.923238166666664, "fusion_lon": 0.0, "rental_uris": {"ios": "https://dc.lft.to/lastmile_qr_scan", "android": "https://dc.lft.to/lastmile_qr_scan"}, "lon": -77.02910116666666, "bike_id": "7c4dace82e02758113514809361aa068", "type": "electric_scooter", "name": "7c4dace82e02758113514809361aa068"}, {"is_disabled": 0, "is_reserved": 0, "fusion_lat": 0.0, "lat": 38.9521685, "fusion_lon": 0.0, "rental_uris": {"ios": "https://dc.lft.to/lastmile_qr_scan", "android": "https://dc.lft.to/lastmile_qr_scan"}, "lon": -77.0886835, "bike_id": "2934cf9533d07dce9d3cedf23fb5b2dc", "type": "electric_scooter", "name": "2934cf9533d07dce9d3cedf23fb5b2dc"}, {"is_disabled": 0, "is_reserved": 0, "fusion_lat": 0.0, "lat": 38.9257235, "fusion_lon": 0.0, "rental_uris": {"ios": "https://dc.lft.to/lastmile_qr_scan", "android": "https://dc.lft.to/lastmile_qr_scan"}, "lon": -77.03137466666666, "bike_id": "086a39a56fd306963995a83e723718be", "type": "electric_scooter", "name": "086a39a56fd306963995a83e723718be"}, {"is_disabled": 0, "is_reserved": 0, "fusion_lat": 0.0, "lat": 38.943287833333336, "fusion_lon": 0.0, "rental_uris": {"ios": "https://dc.lft.to/lastmile_qr_scan", "android": "https://dc.lft.to/lastmile_qr_scan"}, "lon": -77.01552, "bike_id": "e2fe0e5993e20a85043aee476362676e", "type": "electric_scooter", "name": "e2fe0e5993e20a85043aee476362676e"}, {"is_disabled": 0, "is_reserved": 0, "fusion_lat": 0.0, "lat": 38.892296, "fusion_lon": 0.0, "rental_uris": {"ios": "https://dc.lft.to/lastmile_qr_scan", "android": "https://dc.lft.to/lastmile_qr_scan"}, "lon": -77.03234666666667, "bike_id": "e0ebfc8b69ef7484944c5bbe10779716", "type": "electric_scooter", "name": "e0ebfc8b69ef7484944c5bbe10779716"}, {"is_disabled": 0, "is_reserved": 0, "fusion_lat": 0.0, "lat": 38.882988833333336, "fusion_lon": 0.0, "rental_uris": {"ios": "https://dc.lft.to/lastmile_qr_scan", "android": "https://dc.lft.to/lastmile_qr_scan"}, "lon": -76.93489933333333, "bike_id": "3aa9b23297133aa5b7851a0e79c63623", "type": "electric_scooter", "name": "3aa9b23297133aa5b7851a0e79c63623"}, {"is_disabled": 0, "is_reserved": 0, "fusion_lat": 0.0, "lat": 38.8427795, "fusion_lon": 0.0, "rental_uris": {"ios": "https://dc.lft.to/lastmile_qr_scan", "android": "https://dc.lft.to/lastmile_qr_scan"}, "lon": -76.9884295, "bike_id": "22b870c9cbd565173bc18a176551748c", "type": "electric_scooter", "name": "22b870c9cbd565173bc18a176551748c"}, {"is_disabled": 0, "is_reserved": 0, "fusion_lat": 0.0, "lat": 38.91994666666667, "fusion_lon": 0.0, "rental_uris": {"ios": "https://dc.lft.to/lastmile_qr_scan", "android": "https://dc.lft.to/lastmile_qr_scan"}, "lon": -77.03216183333333, "bike_id": "ebe5ec3f16aaed071509bda78bb014bd", "type": "electric_scooter", "name": "ebe5ec3f16aaed071509bda78bb014bd"}, {"is_disabled": 0, "is_reserved": 0, "fusion_lat": 0.0, "lat": 38.906443833333334, "fusion_lon": 0.0, "rental_uris": {"ios": "https://dc.lft.to/lastmile_qr_scan", "android": "https://dc.lft.to/lastmile_qr_scan"}, "lon": -77.048738, "bike_id": "0d2509fe6f5df0dee053551b3a5a76bf", "type": "electric_scooter", "name": "0d2509fe6f5df0dee053551b3a5a76bf"}, {"is_disabled": 0, "is_reserved": 0, "fusion_lat": 0.0, "lat": 38.93353833333333, "fusion_lon": 0.0, "rental_uris": {"ios": "https://dc.lft.to/lastmile_qr_scan", "android": "https://dc.lft.to/lastmile_qr_scan"}, "lon": -77.03416666666666, "bike_id": "57659e26893a666d06feb7686b338336", "type": "electric_scooter", "name": "57659e26893a666d06feb7686b338336"}, {"is_disabled": 0, "is_reserved": 0, "fusion_lat": 0.0, "lat": 38.894285333333336, "fusion_lon": 0.0, "rental_uris": {"ios": "https://dc.lft.to/lastmile_qr_scan", "android": "https://dc.lft.to/lastmile_qr_scan"}, "lon": -77.01091666666666, "bike_id": "75d18dc2eb6697ccf4050afc24835716", "type": "electric_scooter", "name": "75d18dc2eb6697ccf4050afc24835716"}, {"is_disabled": 0, "is_reserved": 0, "fusion_lat": 0.0, "lat": 38.9105265, "fusion_lon": 0.0, "rental_uris": {"ios": "https://dc.lft.to/lastmile_qr_scan", "android": "https://dc.lft.to/lastmile_qr_scan"}, "lon": -77.0221165, "bike_id": "bc0d764a978ce3b515ad9d22079b5136", "type": "electric_scooter", "name": "bc0d764a978ce3b515ad9d22079b5136"}, {"is_disabled": 0, "is_reserved": 0, "fusion_lat": 0.0, "lat": 38.92049766666667, "fusion_lon": 0.0, "rental_uris": {"ios": "https://dc.lft.to/lastmile_qr_scan", "android": "https://dc.lft.to/lastmile_qr_scan"}, "lon": -77.02379266666667, "bike_id": "7419c22fb0e7d085e5fbbfcaba5a2ecf", "type": "electric_scooter", "name": "7419c22fb0e7d085e5fbbfcaba5a2ecf"}, {"is_disabled": 0, "is_reserved": 0, "fusion_lat": 0.0, "lat": 38.9000855, "fusion_lon": 0.0, "rental_uris": {"ios": "https://dc.lft.to/lastmile_qr_scan", "android": "https://dc.lft.to/lastmile_qr_scan"}, "lon": -76.97988433333333, "bike_id": "ddf70b90412cb856261420c85ff9a5cb", "type": "electric_scooter", "name": "ddf70b90412cb856261420c85ff9a5cb"}, {"is_disabled": 0, "is_reserved": 0, "fusion_lat": 0.0, "lat": 38.879209, "fusion_lon": 0.0, "rental_uris": {"ios": "https://dc.lft.to/lastmile_qr_scan", "android": "https://dc.lft.to/lastmile_qr_scan"}, "lon": -77.0137615, "bike_id": "8c6d949f57e068d9d29f1981187fa89a", "type": "electric_scooter", "name": "8c6d949f57e068d9d29f1981187fa89a"}, {"is_disabled": 0, "is_reserved": 0, "fusion_lat": 0.0, "lat": 38.9224305, "fusion_lon": 0.0, "rental_uris": {"ios": "https://dc.lft.to/lastmile_qr_scan", "android": "https://dc.lft.to/lastmile_qr_scan"}, "lon": -77.04007866666667, "bike_id": "a6469392d2b424532dbdb6818ee004e1", "type": "electric_scooter", "name": "a6469392d2b424532dbdb6818ee004e1"}, {"is_disabled": 0, "is_reserved": 0, "fusion_lat": 0.0, "lat": 38.900521833333336, "fusion_lon": 0.0, "rental_uris": {"ios": "https://dc.lft.to/lastmile_qr_scan", "android": "https://dc.lft.to/lastmile_qr_scan"}, "lon": -77.00664016666667, "bike_id": "e5f43a2ed04ac25066a79960553bf9a2", "type": "electric_scooter", "name": "e5f43a2ed04ac25066a79960553bf9a2"}, {"is_disabled": 0, "is_reserved": 0, "fusion_lat": 0.0, "lat": 38.83863016666667, "fusion_lon": 0.0, "rental_uris": {"ios": "https://dc.lft.to/lastmile_qr_scan", "android": "https://dc.lft.to/lastmile_qr_scan"}, "lon": -76.99703483333333, "bike_id": "b8928068aa09c74ee89f35e29647fc90", "type": "electric_bike", "name": "b8928068aa09c74ee89f35e29647fc90"}, {"is_disabled": 0, "is_reserved": 0, "fusion_lat": 0.0, "lat": 38.92460616666666, "fusion_lon": 0.0, "rental_uris": {"ios": "https://dc.lft.to/lastmile_qr_scan", "android": "https://dc.lft.to/lastmile_qr_scan"}, "lon": -77.05759, "bike_id": "3f8a800c89a98091198b4a95da743785", "type": "electric_scooter", "name": "3f8a800c89a98091198b4a95da743785"}, {"is_disabled": 0, "is_reserved": 0, "fusion_lat": 0.0, "lat": 38.91195833333333, "fusion_lon": 0.0, "rental_uris": {"ios": "https://dc.lft.to/lastmile_qr_scan", "android": "https://dc.lft.to/lastmile_qr_scan"}, "lon": -77.0107585, "bike_id": "404e3ade4b03bc4deef5ba819efa535a", "type": "electric_scooter", "name": "404e3ade4b03bc4deef5ba819efa535a"}, {"is_disabled": 0, "is_reserved": 0, "fusion_lat": 0.0, "lat": 38.928617833333334, "fusion_lon": 0.0, "rental_uris": {"ios": "https://dc.lft.to/lastmile_qr_scan", "android": "https://dc.lft.to/lastmile_qr_scan"}, "lon": -77.03049283333333, "bike_id": "a1730f170dfe64737d3faa35c9e4c241", "type": "electric_scooter", "name": "a1730f170dfe64737d3faa35c9e4c241"}, {"is_disabled": 0, "is_reserved": 0, "fusion_lat": 0.0, "lat": 38.905442666666666, "fusion_lon": 0.0, "rental_uris": {"ios": "https://dc.lft.to/lastmile_qr_scan", "android": "https://dc.lft.to/lastmile_qr_scan"}, "lon": -77.04849616666667, "bike_id": "d25ad9b440cd55c7764fccba8c316461", "type": "electric_scooter", "name": "d25ad9b440cd55c7764fccba8c316461"}, {"is_disabled": 0, "is_reserved": 0, "fusion_lat": 0.0, "lat": 38.902191333333334, "fusion_lon": 0.0, "rental_uris": {"ios": "https://dc.lft.to/lastmile_qr_scan", "android": "https://dc.lft.to/lastmile_qr_scan"}, "lon": -76.93178516666667, "bike_id": "61c65308d7c0c4cd90d2a05e3a7cc459", "type": "electric_bike", "name": "61c65308d7c0c4cd90d2a05e3a7cc459"}, {"is_disabled": 0, "is_reserved": 0, "fusion_lat": 0.0, "lat": 38.887265166666666, "fusion_lon": 0.0, "rental_uris": {"ios": "https://dc.lft.to/lastmile_qr_scan", "android": "https://dc.lft.to/lastmile_qr_scan"}, "lon": -77.0321465, "bike_id": "4d5e35f20a38e10942511c0e8fca7386", "type": "electric_scooter", "name": "4d5e35f20a38e10942511c0e8fca7386"}, {"is_disabled": 0, "is_reserved": 0, "fusion_lat": 0.0, "lat": 38.8979715, "fusion_lon": 0.0, "rental_uris": {"ios": "https://dc.lft.to/lastmile_qr_scan", "android": "https://dc.lft.to/lastmile_qr_scan"}, "lon": -76.97169766666667, "bike_id": "c44b626114639caca7a1207a7a3cb590", "type": "electric_scooter", "name": "c44b626114639caca7a1207a7a3cb590"}, {"is_disabled": 0, "is_reserved": 0, "fusion_lat": 0.0, "lat": 38.91666, "fusion_lon": 0.0, "rental_uris": {"ios": "https://dc.lft.to/lastmile_qr_scan", "android": "https://dc.lft.to/lastmile_qr_scan"}, "lon": -77.00047933333333, "bike_id": "ea019d21c0d32b62c3e4731a3c71488f", "type": "electric_scooter", "name": "ea019d21c0d32b62c3e4731a3c71488f"}, {"is_disabled": 0, "is_reserved": 0, "fusion_lat": 0.0, "lat": 38.92238616666667, "fusion_lon": 0.0, "rental_uris": {"ios": "https://dc.lft.to/lastmile_qr_scan", "android": "https://dc.lft.to/lastmile_qr_scan"}, "lon": -77.0229825, "bike_id": "0537640ad38705434ce5b45a15e43607", "type": "electric_scooter", "name": "0537640ad38705434ce5b45a15e43607"}, {"is_disabled": 0, "is_reserved": 0, "fusion_lat": 0.0, "lat": 38.90918466666667, "fusion_lon": 0.0, "rental_uris": {"ios": "https://dc.lft.to/lastmile_qr_scan", "android": "https://dc.lft.to/lastmile_qr_scan"}, "lon": -77.04571516666667, "bike_id": "091d7dd46019e7de52ff50ab5fedc58a", "type": "electric_scooter", "name": "091d7dd46019e7de52ff50ab5fedc58a"}, {"is_disabled": 0, "is_reserved": 0, "fusion_lat": 0.0, "lat": 38.920445666666666, "fusion_lon": 0.0, "rental_uris": {"ios": "https://dc.lft.to/lastmile_qr_scan", "android": "https://dc.lft.to/lastmile_qr_scan"}, "lon": -76.979691, "bike_id": "965e292674347497a91581fdcb839f30", "type": "electric_bike", "name": "965e292674347497a91581fdcb839f30"}, {"is_disabled": 0, "is_reserved": 0, "fusion_lat": 0.0, "lat": 38.8920555, "fusion_lon": 0.0, "rental_uris": {"ios": "https://dc.lft.to/lastmile_qr_scan", "android": "https://dc.lft.to/lastmile_qr_scan"}, "lon": -76.92921083333333, "bike_id": "38996ad44fdb4d124ff015aca613329a", "type": "electric_scooter", "name": "38996ad44fdb4d124ff015aca613329a"}, {"is_disabled": 0, "is_reserved": 0, "fusion_lat": 0.0, "lat": 38.89926366666667, "fusion_lon": 0.0, "rental_uris": {"ios": "https://dc.lft.to/lastmile_qr_scan", "android": "https://dc.lft.to/lastmile_qr_scan"}, "lon": -77.00157733333333, "bike_id": "30a350e148beb31600430527eda9dc35", "type": "electric_bike", "name": "30a350e148beb31600430527eda9dc35"}, {"is_disabled": 0, "is_reserved": 0, "fusion_lat": 0.0, "lat": 38.893986, "fusion_lon": 0.0, "rental_uris": {"ios": "https://dc.lft.to/lastmile_qr_scan", "android": "https://dc.lft.to/lastmile_qr_scan"}, "lon": -77.0236945, "bike_id": "ca60d8fb12ccb89c9603c034f90f1967", "type": "electric_scooter", "name": "ca60d8fb12ccb89c9603c034f90f1967"}, {"is_disabled": 0, "is_reserved": 0, "fusion_lat": 0.0, "lat": 38.88880366666667, "fusion_lon": 0.0, "rental_uris": {"ios": "https://dc.lft.to/lastmile_qr_scan", "android": "https://dc.lft.to/lastmile_qr_scan"}, "lon": -76.99036100000001, "bike_id": "a476f57873f6b220538e3bc0a0106e2f", "type": "electric_scooter", "name": "a476f57873f6b220538e3bc0a0106e2f"}, {"is_disabled": 0, "is_reserved": 0, "fusion_lat": 0.0, "lat": 38.89466266666667, "fusion_lon": 0.0, "rental_uris": {"ios": "https://dc.lft.to/lastmile_qr_scan", "android": "https://dc.lft.to/lastmile_qr_scan"}, "lon": -77.00234366666666, "bike_id": "2ef5730ed7f671d9b371b9a890f15416", "type": "electric_scooter", "name": "2ef5730ed7f671d9b371b9a890f15416"}, {"is_disabled": 0, "is_reserved": 0, "fusion_lat": 0.0, "lat": 39.0251695, "fusion_lon": 0.0, "rental_uris": {"ios": "https://dc.lft.to/lastmile_qr_scan", "android": "https://dc.lft.to/lastmile_qr_scan"}, "lon": -77.01970916666667, "bike_id": "2dd3baebf03b96ad03ca9306d408f21f", "type": "electric_bike", "name": "2dd3baebf03b96ad03ca9306d408f21f"}, {"is_disabled": 0, "is_reserved": 0, "fusion_lat": 0.0, "lat": 38.93278466666667, "fusion_lon": 0.0, "rental_uris": {"ios": "https://dc.lft.to/lastmile_qr_scan", "android": "https://dc.lft.to/lastmile_qr_scan"}, "lon": -77.041389, "bike_id": "1f5367c0dbe4a20dff6236403da8a511", "type": "electric_scooter", "name": "1f5367c0dbe4a20dff6236403da8a511"}, {"is_disabled": 0, "is_reserved": 0, "fusion_lat": 0.0, "lat": 38.906255, "fusion_lon": 0.0, "rental_uris": {"ios": "https://dc.lft.to/lastmile_qr_scan", "android": "https://dc.lft.to/lastmile_qr_scan"}, "lon": -77.00686716666667, "bike_id": "1f1ac941e6cb96d32dee2fc6f73c6ca8", "type": "electric_scooter", "name": "1f1ac941e6cb96d32dee2fc6f73c6ca8"}, {"is_disabled": 0, "is_reserved": 0, "fusion_lat": 0.0, "lat": 38.90313366666667, "fusion_lon": 0.0, "rental_uris": {"ios": "https://dc.lft.to/lastmile_qr_scan", "android": "https://dc.lft.to/lastmile_qr_scan"}, "lon": -77.03202166666667, "bike_id": "adba7a0d47335e24c993aae08c87acf6", "type": "electric_scooter", "name": "adba7a0d47335e24c993aae08c87acf6"}, {"is_disabled": 0, "is_reserved": 0, "fusion_lat": 0.0, "lat": 38.923495, "fusion_lon": 0.0, "rental_uris": {"ios": "https://dc.lft.to/lastmile_qr_scan", "android": "https://dc.lft.to/lastmile_qr_scan"}, "lon": -76.972076, "bike_id": "697f442012be8d11fdf49fbf26a67142", "type": "electric_scooter", "name": "697f442012be8d11fdf49fbf26a67142"}, {"is_disabled": 0, "is_reserved": 0, "fusion_lat": 0.0, "lat": 38.95339833333333, "fusion_lon": 0.0, "rental_uris": {"ios": "https://dc.lft.to/lastmile_qr_scan", "android": "https://dc.lft.to/lastmile_qr_scan"}, "lon": -77.08160433333333, "bike_id": "abdcee23046833e422f7063f26ddbd41", "type": "electric_scooter", "name": "abdcee23046833e422f7063f26ddbd41"}, {"is_disabled": 0, "is_reserved": 0, "fusion_lat": 0.0, "lat": 39.08474616666667, "fusion_lon": 0.0, "rental_uris": {"ios": "https://dc.lft.to/lastmile_qr_scan", "android": "https://dc.lft.to/lastmile_qr_scan"}, "lon": -76.95071816666666, "bike_id": "4a2fc8f0ca9f68d82b81b84df2e69df1", "type": "electric_bike", "name": "4a2fc8f0ca9f68d82b81b84df2e69df1"}, {"is_disabled": 0, "is_reserved": 0, "fusion_lat": 0.0, "lat": 38.89965883333333, "fusion_lon": 0.0, "rental_uris": {"ios": "https://dc.lft.to/lastmile_qr_scan", "android": "https://dc.lft.to/lastmile_qr_scan"}, "lon": -76.9262315, "bike_id": "f71365d5bbdc659ba3193b4d17102969", "type": "electric_scooter", "name": "f71365d5bbdc659ba3193b4d17102969"}, {"is_disabled": 0, "is_reserved": 0, "fusion_lat": 0.0, "lat": 38.92189416666667, "fusion_lon": 0.0, "rental_uris": {"ios": "https://dc.lft.to/lastmile_qr_scan", "android": "https://dc.lft.to/lastmile_qr_scan"}, "lon": -77.04022416666666, "bike_id": "d7d40d36b4d0f4360189c533141b8736", "type": "electric_scooter", "name": "d7d40d36b4d0f4360189c533141b8736"}, {"is_disabled": 0, "is_reserved": 0, "fusion_lat": 0.0, "lat": 38.930005, "fusion_lon": 0.0, "rental_uris": {"ios": "https://dc.lft.to/lastmile_qr_scan", "android": "https://dc.lft.to/lastmile_qr_scan"}, "lon": -77.037988, "bike_id": "a4930f82666c8770ada1731d583af266", "type": "electric_scooter", "name": "a4930f82666c8770ada1731d583af266"}, {"is_disabled": 0, "is_reserved": 0, "fusion_lat": 0.0, "lat": 38.90657066666667, "fusion_lon": 0.0, "rental_uris": {"ios": "https://dc.lft.to/lastmile_qr_scan", "android": "https://dc.lft.to/lastmile_qr_scan"}, "lon": -77.016215, "bike_id": "c73597b7b94a994e9427bc3bafe9711d", "type": "electric_scooter", "name": "c73597b7b94a994e9427bc3bafe9711d"}, {"is_disabled": 0, "is_reserved": 0, "fusion_lat": 0.0, "lat": 38.90071866666667, "fusion_lon": 0.0, "rental_uris": {"ios": "https://dc.lft.to/lastmile_qr_scan", "android": "https://dc.lft.to/lastmile_qr_scan"}, "lon": -77.05004816666667, "bike_id": "ed526c49ba91fc98119a4a7aacf8dbc8", "type": "electric_scooter", "name": "ed526c49ba91fc98119a4a7aacf8dbc8"}, {"is_disabled": 0, "is_reserved": 0, "fusion_lat": 0.0, "lat": 38.918439, "fusion_lon": 0.0, "rental_uris": {"ios": "https://dc.lft.to/lastmile_qr_scan", "android": "https://dc.lft.to/lastmile_qr_scan"}, "lon": -77.0229455, "bike_id": "e186a1ff7207d0d00c49969392c32f81", "type": "electric_scooter", "name": "e186a1ff7207d0d00c49969392c32f81"}, {"is_disabled": 0, "is_reserved": 0, "fusion_lat": 0.0, "lat": 38.905586166666666, "fusion_lon": 0.0, "rental_uris": {"ios": "https://dc.lft.to/lastmile_qr_scan", "android": "https://dc.lft.to/lastmile_qr_scan"}, "lon": -77.02600633333333, "bike_id": "8caebb7d78e7924f822200e888e97e50", "type": "electric_scooter", "name": "8caebb7d78e7924f822200e888e97e50"}, {"is_disabled": 0, "is_reserved": 0, "fusion_lat": 0.0, "lat": 38.934015, "fusion_lon": 0.0, "rental_uris": {"ios": "https://dc.lft.to/lastmile_qr_scan", "android": "https://dc.lft.to/lastmile_qr_scan"}, "lon": -77.02617, "bike_id": "0cb8c95df6a251c908c88a8d14988369", "type": "electric_scooter", "name": "0cb8c95df6a251c908c88a8d14988369"}, {"is_disabled": 0, "is_reserved": 0, "fusion_lat": 0.0, "lat": 38.896672, "fusion_lon": 0.0, "rental_uris": {"ios": "https://dc.lft.to/lastmile_qr_scan", "android": "https://dc.lft.to/lastmile_qr_scan"}, "lon": -76.9491305, "bike_id": "bdb1dc74e422f8271357ab6a5e88011f", "type": "electric_scooter", "name": "bdb1dc74e422f8271357ab6a5e88011f"}, {"is_disabled": 0, "is_reserved": 0, "fusion_lat": 0.0, "lat": 38.90361333333333, "fusion_lon": 0.0, "rental_uris": {"ios": "https://dc.lft.to/lastmile_qr_scan", "android": "https://dc.lft.to/lastmile_qr_scan"}, "lon": -77.01662766666666, "bike_id": "b2ac428d3aee0775e9a9df5fdbacb7ed", "type": "electric_scooter", "name": "b2ac428d3aee0775e9a9df5fdbacb7ed"}, {"is_disabled": 0, "is_reserved": 0, "fusion_lat": 0.0, "lat": 38.91173233333333, "fusion_lon": 0.0, "rental_uris": {"ios": "https://dc.lft.to/lastmile_qr_scan", "android": "https://dc.lft.to/lastmile_qr_scan"}, "lon": -77.00447283333334, "bike_id": "4fab5438394511203c83ad436c3f939a", "type": "electric_scooter", "name": "4fab5438394511203c83ad436c3f939a"}, {"is_disabled": 0, "is_reserved": 0, "fusion_lat": 0.0, "lat": 38.90362183333333, "fusion_lon": 0.0, "rental_uris": {"ios": "https://dc.lft.to/lastmile_qr_scan", "android": "https://dc.lft.to/lastmile_qr_scan"}, "lon": -77.00345483333334, "bike_id": "3be2a622ac0fb1bae67450f43d0d075f", "type": "electric_scooter", "name": "3be2a622ac0fb1bae67450f43d0d075f"}, {"is_disabled": 0, "is_reserved": 0, "fusion_lat": 0.0, "lat": 38.9178855, "fusion_lon": 0.0, "rental_uris": {"ios": "https://dc.lft.to/lastmile_qr_scan", "android": "https://dc.lft.to/lastmile_qr_scan"}, "lon": -77.0344055, "bike_id": "454c0852191c6def0aea3ec086a9f4a6", "type": "electric_scooter", "name": "454c0852191c6def0aea3ec086a9f4a6"}, {"is_disabled": 0, "is_reserved": 0, "fusion_lat": 0.0, "lat": 38.934004333333334, "fusion_lon": 0.0, "rental_uris": {"ios": "https://dc.lft.to/lastmile_qr_scan", "android": "https://dc.lft.to/lastmile_qr_scan"}, "lon": -77.035229, "bike_id": "b709c6e18a19a8187247e757bf83cfe8", "type": "electric_scooter", "name": "b709c6e18a19a8187247e757bf83cfe8"}, {"is_disabled": 0, "is_reserved": 0, "fusion_lat": 0.0, "lat": 38.90733916666667, "fusion_lon": 0.0, "rental_uris": {"ios": "https://dc.lft.to/lastmile_qr_scan", "android": "https://dc.lft.to/lastmile_qr_scan"}, "lon": -77.02320566666667, "bike_id": "102dcdf808801dea3a0bb9d9669d562e", "type": "electric_scooter", "name": "102dcdf808801dea3a0bb9d9669d562e"}, {"is_disabled": 0, "is_reserved": 0, "fusion_lat": 0.0, "lat": 38.91603283333333, "fusion_lon": 0.0, "rental_uris": {"ios": "https://dc.lft.to/lastmile_qr_scan", "android": "https://dc.lft.to/lastmile_qr_scan"}, "lon": -77.03846266666666, "bike_id": "019c16caf1aa9d15471f984763a13f19", "type": "electric_scooter", "name": "019c16caf1aa9d15471f984763a13f19"}, {"is_disabled": 0, "is_reserved": 0, "fusion_lat": 0.0, "lat": 38.8851635, "fusion_lon": 0.0, "rental_uris": {"ios": "https://dc.lft.to/lastmile_qr_scan", "android": "https://dc.lft.to/lastmile_qr_scan"}, "lon": -77.028252, "bike_id": "193e449d21af5982bde5021a339e01d2", "type": "electric_scooter", "name": "193e449d21af5982bde5021a339e01d2"}, {"is_disabled": 0, "is_reserved": 0, "fusion_lat": 0.0, "lat": 38.8757945, "fusion_lon": 0.0, "rental_uris": {"ios": "https://dc.lft.to/lastmile_qr_scan", "android": "https://dc.lft.to/lastmile_qr_scan"}, "lon": -77.23410716666666, "bike_id": "5ac26f891f071a8e20982c7b36dfbf67", "type": "electric_bike", "name": "5ac26f891f071a8e20982c7b36dfbf67"}, {"is_disabled": 0, "is_reserved": 0, "fusion_lat": 0.0, "lat": 38.91442766666667, "fusion_lon": 0.0, "rental_uris": {"ios": "https://dc.lft.to/lastmile_qr_scan", "android": "https://dc.lft.to/lastmile_qr_scan"}, "lon": -77.0228495, "bike_id": "dbb4c109403e9359814e938829e3a30f", "type": "electric_scooter", "name": "dbb4c109403e9359814e938829e3a30f"}, {"is_disabled": 0, "is_reserved": 0, "fusion_lat": 0.0, "lat": 38.885044666666666, "fusion_lon": 0.0, "rental_uris": {"ios": "https://dc.lft.to/lastmile_qr_scan", "android": "https://dc.lft.to/lastmile_qr_scan"}, "lon": -77.02182283333333, "bike_id": "97482fa404d70e34d688061bd2edeb45", "type": "electric_scooter", "name": "97482fa404d70e34d688061bd2edeb45"}, {"is_disabled": 0, "is_reserved": 0, "fusion_lat": 0.0, "lat": 38.880349, "fusion_lon": 0.0, "rental_uris": {"ios": "https://dc.lft.to/lastmile_qr_scan", "android": "https://dc.lft.to/lastmile_qr_scan"}, "lon": -76.92726116666667, "bike_id": "c828527a20e907a465b962ab17fe438d", "type": "electric_scooter", "name": "c828527a20e907a465b962ab17fe438d"}, {"is_disabled": 0, "is_reserved": 0, "fusion_lat": 0.0, "lat": 38.93033483333333, "fusion_lon": 0.0, "rental_uris": {"ios": "https://dc.lft.to/lastmile_qr_scan", "android": "https://dc.lft.to/lastmile_qr_scan"}, "lon": -77.060803, "bike_id": "6185c3e68008930b02dc03b6c1256057", "type": "electric_scooter", "name": "6185c3e68008930b02dc03b6c1256057"}, {"is_disabled": 0, "is_reserved": 0, "fusion_lat": 0.0, "lat": 38.87634466666667, "fusion_lon": 0.0, "rental_uris": {"ios": "https://dc.lft.to/lastmile_qr_scan", "android": "https://dc.lft.to/lastmile_qr_scan"}, "lon": -77.00954816666666, "bike_id": "8ec3fd5072a5381031a1f63db87c7649", "type": "electric_scooter", "name": "8ec3fd5072a5381031a1f63db87c7649"}, {"is_disabled": 0, "is_reserved": 0, "fusion_lat": 0.0, "lat": 38.870707, "fusion_lon": 0.0, "rental_uris": {"ios": "https://dc.lft.to/lastmile_qr_scan", "android": "https://dc.lft.to/lastmile_qr_scan"}, "lon": -76.981301, "bike_id": "7756a35b83a864f5ca4229565164d84a", "type": "electric_scooter", "name": "7756a35b83a864f5ca4229565164d84a"}, {"is_disabled": 0, "is_reserved": 0, "fusion_lat": 0.0, "lat": 38.93056983333334, "fusion_lon": 0.0, "rental_uris": {"ios": "https://dc.lft.to/lastmile_qr_scan", "android": "https://dc.lft.to/lastmile_qr_scan"}, "lon": -77.03362383333334, "bike_id": "399a8d14fcae8ca844fc052476028186", "type": "electric_scooter", "name": "399a8d14fcae8ca844fc052476028186"}, {"is_disabled": 0, "is_reserved": 0, "fusion_lat": 0.0, "lat": 38.918011, "fusion_lon": 0.0, "rental_uris": {"ios": "https://dc.lft.to/lastmile_qr_scan", "android": "https://dc.lft.to/lastmile_qr_scan"}, "lon": -77.03432583333333, "bike_id": "933330053204e7402383790a1f748e23", "type": "electric_scooter", "name": "933330053204e7402383790a1f748e23"}, {"is_disabled": 0, "is_reserved": 0, "fusion_lat": 0.0, "lat": 38.94795283333333, "fusion_lon": 0.0, "rental_uris": {"ios": "https://dc.lft.to/lastmile_qr_scan", "android": "https://dc.lft.to/lastmile_qr_scan"}, "lon": -77.07893083333333, "bike_id": "7bb6ec7ef3a42d41c79cad02f6a7a0f1", "type": "electric_scooter", "name": "7bb6ec7ef3a42d41c79cad02f6a7a0f1"}, {"is_disabled": 0, "is_reserved": 0, "fusion_lat": 0.0, "lat": 38.88481016666667, "fusion_lon": 0.0, "rental_uris": {"ios": "https://dc.lft.to/lastmile_qr_scan", "android": "https://dc.lft.to/lastmile_qr_scan"}, "lon": -77.0317595, "bike_id": "f73f7e0336ced0dffd17e2d688326167", "type": "electric_bike", "name": "f73f7e0336ced0dffd17e2d688326167"}, {"is_disabled": 0, "is_reserved": 0, "fusion_lat": 0.0, "lat": 38.96382416666667, "fusion_lon": 0.0, "rental_uris": {"ios": "https://dc.lft.to/lastmile_qr_scan", "android": "https://dc.lft.to/lastmile_qr_scan"}, "lon": -77.01977316666667, "bike_id": "94de6365d752b690941d1bb1731ad71e", "type": "electric_bike", "name": "94de6365d752b690941d1bb1731ad71e"}, {"is_disabled": 0, "is_reserved": 0, "fusion_lat": 0.0, "lat": 38.9509985, "fusion_lon": 0.0, "rental_uris": {"ios": "https://dc.lft.to/lastmile_qr_scan", "android": "https://dc.lft.to/lastmile_qr_scan"}, "lon": -77.02194983333334, "bike_id": "8da69d13d4763018a0b36705e77720be", "type": "electric_scooter", "name": "8da69d13d4763018a0b36705e77720be"}, {"is_disabled": 0, "is_reserved": 0, "fusion_lat": 0.0, "lat": 38.95736633333333, "fusion_lon": 0.0, "rental_uris": {"ios": "https://dc.lft.to/lastmile_qr_scan", "android": "https://dc.lft.to/lastmile_qr_scan"}, "lon": -77.02420666666667, "bike_id": "1b2299973d86c3ad5c4a9440ab817c4f", "type": "electric_bike", "name": "1b2299973d86c3ad5c4a9440ab817c4f"}, {"is_disabled": 0, "is_reserved": 0, "fusion_lat": 0.0, "lat": 38.87940416666667, "fusion_lon": 0.0, "rental_uris": {"ios": "https://dc.lft.to/lastmile_qr_scan", "android": "https://dc.lft.to/lastmile_qr_scan"}, "lon": -77.00401816666667, "bike_id": "ce01d2c039692b2f38d4723ea5db513d", "type": "electric_scooter", "name": "ce01d2c039692b2f38d4723ea5db513d"}, {"is_disabled": 0, "is_reserved": 0, "fusion_lat": 0.0, "lat": 38.93607133333333, "fusion_lon": 0.0, "rental_uris": {"ios": "https://dc.lft.to/lastmile_qr_scan", "android": "https://dc.lft.to/lastmile_qr_scan"}, "lon": -77.03881833333334, "bike_id": "5cebde44c90ceb1826ca7b3c6fc2e290", "type": "electric_scooter", "name": "5cebde44c90ceb1826ca7b3c6fc2e290"}, {"is_disabled": 0, "is_reserved": 0, "fusion_lat": 0.0, "lat": 38.92239933333333, "fusion_lon": 0.0, "rental_uris": {"ios": "https://dc.lft.to/lastmile_qr_scan", "android": "https://dc.lft.to/lastmile_qr_scan"}, "lon": -77.02267966666666, "bike_id": "534d17e25c0cb9c1f00eff57623262bb", "type": "electric_scooter", "name": "534d17e25c0cb9c1f00eff57623262bb"}, {"is_disabled": 0, "is_reserved": 0, "fusion_lat": 0.0, "lat": 38.928564333333334, "fusion_lon": 0.0, "rental_uris": {"ios": "https://dc.lft.to/lastmile_qr_scan", "android": "https://dc.lft.to/lastmile_qr_scan"}, "lon": -77.02882266666667, "bike_id": "8766c8b05b154f5f34e443be024952b8", "type": "electric_scooter", "name": "8766c8b05b154f5f34e443be024952b8"}, {"is_disabled": 0, "is_reserved": 0, "fusion_lat": 0.0, "lat": 38.898949333333334, "fusion_lon": 0.0, "rental_uris": {"ios": "https://dc.lft.to/lastmile_qr_scan", "android": "https://dc.lft.to/lastmile_qr_scan"}, "lon": -77.0198145, "bike_id": "f6342d7db2dcb41a9e78b9c9e7bdffb1", "type": "electric_scooter", "name": "f6342d7db2dcb41a9e78b9c9e7bdffb1"}, {"is_disabled": 0, "is_reserved": 0, "fusion_lat": 0.0, "lat": 38.91731933333333, "fusion_lon": 0.0, "rental_uris": {"ios": "https://dc.lft.to/lastmile_qr_scan", "android": "https://dc.lft.to/lastmile_qr_scan"}, "lon": -77.02302483333334, "bike_id": "d97d3ed2a22ceb73339c9a9f8ad557b7", "type": "electric_scooter", "name": "d97d3ed2a22ceb73339c9a9f8ad557b7"}, {"is_disabled": 0, "is_reserved": 0, "fusion_lat": 0.0, "lat": 38.895044666666664, "fusion_lon": 0.0, "rental_uris": {"ios": "https://dc.lft.to/lastmile_qr_scan", "android": "https://dc.lft.to/lastmile_qr_scan"}, "lon": -77.02574983333334, "bike_id": "dd590816dae21e0ae6cc62afa974ef0c", "type": "electric_scooter", "name": "dd590816dae21e0ae6cc62afa974ef0c"}, {"is_disabled": 0, "is_reserved": 0, "fusion_lat": 0.0, "lat": 38.92990133333333, "fusion_lon": 0.0, "rental_uris": {"ios": "https://dc.lft.to/lastmile_qr_scan", "android": "https://dc.lft.to/lastmile_qr_scan"}, "lon": -77.03474066666666, "bike_id": "896833d6e024f29d8626ff90b848efb3", "type": "electric_scooter", "name": "896833d6e024f29d8626ff90b848efb3"}, {"is_disabled": 0, "is_reserved": 0, "fusion_lat": 0.0, "lat": 38.934159333333334, "fusion_lon": 0.0, "rental_uris": {"ios": "https://dc.lft.to/lastmile_qr_scan", "android": "https://dc.lft.to/lastmile_qr_scan"}, "lon": -77.04280716666666, "bike_id": "96f10596ecc496b3750fb33d3fbdf248", "type": "electric_scooter", "name": "96f10596ecc496b3750fb33d3fbdf248"}, {"is_disabled": 0, "is_reserved": 0, "fusion_lat": 0.0, "lat": 38.8954575, "fusion_lon": 0.0, "rental_uris": {"ios": "https://dc.lft.to/lastmile_qr_scan", "android": "https://dc.lft.to/lastmile_qr_scan"}, "lon": -77.02684233333333, "bike_id": "a8a0215ed9d4c8e0eabebb96cce5df80", "type": "electric_scooter", "name": "a8a0215ed9d4c8e0eabebb96cce5df80"}, {"is_disabled": 0, "is_reserved": 0, "fusion_lat": 0.0, "lat": 38.90229166666667, "fusion_lon": 0.0, "rental_uris": {"ios": "https://dc.lft.to/lastmile_qr_scan", "android": "https://dc.lft.to/lastmile_qr_scan"}, "lon": -77.05342333333333, "bike_id": "288d37491910de59f9dc23f4b26e257c", "type": "electric_scooter", "name": "288d37491910de59f9dc23f4b26e257c"}, {"is_disabled": 0, "is_reserved": 0, "fusion_lat": 0.0, "lat": 38.84279183333334, "fusion_lon": 0.0, "rental_uris": {"ios": "https://dc.lft.to/lastmile_qr_scan", "android": "https://dc.lft.to/lastmile_qr_scan"}, "lon": -76.98835033333333, "bike_id": "e1f9bfdf72c654158c1e9492f325d15c", "type": "electric_bike", "name": "e1f9bfdf72c654158c1e9492f325d15c"}, {"is_disabled": 0, "is_reserved": 0, "fusion_lat": 0.0, "lat": 38.88756383333333, "fusion_lon": 0.0, "rental_uris": {"ios": "https://dc.lft.to/lastmile_qr_scan", "android": "https://dc.lft.to/lastmile_qr_scan"}, "lon": -77.15653433333334, "bike_id": "6565e0aeae2392722aa590aa1a3e11a3", "type": "electric_bike", "name": "6565e0aeae2392722aa590aa1a3e11a3"}, {"is_disabled": 0, "is_reserved": 0, "fusion_lat": 0.0, "lat": 38.93, "fusion_lon": 0.0, "rental_uris": {"ios": "https://dc.lft.to/lastmile_qr_scan", "android": "https://dc.lft.to/lastmile_qr_scan"}, "lon": -77.0379685, "bike_id": "80daf3401c9b7704cc066b293b01a731", "type": "electric_scooter", "name": "80daf3401c9b7704cc066b293b01a731"}, {"is_disabled": 0, "is_reserved": 0, "fusion_lat": 0.0, "lat": 38.956364666666666, "fusion_lon": 0.0, "rental_uris": {"ios": "https://dc.lft.to/lastmile_qr_scan", "android": "https://dc.lft.to/lastmile_qr_scan"}, "lon": -77.036304, "bike_id": "bb5ff2c7b5674a32549bfae3cebdf30d", "type": "electric_scooter", "name": "bb5ff2c7b5674a32549bfae3cebdf30d"}, {"is_disabled": 0, "is_reserved": 0, "fusion_lat": 0.0, "lat": 38.92657033333333, "fusion_lon": 0.0, "rental_uris": {"ios": "https://dc.lft.to/lastmile_qr_scan", "android": "https://dc.lft.to/lastmile_qr_scan"}, "lon": -76.99297683333333, "bike_id": "57f3c2b21e01161c00bd8b5d89b33846", "type": "electric_scooter", "name": "57f3c2b21e01161c00bd8b5d89b33846"}, {"is_disabled": 0, "is_reserved": 0, "fusion_lat": 0.0, "lat": 38.8933345, "fusion_lon": 0.0, "rental_uris": {"ios": "https://dc.lft.to/lastmile_qr_scan", "android": "https://dc.lft.to/lastmile_qr_scan"}, "lon": -76.92888566666667, "bike_id": "9510f02a5a6a2b8f76fee9fe02f07496", "type": "electric_scooter", "name": "9510f02a5a6a2b8f76fee9fe02f07496"}, {"is_disabled": 0, "is_reserved": 0, "fusion_lat": 0.0, "lat": 38.9336455, "fusion_lon": 0.0, "rental_uris": {"ios": "https://dc.lft.to/lastmile_qr_scan", "android": "https://dc.lft.to/lastmile_qr_scan"}, "lon": -77.0389345, "bike_id": "7d70c01b63eea4d21f4521cc3de857dd", "type": "electric_scooter", "name": "7d70c01b63eea4d21f4521cc3de857dd"}, {"is_disabled": 0, "is_reserved": 0, "fusion_lat": 0.0, "lat": 38.848601333333335, "fusion_lon": 0.0, "rental_uris": {"ios": "https://dc.lft.to/lastmile_qr_scan", "android": "https://dc.lft.to/lastmile_qr_scan"}, "lon": -77.06828133333333, "bike_id": "41131d90dce8e70f646d7e5916fea961", "type": "electric_bike", "name": "41131d90dce8e70f646d7e5916fea961"}, {"is_disabled": 0, "is_reserved": 0, "fusion_lat": 0.0, "lat": 38.8785625, "fusion_lon": 0.0, "rental_uris": {"ios": "https://dc.lft.to/lastmile_qr_scan", "android": "https://dc.lft.to/lastmile_qr_scan"}, "lon": -77.0073385, "bike_id": "b2138e86a842c14ea81acfec9d857865", "type": "electric_scooter", "name": "b2138e86a842c14ea81acfec9d857865"}, {"is_disabled": 0, "is_reserved": 0, "fusion_lat": 0.0, "lat": 38.922562166666665, "fusion_lon": 0.0, "rental_uris": {"ios": "https://dc.lft.to/lastmile_qr_scan", "android": "https://dc.lft.to/lastmile_qr_scan"}, "lon": -77.03658816666666, "bike_id": "22801183fda630c4613d7b31da2c15ec", "type": "electric_scooter", "name": "22801183fda630c4613d7b31da2c15ec"}, {"is_disabled": 0, "is_reserved": 0, "fusion_lat": 0.0, "lat": 38.908471, "fusion_lon": 0.0, "rental_uris": {"ios": "https://dc.lft.to/lastmile_qr_scan", "android": "https://dc.lft.to/lastmile_qr_scan"}, "lon": -77.05811383333334, "bike_id": "55ea5ef7932cb5eda2f6f83108a7d4dc", "type": "electric_scooter", "name": "55ea5ef7932cb5eda2f6f83108a7d4dc"}, {"is_disabled": 0, "is_reserved": 0, "fusion_lat": 0.0, "lat": 38.879214166666664, "fusion_lon": 0.0, "rental_uris": {"ios": "https://dc.lft.to/lastmile_qr_scan", "android": "https://dc.lft.to/lastmile_qr_scan"}, "lon": -77.00769433333333, "bike_id": "3c39a44cb4bf1126a2213b3db2fd8901", "type": "electric_scooter", "name": "3c39a44cb4bf1126a2213b3db2fd8901"}, {"is_disabled": 0, "is_reserved": 0, "fusion_lat": 0.0, "lat": 38.90132883333333, "fusion_lon": 0.0, "rental_uris": {"ios": "https://dc.lft.to/lastmile_qr_scan", "android": "https://dc.lft.to/lastmile_qr_scan"}, "lon": -77.0337495, "bike_id": "09a65703a43b1bd0df7dfc1346ce5833", "type": "electric_scooter", "name": "09a65703a43b1bd0df7dfc1346ce5833"}, {"is_disabled": 0, "is_reserved": 0, "fusion_lat": 0.0, "lat": 38.86620116666667, "fusion_lon": 0.0, "rental_uris": {"ios": "https://dc.lft.to/lastmile_qr_scan", "android": "https://dc.lft.to/lastmile_qr_scan"}, "lon": -76.989922, "bike_id": "38bcd2ea95f8ff1345ddc2a9e8e099b0", "type": "electric_bike", "name": "38bcd2ea95f8ff1345ddc2a9e8e099b0"}, {"is_disabled": 0, "is_reserved": 0, "fusion_lat": 0.0, "lat": 38.90648683333333, "fusion_lon": 0.0, "rental_uris": {"ios": "https://dc.lft.to/lastmile_qr_scan", "android": "https://dc.lft.to/lastmile_qr_scan"}, "lon": -77.0488005, "bike_id": "c6ca7fdb7726f63494535143bb0c0dcb", "type": "electric_scooter", "name": "c6ca7fdb7726f63494535143bb0c0dcb"}, {"is_disabled": 0, "is_reserved": 0, "fusion_lat": 0.0, "lat": 38.895605833333335, "fusion_lon": 0.0, "rental_uris": {"ios": "https://dc.lft.to/lastmile_qr_scan", "android": "https://dc.lft.to/lastmile_qr_scan"}, "lon": -77.02189066666666, "bike_id": "24f209a62fca0f247210d9702934606c", "type": "electric_scooter", "name": "24f209a62fca0f247210d9702934606c"}, {"is_disabled": 0, "is_reserved": 0, "fusion_lat": 0.0, "lat": 38.91656483333333, "fusion_lon": 0.0, "rental_uris": {"ios": "https://dc.lft.to/lastmile_qr_scan", "android": "https://dc.lft.to/lastmile_qr_scan"}, "lon": -77.00948583333333, "bike_id": "e37c40ff38729b6229898b287af8780c", "type": "electric_scooter", "name": "e37c40ff38729b6229898b287af8780c"}, {"is_disabled": 0, "is_reserved": 0, "fusion_lat": 0.0, "lat": 38.99095, "fusion_lon": 0.0, "rental_uris": {"ios": "https://dc.lft.to/lastmile_qr_scan", "android": "https://dc.lft.to/lastmile_qr_scan"}, "lon": -76.99375866666666, "bike_id": "f7da86969a58f4d17033186d1b3930cd", "type": "electric_bike", "name": "f7da86969a58f4d17033186d1b3930cd"}, {"is_disabled": 0, "is_reserved": 0, "fusion_lat": 0.0, "lat": 38.897459, "fusion_lon": 0.0, "rental_uris": {"ios": "https://dc.lft.to/lastmile_qr_scan", "android": "https://dc.lft.to/lastmile_qr_scan"}, "lon": -77.04633166666666, "bike_id": "65fb941e45217f52be5f5986c65d3c23", "type": "electric_scooter", "name": "65fb941e45217f52be5f5986c65d3c23"}, {"is_disabled": 0, "is_reserved": 0, "fusion_lat": 0.0, "lat": 38.9352545, "fusion_lon": 0.0, "rental_uris": {"ios": "https://dc.lft.to/lastmile_qr_scan", "android": "https://dc.lft.to/lastmile_qr_scan"}, "lon": -77.03817216666667, "bike_id": "7eed168bcd9e5eb24428339bd1fb621d", "type": "electric_scooter", "name": "7eed168bcd9e5eb24428339bd1fb621d"}, {"is_disabled": 0, "is_reserved": 0, "fusion_lat": 0.0, "lat": 38.914914, "fusion_lon": 0.0, "rental_uris": {"ios": "https://dc.lft.to/lastmile_qr_scan", "android": "https://dc.lft.to/lastmile_qr_scan"}, "lon": -77.0494375, "bike_id": "6cf3d7bd4b9d9781e429f7ac9488e38b", "type": "electric_scooter", "name": "6cf3d7bd4b9d9781e429f7ac9488e38b"}, {"is_disabled": 0, "is_reserved": 0, "fusion_lat": 0.0, "lat": 38.89428816666667, "fusion_lon": 0.0, "rental_uris": {"ios": "https://dc.lft.to/lastmile_qr_scan", "android": "https://dc.lft.to/lastmile_qr_scan"}, "lon": -77.021297, "bike_id": "f490345189f5a5c7782f871f628609dc", "type": "electric_scooter", "name": "f490345189f5a5c7782f871f628609dc"}, {"is_disabled": 0, "is_reserved": 0, "fusion_lat": 0.0, "lat": 38.9113195, "fusion_lon": 0.0, "rental_uris": {"ios": "https://dc.lft.to/lastmile_qr_scan", "android": "https://dc.lft.to/lastmile_qr_scan"}, "lon": -77.06572633333333, "bike_id": "37fe0dd2c1f9196dbb83e9e1047d85b6", "type": "electric_bike", "name": "37fe0dd2c1f9196dbb83e9e1047d85b6"}, {"is_disabled": 0, "is_reserved": 0, "fusion_lat": 0.0, "lat": 38.96172383333333, "fusion_lon": 0.0, "rental_uris": {"ios": "https://dc.lft.to/lastmile_qr_scan", "android": "https://dc.lft.to/lastmile_qr_scan"}, "lon": -77.03226816666667, "bike_id": "31a1c2ab208b09121f6c6d28a02af5f2", "type": "electric_scooter", "name": "31a1c2ab208b09121f6c6d28a02af5f2"}, {"is_disabled": 0, "is_reserved": 0, "fusion_lat": 0.0, "lat": 38.9370075, "fusion_lon": 0.0, "rental_uris": {"ios": "https://dc.lft.to/lastmile_qr_scan", "android": "https://dc.lft.to/lastmile_qr_scan"}, "lon": -77.0568545, "bike_id": "489f81366e9cbd5a448c6efeb2b716f7", "type": "electric_scooter", "name": "489f81366e9cbd5a448c6efeb2b716f7"}, {"is_disabled": 0, "is_reserved": 0, "fusion_lat": 0.0, "lat": 38.924578, "fusion_lon": 0.0, "rental_uris": {"ios": "https://dc.lft.to/lastmile_qr_scan", "android": "https://dc.lft.to/lastmile_qr_scan"}, "lon": -77.03289966666667, "bike_id": "7e1ad24d9096767c08be8229e8b5abe2", "type": "electric_scooter", "name": "7e1ad24d9096767c08be8229e8b5abe2"}, {"is_disabled": 0, "is_reserved": 0, "fusion_lat": 0.0, "lat": 38.94978533333333, "fusion_lon": 0.0, "rental_uris": {"ios": "https://dc.lft.to/lastmile_qr_scan", "android": "https://dc.lft.to/lastmile_qr_scan"}, "lon": -77.02448466666667, "bike_id": "496fd8114b25783bb2e3bcdb1adca45b", "type": "electric_scooter", "name": "496fd8114b25783bb2e3bcdb1adca45b"}, {"is_disabled": 0, "is_reserved": 0, "fusion_lat": 0.0, "lat": 38.92458666666667, "fusion_lon": 0.0, "rental_uris": {"ios": "https://dc.lft.to/lastmile_qr_scan", "android": "https://dc.lft.to/lastmile_qr_scan"}, "lon": -77.033009, "bike_id": "33c34bdf360269f43b70547c00239b6b", "type": "electric_scooter", "name": "33c34bdf360269f43b70547c00239b6b"}, {"is_disabled": 0, "is_reserved": 0, "fusion_lat": 0.0, "lat": 38.8953115, "fusion_lon": 0.0, "rental_uris": {"ios": "https://dc.lft.to/lastmile_qr_scan", "android": "https://dc.lft.to/lastmile_qr_scan"}, "lon": -76.94892566666667, "bike_id": "06550f5e55993ed1c26afb0c27bf91eb", "type": "electric_scooter", "name": "06550f5e55993ed1c26afb0c27bf91eb"}, {"is_disabled": 0, "is_reserved": 0, "fusion_lat": 0.0, "lat": 38.90652466666667, "fusion_lon": 0.0, "rental_uris": {"ios": "https://dc.lft.to/lastmile_qr_scan", "android": "https://dc.lft.to/lastmile_qr_scan"}, "lon": -77.01171166666667, "bike_id": "5996f1d25988fe0e694c42febbb99f8e", "type": "electric_scooter", "name": "5996f1d25988fe0e694c42febbb99f8e"}, {"is_disabled": 0, "is_reserved": 0, "fusion_lat": 0.0, "lat": 38.8950345, "fusion_lon": 0.0, "rental_uris": {"ios": "https://dc.lft.to/lastmile_qr_scan", "android": "https://dc.lft.to/lastmile_qr_scan"}, "lon": -77.03956916666667, "bike_id": "495bdcf959bbcbb6e0a35f08287dad40", "type": "electric_scooter", "name": "495bdcf959bbcbb6e0a35f08287dad40"}, {"is_disabled": 0, "is_reserved": 0, "fusion_lat": 0.0, "lat": 38.91702883333333, "fusion_lon": 0.0, "rental_uris": {"ios": "https://dc.lft.to/lastmile_qr_scan", "android": "https://dc.lft.to/lastmile_qr_scan"}, "lon": -77.02289483333334, "bike_id": "21b48e73d869913677e438e81a698b9d", "type": "electric_scooter", "name": "21b48e73d869913677e438e81a698b9d"}, {"is_disabled": 0, "is_reserved": 0, "fusion_lat": 0.0, "lat": 38.943639, "fusion_lon": 0.0, "rental_uris": {"ios": "https://dc.lft.to/lastmile_qr_scan", "android": "https://dc.lft.to/lastmile_qr_scan"}, "lon": -77.0611255, "bike_id": "5deaea70c62edfb9b891bb1e2a8c8163", "type": "electric_scooter", "name": "5deaea70c62edfb9b891bb1e2a8c8163"}, {"is_disabled": 0, "is_reserved": 0, "fusion_lat": 0.0, "lat": 38.90669583333333, "fusion_lon": 0.0, "rental_uris": {"ios": "https://dc.lft.to/lastmile_qr_scan", "android": "https://dc.lft.to/lastmile_qr_scan"}, "lon": -77.03438216666666, "bike_id": "b07d0a6d4c63eb7e7c58f95e7e5978d7", "type": "electric_scooter", "name": "b07d0a6d4c63eb7e7c58f95e7e5978d7"}, {"is_disabled": 0, "is_reserved": 0, "fusion_lat": 0.0, "lat": 38.92871816666667, "fusion_lon": 0.0, "rental_uris": {"ios": "https://dc.lft.to/lastmile_qr_scan", "android": "https://dc.lft.to/lastmile_qr_scan"}, "lon": -77.02963633333333, "bike_id": "58c4ce0338acf878933e3be0127019ec", "type": "electric_scooter", "name": "58c4ce0338acf878933e3be0127019ec"}, {"is_disabled": 0, "is_reserved": 0, "fusion_lat": 0.0, "lat": 38.9398635, "fusion_lon": 0.0, "rental_uris": {"ios": "https://dc.lft.to/lastmile_qr_scan", "android": "https://dc.lft.to/lastmile_qr_scan"}, "lon": -77.02893083333333, "bike_id": "66bea38887a9f51e3b0b522f98e56b22", "type": "electric_scooter", "name": "66bea38887a9f51e3b0b522f98e56b22"}, {"is_disabled": 0, "is_reserved": 0, "fusion_lat": 0.0, "lat": 38.8983105, "fusion_lon": 0.0, "rental_uris": {"ios": "https://dc.lft.to/lastmile_qr_scan", "android": "https://dc.lft.to/lastmile_qr_scan"}, "lon": -76.99018066666666, "bike_id": "8f3af00a75bf43baf17501016afc5b45", "type": "electric_scooter", "name": "8f3af00a75bf43baf17501016afc5b45"}, {"is_disabled": 0, "is_reserved": 0, "fusion_lat": 0.0, "lat": 38.92197933333333, "fusion_lon": 0.0, "rental_uris": {"ios": "https://dc.lft.to/lastmile_qr_scan", "android": "https://dc.lft.to/lastmile_qr_scan"}, "lon": -77.0183475, "bike_id": "c2e29ae54373c25c24c6a0942e03bebd", "type": "electric_scooter", "name": "c2e29ae54373c25c24c6a0942e03bebd"}, {"is_disabled": 0, "is_reserved": 0, "fusion_lat": 0.0, "lat": 38.9045275, "fusion_lon": 0.0, "rental_uris": {"ios": "https://dc.lft.to/lastmile_qr_scan", "android": "https://dc.lft.to/lastmile_qr_scan"}, "lon": -76.932746, "bike_id": "58424878a956e258f5588e73bc1eade4", "type": "electric_scooter", "name": "58424878a956e258f5588e73bc1eade4"}, {"is_disabled": 0, "is_reserved": 0, "fusion_lat": 0.0, "lat": 38.90841016666667, "fusion_lon": 0.0, "rental_uris": {"ios": "https://dc.lft.to/lastmile_qr_scan", "android": "https://dc.lft.to/lastmile_qr_scan"}, "lon": -76.934463, "bike_id": "f867a43f2bcc17d44c00642dd108397f", "type": "electric_scooter", "name": "f867a43f2bcc17d44c00642dd108397f"}, {"is_disabled": 0, "is_reserved": 0, "fusion_lat": 0.0, "lat": 38.9449205, "fusion_lon": 0.0, "rental_uris": {"ios": "https://dc.lft.to/lastmile_qr_scan", "android": "https://dc.lft.to/lastmile_qr_scan"}, "lon": -77.0073685, "bike_id": "8309c6c9cf339d3421e3e9c6f40af4ac", "type": "electric_bike", "name": "8309c6c9cf339d3421e3e9c6f40af4ac"}, {"is_disabled": 0, "is_reserved": 0, "fusion_lat": 0.0, "lat": 38.8767955, "fusion_lon": 0.0, "rental_uris": {"ios": "https://dc.lft.to/lastmile_qr_scan", "android": "https://dc.lft.to/lastmile_qr_scan"}, "lon": -77.01791033333333, "bike_id": "379550da4c3a6149fdbaf4b5fbb4d6b8", "type": "electric_scooter", "name": "379550da4c3a6149fdbaf4b5fbb4d6b8"}, {"is_disabled": 0, "is_reserved": 0, "fusion_lat": 0.0, "lat": 38.881244333333335, "fusion_lon": 0.0, "rental_uris": {"ios": "https://dc.lft.to/lastmile_qr_scan", "android": "https://dc.lft.to/lastmile_qr_scan"}, "lon": -76.99283, "bike_id": "aa72d177830b2cb4cf1712b155922665", "type": "electric_scooter", "name": "aa72d177830b2cb4cf1712b155922665"}, {"is_disabled": 0, "is_reserved": 0, "fusion_lat": 0.0, "lat": 38.915018833333335, "fusion_lon": 0.0, "rental_uris": {"ios": "https://dc.lft.to/lastmile_qr_scan", "android": "https://dc.lft.to/lastmile_qr_scan"}, "lon": -77.0092005, "bike_id": "8dde0776be087b631564bc3fb28b0da0", "type": "electric_scooter", "name": "8dde0776be087b631564bc3fb28b0da0"}, {"is_disabled": 0, "is_reserved": 0, "fusion_lat": 0.0, "lat": 38.80522666666667, "fusion_lon": 0.0, "rental_uris": {"ios": "https://dc.lft.to/lastmile_qr_scan", "android": "https://dc.lft.to/lastmile_qr_scan"}, "lon": -77.04340016666667, "bike_id": "0c9afd861bd4baa9663bd1d3c74032bd", "type": "electric_bike", "name": "0c9afd861bd4baa9663bd1d3c74032bd"}, {"is_disabled": 0, "is_reserved": 0, "fusion_lat": 0.0, "lat": 38.9032925, "fusion_lon": 0.0, "rental_uris": {"ios": "https://dc.lft.to/lastmile_qr_scan", "android": "https://dc.lft.to/lastmile_qr_scan"}, "lon": -77.01965816666667, "bike_id": "d6d5456f11341b26eba00ddbdaf025fe", "type": "electric_scooter", "name": "d6d5456f11341b26eba00ddbdaf025fe"}, {"is_disabled": 0, "is_reserved": 0, "fusion_lat": 0.0, "lat": 38.96799516666667, "fusion_lon": 0.0, "rental_uris": {"ios": "https://dc.lft.to/lastmile_qr_scan", "android": "https://dc.lft.to/lastmile_qr_scan"}, "lon": -77.024352, "bike_id": "fe38f99ec5a342f7b90a2df680372e1a", "type": "electric_scooter", "name": "fe38f99ec5a342f7b90a2df680372e1a"}, {"is_disabled": 0, "is_reserved": 0, "fusion_lat": 0.0, "lat": 38.908491833333336, "fusion_lon": 0.0, "rental_uris": {"ios": "https://dc.lft.to/lastmile_qr_scan", "android": "https://dc.lft.to/lastmile_qr_scan"}, "lon": -77.00407633333333, "bike_id": "48ca30fa124a29fc885e5257e7f05390", "type": "electric_scooter", "name": "48ca30fa124a29fc885e5257e7f05390"}, {"is_disabled": 0, "is_reserved": 0, "fusion_lat": 0.0, "lat": 38.96552533333333, "fusion_lon": 0.0, "rental_uris": {"ios": "https://dc.lft.to/lastmile_qr_scan", "android": "https://dc.lft.to/lastmile_qr_scan"}, "lon": -77.01632183333334, "bike_id": "bcd416e037b08bca0556718fb1762a88", "type": "electric_bike", "name": "bcd416e037b08bca0556718fb1762a88"}, {"is_disabled": 0, "is_reserved": 0, "fusion_lat": 0.0, "lat": 38.9120555, "fusion_lon": 0.0, "rental_uris": {"ios": "https://dc.lft.to/lastmile_qr_scan", "android": "https://dc.lft.to/lastmile_qr_scan"}, "lon": -77.00088366666667, "bike_id": "16611df83bd6f96c818035ecd358c572", "type": "electric_scooter", "name": "16611df83bd6f96c818035ecd358c572"}, {"is_disabled": 0, "is_reserved": 0, "fusion_lat": 0.0, "lat": 39.005337, "fusion_lon": 0.0, "rental_uris": {"ios": "https://dc.lft.to/lastmile_qr_scan", "android": "https://dc.lft.to/lastmile_qr_scan"}, "lon": -77.10401433333334, "bike_id": "398a6cf9309669c45d8d12dd8549843a", "type": "electric_bike", "name": "398a6cf9309669c45d8d12dd8549843a"}, {"is_disabled": 0, "is_reserved": 0, "fusion_lat": 0.0, "lat": 38.885299, "fusion_lon": 0.0, "rental_uris": {"ios": "https://dc.lft.to/lastmile_qr_scan", "android": "https://dc.lft.to/lastmile_qr_scan"}, "lon": -76.9962615, "bike_id": "e8209ca49a1456bae44bdf70f7cc34fd", "type": "electric_scooter", "name": "e8209ca49a1456bae44bdf70f7cc34fd"}, {"is_disabled": 0, "is_reserved": 0, "fusion_lat": 0.0, "lat": 38.907726833333335, "fusion_lon": 0.0, "rental_uris": {"ios": "https://dc.lft.to/lastmile_qr_scan", "android": "https://dc.lft.to/lastmile_qr_scan"}, "lon": -77.04539133333333, "bike_id": "fc46ddc6c664e63d3150366c5d224668", "type": "electric_scooter", "name": "fc46ddc6c664e63d3150366c5d224668"}, {"is_disabled": 0, "is_reserved": 0, "fusion_lat": 0.0, "lat": 38.8773855, "fusion_lon": 0.0, "rental_uris": {"ios": "https://dc.lft.to/lastmile_qr_scan", "android": "https://dc.lft.to/lastmile_qr_scan"}, "lon": -77.14870483333333, "bike_id": "326203737a1cad56f37fd7662a909904", "type": "electric_bike", "name": "326203737a1cad56f37fd7662a909904"}, {"is_disabled": 0, "is_reserved": 0, "fusion_lat": 0.0, "lat": 38.937721333333336, "fusion_lon": 0.0, "rental_uris": {"ios": "https://dc.lft.to/lastmile_qr_scan", "android": "https://dc.lft.to/lastmile_qr_scan"}, "lon": -77.02444566666667, "bike_id": "c38234c85386281e9933d9cd696f173c", "type": "electric_scooter", "name": "c38234c85386281e9933d9cd696f173c"}, {"is_disabled": 0, "is_reserved": 0, "fusion_lat": 0.0, "lat": 38.88101416666667, "fusion_lon": 0.0, "rental_uris": {"ios": "https://dc.lft.to/lastmile_qr_scan", "android": "https://dc.lft.to/lastmile_qr_scan"}, "lon": -77.01239616666666, "bike_id": "0fc6c1c4657764ef16b98dae487e26f7", "type": "electric_scooter", "name": "0fc6c1c4657764ef16b98dae487e26f7"}, {"is_disabled": 0, "is_reserved": 0, "fusion_lat": 0.0, "lat": 38.91735383333334, "fusion_lon": 0.0, "rental_uris": {"ios": "https://dc.lft.to/lastmile_qr_scan", "android": "https://dc.lft.to/lastmile_qr_scan"}, "lon": -77.06895183333333, "bike_id": "598c7c08bbdedd06e614180b9afdba11", "type": "electric_scooter", "name": "598c7c08bbdedd06e614180b9afdba11"}, {"is_disabled": 0, "is_reserved": 0, "fusion_lat": 0.0, "lat": 39.000958833333335, "fusion_lon": 0.0, "rental_uris": {"ios": "https://dc.lft.to/lastmile_qr_scan", "android": "https://dc.lft.to/lastmile_qr_scan"}, "lon": -76.90985266666667, "bike_id": "94c7f849b9175b20a1ceb20d3527adc2", "type": "electric_bike", "name": "94c7f849b9175b20a1ceb20d3527adc2"}, {"is_disabled": 0, "is_reserved": 0, "fusion_lat": 0.0, "lat": 38.804820166666666, "fusion_lon": 0.0, "rental_uris": {"ios": "https://dc.lft.to/lastmile_qr_scan", "android": "https://dc.lft.to/lastmile_qr_scan"}, "lon": -76.99107133333334, "bike_id": "aee5e1e37c92873be02faee8f84ad5fa", "type": "electric_bike", "name": "aee5e1e37c92873be02faee8f84ad5fa"}, {"is_disabled": 0, "is_reserved": 0, "fusion_lat": 0.0, "lat": 38.915531666666666, "fusion_lon": 0.0, "rental_uris": {"ios": "https://dc.lft.to/lastmile_qr_scan", "android": "https://dc.lft.to/lastmile_qr_scan"}, "lon": -77.02334, "bike_id": "249b7dd018cf114d378401bd28494240", "type": "electric_scooter", "name": "249b7dd018cf114d378401bd28494240"}, {"is_disabled": 0, "is_reserved": 0, "fusion_lat": 0.0, "lat": 38.892413833333336, "fusion_lon": 0.0, "rental_uris": {"ios": "https://dc.lft.to/lastmile_qr_scan", "android": "https://dc.lft.to/lastmile_qr_scan"}, "lon": -77.0396045, "bike_id": "1f10d81a4fb156f82219a5c8d36d7a36", "type": "electric_scooter", "name": "1f10d81a4fb156f82219a5c8d36d7a36"}, {"is_disabled": 0, "is_reserved": 0, "fusion_lat": 0.0, "lat": 38.932101, "fusion_lon": 0.0, "rental_uris": {"ios": "https://dc.lft.to/lastmile_qr_scan", "android": "https://dc.lft.to/lastmile_qr_scan"}, "lon": -77.0228705, "bike_id": "ef4f1507e0d17915beebe8743402215c", "type": "electric_scooter", "name": "ef4f1507e0d17915beebe8743402215c"}, {"is_disabled": 0, "is_reserved": 0, "fusion_lat": 0.0, "lat": 38.9204165, "fusion_lon": 0.0, "rental_uris": {"ios": "https://dc.lft.to/lastmile_qr_scan", "android": "https://dc.lft.to/lastmile_qr_scan"}, "lon": -77.0244455, "bike_id": "0710bf62654ab0a22dbb764dc888f53f", "type": "electric_scooter", "name": "0710bf62654ab0a22dbb764dc888f53f"}, {"is_disabled": 0, "is_reserved": 0, "fusion_lat": 0.0, "lat": 38.9252935, "fusion_lon": 0.0, "rental_uris": {"ios": "https://dc.lft.to/lastmile_qr_scan", "android": "https://dc.lft.to/lastmile_qr_scan"}, "lon": -77.02621383333333, "bike_id": "34ac7f47d0b99b527fe4ef903b23952f", "type": "electric_bike", "name": "34ac7f47d0b99b527fe4ef903b23952f"}, {"is_disabled": 0, "is_reserved": 0, "fusion_lat": 0.0, "lat": 38.930680833333334, "fusion_lon": 0.0, "rental_uris": {"ios": "https://dc.lft.to/lastmile_qr_scan", "android": "https://dc.lft.to/lastmile_qr_scan"}, "lon": -77.031868, "bike_id": "aa54aac744493267a39917d759eb629c", "type": "electric_scooter", "name": "aa54aac744493267a39917d759eb629c"}, {"is_disabled": 0, "is_reserved": 0, "fusion_lat": 0.0, "lat": 38.9024695, "fusion_lon": 0.0, "rental_uris": {"ios": "https://dc.lft.to/lastmile_qr_scan", "android": "https://dc.lft.to/lastmile_qr_scan"}, "lon": -77.06068216666667, "bike_id": "62aba4de4cebe60f6869e4e3e5f83473", "type": "electric_scooter", "name": "62aba4de4cebe60f6869e4e3e5f83473"}, {"is_disabled": 0, "is_reserved": 0, "fusion_lat": 0.0, "lat": 38.920911, "fusion_lon": 0.0, "rental_uris": {"ios": "https://dc.lft.to/lastmile_qr_scan", "android": "https://dc.lft.to/lastmile_qr_scan"}, "lon": -77.0411015, "bike_id": "f103de37ea062f241328b30115b54436", "type": "electric_scooter", "name": "f103de37ea062f241328b30115b54436"}, {"is_disabled": 0, "is_reserved": 0, "fusion_lat": 0.0, "lat": 38.87940916666667, "fusion_lon": 0.0, "rental_uris": {"ios": "https://dc.lft.to/lastmile_qr_scan", "android": "https://dc.lft.to/lastmile_qr_scan"}, "lon": -77.00542416666667, "bike_id": "ca644466e2bf57f2a48a0899cb6220eb", "type": "electric_scooter", "name": "ca644466e2bf57f2a48a0899cb6220eb"}, {"is_disabled": 0, "is_reserved": 0, "fusion_lat": 0.0, "lat": 38.9155595, "fusion_lon": 0.0, "rental_uris": {"ios": "https://dc.lft.to/lastmile_qr_scan", "android": "https://dc.lft.to/lastmile_qr_scan"}, "lon": -77.05103666666666, "bike_id": "9f87913cc7bc456aa9181bc7b849736d", "type": "electric_scooter", "name": "9f87913cc7bc456aa9181bc7b849736d"}, {"is_disabled": 0, "is_reserved": 0, "fusion_lat": 0.0, "lat": 38.846759666666664, "fusion_lon": 0.0, "rental_uris": {"ios": "https://dc.lft.to/lastmile_qr_scan", "android": "https://dc.lft.to/lastmile_qr_scan"}, "lon": -77.13935216666667, "bike_id": "338212588d3a5713735ed952fabd1496", "type": "electric_bike", "name": "338212588d3a5713735ed952fabd1496"}, {"is_disabled": 0, "is_reserved": 0, "fusion_lat": 0.0, "lat": 38.9160085, "fusion_lon": 0.0, "rental_uris": {"ios": "https://dc.lft.to/lastmile_qr_scan", "android": "https://dc.lft.to/lastmile_qr_scan"}, "lon": -77.04352383333334, "bike_id": "d1d2db28bfd66887a97807e10dcdedbd", "type": "electric_scooter", "name": "d1d2db28bfd66887a97807e10dcdedbd"}, {"is_disabled": 0, "is_reserved": 0, "fusion_lat": 0.0, "lat": 38.916724333333335, "fusion_lon": 0.0, "rental_uris": {"ios": "https://dc.lft.to/lastmile_qr_scan", "android": "https://dc.lft.to/lastmile_qr_scan"}, "lon": -77.03646666666667, "bike_id": "771929fd1fb75eca8551a7b5f081ce62", "type": "electric_scooter", "name": "771929fd1fb75eca8551a7b5f081ce62"}, {"is_disabled": 0, "is_reserved": 0, "fusion_lat": 0.0, "lat": 38.90725883333333, "fusion_lon": 0.0, "rental_uris": {"ios": "https://dc.lft.to/lastmile_qr_scan", "android": "https://dc.lft.to/lastmile_qr_scan"}, "lon": -77.048107, "bike_id": "305d979074ea2b8eec675de49d5afc97", "type": "electric_scooter", "name": "305d979074ea2b8eec675de49d5afc97"}, {"is_disabled": 0, "is_reserved": 0, "fusion_lat": 0.0, "lat": 38.9066195, "fusion_lon": 0.0, "rental_uris": {"ios": "https://dc.lft.to/lastmile_qr_scan", "android": "https://dc.lft.to/lastmile_qr_scan"}, "lon": -76.985974, "bike_id": "896fd3a8428386c76ac3fbb0c153d07d", "type": "electric_scooter", "name": "896fd3a8428386c76ac3fbb0c153d07d"}, {"is_disabled": 0, "is_reserved": 0, "fusion_lat": 0.0, "lat": 38.9306135, "fusion_lon": 0.0, "rental_uris": {"ios": "https://dc.lft.to/lastmile_qr_scan", "android": "https://dc.lft.to/lastmile_qr_scan"}, "lon": -77.04218316666666, "bike_id": "5da62cd5aac9c4e56e5d049c7942b37d", "type": "electric_scooter", "name": "5da62cd5aac9c4e56e5d049c7942b37d"}, {"is_disabled": 0, "is_reserved": 0, "fusion_lat": 0.0, "lat": 38.919247666666664, "fusion_lon": 0.0, "rental_uris": {"ios": "https://dc.lft.to/lastmile_qr_scan", "android": "https://dc.lft.to/lastmile_qr_scan"}, "lon": -77.0097415, "bike_id": "dff4109eaddeee246d07fcf1de36702c", "type": "electric_scooter", "name": "dff4109eaddeee246d07fcf1de36702c"}, {"is_disabled": 0, "is_reserved": 0, "fusion_lat": 0.0, "lat": 38.9247825, "fusion_lon": 0.0, "rental_uris": {"ios": "https://dc.lft.to/lastmile_qr_scan", "android": "https://dc.lft.to/lastmile_qr_scan"}, "lon": -77.02838616666666, "bike_id": "52049e740cfede19ff5616235ca4f1c9", "type": "electric_scooter", "name": "52049e740cfede19ff5616235ca4f1c9"}, {"is_disabled": 0, "is_reserved": 0, "fusion_lat": 0.0, "lat": 38.932435166666664, "fusion_lon": 0.0, "rental_uris": {"ios": "https://dc.lft.to/lastmile_qr_scan", "android": "https://dc.lft.to/lastmile_qr_scan"}, "lon": -77.034103, "bike_id": "a63b5caa1b8644f37b5732f14d5f665d", "type": "electric_scooter", "name": "a63b5caa1b8644f37b5732f14d5f665d"}, {"is_disabled": 0, "is_reserved": 0, "fusion_lat": 0.0, "lat": 38.897436, "fusion_lon": 0.0, "rental_uris": {"ios": "https://dc.lft.to/lastmile_qr_scan", "android": "https://dc.lft.to/lastmile_qr_scan"}, "lon": -77.04808916666667, "bike_id": "09872c74d037f671a87762b111029b7b", "type": "electric_scooter", "name": "09872c74d037f671a87762b111029b7b"}, {"is_disabled": 0, "is_reserved": 0, "fusion_lat": 0.0, "lat": 38.95094316666667, "fusion_lon": 0.0, "rental_uris": {"ios": "https://dc.lft.to/lastmile_qr_scan", "android": "https://dc.lft.to/lastmile_qr_scan"}, "lon": -77.01909433333333, "bike_id": "24b5ffae847adb5abec3f5811768d158", "type": "electric_scooter", "name": "24b5ffae847adb5abec3f5811768d158"}, {"is_disabled": 0, "is_reserved": 0, "fusion_lat": 0.0, "lat": 38.9053925, "fusion_lon": 0.0, "rental_uris": {"ios": "https://dc.lft.to/lastmile_qr_scan", "android": "https://dc.lft.to/lastmile_qr_scan"}, "lon": -77.05701283333333, "bike_id": "46af0777d1c37c219a23b60d0d68a0b2", "type": "electric_scooter", "name": "46af0777d1c37c219a23b60d0d68a0b2"}, {"is_disabled": 0, "is_reserved": 0, "fusion_lat": 0.0, "lat": 38.91347, "fusion_lon": 0.0, "rental_uris": {"ios": "https://dc.lft.to/lastmile_qr_scan", "android": "https://dc.lft.to/lastmile_qr_scan"}, "lon": -77.04414083333333, "bike_id": "222805c0356186cc72b3d7379f771b4c", "type": "electric_scooter", "name": "222805c0356186cc72b3d7379f771b4c"}, {"is_disabled": 0, "is_reserved": 0, "fusion_lat": 0.0, "lat": 38.9403785, "fusion_lon": 0.0, "rental_uris": {"ios": "https://dc.lft.to/lastmile_qr_scan", "android": "https://dc.lft.to/lastmile_qr_scan"}, "lon": -77.025165, "bike_id": "28ee4ba2d6386ff45cdfc551a3cd5017", "type": "electric_scooter", "name": "28ee4ba2d6386ff45cdfc551a3cd5017"}, {"is_disabled": 0, "is_reserved": 0, "fusion_lat": 0.0, "lat": 38.92380133333333, "fusion_lon": 0.0, "rental_uris": {"ios": "https://dc.lft.to/lastmile_qr_scan", "android": "https://dc.lft.to/lastmile_qr_scan"}, "lon": -77.02031316666667, "bike_id": "437e1a2d68bc9dd963c6675316bfb438", "type": "electric_scooter", "name": "437e1a2d68bc9dd963c6675316bfb438"}, {"is_disabled": 0, "is_reserved": 0, "fusion_lat": 0.0, "lat": 38.8862435, "fusion_lon": 0.0, "rental_uris": {"ios": "https://dc.lft.to/lastmile_qr_scan", "android": "https://dc.lft.to/lastmile_qr_scan"}, "lon": -77.0284, "bike_id": "a101bba8a17a33429058524fc737b64c", "type": "electric_scooter", "name": "a101bba8a17a33429058524fc737b64c"}, {"is_disabled": 0, "is_reserved": 0, "fusion_lat": 0.0, "lat": 38.923374, "fusion_lon": 0.0, "rental_uris": {"ios": "https://dc.lft.to/lastmile_qr_scan", "android": "https://dc.lft.to/lastmile_qr_scan"}, "lon": -76.984935, "bike_id": "c7f7e45331fd91dde9784574e1be6d13", "type": "electric_scooter", "name": "c7f7e45331fd91dde9784574e1be6d13"}, {"is_disabled": 0, "is_reserved": 0, "fusion_lat": 0.0, "lat": 38.879174166666665, "fusion_lon": 0.0, "rental_uris": {"ios": "https://dc.lft.to/lastmile_qr_scan", "android": "https://dc.lft.to/lastmile_qr_scan"}, "lon": -77.00860983333334, "bike_id": "f61b7661a08cd4912255e225e19de3f9", "type": "electric_scooter", "name": "f61b7661a08cd4912255e225e19de3f9"}, {"is_disabled": 0, "is_reserved": 0, "fusion_lat": 0.0, "lat": 38.919115, "fusion_lon": 0.0, "rental_uris": {"ios": "https://dc.lft.to/lastmile_qr_scan", "android": "https://dc.lft.to/lastmile_qr_scan"}, "lon": -77.02730433333333, "bike_id": "fd5097056313e72e0ac05684fb507354", "type": "electric_scooter", "name": "fd5097056313e72e0ac05684fb507354"}, {"is_disabled": 0, "is_reserved": 0, "fusion_lat": 0.0, "lat": 38.868126, "fusion_lon": 0.0, "rental_uris": {"ios": "https://dc.lft.to/lastmile_qr_scan", "android": "https://dc.lft.to/lastmile_qr_scan"}, "lon": -76.98025666666666, "bike_id": "c9e41569a96143361571d810d1775bc5", "type": "electric_bike", "name": "c9e41569a96143361571d810d1775bc5"}, {"is_disabled": 0, "is_reserved": 0, "fusion_lat": 0.0, "lat": 38.947332833333334, "fusion_lon": 0.0, "rental_uris": {"ios": "https://dc.lft.to/lastmile_qr_scan", "android": "https://dc.lft.to/lastmile_qr_scan"}, "lon": -77.01942466666667, "bike_id": "057cb926b5ec9eabbc1fadcba7dd79f9", "type": "electric_scooter", "name": "057cb926b5ec9eabbc1fadcba7dd79f9"}, {"is_disabled": 0, "is_reserved": 0, "fusion_lat": 0.0, "lat": 38.870708666666665, "fusion_lon": 0.0, "rental_uris": {"ios": "https://dc.lft.to/lastmile_qr_scan", "android": "https://dc.lft.to/lastmile_qr_scan"}, "lon": -77.11032633333333, "bike_id": "a15bef3873cd8123cd0aac628681f621", "type": "electric_bike", "name": "a15bef3873cd8123cd0aac628681f621"}, {"is_disabled": 0, "is_reserved": 0, "fusion_lat": 0.0, "lat": 38.8966885, "fusion_lon": 0.0, "rental_uris": {"ios": "https://dc.lft.to/lastmile_qr_scan", "android": "https://dc.lft.to/lastmile_qr_scan"}, "lon": -76.93208333333334, "bike_id": "46da12b62cd1bbc729df2425d37bfedc", "type": "electric_scooter", "name": "46da12b62cd1bbc729df2425d37bfedc"}, {"is_disabled": 0, "is_reserved": 0, "fusion_lat": 0.0, "lat": 38.93112766666667, "fusion_lon": 0.0, "rental_uris": {"ios": "https://dc.lft.to/lastmile_qr_scan", "android": "https://dc.lft.to/lastmile_qr_scan"}, "lon": -77.03842533333334, "bike_id": "76a733f4ca793661fa950fa27bafd82f", "type": "electric_scooter", "name": "76a733f4ca793661fa950fa27bafd82f"}, {"is_disabled": 0, "is_reserved": 0, "fusion_lat": 0.0, "lat": 38.89829783333333, "fusion_lon": 0.0, "rental_uris": {"ios": "https://dc.lft.to/lastmile_qr_scan", "android": "https://dc.lft.to/lastmile_qr_scan"}, "lon": -77.0334365, "bike_id": "04d5f42803ed829ff4c5845d48b1b06b", "type": "electric_scooter", "name": "04d5f42803ed829ff4c5845d48b1b06b"}, {"is_disabled": 0, "is_reserved": 0, "fusion_lat": 0.0, "lat": 38.88293433333333, "fusion_lon": 0.0, "rental_uris": {"ios": "https://dc.lft.to/lastmile_qr_scan", "android": "https://dc.lft.to/lastmile_qr_scan"}, "lon": -76.98612716666666, "bike_id": "086c10aa48dec69d6f8d1e620d698262", "type": "electric_scooter", "name": "086c10aa48dec69d6f8d1e620d698262"}, {"is_disabled": 0, "is_reserved": 0, "fusion_lat": 0.0, "lat": 38.931421666666665, "fusion_lon": 0.0, "rental_uris": {"ios": "https://dc.lft.to/lastmile_qr_scan", "android": "https://dc.lft.to/lastmile_qr_scan"}, "lon": -77.029879, "bike_id": "41a68743a53252c2e7b3e37e7abc3d9e", "type": "electric_scooter", "name": "41a68743a53252c2e7b3e37e7abc3d9e"}, {"is_disabled": 0, "is_reserved": 0, "fusion_lat": 0.0, "lat": 38.889529833333334, "fusion_lon": 0.0, "rental_uris": {"ios": "https://dc.lft.to/lastmile_qr_scan", "android": "https://dc.lft.to/lastmile_qr_scan"}, "lon": -77.076035, "bike_id": "2d0f84bcfb3e9eb2457f16977d992559", "type": "electric_bike", "name": "2d0f84bcfb3e9eb2457f16977d992559"}, {"is_disabled": 0, "is_reserved": 0, "fusion_lat": 0.0, "lat": 38.95589416666667, "fusion_lon": 0.0, "rental_uris": {"ios": "https://dc.lft.to/lastmile_qr_scan", "android": "https://dc.lft.to/lastmile_qr_scan"}, "lon": -77.02812783333333, "bike_id": "7c8bbf0861a16ad212e23d33f7ea1419", "type": "electric_scooter", "name": "7c8bbf0861a16ad212e23d33f7ea1419"}, {"is_disabled": 0, "is_reserved": 0, "fusion_lat": 0.0, "lat": 38.89745416666667, "fusion_lon": 0.0, "rental_uris": {"ios": "https://dc.lft.to/lastmile_qr_scan", "android": "https://dc.lft.to/lastmile_qr_scan"}, "lon": -77.03350883333333, "bike_id": "b9278d994a879bf5179fa7465c4cbe9c", "type": "electric_scooter", "name": "b9278d994a879bf5179fa7465c4cbe9c"}, {"is_disabled": 0, "is_reserved": 0, "fusion_lat": 0.0, "lat": 38.96485033333333, "fusion_lon": 0.0, "rental_uris": {"ios": "https://dc.lft.to/lastmile_qr_scan", "android": "https://dc.lft.to/lastmile_qr_scan"}, "lon": -77.03172383333333, "bike_id": "5066d7e13af7069ad84862832b6c5dba", "type": "electric_bike", "name": "5066d7e13af7069ad84862832b6c5dba"}, {"is_disabled": 0, "is_reserved": 0, "fusion_lat": 0.0, "lat": 38.94219833333333, "fusion_lon": 0.0, "rental_uris": {"ios": "https://dc.lft.to/lastmile_qr_scan", "android": "https://dc.lft.to/lastmile_qr_scan"}, "lon": -76.96129166666667, "bike_id": "0034054f8005656a64dbab28ca3931f0", "type": "electric_bike", "name": "0034054f8005656a64dbab28ca3931f0"}, {"is_disabled": 0, "is_reserved": 0, "fusion_lat": 0.0, "lat": 38.94978916666667, "fusion_lon": 0.0, "rental_uris": {"ios": "https://dc.lft.to/lastmile_qr_scan", "android": "https://dc.lft.to/lastmile_qr_scan"}, "lon": -77.024447, "bike_id": "6fff106246ee97235d8304660104037e", "type": "electric_scooter", "name": "6fff106246ee97235d8304660104037e"}, {"is_disabled": 0, "is_reserved": 0, "fusion_lat": 0.0, "lat": 38.909909, "fusion_lon": 0.0, "rental_uris": {"ios": "https://dc.lft.to/lastmile_qr_scan", "android": "https://dc.lft.to/lastmile_qr_scan"}, "lon": -77.04661416666667, "bike_id": "4f3010063a58116561ab1915b39b82c3", "type": "electric_scooter", "name": "4f3010063a58116561ab1915b39b82c3"}, {"is_disabled": 0, "is_reserved": 0, "fusion_lat": 0.0, "lat": 38.91805266666667, "fusion_lon": 0.0, "rental_uris": {"ios": "https://dc.lft.to/lastmile_qr_scan", "android": "https://dc.lft.to/lastmile_qr_scan"}, "lon": -77.03442116666666, "bike_id": "0f43c97023bf10b9430d03a95ddf4c6d", "type": "electric_scooter", "name": "0f43c97023bf10b9430d03a95ddf4c6d"}, {"is_disabled": 0, "is_reserved": 0, "fusion_lat": 0.0, "lat": 38.91764833333333, "fusion_lon": 0.0, "rental_uris": {"ios": "https://dc.lft.to/lastmile_qr_scan", "android": "https://dc.lft.to/lastmile_qr_scan"}, "lon": -77.0149455, "bike_id": "2a021fbf2461c1682c07093e04df8f83", "type": "electric_scooter", "name": "2a021fbf2461c1682c07093e04df8f83"}, {"is_disabled": 0, "is_reserved": 0, "fusion_lat": 0.0, "lat": 38.909666666666666, "fusion_lon": 0.0, "rental_uris": {"ios": "https://dc.lft.to/lastmile_qr_scan", "android": "https://dc.lft.to/lastmile_qr_scan"}, "lon": -77.01106783333333, "bike_id": "d9f61dc512cd6c53dd71243395c1e94b", "type": "electric_scooter", "name": "d9f61dc512cd6c53dd71243395c1e94b"}, {"is_disabled": 0, "is_reserved": 0, "fusion_lat": 0.0, "lat": 38.92531833333334, "fusion_lon": 0.0, "rental_uris": {"ios": "https://dc.lft.to/lastmile_qr_scan", "android": "https://dc.lft.to/lastmile_qr_scan"}, "lon": -77.0256315, "bike_id": "e2d90e26fc67bd6250980d66d87c3667", "type": "electric_scooter", "name": "e2d90e26fc67bd6250980d66d87c3667"}, {"is_disabled": 0, "is_reserved": 0, "fusion_lat": 0.0, "lat": 38.910265, "fusion_lon": 0.0, "rental_uris": {"ios": "https://dc.lft.to/lastmile_qr_scan", "android": "https://dc.lft.to/lastmile_qr_scan"}, "lon": -76.99888233333333, "bike_id": "ec519c233dc77c9aba0581cfed542cdf", "type": "electric_scooter", "name": "ec519c233dc77c9aba0581cfed542cdf"}, {"is_disabled": 0, "is_reserved": 0, "fusion_lat": 0.0, "lat": 38.898231, "fusion_lon": 0.0, "rental_uris": {"ios": "https://dc.lft.to/lastmile_qr_scan", "android": "https://dc.lft.to/lastmile_qr_scan"}, "lon": -76.93005166666667, "bike_id": "f5d4a83eeb45bec92551c7c9c677b2d0", "type": "electric_scooter", "name": "f5d4a83eeb45bec92551c7c9c677b2d0"}, {"is_disabled": 0, "is_reserved": 0, "fusion_lat": 0.0, "lat": 38.80978133333333, "fusion_lon": 0.0, "rental_uris": {"ios": "https://dc.lft.to/lastmile_qr_scan", "android": "https://dc.lft.to/lastmile_qr_scan"}, "lon": -77.07658716666667, "bike_id": "bf6d612251f3d6f3e19bc572392b3168", "type": "electric_bike", "name": "bf6d612251f3d6f3e19bc572392b3168"}, {"is_disabled": 0, "is_reserved": 0, "fusion_lat": 0.0, "lat": 38.9027555, "fusion_lon": 0.0, "rental_uris": {"ios": "https://dc.lft.to/lastmile_qr_scan", "android": "https://dc.lft.to/lastmile_qr_scan"}, "lon": -77.0395195, "bike_id": "0386efbab57169cad1b6c1485984ffe4", "type": "electric_scooter", "name": "0386efbab57169cad1b6c1485984ffe4"}, {"is_disabled": 0, "is_reserved": 0, "fusion_lat": 0.0, "lat": 38.9083375, "fusion_lon": 0.0, "rental_uris": {"ios": "https://dc.lft.to/lastmile_qr_scan", "android": "https://dc.lft.to/lastmile_qr_scan"}, "lon": -77.000692, "bike_id": "9a18d0c511e090bb7b49f7f1b38d782c", "type": "electric_scooter", "name": "9a18d0c511e090bb7b49f7f1b38d782c"}, {"is_disabled": 0, "is_reserved": 0, "fusion_lat": 0.0, "lat": 38.910017, "fusion_lon": 0.0, "rental_uris": {"ios": "https://dc.lft.to/lastmile_qr_scan", "android": "https://dc.lft.to/lastmile_qr_scan"}, "lon": -76.98611383333333, "bike_id": "cfc309ec04133e94653b46657db35926", "type": "electric_scooter", "name": "cfc309ec04133e94653b46657db35926"}, {"is_disabled": 0, "is_reserved": 0, "fusion_lat": 0.0, "lat": 38.937467, "fusion_lon": 0.0, "rental_uris": {"ios": "https://dc.lft.to/lastmile_qr_scan", "android": "https://dc.lft.to/lastmile_qr_scan"}, "lon": -77.0343965, "bike_id": "302fb57741bc60baa363452243e0d93a", "type": "electric_scooter", "name": "302fb57741bc60baa363452243e0d93a"}, {"is_disabled": 0, "is_reserved": 0, "fusion_lat": 0.0, "lat": 38.9178415, "fusion_lon": 0.0, "rental_uris": {"ios": "https://dc.lft.to/lastmile_qr_scan", "android": "https://dc.lft.to/lastmile_qr_scan"}, "lon": -77.0320075, "bike_id": "ab5954e8407e535dae433090fcbbab54", "type": "electric_scooter", "name": "ab5954e8407e535dae433090fcbbab54"}, {"is_disabled": 0, "is_reserved": 0, "fusion_lat": 0.0, "lat": 38.84808683333333, "fusion_lon": 0.0, "rental_uris": {"ios": "https://dc.lft.to/lastmile_qr_scan", "android": "https://dc.lft.to/lastmile_qr_scan"}, "lon": -77.08417066666667, "bike_id": "6f820de6206de5271e14ee1c9f90195b", "type": "electric_bike", "name": "6f820de6206de5271e14ee1c9f90195b"}, {"is_disabled": 0, "is_reserved": 0, "fusion_lat": 0.0, "lat": 38.901387, "fusion_lon": 0.0, "rental_uris": {"ios": "https://dc.lft.to/lastmile_qr_scan", "android": "https://dc.lft.to/lastmile_qr_scan"}, "lon": -76.99122633333333, "bike_id": "e057ecfebf065c7808269a4fdd109de9", "type": "electric_scooter", "name": "e057ecfebf065c7808269a4fdd109de9"}, {"is_disabled": 0, "is_reserved": 0, "fusion_lat": 0.0, "lat": 38.93462133333333, "fusion_lon": 0.0, "rental_uris": {"ios": "https://dc.lft.to/lastmile_qr_scan", "android": "https://dc.lft.to/lastmile_qr_scan"}, "lon": -77.024091, "bike_id": "af7c94e1b4218ba5fd2943d5729deeab", "type": "electric_scooter", "name": "af7c94e1b4218ba5fd2943d5729deeab"}, {"is_disabled": 0, "is_reserved": 0, "fusion_lat": 0.0, "lat": 38.92480666666667, "fusion_lon": 0.0, "rental_uris": {"ios": "https://dc.lft.to/lastmile_qr_scan", "android": "https://dc.lft.to/lastmile_qr_scan"}, "lon": -77.037604, "bike_id": "16a644a033121606f5111bfa7bd7aeb1", "type": "electric_scooter", "name": "16a644a033121606f5111bfa7bd7aeb1"}, {"is_disabled": 0, "is_reserved": 0, "fusion_lat": 0.0, "lat": 38.92428916666667, "fusion_lon": 0.0, "rental_uris": {"ios": "https://dc.lft.to/lastmile_qr_scan", "android": "https://dc.lft.to/lastmile_qr_scan"}, "lon": -77.0194155, "bike_id": "59531c97f712b5e7a196cba83d516a0d", "type": "electric_scooter", "name": "59531c97f712b5e7a196cba83d516a0d"}, {"is_disabled": 0, "is_reserved": 0, "fusion_lat": 0.0, "lat": 38.928178833333334, "fusion_lon": 0.0, "rental_uris": {"ios": "https://dc.lft.to/lastmile_qr_scan", "android": "https://dc.lft.to/lastmile_qr_scan"}, "lon": -77.059729, "bike_id": "26a381566bcaea1ba9d83d60dbccf94d", "type": "electric_bike", "name": "26a381566bcaea1ba9d83d60dbccf94d"}, {"is_disabled": 0, "is_reserved": 0, "fusion_lat": 0.0, "lat": 38.89934816666667, "fusion_lon": 0.0, "rental_uris": {"ios": "https://dc.lft.to/lastmile_qr_scan", "android": "https://dc.lft.to/lastmile_qr_scan"}, "lon": -76.93760483333334, "bike_id": "006b60ac187fd08f4df612c61b364725", "type": "electric_scooter", "name": "006b60ac187fd08f4df612c61b364725"}, {"is_disabled": 0, "is_reserved": 0, "fusion_lat": 0.0, "lat": 38.876232, "fusion_lon": 0.0, "rental_uris": {"ios": "https://dc.lft.to/lastmile_qr_scan", "android": "https://dc.lft.to/lastmile_qr_scan"}, "lon": -77.00212916666666, "bike_id": "6c1c71a1e2a9fdf3f0fe528621cef579", "type": "electric_scooter", "name": "6c1c71a1e2a9fdf3f0fe528621cef579"}, {"is_disabled": 0, "is_reserved": 0, "fusion_lat": 0.0, "lat": 38.918073666666665, "fusion_lon": 0.0, "rental_uris": {"ios": "https://dc.lft.to/lastmile_qr_scan", "android": "https://dc.lft.to/lastmile_qr_scan"}, "lon": -77.00006083333334, "bike_id": "7664f0493d3d3c41d8ec3ac9d48cb7c0", "type": "electric_scooter", "name": "7664f0493d3d3c41d8ec3ac9d48cb7c0"}, {"is_disabled": 0, "is_reserved": 0, "fusion_lat": 0.0, "lat": 38.88973383333333, "fusion_lon": 0.0, "rental_uris": {"ios": "https://dc.lft.to/lastmile_qr_scan", "android": "https://dc.lft.to/lastmile_qr_scan"}, "lon": -76.981787, "bike_id": "b02b0453557e93e603a5422255e65b88", "type": "electric_scooter", "name": "b02b0453557e93e603a5422255e65b88"}, {"is_disabled": 0, "is_reserved": 0, "fusion_lat": 0.0, "lat": 38.91179733333333, "fusion_lon": 0.0, "rental_uris": {"ios": "https://dc.lft.to/lastmile_qr_scan", "android": "https://dc.lft.to/lastmile_qr_scan"}, "lon": -77.01209166666666, "bike_id": "ad012989ce3fabe7ea4fa735e13f38f8", "type": "electric_scooter", "name": "ad012989ce3fabe7ea4fa735e13f38f8"}, {"is_disabled": 0, "is_reserved": 0, "fusion_lat": 0.0, "lat": 38.917445666666666, "fusion_lon": 0.0, "rental_uris": {"ios": "https://dc.lft.to/lastmile_qr_scan", "android": "https://dc.lft.to/lastmile_qr_scan"}, "lon": -77.01084983333334, "bike_id": "e124b29a0b53119778d8194efdb20445", "type": "electric_scooter", "name": "e124b29a0b53119778d8194efdb20445"}, {"is_disabled": 0, "is_reserved": 0, "fusion_lat": 0.0, "lat": 38.88188783333333, "fusion_lon": 0.0, "rental_uris": {"ios": "https://dc.lft.to/lastmile_qr_scan", "android": "https://dc.lft.to/lastmile_qr_scan"}, "lon": -77.00358066666666, "bike_id": "db2a90de1ca330d1caec0ffc22fb4bfa", "type": "electric_scooter", "name": "db2a90de1ca330d1caec0ffc22fb4bfa"}, {"is_disabled": 0, "is_reserved": 0, "fusion_lat": 0.0, "lat": 38.870811833333335, "fusion_lon": 0.0, "rental_uris": {"ios": "https://dc.lft.to/lastmile_qr_scan", "android": "https://dc.lft.to/lastmile_qr_scan"}, "lon": -77.0107965, "bike_id": "01fdd4bfcf08e9f3201b055b74431e84", "type": "electric_scooter", "name": "01fdd4bfcf08e9f3201b055b74431e84"}, {"is_disabled": 0, "is_reserved": 0, "fusion_lat": 0.0, "lat": 38.888415, "fusion_lon": 0.0, "rental_uris": {"ios": "https://dc.lft.to/lastmile_qr_scan", "android": "https://dc.lft.to/lastmile_qr_scan"}, "lon": -77.049052, "bike_id": "f14bf73dd4ea1bd9cfad6409bbfbcd23", "type": "electric_scooter", "name": "f14bf73dd4ea1bd9cfad6409bbfbcd23"}, {"is_disabled": 0, "is_reserved": 0, "fusion_lat": 0.0, "lat": 38.897171, "fusion_lon": 0.0, "rental_uris": {"ios": "https://dc.lft.to/lastmile_qr_scan", "android": "https://dc.lft.to/lastmile_qr_scan"}, "lon": -77.00798316666666, "bike_id": "3e0e14d84f4a8abe2f8884e87a0d3a62", "type": "electric_scooter", "name": "3e0e14d84f4a8abe2f8884e87a0d3a62"}, {"is_disabled": 0, "is_reserved": 0, "fusion_lat": 0.0, "lat": 38.9284915, "fusion_lon": 0.0, "rental_uris": {"ios": "https://dc.lft.to/lastmile_qr_scan", "android": "https://dc.lft.to/lastmile_qr_scan"}, "lon": -77.01402166666666, "bike_id": "6344276df7ccae8e38f1f6c84a90d9a5", "type": "electric_scooter", "name": "6344276df7ccae8e38f1f6c84a90d9a5"}, {"is_disabled": 0, "is_reserved": 0, "fusion_lat": 0.0, "lat": 38.89607616666667, "fusion_lon": 0.0, "rental_uris": {"ios": "https://dc.lft.to/lastmile_qr_scan", "android": "https://dc.lft.to/lastmile_qr_scan"}, "lon": -76.998029, "bike_id": "939759ef01feff6bee7be88c219aca89", "type": "electric_scooter", "name": "939759ef01feff6bee7be88c219aca89"}, {"is_disabled": 0, "is_reserved": 0, "fusion_lat": 0.0, "lat": 38.9110975, "fusion_lon": 0.0, "rental_uris": {"ios": "https://dc.lft.to/lastmile_qr_scan", "android": "https://dc.lft.to/lastmile_qr_scan"}, "lon": -77.01159583333333, "bike_id": "ee667cd6dbb84e8a73d8dc6e06e77cba", "type": "electric_scooter", "name": "ee667cd6dbb84e8a73d8dc6e06e77cba"}, {"is_disabled": 0, "is_reserved": 0, "fusion_lat": 0.0, "lat": 38.928942666666664, "fusion_lon": 0.0, "rental_uris": {"ios": "https://dc.lft.to/lastmile_qr_scan", "android": "https://dc.lft.to/lastmile_qr_scan"}, "lon": -77.02293, "bike_id": "ee4f3f95f382e82665f0b07df9538028", "type": "electric_scooter", "name": "ee4f3f95f382e82665f0b07df9538028"}, {"is_disabled": 0, "is_reserved": 0, "fusion_lat": 0.0, "lat": 38.89248283333333, "fusion_lon": 0.0, "rental_uris": {"ios": "https://dc.lft.to/lastmile_qr_scan", "android": "https://dc.lft.to/lastmile_qr_scan"}, "lon": -77.03959316666666, "bike_id": "955aa53e24f4af89090d5b395335d5f1", "type": "electric_scooter", "name": "955aa53e24f4af89090d5b395335d5f1"}, {"is_disabled": 0, "is_reserved": 0, "fusion_lat": 0.0, "lat": 38.915396333333334, "fusion_lon": 0.0, "rental_uris": {"ios": "https://dc.lft.to/lastmile_qr_scan", "android": "https://dc.lft.to/lastmile_qr_scan"}, "lon": -77.00921066666666, "bike_id": "7dddbc58af1c417893f493fb0bb4fd29", "type": "electric_scooter", "name": "7dddbc58af1c417893f493fb0bb4fd29"}, {"is_disabled": 0, "is_reserved": 0, "fusion_lat": 0.0, "lat": 38.9147415, "fusion_lon": 0.0, "rental_uris": {"ios": "https://dc.lft.to/lastmile_qr_scan", "android": "https://dc.lft.to/lastmile_qr_scan"}, "lon": -77.00193933333334, "bike_id": "77ae0ec7d3f2c2a5a941831872138109", "type": "electric_scooter", "name": "77ae0ec7d3f2c2a5a941831872138109"}, {"is_disabled": 0, "is_reserved": 0, "fusion_lat": 0.0, "lat": 38.9183735, "fusion_lon": 0.0, "rental_uris": {"ios": "https://dc.lft.to/lastmile_qr_scan", "android": "https://dc.lft.to/lastmile_qr_scan"}, "lon": -77.03194883333333, "bike_id": "6f84385740e11f1c2c8667f486ec8f1e", "type": "electric_scooter", "name": "6f84385740e11f1c2c8667f486ec8f1e"}, {"is_disabled": 0, "is_reserved": 0, "fusion_lat": 0.0, "lat": 38.9193665, "fusion_lon": 0.0, "rental_uris": {"ios": "https://dc.lft.to/lastmile_qr_scan", "android": "https://dc.lft.to/lastmile_qr_scan"}, "lon": -76.97111216666667, "bike_id": "5d2c5d5087191f0b5ad4f60efe983209", "type": "electric_bike", "name": "5d2c5d5087191f0b5ad4f60efe983209"}, {"is_disabled": 0, "is_reserved": 0, "fusion_lat": 0.0, "lat": 38.94138483333333, "fusion_lon": 0.0, "rental_uris": {"ios": "https://dc.lft.to/lastmile_qr_scan", "android": "https://dc.lft.to/lastmile_qr_scan"}, "lon": -77.02327533333333, "bike_id": "5957d35baf1438c7ed57b8b2dd0eb42c", "type": "electric_scooter", "name": "5957d35baf1438c7ed57b8b2dd0eb42c"}, {"is_disabled": 0, "is_reserved": 0, "fusion_lat": 0.0, "lat": 38.922287, "fusion_lon": 0.0, "rental_uris": {"ios": "https://dc.lft.to/lastmile_qr_scan", "android": "https://dc.lft.to/lastmile_qr_scan"}, "lon": -76.97531283333333, "bike_id": "0f2dc08a54151b20f2d0d73ad6720f5b", "type": "electric_scooter", "name": "0f2dc08a54151b20f2d0d73ad6720f5b"}, {"is_disabled": 0, "is_reserved": 0, "fusion_lat": 0.0, "lat": 38.9248605, "fusion_lon": 0.0, "rental_uris": {"ios": "https://dc.lft.to/lastmile_qr_scan", "android": "https://dc.lft.to/lastmile_qr_scan"}, "lon": -77.02663933333334, "bike_id": "ab0aeb570e0c9b5e1742c2bb5f3eccce", "type": "electric_scooter", "name": "ab0aeb570e0c9b5e1742c2bb5f3eccce"}, {"is_disabled": 0, "is_reserved": 0, "fusion_lat": 0.0, "lat": 38.9220905, "fusion_lon": 0.0, "rental_uris": {"ios": "https://dc.lft.to/lastmile_qr_scan", "android": "https://dc.lft.to/lastmile_qr_scan"}, "lon": -77.03781283333333, "bike_id": "a77ce9b9d13453b507f6e2efc2c3c282", "type": "electric_scooter", "name": "a77ce9b9d13453b507f6e2efc2c3c282"}, {"is_disabled": 0, "is_reserved": 0, "fusion_lat": 0.0, "lat": 38.928202666666664, "fusion_lon": 0.0, "rental_uris": {"ios": "https://dc.lft.to/lastmile_qr_scan", "android": "https://dc.lft.to/lastmile_qr_scan"}, "lon": -77.0435565, "bike_id": "8ea7047e7c4acfbcf6567c8d415c4a78", "type": "electric_scooter", "name": "8ea7047e7c4acfbcf6567c8d415c4a78"}, {"is_disabled": 0, "is_reserved": 0, "fusion_lat": 0.0, "lat": 38.900797, "fusion_lon": 0.0, "rental_uris": {"ios": "https://dc.lft.to/lastmile_qr_scan", "android": "https://dc.lft.to/lastmile_qr_scan"}, "lon": -77.018733, "bike_id": "e66d2227b4988f4392579648767eed52", "type": "electric_scooter", "name": "e66d2227b4988f4392579648767eed52"}, {"is_disabled": 0, "is_reserved": 0, "fusion_lat": 0.0, "lat": 38.90271716666667, "fusion_lon": 0.0, "rental_uris": {"ios": "https://dc.lft.to/lastmile_qr_scan", "android": "https://dc.lft.to/lastmile_qr_scan"}, "lon": -77.00893466666666, "bike_id": "ede23f1d0820bca944f543fca36eed93", "type": "electric_scooter", "name": "ede23f1d0820bca944f543fca36eed93"}, {"is_disabled": 0, "is_reserved": 0, "fusion_lat": 0.0, "lat": 38.923491, "fusion_lon": 0.0, "rental_uris": {"ios": "https://dc.lft.to/lastmile_qr_scan", "android": "https://dc.lft.to/lastmile_qr_scan"}, "lon": -77.03519, "bike_id": "eee124d69d65294df000a3b6a543f2f7", "type": "electric_scooter", "name": "eee124d69d65294df000a3b6a543f2f7"}, {"is_disabled": 0, "is_reserved": 0, "fusion_lat": 0.0, "lat": 38.90189816666667, "fusion_lon": 0.0, "rental_uris": {"ios": "https://dc.lft.to/lastmile_qr_scan", "android": "https://dc.lft.to/lastmile_qr_scan"}, "lon": -77.00215616666667, "bike_id": "9fd140a8d48520ad2f098854db67609b", "type": "electric_scooter", "name": "9fd140a8d48520ad2f098854db67609b"}, {"is_disabled": 0, "is_reserved": 0, "fusion_lat": 0.0, "lat": 38.888752, "fusion_lon": 0.0, "rental_uris": {"ios": "https://dc.lft.to/lastmile_qr_scan", "android": "https://dc.lft.to/lastmile_qr_scan"}, "lon": -76.95702233333333, "bike_id": "756f99bed2955098846b386d4155b996", "type": "electric_bike", "name": "756f99bed2955098846b386d4155b996"}, {"is_disabled": 0, "is_reserved": 0, "fusion_lat": 0.0, "lat": 38.90300216666667, "fusion_lon": 0.0, "rental_uris": {"ios": "https://dc.lft.to/lastmile_qr_scan", "android": "https://dc.lft.to/lastmile_qr_scan"}, "lon": -77.0399635, "bike_id": "c89e7fc93a8c117a9fcd80d08f65fefe", "type": "electric_scooter", "name": "c89e7fc93a8c117a9fcd80d08f65fefe"}, {"is_disabled": 0, "is_reserved": 0, "fusion_lat": 0.0, "lat": 38.87954966666667, "fusion_lon": 0.0, "rental_uris": {"ios": "https://dc.lft.to/lastmile_qr_scan", "android": "https://dc.lft.to/lastmile_qr_scan"}, "lon": -76.93182116666667, "bike_id": "2b2718bf40f1a1a5fba8156c722ded64", "type": "electric_bike", "name": "2b2718bf40f1a1a5fba8156c722ded64"}, {"is_disabled": 0, "is_reserved": 0, "fusion_lat": 0.0, "lat": 38.873582, "fusion_lon": 0.0, "rental_uris": {"ios": "https://dc.lft.to/lastmile_qr_scan", "android": "https://dc.lft.to/lastmile_qr_scan"}, "lon": -77.11870983333333, "bike_id": "3de149eb54cbd30ca62f3f1dc16f26ff", "type": "electric_bike", "name": "3de149eb54cbd30ca62f3f1dc16f26ff"}, {"is_disabled": 0, "is_reserved": 0, "fusion_lat": 0.0, "lat": 38.907022833333336, "fusion_lon": 0.0, "rental_uris": {"ios": "https://dc.lft.to/lastmile_qr_scan", "android": "https://dc.lft.to/lastmile_qr_scan"}, "lon": -76.9990865, "bike_id": "49babd5b0531f0f2d859103fb0263f41", "type": "electric_scooter", "name": "49babd5b0531f0f2d859103fb0263f41"}, {"is_disabled": 0, "is_reserved": 0, "fusion_lat": 0.0, "lat": 38.932454666666665, "fusion_lon": 0.0, "rental_uris": {"ios": "https://dc.lft.to/lastmile_qr_scan", "android": "https://dc.lft.to/lastmile_qr_scan"}, "lon": -77.02850133333334, "bike_id": "f79d4033c354fae617f38a4e8aadd8f6", "type": "electric_scooter", "name": "f79d4033c354fae617f38a4e8aadd8f6"}, {"is_disabled": 0, "is_reserved": 0, "fusion_lat": 0.0, "lat": 38.92343416666667, "fusion_lon": 0.0, "rental_uris": {"ios": "https://dc.lft.to/lastmile_qr_scan", "android": "https://dc.lft.to/lastmile_qr_scan"}, "lon": -76.99867183333333, "bike_id": "7931ccfc35e8644d79031f7a9a58770b", "type": "electric_scooter", "name": "7931ccfc35e8644d79031f7a9a58770b"}, {"is_disabled": 0, "is_reserved": 0, "fusion_lat": 0.0, "lat": 38.88187683333334, "fusion_lon": 0.0, "rental_uris": {"ios": "https://dc.lft.to/lastmile_qr_scan", "android": "https://dc.lft.to/lastmile_qr_scan"}, "lon": -77.008912, "bike_id": "7d5cc1d0b3c766024db0cbc98bb4d0a7", "type": "electric_scooter", "name": "7d5cc1d0b3c766024db0cbc98bb4d0a7"}, {"is_disabled": 0, "is_reserved": 0, "fusion_lat": 0.0, "lat": 38.8626435, "fusion_lon": 0.0, "rental_uris": {"ios": "https://dc.lft.to/lastmile_qr_scan", "android": "https://dc.lft.to/lastmile_qr_scan"}, "lon": -76.98349616666667, "bike_id": "2630482f88783d6ba62210a1e8ffc56c", "type": "electric_bike", "name": "2630482f88783d6ba62210a1e8ffc56c"}, {"is_disabled": 0, "is_reserved": 0, "fusion_lat": 0.0, "lat": 38.9191085, "fusion_lon": 0.0, "rental_uris": {"ios": "https://dc.lft.to/lastmile_qr_scan", "android": "https://dc.lft.to/lastmile_qr_scan"}, "lon": -77.06001583333334, "bike_id": "267f2102db176b3a5f2a42aed80dfcf5", "type": "electric_bike", "name": "267f2102db176b3a5f2a42aed80dfcf5"}, {"is_disabled": 0, "is_reserved": 0, "fusion_lat": 0.0, "lat": 38.855285333333335, "fusion_lon": 0.0, "rental_uris": {"ios": "https://dc.lft.to/lastmile_qr_scan", "android": "https://dc.lft.to/lastmile_qr_scan"}, "lon": -77.120489, "bike_id": "82c30da16974621a20399f24ea390e46", "type": "electric_bike", "name": "82c30da16974621a20399f24ea390e46"}, {"is_disabled": 0, "is_reserved": 0, "fusion_lat": 0.0, "lat": 38.87471, "fusion_lon": 0.0, "rental_uris": {"ios": "https://dc.lft.to/lastmile_qr_scan", "android": "https://dc.lft.to/lastmile_qr_scan"}, "lon": -77.00513633333334, "bike_id": "65d860f5436401ec63fa7338dd97e034", "type": "electric_scooter", "name": "65d860f5436401ec63fa7338dd97e034"}, {"is_disabled": 0, "is_reserved": 0, "fusion_lat": 0.0, "lat": 38.892333, "fusion_lon": 0.0, "rental_uris": {"ios": "https://dc.lft.to/lastmile_qr_scan", "android": "https://dc.lft.to/lastmile_qr_scan"}, "lon": -77.02383833333333, "bike_id": "56e52247aef35f17a30bb1831a7c8e15", "type": "electric_scooter", "name": "56e52247aef35f17a30bb1831a7c8e15"}, {"is_disabled": 0, "is_reserved": 0, "fusion_lat": 0.0, "lat": 38.92169533333333, "fusion_lon": 0.0, "rental_uris": {"ios": "https://dc.lft.to/lastmile_qr_scan", "android": "https://dc.lft.to/lastmile_qr_scan"}, "lon": -77.018059, "bike_id": "0a5f7658f58d1377aa3849dc96ec99a9", "type": "electric_scooter", "name": "0a5f7658f58d1377aa3849dc96ec99a9"}, {"is_disabled": 0, "is_reserved": 0, "fusion_lat": 0.0, "lat": 38.9417565, "fusion_lon": 0.0, "rental_uris": {"ios": "https://dc.lft.to/lastmile_qr_scan", "android": "https://dc.lft.to/lastmile_qr_scan"}, "lon": -77.03394383333334, "bike_id": "eefae676d67a6be12f503ad2ffdb58e1", "type": "electric_scooter", "name": "eefae676d67a6be12f503ad2ffdb58e1"}, {"is_disabled": 0, "is_reserved": 0, "fusion_lat": 0.0, "lat": 38.915352166666665, "fusion_lon": 0.0, "rental_uris": {"ios": "https://dc.lft.to/lastmile_qr_scan", "android": "https://dc.lft.to/lastmile_qr_scan"}, "lon": -76.9837835, "bike_id": "4d731e0c152929f5e66ddd5e324a4f9b", "type": "electric_scooter", "name": "4d731e0c152929f5e66ddd5e324a4f9b"}, {"is_disabled": 0, "is_reserved": 0, "fusion_lat": 0.0, "lat": 38.87658233333333, "fusion_lon": 0.0, "rental_uris": {"ios": "https://dc.lft.to/lastmile_qr_scan", "android": "https://dc.lft.to/lastmile_qr_scan"}, "lon": -77.00883283333333, "bike_id": "231c1e8e987bba32a4ad1bdbe969c3f0", "type": "electric_scooter", "name": "231c1e8e987bba32a4ad1bdbe969c3f0"}, {"is_disabled": 0, "is_reserved": 0, "fusion_lat": 0.0, "lat": 38.906203, "fusion_lon": 0.0, "rental_uris": {"ios": "https://dc.lft.to/lastmile_qr_scan", "android": "https://dc.lft.to/lastmile_qr_scan"}, "lon": -77.02987366666666, "bike_id": "5bd22effd2373252e9ae90edbc67f943", "type": "electric_scooter", "name": "5bd22effd2373252e9ae90edbc67f943"}, {"is_disabled": 0, "is_reserved": 0, "fusion_lat": 0.0, "lat": 38.88358783333334, "fusion_lon": 0.0, "rental_uris": {"ios": "https://dc.lft.to/lastmile_qr_scan", "android": "https://dc.lft.to/lastmile_qr_scan"}, "lon": -76.92791516666666, "bike_id": "8648d97d36d968bceef86b4bf5a0a818", "type": "electric_scooter", "name": "8648d97d36d968bceef86b4bf5a0a818"}, {"is_disabled": 0, "is_reserved": 0, "fusion_lat": 0.0, "lat": 38.902627833333334, "fusion_lon": 0.0, "rental_uris": {"ios": "https://dc.lft.to/lastmile_qr_scan", "android": "https://dc.lft.to/lastmile_qr_scan"}, "lon": -76.92849566666666, "bike_id": "264f55d05d93ad5bd7fa1e47a31b37e2", "type": "electric_scooter", "name": "264f55d05d93ad5bd7fa1e47a31b37e2"}, {"is_disabled": 0, "is_reserved": 0, "fusion_lat": 0.0, "lat": 38.90192433333333, "fusion_lon": 0.0, "rental_uris": {"ios": "https://dc.lft.to/lastmile_qr_scan", "android": "https://dc.lft.to/lastmile_qr_scan"}, "lon": -77.02531733333333, "bike_id": "81957007f5c533f09fbef122a821d46b", "type": "electric_scooter", "name": "81957007f5c533f09fbef122a821d46b"}, {"is_disabled": 0, "is_reserved": 0, "fusion_lat": 0.0, "lat": 38.92865666666667, "fusion_lon": 0.0, "rental_uris": {"ios": "https://dc.lft.to/lastmile_qr_scan", "android": "https://dc.lft.to/lastmile_qr_scan"}, "lon": -77.07892966666667, "bike_id": "7d6a85879be30671a44949229f772733", "type": "electric_scooter", "name": "7d6a85879be30671a44949229f772733"}, {"is_disabled": 0, "is_reserved": 0, "fusion_lat": 0.0, "lat": 38.86363266666667, "fusion_lon": 0.0, "rental_uris": {"ios": "https://dc.lft.to/lastmile_qr_scan", "android": "https://dc.lft.to/lastmile_qr_scan"}, "lon": -76.97008933333333, "bike_id": "a71537249bb0f4fe6952658a5e01d556", "type": "electric_bike", "name": "a71537249bb0f4fe6952658a5e01d556"}, {"is_disabled": 0, "is_reserved": 0, "fusion_lat": 0.0, "lat": 38.892469, "fusion_lon": 0.0, "rental_uris": {"ios": "https://dc.lft.to/lastmile_qr_scan", "android": "https://dc.lft.to/lastmile_qr_scan"}, "lon": -77.039584, "bike_id": "48142b55127debaadcd7111c94a3c5e3", "type": "electric_scooter", "name": "48142b55127debaadcd7111c94a3c5e3"}, {"is_disabled": 0, "is_reserved": 0, "fusion_lat": 0.0, "lat": 38.8802325, "fusion_lon": 0.0, "rental_uris": {"ios": "https://dc.lft.to/lastmile_qr_scan", "android": "https://dc.lft.to/lastmile_qr_scan"}, "lon": -76.94326133333334, "bike_id": "2cd41845e68e166873ffcec1eb856dff", "type": "electric_scooter", "name": "2cd41845e68e166873ffcec1eb856dff"}, {"is_disabled": 0, "is_reserved": 0, "fusion_lat": 0.0, "lat": 38.900359, "fusion_lon": 0.0, "rental_uris": {"ios": "https://dc.lft.to/lastmile_qr_scan", "android": "https://dc.lft.to/lastmile_qr_scan"}, "lon": -77.01760666666667, "bike_id": "79fd442d12a9c25210aa64d18be3891d", "type": "electric_scooter", "name": "79fd442d12a9c25210aa64d18be3891d"}, {"is_disabled": 0, "is_reserved": 0, "fusion_lat": 0.0, "lat": 38.846464833333336, "fusion_lon": 0.0, "rental_uris": {"ios": "https://dc.lft.to/lastmile_qr_scan", "android": "https://dc.lft.to/lastmile_qr_scan"}, "lon": -77.00368383333333, "bike_id": "cd252f01bb1656c64125eb8603bf0623", "type": "electric_scooter", "name": "cd252f01bb1656c64125eb8603bf0623"},