{"data": {"bikes": [{"name": "4cb22814036f12f5daf717332645a5dd", "fusion_lat": 0.0, "type": "electric_scooter", "lat": 38.90559483333333, "is_reserved": 0, "is_disabled": 0, "fusion_lon": 0.0, "bike_id": "4cb22814036f12f5daf717332645a5dd", "lon": -76.9837695, "rental_uris": {"ios": "https://dc.lft.to/lastmile_qr_scan", "android": "https://dc.lft.to/lastmile_qr_scan"}}, {"name": "060d00d6459ea0d3db868422057fbda8", "fusion_lat": 0.0, "type": "electric_scooter", "lat": 38.912575, "is_reserved": 0, "is_disabled": 0, "fusion_lon": 0.0, "bike_id": "060d00d6459ea0d3db868422057fbda8", "lon": -77.03202983333334, "rental_uris": {"ios": "https://dc.lft.to/lastmile_qr_scan", "android": "https://dc.lft.to/lastmile_qr_scan"}}, {"name": "1e3af0f252dbabaad73783b894a4ae1e", "fusion_lat": 0.0, "type": "electric_scooter", "lat": 38.917014, "is_reserved": 0, "is_disabled": 0, "fusion_lon": 0.0, "bike_id": "1e3af0f252dbabaad73783b894a4ae1e", "lon": -77.0228375, "rental_uris": {"ios": "https://dc.lft.to/lastmile_qr_scan", "android": "https://dc.lft.to/lastmile_qr_scan"}}, {"name": "9b252f46fa959784b882e25629ed1352", "fusion_lat": 0.0, "type": "electric_scooter", "lat": 38.8882275, "is_reserved": 0, "is_disabled": 0, "fusion_lon": 0.0, "bike_id": "9b252f46fa959784b882e25629ed1352", "lon": -77.049367, "rental_uris": {"ios": "https://dc.lft.to/lastmile_qr_scan", "android": "https://dc.lft.to/lastmile_qr_scan"}}, {"name": "4df9c34bacf686f3fb278eeea96106a0", "fusion_lat": 0.0, "type": "electric_bike", "lat": 38.91552633333333, "is_reserved": 0, "is_disabled": 0, "fusion_lon": 0.0, "bike_id": "4df9c34bacf686f3fb278eeea96106a0", "lon": -77.06766666666667, "rental_uris": {"ios": "https://dc.lft.to/lastmile_qr_scan", "android": "https://dc.lft.to/lastmile_qr_scan"}}, {"name": "bb165002e0974d2eb984ea08009427d1", "fusion_lat": 0.0, "type": "electric_scooter", "lat": 38.910649666666664, "is_reserved": 0, "is_disabled": 0, "fusion_lon": 0.0, "bike_id": "bb165002e0974d2eb984ea08009427d1", "lon": -77.00860783333333, "rental_uris": {"ios": "https://dc.lft.to/lastmile_qr_scan", "android": "https://dc.lft.to/lastmile_qr_scan"}}, {"name": "8e5d49a892628ba9bbab20b08afab863", "fusion_lat": 0.0, "type": "electric_scooter", "lat": 38.920221, "is_reserved": 0, "is_disabled": 0, "fusion_lon": 0.0, "bike_id": "8e5d49a892628ba9bbab20b08afab863", "lon": -77.031211, "rental_uris": {"ios": "https://dc.lft.to/lastmile_qr_scan", "android": "https://dc.lft.to/lastmile_qr_scan"}}, {"name": "11d7f59b208e077690cdb537856c9fa6", "fusion_lat": 0.0, "type": "electric_bike", "lat": 38.8638155, "is_reserved": 0, "is_disabled": 0, "fusion_lon": 0.0, "bike_id": "11d7f59b208e077690cdb537856c9fa6", "lon": -77.12902933333334, "rental_uris": {"ios": "https://dc.lft.to/lastmile_qr_scan", "android": "https://dc.lft.to/lastmile_qr_scan"}}, {"name": "c76b2c5088b6eb6389afb32eaab0bcca", "fusion_lat": 0.0, "type": "electric_bike", "lat": 38.927041, "is_reserved": 0, "is_disabled": 0, "fusion_lon": 0.0, "bike_id": "c76b2c5088b6eb6389afb32eaab0bcca", "lon": -77.022815, "rental_uris": {"ios": "https://dc.lft.to/lastmile_qr_scan", "android": "https://dc.lft.to/lastmile_qr_scan"}}, {"name": "d2c8cf184b08ff2f5bd0a851b8a5a5bb", "fusion_lat": 0.0, "type": "electric_bike", "lat": 38.970945666666665, "is_reserved": 0, "is_disabled": 0, "fusion_lon": 0.0, "bike_id": "d2c8cf184b08ff2f5bd0a851b8a5a5bb", "lon": -77.06964816666667, "rental_uris": {"ios": "https://dc.lft.to/lastmile_qr_scan", "android": "https://dc.lft.to/lastmile_qr_scan"}}, {"name": "f318b21a85b98793ae1b1210d60606ca", "fusion_lat": 0.0, "type": "electric_scooter", "lat": 38.92631683333333, "is_reserved": 0, "is_disabled": 0, "fusion_lon": 0.0, "bike_id": "f318b21a85b98793ae1b1210d60606ca", "lon": -77.03794966666666, "rental_uris": {"ios": "https://dc.lft.to/lastmile_qr_scan", "android": "https://dc.lft.to/lastmile_qr_scan"}}, {"name": "01f5cf31cf51fe7bbdb4b0066e0b7413", "fusion_lat": 0.0, "type": "electric_scooter", "lat": 38.8923945, "is_reserved": 0, "is_disabled": 0, "fusion_lon": 0.0, "bike_id": "01f5cf31cf51fe7bbdb4b0066e0b7413", "lon": -77.01528383333333, "rental_uris": {"ios": "https://dc.lft.to/lastmile_qr_scan", "android": "https://dc.lft.to/lastmile_qr_scan"}}, {"name": "f98693b46b453f750481ae404d50e2dc", "fusion_lat": 0.0, "type": "electric_scooter", "lat": 38.939184, "is_reserved": 0, "is_disabled": 0, "fusion_lon": 0.0, "bike_id": "f98693b46b453f750481ae404d50e2dc", "lon": -77.03661466666667, "rental_uris": {"ios": "https://dc.lft.to/lastmile_qr_scan", "android": "https://dc.lft.to/lastmile_qr_scan"}}, {"name": "5baf6150371fdf2cc78cd7ba471289e4", "fusion_lat": 0.0, "type": "electric_scooter", "lat": 38.9306155, "is_reserved": 0, "is_disabled": 0, "fusion_lon": 0.0, "bike_id": "5baf6150371fdf2cc78cd7ba471289e4", "lon": -77.0232435, "rental_uris": {"ios": "https://dc.lft.to/lastmile_qr_scan", "android": "https://dc.lft.to/lastmile_qr_scan"}}, {"name": "51afbc4145f103086c2d9254c118c122", "fusion_lat": 0.0, "type": "electric_bike", "lat": 38.984632, "is_reserved": 0, "is_disabled": 0, "fusion_lon": 0.0, "bike_id": "51afbc4145f103086c2d9254c118c122", "lon": -76.9552455, "rental_uris": {"ios": "https://dc.lft.to/lastmile_qr_scan", "android": "https://dc.lft.to/lastmile_qr_scan"}}, {"name": "1022944ca4bd4b0e0bd1d9bc45d81b37", "fusion_lat": 0.0, "type": "electric_scooter", "lat": 38.9033935, "is_reserved": 0, "is_disabled": 0, "fusion_lon": 0.0, "bike_id": "1022944ca4bd4b0e0bd1d9bc45d81b37", "lon": -76.97105233333333, "rental_uris": {"ios": "https://dc.lft.to/lastmile_qr_scan", "android": "https://dc.lft.to/lastmile_qr_scan"}}, {"name": "ef561ed875ac9d471abe032eab5d54cc", "fusion_lat": 0.0, "type": "electric_scooter", "lat": 38.90032583333333, "is_reserved": 0, "is_disabled": 0, "fusion_lon": 0.0, "bike_id": "ef561ed875ac9d471abe032eab5d54cc", "lon": -77.001993, "rental_uris": {"ios": "https://dc.lft.to/lastmile_qr_scan", "android": "https://dc.lft.to/lastmile_qr_scan"}}, {"name": "33724e2aa747dc58ce72382cd02fd2fe", "fusion_lat": 0.0, "type": "electric_bike", "lat": 38.86595616666666, "is_reserved": 0, "is_disabled": 0, "fusion_lon": 0.0, "bike_id": "33724e2aa747dc58ce72382cd02fd2fe", "lon": -76.93228333333333, "rental_uris": {"ios": "https://dc.lft.to/lastmile_qr_scan", "android": "https://dc.lft.to/lastmile_qr_scan"}}, {"name": "4d1ed0cb8e16eb22ab6080842674787b", "fusion_lat": 0.0, "type": "electric_bike", "lat": 38.852167, "is_reserved": 0, "is_disabled": 0, "fusion_lon": 0.0, "bike_id": "4d1ed0cb8e16eb22ab6080842674787b", "lon": -77.129565, "rental_uris": {"ios": "https://dc.lft.to/lastmile_qr_scan", "android": "https://dc.lft.to/lastmile_qr_scan"}}, {"name": "8b075f6c13dc9f5d7326771d50eb287a", "fusion_lat": 0.0, "type": "electric_scooter", "lat": 38.900575, "is_reserved": 0, "is_disabled": 0, "fusion_lon": 0.0, "bike_id": "8b075f6c13dc9f5d7326771d50eb287a", "lon": -76.947518, "rental_uris": {"ios": "https://dc.lft.to/lastmile_qr_scan", "android": "https://dc.lft.to/lastmile_qr_scan"}}, {"name": "1c3b3cc264c18a10ea5198970a575c73", "fusion_lat": 0.0, "type": "electric_scooter", "lat": 38.87842666666667, "is_reserved": 0, "is_disabled": 0, "fusion_lon": 0.0, "bike_id": "1c3b3cc264c18a10ea5198970a575c73", "lon": -77.02281833333333, "rental_uris": {"ios": "https://dc.lft.to/lastmile_qr_scan", "android": "https://dc.lft.to/lastmile_qr_scan"}}, {"name": "093c7470e9507a60a1fc43f2211cf069", "fusion_lat": 0.0, "type": "electric_scooter", "lat": 38.883933999999996, "is_reserved": 0, "is_disabled": 0, "fusion_lon": 0.0, "bike_id": "093c7470e9507a60a1fc43f2211cf069", "lon": -76.98547183333334, "rental_uris": {"ios": "https://dc.lft.to/lastmile_qr_scan", "android": "https://dc.lft.to/lastmile_qr_scan"}}, {"name": "bb4492694ca4d3a17f380a6f680321d1", "fusion_lat": 0.0, "type": "electric_scooter", "lat": 38.893912666666665, "is_reserved": 0, "is_disabled": 0, "fusion_lon": 0.0, "bike_id": "bb4492694ca4d3a17f380a6f680321d1", "lon": -77.0547555, "rental_uris": {"ios": "https://dc.lft.to/lastmile_qr_scan", "android": "https://dc.lft.to/lastmile_qr_scan"}}, {"name": "8e06a612e07920c398884c4fe01d8d4b", "fusion_lat": 0.0, "type": "electric_scooter", "lat": 38.895565500000004, "is_reserved": 0, "is_disabled": 0, "fusion_lon": 0.0, "bike_id": "8e06a612e07920c398884c4fe01d8d4b", "lon": -76.98375383333334, "rental_uris": {"ios": "https://dc.lft.to/lastmile_qr_scan", "android": "https://dc.lft.to/lastmile_qr_scan"}}, {"name": "94a1ac4e511942c858beb1b530ca28ce", "fusion_lat": 0.0, "type": "electric_scooter", "lat": 38.88040866666667, "is_reserved": 0, "is_disabled": 0, "fusion_lon": 0.0, "bike_id": "94a1ac4e511942c858beb1b530ca28ce", "lon": -76.95989783333333, "rental_uris": {"ios": "https://dc.lft.to/lastmile_qr_scan", "android": "https://dc.lft.to/lastmile_qr_scan"}}, {"name": "38fdce2848e108c7089cedcf5c594dd6", "fusion_lat": 0.0, "type": "electric_scooter", "lat": 38.87846833333333, "is_reserved": 0, "is_disabled": 0, "fusion_lon": 0.0, "bike_id": "38fdce2848e108c7089cedcf5c594dd6", "lon": -77.02263266666667, "rental_uris": {"ios": "https://dc.lft.to/lastmile_qr_scan", "android": "https://dc.lft.to/lastmile_qr_scan"}}, {"name": "10aac268a225dda0fbe09320ca270346", "fusion_lat": 0.0, "type": "electric_scooter", "lat": 38.92067333333333, "is_reserved": 0, "is_disabled": 0, "fusion_lon": 0.0, "bike_id": "10aac268a225dda0fbe09320ca270346", "lon": -77.0437595, "rental_uris": {"ios": "https://dc.lft.to/lastmile_qr_scan", "android": "https://dc.lft.to/lastmile_qr_scan"}}, {"name": "e7cd3a081ea41295b7819331a12e1303", "fusion_lat": 0.0, "type": "electric_scooter", "lat": 38.9207265, "is_reserved": 0, "is_disabled": 0, "fusion_lon": 0.0, "bike_id": "e7cd3a081ea41295b7819331a12e1303", "lon": -77.04381183333334, "rental_uris": {"ios": "https://dc.lft.to/lastmile_qr_scan", "android": "https://dc.lft.to/lastmile_qr_scan"}}, {"name": "286edfbc93b82103a2566c91ec04590d", "fusion_lat": 0.0, "type": "electric_scooter", "lat": 38.917245, "is_reserved": 0, "is_disabled": 0, "fusion_lon": 0.0, "bike_id": "286edfbc93b82103a2566c91ec04590d", "lon": -77.02888983333334, "rental_uris": {"ios": "https://dc.lft.to/lastmile_qr_scan", "android": "https://dc.lft.to/lastmile_qr_scan"}}, {"name": "5cc09a34542c94c70cc59be7cf7c4ada", "fusion_lat": 0.0, "type": "electric_scooter", "lat": 38.93360666666667, "is_reserved": 0, "is_disabled": 0, "fusion_lon": 0.0, "bike_id": "5cc09a34542c94c70cc59be7cf7c4ada", "lon": -77.037333, "rental_uris": {"ios": "https://dc.lft.to/lastmile_qr_scan", "android": "https://dc.lft.to/lastmile_qr_scan"}}, {"name": "d8b54e05defeec6d5f870128e031642d", "fusion_lat": 0.0, "type": "electric_scooter", "lat": 38.91619166666667, "is_reserved": 0, "is_disabled": 0, "fusion_lon": 0.0, "bike_id": "d8b54e05defeec6d5f870128e031642d", "lon": -77.04476533333333, "rental_uris": {"ios": "https://dc.lft.to/lastmile_qr_scan", "android": "https://dc.lft.to/lastmile_qr_scan"}}, {"name": "cce56d32f1f22c717628254c6268db59", "fusion_lat": 0.0, "type": "electric_scooter", "lat": 38.917463, "is_reserved": 0, "is_disabled": 0, "fusion_lon": 0.0, "bike_id": "cce56d32f1f22c717628254c6268db59", "lon": -77.03636666666667, "rental_uris": {"ios": "https://dc.lft.to/lastmile_qr_scan", "android": "https://dc.lft.to/lastmile_qr_scan"}}, {"name": "0eda29009c35fee35c0e517002f86cb2", "fusion_lat": 0.0, "type": "electric_scooter", "lat": 38.906757, "is_reserved": 0, "is_disabled": 0, "fusion_lon": 0.0, "bike_id": "0eda29009c35fee35c0e517002f86cb2", "lon": -76.9781765, "rental_uris": {"ios": "https://dc.lft.to/lastmile_qr_scan", "android": "https://dc.lft.to/lastmile_qr_scan"}}, {"name": "5b87ecfeca5c2f3a55924ac27584b97f", "fusion_lat": 0.0, "type": "electric_bike", "lat": 38.89190133333334, "is_reserved": 0, "is_disabled": 0, "fusion_lon": 0.0, "bike_id": "5b87ecfeca5c2f3a55924ac27584b97f", "lon": -77.12263133333333, "rental_uris": {"ios": "https://dc.lft.to/lastmile_qr_scan", "android": "https://dc.lft.to/lastmile_qr_scan"}}, {"name": "5cd2ec39fca8bd9446c986cbaa0bbbf6", "fusion_lat": 0.0, "type": "electric_bike", "lat": 38.81310933333334, "is_reserved": 0, "is_disabled": 0, "fusion_lon": 0.0, "bike_id": "5cd2ec39fca8bd9446c986cbaa0bbbf6", "lon": -77.112126, "rental_uris": {"ios": "https://dc.lft.to/lastmile_qr_scan", "android": "https://dc.lft.to/lastmile_qr_scan"}}, {"name": "26c090c56726a62ee4d92c4196e0ccba", "fusion_lat": 0.0, "type": "electric_scooter", "lat": 38.88877466666667, "is_reserved": 0, "is_disabled": 0, "fusion_lon": 0.0, "bike_id": "26c090c56726a62ee4d92c4196e0ccba", "lon": -76.9903415, "rental_uris": {"ios": "https://dc.lft.to/lastmile_qr_scan", "android": "https://dc.lft.to/lastmile_qr_scan"}}, {"name": "aba2fc50e29b6027ed4c2b71ca9c5fda", "fusion_lat": 0.0, "type": "electric_scooter", "lat": 38.92585616666667, "is_reserved": 0, "is_disabled": 0, "fusion_lon": 0.0, "bike_id": "aba2fc50e29b6027ed4c2b71ca9c5fda", "lon": -77.03217833333333, "rental_uris": {"ios": "https://dc.lft.to/lastmile_qr_scan", "android": "https://dc.lft.to/lastmile_qr_scan"}}, {"name": "072efce93f121c86f42edc92a1509dc5", "fusion_lat": 0.0, "type": "electric_bike", "lat": 38.95557183333333, "is_reserved": 0, "is_disabled": 0, "fusion_lon": 0.0, "bike_id": "072efce93f121c86f42edc92a1509dc5", "lon": -76.93547116666667, "rental_uris": {"ios": "https://dc.lft.to/lastmile_qr_scan", "android": "https://dc.lft.to/lastmile_qr_scan"}}, {"name": "adebba1459f7afadd0a36b455a2baa0c", "fusion_lat": 0.0, "type": "electric_scooter", "lat": 38.921125833333335, "is_reserved": 0, "is_disabled": 0, "fusion_lon": 0.0, "bike_id": "adebba1459f7afadd0a36b455a2baa0c", "lon": -77.01774533333334, "rental_uris": {"ios": "https://dc.lft.to/lastmile_qr_scan", "android": "https://dc.lft.to/lastmile_qr_scan"}}, {"name": "907a669ca4d4e4f0aae93ce2ee5548bf", "fusion_lat": 0.0, "type": "electric_scooter", "lat": 38.89224683333333, "is_reserved": 0, "is_disabled": 0, "fusion_lon": 0.0, "bike_id": "907a669ca4d4e4f0aae93ce2ee5548bf", "lon": -77.02414283333333, "rental_uris": {"ios": "https://dc.lft.to/lastmile_qr_scan", "android": "https://dc.lft.to/lastmile_qr_scan"}}, {"name": "26abc0aa24be08575f3e2ff4539c0ce8", "fusion_lat": 0.0, "type": "electric_bike", "lat": 38.831961166666666, "is_reserved": 0, "is_disabled": 0, "fusion_lon": 0.0, "bike_id": "26abc0aa24be08575f3e2ff4539c0ce8", "lon": -77.07682516666667, "rental_uris": {"ios": "https://dc.lft.to/lastmile_qr_scan", "android": "https://dc.lft.to/lastmile_qr_scan"}}, {"name": "1405f43d8da9ff8b89f822284f2b55ba", "fusion_lat": 0.0, "type": "electric_scooter", "lat": 38.89232, "is_reserved": 0, "is_disabled": 0, "fusion_lon": 0.0, "bike_id": "1405f43d8da9ff8b89f822284f2b55ba", "lon": -77.0500805, "rental_uris": {"ios": "https://dc.lft.to/lastmile_qr_scan", "android": "https://dc.lft.to/lastmile_qr_scan"}}, {"name": "e82f914e385d86ab9af4c7cdcb65d635", "fusion_lat": 0.0, "type": "electric_scooter", "lat": 38.91067116666667, "is_reserved": 0, "is_disabled": 0, "fusion_lon": 0.0, "bike_id": "e82f914e385d86ab9af4c7cdcb65d635", "lon": -77.053263, "rental_uris": {"ios": "https://dc.lft.to/lastmile_qr_scan", "android": "https://dc.lft.to/lastmile_qr_scan"}}, {"name": "d40bc8c2651e1937c526dac751ef704c", "fusion_lat": 0.0, "type": "electric_scooter", "lat": 38.902227, "is_reserved": 0, "is_disabled": 0, "fusion_lon": 0.0, "bike_id": "d40bc8c2651e1937c526dac751ef704c", "lon": -77.05130766666667, "rental_uris": {"ios": "https://dc.lft.to/lastmile_qr_scan", "android": "https://dc.lft.to/lastmile_qr_scan"}}, {"name": "817dd244bf99ee1f669279364abf701a", "fusion_lat": 0.0, "type": "electric_scooter", "lat": 38.89659616666667, "is_reserved": 0, "is_disabled": 0, "fusion_lon": 0.0, "bike_id": "817dd244bf99ee1f669279364abf701a", "lon": -77.04896933333333, "rental_uris": {"ios": "https://dc.lft.to/lastmile_qr_scan", "android": "https://dc.lft.to/lastmile_qr_scan"}}, {"name": "fcb36cc7bd366246cc5b9f11b29a266f", "fusion_lat": 0.0, "type": "electric_scooter", "lat": 38.92427333333333, "is_reserved": 0, "is_disabled": 0, "fusion_lon": 0.0, "bike_id": "fcb36cc7bd366246cc5b9f11b29a266f", "lon": -77.05177016666667, "rental_uris": {"ios": "https://dc.lft.to/lastmile_qr_scan", "android": "https://dc.lft.to/lastmile_qr_scan"}}, {"name": "945d2821a224113631abcb4f2ec0f6e8", "fusion_lat": 0.0, "type": "electric_scooter", "lat": 38.89226466666667, "is_reserved": 0, "is_disabled": 0, "fusion_lon": 0.0, "bike_id": "945d2821a224113631abcb4f2ec0f6e8", "lon": -77.04503166666667, "rental_uris": {"ios": "https://dc.lft.to/lastmile_qr_scan", "android": "https://dc.lft.to/lastmile_qr_scan"}}, {"name": "91078b677c91fb9e3a5f633dfa6e80ea", "fusion_lat": 0.0, "type": "electric_scooter", "lat": 38.949769333333336, "is_reserved": 0, "is_disabled": 0, "fusion_lon": 0.0, "bike_id": "91078b677c91fb9e3a5f633dfa6e80ea", "lon": -77.03495183333334, "rental_uris": {"ios": "https://dc.lft.to/lastmile_qr_scan", "android": "https://dc.lft.to/lastmile_qr_scan"}}, {"name": "0c9bf3650c3e6d9d1c691a1a7acb099e", "fusion_lat": 0.0, "type": "electric_scooter", "lat": 38.904880166666665, "is_reserved": 0, "is_disabled": 0, "fusion_lon": 0.0, "bike_id": "0c9bf3650c3e6d9d1c691a1a7acb099e", "lon": -77.04160066666667, "rental_uris": {"ios": "https://dc.lft.to/lastmile_qr_scan", "android": "https://dc.lft.to/lastmile_qr_scan"}}, {"name": "4fb62a7ae447db80cf9a6fe9180037b3", "fusion_lat": 0.0, "type": "electric_scooter", "lat": 38.8954125, "is_reserved": 0, "is_disabled": 0, "fusion_lon": 0.0, "bike_id": "4fb62a7ae447db80cf9a6fe9180037b3", "lon": -77.031029, "rental_uris": {"ios": "https://dc.lft.to/lastmile_qr_scan", "android": "https://dc.lft.to/lastmile_qr_scan"}}, {"name": "6cb22086172a5876dfc308e750e1eff4", "fusion_lat": 0.0, "type": "electric_scooter", "lat": 38.9251545, "is_reserved": 0, "is_disabled": 0, "fusion_lon": 0.0, "bike_id": "6cb22086172a5876dfc308e750e1eff4", "lon": -77.02389533333333, "rental_uris": {"ios": "https://dc.lft.to/lastmile_qr_scan", "android": "https://dc.lft.to/lastmile_qr_scan"}}, {"name": "eefe414e4098ba1523ed8679d002ef46", "fusion_lat": 0.0, "type": "electric_bike", "lat": 38.95365783333333, "is_reserved": 0, "is_disabled": 0, "fusion_lon": 0.0, "bike_id": "eefe414e4098ba1523ed8679d002ef46", "lon": -77.08857333333333, "rental_uris": {"ios": "https://dc.lft.to/lastmile_qr_scan", "android": "https://dc.lft.to/lastmile_qr_scan"}}, {"name": "d405194bc850261ac0697fb953fcc289", "fusion_lat": 0.0, "type": "electric_scooter", "lat": 38.909597166666664, "is_reserved": 0, "is_disabled": 0, "fusion_lon": 0.0, "bike_id": "d405194bc850261ac0697fb953fcc289", "lon": -77.044819, "rental_uris": {"ios": "https://dc.lft.to/lastmile_qr_scan", "android": "https://dc.lft.to/lastmile_qr_scan"}}, {"name": "2ffae515f8f477fc77eca27559415ae7", "fusion_lat": 0.0, "type": "electric_scooter", "lat": 38.919226333333334, "is_reserved": 0, "is_disabled": 0, "fusion_lon": 0.0, "bike_id": "2ffae515f8f477fc77eca27559415ae7", "lon": -77.023293, "rental_uris": {"ios": "https://dc.lft.to/lastmile_qr_scan", "android": "https://dc.lft.to/lastmile_qr_scan"}}, {"name": "a296e7aad667468c40af3771764f3452", "fusion_lat": 0.0, "type": "electric_scooter", "lat": 38.90268416666667, "is_reserved": 0, "is_disabled": 0, "fusion_lon": 0.0, "bike_id": "a296e7aad667468c40af3771764f3452", "lon": -77.03204316666667, "rental_uris": {"ios": "https://dc.lft.to/lastmile_qr_scan", "android": "https://dc.lft.to/lastmile_qr_scan"}}, {"name": "cc411796072915e064fbf62bd36596bb", "fusion_lat": 0.0, "type": "electric_scooter", "lat": 38.918105, "is_reserved": 0, "is_disabled": 0, "fusion_lon": 0.0, "bike_id": "cc411796072915e064fbf62bd36596bb", "lon": -77.01149266666667, "rental_uris": {"ios": "https://dc.lft.to/lastmile_qr_scan", "android": "https://dc.lft.to/lastmile_qr_scan"}}, {"name": "99338cf46353881c63a3e31ec373a097", "fusion_lat": 0.0, "type": "electric_scooter", "lat": 38.8973625, "is_reserved": 0, "is_disabled": 0, "fusion_lon": 0.0, "bike_id": "99338cf46353881c63a3e31ec373a097", "lon": -77.04653383333333, "rental_uris": {"ios": "https://dc.lft.to/lastmile_qr_scan", "android": "https://dc.lft.to/lastmile_qr_scan"}}, {"name": "c84307a702b62f54a393d147c8b3beae", "fusion_lat": 0.0, "type": "electric_scooter", "lat": 38.9048745, "is_reserved": 0, "is_disabled": 0, "fusion_lon": 0.0, "bike_id": "c84307a702b62f54a393d147c8b3beae", "lon": -77.04157233333333, "rental_uris": {"ios": "https://dc.lft.to/lastmile_qr_scan", "android": "https://dc.lft.to/lastmile_qr_scan"}}, {"name": "de0ae0a9fc95a083842dd40c94b65400", "fusion_lat": 0.0, "type": "electric_scooter", "lat": 38.928324833333335, "is_reserved": 0, "is_disabled": 0, "fusion_lon": 0.0, "bike_id": "de0ae0a9fc95a083842dd40c94b65400", "lon": -77.03701666666667, "rental_uris": {"ios": "https://dc.lft.to/lastmile_qr_scan", "android": "https://dc.lft.to/lastmile_qr_scan"}}, {"name": "d9356f18ec4b937f1f9948de6af941fd", "fusion_lat": 0.0, "type": "electric_bike", "lat": 38.90327533333333, "is_reserved": 0, "is_disabled": 0, "fusion_lon": 0.0, "bike_id": "d9356f18ec4b937f1f9948de6af941fd", "lon": -76.97320716666667, "rental_uris": {"ios": "https://dc.lft.to/lastmile_qr_scan", "android": "https://dc.lft.to/lastmile_qr_scan"}}, {"name": "a60f6f6c0730276d529d6612df7d516f", "fusion_lat": 0.0, "type": "electric_scooter", "lat": 38.91694433333333, "is_reserved": 0, "is_disabled": 0, "fusion_lon": 0.0, "bike_id": "a60f6f6c0730276d529d6612df7d516f", "lon": -77.02817266666666, "rental_uris": {"ios": "https://dc.lft.to/lastmile_qr_scan", "android": "https://dc.lft.to/lastmile_qr_scan"}}, {"name": "51fb345047edda3b11baafcbd014f08e", "fusion_lat": 0.0, "type": "electric_scooter", "lat": 38.8604495, "is_reserved": 0, "is_disabled": 0, "fusion_lon": 0.0, "bike_id": "51fb345047edda3b11baafcbd014f08e", "lon": -76.98495283333334, "rental_uris": {"ios": "https://dc.lft.to/lastmile_qr_scan", "android": "https://dc.lft.to/lastmile_qr_scan"}}, {"name": "6954e4461aa87e08d551bb40463d03f3", "fusion_lat": 0.0, "type": "electric_bike", "lat": 38.959581, "is_reserved": 0, "is_disabled": 0, "fusion_lon": 0.0, "bike_id": "6954e4461aa87e08d551bb40463d03f3", "lon": -77.10086383333334, "rental_uris": {"ios": "https://dc.lft.to/lastmile_qr_scan", "android": "https://dc.lft.to/lastmile_qr_scan"}}, {"name": "471c6be72f865318835b78dcdc42e608", "fusion_lat": 0.0, "type": "electric_scooter", "lat": 38.932706333333336, "is_reserved": 0, "is_disabled": 0, "fusion_lon": 0.0, "bike_id": "471c6be72f865318835b78dcdc42e608", "lon": -77.03896033333334, "rental_uris": {"ios": "https://dc.lft.to/lastmile_qr_scan", "android": "https://dc.lft.to/lastmile_qr_scan"}}, {"name": "de9a0127c7836d46be0d3c5be1e8d6ec", "fusion_lat": 0.0, "type": "electric_bike", "lat": 38.857928666666666, "is_reserved": 0, "is_disabled": 0, "fusion_lon": 0.0, "bike_id": "de9a0127c7836d46be0d3c5be1e8d6ec", "lon": -76.98742733333333, "rental_uris": {"ios": "https://dc.lft.to/lastmile_qr_scan", "android": "https://dc.lft.to/lastmile_qr_scan"}}, {"name": "481c2012057737b217bd3a7f1aed9c15", "fusion_lat": 0.0, "type": "electric_bike", "lat": 38.9118695, "is_reserved": 0, "is_disabled": 0, "fusion_lon": 0.0, "bike_id": "481c2012057737b217bd3a7f1aed9c15", "lon": -77.00193733333333, "rental_uris": {"ios": "https://dc.lft.to/lastmile_qr_scan", "android": "https://dc.lft.to/lastmile_qr_scan"}}, {"name": "a60b7b5d60ba30f65a020ccd599c989c", "fusion_lat": 0.0, "type": "electric_scooter", "lat": 38.90648616666667, "is_reserved": 0, "is_disabled": 0, "fusion_lon": 0.0, "bike_id": "a60b7b5d60ba30f65a020ccd599c989c", "lon": -77.011419, "rental_uris": {"ios": "https://dc.lft.to/lastmile_qr_scan", "android": "https://dc.lft.to/lastmile_qr_scan"}}, {"name": "5df4238de90120aba74b5bafbb907fb3", "fusion_lat": 0.0, "type": "electric_bike", "lat": 38.889901, "is_reserved": 0, "is_disabled": 0, "fusion_lon": 0.0, "bike_id": "5df4238de90120aba74b5bafbb907fb3", "lon": -76.99516233333334, "rental_uris": {"ios": "https://dc.lft.to/lastmile_qr_scan", "android": "https://dc.lft.to/lastmile_qr_scan"}}, {"name": "4d31ed15037de8a9162c2e11a2cb2f15", "fusion_lat": 0.0, "type": "electric_scooter", "lat": 38.89999866666667, "is_reserved": 0, "is_disabled": 0, "fusion_lon": 0.0, "bike_id": "4d31ed15037de8a9162c2e11a2cb2f15", "lon": -76.99623433333333, "rental_uris": {"ios": "https://dc.lft.to/lastmile_qr_scan", "android": "https://dc.lft.to/lastmile_qr_scan"}}, {"name": "563f746748f85bf0c2fe45bd65c3a330", "fusion_lat": 0.0, "type": "electric_scooter", "lat": 38.900302333333336, "is_reserved": 0, "is_disabled": 0, "fusion_lon": 0.0, "bike_id": "563f746748f85bf0c2fe45bd65c3a330", "lon": -77.00203183333333, "rental_uris": {"ios": "https://dc.lft.to/lastmile_qr_scan", "android": "https://dc.lft.to/lastmile_qr_scan"}}, {"name": "a6fb5a1fe631db3c050463b60eedf69d", "fusion_lat": 0.0, "type": "electric_scooter", "lat": 38.84543683333333, "is_reserved": 0, "is_disabled": 0, "fusion_lon": 0.0, "bike_id": "a6fb5a1fe631db3c050463b60eedf69d", "lon": -76.99596033333333, "rental_uris": {"ios": "https://dc.lft.to/lastmile_qr_scan", "android": "https://dc.lft.to/lastmile_qr_scan"}}, {"name": "aa5162c2dda96a9f32d089255ee533ec", "fusion_lat": 0.0, "type": "electric_scooter", "lat": 38.901544666666666, "is_reserved": 0, "is_disabled": 0, "fusion_lon": 0.0, "bike_id": "aa5162c2dda96a9f32d089255ee533ec", "lon": -77.039764, "rental_uris": {"ios": "https://dc.lft.to/lastmile_qr_scan", "android": "https://dc.lft.to/lastmile_qr_scan"}}, {"name": "6490c711b7fb5387a8f9b2fd1dd98e13", "fusion_lat": 0.0, "type": "electric_scooter", "lat": 38.91327033333334, "is_reserved": 0, "is_disabled": 0, "fusion_lon": 0.0, "bike_id": "6490c711b7fb5387a8f9b2fd1dd98e13", "lon": -77.0453315, "rental_uris": {"ios": "https://dc.lft.to/lastmile_qr_scan", "android": "https://dc.lft.to/lastmile_qr_scan"}}, {"name": "c44677baa08b5d813e3192392a53326e", "fusion_lat": 0.0, "type": "electric_scooter", "lat": 38.9041855, "is_reserved": 0, "is_disabled": 0, "fusion_lon": 0.0, "bike_id": "c44677baa08b5d813e3192392a53326e", "lon": -76.9788965, "rental_uris": {"ios": "https://dc.lft.to/lastmile_qr_scan", "android": "https://dc.lft.to/lastmile_qr_scan"}}, {"name": "87aafef5bc9d1b72d6f0f37c2a240c9a", "fusion_lat": 0.0, "type": "electric_scooter", "lat": 38.91849783333333, "is_reserved": 0, "is_disabled": 0, "fusion_lon": 0.0, "bike_id": "87aafef5bc9d1b72d6f0f37c2a240c9a", "lon": -77.02605683333333, "rental_uris": {"ios": "https://dc.lft.to/lastmile_qr_scan", "android": "https://dc.lft.to/lastmile_qr_scan"}}, {"name": "b651f78a8d6b1f5bb03c1f64b27b2e69", "fusion_lat": 0.0, "type": "electric_scooter", "lat": 38.91629266666666, "is_reserved": 0, "is_disabled": 0, "fusion_lon": 0.0, "bike_id": "b651f78a8d6b1f5bb03c1f64b27b2e69", "lon": -77.00109416666666, "rental_uris": {"ios": "https://dc.lft.to/lastmile_qr_scan", "android": "https://dc.lft.to/lastmile_qr_scan"}}, {"name": "32558d95bbcad502bb798d6bf3c857a0", "fusion_lat": 0.0, "type": "electric_scooter", "lat": 38.91048133333334, "is_reserved": 0, "is_disabled": 0, "fusion_lon": 0.0, "bike_id": "32558d95bbcad502bb798d6bf3c857a0", "lon": -77.0483805, "rental_uris": {"ios": "https://dc.lft.to/lastmile_qr_scan", "android": "https://dc.lft.to/lastmile_qr_scan"}}, {"name": "898864e8d3ce46a48a949a47c9a7e2cb", "fusion_lat": 0.0, "type": "electric_scooter", "lat": 38.941239333333336, "is_reserved": 0, "is_disabled": 0, "fusion_lon": 0.0, "bike_id": "898864e8d3ce46a48a949a47c9a7e2cb", "lon": -77.020527, "rental_uris": {"ios": "https://dc.lft.to/lastmile_qr_scan", "android": "https://dc.lft.to/lastmile_qr_scan"}}, {"name": "74129bd1517ab25ec829d4f207c3f9c9", "fusion_lat": 0.0, "type": "electric_scooter", "lat": 38.86360033333333, "is_reserved": 0, "is_disabled": 0, "fusion_lon": 0.0, "bike_id": "74129bd1517ab25ec829d4f207c3f9c9", "lon": -76.99062933333333, "rental_uris": {"ios": "https://dc.lft.to/lastmile_qr_scan", "android": "https://dc.lft.to/lastmile_qr_scan"}}, {"name": "f8e38defb4de8d0e9f9c2ea8badf6280", "fusion_lat": 0.0, "type": "electric_scooter", "lat": 38.915536, "is_reserved": 0, "is_disabled": 0, "fusion_lon": 0.0, "bike_id": "f8e38defb4de8d0e9f9c2ea8badf6280", "lon": -77.038357, "rental_uris": {"ios": "https://dc.lft.to/lastmile_qr_scan", "android": "https://dc.lft.to/lastmile_qr_scan"}}, {"name": "93f2547e45d895d23e55e7fede2ab721", "fusion_lat": 0.0, "type": "electric_bike", "lat": 38.940047, "is_reserved": 0, "is_disabled": 0, "fusion_lon": 0.0, "bike_id": "93f2547e45d895d23e55e7fede2ab721", "lon": -76.95453916666666, "rental_uris": {"ios": "https://dc.lft.to/lastmile_qr_scan", "android": "https://dc.lft.to/lastmile_qr_scan"}}, {"name": "d03fb349c67ca88e56e305681c7b9606", "fusion_lat": 0.0, "type": "electric_scooter", "lat": 38.9614175, "is_reserved": 0, "is_disabled": 0, "fusion_lon": 0.0, "bike_id": "d03fb349c67ca88e56e305681c7b9606", "lon": -77.02800216666667, "rental_uris": {"ios": "https://dc.lft.to/lastmile_qr_scan", "android": "https://dc.lft.to/lastmile_qr_scan"}}, {"name": "6579205294c655fcd9a3c50b27514d0d", "fusion_lat": 0.0, "type": "electric_scooter", "lat": 38.918465166666664, "is_reserved": 0, "is_disabled": 0, "fusion_lon": 0.0, "bike_id": "6579205294c655fcd9a3c50b27514d0d", "lon": -77.02307933333333, "rental_uris": {"ios": "https://dc.lft.to/lastmile_qr_scan", "android": "https://dc.lft.to/lastmile_qr_scan"}}, {"name": "d149a560b48768e52b97ab37d7289f27", "fusion_lat": 0.0, "type": "electric_scooter", "lat": 38.889911, "is_reserved": 0, "is_disabled": 0, "fusion_lon": 0.0, "bike_id": "d149a560b48768e52b97ab37d7289f27", "lon": -76.95413533333334, "rental_uris": {"ios": "https://dc.lft.to/lastmile_qr_scan", "android": "https://dc.lft.to/lastmile_qr_scan"}}, {"name": "d170408f5aed3e6c72ba679ea02bb0c5", "fusion_lat": 0.0, "type": "electric_scooter", "lat": 38.92479516666667, "is_reserved": 0, "is_disabled": 0, "fusion_lon": 0.0, "bike_id": "d170408f5aed3e6c72ba679ea02bb0c5", "lon": -77.0305615, "rental_uris": {"ios": "https://dc.lft.to/lastmile_qr_scan", "android": "https://dc.lft.to/lastmile_qr_scan"}}, {"name": "3a9eba3d172adcc5f9711e9098827841", "fusion_lat": 0.0, "type": "electric_scooter", "lat": 38.909743666666664, "is_reserved": 0, "is_disabled": 0, "fusion_lon": 0.0, "bike_id": "3a9eba3d172adcc5f9711e9098827841", "lon": -77.046674, "rental_uris": {"ios": "https://dc.lft.to/lastmile_qr_scan", "android": "https://dc.lft.to/lastmile_qr_scan"}}, {"name": "448572eb844974ee57141ee183e80882", "fusion_lat": 0.0, "type": "electric_scooter", "lat": 38.920114, "is_reserved": 0, "is_disabled": 0, "fusion_lon": 0.0, "bike_id": "448572eb844974ee57141ee183e80882", "lon": -77.03164933333333, "rental_uris": {"ios": "https://dc.lft.to/lastmile_qr_scan", "android": "https://dc.lft.to/lastmile_qr_scan"}}, {"name": "94c8a7b26e21494d4fc1f7ff49aa2873", "fusion_lat": 0.0, "type": "electric_scooter", "lat": 38.88220333333334, "is_reserved": 0, "is_disabled": 0, "fusion_lon": 0.0, "bike_id": "94c8a7b26e21494d4fc1f7ff49aa2873", "lon": -76.94178083333334, "rental_uris": {"ios": "https://dc.lft.to/lastmile_qr_scan", "android": "https://dc.lft.to/lastmile_qr_scan"}}, {"name": "ae0a2a61d9e9277e310de281ff64077b", "fusion_lat": 0.0, "type": "electric_scooter", "lat": 38.921368, "is_reserved": 0, "is_disabled": 0, "fusion_lon": 0.0, "bike_id": "ae0a2a61d9e9277e310de281ff64077b", "lon": -77.04560233333333, "rental_uris": {"ios": "https://dc.lft.to/lastmile_qr_scan", "android": "https://dc.lft.to/lastmile_qr_scan"}}, {"name": "5aee61fb5739215b0294edd402c95658", "fusion_lat": 0.0, "type": "electric_scooter", "lat": 38.87356916666667, "is_reserved": 0, "is_disabled": 0, "fusion_lon": 0.0, "bike_id": "5aee61fb5739215b0294edd402c95658", "lon": -77.000914, "rental_uris": {"ios": "https://dc.lft.to/lastmile_qr_scan", "android": "https://dc.lft.to/lastmile_qr_scan"}}, {"name": "0a89987b2ac098fee01351e9ba54b85b", "fusion_lat": 0.0, "type": "electric_scooter", "lat": 38.920974333333334, "is_reserved": 0, "is_disabled": 0, "fusion_lon": 0.0, "bike_id": "0a89987b2ac098fee01351e9ba54b85b", "lon": -77.05481383333333, "rental_uris": {"ios": "https://dc.lft.to/lastmile_qr_scan", "android": "https://dc.lft.to/lastmile_qr_scan"}}, {"name": "ccd7b2bccb9cb3d800ec2631bad5aae4", "fusion_lat": 0.0, "type": "electric_scooter", "lat": 38.9004515, "is_reserved": 0, "is_disabled": 0, "fusion_lon": 0.0, "bike_id": "ccd7b2bccb9cb3d800ec2631bad5aae4", "lon": -76.99136983333334, "rental_uris": {"ios": "https://dc.lft.to/lastmile_qr_scan", "android": "https://dc.lft.to/lastmile_qr_scan"}}, {"name": "9e61409b5d886814d488e21eca7ba570", "fusion_lat": 0.0, "type": "electric_scooter", "lat": 38.923708166666664, "is_reserved": 0, "is_disabled": 0, "fusion_lon": 0.0, "bike_id": "9e61409b5d886814d488e21eca7ba570", "lon": -77.0409695, "rental_uris": {"ios": "https://dc.lft.to/lastmile_qr_scan", "android": "https://dc.lft.to/lastmile_qr_scan"}}, {"name": "02ed1f4133c348432f942f105e543cbe", "fusion_lat": 0.0, "type": "electric_scooter", "lat": 38.86268466666667, "is_reserved": 0, "is_disabled": 0, "fusion_lon": 0.0, "bike_id": "02ed1f4133c348432f942f105e543cbe", "lon": -76.987173, "rental_uris": {"ios": "https://dc.lft.to/lastmile_qr_scan", "android": "https://dc.lft.to/lastmile_qr_scan"}}, {"name": "a15e2f8b82fe95ee67b3ee29e2a728c8", "fusion_lat": 0.0, "type": "electric_scooter", "lat": 38.88429, "is_reserved": 0, "is_disabled": 0, "fusion_lon": 0.0, "bike_id": "a15e2f8b82fe95ee67b3ee29e2a728c8", "lon": -76.95749166666667, "rental_uris": {"ios": "https://dc.lft.to/lastmile_qr_scan", "android": "https://dc.lft.to/lastmile_qr_scan"}}, {"name": "cb2393796796da4678c032e5a663e90f", "fusion_lat": 0.0, "type": "electric_scooter", "lat": 38.92266466666667, "is_reserved": 0, "is_disabled": 0, "fusion_lon": 0.0, "bike_id": "cb2393796796da4678c032e5a663e90f", "lon": -77.03406566666666, "rental_uris": {"ios": "https://dc.lft.to/lastmile_qr_scan", "android": "https://dc.lft.to/lastmile_qr_scan"}}, {"name": "15a6029ad5b0a08732f90b683af05c7b", "fusion_lat": 0.0, "type": "electric_scooter", "lat": 38.96177216666667, "is_reserved": 0, "is_disabled": 0, "fusion_lon": 0.0, "bike_id": "15a6029ad5b0a08732f90b683af05c7b", "lon": -77.0322895, "rental_uris": {"ios": "https://dc.lft.to/lastmile_qr_scan", "android": "https://dc.lft.to/lastmile_qr_scan"}}, {"name": "825c23ea3192874a847f4294ec846556", "fusion_lat": 0.0, "type": "electric_scooter", "lat": 38.92592716666667, "is_reserved": 0, "is_disabled": 0, "fusion_lon": 0.0, "bike_id": "825c23ea3192874a847f4294ec846556", "lon": -77.052197, "rental_uris": {"ios": "https://dc.lft.to/lastmile_qr_scan", "android": "https://dc.lft.to/lastmile_qr_scan"}}, {"name": "65071e1cd53f8661c03cbcbff48a8327", "fusion_lat": 0.0, "type": "electric_scooter", "lat": 38.9155195, "is_reserved": 0, "is_disabled": 0, "fusion_lon": 0.0, "bike_id": "65071e1cd53f8661c03cbcbff48a8327", "lon": -77.038303, "rental_uris": {"ios": "https://dc.lft.to/lastmile_qr_scan", "android": "https://dc.lft.to/lastmile_qr_scan"}}, {"name": "3ceea0cfcb7493523afac521c73fd4a4", "fusion_lat": 0.0, "type": "electric_bike", "lat": 38.966171, "is_reserved": 0, "is_disabled": 0, "fusion_lon": 0.0, "bike_id": "3ceea0cfcb7493523afac521c73fd4a4", "lon": -76.94423, "rental_uris": {"ios": "https://dc.lft.to/lastmile_qr_scan", "android": "https://dc.lft.to/lastmile_qr_scan"}}, {"name": "8cfbceaaae09c3a2d50c36f14d8e38a8", "fusion_lat": 0.0, "type": "electric_bike", "lat": 39.02425066666667, "is_reserved": 0, "is_disabled": 0, "fusion_lon": 0.0, "bike_id": "8cfbceaaae09c3a2d50c36f14d8e38a8", "lon": -77.1250305, "rental_uris": {"ios": "https://dc.lft.to/lastmile_qr_scan", "android": "https://dc.lft.to/lastmile_qr_scan"}}, {"name": "4c4f6fd8faed0b0ba4ca1f6a94f70331", "fusion_lat": 0.0, "type": "electric_scooter", "lat": 38.912628833333336, "is_reserved": 0, "is_disabled": 0, "fusion_lon": 0.0, "bike_id": "4c4f6fd8faed0b0ba4ca1f6a94f70331", "lon": -77.04529016666666, "rental_uris": {"ios": "https://dc.lft.to/lastmile_qr_scan", "android": "https://dc.lft.to/lastmile_qr_scan"}}, {"name": "37f4104177582a6a7834daaaf6276071", "fusion_lat": 0.0, "type": "electric_scooter", "lat": 38.90009416666667, "is_reserved": 0, "is_disabled": 0, "fusion_lon": 0.0, "bike_id": "37f4104177582a6a7834daaaf6276071", "lon": -77.04131666666666, "rental_uris": {"ios": "https://dc.lft.to/lastmile_qr_scan", "android": "https://dc.lft.to/lastmile_qr_scan"}}, {"name": "2f385ae0afedf9d46d66161241bebb02", "fusion_lat": 0.0, "type": "electric_scooter", "lat": 38.90608983333333, "is_reserved": 0, "is_disabled": 0, "fusion_lon": 0.0, "bike_id": "2f385ae0afedf9d46d66161241bebb02", "lon": -77.056263, "rental_uris": {"ios": "https://dc.lft.to/lastmile_qr_scan", "android": "https://dc.lft.to/lastmile_qr_scan"}}, {"name": "97f8743ee927a71fb8bc32143040e2ce", "fusion_lat": 0.0, "type": "electric_scooter", "lat": 38.9170055, "is_reserved": 0, "is_disabled": 0, "fusion_lon": 0.0, "bike_id": "97f8743ee927a71fb8bc32143040e2ce", "lon": -77.02789616666666, "rental_uris": {"ios": "https://dc.lft.to/lastmile_qr_scan", "android": "https://dc.lft.to/lastmile_qr_scan"}}, {"name": "42cd682ccc1a087907b050763c28ae0d", "fusion_lat": 0.0, "type": "electric_scooter", "lat": 38.9049125, "is_reserved": 0, "is_disabled": 0, "fusion_lon": 0.0, "bike_id": "42cd682ccc1a087907b050763c28ae0d", "lon": -77.065363, "rental_uris": {"ios": "https://dc.lft.to/lastmile_qr_scan", "android": "https://dc.lft.to/lastmile_qr_scan"}}, {"name": "83848fe23feb09613a3acc7a6cb26fb2", "fusion_lat": 0.0, "type": "electric_scooter", "lat": 38.909739333333334, "is_reserved": 0, "is_disabled": 0, "fusion_lon": 0.0, "bike_id": "83848fe23feb09613a3acc7a6cb26fb2", "lon": -77.04599683333333, "rental_uris": {"ios": "https://dc.lft.to/lastmile_qr_scan", "android": "https://dc.lft.to/lastmile_qr_scan"}}, {"name": "4af122efc29905ec99535d60961e46d5", "fusion_lat": 0.0, "type": "electric_scooter", "lat": 38.90596633333333, "is_reserved": 0, "is_disabled": 0, "fusion_lon": 0.0, "bike_id": "4af122efc29905ec99535d60961e46d5", "lon": -77.04877283333333, "rental_uris": {"ios": "https://dc.lft.to/lastmile_qr_scan", "android": "https://dc.lft.to/lastmile_qr_scan"}}, {"name": "7d7c1f97f43939904e160c78eacf1246", "fusion_lat": 0.0, "type": "electric_scooter", "lat": 38.914066, "is_reserved": 0, "is_disabled": 0, "fusion_lon": 0.0, "bike_id": "7d7c1f97f43939904e160c78eacf1246", "lon": -77.03949033333333, "rental_uris": {"ios": "https://dc.lft.to/lastmile_qr_scan", "android": "https://dc.lft.to/lastmile_qr_scan"}}, {"name": "cbc5eeb525ca566080d1254b1d96e8f9", "fusion_lat": 0.0, "type": "electric_scooter", "lat": 38.886894, "is_reserved": 0, "is_disabled": 0, "fusion_lon": 0.0, "bike_id": "cbc5eeb525ca566080d1254b1d96e8f9", "lon": -76.95763583333333, "rental_uris": {"ios": "https://dc.lft.to/lastmile_qr_scan", "android": "https://dc.lft.to/lastmile_qr_scan"}}, {"name": "dbbb3b4374617db62a8bb8bece4d4ee4", "fusion_lat": 0.0, "type": "electric_scooter", "lat": 38.882805833333336, "is_reserved": 0, "is_disabled": 0, "fusion_lon": 0.0, "bike_id": "dbbb3b4374617db62a8bb8bece4d4ee4", "lon": -76.99835983333334, "rental_uris": {"ios": "https://dc.lft.to/lastmile_qr_scan", "android": "https://dc.lft.to/lastmile_qr_scan"}}, {"name": "c7e68abeedbc653e4f8656faaee776f6", "fusion_lat": 0.0, "type": "electric_scooter", "lat": 38.86891516666667, "is_reserved": 0, "is_disabled": 0, "fusion_lon": 0.0, "bike_id": "c7e68abeedbc653e4f8656faaee776f6", "lon": -76.98309033333334, "rental_uris": {"ios": "https://dc.lft.to/lastmile_qr_scan", "android": "https://dc.lft.to/lastmile_qr_scan"}}, {"name": "9e7f0c54ab947f41f73da72f01e4fe25", "fusion_lat": 0.0, "type": "electric_scooter", "lat": 38.9203745, "is_reserved": 0, "is_disabled": 0, "fusion_lon": 0.0, "bike_id": "9e7f0c54ab947f41f73da72f01e4fe25", "lon": -77.02585983333333, "rental_uris": {"ios": "https://dc.lft.to/lastmile_qr_scan", "android": "https://dc.lft.to/lastmile_qr_scan"}}, {"name": "2a4751973db0574e5c469dcd1d967f69", "fusion_lat": 0.0, "type": "electric_scooter", "lat": 38.941766333333334, "is_reserved": 0, "is_disabled": 0, "fusion_lon": 0.0, "bike_id": "2a4751973db0574e5c469dcd1d967f69", "lon": -77.02512133333333, "rental_uris": {"ios": "https://dc.lft.to/lastmile_qr_scan", "android": "https://dc.lft.to/lastmile_qr_scan"}}, {"name": "bedd17437b2f941b79fabecfdfb9d129", "fusion_lat": 0.0, "type": "electric_scooter", "lat": 38.85847316666667, "is_reserved": 0, "is_disabled": 0, "fusion_lon": 0.0, "bike_id": "bedd17437b2f941b79fabecfdfb9d129", "lon": -76.9588555, "rental_uris": {"ios": "https://dc.lft.to/lastmile_qr_scan", "android": "https://dc.lft.to/lastmile_qr_scan"}}, {"name": "884d2dbcc661f766679156e92078659e", "fusion_lat": 0.0, "type": "electric_bike", "lat": 38.941976833333335, "is_reserved": 0, "is_disabled": 0, "fusion_lon": 0.0, "bike_id": "884d2dbcc661f766679156e92078659e", "lon": -77.03281616666666, "rental_uris": {"ios": "https://dc.lft.to/lastmile_qr_scan", "android": "https://dc.lft.to/lastmile_qr_scan"}}, {"name": "715a138cb33e83efcf0e868f84fb53cb", "fusion_lat": 0.0, "type": "electric_scooter", "lat": 38.93056333333333, "is_reserved": 0, "is_disabled": 0, "fusion_lon": 0.0, "bike_id": "715a138cb33e83efcf0e868f84fb53cb", "lon": -77.02319533333333, "rental_uris": {"ios": "https://dc.lft.to/lastmile_qr_scan", "android": "https://dc.lft.to/lastmile_qr_scan"}}, {"name": "13fbfde4f869c42e8525c2dd91541ee0", "fusion_lat": 0.0, "type": "electric_bike", "lat": 38.93582166666667, "is_reserved": 0, "is_disabled": 0, "fusion_lon": 0.0, "bike_id": "13fbfde4f869c42e8525c2dd91541ee0", "lon": -77.10687616666667, "rental_uris": {"ios": "https://dc.lft.to/lastmile_qr_scan", "android": "https://dc.lft.to/lastmile_qr_scan"}}, {"name": "54e392af3e1a9fdbe9287dbeadd781d3", "fusion_lat": 0.0, "type": "electric_scooter", "lat": 38.899979, "is_reserved": 0, "is_disabled": 0, "fusion_lon": 0.0, "bike_id": "54e392af3e1a9fdbe9287dbeadd781d3", "lon": -77.01908283333333, "rental_uris": {"ios": "https://dc.lft.to/lastmile_qr_scan", "android": "https://dc.lft.to/lastmile_qr_scan"}}, {"name": "46dc436e9284114a92dd5229f548f513", "fusion_lat": 0.0, "type": "electric_scooter", "lat": 38.93726183333333, "is_reserved": 0, "is_disabled": 0, "fusion_lon": 0.0, "bike_id": "46dc436e9284114a92dd5229f548f513", "lon": -77.03262583333333, "rental_uris": {"ios": "https://dc.lft.to/lastmile_qr_scan", "android": "https://dc.lft.to/lastmile_qr_scan"}}, {"name": "03284fff6d6fabc55741742662c1251f", "fusion_lat": 0.0, "type": "electric_scooter", "lat": 38.91192683333333, "is_reserved": 0, "is_disabled": 0, "fusion_lon": 0.0, "bike_id": "03284fff6d6fabc55741742662c1251f", "lon": -77.0321505, "rental_uris": {"ios": "https://dc.lft.to/lastmile_qr_scan", "android": "https://dc.lft.to/lastmile_qr_scan"}}, {"name": "f05ffd186f6d1eb953bd7b1c430d2a50", "fusion_lat": 0.0, "type": "electric_scooter", "lat": 38.9254825, "is_reserved": 0, "is_disabled": 0, "fusion_lon": 0.0, "bike_id": "f05ffd186f6d1eb953bd7b1c430d2a50", "lon": -77.032602, "rental_uris": {"ios": "https://dc.lft.to/lastmile_qr_scan", "android": "https://dc.lft.to/lastmile_qr_scan"}}, {"name": "c4e0f795e2530be689dd161ee4220451", "fusion_lat": 0.0, "type": "electric_scooter", "lat": 38.90282033333333, "is_reserved": 0, "is_disabled": 0, "fusion_lon": 0.0, "bike_id": "c4e0f795e2530be689dd161ee4220451", "lon": -77.04261183333334, "rental_uris": {"ios": "https://dc.lft.to/lastmile_qr_scan", "android": "https://dc.lft.to/lastmile_qr_scan"}}, {"name": "ed74e87a9bf7daf005c6e3cb6b99a876", "fusion_lat": 0.0, "type": "electric_scooter", "lat": 38.90506166666667, "is_reserved": 0, "is_disabled": 0, "fusion_lon": 0.0, "bike_id": "ed74e87a9bf7daf005c6e3cb6b99a876", "lon": -77.066811, "rental_uris": {"ios": "https://dc.lft.to/lastmile_qr_scan", "android": "https://dc.lft.to/lastmile_qr_scan"}}, {"name": "0fd4c808b85ea4d4eb5e8a61051984ee", "fusion_lat": 0.0, "type": "electric_scooter", "lat": 38.91258333333333, "is_reserved": 0, "is_disabled": 0, "fusion_lon": 0.0, "bike_id": "0fd4c808b85ea4d4eb5e8a61051984ee", "lon": -77.00767966666666, "rental_uris": {"ios": "https://dc.lft.to/lastmile_qr_scan", "android": "https://dc.lft.to/lastmile_qr_scan"}}, {"name": "06cd6e35825f195279f00a8192387984", "fusion_lat": 0.0, "type": "electric_scooter", "lat": 38.94465183333333, "is_reserved": 0, "is_disabled": 0, "fusion_lon": 0.0, "bike_id": "06cd6e35825f195279f00a8192387984", "lon": -77.00660183333333, "rental_uris": {"ios": "https://dc.lft.to/lastmile_qr_scan", "android": "https://dc.lft.to/lastmile_qr_scan"}}, {"name": "ed9aa17c1b9c7f51ca41ca28095f4e77", "fusion_lat": 0.0, "type": "electric_scooter", "lat": 38.88345016666667, "is_reserved": 0, "is_disabled": 0, "fusion_lon": 0.0, "bike_id": "ed9aa17c1b9c7f51ca41ca28095f4e77", "lon": -76.93644883333333, "rental_uris": {"ios": "https://dc.lft.to/lastmile_qr_scan", "android": "https://dc.lft.to/lastmile_qr_scan"}}, {"name": "ec53cfadf10dcaba518e57b1f1ea567b", "fusion_lat": 0.0, "type": "electric_scooter", "lat": 38.899425, "is_reserved": 0, "is_disabled": 0, "fusion_lon": 0.0, "bike_id": "ec53cfadf10dcaba518e57b1f1ea567b", "lon": -77.0280205, "rental_uris": {"ios": "https://dc.lft.to/lastmile_qr_scan", "android": "https://dc.lft.to/lastmile_qr_scan"}}, {"name": "01e76117aac44a05dc6dc4a4309060b8", "fusion_lat": 0.0, "type": "electric_scooter", "lat": 38.92707883333333, "is_reserved": 0, "is_disabled": 0, "fusion_lon": 0.0, "bike_id": "01e76117aac44a05dc6dc4a4309060b8", "lon": -77.0372905, "rental_uris": {"ios": "https://dc.lft.to/lastmile_qr_scan", "android": "https://dc.lft.to/lastmile_qr_scan"}}, {"name": "8b19154e1040604c1ad9a6f86e0c8c7e", "fusion_lat": 0.0, "type": "electric_scooter", "lat": 38.912962, "is_reserved": 0, "is_disabled": 0, "fusion_lon": 0.0, "bike_id": "8b19154e1040604c1ad9a6f86e0c8c7e", "lon": -77.02975566666667, "rental_uris": {"ios": "https://dc.lft.to/lastmile_qr_scan", "android": "https://dc.lft.to/lastmile_qr_scan"}}, {"name": "aabf409e528d6db4ab50b821277da433", "fusion_lat": 0.0, "type": "electric_bike", "lat": 38.953013, "is_reserved": 0, "is_disabled": 0, "fusion_lon": 0.0, "bike_id": "aabf409e528d6db4ab50b821277da433", "lon": -77.025094, "rental_uris": {"ios": "https://dc.lft.to/lastmile_qr_scan", "android": "https://dc.lft.to/lastmile_qr_scan"}}, {"name": "0ed7b96109cd22a9cff00f0af483d9b2", "fusion_lat": 0.0, "type": "electric_scooter", "lat": 38.918156, "is_reserved": 0, "is_disabled": 0, "fusion_lon": 0.0, "bike_id": "0ed7b96109cd22a9cff00f0af483d9b2", "lon": -77.00258333333333, "rental_uris": {"ios": "https://dc.lft.to/lastmile_qr_scan", "android": "https://dc.lft.to/lastmile_qr_scan"}}, {"name": "92fed1a3f89b4b62e17a10c76b4a2d66", "fusion_lat": 0.0, "type": "electric_scooter", "lat": 38.89584, "is_reserved": 0, "is_disabled": 0, "fusion_lon": 0.0, "bike_id": "92fed1a3f89b4b62e17a10c76b4a2d66", "lon": -77.04331433333333, "rental_uris": {"ios": "https://dc.lft.to/lastmile_qr_scan", "android": "https://dc.lft.to/lastmile_qr_scan"}}, {"name": "eab1cf8d0b79733c8e8c4483cbdc5288", "fusion_lat": 0.0, "type": "electric_scooter", "lat": 38.934558833333334, "is_reserved": 0, "is_disabled": 0, "fusion_lon": 0.0, "bike_id": "eab1cf8d0b79733c8e8c4483cbdc5288", "lon": -77.02915883333333, "rental_uris": {"ios": "https://dc.lft.to/lastmile_qr_scan", "android": "https://dc.lft.to/lastmile_qr_scan"}}, {"name": "bc3311a5c9d6c991af18ae16894d7334", "fusion_lat": 0.0, "type": "electric_scooter", "lat": 38.923657166666665, "is_reserved": 0, "is_disabled": 0, "fusion_lon": 0.0, "bike_id": "bc3311a5c9d6c991af18ae16894d7334", "lon": -77.051289, "rental_uris": {"ios": "https://dc.lft.to/lastmile_qr_scan", "android": "https://dc.lft.to/lastmile_qr_scan"}}, {"name": "5a401fd702c16dbcd20d6548ee5f09b8", "fusion_lat": 0.0, "type": "electric_scooter", "lat": 38.90263516666667, "is_reserved": 0, "is_disabled": 0, "fusion_lon": 0.0, "bike_id": "5a401fd702c16dbcd20d6548ee5f09b8", "lon": -77.04359833333334, "rental_uris": {"ios": "https://dc.lft.to/lastmile_qr_scan", "android": "https://dc.lft.to/lastmile_qr_scan"}}, {"name": "d22b2fcbfbfd6401f30b41ee2d5f2dca", "fusion_lat": 0.0, "type": "electric_scooter", "lat": 38.86072716666666, "is_reserved": 0, "is_disabled": 0, "fusion_lon": 0.0, "bike_id": "d22b2fcbfbfd6401f30b41ee2d5f2dca", "lon": -76.9675025, "rental_uris": {"ios": "https://dc.lft.to/lastmile_qr_scan", "android": "https://dc.lft.to/lastmile_qr_scan"}}, {"name": "81432c20008e88817ff7df5759bd0fcc", "fusion_lat": 0.0, "type": "electric_scooter", "lat": 38.914086, "is_reserved": 0, "is_disabled": 0, "fusion_lon": 0.0, "bike_id": "81432c20008e88817ff7df5759bd0fcc", "lon": -77.013243, "rental_uris": {"ios": "https://dc.lft.to/lastmile_qr_scan", "android": "https://dc.lft.to/lastmile_qr_scan"}}, {"name": "f57aa22f56033ba52b43e37d2fcfc22f", "fusion_lat": 0.0, "type": "electric_scooter", "lat": 38.92203283333333, "is_reserved": 0, "is_disabled": 0, "fusion_lon": 0.0, "bike_id": "f57aa22f56033ba52b43e37d2fcfc22f", "lon": -77.043117, "rental_uris": {"ios": "https://dc.lft.to/lastmile_qr_scan", "android": "https://dc.lft.to/lastmile_qr_scan"}}, {"name": "06c0163215a3956adf7c02a300581ada", "fusion_lat": 0.0, "type": "electric_scooter", "lat": 38.91704516666667, "is_reserved": 0, "is_disabled": 0, "fusion_lon": 0.0, "bike_id": "06c0163215a3956adf7c02a300581ada", "lon": -77.0314055, "rental_uris": {"ios": "https://dc.lft.to/lastmile_qr_scan", "android": "https://dc.lft.to/lastmile_qr_scan"}}, {"name": "1414424e9d511e645a134e3c3ee7409f", "fusion_lat": 0.0, "type": "electric_scooter", "lat": 38.9324615, "is_reserved": 0, "is_disabled": 0, "fusion_lon": 0.0, "bike_id": "1414424e9d511e645a134e3c3ee7409f", "lon": -77.02024466666667, "rental_uris": {"ios": "https://dc.lft.to/lastmile_qr_scan", "android": "https://dc.lft.to/lastmile_qr_scan"}}, {"name": "ae5f35d6b8d580dd9be6c9cd0fd35205", "fusion_lat": 0.0, "type": "electric_scooter", "lat": 38.88599833333333, "is_reserved": 0, "is_disabled": 0, "fusion_lon": 0.0, "bike_id": "ae5f35d6b8d580dd9be6c9cd0fd35205", "lon": -77.02183233333334, "rental_uris": {"ios": "https://dc.lft.to/lastmile_qr_scan", "android": "https://dc.lft.to/lastmile_qr_scan"}}, {"name": "549dec2189327eb315ec7f9f549b2382", "fusion_lat": 0.0, "type": "electric_scooter", "lat": 38.903751166666666, "is_reserved": 0, "is_disabled": 0, "fusion_lon": 0.0, "bike_id": "549dec2189327eb315ec7f9f549b2382", "lon": -77.04904083333334, "rental_uris": {"ios": "https://dc.lft.to/lastmile_qr_scan", "android": "https://dc.lft.to/lastmile_qr_scan"}}, {"name": "aee4b25817aec39f1ea273b05c1c8616", "fusion_lat": 0.0, "type": "electric_scooter", "lat": 38.917023666666665, "is_reserved": 0, "is_disabled": 0, "fusion_lon": 0.0, "bike_id": "aee4b25817aec39f1ea273b05c1c8616", "lon": -77.01257216666667, "rental_uris": {"ios": "https://dc.lft.to/lastmile_qr_scan", "android": "https://dc.lft.to/lastmile_qr_scan"}}, {"name": "c33b864dd984e9af54d5d2f5b8a277ff", "fusion_lat": 0.0, "type": "electric_scooter", "lat": 38.916805333333336, "is_reserved": 0, "is_disabled": 0, "fusion_lon": 0.0, "bike_id": "c33b864dd984e9af54d5d2f5b8a277ff", "lon": -77.02968766666666, "rental_uris": {"ios": "https://dc.lft.to/lastmile_qr_scan", "android": "https://dc.lft.to/lastmile_qr_scan"}}, {"name": "3df88cc64c932f74e63ebfebacdbfb7c", "fusion_lat": 0.0, "type": "electric_scooter", "lat": 38.901383333333335, "is_reserved": 0, "is_disabled": 0, "fusion_lon": 0.0, "bike_id": "3df88cc64c932f74e63ebfebacdbfb7c", "lon": -76.98954083333334, "rental_uris": {"ios": "https://dc.lft.to/lastmile_qr_scan", "android": "https://dc.lft.to/lastmile_qr_scan"}}, {"name": "d6050707e7cb6a31f75e6a5ae4946235", "fusion_lat": 0.0, "type": "electric_scooter", "lat": 38.9456175, "is_reserved": 0, "is_disabled": 0, "fusion_lon": 0.0, "bike_id": "d6050707e7cb6a31f75e6a5ae4946235", "lon": -77.07771683333333, "rental_uris": {"ios": "https://dc.lft.to/lastmile_qr_scan", "android": "https://dc.lft.to/lastmile_qr_scan"}}, {"name": "f2dfdf9c642b49bf0251343a146bb188", "fusion_lat": 0.0, "type": "electric_scooter", "lat": 38.892253, "is_reserved": 0, "is_disabled": 0, "fusion_lon": 0.0, "bike_id": "f2dfdf9c642b49bf0251343a146bb188", "lon": -77.05005216666666, "rental_uris": {"ios": "https://dc.lft.to/lastmile_qr_scan", "android": "https://dc.lft.to/lastmile_qr_scan"}}, {"name": "28897b476144e2088014c8647f6c1486", "fusion_lat": 0.0, "type": "electric_scooter", "lat": 38.906409, "is_reserved": 0, "is_disabled": 0, "fusion_lon": 0.0, "bike_id": "28897b476144e2088014c8647f6c1486", "lon": -77.041396, "rental_uris": {"ios": "https://dc.lft.to/lastmile_qr_scan", "android": "https://dc.lft.to/lastmile_qr_scan"}}, {"name": "817a21657fbdab1537e174419b411ffc", "fusion_lat": 0.0, "type": "electric_bike", "lat": 38.8427395, "is_reserved": 0, "is_disabled": 0, "fusion_lon": 0.0, "bike_id": "817a21657fbdab1537e174419b411ffc", "lon": -76.98839916666667, "rental_uris": {"ios": "https://dc.lft.to/lastmile_qr_scan", "android": "https://dc.lft.to/lastmile_qr_scan"}}, {"name": "d0d0ff631ef8db55ef834f4a5c7a666a", "fusion_lat": 0.0, "type": "electric_scooter", "lat": 38.9139885, "is_reserved": 0, "is_disabled": 0, "fusion_lon": 0.0, "bike_id": "d0d0ff631ef8db55ef834f4a5c7a666a", "lon": -77.04173483333334, "rental_uris": {"ios": "https://dc.lft.to/lastmile_qr_scan", "android": "https://dc.lft.to/lastmile_qr_scan"}}, {"name": "dd1c708fafa873026e8191854d7ffb68", "fusion_lat": 0.0, "type": "electric_scooter", "lat": 38.877581, "is_reserved": 0, "is_disabled": 0, "fusion_lon": 0.0, "bike_id": "dd1c708fafa873026e8191854d7ffb68", "lon": -77.02004583333333, "rental_uris": {"ios": "https://dc.lft.to/lastmile_qr_scan", "android": "https://dc.lft.to/lastmile_qr_scan"}}, {"name": "f9d120d26cb06e5f12261a47a995b719", "fusion_lat": 0.0, "type": "electric_scooter", "lat": 38.90617066666667, "is_reserved": 0, "is_disabled": 0, "fusion_lon": 0.0, "bike_id": "f9d120d26cb06e5f12261a47a995b719", "lon": -77.0069485, "rental_uris": {"ios": "https://dc.lft.to/lastmile_qr_scan", "android": "https://dc.lft.to/lastmile_qr_scan"}}, {"name": "df9cb115134916e26d06982ba47aa099", "fusion_lat": 0.0, "type": "electric_scooter", "lat": 38.878936, "is_reserved": 0, "is_disabled": 0, "fusion_lon": 0.0, "bike_id": "df9cb115134916e26d06982ba47aa099", "lon": -77.005625, "rental_uris": {"ios": "https://dc.lft.to/lastmile_qr_scan", "android": "https://dc.lft.to/lastmile_qr_scan"}}, {"name": "3e294d82194b830fc75a79e0d6a03b09", "fusion_lat": 0.0, "type": "electric_scooter", "lat": 38.902731, "is_reserved": 0, "is_disabled": 0, "fusion_lon": 0.0, "bike_id": "3e294d82194b830fc75a79e0d6a03b09", "lon": -77.06271683333334, "rental_uris": {"ios": "https://dc.lft.to/lastmile_qr_scan", "android": "https://dc.lft.to/lastmile_qr_scan"}}, {"name": "d2527d4ce77adde92d17fee7db698c63", "fusion_lat": 0.0, "type": "electric_scooter", "lat": 38.87905516666667, "is_reserved": 0, "is_disabled": 0, "fusion_lon": 0.0, "bike_id": "d2527d4ce77adde92d17fee7db698c63", "lon": -77.0215665, "rental_uris": {"ios": "https://dc.lft.to/lastmile_qr_scan", "android": "https://dc.lft.to/lastmile_qr_scan"}}, {"name": "d0011272f681713954eddfab17de6cf6", "fusion_lat": 0.0, "type": "electric_bike", "lat": 38.917698, "is_reserved": 0, "is_disabled": 0, "fusion_lon": 0.0, "bike_id": "d0011272f681713954eddfab17de6cf6", "lon": -76.97326366666667, "rental_uris": {"ios": "https://dc.lft.to/lastmile_qr_scan", "android": "https://dc.lft.to/lastmile_qr_scan"}}, {"name": "903eace6b3988548888b4bc24be95088", "fusion_lat": 0.0, "type": "electric_scooter", "lat": 38.910482, "is_reserved": 0, "is_disabled": 0, "fusion_lon": 0.0, "bike_id": "903eace6b3988548888b4bc24be95088", "lon": -77.0435285, "rental_uris": {"ios": "https://dc.lft.to/lastmile_qr_scan", "android": "https://dc.lft.to/lastmile_qr_scan"}}, {"name": "d8c8cd157acac3095c5797f1513b3299", "fusion_lat": 0.0, "type": "electric_scooter", "lat": 38.842918, "is_reserved": 0, "is_disabled": 0, "fusion_lon": 0.0, "bike_id": "d8c8cd157acac3095c5797f1513b3299", "lon": -76.99948283333333, "rental_uris": {"ios": "https://dc.lft.to/lastmile_qr_scan", "android": "https://dc.lft.to/lastmile_qr_scan"}}, {"name": "4eb04db7e57021dcc519d3fa0213f1f4", "fusion_lat": 0.0, "type": "electric_bike", "lat": 38.824461166666666, "is_reserved": 0, "is_disabled": 0, "fusion_lon": 0.0, "bike_id": "4eb04db7e57021dcc519d3fa0213f1f4", "lon": -77.07047316666667, "rental_uris": {"ios": "https://dc.lft.to/lastmile_qr_scan", "android": "https://dc.lft.to/lastmile_qr_scan"}}, {"name": "90f8bcf881e19fc0c3c7ec91e115864e", "fusion_lat": 0.0, "type": "electric_scooter", "lat": 38.884328333333336, "is_reserved": 0, "is_disabled": 0, "fusion_lon": 0.0, "bike_id": "90f8bcf881e19fc0c3c7ec91e115864e", "lon": -77.03055066666667, "rental_uris": {"ios": "https://dc.lft.to/lastmile_qr_scan", "android": "https://dc.lft.to/lastmile_qr_scan"}}, {"name": "09b6dad894453da51344e1332b5675cc", "fusion_lat": 0.0, "type": "electric_scooter", "lat": 38.918071166666664, "is_reserved": 0, "is_disabled": 0, "fusion_lon": 0.0, "bike_id": "09b6dad894453da51344e1332b5675cc", "lon": -77.03434166666666, "rental_uris": {"ios": "https://dc.lft.to/lastmile_qr_scan", "android": "https://dc.lft.to/lastmile_qr_scan"}}, {"name": "61ec55398c09bc85eeb92f75966d4719", "fusion_lat": 0.0, "type": "electric_scooter", "lat": 38.921994166666664, "is_reserved": 0, "is_disabled": 0, "fusion_lon": 0.0, "bike_id": "61ec55398c09bc85eeb92f75966d4719", "lon": -77.04130733333334, "rental_uris": {"ios": "https://dc.lft.to/lastmile_qr_scan", "android": "https://dc.lft.to/lastmile_qr_scan"}}, {"name": "cb35b2fc8aba78696a014bd54cc2b520", "fusion_lat": 0.0, "type": "electric_scooter", "lat": 38.90285, "is_reserved": 0, "is_disabled": 0, "fusion_lon": 0.0, "bike_id": "cb35b2fc8aba78696a014bd54cc2b520", "lon": -77.05798433333334, "rental_uris": {"ios": "https://dc.lft.to/lastmile_qr_scan", "android": "https://dc.lft.to/lastmile_qr_scan"}}, {"name": "0e23db9adbd6688776040c6f2fa98472", "fusion_lat": 0.0, "type": "electric_scooter", "lat": 38.90645083333333, "is_reserved": 0, "is_disabled": 0, "fusion_lon": 0.0, "bike_id": "0e23db9adbd6688776040c6f2fa98472", "lon": -76.98567866666667, "rental_uris": {"ios": "https://dc.lft.to/lastmile_qr_scan", "android": "https://dc.lft.to/lastmile_qr_scan"}}, {"name": "a2a46add7acf2441fee520d49267092b", "fusion_lat": 0.0, "type": "electric_scooter", "lat": 38.923128166666665, "is_reserved": 0, "is_disabled": 0, "fusion_lon": 0.0, "bike_id": "a2a46add7acf2441fee520d49267092b", "lon": -77.02980383333333, "rental_uris": {"ios": "https://dc.lft.to/lastmile_qr_scan", "android": "https://dc.lft.to/lastmile_qr_scan"}}, {"name": "0faa3bd764e7f847cefa1e9ce3f1a135", "fusion_lat": 0.0, "type": "electric_scooter", "lat": 38.93190966666667, "is_reserved": 0, "is_disabled": 0, "fusion_lon": 0.0, "bike_id": "0faa3bd764e7f847cefa1e9ce3f1a135", "lon": -77.02578683333333, "rental_uris": {"ios": "https://dc.lft.to/lastmile_qr_scan", "android": "https://dc.lft.to/lastmile_qr_scan"}}, {"name": "f9193a81784a65312bc5926fb1816501", "fusion_lat": 0.0, "type": "electric_scooter", "lat": 38.889925166666664, "is_reserved": 0, "is_disabled": 0, "fusion_lon": 0.0, "bike_id": "f9193a81784a65312bc5926fb1816501", "lon": -76.95415233333334, "rental_uris": {"ios": "https://dc.lft.to/lastmile_qr_scan", "android": "https://dc.lft.to/lastmile_qr_scan"}}, {"name": "12e6792e525a7694d056fbfdc48a567b", "fusion_lat": 0.0, "type": "electric_scooter", "lat": 38.902596333333335, "is_reserved": 0, "is_disabled": 0, "fusion_lon": 0.0, "bike_id": "12e6792e525a7694d056fbfdc48a567b", "lon": -77.04349716666667, "rental_uris": {"ios": "https://dc.lft.to/lastmile_qr_scan", "android": "https://dc.lft.to/lastmile_qr_scan"}}, {"name": "d76265e79b8876d5c159b14a4dd8843e", "fusion_lat": 0.0, "type": "electric_bike", "lat": 38.8552895, "is_reserved": 0, "is_disabled": 0, "fusion_lon": 0.0, "bike_id": "d76265e79b8876d5c159b14a4dd8843e", "lon": -77.107096, "rental_uris": {"ios": "https://dc.lft.to/lastmile_qr_scan", "android": "https://dc.lft.to/lastmile_qr_scan"}}, {"name": "9ca94b99b60cac738a1da2919eda2d62", "fusion_lat": 0.0, "type": "electric_scooter", "lat": 38.912158, "is_reserved": 0, "is_disabled": 0, "fusion_lon": 0.0, "bike_id": "9ca94b99b60cac738a1da2919eda2d62", "lon": -77.0758945, "rental_uris": {"ios": "https://dc.lft.to/lastmile_qr_scan", "android": "https://dc.lft.to/lastmile_qr_scan"}}, {"name": "ec883e51f74a5e16c4e4a45a2340bede", "fusion_lat": 0.0, "type": "electric_scooter", "lat": 38.905187833333336, "is_reserved": 0, "is_disabled": 0, "fusion_lon": 0.0, "bike_id": "ec883e51f74a5e16c4e4a45a2340bede", "lon": -77.05112433333333, "rental_uris": {"ios": "https://dc.lft.to/lastmile_qr_scan", "android": "https://dc.lft.to/lastmile_qr_scan"}}, {"name": "47f23440bf778cb933c115fafe226fe4", "fusion_lat": 0.0, "type": "electric_scooter", "lat": 38.89485366666667, "is_reserved": 0, "is_disabled": 0, "fusion_lon": 0.0, "bike_id": "47f23440bf778cb933c115fafe226fe4", "lon": -76.94872483333333, "rental_uris": {"ios": "https://dc.lft.to/lastmile_qr_scan", "android": "https://dc.lft.to/lastmile_qr_scan"}}, {"name": "a9dc6bffcff0bec66a49a085049dafc2", "fusion_lat": 0.0, "type": "electric_scooter", "lat": 38.8991045, "is_reserved": 0, "is_disabled": 0, "fusion_lon": 0.0, "bike_id": "a9dc6bffcff0bec66a49a085049dafc2", "lon": -77.07089283333333, "rental_uris": {"ios": "https://dc.lft.to/lastmile_qr_scan", "android": "https://dc.lft.to/lastmile_qr_scan"}}, {"name": "568252944c3f4ed1bc62bf03444c815b", "fusion_lat": 0.0, "type": "electric_bike", "lat": 38.93412333333333, "is_reserved": 0, "is_disabled": 0, "fusion_lon": 0.0, "bike_id": "568252944c3f4ed1bc62bf03444c815b", "lon": -77.02506866666667, "rental_uris": {"ios": "https://dc.lft.to/lastmile_qr_scan", "android": "https://dc.lft.to/lastmile_qr_scan"}}, {"name": "7833e69118c50ee85d09660ac6ef5111", "fusion_lat": 0.0, "type": "electric_scooter", "lat": 38.91192016666667, "is_reserved": 0, "is_disabled": 0, "fusion_lon": 0.0, "bike_id": "7833e69118c50ee85d09660ac6ef5111", "lon": -77.06093366666667, "rental_uris": {"ios": "https://dc.lft.to/lastmile_qr_scan", "android": "https://dc.lft.to/lastmile_qr_scan"}}, {"name": "aff4cae74e98b233be90df345143fe78", "fusion_lat": 0.0, "type": "electric_scooter", "lat": 38.90940883333333, "is_reserved": 0, "is_disabled": 0, "fusion_lon": 0.0, "bike_id": "aff4cae74e98b233be90df345143fe78", "lon": -77.03847783333333, "rental_uris": {"ios": "https://dc.lft.to/lastmile_qr_scan", "android": "https://dc.lft.to/lastmile_qr_scan"}}, {"name": "a575a5b02dfae6597539d7a8260d7a2b", "fusion_lat": 0.0, "type": "electric_scooter", "lat": 38.90159666666667, "is_reserved": 0, "is_disabled": 0, "fusion_lon": 0.0, "bike_id": "a575a5b02dfae6597539d7a8260d7a2b", "lon": -77.0540215, "rental_uris": {"ios": "https://dc.lft.to/lastmile_qr_scan", "android": "https://dc.lft.to/lastmile_qr_scan"}}, {"name": "0197ef39155f9bdf6a4b97f77378c085", "fusion_lat": 0.0, "type": "electric_bike", "lat": 39.06133033333333, "is_reserved": 0, "is_disabled": 0, "fusion_lon": 0.0, "bike_id": "0197ef39155f9bdf6a4b97f77378c085", "lon": -77.05065033333334, "rental_uris": {"ios": "https://dc.lft.to/lastmile_qr_scan", "android": "https://dc.lft.to/lastmile_qr_scan"}}, {"name": "64768116982beed53199504b9edf0615", "fusion_lat": 0.0, "type": "electric_scooter", "lat": 38.938903, "is_reserved": 0, "is_disabled": 0, "fusion_lon": 0.0, "bike_id": "64768116982beed53199504b9edf0615", "lon": -77.032641, "rental_uris": {"ios": "https://dc.lft.to/lastmile_qr_scan", "android": "https://dc.lft.to/lastmile_qr_scan"}}, {"name": "398261885fe20af09174a8cd547cae57", "fusion_lat": 0.0, "type": "electric_scooter", "lat": 38.90544666666667, "is_reserved": 0, "is_disabled": 0, "fusion_lon": 0.0, "bike_id": "398261885fe20af09174a8cd547cae57", "lon": -77.06248983333333, "rental_uris": {"ios": "https://dc.lft.to/lastmile_qr_scan", "android": "https://dc.lft.to/lastmile_qr_scan"}}, {"name": "44cd9531d876cc01fa39ee6745286742", "fusion_lat": 0.0, "type": "electric_scooter", "lat": 38.91809166666667, "is_reserved": 0, "is_disabled": 0, "fusion_lon": 0.0, "bike_id": "44cd9531d876cc01fa39ee6745286742", "lon": -77.01017116666667, "rental_uris": {"ios": "https://dc.lft.to/lastmile_qr_scan", "android": "https://dc.lft.to/lastmile_qr_scan"}}, {"name": "e855c5d026b0e3d35952e654e5dc07fc", "fusion_lat": 0.0, "type": "electric_scooter", "lat": 38.939042, "is_reserved": 0, "is_disabled": 0, "fusion_lon": 0.0, "bike_id": "e855c5d026b0e3d35952e654e5dc07fc", "lon": -77.0604005, "rental_uris": {"ios": "https://dc.lft.to/lastmile_qr_scan", "android": "https://dc.lft.to/lastmile_qr_scan"}}, {"name": "ffade08ebdb17eea534c08b5667ce86e", "fusion_lat": 0.0, "type": "electric_scooter", "lat": 38.938962833333335, "is_reserved": 0, "is_disabled": 0, "fusion_lon": 0.0, "bike_id": "ffade08ebdb17eea534c08b5667ce86e", "lon": -77.0175695, "rental_uris": {"ios": "https://dc.lft.to/lastmile_qr_scan", "android": "https://dc.lft.to/lastmile_qr_scan"}}, {"name": "f5782446b9180764d76c2ccff5ff398c", "fusion_lat": 0.0, "type": "electric_scooter", "lat": 38.91171883333333, "is_reserved": 0, "is_disabled": 0, "fusion_lon": 0.0, "bike_id": "f5782446b9180764d76c2ccff5ff398c", "lon": -76.98773016666667, "rental_uris": {"ios": "https://dc.lft.to/lastmile_qr_scan", "android": "https://dc.lft.to/lastmile_qr_scan"}}, {"name": "18850c860d93c1b824ad45dda7483cb8", "fusion_lat": 0.0, "type": "electric_scooter", "lat": 38.9155875, "is_reserved": 0, "is_disabled": 0, "fusion_lon": 0.0, "bike_id": "18850c860d93c1b824ad45dda7483cb8", "lon": -77.032407, "rental_uris": {"ios": "https://dc.lft.to/lastmile_qr_scan", "android": "https://dc.lft.to/lastmile_qr_scan"}}, {"name": "19f676e3449abb51177d730c6f6a7100", "fusion_lat": 0.0, "type": "electric_scooter", "lat": 38.892230166666664, "is_reserved": 0, "is_disabled": 0, "fusion_lon": 0.0, "bike_id": "19f676e3449abb51177d730c6f6a7100", "lon": -77.02229583333333, "rental_uris": {"ios": "https://dc.lft.to/lastmile_qr_scan", "android": "https://dc.lft.to/lastmile_qr_scan"}}, {"name": "842d99b1b009e0fea7506899c9e91db4", "fusion_lat": 0.0, "type": "electric_scooter", "lat": 38.91286916666667, "is_reserved": 0, "is_disabled": 0, "fusion_lon": 0.0, "bike_id": "842d99b1b009e0fea7506899c9e91db4", "lon": -76.93804266666666, "rental_uris": {"ios": "https://dc.lft.to/lastmile_qr_scan", "android": "https://dc.lft.to/lastmile_qr_scan"}}, {"name": "bda99652992906fca889c20a6a17ff1e", "fusion_lat": 0.0, "type": "electric_scooter", "lat": 38.91749033333333, "is_reserved": 0, "is_disabled": 0, "fusion_lon": 0.0, "bike_id": "bda99652992906fca889c20a6a17ff1e", "lon": -77.03637683333334, "rental_uris": {"ios": "https://dc.lft.to/lastmile_qr_scan", "android": "https://dc.lft.to/lastmile_qr_scan"}}, {"name": "c255763379b5730917f6bcce2a91951b", "fusion_lat": 0.0, "type": "electric_scooter", "lat": 38.89992816666667, "is_reserved": 0, "is_disabled": 0, "fusion_lon": 0.0, "bike_id": "c255763379b5730917f6bcce2a91951b", "lon": -77.03933883333333, "rental_uris": {"ios": "https://dc.lft.to/lastmile_qr_scan", "android": "https://dc.lft.to/lastmile_qr_scan"}}, {"name": "f0233d5b884fce00ea70c304edcadc20", "fusion_lat": 0.0, "type": "electric_scooter", "lat": 38.916957333333336, "is_reserved": 0, "is_disabled": 0, "fusion_lon": 0.0, "bike_id": "f0233d5b884fce00ea70c304edcadc20", "lon": -77.02609816666667, "rental_uris": {"ios": "https://dc.lft.to/lastmile_qr_scan", "android": "https://dc.lft.to/lastmile_qr_scan"}}, {"name": "f797b743e2e0d3ab18f3e5adcc7a0c6e", "fusion_lat": 0.0, "type": "electric_scooter", "lat": 38.92663683333333, "is_reserved": 0, "is_disabled": 0, "fusion_lon": 0.0, "bike_id": "f797b743e2e0d3ab18f3e5adcc7a0c6e", "lon": -76.9954125, "rental_uris": {"ios": "https://dc.lft.to/lastmile_qr_scan", "android": "https://dc.lft.to/lastmile_qr_scan"}}, {"name": "4b40f6f0cf793ea83c96a074952cf2de", "fusion_lat": 0.0, "type": "electric_scooter", "lat": 38.925949, "is_reserved": 0, "is_disabled": 0, "fusion_lon": 0.0, "bike_id": "4b40f6f0cf793ea83c96a074952cf2de", "lon": -77.008518, "rental_uris": {"ios": "https://dc.lft.to/lastmile_qr_scan", "android": "https://dc.lft.to/lastmile_qr_scan"}}, {"name": "ccdcba073305ced11c0980114ca0de76", "fusion_lat": 0.0, "type": "electric_scooter", "lat": 38.930337333333334, "is_reserved": 0, "is_disabled": 0, "fusion_lon": 0.0, "bike_id": "ccdcba073305ced11c0980114ca0de76", "lon": -77.0836495, "rental_uris": {"ios": "https://dc.lft.to/lastmile_qr_scan", "android": "https://dc.lft.to/lastmile_qr_scan"}}, {"name": "d82cd0f1be962d455492b483065b52b6", "fusion_lat": 0.0, "type": "electric_scooter", "lat": 38.918087, "is_reserved": 0, "is_disabled": 0, "fusion_lon": 0.0, "bike_id": "d82cd0f1be962d455492b483065b52b6", "lon": -77.03196466666667, "rental_uris": {"ios": "https://dc.lft.to/lastmile_qr_scan", "android": "https://dc.lft.to/lastmile_qr_scan"}}, {"name": "8436b6303aa16b0db9851a60d8e8e4ae", "fusion_lat": 0.0, "type": "electric_scooter", "lat": 38.9023025, "is_reserved": 0, "is_disabled": 0, "fusion_lon": 0.0, "bike_id": "8436b6303aa16b0db9851a60d8e8e4ae", "lon": -77.05124933333333, "rental_uris": {"ios": "https://dc.lft.to/lastmile_qr_scan", "android": "https://dc.lft.to/lastmile_qr_scan"}}, {"name": "6d4405df76a6c73822270c438f4cf6de", "fusion_lat": 0.0, "type": "electric_scooter", "lat": 38.924821, "is_reserved": 0, "is_disabled": 0, "fusion_lon": 0.0, "bike_id": "6d4405df76a6c73822270c438f4cf6de", "lon": -77.02999616666666, "rental_uris": {"ios": "https://dc.lft.to/lastmile_qr_scan", "android": "https://dc.lft.to/lastmile_qr_scan"}}, {"name": "e93ff5796a08d6ecb1c62ea7f117aa73", "fusion_lat": 0.0, "type": "electric_bike", "lat": 38.888285, "is_reserved": 0, "is_disabled": 0, "fusion_lon": 0.0, "bike_id": "e93ff5796a08d6ecb1c62ea7f117aa73", "lon": -77.12744033333334, "rental_uris": {"ios": "https://dc.lft.to/lastmile_qr_scan", "android": "https://dc.lft.to/lastmile_qr_scan"}}, {"name": "a6354a601ca025119cf5dcd34b6b4d5a", "fusion_lat": 0.0, "type": "electric_scooter", "lat": 38.8976725, "is_reserved": 0, "is_disabled": 0, "fusion_lon": 0.0, "bike_id": "a6354a601ca025119cf5dcd34b6b4d5a", "lon": -77.05144083333333, "rental_uris": {"ios": "https://dc.lft.to/lastmile_qr_scan", "android": "https://dc.lft.to/lastmile_qr_scan"}}, {"name": "852a564e06ad258b61ba69b180b5881a", "fusion_lat": 0.0, "type": "electric_scooter", "lat": 38.906241, "is_reserved": 0, "is_disabled": 0, "fusion_lon": 0.0, "bike_id": "852a564e06ad258b61ba69b180b5881a", "lon": -77.05138783333334, "rental_uris": {"ios": "https://dc.lft.to/lastmile_qr_scan", "android": "https://dc.lft.to/lastmile_qr_scan"}}, {"name": "a6ddfb5ec6533f38509e492a161eef9f", "fusion_lat": 0.0, "type": "electric_bike", "lat": 38.854943166666665, "is_reserved": 0, "is_disabled": 0, "fusion_lon": 0.0, "bike_id": "a6ddfb5ec6533f38509e492a161eef9f", "lon": -77.11524533333333, "rental_uris": {"ios": "https://dc.lft.to/lastmile_qr_scan", "android": "https://dc.lft.to/lastmile_qr_scan"}}, {"name": "fd396111c4a83932253e9cc006ceb4a6", "fusion_lat": 0.0, "type": "electric_scooter", "lat": 38.9045795, "is_reserved": 0, "is_disabled": 0, "fusion_lon": 0.0, "bike_id": "fd396111c4a83932253e9cc006ceb4a6", "lon": -76.98529066666667, "rental_uris": {"ios": "https://dc.lft.to/lastmile_qr_scan", "android": "https://dc.lft.to/lastmile_qr_scan"}}, {"name": "d194aaf7fdb2ac2be5556c6d32386816", "fusion_lat": 0.0, "type": "electric_scooter", "lat": 38.87672416666667, "is_reserved": 0, "is_disabled": 0, "fusion_lon": 0.0, "bike_id": "d194aaf7fdb2ac2be5556c6d32386816", "lon": -77.00757466666667, "rental_uris": {"ios": "https://dc.lft.to/lastmile_qr_scan", "android": "https://dc.lft.to/lastmile_qr_scan"}}, {"name": "e09cad85d32ac58aed3b31b89470e3c4", "fusion_lat": 0.0, "type": "electric_scooter", "lat": 38.921812, "is_reserved": 0, "is_disabled": 0, "fusion_lon": 0.0, "bike_id": "e09cad85d32ac58aed3b31b89470e3c4", "lon": -77.02416266666667, "rental_uris": {"ios": "https://dc.lft.to/lastmile_qr_scan", "android": "https://dc.lft.to/lastmile_qr_scan"}}, {"name": "2589851fb48f7f3d079b3146b6cec5cd", "fusion_lat": 0.0, "type": "electric_scooter", "lat": 38.91562533333333, "is_reserved": 0, "is_disabled": 0, "fusion_lon": 0.0, "bike_id": "2589851fb48f7f3d079b3146b6cec5cd", "lon": -77.03165833333334, "rental_uris": {"ios": "https://dc.lft.to/lastmile_qr_scan", "android": "https://dc.lft.to/lastmile_qr_scan"}}, {"name": "561b5cc0cdf8e7528ec9eacb88675b9b", "fusion_lat": 0.0, "type": "electric_scooter", "lat": 38.9417695, "is_reserved": 0, "is_disabled": 0, "fusion_lon": 0.0, "bike_id": "561b5cc0cdf8e7528ec9eacb88675b9b", "lon": -77.02510466666666, "rental_uris": {"ios": "https://dc.lft.to/lastmile_qr_scan", "android": "https://dc.lft.to/lastmile_qr_scan"}}, {"name": "2aec53c6f8f276e2971865315fc4e093", "fusion_lat": 0.0, "type": "electric_scooter", "lat": 38.9085285, "is_reserved": 0, "is_disabled": 0, "fusion_lon": 0.0, "bike_id": "2aec53c6f8f276e2971865315fc4e093", "lon": -77.0209255, "rental_uris": {"ios": "https://dc.lft.to/lastmile_qr_scan", "android": "https://dc.lft.to/lastmile_qr_scan"}}, {"name": "208730c1de7879cdda32922304e9d9b4", "fusion_lat": 0.0, "type": "electric_scooter", "lat": 38.8990795, "is_reserved": 0, "is_disabled": 0, "fusion_lon": 0.0, "bike_id": "208730c1de7879cdda32922304e9d9b4", "lon": -77.07092616666667, "rental_uris": {"ios": "https://dc.lft.to/lastmile_qr_scan", "android": "https://dc.lft.to/lastmile_qr_scan"}}, {"name": "6644874499b2ab989fec6326b58aa8e3", "fusion_lat": 0.0, "type": "electric_scooter", "lat": 38.8972755, "is_reserved": 0, "is_disabled": 0, "fusion_lon": 0.0, "bike_id": "6644874499b2ab989fec6326b58aa8e3", "lon": -77.00207, "rental_uris": {"ios": "https://dc.lft.to/lastmile_qr_scan", "android": "https://dc.lft.to/lastmile_qr_scan"}}, {"name": "b9474980b266760dfff5ebeb8497b2d3", "fusion_lat": 0.0, "type": "electric_bike", "lat": 38.9649265, "is_reserved": 0, "is_disabled": 0, "fusion_lon": 0.0, "bike_id": "b9474980b266760dfff5ebeb8497b2d3", "lon": -77.06491166666666, "rental_uris": {"ios": "https://dc.lft.to/lastmile_qr_scan", "android": "https://dc.lft.to/lastmile_qr_scan"}}, {"name": "ac7885daf923245be9cadfc935174b10", "fusion_lat": 0.0, "type": "electric_scooter", "lat": 38.921197166666666, "is_reserved": 0, "is_disabled": 0, "fusion_lon": 0.0, "bike_id": "ac7885daf923245be9cadfc935174b10", "lon": -77.04115183333333, "rental_uris": {"ios": "https://dc.lft.to/lastmile_qr_scan", "android": "https://dc.lft.to/lastmile_qr_scan"}}, {"name": "09e07341cb20c4665d0483a847b59deb", "fusion_lat": 0.0, "type": "electric_scooter", "lat": 38.906843333333335, "is_reserved": 0, "is_disabled": 0, "fusion_lon": 0.0, "bike_id": "09e07341cb20c4665d0483a847b59deb", "lon": -77.04138383333333, "rental_uris": {"ios": "https://dc.lft.to/lastmile_qr_scan", "android": "https://dc.lft.to/lastmile_qr_scan"}}, {"name": "590ed9de65109793c5adb618490069fa", "fusion_lat": 0.0, "type": "electric_scooter", "lat": 38.9027, "is_reserved": 0, "is_disabled": 0, "fusion_lon": 0.0, "bike_id": "590ed9de65109793c5adb618490069fa", "lon": -76.99853566666667, "rental_uris": {"ios": "https://dc.lft.to/lastmile_qr_scan", "android": "https://dc.lft.to/lastmile_qr_scan"}}, {"name": "813ed1f7bd7a3fffb831f374ffcbd335", "fusion_lat": 0.0, "type": "electric_scooter", "lat": 38.94233583333333, "is_reserved": 0, "is_disabled": 0, "fusion_lon": 0.0, "bike_id": "813ed1f7bd7a3fffb831f374ffcbd335", "lon": -77.01548066666666, "rental_uris": {"ios": "https://dc.lft.to/lastmile_qr_scan", "android": "https://dc.lft.to/lastmile_qr_scan"}}, {"name": "1b25c9599067966432dd6baa5376ebac", "fusion_lat": 0.0, "type": "electric_scooter", "lat": 38.8979245, "is_reserved": 0, "is_disabled": 0, "fusion_lon": 0.0, "bike_id": "1b25c9599067966432dd6baa5376ebac", "lon": -76.94416083333333, "rental_uris": {"ios": "https://dc.lft.to/lastmile_qr_scan", "android": "https://dc.lft.to/lastmile_qr_scan"}}, {"name": "524561293e1624bc9010f0e1a98fecd6", "fusion_lat": 0.0, "type": "electric_scooter", "lat": 38.93551, "is_reserved": 0, "is_disabled": 0, "fusion_lon": 0.0, "bike_id": "524561293e1624bc9010f0e1a98fecd6", "lon": -77.0341245, "rental_uris": {"ios": "https://dc.lft.to/lastmile_qr_scan", "android": "https://dc.lft.to/lastmile_qr_scan"}}, {"name": "389fe3b0e9a1ba70f339bcfe3bac6c0b", "fusion_lat": 0.0, "type": "electric_scooter", "lat": 38.912388666666665, "is_reserved": 0, "is_disabled": 0, "fusion_lon": 0.0, "bike_id": "389fe3b0e9a1ba70f339bcfe3bac6c0b", "lon": -77.00922266666667, "rental_uris": {"ios": "https://dc.lft.to/lastmile_qr_scan", "android": "https://dc.lft.to/lastmile_qr_scan"}}, {"name": "51deece245edfebe7678bf56b87f8f2c", "fusion_lat": 0.0, "type": "electric_scooter", "lat": 38.926002833333335, "is_reserved": 0, "is_disabled": 0, "fusion_lon": 0.0, "bike_id": "51deece245edfebe7678bf56b87f8f2c", "lon": -77.0235065, "rental_uris": {"ios": "https://dc.lft.to/lastmile_qr_scan", "android": "https://dc.lft.to/lastmile_qr_scan"}}, {"name": "95c3680c126fdbe90b91152c91a69eda", "fusion_lat": 0.0, "type": "electric_scooter", "lat": 38.90525816666667, "is_reserved": 0, "is_disabled": 0, "fusion_lon": 0.0, "bike_id": "95c3680c126fdbe90b91152c91a69eda", "lon": -77.04993983333334, "rental_uris": {"ios": "https://dc.lft.to/lastmile_qr_scan", "android": "https://dc.lft.to/lastmile_qr_scan"}}, {"name": "bc5b81fe5da34d03c140421a6f0bfc5e", "fusion_lat": 0.0, "type": "electric_scooter", "lat": 38.8973685, "is_reserved": 0, "is_disabled": 0, "fusion_lon": 0.0, "bike_id": "bc5b81fe5da34d03c140421a6f0bfc5e", "lon": -77.04654833333333, "rental_uris": {"ios": "https://dc.lft.to/lastmile_qr_scan", "android": "https://dc.lft.to/lastmile_qr_scan"}}, {"name": "f82aa6bcfce05e735abc91f1caeb1593", "fusion_lat": 0.0, "type": "electric_scooter", "lat": 38.94297783333333, "is_reserved": 0, "is_disabled": 0, "fusion_lon": 0.0, "bike_id": "f82aa6bcfce05e735abc91f1caeb1593", "lon": -77.02172966666667, "rental_uris": {"ios": "https://dc.lft.to/lastmile_qr_scan", "android": "https://dc.lft.to/lastmile_qr_scan"}}, {"name": "e4c01e14f65ab7d10de923d82072b57a", "fusion_lat": 0.0, "type": "electric_scooter", "lat": 38.88649266666667, "is_reserved": 0, "is_disabled": 0, "fusion_lon": 0.0, "bike_id": "e4c01e14f65ab7d10de923d82072b57a", "lon": -77.025489, "rental_uris": {"ios": "https://dc.lft.to/lastmile_qr_scan", "android": "https://dc.lft.to/lastmile_qr_scan"}}, {"name": "81c08c4190e023131b732a336d30aeca", "fusion_lat": 0.0, "type": "electric_scooter", "lat": 38.909076166666665, "is_reserved": 0, "is_disabled": 0, "fusion_lon": 0.0, "bike_id": "81c08c4190e023131b732a336d30aeca", "lon": -77.02709666666667, "rental_uris": {"ios": "https://dc.lft.to/lastmile_qr_scan", "android": "https://dc.lft.to/lastmile_qr_scan"}}, {"name": "4f5c46ac488bf15a2cdd6a4722bfd870", "fusion_lat": 0.0, "type": "electric_scooter", "lat": 38.933143, "is_reserved": 0, "is_disabled": 0, "fusion_lon": 0.0, "bike_id": "4f5c46ac488bf15a2cdd6a4722bfd870", "lon": -77.05082783333333, "rental_uris": {"ios": "https://dc.lft.to/lastmile_qr_scan", "android": "https://dc.lft.to/lastmile_qr_scan"}}, {"name": "31f4e261cb97122da0afd0e1a7d81042", "fusion_lat": 0.0, "type": "electric_bike", "lat": 38.92784, "is_reserved": 0, "is_disabled": 0, "fusion_lon": 0.0, "bike_id": "31f4e261cb97122da0afd0e1a7d81042", "lon": -77.0525685, "rental_uris": {"ios": "https://dc.lft.to/lastmile_qr_scan", "android": "https://dc.lft.to/lastmile_qr_scan"}}, {"name": "f3984d636cc7834f1c9837954222b953", "fusion_lat": 0.0, "type": "electric_scooter", "lat": 38.88275933333333, "is_reserved": 0, "is_disabled": 0, "fusion_lon": 0.0, "bike_id": "f3984d636cc7834f1c9837954222b953", "lon": -76.986358, "rental_uris": {"ios": "https://dc.lft.to/lastmile_qr_scan", "android": "https://dc.lft.to/lastmile_qr_scan"}}, {"name": "1ccefa13769a5c6b25c656f776172eab", "fusion_lat": 0.0, "type": "electric_scooter", "lat": 38.87417716666667, "is_reserved": 0, "is_disabled": 0, "fusion_lon": 0.0, "bike_id": "1ccefa13769a5c6b25c656f776172eab", "lon": -76.96084283333333, "rental_uris": {"ios": "https://dc.lft.to/lastmile_qr_scan", "android": "https://dc.lft.to/lastmile_qr_scan"}}, {"name": "856a1a01eca04c4a4f78a4911c1c2557", "fusion_lat": 0.0, "type": "electric_scooter", "lat": 38.899777, "is_reserved": 0, "is_disabled": 0, "fusion_lon": 0.0, "bike_id": "856a1a01eca04c4a4f78a4911c1c2557", "lon": -77.006184, "rental_uris": {"ios": "https://dc.lft.to/lastmile_qr_scan", "android": "https://dc.lft.to/lastmile_qr_scan"}}, {"name": "c89ab8683a5fb14052bcd49acdeab861", "fusion_lat": 0.0, "type": "electric_scooter", "lat": 38.919301833333336, "is_reserved": 0, "is_disabled": 0, "fusion_lon": 0.0, "bike_id": "c89ab8683a5fb14052bcd49acdeab861", "lon": -77.03191716666667, "rental_uris": {"ios": "https://dc.lft.to/lastmile_qr_scan", "android": "https://dc.lft.to/lastmile_qr_scan"}}, {"name": "118c80d90520cbd623e6136676a1f840", "fusion_lat": 0.0, "type": "electric_scooter", "lat": 38.90169133333333, "is_reserved": 0, "is_disabled": 0, "fusion_lon": 0.0, "bike_id": "118c80d90520cbd623e6136676a1f840", "lon": -77.01616583333333, "rental_uris": {"ios": "https://dc.lft.to/lastmile_qr_scan", "android": "https://dc.lft.to/lastmile_qr_scan"}}, {"name": "1d517ac39c2a8f2eddb545cb9cb000a3", "fusion_lat": 0.0, "type": "electric_scooter", "lat": 38.858446, "is_reserved": 0, "is_disabled": 0, "fusion_lon": 0.0, "bike_id": "1d517ac39c2a8f2eddb545cb9cb000a3", "lon": -76.988919, "rental_uris": {"ios": "https://dc.lft.to/lastmile_qr_scan", "android": "https://dc.lft.to/lastmile_qr_scan"}}, {"name": "d5fcf19854cdb1d0c67e2f923a4f3a71", "fusion_lat": 0.0, "type": "electric_scooter", "lat": 38.912720666666665, "is_reserved": 0, "is_disabled": 0, "fusion_lon": 0.0, "bike_id": "d5fcf19854cdb1d0c67e2f923a4f3a71", "lon": -77.026893, "rental_uris": {"ios": "https://dc.lft.to/lastmile_qr_scan", "android": "https://dc.lft.to/lastmile_qr_scan"}}, {"name": "8a80497aa3ba5430cb843730a655d1f7", "fusion_lat": 0.0, "type": "electric_scooter", "lat": 38.893723666666666, "is_reserved": 0, "is_disabled": 0, "fusion_lon": 0.0, "bike_id": "8a80497aa3ba5430cb843730a655d1f7", "lon": -76.949978, "rental_uris": {"ios": "https://dc.lft.to/lastmile_qr_scan", "android": "https://dc.lft.to/lastmile_qr_scan"}}, {"name": "78feb9240821f7d8554fc9ae3c2958ee", "fusion_lat": 0.0, "type": "electric_scooter", "lat": 38.90980583333333, "is_reserved": 0, "is_disabled": 0, "fusion_lon": 0.0, "bike_id": "78feb9240821f7d8554fc9ae3c2958ee", "lon": -77.06712483333334, "rental_uris": {"ios": "https://dc.lft.to/lastmile_qr_scan", "android": "https://dc.lft.to/lastmile_qr_scan"}}, {"name": "32c69dba6cc732e290d403107b7480c2", "fusion_lat": 0.0, "type": "electric_scooter", "lat": 38.937294, "is_reserved": 0, "is_disabled": 0, "fusion_lon": 0.0, "bike_id": "32c69dba6cc732e290d403107b7480c2", "lon": -77.02018216666667, "rental_uris": {"ios": "https://dc.lft.to/lastmile_qr_scan", "android": "https://dc.lft.to/lastmile_qr_scan"}}, {"name": "9a03d6b204e202ecce493f8d16984562", "fusion_lat": 0.0, "type": "electric_scooter", "lat": 38.90560266666667, "is_reserved": 0, "is_disabled": 0, "fusion_lon": 0.0, "bike_id": "9a03d6b204e202ecce493f8d16984562", "lon": -77.0052795, "rental_uris": {"ios": "https://dc.lft.to/lastmile_qr_scan", "android": "https://dc.lft.to/lastmile_qr_scan"}}, {"name": "218284c2be6bbd2c13b6fa8505ec501f", "fusion_lat": 0.0, "type": "electric_bike", "lat": 39.0890365, "is_reserved": 0, "is_disabled": 0, "fusion_lon": 0.0, "bike_id": "218284c2be6bbd2c13b6fa8505ec501f", "lon": -77.17853533333333, "rental_uris": {"ios": "https://dc.lft.to/lastmile_qr_scan", "android": "https://dc.lft.to/lastmile_qr_scan"}}, {"name": "7a66d5cba6fe282cffec13b3b7a621cf", "fusion_lat": 0.0, "type": "electric_bike", "lat": 38.84616333333334, "is_reserved": 0, "is_disabled": 0, "fusion_lon": 0.0, "bike_id": "7a66d5cba6fe282cffec13b3b7a621cf", "lon": -76.978318, "rental_uris": {"ios": "https://dc.lft.to/lastmile_qr_scan", "android": "https://dc.lft.to/lastmile_qr_scan"}}, {"name": "4fede5e34a0fa14b90b78ea6b3c99cde", "fusion_lat": 0.0, "type": "electric_scooter", "lat": 38.91811, "is_reserved": 0, "is_disabled": 0, "fusion_lon": 0.0, "bike_id": "4fede5e34a0fa14b90b78ea6b3c99cde", "lon": -77.04000816666667, "rental_uris": {"ios": "https://dc.lft.to/lastmile_qr_scan", "android": "https://dc.lft.to/lastmile_qr_scan"}}, {"name": "83131c73f0b9c368827ce2771546efe4", "fusion_lat": 0.0, "type": "electric_bike", "lat": 39.058134833333334, "is_reserved": 0, "is_disabled": 0, "fusion_lon": 0.0, "bike_id": "83131c73f0b9c368827ce2771546efe4", "lon": -77.126285, "rental_uris": {"ios": "https://dc.lft.to/lastmile_qr_scan", "android": "https://dc.lft.to/lastmile_qr_scan"}}, {"name": "606839e8da462077c4c848b67ac0c3fd", "fusion_lat": 0.0, "type": "electric_bike", "lat": 38.95364683333333, "is_reserved": 0, "is_disabled": 0, "fusion_lon": 0.0, "bike_id": "606839e8da462077c4c848b67ac0c3fd", "lon": -76.98096666666666, "rental_uris": {"ios": "https://dc.lft.to/lastmile_qr_scan", "android": "https://dc.lft.to/lastmile_qr_scan"}}, {"name": "8968053a8a97b1371019121d24ed046a", "fusion_lat": 0.0, "type": "electric_scooter", "lat": 38.887310166666666, "is_reserved": 0, "is_disabled": 0, "fusion_lon": 0.0, "bike_id": "8968053a8a97b1371019121d24ed046a", "lon": -77.0176635, "rental_uris": {"ios": "https://dc.lft.to/lastmile_qr_scan", "android": "https://dc.lft.to/lastmile_qr_scan"}}, {"name": "ffdefebfd3276aab38b99c9d9775b35a", "fusion_lat": 0.0, "type": "electric_scooter", "lat": 38.928499333333335, "is_reserved": 0, "is_disabled": 0, "fusion_lon": 0.0, "bike_id": "ffdefebfd3276aab38b99c9d9775b35a", "lon": -77.01412133333334, "rental_uris": {"ios": "https://dc.lft.to/lastmile_qr_scan", "android": "https://dc.lft.to/lastmile_qr_scan"}}, {"name": "b7bd776985c3ad77b20053b7639fab43", "fusion_lat": 0.0, "type": "electric_scooter", "lat": 38.919292, "is_reserved": 0, "is_disabled": 0, "fusion_lon": 0.0, "bike_id": "b7bd776985c3ad77b20053b7639fab43", "lon": -77.0319845, "rental_uris": {"ios": "https://dc.lft.to/lastmile_qr_scan", "android": "https://dc.lft.to/lastmile_qr_scan"}}, {"name": "69443bca00622bf82178811e46966db0", "fusion_lat": 0.0, "type": "electric_scooter", "lat": 38.919844833333336, "is_reserved": 0, "is_disabled": 0, "fusion_lon": 0.0, "bike_id": "69443bca00622bf82178811e46966db0", "lon": -77.024116, "rental_uris": {"ios": "https://dc.lft.to/lastmile_qr_scan", "android": "https://dc.lft.to/lastmile_qr_scan"}}, {"name": "37dab035147321104cdff40f4cc01767", "fusion_lat": 0.0, "type": "electric_scooter", "lat": 38.901394833333335, "is_reserved": 0, "is_disabled": 0, "fusion_lon": 0.0, "bike_id": "37dab035147321104cdff40f4cc01767", "lon": -77.01800816666666, "rental_uris": {"ios": "https://dc.lft.to/lastmile_qr_scan", "android": "https://dc.lft.to/lastmile_qr_scan"}}, {"name": "949e824c354ea7b993290df879419a1d", "fusion_lat": 0.0, "type": "electric_scooter", "lat": 38.914873, "is_reserved": 0, "is_disabled": 0, "fusion_lon": 0.0, "bike_id": "949e824c354ea7b993290df879419a1d", "lon": -77.02170983333333, "rental_uris": {"ios": "https://dc.lft.to/lastmile_qr_scan", "android": "https://dc.lft.to/lastmile_qr_scan"}}, {"name": "66e23c81b9e4382a026a7ee69580169e", "fusion_lat": 0.0, "type": "electric_scooter", "lat": 38.917952, "is_reserved": 0, "is_disabled": 0, "fusion_lon": 0.0, "bike_id": "66e23c81b9e4382a026a7ee69580169e", "lon": -77.02312, "rental_uris": {"ios": "https://dc.lft.to/lastmile_qr_scan", "android": "https://dc.lft.to/lastmile_qr_scan"}}, {"name": "65858647c3a938990226a4485aab1a1a", "fusion_lat": 0.0, "type": "electric_scooter", "lat": 38.896460166666664, "is_reserved": 0, "is_disabled": 0, "fusion_lon": 0.0, "bike_id": "65858647c3a938990226a4485aab1a1a", "lon": -77.00920116666667, "rental_uris": {"ios": "https://dc.lft.to/lastmile_qr_scan", "android": "https://dc.lft.to/lastmile_qr_scan"}}, {"name": "52ef4d7bde803aef3298257261a702cf", "fusion_lat": 0.0, "type": "electric_scooter", "lat": 38.8747135, "is_reserved": 0, "is_disabled": 0, "fusion_lon": 0.0, "bike_id": "52ef4d7bde803aef3298257261a702cf", "lon": -77.00619366666666, "rental_uris": {"ios": "https://dc.lft.to/lastmile_qr_scan", "android": "https://dc.lft.to/lastmile_qr_scan"}}, {"name": "eecb20cafe631e7c7560b7f70f672354", "fusion_lat": 0.0, "type": "electric_scooter", "lat": 38.901744666666666, "is_reserved": 0, "is_disabled": 0, "fusion_lon": 0.0, "bike_id": "eecb20cafe631e7c7560b7f70f672354", "lon": -77.016166, "rental_uris": {"ios": "https://dc.lft.to/lastmile_qr_scan", "android": "https://dc.lft.to/lastmile_qr_scan"}}, {"name": "cdcc0b13959653f2948b2010739c1423", "fusion_lat": 0.0, "type": "electric_bike", "lat": 38.8879485, "is_reserved": 0, "is_disabled": 0, "fusion_lon": 0.0, "bike_id": "cdcc0b13959653f2948b2010739c1423", "lon": -76.92992116666667, "rental_uris": {"ios": "https://dc.lft.to/lastmile_qr_scan", "android": "https://dc.lft.to/lastmile_qr_scan"}}, {"name": "22b08aa03acc087ea4ed416c5683949a", "fusion_lat": 0.0, "type": "electric_scooter", "lat": 38.871175, "is_reserved": 0, "is_disabled": 0, "fusion_lon": 0.0, "bike_id": "22b08aa03acc087ea4ed416c5683949a", "lon": -76.96573333333333, "rental_uris": {"ios": "https://dc.lft.to/lastmile_qr_scan", "android": "https://dc.lft.to/lastmile_qr_scan"}}, {"name": "1b5ae935c215d87a4f75dae784dd664c", "fusion_lat": 0.0, "type": "electric_scooter", "lat": 38.8941475, "is_reserved": 0, "is_disabled": 0, "fusion_lon": 0.0, "bike_id": "1b5ae935c215d87a4f75dae784dd664c", "lon": -76.93954783333334, "rental_uris": {"ios": "https://dc.lft.to/lastmile_qr_scan", "android": "https://dc.lft.to/lastmile_qr_scan"}}, {"name": "10269fb5d509577d3f35e96ef739c371", "fusion_lat": 0.0, "type": "electric_bike", "lat": 38.9569125, "is_reserved": 0, "is_disabled": 0, "fusion_lon": 0.0, "bike_id": "10269fb5d509577d3f35e96ef739c371", "lon": -77.022242, "rental_uris": {"ios": "https://dc.lft.to/lastmile_qr_scan", "android": "https://dc.lft.to/lastmile_qr_scan"}}, {"name": "eb59c942eff5dd052e633eb5a95c7eb0", "fusion_lat": 0.0, "type": "electric_scooter", "lat": 38.90332266666667, "is_reserved": 0, "is_disabled": 0, "fusion_lon": 0.0, "bike_id": "eb59c942eff5dd052e633eb5a95c7eb0", "lon": -77.02906766666666, "rental_uris": {"ios": "https://dc.lft.to/lastmile_qr_scan", "android": "https://dc.lft.to/lastmile_qr_scan"}}, {"name": "cbb5414ffdb1b7be5061b508aa161165", "fusion_lat": 0.0, "type": "electric_bike", "lat": 38.93675266666666, "is_reserved": 0, "is_disabled": 0, "fusion_lon": 0.0, "bike_id": "cbb5414ffdb1b7be5061b508aa161165", "lon": -76.9520575, "rental_uris": {"ios": "https://dc.lft.to/lastmile_qr_scan", "android": "https://dc.lft.to/lastmile_qr_scan"}}, {"name": "c8e76e486f64dca87fe5de7f581e9638", "fusion_lat": 0.0, "type": "electric_scooter", "lat": 38.90682566666667, "is_reserved": 0, "is_disabled": 0, "fusion_lon": 0.0, "bike_id": "c8e76e486f64dca87fe5de7f581e9638", "lon": -77.034829, "rental_uris": {"ios": "https://dc.lft.to/lastmile_qr_scan", "android": "https://dc.lft.to/lastmile_qr_scan"}}, {"name": "a4e9b8b2f03dbf5abc23ee05202f8adf", "fusion_lat": 0.0, "type": "electric_scooter", "lat": 38.873739666666665, "is_reserved": 0, "is_disabled": 0, "fusion_lon": 0.0, "bike_id": "a4e9b8b2f03dbf5abc23ee05202f8adf", "lon": -77.00036466666667, "rental_uris": {"ios": "https://dc.lft.to/lastmile_qr_scan", "android": "https://dc.lft.to/lastmile_qr_scan"}}, {"name": "fdddf57c1a47303815a396c3c6d98949", "fusion_lat": 0.0, "type": "electric_scooter", "lat": 38.880526333333336, "is_reserved": 0, "is_disabled": 0, "fusion_lon": 0.0, "bike_id": "fdddf57c1a47303815a396c3c6d98949", "lon": -77.0248685, "rental_uris": {"ios": "https://dc.lft.to/lastmile_qr_scan", "android": "https://dc.lft.to/lastmile_qr_scan"}}, {"name": "a02f426837f04cde7d1ec84ff6e33e7a", "fusion_lat": 0.0, "type": "electric_bike", "lat": 38.8812685, "is_reserved": 0, "is_disabled": 0, "fusion_lon": 0.0, "bike_id": "a02f426837f04cde7d1ec84ff6e33e7a", "lon": -77.01293533333333, "rental_uris": {"ios": "https://dc.lft.to/lastmile_qr_scan", "android": "https://dc.lft.to/lastmile_qr_scan"}}, {"name": "655d710213268708ba6d0a4c26ffc30a", "fusion_lat": 0.0, "type": "electric_scooter", "lat": 38.912005, "is_reserved": 0, "is_disabled": 0, "fusion_lon": 0.0, "bike_id": "655d710213268708ba6d0a4c26ffc30a", "lon": -77.01888833333334, "rental_uris": {"ios": "https://dc.lft.to/lastmile_qr_scan", "android": "https://dc.lft.to/lastmile_qr_scan"}}, {"name": "6d974d02c31f0f253a1f1792f180b4a4", "fusion_lat": 0.0, "type": "electric_scooter", "lat": 38.89355583333333, "is_reserved": 0, "is_disabled": 0, "fusion_lon": 0.0, "bike_id": "6d974d02c31f0f253a1f1792f180b4a4", "lon": -77.04661233333333, "rental_uris": {"ios": "https://dc.lft.to/lastmile_qr_scan", "android": "https://dc.lft.to/lastmile_qr_scan"}}, {"name": "65760eb9630784f81d47a150238a7510", "fusion_lat": 0.0, "type": "electric_scooter", "lat": 38.9105695, "is_reserved": 0, "is_disabled": 0, "fusion_lon": 0.0, "bike_id": "65760eb9630784f81d47a150238a7510", "lon": -77.04575033333333, "rental_uris": {"ios": "https://dc.lft.to/lastmile_qr_scan", "android": "https://dc.lft.to/lastmile_qr_scan"}}, {"name": "29aacd5793baff9eeb4ad91bf068b51b", "fusion_lat": 0.0, "type": "electric_scooter", "lat": 38.91703533333333, "is_reserved": 0, "is_disabled": 0, "fusion_lon": 0.0, "bike_id": "29aacd5793baff9eeb4ad91bf068b51b", "lon": -77.03142783333334, "rental_uris": {"ios": "https://dc.lft.to/lastmile_qr_scan", "android": "https://dc.lft.to/lastmile_qr_scan"}}, {"name": "86df9a3e7bbe87598b8b91ede1b14f7c", "fusion_lat": 0.0, "type": "electric_scooter", "lat": 38.89684783333333, "is_reserved": 0, "is_disabled": 0, "fusion_lon": 0.0, "bike_id": "86df9a3e7bbe87598b8b91ede1b14f7c", "lon": -76.93536783333333, "rental_uris": {"ios": "https://dc.lft.to/lastmile_qr_scan", "android": "https://dc.lft.to/lastmile_qr_scan"}}, {"name": "9751c37b6f4fc3f3a0a4540cc1d01478", "fusion_lat": 0.0, "type": "electric_scooter", "lat": 38.918847166666666, "is_reserved": 0, "is_disabled": 0, "fusion_lon": 0.0, "bike_id": "9751c37b6f4fc3f3a0a4540cc1d01478", "lon": -77.04315966666667, "rental_uris": {"ios": "https://dc.lft.to/lastmile_qr_scan", "android": "https://dc.lft.to/lastmile_qr_scan"}}, {"name": "f06822a36e011f44e7db06fdb5120bec", "fusion_lat": 0.0, "type": "electric_scooter", "lat": 38.91273266666666, "is_reserved": 0, "is_disabled": 0, "fusion_lon": 0.0, "bike_id": "f06822a36e011f44e7db06fdb5120bec", "lon": -77.02953533333333, "rental_uris": {"ios": "https://dc.lft.to/lastmile_qr_scan", "android": "https://dc.lft.to/lastmile_qr_scan"}}, {"name": "60418bdf7236484708585ff842ec3977", "fusion_lat": 0.0, "type": "electric_scooter", "lat": 38.881940666666665, "is_reserved": 0, "is_disabled": 0, "fusion_lon": 0.0, "bike_id": "60418bdf7236484708585ff842ec3977", "lon": -77.0231775, "rental_uris": {"ios": "https://dc.lft.to/lastmile_qr_scan", "android": "https://dc.lft.to/lastmile_qr_scan"}}, {"name": "74c141ddcfb71870068ed4ebe1be5ac7", "fusion_lat": 0.0, "type": "electric_scooter", "lat": 38.93440583333334, "is_reserved": 0, "is_disabled": 0, "fusion_lon": 0.0, "bike_id": "74c141ddcfb71870068ed4ebe1be5ac7", "lon": -77.04654733333334, "rental_uris": {"ios": "https://dc.lft.to/lastmile_qr_scan", "android": "https://dc.lft.to/lastmile_qr_scan"}}, {"name": "d7be2af5aeac60521d2d5e15c6cb8026", "fusion_lat": 0.0, "type": "electric_scooter", "lat": 38.902420666666664, "is_reserved": 0, "is_disabled": 0, "fusion_lon": 0.0, "bike_id": "d7be2af5aeac60521d2d5e15c6cb8026", "lon": -77.00207816666666, "rental_uris": {"ios": "https://dc.lft.to/lastmile_qr_scan", "android": "https://dc.lft.to/lastmile_qr_scan"}}, {"name": "d13a68391df0098075dd27c4cda978ae", "fusion_lat": 0.0, "type": "electric_scooter", "lat": 38.88342683333333, "is_reserved": 0, "is_disabled": 0, "fusion_lon": 0.0, "bike_id": "d13a68391df0098075dd27c4cda978ae", "lon": -77.031662, "rental_uris": {"ios": "https://dc.lft.to/lastmile_qr_scan", "android": "https://dc.lft.to/lastmile_qr_scan"}}, {"name": "8cf5f8a0c94038d431ce753831ec792f", "fusion_lat": 0.0, "type": "electric_scooter", "lat": 38.93975283333333, "is_reserved": 0, "is_disabled": 0, "fusion_lon": 0.0, "bike_id": "8cf5f8a0c94038d431ce753831ec792f", "lon": -77.032042, "rental_uris": {"ios": "https://dc.lft.to/lastmile_qr_scan", "android": "https://dc.lft.to/lastmile_qr_scan"}}, {"name": "1d2a012222f8a02fe49a575639ec0602", "fusion_lat": 0.0, "type": "electric_bike", "lat": 38.91762416666667, "is_reserved": 0, "is_disabled": 0, "fusion_lon": 0.0, "bike_id": "1d2a012222f8a02fe49a575639ec0602", "lon": -76.9732385, "rental_uris": {"ios": "https://dc.lft.to/lastmile_qr_scan", "android": "https://dc.lft.to/lastmile_qr_scan"}}, {"name": "f3785f9566cdd10b84e585ba0be54669", "fusion_lat": 0.0, "type": "electric_bike", "lat": 38.93972183333333, "is_reserved": 0, "is_disabled": 0, "fusion_lon": 0.0, "bike_id": "f3785f9566cdd10b84e585ba0be54669", "lon": -76.98654866666666, "rental_uris": {"ios": "https://dc.lft.to/lastmile_qr_scan", "android": "https://dc.lft.to/lastmile_qr_scan"}}, {"name": "a07504943263f8cd78d1071d9ad28c05", "fusion_lat": 0.0, "type": "electric_scooter", "lat": 38.86513333333333, "is_reserved": 0, "is_disabled": 0, "fusion_lon": 0.0, "bike_id": "a07504943263f8cd78d1071d9ad28c05", "lon": -76.97337733333333, "rental_uris": {"ios": "https://dc.lft.to/lastmile_qr_scan", "android": "https://dc.lft.to/lastmile_qr_scan"}}, {"name": "fefedfa05d3424bf2d5d6c5b0cf1064f", "fusion_lat": 0.0, "type": "electric_bike", "lat": 38.87235583333333, "is_reserved": 0, "is_disabled": 0, "fusion_lon": 0.0, "bike_id": "fefedfa05d3424bf2d5d6c5b0cf1064f", "lon": -77.01168766666666, "rental_uris": {"ios": "https://dc.lft.to/lastmile_qr_scan", "android": "https://dc.lft.to/lastmile_qr_scan"}}, {"name": "c4b984eeebd4f1bad2af4895be86832e", "fusion_lat": 0.0, "type": "electric_scooter", "lat": 38.9390765, "is_reserved": 0, "is_disabled": 0, "fusion_lon": 0.0, "bike_id": "c4b984eeebd4f1bad2af4895be86832e", "lon": -77.060385, "rental_uris": {"ios": "https://dc.lft.to/lastmile_qr_scan", "android": "https://dc.lft.to/lastmile_qr_scan"}}, {"name": "bfc3849e898c13279f6fc0bac29e241a", "fusion_lat": 0.0, "type": "electric_scooter", "lat": 38.959063666666665, "is_reserved": 0, "is_disabled": 0, "fusion_lon": 0.0, "bike_id": "bfc3849e898c13279f6fc0bac29e241a", "lon": -77.08075466666666, "rental_uris": {"ios": "https://dc.lft.to/lastmile_qr_scan", "android": "https://dc.lft.to/lastmile_qr_scan"}}, {"name": "5f2914970a9b9f7a4e481748b29c1f9d", "fusion_lat": 0.0, "type": "electric_scooter", "lat": 38.92347383333333, "is_reserved": 0, "is_disabled": 0, "fusion_lon": 0.0, "bike_id": "5f2914970a9b9f7a4e481748b29c1f9d", "lon": -77.05437383333333, "rental_uris": {"ios": "https://dc.lft.to/lastmile_qr_scan", "android": "https://dc.lft.to/lastmile_qr_scan"}}, {"name": "b2dbca133f8a7d22a7848b2ff657b338", "fusion_lat": 0.0, "type": "electric_scooter", "lat": 38.89408866666667, "is_reserved": 0, "is_disabled": 0, "fusion_lon": 0.0, "bike_id": "b2dbca133f8a7d22a7848b2ff657b338", "lon": -76.93239666666666, "rental_uris": {"ios": "https://dc.lft.to/lastmile_qr_scan", "android": "https://dc.lft.to/lastmile_qr_scan"}}, {"name": "252f5971cc73ac5373d9c0348a7808b5", "fusion_lat": 0.0, "type": "electric_scooter", "lat": 38.91748416666667, "is_reserved": 0, "is_disabled": 0, "fusion_lon": 0.0, "bike_id": "252f5971cc73ac5373d9c0348a7808b5", "lon": -77.0318775, "rental_uris": {"ios": "https://dc.lft.to/lastmile_qr_scan", "android": "https://dc.lft.to/lastmile_qr_scan"}}, {"name": "aa5431f8f39539d1979e5d7507d33cd1", "fusion_lat": 0.0, "type": "electric_scooter", "lat": 38.932101833333334, "is_reserved": 0, "is_disabled": 0, "fusion_lon": 0.0, "bike_id": "aa5431f8f39539d1979e5d7507d33cd1", "lon": -77.036686, "rental_uris": {"ios": "https://dc.lft.to/lastmile_qr_scan", "android": "https://dc.lft.to/lastmile_qr_scan"}},