{"data": {"bikes": [{"name": "ae4f824d2ecdce50ae29d3138a62d849", "type": "electric_scooter", "lat": 38.91548783333333, "is_reserved": 0, "lon": -77.038572, "fusion_lon": 0.0, "is_disabled": 0, "fusion_lat": 0.0, "bike_id": "ae4f824d2ecdce50ae29d3138a62d849", "rental_uris": {"ios": "https://dc.lft.to/lastmile_qr_scan", "android": "https://dc.lft.to/lastmile_qr_scan"}}, {"name": "f19e7d6a647ecb104d799f611c88f1be", "type": "electric_scooter", "lat": 38.918073666666665, "is_reserved": 0, "lon": -77.0302655, "fusion_lon": 0.0, "is_disabled": 0, "fusion_lat": 0.0, "bike_id": "f19e7d6a647ecb104d799f611c88f1be", "rental_uris": {"ios": "https://dc.lft.to/lastmile_qr_scan", "android": "https://dc.lft.to/lastmile_qr_scan"}}, {"name": "c3c378079fa5d6cd48a70c3dc9d3c872", "type": "electric_bike", "lat": 39.03047333333333, "is_reserved": 0, "lon": -77.09479983333334, "fusion_lon": 0.0, "is_disabled": 0, "fusion_lat": 0.0, "bike_id": "c3c378079fa5d6cd48a70c3dc9d3c872", "rental_uris": {"ios": "https://dc.lft.to/lastmile_qr_scan", "android": "https://dc.lft.to/lastmile_qr_scan"}}, {"name": "00c033912cbf989084649aef81d9ef1f", "type": "electric_scooter", "lat": 38.93115866666667, "is_reserved": 0, "lon": -77.03840916666667, "fusion_lon": 0.0, "is_disabled": 0, "fusion_lat": 0.0, "bike_id": "00c033912cbf989084649aef81d9ef1f", "rental_uris": {"ios": "https://dc.lft.to/lastmile_qr_scan", "android": "https://dc.lft.to/lastmile_qr_scan"}}, {"name": "2c430b3e1197a168756ae47e2874bb4e", "type": "electric_scooter", "lat": 38.904379166666665, "is_reserved": 0, "lon": -77.02843233333333, "fusion_lon": 0.0, "is_disabled": 0, "fusion_lat": 0.0, "bike_id": "2c430b3e1197a168756ae47e2874bb4e", "rental_uris": {"ios": "https://dc.lft.to/lastmile_qr_scan", "android": "https://dc.lft.to/lastmile_qr_scan"}}, {"name": "ee265f780e1488a9ec00116ee441fbb7", "type": "electric_bike", "lat": 38.89688016666667, "is_reserved": 0, "lon": -77.02422383333334, "fusion_lon": 0.0, "is_disabled": 0, "fusion_lat": 0.0, "bike_id": "ee265f780e1488a9ec00116ee441fbb7", "rental_uris": {"ios": "https://dc.lft.to/lastmile_qr_scan", "android": "https://dc.lft.to/lastmile_qr_scan"}}, {"name": "2cc363c48daa4c7d55ba4f51d7ff5cb8", "type": "electric_bike", "lat": 38.970764, "is_reserved": 0, "lon": -76.9362115, "fusion_lon": 0.0, "is_disabled": 0, "fusion_lat": 0.0, "bike_id": "2cc363c48daa4c7d55ba4f51d7ff5cb8", "rental_uris": {"ios": "https://dc.lft.to/lastmile_qr_scan", "android": "https://dc.lft.to/lastmile_qr_scan"}}, {"name": "a6eac502e3a00477b91854bfa583583f", "type": "electric_bike", "lat": 38.913578666666666, "is_reserved": 0, "lon": -77.02876766666667, "fusion_lon": 0.0, "is_disabled": 0, "fusion_lat": 0.0, "bike_id": "a6eac502e3a00477b91854bfa583583f", "rental_uris": {"ios": "https://dc.lft.to/lastmile_qr_scan", "android": "https://dc.lft.to/lastmile_qr_scan"}}, {"name": "62cbd26d96bc8e43017536b45ad1cd64", "type": "electric_scooter", "lat": 38.91845283333333, "is_reserved": 0, "lon": -77.06149516666666, "fusion_lon": 0.0, "is_disabled": 0, "fusion_lat": 0.0, "bike_id": "62cbd26d96bc8e43017536b45ad1cd64", "rental_uris": {"ios": "https://dc.lft.to/lastmile_qr_scan", "android": "https://dc.lft.to/lastmile_qr_scan"}}, {"name": "10964c655d7b10021b5138cba9fb072f", "type": "electric_scooter", "lat": 38.905355166666666, "is_reserved": 0, "lon": -77.05204316666666, "fusion_lon": 0.0, "is_disabled": 0, "fusion_lat": 0.0, "bike_id": "10964c655d7b10021b5138cba9fb072f", "rental_uris": {"ios": "https://dc.lft.to/lastmile_qr_scan", "android": "https://dc.lft.to/lastmile_qr_scan"}}, {"name": "515dc3b50be4adbbee1f323f5853ead4", "type": "electric_scooter", "lat": 38.90574766666667, "is_reserved": 0, "lon": -77.00573133333333, "fusion_lon": 0.0, "is_disabled": 0, "fusion_lat": 0.0, "bike_id": "515dc3b50be4adbbee1f323f5853ead4", "rental_uris": {"ios": "https://dc.lft.to/lastmile_qr_scan", "android": "https://dc.lft.to/lastmile_qr_scan"}}, {"name": "e877902a05579aa524470950bf293ff7", "type": "electric_scooter", "lat": 38.892277666666665, "is_reserved": 0, "lon": -77.04370916666667, "fusion_lon": 0.0, "is_disabled": 0, "fusion_lat": 0.0, "bike_id": "e877902a05579aa524470950bf293ff7", "rental_uris": {"ios": "https://dc.lft.to/lastmile_qr_scan", "android": "https://dc.lft.to/lastmile_qr_scan"}}, {"name": "121c2ae82aa429bb0642b46b4ef3b5ae", "type": "electric_scooter", "lat": 38.912573, "is_reserved": 0, "lon": -77.03150933333333, "fusion_lon": 0.0, "is_disabled": 0, "fusion_lat": 0.0, "bike_id": "121c2ae82aa429bb0642b46b4ef3b5ae", "rental_uris": {"ios": "https://dc.lft.to/lastmile_qr_scan", "android": "https://dc.lft.to/lastmile_qr_scan"}}, {"name": "43609ea3aef162a90ff52aed0c820c39", "type": "electric_scooter", "lat": 38.917144, "is_reserved": 0, "lon": -77.02514583333334, "fusion_lon": 0.0, "is_disabled": 0, "fusion_lat": 0.0, "bike_id": "43609ea3aef162a90ff52aed0c820c39", "rental_uris": {"ios": "https://dc.lft.to/lastmile_qr_scan", "android": "https://dc.lft.to/lastmile_qr_scan"}}, {"name": "c268495cdabc509fa09676a22315895a", "type": "electric_scooter", "lat": 38.914064, "is_reserved": 0, "lon": -77.03909, "fusion_lon": 0.0, "is_disabled": 0, "fusion_lat": 0.0, "bike_id": "c268495cdabc509fa09676a22315895a", "rental_uris": {"ios": "https://dc.lft.to/lastmile_qr_scan", "android": "https://dc.lft.to/lastmile_qr_scan"}}, {"name": "e18c02c4b0bc961ce835489db9d61a72", "type": "electric_scooter", "lat": 38.8953485, "is_reserved": 0, "lon": -77.04857316666667, "fusion_lon": 0.0, "is_disabled": 0, "fusion_lat": 0.0, "bike_id": "e18c02c4b0bc961ce835489db9d61a72", "rental_uris": {"ios": "https://dc.lft.to/lastmile_qr_scan", "android": "https://dc.lft.to/lastmile_qr_scan"}}, {"name": "9a6d4e52ab70df6ad4db07e59ba1c4d2", "type": "electric_scooter", "lat": 38.900064, "is_reserved": 0, "lon": -77.0524325, "fusion_lon": 0.0, "is_disabled": 0, "fusion_lat": 0.0, "bike_id": "9a6d4e52ab70df6ad4db07e59ba1c4d2", "rental_uris": {"ios": "https://dc.lft.to/lastmile_qr_scan", "android": "https://dc.lft.to/lastmile_qr_scan"}}, {"name": "4b33193e67c5bca16e6cd7a427e5d525", "type": "electric_scooter", "lat": 38.903663, "is_reserved": 0, "lon": -77.0338255, "fusion_lon": 0.0, "is_disabled": 0, "fusion_lat": 0.0, "bike_id": "4b33193e67c5bca16e6cd7a427e5d525", "rental_uris": {"ios": "https://dc.lft.to/lastmile_qr_scan", "android": "https://dc.lft.to/lastmile_qr_scan"}}, {"name": "1a137b9032f2b90fa5fc06ecffe3ebd6", "type": "electric_scooter", "lat": 38.9153955, "is_reserved": 0, "lon": -77.04624116666666, "fusion_lon": 0.0, "is_disabled": 0, "fusion_lat": 0.0, "bike_id": "1a137b9032f2b90fa5fc06ecffe3ebd6", "rental_uris": {"ios": "https://dc.lft.to/lastmile_qr_scan", "android": "https://dc.lft.to/lastmile_qr_scan"}}, {"name": "1938871e950168bd62912578706a0de4", "type": "electric_scooter", "lat": 38.87552266666667, "is_reserved": 0, "lon": -76.964927, "fusion_lon": 0.0, "is_disabled": 0, "fusion_lat": 0.0, "bike_id": "1938871e950168bd62912578706a0de4", "rental_uris": {"ios": "https://dc.lft.to/lastmile_qr_scan", "android": "https://dc.lft.to/lastmile_qr_scan"}}, {"name": "4c17669d99168920c1a9caf06f548469", "type": "electric_bike", "lat": 38.90478916666667, "is_reserved": 0, "lon": -76.929478, "fusion_lon": 0.0, "is_disabled": 0, "fusion_lat": 0.0, "bike_id": "4c17669d99168920c1a9caf06f548469", "rental_uris": {"ios": "https://dc.lft.to/lastmile_qr_scan", "android": "https://dc.lft.to/lastmile_qr_scan"}}, {"name": "4c96b02fe9aa07c8b24457f4e7cb0e06", "type": "electric_bike", "lat": 38.923495833333334, "is_reserved": 0, "lon": -76.99251833333334, "fusion_lon": 0.0, "is_disabled": 0, "fusion_lat": 0.0, "bike_id": "4c96b02fe9aa07c8b24457f4e7cb0e06", "rental_uris": {"ios": "https://dc.lft.to/lastmile_qr_scan", "android": "https://dc.lft.to/lastmile_qr_scan"}}, {"name": "4e1c86ebb2b843540af73922a6a9a1f3", "type": "electric_scooter", "lat": 38.87434366666667, "is_reserved": 0, "lon": -77.0206845, "fusion_lon": 0.0, "is_disabled": 0, "fusion_lat": 0.0, "bike_id": "4e1c86ebb2b843540af73922a6a9a1f3", "rental_uris": {"ios": "https://dc.lft.to/lastmile_qr_scan", "android": "https://dc.lft.to/lastmile_qr_scan"}}, {"name": "50ba3ad66389fdaf3a0d1d44976c25cc", "type": "electric_scooter", "lat": 38.899948333333334, "is_reserved": 0, "lon": -76.98564583333334, "fusion_lon": 0.0, "is_disabled": 0, "fusion_lat": 0.0, "bike_id": "50ba3ad66389fdaf3a0d1d44976c25cc", "rental_uris": {"ios": "https://dc.lft.to/lastmile_qr_scan", "android": "https://dc.lft.to/lastmile_qr_scan"}}, {"name": "7fd41869fbaa3a7100af701aa4118340", "type": "electric_scooter", "lat": 38.9126935, "is_reserved": 0, "lon": -77.0036205, "fusion_lon": 0.0, "is_disabled": 0, "fusion_lat": 0.0, "bike_id": "7fd41869fbaa3a7100af701aa4118340", "rental_uris": {"ios": "https://dc.lft.to/lastmile_qr_scan", "android": "https://dc.lft.to/lastmile_qr_scan"}}, {"name": "bbb8de13a123699960b7f94f888de961", "type": "electric_scooter", "lat": 38.894834333333336, "is_reserved": 0, "lon": -76.94868916666667, "fusion_lon": 0.0, "is_disabled": 0, "fusion_lat": 0.0, "bike_id": "bbb8de13a123699960b7f94f888de961", "rental_uris": {"ios": "https://dc.lft.to/lastmile_qr_scan", "android": "https://dc.lft.to/lastmile_qr_scan"}}, {"name": "dbbd156da1ec91dcb285290f51e76eee", "type": "electric_scooter", "lat": 38.876729833333336, "is_reserved": 0, "lon": -77.00405516666666, "fusion_lon": 0.0, "is_disabled": 0, "fusion_lat": 0.0, "bike_id": "dbbd156da1ec91dcb285290f51e76eee", "rental_uris": {"ios": "https://dc.lft.to/lastmile_qr_scan", "android": "https://dc.lft.to/lastmile_qr_scan"}}, {"name": "511137f3da8406469d88ae47e3c5b63c", "type": "electric_scooter", "lat": 38.93073966666667, "is_reserved": 0, "lon": -77.04132416666667, "fusion_lon": 0.0, "is_disabled": 0, "fusion_lat": 0.0, "bike_id": "511137f3da8406469d88ae47e3c5b63c", "rental_uris": {"ios": "https://dc.lft.to/lastmile_qr_scan", "android": "https://dc.lft.to/lastmile_qr_scan"}}, {"name": "a08583124ab0d1d7bdcc642ca1c90fe0", "type": "electric_scooter", "lat": 38.91111816666667, "is_reserved": 0, "lon": -77.00759366666666, "fusion_lon": 0.0, "is_disabled": 0, "fusion_lat": 0.0, "bike_id": "a08583124ab0d1d7bdcc642ca1c90fe0", "rental_uris": {"ios": "https://dc.lft.to/lastmile_qr_scan", "android": "https://dc.lft.to/lastmile_qr_scan"}}, {"name": "46cafc51827f34300a3b6e6a8f6aa6e1", "type": "electric_scooter", "lat": 38.955375333333336, "is_reserved": 0, "lon": -77.024697, "fusion_lon": 0.0, "is_disabled": 0, "fusion_lat": 0.0, "bike_id": "46cafc51827f34300a3b6e6a8f6aa6e1", "rental_uris": {"ios": "https://dc.lft.to/lastmile_qr_scan", "android": "https://dc.lft.to/lastmile_qr_scan"}}, {"name": "4e1f05ffc6eba3b03538dcfc15f1f8a7", "type": "electric_bike", "lat": 38.9029725, "is_reserved": 0, "lon": -76.94440216666666, "fusion_lon": 0.0, "is_disabled": 0, "fusion_lat": 0.0, "bike_id": "4e1f05ffc6eba3b03538dcfc15f1f8a7", "rental_uris": {"ios": "https://dc.lft.to/lastmile_qr_scan", "android": "https://dc.lft.to/lastmile_qr_scan"}}, {"name": "21f1748b4d4aca7081757394b0f795c7", "type": "electric_scooter", "lat": 38.917236833333334, "is_reserved": 0, "lon": -77.01872733333333, "fusion_lon": 0.0, "is_disabled": 0, "fusion_lat": 0.0, "bike_id": "21f1748b4d4aca7081757394b0f795c7", "rental_uris": {"ios": "https://dc.lft.to/lastmile_qr_scan", "android": "https://dc.lft.to/lastmile_qr_scan"}}, {"name": "a172ddf5fec98ce21cc1eaf180ef35aa", "type": "electric_scooter", "lat": 38.90561816666667, "is_reserved": 0, "lon": -77.0217405, "fusion_lon": 0.0, "is_disabled": 0, "fusion_lat": 0.0, "bike_id": "a172ddf5fec98ce21cc1eaf180ef35aa", "rental_uris": {"ios": "https://dc.lft.to/lastmile_qr_scan", "android": "https://dc.lft.to/lastmile_qr_scan"}}, {"name": "1d125d86341f91c007f57e9d48457bae", "type": "electric_scooter", "lat": 38.900058333333334, "is_reserved": 0, "lon": -76.9910785, "fusion_lon": 0.0, "is_disabled": 0, "fusion_lat": 0.0, "bike_id": "1d125d86341f91c007f57e9d48457bae", "rental_uris": {"ios": "https://dc.lft.to/lastmile_qr_scan", "android": "https://dc.lft.to/lastmile_qr_scan"}}, {"name": "d414d4cce525ea24ae4a4abe82e3e557", "type": "electric_scooter", "lat": 38.914989, "is_reserved": 0, "lon": -77.03245716666666, "fusion_lon": 0.0, "is_disabled": 0, "fusion_lat": 0.0, "bike_id": "d414d4cce525ea24ae4a4abe82e3e557", "rental_uris": {"ios": "https://dc.lft.to/lastmile_qr_scan", "android": "https://dc.lft.to/lastmile_qr_scan"}}, {"name": "fa5bd68582bf7486046c6b6cb525e431", "type": "electric_bike", "lat": 39.026488666666665, "is_reserved": 0, "lon": -77.12535966666667, "fusion_lon": 0.0, "is_disabled": 0, "fusion_lat": 0.0, "bike_id": "fa5bd68582bf7486046c6b6cb525e431", "rental_uris": {"ios": "https://dc.lft.to/lastmile_qr_scan", "android": "https://dc.lft.to/lastmile_qr_scan"}}, {"name": "5320a4b69f194d2f991b1b378ccf7a4d", "type": "electric_scooter", "lat": 38.935431, "is_reserved": 0, "lon": -77.034202, "fusion_lon": 0.0, "is_disabled": 0, "fusion_lat": 0.0, "bike_id": "5320a4b69f194d2f991b1b378ccf7a4d", "rental_uris": {"ios": "https://dc.lft.to/lastmile_qr_scan", "android": "https://dc.lft.to/lastmile_qr_scan"}}, {"name": "62dbc9b4638df840abc41984ea9b0907", "type": "electric_scooter", "lat": 38.900165333333334, "is_reserved": 0, "lon": -76.987038, "fusion_lon": 0.0, "is_disabled": 0, "fusion_lat": 0.0, "bike_id": "62dbc9b4638df840abc41984ea9b0907", "rental_uris": {"ios": "https://dc.lft.to/lastmile_qr_scan", "android": "https://dc.lft.to/lastmile_qr_scan"}}, {"name": "b979f6f4b44494808998d8d750ebefbc", "type": "electric_bike", "lat": 38.85423466666667, "is_reserved": 0, "lon": -76.9095685, "fusion_lon": 0.0, "is_disabled": 0, "fusion_lat": 0.0, "bike_id": "b979f6f4b44494808998d8d750ebefbc", "rental_uris": {"ios": "https://dc.lft.to/lastmile_qr_scan", "android": "https://dc.lft.to/lastmile_qr_scan"}}, {"name": "310df42b6179419e0376612d0b0d7b2e", "type": "electric_scooter", "lat": 38.92670733333333, "is_reserved": 0, "lon": -76.995371, "fusion_lon": 0.0, "is_disabled": 0, "fusion_lat": 0.0, "bike_id": "310df42b6179419e0376612d0b0d7b2e", "rental_uris": {"ios": "https://dc.lft.to/lastmile_qr_scan", "android": "https://dc.lft.to/lastmile_qr_scan"}}, {"name": "d4384258280d51df32be9e44da389017", "type": "electric_scooter", "lat": 38.922474666666666, "is_reserved": 0, "lon": -77.030685, "fusion_lon": 0.0, "is_disabled": 0, "fusion_lat": 0.0, "bike_id": "d4384258280d51df32be9e44da389017", "rental_uris": {"ios": "https://dc.lft.to/lastmile_qr_scan", "android": "https://dc.lft.to/lastmile_qr_scan"}}, {"name": "dcd2dca3739c7c065310425b2ad76f3a", "type": "electric_scooter", "lat": 38.8442365, "is_reserved": 0, "lon": -76.99778716666667, "fusion_lon": 0.0, "is_disabled": 0, "fusion_lat": 0.0, "bike_id": "dcd2dca3739c7c065310425b2ad76f3a", "rental_uris": {"ios": "https://dc.lft.to/lastmile_qr_scan", "android": "https://dc.lft.to/lastmile_qr_scan"}}, {"name": "52ef3a1e9789b47131d74f546e1bc4ce", "type": "electric_scooter", "lat": 38.878384, "is_reserved": 0, "lon": -77.0005595, "fusion_lon": 0.0, "is_disabled": 0, "fusion_lat": 0.0, "bike_id": "52ef3a1e9789b47131d74f546e1bc4ce", "rental_uris": {"ios": "https://dc.lft.to/lastmile_qr_scan", "android": "https://dc.lft.to/lastmile_qr_scan"}}, {"name": "7549aac2b5db75853071898bb50d50fe", "type": "electric_scooter", "lat": 38.898877666666664, "is_reserved": 0, "lon": -77.0329215, "fusion_lon": 0.0, "is_disabled": 0, "fusion_lat": 0.0, "bike_id": "7549aac2b5db75853071898bb50d50fe", "rental_uris": {"ios": "https://dc.lft.to/lastmile_qr_scan", "android": "https://dc.lft.to/lastmile_qr_scan"}}, {"name": "2b4534b171c5f130a6fcad555bb9f8ac", "type": "electric_scooter", "lat": 38.885143666666664, "is_reserved": 0, "lon": -77.00573866666667, "fusion_lon": 0.0, "is_disabled": 0, "fusion_lat": 0.0, "bike_id": "2b4534b171c5f130a6fcad555bb9f8ac", "rental_uris": {"ios": "https://dc.lft.to/lastmile_qr_scan", "android": "https://dc.lft.to/lastmile_qr_scan"}}, {"name": "a7667ca64e4b113996ac7f68da9d3a5f", "type": "electric_scooter", "lat": 38.91673816666667, "is_reserved": 0, "lon": -77.02398116666667, "fusion_lon": 0.0, "is_disabled": 0, "fusion_lat": 0.0, "bike_id": "a7667ca64e4b113996ac7f68da9d3a5f", "rental_uris": {"ios": "https://dc.lft.to/lastmile_qr_scan", "android": "https://dc.lft.to/lastmile_qr_scan"}}, {"name": "68f752dbf573cd34fb5ec6e95e3f8b10", "type": "electric_scooter", "lat": 38.895331666666664, "is_reserved": 0, "lon": -76.9493535, "fusion_lon": 0.0, "is_disabled": 0, "fusion_lat": 0.0, "bike_id": "68f752dbf573cd34fb5ec6e95e3f8b10", "rental_uris": {"ios": "https://dc.lft.to/lastmile_qr_scan", "android": "https://dc.lft.to/lastmile_qr_scan"}}, {"name": "30b7e9e2abaac91c7b3f834773e22160", "type": "electric_scooter", "lat": 38.900705333333335, "is_reserved": 0, "lon": -77.05073, "fusion_lon": 0.0, "is_disabled": 0, "fusion_lat": 0.0, "bike_id": "30b7e9e2abaac91c7b3f834773e22160", "rental_uris": {"ios": "https://dc.lft.to/lastmile_qr_scan", "android": "https://dc.lft.to/lastmile_qr_scan"}}, {"name": "1ec17bc2d1690c3391f3d635d102beb5", "type": "electric_scooter", "lat": 38.89225033333334, "is_reserved": 0, "lon": -77.04544516666667, "fusion_lon": 0.0, "is_disabled": 0, "fusion_lat": 0.0, "bike_id": "1ec17bc2d1690c3391f3d635d102beb5", "rental_uris": {"ios": "https://dc.lft.to/lastmile_qr_scan", "android": "https://dc.lft.to/lastmile_qr_scan"}}, {"name": "3904d97cb4787a2aee2dcc3b9d5319e9", "type": "electric_bike", "lat": 38.810530666666665, "is_reserved": 0, "lon": -77.08509716666667, "fusion_lon": 0.0, "is_disabled": 0, "fusion_lat": 0.0, "bike_id": "3904d97cb4787a2aee2dcc3b9d5319e9", "rental_uris": {"ios": "https://dc.lft.to/lastmile_qr_scan", "android": "https://dc.lft.to/lastmile_qr_scan"}}, {"name": "f4f88d90def3d337453998675e6a0369", "type": "electric_scooter", "lat": 38.92905183333333, "is_reserved": 0, "lon": -77.02165833333333, "fusion_lon": 0.0, "is_disabled": 0, "fusion_lat": 0.0, "bike_id": "f4f88d90def3d337453998675e6a0369", "rental_uris": {"ios": "https://dc.lft.to/lastmile_qr_scan", "android": "https://dc.lft.to/lastmile_qr_scan"}}, {"name": "8d75cd3eece96e9787b218bc36629f2d", "type": "electric_scooter", "lat": 38.93497033333333, "is_reserved": 0, "lon": -77.028336, "fusion_lon": 0.0, "is_disabled": 0, "fusion_lat": 0.0, "bike_id": "8d75cd3eece96e9787b218bc36629f2d", "rental_uris": {"ios": "https://dc.lft.to/lastmile_qr_scan", "android": "https://dc.lft.to/lastmile_qr_scan"}}, {"name": "bbe69be4d9ac3c7b96a6deb3910b1692", "type": "electric_scooter", "lat": 38.917346, "is_reserved": 0, "lon": -77.06851216666666, "fusion_lon": 0.0, "is_disabled": 0, "fusion_lat": 0.0, "bike_id": "bbe69be4d9ac3c7b96a6deb3910b1692", "rental_uris": {"ios": "https://dc.lft.to/lastmile_qr_scan", "android": "https://dc.lft.to/lastmile_qr_scan"}}, {"name": "5229bcdb15754b8b627c3b17b30b4b85", "type": "electric_scooter", "lat": 38.91216583333333, "is_reserved": 0, "lon": -77.0448045, "fusion_lon": 0.0, "is_disabled": 0, "fusion_lat": 0.0, "bike_id": "5229bcdb15754b8b627c3b17b30b4b85", "rental_uris": {"ios": "https://dc.lft.to/lastmile_qr_scan", "android": "https://dc.lft.to/lastmile_qr_scan"}}, {"name": "7c338ce6f6c96a844ec028d8a3664021", "type": "electric_scooter", "lat": 38.9273225, "is_reserved": 0, "lon": -77.029806, "fusion_lon": 0.0, "is_disabled": 0, "fusion_lat": 0.0, "bike_id": "7c338ce6f6c96a844ec028d8a3664021", "rental_uris": {"ios": "https://dc.lft.to/lastmile_qr_scan", "android": "https://dc.lft.to/lastmile_qr_scan"}}, {"name": "faba14055fe36d24041386c8000b85e6", "type": "electric_bike", "lat": 38.948350166666664, "is_reserved": 0, "lon": -77.03902266666667, "fusion_lon": 0.0, "is_disabled": 0, "fusion_lat": 0.0, "bike_id": "faba14055fe36d24041386c8000b85e6", "rental_uris": {"ios": "https://dc.lft.to/lastmile_qr_scan", "android": "https://dc.lft.to/lastmile_qr_scan"}}, {"name": "3e6f67cbfb4e37945314e647a9837495", "type": "electric_scooter", "lat": 38.95844833333334, "is_reserved": 0, "lon": -77.02929683333333, "fusion_lon": 0.0, "is_disabled": 0, "fusion_lat": 0.0, "bike_id": "3e6f67cbfb4e37945314e647a9837495", "rental_uris": {"ios": "https://dc.lft.to/lastmile_qr_scan", "android": "https://dc.lft.to/lastmile_qr_scan"}}, {"name": "da2070a3eec23488b21c0fd1cb9ead3a", "type": "electric_scooter", "lat": 38.934920166666664, "is_reserved": 0, "lon": -77.0328555, "fusion_lon": 0.0, "is_disabled": 0, "fusion_lat": 0.0, "bike_id": "da2070a3eec23488b21c0fd1cb9ead3a", "rental_uris": {"ios": "https://dc.lft.to/lastmile_qr_scan", "android": "https://dc.lft.to/lastmile_qr_scan"}}, {"name": "5cf54798fbd36f10d0e96ea12008b264", "type": "electric_scooter", "lat": 38.894736333333334, "is_reserved": 0, "lon": -77.0306185, "fusion_lon": 0.0, "is_disabled": 0, "fusion_lat": 0.0, "bike_id": "5cf54798fbd36f10d0e96ea12008b264", "rental_uris": {"ios": "https://dc.lft.to/lastmile_qr_scan", "android": "https://dc.lft.to/lastmile_qr_scan"}}, {"name": "bae7bc367310b375fabedb5b1e7271ad", "type": "electric_scooter", "lat": 38.93378466666667, "is_reserved": 0, "lon": -77.03467383333333, "fusion_lon": 0.0, "is_disabled": 0, "fusion_lat": 0.0, "bike_id": "bae7bc367310b375fabedb5b1e7271ad", "rental_uris": {"ios": "https://dc.lft.to/lastmile_qr_scan", "android": "https://dc.lft.to/lastmile_qr_scan"}}, {"name": "6259cd18d16962651299649cf13fe4a8", "type": "electric_bike", "lat": 38.87579916666667, "is_reserved": 0, "lon": -77.10564833333333, "fusion_lon": 0.0, "is_disabled": 0, "fusion_lat": 0.0, "bike_id": "6259cd18d16962651299649cf13fe4a8", "rental_uris": {"ios": "https://dc.lft.to/lastmile_qr_scan", "android": "https://dc.lft.to/lastmile_qr_scan"}}, {"name": "f1621dde1ce74f6b4b42694295f5739f", "type": "electric_scooter", "lat": 38.918085, "is_reserved": 0, "lon": -77.03150583333333, "fusion_lon": 0.0, "is_disabled": 0, "fusion_lat": 0.0, "bike_id": "f1621dde1ce74f6b4b42694295f5739f", "rental_uris": {"ios": "https://dc.lft.to/lastmile_qr_scan", "android": "https://dc.lft.to/lastmile_qr_scan"}}, {"name": "c30529d797e59e1a7a30c41c68cea7a6", "type": "electric_scooter", "lat": 38.935074, "is_reserved": 0, "lon": -77.0200335, "fusion_lon": 0.0, "is_disabled": 0, "fusion_lat": 0.0, "bike_id": "c30529d797e59e1a7a30c41c68cea7a6", "rental_uris": {"ios": "https://dc.lft.to/lastmile_qr_scan", "android": "https://dc.lft.to/lastmile_qr_scan"}}, {"name": "7d54cc6d581c7b2518843aa616e7696c", "type": "electric_scooter", "lat": 38.90267216666667, "is_reserved": 0, "lon": -77.00327833333333, "fusion_lon": 0.0, "is_disabled": 0, "fusion_lat": 0.0, "bike_id": "7d54cc6d581c7b2518843aa616e7696c", "rental_uris": {"ios": "https://dc.lft.to/lastmile_qr_scan", "android": "https://dc.lft.to/lastmile_qr_scan"}}, {"name": "e2aa088736f2c49a1787a75035da53af", "type": "electric_scooter", "lat": 38.903688333333335, "is_reserved": 0, "lon": -77.01633616666666, "fusion_lon": 0.0, "is_disabled": 0, "fusion_lat": 0.0, "bike_id": "e2aa088736f2c49a1787a75035da53af", "rental_uris": {"ios": "https://dc.lft.to/lastmile_qr_scan", "android": "https://dc.lft.to/lastmile_qr_scan"}}, {"name": "88c2fd18f3859ceeb2f558c3fe58c9c0", "type": "electric_scooter", "lat": 38.90072683333333, "is_reserved": 0, "lon": -77.04798733333334, "fusion_lon": 0.0, "is_disabled": 0, "fusion_lat": 0.0, "bike_id": "88c2fd18f3859ceeb2f558c3fe58c9c0", "rental_uris": {"ios": "https://dc.lft.to/lastmile_qr_scan", "android": "https://dc.lft.to/lastmile_qr_scan"}}, {"name": "235ad5084cbfe0ae39e28f78a5ec43eb", "type": "electric_scooter", "lat": 38.9335155, "is_reserved": 0, "lon": -77.02975466666666, "fusion_lon": 0.0, "is_disabled": 0, "fusion_lat": 0.0, "bike_id": "235ad5084cbfe0ae39e28f78a5ec43eb", "rental_uris": {"ios": "https://dc.lft.to/lastmile_qr_scan", "android": "https://dc.lft.to/lastmile_qr_scan"}}, {"name": "af68b57cbf210e48e9c67a2cbaa6f271", "type": "electric_scooter", "lat": 38.887546666666665, "is_reserved": 0, "lon": -76.97983766666667, "fusion_lon": 0.0, "is_disabled": 0, "fusion_lat": 0.0, "bike_id": "af68b57cbf210e48e9c67a2cbaa6f271", "rental_uris": {"ios": "https://dc.lft.to/lastmile_qr_scan", "android": "https://dc.lft.to/lastmile_qr_scan"}}, {"name": "0273fd04045ed245c87df625b116f809", "type": "electric_scooter", "lat": 38.94367316666667, "is_reserved": 0, "lon": -77.021824, "fusion_lon": 0.0, "is_disabled": 0, "fusion_lat": 0.0, "bike_id": "0273fd04045ed245c87df625b116f809", "rental_uris": {"ios": "https://dc.lft.to/lastmile_qr_scan", "android": "https://dc.lft.to/lastmile_qr_scan"}}, {"name": "5abd9ea565319455b53422dde0beb6f3", "type": "electric_scooter", "lat": 38.884004833333336, "is_reserved": 0, "lon": -76.93046666666666, "fusion_lon": 0.0, "is_disabled": 0, "fusion_lat": 0.0, "bike_id": "5abd9ea565319455b53422dde0beb6f3", "rental_uris": {"ios": "https://dc.lft.to/lastmile_qr_scan", "android": "https://dc.lft.to/lastmile_qr_scan"}}, {"name": "beec42e7b8c18561d33b77a2ebde7f51", "type": "electric_scooter", "lat": 38.8964655, "is_reserved": 0, "lon": -77.0323015, "fusion_lon": 0.0, "is_disabled": 0, "fusion_lat": 0.0, "bike_id": "beec42e7b8c18561d33b77a2ebde7f51", "rental_uris": {"ios": "https://dc.lft.to/lastmile_qr_scan", "android": "https://dc.lft.to/lastmile_qr_scan"}}, {"name": "41178a12ef54ca7581390a72c65e8596", "type": "electric_bike", "lat": 38.92213783333333, "is_reserved": 0, "lon": -76.9880045, "fusion_lon": 0.0, "is_disabled": 0, "fusion_lat": 0.0, "bike_id": "41178a12ef54ca7581390a72c65e8596", "rental_uris": {"ios": "https://dc.lft.to/lastmile_qr_scan", "android": "https://dc.lft.to/lastmile_qr_scan"}}, {"name": "e75786c38c267ceee4b57fce9937bca9", "type": "electric_scooter", "lat": 38.89487183333333, "is_reserved": 0, "lon": -77.01014783333333, "fusion_lon": 0.0, "is_disabled": 0, "fusion_lat": 0.0, "bike_id": "e75786c38c267ceee4b57fce9937bca9", "rental_uris": {"ios": "https://dc.lft.to/lastmile_qr_scan", "android": "https://dc.lft.to/lastmile_qr_scan"}}, {"name": "a5e0f83776dbd73f8fd24a452c6becca", "type": "electric_bike", "lat": 38.8393435, "is_reserved": 0, "lon": -77.07902783333333, "fusion_lon": 0.0, "is_disabled": 0, "fusion_lat": 0.0, "bike_id": "a5e0f83776dbd73f8fd24a452c6becca", "rental_uris": {"ios": "https://dc.lft.to/lastmile_qr_scan", "android": "https://dc.lft.to/lastmile_qr_scan"}}, {"name": "20600892c0cc4d973747667cc2afeea5", "type": "electric_scooter", "lat": 38.903211166666665, "is_reserved": 0, "lon": -77.03354766666666, "fusion_lon": 0.0, "is_disabled": 0, "fusion_lat": 0.0, "bike_id": "20600892c0cc4d973747667cc2afeea5", "rental_uris": {"ios": "https://dc.lft.to/lastmile_qr_scan", "android": "https://dc.lft.to/lastmile_qr_scan"}}, {"name": "11e42e730fe0d0ffa2503d426ef20301", "type": "electric_bike", "lat": 38.8428105, "is_reserved": 0, "lon": -76.98843716666667, "fusion_lon": 0.0, "is_disabled": 0, "fusion_lat": 0.0, "bike_id": "11e42e730fe0d0ffa2503d426ef20301", "rental_uris": {"ios": "https://dc.lft.to/lastmile_qr_scan", "android": "https://dc.lft.to/lastmile_qr_scan"}}, {"name": "6f1c8b83b84a19331532683094d93472", "type": "electric_scooter", "lat": 38.9322835, "is_reserved": 0, "lon": -77.03815416666667, "fusion_lon": 0.0, "is_disabled": 0, "fusion_lat": 0.0, "bike_id": "6f1c8b83b84a19331532683094d93472", "rental_uris": {"ios": "https://dc.lft.to/lastmile_qr_scan", "android": "https://dc.lft.to/lastmile_qr_scan"}}, {"name": "654956ed0ee02ec059253cb00e956038", "type": "electric_scooter", "lat": 38.93982333333334, "is_reserved": 0, "lon": -77.02598333333333, "fusion_lon": 0.0, "is_disabled": 0, "fusion_lat": 0.0, "bike_id": "654956ed0ee02ec059253cb00e956038", "rental_uris": {"ios": "https://dc.lft.to/lastmile_qr_scan", "android": "https://dc.lft.to/lastmile_qr_scan"}}, {"name": "752eaa17fbbd585c790d66bb914e7ac8", "type": "electric_scooter", "lat": 38.911112, "is_reserved": 0, "lon": -77.0347865, "fusion_lon": 0.0, "is_disabled": 0, "fusion_lat": 0.0, "bike_id": "752eaa17fbbd585c790d66bb914e7ac8", "rental_uris": {"ios": "https://dc.lft.to/lastmile_qr_scan", "android": "https://dc.lft.to/lastmile_qr_scan"}}, {"name": "c82bfb19f481db29a8e696397ed5c0d1", "type": "electric_scooter", "lat": 38.91482716666667, "is_reserved": 0, "lon": -77.0392915, "fusion_lon": 0.0, "is_disabled": 0, "fusion_lat": 0.0, "bike_id": "c82bfb19f481db29a8e696397ed5c0d1", "rental_uris": {"ios": "https://dc.lft.to/lastmile_qr_scan", "android": "https://dc.lft.to/lastmile_qr_scan"}}, {"name": "dc89130de9657892c60463a25ea54380", "type": "electric_scooter", "lat": 38.91577433333333, "is_reserved": 0, "lon": -77.02187383333333, "fusion_lon": 0.0, "is_disabled": 0, "fusion_lat": 0.0, "bike_id": "dc89130de9657892c60463a25ea54380", "rental_uris": {"ios": "https://dc.lft.to/lastmile_qr_scan", "android": "https://dc.lft.to/lastmile_qr_scan"}}, {"name": "0b4ff6b324b8e89de8ef9aad4da96209", "type": "electric_scooter", "lat": 38.9059185, "is_reserved": 0, "lon": -77.01617516666667, "fusion_lon": 0.0, "is_disabled": 0, "fusion_lat": 0.0, "bike_id": "0b4ff6b324b8e89de8ef9aad4da96209", "rental_uris": {"ios": "https://dc.lft.to/lastmile_qr_scan", "android": "https://dc.lft.to/lastmile_qr_scan"}}, {"name": "0447b5c2a18641a9d29980efe4e10cc4", "type": "electric_bike", "lat": 38.880408833333334, "is_reserved": 0, "lon": -77.01326316666666, "fusion_lon": 0.0, "is_disabled": 0, "fusion_lat": 0.0, "bike_id": "0447b5c2a18641a9d29980efe4e10cc4", "rental_uris": {"ios": "https://dc.lft.to/lastmile_qr_scan", "android": "https://dc.lft.to/lastmile_qr_scan"}}, {"name": "e3929ffe431323c7ea421bdc34b020bb", "type": "electric_scooter", "lat": 38.900296833333336, "is_reserved": 0, "lon": -77.01161583333334, "fusion_lon": 0.0, "is_disabled": 0, "fusion_lat": 0.0, "bike_id": "e3929ffe431323c7ea421bdc34b020bb", "rental_uris": {"ios": "https://dc.lft.to/lastmile_qr_scan", "android": "https://dc.lft.to/lastmile_qr_scan"}}, {"name": "8feba7e62f799b30c480a8a383acdf44", "type": "electric_scooter", "lat": 38.914532333333334, "is_reserved": 0, "lon": -77.038598, "fusion_lon": 0.0, "is_disabled": 0, "fusion_lat": 0.0, "bike_id": "8feba7e62f799b30c480a8a383acdf44", "rental_uris": {"ios": "https://dc.lft.to/lastmile_qr_scan", "android": "https://dc.lft.to/lastmile_qr_scan"}}, {"name": "6756a2ca7b4bc8466d794be5ff683bf1", "type": "electric_bike", "lat": 38.86163483333333, "is_reserved": 0, "lon": -77.130948, "fusion_lon": 0.0, "is_disabled": 0, "fusion_lat": 0.0, "bike_id": "6756a2ca7b4bc8466d794be5ff683bf1", "rental_uris": {"ios": "https://dc.lft.to/lastmile_qr_scan", "android": "https://dc.lft.to/lastmile_qr_scan"}}, {"name": "1f01d0f85e5467a9f70161f31e8ff90e", "type": "electric_scooter", "lat": 38.9140575, "is_reserved": 0, "lon": -77.00805266666667, "fusion_lon": 0.0, "is_disabled": 0, "fusion_lat": 0.0, "bike_id": "1f01d0f85e5467a9f70161f31e8ff90e", "rental_uris": {"ios": "https://dc.lft.to/lastmile_qr_scan", "android": "https://dc.lft.to/lastmile_qr_scan"}}, {"name": "9f11dbe45e2f718251afe8acf3a2c1e7", "type": "electric_bike", "lat": 38.967621333333334, "is_reserved": 0, "lon": -77.09164116666666, "fusion_lon": 0.0, "is_disabled": 0, "fusion_lat": 0.0, "bike_id": "9f11dbe45e2f718251afe8acf3a2c1e7", "rental_uris": {"ios": "https://dc.lft.to/lastmile_qr_scan", "android": "https://dc.lft.to/lastmile_qr_scan"}}, {"name": "297495ac15a320edee703cc245e24b6d", "type": "electric_scooter", "lat": 38.89631716666667, "is_reserved": 0, "lon": -77.0274895, "fusion_lon": 0.0, "is_disabled": 0, "fusion_lat": 0.0, "bike_id": "297495ac15a320edee703cc245e24b6d", "rental_uris": {"ios": "https://dc.lft.to/lastmile_qr_scan", "android": "https://dc.lft.to/lastmile_qr_scan"}}, {"name": "425de4f85ad323024a4fb59f111689dd", "type": "electric_scooter", "lat": 38.9003205, "is_reserved": 0, "lon": -76.99862183333333, "fusion_lon": 0.0, "is_disabled": 0, "fusion_lat": 0.0, "bike_id": "425de4f85ad323024a4fb59f111689dd", "rental_uris": {"ios": "https://dc.lft.to/lastmile_qr_scan", "android": "https://dc.lft.to/lastmile_qr_scan"}}, {"name": "9c2426ba9b21a4e052dff511138a9734", "type": "electric_scooter", "lat": 38.90245016666667, "is_reserved": 0, "lon": -76.97411716666667, "fusion_lon": 0.0, "is_disabled": 0, "fusion_lat": 0.0, "bike_id": "9c2426ba9b21a4e052dff511138a9734", "rental_uris": {"ios": "https://dc.lft.to/lastmile_qr_scan", "android": "https://dc.lft.to/lastmile_qr_scan"}}, {"name": "7e10fee3e52d0cd24cbcdaf7e42c7daf", "type": "electric_scooter", "lat": 38.929524666666666, "is_reserved": 0, "lon": -77.0232055, "fusion_lon": 0.0, "is_disabled": 0, "fusion_lat": 0.0, "bike_id": "7e10fee3e52d0cd24cbcdaf7e42c7daf", "rental_uris": {"ios": "https://dc.lft.to/lastmile_qr_scan", "android": "https://dc.lft.to/lastmile_qr_scan"}}, {"name": "07c339e114bf28ec2796dd5197596cc6", "type": "electric_scooter", "lat": 38.891819166666664, "is_reserved": 0, "lon": -77.015329, "fusion_lon": 0.0, "is_disabled": 0, "fusion_lat": 0.0, "bike_id": "07c339e114bf28ec2796dd5197596cc6", "rental_uris": {"ios": "https://dc.lft.to/lastmile_qr_scan", "android": "https://dc.lft.to/lastmile_qr_scan"}}, {"name": "1b333bb59710febb34faacda1d1cae37", "type": "electric_scooter", "lat": 38.92582, "is_reserved": 0, "lon": -77.02842516666666, "fusion_lon": 0.0, "is_disabled": 0, "fusion_lat": 0.0, "bike_id": "1b333bb59710febb34faacda1d1cae37", "rental_uris": {"ios": "https://dc.lft.to/lastmile_qr_scan", "android": "https://dc.lft.to/lastmile_qr_scan"}}, {"name": "a1d4e1bb16a70900847a4a20d7e8949b", "type": "electric_scooter", "lat": 38.93488283333333, "is_reserved": 0, "lon": -77.03284766666667, "fusion_lon": 0.0, "is_disabled": 0, "fusion_lat": 0.0, "bike_id": "a1d4e1bb16a70900847a4a20d7e8949b", "rental_uris": {"ios": "https://dc.lft.to/lastmile_qr_scan", "android": "https://dc.lft.to/lastmile_qr_scan"}}, {"name": "2acc22469068b08ff08f8b5e7a0c3e6d", "type": "electric_scooter", "lat": 38.917166, "is_reserved": 0, "lon": -77.03858216666667, "fusion_lon": 0.0, "is_disabled": 0, "fusion_lat": 0.0, "bike_id": "2acc22469068b08ff08f8b5e7a0c3e6d", "rental_uris": {"ios": "https://dc.lft.to/lastmile_qr_scan", "android": "https://dc.lft.to/lastmile_qr_scan"}}, {"name": "9ad4a451c82252613f0e333072b29f19", "type": "electric_scooter", "lat": 38.91690366666667, "is_reserved": 0, "lon": -77.0092995, "fusion_lon": 0.0, "is_disabled": 0, "fusion_lat": 0.0, "bike_id": "9ad4a451c82252613f0e333072b29f19", "rental_uris": {"ios": "https://dc.lft.to/lastmile_qr_scan", "android": "https://dc.lft.to/lastmile_qr_scan"}}, {"name": "448f6e0c1fdee04313644174e31fc940", "type": "electric_bike", "lat": 38.87483566666667, "is_reserved": 0, "lon": -76.9652535, "fusion_lon": 0.0, "is_disabled": 0, "fusion_lat": 0.0, "bike_id": "448f6e0c1fdee04313644174e31fc940", "rental_uris": {"ios": "https://dc.lft.to/lastmile_qr_scan", "android": "https://dc.lft.to/lastmile_qr_scan"}}, {"name": "db93eaff6fd186bbf4221777aa5ab909", "type": "electric_bike", "lat": 38.93715983333333, "is_reserved": 0, "lon": -77.02096633333333, "fusion_lon": 0.0, "is_disabled": 0, "fusion_lat": 0.0, "bike_id": "db93eaff6fd186bbf4221777aa5ab909", "rental_uris": {"ios": "https://dc.lft.to/lastmile_qr_scan", "android": "https://dc.lft.to/lastmile_qr_scan"}}, {"name": "6fa56b82a4cfb9266ee7b3ecf883f1b3", "type": "electric_scooter", "lat": 38.90233966666667, "is_reserved": 0, "lon": -77.05345966666667, "fusion_lon": 0.0, "is_disabled": 0, "fusion_lat": 0.0, "bike_id": "6fa56b82a4cfb9266ee7b3ecf883f1b3", "rental_uris": {"ios": "https://dc.lft.to/lastmile_qr_scan", "android": "https://dc.lft.to/lastmile_qr_scan"}}, {"name": "2d2622cfe599d407591732be4d30cc55", "type": "electric_scooter", "lat": 38.882096833333335, "is_reserved": 0, "lon": -77.01449816666667, "fusion_lon": 0.0, "is_disabled": 0, "fusion_lat": 0.0, "bike_id": "2d2622cfe599d407591732be4d30cc55", "rental_uris": {"ios": "https://dc.lft.to/lastmile_qr_scan", "android": "https://dc.lft.to/lastmile_qr_scan"}}, {"name": "d8df59487a52134aa1426a0514fa4d1f", "type": "electric_scooter", "lat": 38.89382716666667, "is_reserved": 0, "lon": -76.949829, "fusion_lon": 0.0, "is_disabled": 0, "fusion_lat": 0.0, "bike_id": "d8df59487a52134aa1426a0514fa4d1f", "rental_uris": {"ios": "https://dc.lft.to/lastmile_qr_scan", "android": "https://dc.lft.to/lastmile_qr_scan"}}, {"name": "ce15ab6ff0b1b5034ae4ac92927bbf9f", "type": "electric_scooter", "lat": 38.89801533333333, "is_reserved": 0, "lon": -77.02714, "fusion_lon": 0.0, "is_disabled": 0, "fusion_lat": 0.0, "bike_id": "ce15ab6ff0b1b5034ae4ac92927bbf9f", "rental_uris": {"ios": "https://dc.lft.to/lastmile_qr_scan", "android": "https://dc.lft.to/lastmile_qr_scan"}}, {"name": "47ce3c238b1a4e42bac2dac6e261fe75", "type": "electric_scooter", "lat": 38.921705, "is_reserved": 0, "lon": -77.0268695, "fusion_lon": 0.0, "is_disabled": 0, "fusion_lat": 0.0, "bike_id": "47ce3c238b1a4e42bac2dac6e261fe75", "rental_uris": {"ios": "https://dc.lft.to/lastmile_qr_scan", "android": "https://dc.lft.to/lastmile_qr_scan"}}, {"name": "bb4069fe92f04e66e4b1c3fea3a43513", "type": "electric_scooter", "lat": 38.927148833333334, "is_reserved": 0, "lon": -77.0208985, "fusion_lon": 0.0, "is_disabled": 0, "fusion_lat": 0.0, "bike_id": "bb4069fe92f04e66e4b1c3fea3a43513", "rental_uris": {"ios": "https://dc.lft.to/lastmile_qr_scan", "android": "https://dc.lft.to/lastmile_qr_scan"}}, {"name": "3d525e5967b6af4110fe09f24ae6033b", "type": "electric_scooter", "lat": 38.9052345, "is_reserved": 0, "lon": -77.05136083333333, "fusion_lon": 0.0, "is_disabled": 0, "fusion_lat": 0.0, "bike_id": "3d525e5967b6af4110fe09f24ae6033b", "rental_uris": {"ios": "https://dc.lft.to/lastmile_qr_scan", "android": "https://dc.lft.to/lastmile_qr_scan"}}, {"name": "e1df17d0ede8e57750b44de5e851d403", "type": "electric_scooter", "lat": 38.925341, "is_reserved": 0, "lon": -77.03530216666667, "fusion_lon": 0.0, "is_disabled": 0, "fusion_lat": 0.0, "bike_id": "e1df17d0ede8e57750b44de5e851d403", "rental_uris": {"ios": "https://dc.lft.to/lastmile_qr_scan", "android": "https://dc.lft.to/lastmile_qr_scan"}}, {"name": "ad4a947e01e0149100fb663083b085ce", "type": "electric_scooter", "lat": 38.90839283333333, "is_reserved": 0, "lon": -77.0269405, "fusion_lon": 0.0, "is_disabled": 0, "fusion_lat": 0.0, "bike_id": "ad4a947e01e0149100fb663083b085ce", "rental_uris": {"ios": "https://dc.lft.to/lastmile_qr_scan", "android": "https://dc.lft.to/lastmile_qr_scan"}}, {"name": "09e8087fd019bbbd917f2286d2e999c6", "type": "electric_scooter", "lat": 38.91205983333333, "is_reserved": 0, "lon": -77.00653533333333, "fusion_lon": 0.0, "is_disabled": 0, "fusion_lat": 0.0, "bike_id": "09e8087fd019bbbd917f2286d2e999c6", "rental_uris": {"ios": "https://dc.lft.to/lastmile_qr_scan", "android": "https://dc.lft.to/lastmile_qr_scan"}}, {"name": "0d77dc21ddbb10e9970501cea6f79576", "type": "electric_scooter", "lat": 38.91963916666667, "is_reserved": 0, "lon": -77.01442516666667, "fusion_lon": 0.0, "is_disabled": 0, "fusion_lat": 0.0, "bike_id": "0d77dc21ddbb10e9970501cea6f79576", "rental_uris": {"ios": "https://dc.lft.to/lastmile_qr_scan", "android": "https://dc.lft.to/lastmile_qr_scan"}}, {"name": "f849f0e830e76eacbf69d66be8226fc1", "type": "electric_scooter", "lat": 38.9054815, "is_reserved": 0, "lon": -77.021825, "fusion_lon": 0.0, "is_disabled": 0, "fusion_lat": 0.0, "bike_id": "f849f0e830e76eacbf69d66be8226fc1", "rental_uris": {"ios": "https://dc.lft.to/lastmile_qr_scan", "android": "https://dc.lft.to/lastmile_qr_scan"}}, {"name": "b5861e1e1627a30c0d52e40e4d4e11ed", "type": "electric_scooter", "lat": 38.86659183333333, "is_reserved": 0, "lon": -76.98888233333334, "fusion_lon": 0.0, "is_disabled": 0, "fusion_lat": 0.0, "bike_id": "b5861e1e1627a30c0d52e40e4d4e11ed", "rental_uris": {"ios": "https://dc.lft.to/lastmile_qr_scan", "android": "https://dc.lft.to/lastmile_qr_scan"}}, {"name": "66f6cfdcc783f6e997a99c234f2fcec0", "type": "electric_bike", "lat": 38.822230166666664, "is_reserved": 0, "lon": -77.10452283333333, "fusion_lon": 0.0, "is_disabled": 0, "fusion_lat": 0.0, "bike_id": "66f6cfdcc783f6e997a99c234f2fcec0", "rental_uris": {"ios": "https://dc.lft.to/lastmile_qr_scan", "android": "https://dc.lft.to/lastmile_qr_scan"}}, {"name": "831f7700d00b523c3a88619ec1b00b2a", "type": "electric_scooter", "lat": 38.9110215, "is_reserved": 0, "lon": -77.03661133333334, "fusion_lon": 0.0, "is_disabled": 0, "fusion_lat": 0.0, "bike_id": "831f7700d00b523c3a88619ec1b00b2a", "rental_uris": {"ios": "https://dc.lft.to/lastmile_qr_scan", "android": "https://dc.lft.to/lastmile_qr_scan"}}, {"name": "a15bd2d3c4c65a447ae21f09d672e0a3", "type": "electric_scooter", "lat": 38.9038405, "is_reserved": 0, "lon": -77.01110616666666, "fusion_lon": 0.0, "is_disabled": 0, "fusion_lat": 0.0, "bike_id": "a15bd2d3c4c65a447ae21f09d672e0a3", "rental_uris": {"ios": "https://dc.lft.to/lastmile_qr_scan", "android": "https://dc.lft.to/lastmile_qr_scan"}}, {"name": "818ff9e2233aeb48b99788b4718dd263", "type": "electric_scooter", "lat": 38.924324666666664, "is_reserved": 0, "lon": -77.04243416666667, "fusion_lon": 0.0, "is_disabled": 0, "fusion_lat": 0.0, "bike_id": "818ff9e2233aeb48b99788b4718dd263", "rental_uris": {"ios": "https://dc.lft.to/lastmile_qr_scan", "android": "https://dc.lft.to/lastmile_qr_scan"}}, {"name": "b034c45349178e15c6e036f385ec1f9e", "type": "electric_scooter", "lat": 38.94447666666667, "is_reserved": 0, "lon": -77.06354533333334, "fusion_lon": 0.0, "is_disabled": 0, "fusion_lat": 0.0, "bike_id": "b034c45349178e15c6e036f385ec1f9e", "rental_uris": {"ios": "https://dc.lft.to/lastmile_qr_scan", "android": "https://dc.lft.to/lastmile_qr_scan"}}, {"name": "9504640bbbbe583a4abc6469d59f2a25", "type": "electric_scooter", "lat": 38.905514, "is_reserved": 0, "lon": -77.02188966666667, "fusion_lon": 0.0, "is_disabled": 0, "fusion_lat": 0.0, "bike_id": "9504640bbbbe583a4abc6469d59f2a25", "rental_uris": {"ios": "https://dc.lft.to/lastmile_qr_scan", "android": "https://dc.lft.to/lastmile_qr_scan"}}, {"name": "81b5b819376d20c251a5af643f64391d", "type": "electric_scooter", "lat": 38.909707833333336, "is_reserved": 0, "lon": -77.00775066666667, "fusion_lon": 0.0, "is_disabled": 0, "fusion_lat": 0.0, "bike_id": "81b5b819376d20c251a5af643f64391d", "rental_uris": {"ios": "https://dc.lft.to/lastmile_qr_scan", "android": "https://dc.lft.to/lastmile_qr_scan"}}, {"name": "d4678a32235314f7638dc01c5620bca3", "type": "electric_bike", "lat": 38.89719483333333, "is_reserved": 0, "lon": -77.00708483333334, "fusion_lon": 0.0, "is_disabled": 0, "fusion_lat": 0.0, "bike_id": "d4678a32235314f7638dc01c5620bca3", "rental_uris": {"ios": "https://dc.lft.to/lastmile_qr_scan", "android": "https://dc.lft.to/lastmile_qr_scan"}}, {"name": "aee63f4a7468a24bd0615de506aeb0aa", "type": "electric_scooter", "lat": 38.9132065, "is_reserved": 0, "lon": -77.038568, "fusion_lon": 0.0, "is_disabled": 0, "fusion_lat": 0.0, "bike_id": "aee63f4a7468a24bd0615de506aeb0aa", "rental_uris": {"ios": "https://dc.lft.to/lastmile_qr_scan", "android": "https://dc.lft.to/lastmile_qr_scan"}}, {"name": "fcc1ebc67d110daefeee3bf40fe1aa17", "type": "electric_scooter", "lat": 38.892011833333335, "is_reserved": 0, "lon": -77.045911, "fusion_lon": 0.0, "is_disabled": 0, "fusion_lat": 0.0, "bike_id": "fcc1ebc67d110daefeee3bf40fe1aa17", "rental_uris": {"ios": "https://dc.lft.to/lastmile_qr_scan", "android": "https://dc.lft.to/lastmile_qr_scan"}}, {"name": "ae7792506c3cbc8cfbbf5da72618f090", "type": "electric_scooter", "lat": 38.918165333333334, "is_reserved": 0, "lon": -77.02534116666666, "fusion_lon": 0.0, "is_disabled": 0, "fusion_lat": 0.0, "bike_id": "ae7792506c3cbc8cfbbf5da72618f090", "rental_uris": {"ios": "https://dc.lft.to/lastmile_qr_scan", "android": "https://dc.lft.to/lastmile_qr_scan"}}, {"name": "00ac2338d216773070bc5a37480668bd", "type": "electric_scooter", "lat": 38.90465016666667, "is_reserved": 0, "lon": -77.04651866666667, "fusion_lon": 0.0, "is_disabled": 0, "fusion_lat": 0.0, "bike_id": "00ac2338d216773070bc5a37480668bd", "rental_uris": {"ios": "https://dc.lft.to/lastmile_qr_scan", "android": "https://dc.lft.to/lastmile_qr_scan"}}, {"name": "203bf3db5989592833255d789bc078c3", "type": "electric_bike", "lat": 38.80230683333333, "is_reserved": 0, "lon": -77.07917633333334, "fusion_lon": 0.0, "is_disabled": 0, "fusion_lat": 0.0, "bike_id": "203bf3db5989592833255d789bc078c3", "rental_uris": {"ios": "https://dc.lft.to/lastmile_qr_scan", "android": "https://dc.lft.to/lastmile_qr_scan"}}, {"name": "24ac3044648e98eb422dd14dc5f5bab8", "type": "electric_bike", "lat": 38.906865333333336, "is_reserved": 0, "lon": -76.95190183333334, "fusion_lon": 0.0, "is_disabled": 0, "fusion_lat": 0.0, "bike_id": "24ac3044648e98eb422dd14dc5f5bab8", "rental_uris": {"ios": "https://dc.lft.to/lastmile_qr_scan", "android": "https://dc.lft.to/lastmile_qr_scan"}}, {"name": "4ba2f74a857e26a1fe07ed99a18b9220", "type": "electric_scooter", "lat": 38.932025, "is_reserved": 0, "lon": -77.03881983333333, "fusion_lon": 0.0, "is_disabled": 0, "fusion_lat": 0.0, "bike_id": "4ba2f74a857e26a1fe07ed99a18b9220", "rental_uris": {"ios": "https://dc.lft.to/lastmile_qr_scan", "android": "https://dc.lft.to/lastmile_qr_scan"}}, {"name": "edd2b4124d38db4c14bc39308a50f311", "type": "electric_scooter", "lat": 38.936812333333336, "is_reserved": 0, "lon": -77.036306, "fusion_lon": 0.0, "is_disabled": 0, "fusion_lat": 0.0, "bike_id": "edd2b4124d38db4c14bc39308a50f311", "rental_uris": {"ios": "https://dc.lft.to/lastmile_qr_scan", "android": "https://dc.lft.to/lastmile_qr_scan"}}, {"name": "c572f4e95b444b8612e6062755214bf4", "type": "electric_scooter", "lat": 38.918749166666665, "is_reserved": 0, "lon": -77.0419545, "fusion_lon": 0.0, "is_disabled": 0, "fusion_lat": 0.0, "bike_id": "c572f4e95b444b8612e6062755214bf4", "rental_uris": {"ios": "https://dc.lft.to/lastmile_qr_scan", "android": "https://dc.lft.to/lastmile_qr_scan"}}, {"name": "275c81c56601ef066267ce8018ddd221", "type": "electric_scooter", "lat": 38.89970983333333, "is_reserved": 0, "lon": -76.937657, "fusion_lon": 0.0, "is_disabled": 0, "fusion_lat": 0.0, "bike_id": "275c81c56601ef066267ce8018ddd221", "rental_uris": {"ios": "https://dc.lft.to/lastmile_qr_scan", "android": "https://dc.lft.to/lastmile_qr_scan"}}, {"name": "ce3f728c71870921cad1d4798588a1b4", "type": "electric_scooter", "lat": 38.9188015, "is_reserved": 0, "lon": -77.03504616666666, "fusion_lon": 0.0, "is_disabled": 0, "fusion_lat": 0.0, "bike_id": "ce3f728c71870921cad1d4798588a1b4", "rental_uris": {"ios": "https://dc.lft.to/lastmile_qr_scan", "android": "https://dc.lft.to/lastmile_qr_scan"}}, {"name": "4f4f00ff9c20f67267a0aef8e25aca7e", "type": "electric_scooter", "lat": 38.876879833333334, "is_reserved": 0, "lon": -77.00075516666666, "fusion_lon": 0.0, "is_disabled": 0, "fusion_lat": 0.0, "bike_id": "4f4f00ff9c20f67267a0aef8e25aca7e", "rental_uris": {"ios": "https://dc.lft.to/lastmile_qr_scan", "android": "https://dc.lft.to/lastmile_qr_scan"}}, {"name": "f4c1de07c80dcd7f30ad5aa54fcbc4e3", "type": "electric_scooter", "lat": 38.91438616666667, "is_reserved": 0, "lon": -77.003493, "fusion_lon": 0.0, "is_disabled": 0, "fusion_lat": 0.0, "bike_id": "f4c1de07c80dcd7f30ad5aa54fcbc4e3", "rental_uris": {"ios": "https://dc.lft.to/lastmile_qr_scan", "android": "https://dc.lft.to/lastmile_qr_scan"}}, {"name": "b155582f9428dfacfb2b485603bd8c77", "type": "electric_scooter", "lat": 38.90027366666666, "is_reserved": 0, "lon": -76.9985915, "fusion_lon": 0.0, "is_disabled": 0, "fusion_lat": 0.0, "bike_id": "b155582f9428dfacfb2b485603bd8c77", "rental_uris": {"ios": "https://dc.lft.to/lastmile_qr_scan", "android": "https://dc.lft.to/lastmile_qr_scan"}}, {"name": "6267e79630b44a207dcbab540ab5c727", "type": "electric_scooter", "lat": 38.90670633333333, "is_reserved": 0, "lon": -77.02706666666667, "fusion_lon": 0.0, "is_disabled": 0, "fusion_lat": 0.0, "bike_id": "6267e79630b44a207dcbab540ab5c727", "rental_uris": {"ios": "https://dc.lft.to/lastmile_qr_scan", "android": "https://dc.lft.to/lastmile_qr_scan"}}, {"name": "5021e3a766f9bcf700778f95163093ae", "type": "electric_scooter", "lat": 38.9428145, "is_reserved": 0, "lon": -77.02510483333333, "fusion_lon": 0.0, "is_disabled": 0, "fusion_lat": 0.0, "bike_id": "5021e3a766f9bcf700778f95163093ae", "rental_uris": {"ios": "https://dc.lft.to/lastmile_qr_scan", "android": "https://dc.lft.to/lastmile_qr_scan"}}, {"name": "c0eed56caf7df8bd2c8c05a666baf57e", "type": "electric_scooter", "lat": 38.90989483333333, "is_reserved": 0, "lon": -77.0089295, "fusion_lon": 0.0, "is_disabled": 0, "fusion_lat": 0.0, "bike_id": "c0eed56caf7df8bd2c8c05a666baf57e", "rental_uris": {"ios": "https://dc.lft.to/lastmile_qr_scan", "android": "https://dc.lft.to/lastmile_qr_scan"}}, {"name": "8d299df63fe9e2c2d7b63db0dd59b791", "type": "electric_scooter", "lat": 38.9084365, "is_reserved": 0, "lon": -77.08532466666666, "fusion_lon": 0.0, "is_disabled": 0, "fusion_lat": 0.0, "bike_id": "8d299df63fe9e2c2d7b63db0dd59b791", "rental_uris": {"ios": "https://dc.lft.to/lastmile_qr_scan", "android": "https://dc.lft.to/lastmile_qr_scan"}}, {"name": "ec2a58cdda14c10caf5218d5a910fdca", "type": "electric_scooter", "lat": 38.89758283333333, "is_reserved": 0, "lon": -77.02941433333334, "fusion_lon": 0.0, "is_disabled": 0, "fusion_lat": 0.0, "bike_id": "ec2a58cdda14c10caf5218d5a910fdca", "rental_uris": {"ios": "https://dc.lft.to/lastmile_qr_scan", "android": "https://dc.lft.to/lastmile_qr_scan"}}, {"name": "bb73193a0062f2c7f73107fd0ea95b23", "type": "electric_scooter", "lat": 38.90963833333333, "is_reserved": 0, "lon": -77.04826383333334, "fusion_lon": 0.0, "is_disabled": 0, "fusion_lat": 0.0, "bike_id": "bb73193a0062f2c7f73107fd0ea95b23", "rental_uris": {"ios": "https://dc.lft.to/lastmile_qr_scan", "android": "https://dc.lft.to/lastmile_qr_scan"}}, {"name": "1d9c0b011c520ae706fa228a1265d26a", "type": "electric_scooter", "lat": 38.92888033333333, "is_reserved": 0, "lon": -77.05453583333333, "fusion_lon": 0.0, "is_disabled": 0, "fusion_lat": 0.0, "bike_id": "1d9c0b011c520ae706fa228a1265d26a", "rental_uris": {"ios": "https://dc.lft.to/lastmile_qr_scan", "android": "https://dc.lft.to/lastmile_qr_scan"}}, {"name": "397e96b2f7ad015e3d441c73da51d199", "type": "electric_scooter", "lat": 38.916864, "is_reserved": 0, "lon": -77.01215616666667, "fusion_lon": 0.0, "is_disabled": 0, "fusion_lat": 0.0, "bike_id": "397e96b2f7ad015e3d441c73da51d199", "rental_uris": {"ios": "https://dc.lft.to/lastmile_qr_scan", "android": "https://dc.lft.to/lastmile_qr_scan"}}, {"name": "ff0d55d667cda7b643549276c92705ef", "type": "electric_scooter", "lat": 38.90797716666667, "is_reserved": 0, "lon": -76.99699116666666, "fusion_lon": 0.0, "is_disabled": 0, "fusion_lat": 0.0, "bike_id": "ff0d55d667cda7b643549276c92705ef", "rental_uris": {"ios": "https://dc.lft.to/lastmile_qr_scan", "android": "https://dc.lft.to/lastmile_qr_scan"}}, {"name": "38100d3cdb13ade0f4191da287354c1f", "type": "electric_scooter", "lat": 38.9343925, "is_reserved": 0, "lon": -77.07255366666666, "fusion_lon": 0.0, "is_disabled": 0, "fusion_lat": 0.0, "bike_id": "38100d3cdb13ade0f4191da287354c1f", "rental_uris": {"ios": "https://dc.lft.to/lastmile_qr_scan", "android": "https://dc.lft.to/lastmile_qr_scan"}}, {"name": "f776df53f7d8ada73cc2cc5fc5189406", "type": "electric_scooter", "lat": 38.896822666666665, "is_reserved": 0, "lon": -76.9962795, "fusion_lon": 0.0, "is_disabled": 0, "fusion_lat": 0.0, "bike_id": "f776df53f7d8ada73cc2cc5fc5189406", "rental_uris": {"ios": "https://dc.lft.to/lastmile_qr_scan", "android": "https://dc.lft.to/lastmile_qr_scan"}}, {"name": "cc1446dbbe04d4af35c3eb698f1d411b", "type": "electric_scooter", "lat": 38.897346166666665, "is_reserved": 0, "lon": -77.05572366666667, "fusion_lon": 0.0, "is_disabled": 0, "fusion_lat": 0.0, "bike_id": "cc1446dbbe04d4af35c3eb698f1d411b", "rental_uris": {"ios": "https://dc.lft.to/lastmile_qr_scan", "android": "https://dc.lft.to/lastmile_qr_scan"}}, {"name": "921491449e136f05b0ddce1abca9c4a1", "type": "electric_scooter", "lat": 38.894827166666666, "is_reserved": 0, "lon": -76.94873083333333, "fusion_lon": 0.0, "is_disabled": 0, "fusion_lat": 0.0, "bike_id": "921491449e136f05b0ddce1abca9c4a1", "rental_uris": {"ios": "https://dc.lft.to/lastmile_qr_scan", "android": "https://dc.lft.to/lastmile_qr_scan"}}, {"name": "a9cd8ee9fa2c19de4283b8a44787eb36", "type": "electric_scooter", "lat": 38.916796833333336, "is_reserved": 0, "lon": -77.023087, "fusion_lon": 0.0, "is_disabled": 0, "fusion_lat": 0.0, "bike_id": "a9cd8ee9fa2c19de4283b8a44787eb36", "rental_uris": {"ios": "https://dc.lft.to/lastmile_qr_scan", "android": "https://dc.lft.to/lastmile_qr_scan"}}, {"name": "1c91ef24bda4434a4d98932641d66aa1", "type": "electric_scooter", "lat": 38.9565515, "is_reserved": 0, "lon": -77.03295033333333, "fusion_lon": 0.0, "is_disabled": 0, "fusion_lat": 0.0, "bike_id": "1c91ef24bda4434a4d98932641d66aa1", "rental_uris": {"ios": "https://dc.lft.to/lastmile_qr_scan", "android": "https://dc.lft.to/lastmile_qr_scan"}}, {"name": "440dd8e47f6b7817ce99db79b4abcc51", "type": "electric_scooter", "lat": 38.934593, "is_reserved": 0, "lon": -77.072999, "fusion_lon": 0.0, "is_disabled": 0, "fusion_lat": 0.0, "bike_id": "440dd8e47f6b7817ce99db79b4abcc51", "rental_uris": {"ios": "https://dc.lft.to/lastmile_qr_scan", "android": "https://dc.lft.to/lastmile_qr_scan"}}, {"name": "5292a7509e149ddf65b7b53ad5d73c53", "type": "electric_bike", "lat": 39.003839, "is_reserved": 0, "lon": -77.01287, "fusion_lon": 0.0, "is_disabled": 0, "fusion_lat": 0.0, "bike_id": "5292a7509e149ddf65b7b53ad5d73c53", "rental_uris": {"ios": "https://dc.lft.to/lastmile_qr_scan", "android": "https://dc.lft.to/lastmile_qr_scan"}}, {"name": "05c7db5b6030691f575f1d6a67d55e4f", "type": "electric_bike", "lat": 38.82788133333333, "is_reserved": 0, "lon": -77.009222, "fusion_lon": 0.0, "is_disabled": 0, "fusion_lat": 0.0, "bike_id": "05c7db5b6030691f575f1d6a67d55e4f", "rental_uris": {"ios": "https://dc.lft.to/lastmile_qr_scan", "android": "https://dc.lft.to/lastmile_qr_scan"}}, {"name": "af09b1e1f5497c17244dde14c8ec7f5b", "type": "electric_scooter", "lat": 38.90037266666667, "is_reserved": 0, "lon": -76.98843166666667, "fusion_lon": 0.0, "is_disabled": 0, "fusion_lat": 0.0, "bike_id": "af09b1e1f5497c17244dde14c8ec7f5b", "rental_uris": {"ios": "https://dc.lft.to/lastmile_qr_scan", "android": "https://dc.lft.to/lastmile_qr_scan"}}, {"name": "2beec5b8b207633cc38597f7d6fc5bc3", "type": "electric_scooter", "lat": 38.90270066666667, "is_reserved": 0, "lon": -77.0385315, "fusion_lon": 0.0, "is_disabled": 0, "fusion_lat": 0.0, "bike_id": "2beec5b8b207633cc38597f7d6fc5bc3", "rental_uris": {"ios": "https://dc.lft.to/lastmile_qr_scan", "android": "https://dc.lft.to/lastmile_qr_scan"}}, {"name": "ff3dd609bac044855dfdff4190481f20", "type": "electric_bike", "lat": 38.80783133333333, "is_reserved": 0, "lon": -77.1295575, "fusion_lon": 0.0, "is_disabled": 0, "fusion_lat": 0.0, "bike_id": "ff3dd609bac044855dfdff4190481f20", "rental_uris": {"ios": "https://dc.lft.to/lastmile_qr_scan", "android": "https://dc.lft.to/lastmile_qr_scan"}}, {"name": "1d0feb27598e2857169264ccda691db1", "type": "electric_scooter", "lat": 38.9251955, "is_reserved": 0, "lon": -77.00173716666667, "fusion_lon": 0.0, "is_disabled": 0, "fusion_lat": 0.0, "bike_id": "1d0feb27598e2857169264ccda691db1", "rental_uris": {"ios": "https://dc.lft.to/lastmile_qr_scan", "android": "https://dc.lft.to/lastmile_qr_scan"}}, {"name": "975eacf43427bbc5d204239c1e9b0a81", "type": "electric_scooter", "lat": 38.92113616666666, "is_reserved": 0, "lon": -77.03650366666666, "fusion_lon": 0.0, "is_disabled": 0, "fusion_lat": 0.0, "bike_id": "975eacf43427bbc5d204239c1e9b0a81", "rental_uris": {"ios": "https://dc.lft.to/lastmile_qr_scan", "android": "https://dc.lft.to/lastmile_qr_scan"}}, {"name": "d0524bd5d83987ada72c132366628c47", "type": "electric_scooter", "lat": 38.8837425, "is_reserved": 0, "lon": -76.9237425, "fusion_lon": 0.0, "is_disabled": 0, "fusion_lat": 0.0, "bike_id": "d0524bd5d83987ada72c132366628c47", "rental_uris": {"ios": "https://dc.lft.to/lastmile_qr_scan", "android": "https://dc.lft.to/lastmile_qr_scan"}}, {"name": "0b67c30c7b2507254c6e9ed01772264f", "type": "electric_scooter", "lat": 38.923637, "is_reserved": 0, "lon": -77.05847933333334, "fusion_lon": 0.0, "is_disabled": 0, "fusion_lat": 0.0, "bike_id": "0b67c30c7b2507254c6e9ed01772264f", "rental_uris": {"ios": "https://dc.lft.to/lastmile_qr_scan", "android": "https://dc.lft.to/lastmile_qr_scan"}}, {"name": "219ae6cef048ba0f21a79cd5bfc5dc4f", "type": "electric_scooter", "lat": 38.89607783333334, "is_reserved": 0, "lon": -77.00933016666667, "fusion_lon": 0.0, "is_disabled": 0, "fusion_lat": 0.0, "bike_id": "219ae6cef048ba0f21a79cd5bfc5dc4f", "rental_uris": {"ios": "https://dc.lft.to/lastmile_qr_scan", "android": "https://dc.lft.to/lastmile_qr_scan"}}, {"name": "639500b59841afb7679ae00a48972283", "type": "electric_scooter", "lat": 38.906141833333336, "is_reserved": 0, "lon": -77.0749555, "fusion_lon": 0.0, "is_disabled": 0, "fusion_lat": 0.0, "bike_id": "639500b59841afb7679ae00a48972283", "rental_uris": {"ios": "https://dc.lft.to/lastmile_qr_scan", "android": "https://dc.lft.to/lastmile_qr_scan"}}, {"name": "e99a952b5b52027e26bac27107600159", "type": "electric_scooter", "lat": 38.91967916666667, "is_reserved": 0, "lon": -77.03379633333333, "fusion_lon": 0.0, "is_disabled": 0, "fusion_lat": 0.0, "bike_id": "e99a952b5b52027e26bac27107600159", "rental_uris": {"ios": "https://dc.lft.to/lastmile_qr_scan", "android": "https://dc.lft.to/lastmile_qr_scan"}}, {"name": "a16d4f35254da96b6cd6a361554f2c3a", "type": "electric_scooter", "lat": 38.92518866666666, "is_reserved": 0, "lon": -77.03324683333334, "fusion_lon": 0.0, "is_disabled": 0, "fusion_lat": 0.0, "bike_id": "a16d4f35254da96b6cd6a361554f2c3a", "rental_uris": {"ios": "https://dc.lft.to/lastmile_qr_scan", "android": "https://dc.lft.to/lastmile_qr_scan"}}, {"name": "44a226ed51f1050777848273ba164902", "type": "electric_scooter", "lat": 38.912638, "is_reserved": 0, "lon": -77.03729683333333, "fusion_lon": 0.0, "is_disabled": 0, "fusion_lat": 0.0, "bike_id": "44a226ed51f1050777848273ba164902", "rental_uris": {"ios": "https://dc.lft.to/lastmile_qr_scan", "android": "https://dc.lft.to/lastmile_qr_scan"}}, {"name": "5b16a7a4b36407a5cef6cf46d8ee1c0a", "type": "electric_bike", "lat": 38.908608666666666, "is_reserved": 0, "lon": -77.08078383333333, "fusion_lon": 0.0, "is_disabled": 0, "fusion_lat": 0.0, "bike_id": "5b16a7a4b36407a5cef6cf46d8ee1c0a", "rental_uris": {"ios": "https://dc.lft.to/lastmile_qr_scan", "android": "https://dc.lft.to/lastmile_qr_scan"}}, {"name": "a2f05d3d856178bf2f5bcd00969969cc", "type": "electric_scooter", "lat": 38.905877833333335, "is_reserved": 0, "lon": -77.04153583333333, "fusion_lon": 0.0, "is_disabled": 0, "fusion_lat": 0.0, "bike_id": "a2f05d3d856178bf2f5bcd00969969cc", "rental_uris": {"ios": "https://dc.lft.to/lastmile_qr_scan", "android": "https://dc.lft.to/lastmile_qr_scan"}}, {"name": "738c8701d4c67a150100e9bfd6fe9ad5", "type": "electric_scooter", "lat": 38.927377166666666, "is_reserved": 0, "lon": -77.0226445, "fusion_lon": 0.0, "is_disabled": 0, "fusion_lat": 0.0, "bike_id": "738c8701d4c67a150100e9bfd6fe9ad5", "rental_uris": {"ios": "https://dc.lft.to/lastmile_qr_scan", "android": "https://dc.lft.to/lastmile_qr_scan"}}, {"name": "8ad50033730490a336545a400531e085", "type": "electric_scooter", "lat": 38.89225033333334, "is_reserved": 0, "lon": -77.04333583333333, "fusion_lon": 0.0, "is_disabled": 0, "fusion_lat": 0.0, "bike_id": "8ad50033730490a336545a400531e085", "rental_uris": {"ios": "https://dc.lft.to/lastmile_qr_scan", "android": "https://dc.lft.to/lastmile_qr_scan"}}, {"name": "1761a123567d584fb5da9e09212be9d6", "type": "electric_scooter", "lat": 38.86660333333333, "is_reserved": 0, "lon": -76.9888485, "fusion_lon": 0.0, "is_disabled": 0, "fusion_lat": 0.0, "bike_id": "1761a123567d584fb5da9e09212be9d6", "rental_uris": {"ios": "https://dc.lft.to/lastmile_qr_scan", "android": "https://dc.lft.to/lastmile_qr_scan"}}, {"name": "6f6a51882611ebfa2903c7546cb8c333", "type": "electric_scooter", "lat": 38.901467833333335, "is_reserved": 0, "lon": -77.03328366666666, "fusion_lon": 0.0, "is_disabled": 0, "fusion_lat": 0.0, "bike_id": "6f6a51882611ebfa2903c7546cb8c333", "rental_uris": {"ios": "https://dc.lft.to/lastmile_qr_scan", "android": "https://dc.lft.to/lastmile_qr_scan"}}, {"name": "3292f6ded234b3a83eeabb326838406c", "type": "electric_scooter", "lat": 38.917628, "is_reserved": 0, "lon": -77.03962766666666, "fusion_lon": 0.0, "is_disabled": 0, "fusion_lat": 0.0, "bike_id": "3292f6ded234b3a83eeabb326838406c", "rental_uris": {"ios": "https://dc.lft.to/lastmile_qr_scan", "android": "https://dc.lft.to/lastmile_qr_scan"}}, {"name": "88e27eca72f0463537f83dbff3015b67", "type": "electric_scooter", "lat": 38.9304915, "is_reserved": 0, "lon": -77.02791683333334, "fusion_lon": 0.0, "is_disabled": 0, "fusion_lat": 0.0, "bike_id": "88e27eca72f0463537f83dbff3015b67", "rental_uris": {"ios": "https://dc.lft.to/lastmile_qr_scan", "android": "https://dc.lft.to/lastmile_qr_scan"}}, {"name": "42db272b90299dd182b22e61dea50ccf", "type": "electric_scooter", "lat": 38.9271455, "is_reserved": 0, "lon": -77.0228605, "fusion_lon": 0.0, "is_disabled": 0, "fusion_lat": 0.0, "bike_id": "42db272b90299dd182b22e61dea50ccf", "rental_uris": {"ios": "https://dc.lft.to/lastmile_qr_scan", "android": "https://dc.lft.to/lastmile_qr_scan"}}, {"name": "edd3202f0a2eac6770e3f6e0f2a1a35b", "type": "electric_scooter", "lat": 38.9056225, "is_reserved": 0, "lon": -77.02172733333333, "fusion_lon": 0.0, "is_disabled": 0, "fusion_lat": 0.0, "bike_id": "edd3202f0a2eac6770e3f6e0f2a1a35b", "rental_uris": {"ios": "https://dc.lft.to/lastmile_qr_scan", "android": "https://dc.lft.to/lastmile_qr_scan"}}, {"name": "0e16e0a87c2dab7389322a4ea211b786", "type": "electric_scooter", "lat": 38.924534333333334, "is_reserved": 0, "lon": -77.0337485, "fusion_lon": 0.0, "is_disabled": 0, "fusion_lat": 0.0, "bike_id": "0e16e0a87c2dab7389322a4ea211b786", "rental_uris": {"ios": "https://dc.lft.to/lastmile_qr_scan", "android": "https://dc.lft.to/lastmile_qr_scan"}}, {"name": "49efe2b093a9b5d0e35d84602412f18a", "type": "electric_bike", "lat": 38.945119, "is_reserved": 0, "lon": -77.00674133333334, "fusion_lon": 0.0, "is_disabled": 0, "fusion_lat": 0.0, "bike_id": "49efe2b093a9b5d0e35d84602412f18a", "rental_uris": {"ios": "https://dc.lft.to/lastmile_qr_scan", "android": "https://dc.lft.to/lastmile_qr_scan"}}, {"name": "40e402efb2ada001b4e9005530b9500c", "type": "electric_scooter", "lat": 38.86422233333333, "is_reserved": 0, "lon": -76.980523, "fusion_lon": 0.0, "is_disabled": 0, "fusion_lat": 0.0, "bike_id": "40e402efb2ada001b4e9005530b9500c", "rental_uris": {"ios": "https://dc.lft.to/lastmile_qr_scan", "android": "https://dc.lft.to/lastmile_qr_scan"}}, {"name": "890b5fd8375d8b4a9e136817bd709029", "type": "electric_scooter", "lat": 38.9244675, "is_reserved": 0, "lon": -77.02034616666667, "fusion_lon": 0.0, "is_disabled": 0, "fusion_lat": 0.0, "bike_id": "890b5fd8375d8b4a9e136817bd709029", "rental_uris": {"ios": "https://dc.lft.to/lastmile_qr_scan", "android": "https://dc.lft.to/lastmile_qr_scan"}}, {"name": "fbc8a47437a5ed43c97bccf10e4c7cdb", "type": "electric_scooter", "lat": 38.85525533333333, "is_reserved": 0, "lon": -76.969218, "fusion_lon": 0.0, "is_disabled": 0, "fusion_lat": 0.0, "bike_id": "fbc8a47437a5ed43c97bccf10e4c7cdb", "rental_uris": {"ios": "https://dc.lft.to/lastmile_qr_scan", "android": "https://dc.lft.to/lastmile_qr_scan"}}, {"name": "db1aa56a8a0448d29d1b1707e291ecbe", "type": "electric_scooter", "lat": 38.972383, "is_reserved": 0, "lon": -77.027142, "fusion_lon": 0.0, "is_disabled": 0, "fusion_lat": 0.0, "bike_id": "db1aa56a8a0448d29d1b1707e291ecbe", "rental_uris": {"ios": "https://dc.lft.to/lastmile_qr_scan", "android": "https://dc.lft.to/lastmile_qr_scan"}}, {"name": "f4ea2c41e04e4937dff109da591608e3", "type": "electric_scooter", "lat": 38.918049833333335, "is_reserved": 0, "lon": -77.03622083333333, "fusion_lon": 0.0, "is_disabled": 0, "fusion_lat": 0.0, "bike_id": "f4ea2c41e04e4937dff109da591608e3", "rental_uris": {"ios": "https://dc.lft.to/lastmile_qr_scan", "android": "https://dc.lft.to/lastmile_qr_scan"}}, {"name": "0f57bf81cfe01a87956a4c73cec2ced2", "type": "electric_scooter", "lat": 38.899945833333334, "is_reserved": 0, "lon": -76.995055, "fusion_lon": 0.0, "is_disabled": 0, "fusion_lat": 0.0, "bike_id": "0f57bf81cfe01a87956a4c73cec2ced2", "rental_uris": {"ios": "https://dc.lft.to/lastmile_qr_scan", "android": "https://dc.lft.to/lastmile_qr_scan"}}, {"name": "e182901c2f0a601059be8447e0f0c6e8", "type": "electric_scooter", "lat": 38.89402316666666, "is_reserved": 0, "lon": -76.94807566666667, "fusion_lon": 0.0, "is_disabled": 0, "fusion_lat": 0.0, "bike_id": "e182901c2f0a601059be8447e0f0c6e8", "rental_uris": {"ios": "https://dc.lft.to/lastmile_qr_scan", "android": "https://dc.lft.to/lastmile_qr_scan"}}, {"name": "f9f7fa8b34f491bc36e25fa151378c43", "type": "electric_scooter", "lat": 38.940979, "is_reserved": 0, "lon": -77.03284166666667, "fusion_lon": 0.0, "is_disabled": 0, "fusion_lat": 0.0, "bike_id": "f9f7fa8b34f491bc36e25fa151378c43", "rental_uris": {"ios": "https://dc.lft.to/lastmile_qr_scan", "android": "https://dc.lft.to/lastmile_qr_scan"}}, {"name": "feed229de4adc486c540d572a75e017d", "type": "electric_scooter", "lat": 38.871964166666665, "is_reserved": 0, "lon": -77.00577566666666, "fusion_lon": 0.0, "is_disabled": 0, "fusion_lat": 0.0, "bike_id": "feed229de4adc486c540d572a75e017d", "rental_uris": {"ios": "https://dc.lft.to/lastmile_qr_scan", "android": "https://dc.lft.to/lastmile_qr_scan"}}, {"name": "e3cb3d826cc3026a7cafe349c5861319", "type": "electric_bike", "lat": 38.96176033333333, "is_reserved": 0, "lon": -77.07373283333334, "fusion_lon": 0.0, "is_disabled": 0, "fusion_lat": 0.0, "bike_id": "e3cb3d826cc3026a7cafe349c5861319", "rental_uris": {"ios": "https://dc.lft.to/lastmile_qr_scan", "android": "https://dc.lft.to/lastmile_qr_scan"}}, {"name": "67bc59c106122557056fe5ff12ca80cb", "type": "electric_scooter", "lat": 38.8442615, "is_reserved": 0, "lon": -76.99779583333333, "fusion_lon": 0.0, "is_disabled": 0, "fusion_lat": 0.0, "bike_id": "67bc59c106122557056fe5ff12ca80cb", "rental_uris": {"ios": "https://dc.lft.to/lastmile_qr_scan", "android": "https://dc.lft.to/lastmile_qr_scan"}}, {"name": "53122849dd3900796e12571ad7e7c892", "type": "electric_scooter", "lat": 38.862454, "is_reserved": 0, "lon": -76.9949785, "fusion_lon": 0.0, "is_disabled": 0, "fusion_lat": 0.0, "bike_id": "53122849dd3900796e12571ad7e7c892", "rental_uris": {"ios": "https://dc.lft.to/lastmile_qr_scan", "android": "https://dc.lft.to/lastmile_qr_scan"}}, {"name": "4bdfda8f98380f8609b8df4b584ee2b6", "type": "electric_scooter", "lat": 38.914091, "is_reserved": 0, "lon": -77.039099, "fusion_lon": 0.0, "is_disabled": 0, "fusion_lat": 0.0, "bike_id": "4bdfda8f98380f8609b8df4b584ee2b6", "rental_uris": {"ios": "https://dc.lft.to/lastmile_qr_scan", "android": "https://dc.lft.to/lastmile_qr_scan"}}, {"name": "e09d952496c431ae25d5f3ea4bbc6749", "type": "electric_scooter", "lat": 38.923720333333335, "is_reserved": 0, "lon": -77.03183766666666, "fusion_lon": 0.0, "is_disabled": 0, "fusion_lat": 0.0, "bike_id": "e09d952496c431ae25d5f3ea4bbc6749", "rental_uris": {"ios": "https://dc.lft.to/lastmile_qr_scan", "android": "https://dc.lft.to/lastmile_qr_scan"}}, {"name": "dd198ee2bfc03dcc64a27fbf78a8cf31", "type": "electric_scooter", "lat": 38.915890833333336, "is_reserved": 0, "lon": -76.98374216666667, "fusion_lon": 0.0, "is_disabled": 0, "fusion_lat": 0.0, "bike_id": "dd198ee2bfc03dcc64a27fbf78a8cf31", "rental_uris": {"ios": "https://dc.lft.to/lastmile_qr_scan", "android": "https://dc.lft.to/lastmile_qr_scan"}}, {"name": "4df400bf1dc64dc1be4a0c8b41682801", "type": "electric_scooter", "lat": 38.935294999999996, "is_reserved": 0, "lon": -77.05819083333333, "fusion_lon": 0.0, "is_disabled": 0, "fusion_lat": 0.0, "bike_id": "4df400bf1dc64dc1be4a0c8b41682801", "rental_uris": {"ios": "https://dc.lft.to/lastmile_qr_scan", "android": "https://dc.lft.to/lastmile_qr_scan"}}, {"name": "b92a580cc4541f0d3c531cb60ae93b24", "type": "electric_bike", "lat": 38.855162666666665, "is_reserved": 0, "lon": -77.11156083333333, "fusion_lon": 0.0, "is_disabled": 0, "fusion_lat": 0.0, "bike_id": "b92a580cc4541f0d3c531cb60ae93b24", "rental_uris": {"ios": "https://dc.lft.to/lastmile_qr_scan", "android": "https://dc.lft.to/lastmile_qr_scan"}}, {"name": "04eee10725ffd17b99b04f2c11a7d202", "type": "electric_scooter", "lat": 38.89508933333333, "is_reserved": 0, "lon": -77.00335383333334, "fusion_lon": 0.0, "is_disabled": 0, "fusion_lat": 0.0, "bike_id": "04eee10725ffd17b99b04f2c11a7d202", "rental_uris": {"ios": "https://dc.lft.to/lastmile_qr_scan", "android": "https://dc.lft.to/lastmile_qr_scan"}}, {"name": "cb6d5bc9db72131270b95988f3235d89", "type": "electric_scooter", "lat": 38.8988855, "is_reserved": 0, "lon": -76.93173783333333, "fusion_lon": 0.0, "is_disabled": 0, "fusion_lat": 0.0, "bike_id": "cb6d5bc9db72131270b95988f3235d89", "rental_uris": {"ios": "https://dc.lft.to/lastmile_qr_scan", "android": "https://dc.lft.to/lastmile_qr_scan"}}, {"name": "380c1a59f32c1962ab2f5266552a4260", "type": "electric_scooter", "lat": 38.900376666666666, "is_reserved": 0, "lon": -76.98838816666667, "fusion_lon": 0.0, "is_disabled": 0, "fusion_lat": 0.0, "bike_id": "380c1a59f32c1962ab2f5266552a4260", "rental_uris": {"ios": "https://dc.lft.to/lastmile_qr_scan", "android": "https://dc.lft.to/lastmile_qr_scan"}}, {"name": "59580d328395c131b7cf3cfefd45c7a7", "type": "electric_scooter", "lat": 38.933705, "is_reserved": 0, "lon": -77.02739633333333, "fusion_lon": 0.0, "is_disabled": 0, "fusion_lat": 0.0, "bike_id": "59580d328395c131b7cf3cfefd45c7a7", "rental_uris": {"ios": "https://dc.lft.to/lastmile_qr_scan", "android": "https://dc.lft.to/lastmile_qr_scan"}}, {"name": "b26a5a9900b40ed73318eb540b6f62c3", "type": "electric_scooter", "lat": 38.91574383333333, "is_reserved": 0, "lon": -77.0217675, "fusion_lon": 0.0, "is_disabled": 0, "fusion_lat": 0.0, "bike_id": "b26a5a9900b40ed73318eb540b6f62c3", "rental_uris": {"ios": "https://dc.lft.to/lastmile_qr_scan", "android": "https://dc.lft.to/lastmile_qr_scan"}}, {"name": "1fcafffdc8100272af94cd9be7f41717", "type": "electric_scooter", "lat": 38.91830733333333, "is_reserved": 0, "lon": -77.02326483333333, "fusion_lon": 0.0, "is_disabled": 0, "fusion_lat": 0.0, "bike_id": "1fcafffdc8100272af94cd9be7f41717", "rental_uris": {"ios": "https://dc.lft.to/lastmile_qr_scan", "android": "https://dc.lft.to/lastmile_qr_scan"}}, {"name": "5ed4322f89bdf7ee1bf848cced45c874", "type": "electric_scooter", "lat": 38.921850166666665, "is_reserved": 0, "lon": -77.0427885, "fusion_lon": 0.0, "is_disabled": 0, "fusion_lat": 0.0, "bike_id": "5ed4322f89bdf7ee1bf848cced45c874", "rental_uris": {"ios": "https://dc.lft.to/lastmile_qr_scan", "android": "https://dc.lft.to/lastmile_qr_scan"}}, {"name": "f604eb0bcb35849d5f50830f351d25da", "type": "electric_scooter", "lat": 38.8960855, "is_reserved": 0, "lon": -77.05085766666667, "fusion_lon": 0.0, "is_disabled": 0, "fusion_lat": 0.0, "bike_id": "f604eb0bcb35849d5f50830f351d25da", "rental_uris": {"ios": "https://dc.lft.to/lastmile_qr_scan", "android": "https://dc.lft.to/lastmile_qr_scan"}}, {"name": "06987f7a9e7d8d8768a3bbf3ce5cbbee", "type": "electric_scooter", "lat": 38.8922235, "is_reserved": 0, "lon": -77.04643366666667, "fusion_lon": 0.0, "is_disabled": 0, "fusion_lat": 0.0, "bike_id": "06987f7a9e7d8d8768a3bbf3ce5cbbee", "rental_uris": {"ios": "https://dc.lft.to/lastmile_qr_scan", "android": "https://dc.lft.to/lastmile_qr_scan"}}, {"name": "cb5a645b9dd55059218973c958e06055", "type": "electric_scooter", "lat": 38.921551, "is_reserved": 0, "lon": -77.03659283333333, "fusion_lon": 0.0, "is_disabled": 0, "fusion_lat": 0.0, "bike_id": "cb5a645b9dd55059218973c958e06055", "rental_uris": {"ios": "https://dc.lft.to/lastmile_qr_scan", "android": "https://dc.lft.to/lastmile_qr_scan"}}, {"name": "2ba549eb44c659a7bfa3414480937829", "type": "electric_scooter", "lat": 38.949596666666665, "is_reserved": 0, "lon": -77.02724733333334, "fusion_lon": 0.0, "is_disabled": 0, "fusion_lat": 0.0, "bike_id": "2ba549eb44c659a7bfa3414480937829", "rental_uris": {"ios": "https://dc.lft.to/lastmile_qr_scan", "android": "https://dc.lft.to/lastmile_qr_scan"}}, {"name": "6e51e8eeb02be5fd26ac5d69ff699152", "type": "electric_scooter", "lat": 38.913592666666666, "is_reserved": 0, "lon": -77.03967733333333, "fusion_lon": 0.0, "is_disabled": 0, "fusion_lat": 0.0, "bike_id": "6e51e8eeb02be5fd26ac5d69ff699152", "rental_uris": {"ios": "https://dc.lft.to/lastmile_qr_scan", "android": "https://dc.lft.to/lastmile_qr_scan"}}, {"name": "03d8bf135892da53708e8418b0641864", "type": "electric_bike", "lat": 38.839363, "is_reserved": 0, "lon": -77.07906733333333, "fusion_lon": 0.0, "is_disabled": 0, "fusion_lat": 0.0, "bike_id": "03d8bf135892da53708e8418b0641864", "rental_uris": {"ios": "https://dc.lft.to/lastmile_qr_scan", "android": "https://dc.lft.to/lastmile_qr_scan"}}, {"name": "299fbc141bebe9d9b2af92fcf5eb2f3b", "type": "electric_scooter", "lat": 38.92727166666667, "is_reserved": 0, "lon": -77.02501333333333, "fusion_lon": 0.0, "is_disabled": 0, "fusion_lat": 0.0, "bike_id": "299fbc141bebe9d9b2af92fcf5eb2f3b", "rental_uris": {"ios": "https://dc.lft.to/lastmile_qr_scan", "android": "https://dc.lft.to/lastmile_qr_scan"}}, {"name": "0b924f217cb10999c2d125a1f3575f75", "type": "electric_scooter", "lat": 38.922749333333336, "is_reserved": 0, "lon": -77.03666066666666, "fusion_lon": 0.0, "is_disabled": 0, "fusion_lat": 0.0, "bike_id": "0b924f217cb10999c2d125a1f3575f75", "rental_uris": {"ios": "https://dc.lft.to/lastmile_qr_scan", "android": "https://dc.lft.to/lastmile_qr_scan"}}, {"name": "b9889f139a77a76868bad6d6c2aed6a8", "type": "electric_scooter", "lat": 38.93266083333334, "is_reserved": 0, "lon": -77.03280083333334, "fusion_lon": 0.0, "is_disabled": 0, "fusion_lat": 0.0, "bike_id": "b9889f139a77a76868bad6d6c2aed6a8", "rental_uris": {"ios": "https://dc.lft.to/lastmile_qr_scan", "android": "https://dc.lft.to/lastmile_qr_scan"}}, {"name": "894ed71416105635ad14e159be30eb3e", "type": "electric_scooter", "lat": 38.92245783333333, "is_reserved": 0, "lon": -77.02958683333334, "fusion_lon": 0.0, "is_disabled": 0, "fusion_lat": 0.0, "bike_id": "894ed71416105635ad14e159be30eb3e", "rental_uris": {"ios": "https://dc.lft.to/lastmile_qr_scan", "android": "https://dc.lft.to/lastmile_qr_scan"}}, {"name": "96d78d7be37bcad8f992d0cf99ea5615", "type": "electric_bike", "lat": 38.9053575, "is_reserved": 0, "lon": -76.99807216666666, "fusion_lon": 0.0, "is_disabled": 0, "fusion_lat": 0.0, "bike_id": "96d78d7be37bcad8f992d0cf99ea5615", "rental_uris": {"ios": "https://dc.lft.to/lastmile_qr_scan", "android": "https://dc.lft.to/lastmile_qr_scan"}}, {"name": "0e4fd65803c7ec87a79b066353bcf277", "type": "electric_scooter", "lat": 38.9133075, "is_reserved": 0, "lon": -77.0305105, "fusion_lon": 0.0, "is_disabled": 0, "fusion_lat": 0.0, "bike_id": "0e4fd65803c7ec87a79b066353bcf277", "rental_uris": {"ios": "https://dc.lft.to/lastmile_qr_scan", "android": "https://dc.lft.to/lastmile_qr_scan"}}, {"name": "1da1f135798265c8265b97b89097a461", "type": "electric_scooter", "lat": 38.94155, "is_reserved": 0, "lon": -77.03653183333333, "fusion_lon": 0.0, "is_disabled": 0, "fusion_lat": 0.0, "bike_id": "1da1f135798265c8265b97b89097a461", "rental_uris": {"ios": "https://dc.lft.to/lastmile_qr_scan", "android": "https://dc.lft.to/lastmile_qr_scan"}}, {"name": "2d103f79d8e8e50c21ade15766fffa29", "type": "electric_scooter", "lat": 38.931002666666664, "is_reserved": 0, "lon": -77.02674533333334, "fusion_lon": 0.0, "is_disabled": 0, "fusion_lat": 0.0, "bike_id": "2d103f79d8e8e50c21ade15766fffa29", "rental_uris": {"ios": "https://dc.lft.to/lastmile_qr_scan", "android": "https://dc.lft.to/lastmile_qr_scan"}}, {"name": "13f2d77a91504b16514a3e38bae5b96a", "type": "electric_scooter", "lat": 38.89906833333333, "is_reserved": 0, "lon": -77.00702766666667, "fusion_lon": 0.0, "is_disabled": 0, "fusion_lat": 0.0, "bike_id": "13f2d77a91504b16514a3e38bae5b96a", "rental_uris": {"ios": "https://dc.lft.to/lastmile_qr_scan", "android": "https://dc.lft.to/lastmile_qr_scan"}}, {"name": "f036a0e6be8f2e74c9a7435695327257", "type": "electric_scooter", "lat": 38.898274, "is_reserved": 0, "lon": -76.92639933333334, "fusion_lon": 0.0, "is_disabled": 0, "fusion_lat": 0.0, "bike_id": "f036a0e6be8f2e74c9a7435695327257", "rental_uris": {"ios": "https://dc.lft.to/lastmile_qr_scan", "android": "https://dc.lft.to/lastmile_qr_scan"}}, {"name": "a65b1e38985f9e8c2cc66100eb4a7e9d", "type": "electric_scooter", "lat": 38.866989333333336, "is_reserved": 0, "lon": -76.9871655, "fusion_lon": 0.0, "is_disabled": 0, "fusion_lat": 0.0, "bike_id": "a65b1e38985f9e8c2cc66100eb4a7e9d", "rental_uris": {"ios": "https://dc.lft.to/lastmile_qr_scan", "android": "https://dc.lft.to/lastmile_qr_scan"}}, {"name": "1ee64d73b2867e440142a8cc1a3810c8", "type": "electric_bike", "lat": 38.9909215, "is_reserved": 0, "lon": -76.8749695, "fusion_lon": 0.0, "is_disabled": 0, "fusion_lat": 0.0, "bike_id": "1ee64d73b2867e440142a8cc1a3810c8", "rental_uris": {"ios": "https://dc.lft.to/lastmile_qr_scan", "android": "https://dc.lft.to/lastmile_qr_scan"}}, {"name": "f4160c595689d95176c341a8c77e2b79", "type": "electric_scooter", "lat": 38.937182666666665, "is_reserved": 0, "lon": -77.03647833333333, "fusion_lon": 0.0, "is_disabled": 0, "fusion_lat": 0.0, "bike_id": "f4160c595689d95176c341a8c77e2b79", "rental_uris": {"ios": "https://dc.lft.to/lastmile_qr_scan", "android": "https://dc.lft.to/lastmile_qr_scan"}}, {"name": "7da0eb2945441fcd341b48ec4e244715", "type": "electric_scooter", "lat": 38.89674516666667, "is_reserved": 0, "lon": -77.05403666666666, "fusion_lon": 0.0, "is_disabled": 0, "fusion_lat": 0.0, "bike_id": "7da0eb2945441fcd341b48ec4e244715", "rental_uris": {"ios": "https://dc.lft.to/lastmile_qr_scan", "android": "https://dc.lft.to/lastmile_qr_scan"}}, {"name": "73071dd5a066dc1648de477e170cdd41", "type": "electric_scooter", "lat": 38.922886166666665, "is_reserved": 0, "lon": -77.02066083333334, "fusion_lon": 0.0, "is_disabled": 0, "fusion_lat": 0.0, "bike_id": "73071dd5a066dc1648de477e170cdd41", "rental_uris": {"ios": "https://dc.lft.to/lastmile_qr_scan", "android": "https://dc.lft.to/lastmile_qr_scan"}}, {"name": "e0bfc12655d6fe061b19957c9b24c391", "type": "electric_scooter", "lat": 38.90368816666667, "is_reserved": 0, "lon": -77.03998266666666, "fusion_lon": 0.0, "is_disabled": 0, "fusion_lat": 0.0, "bike_id": "e0bfc12655d6fe061b19957c9b24c391", "rental_uris": {"ios": "https://dc.lft.to/lastmile_qr_scan", "android": "https://dc.lft.to/lastmile_qr_scan"}}, {"name": "9733d0430ea075ad9c0889ac1c954e51", "type": "electric_scooter", "lat": 38.921206833333336, "is_reserved": 0, "lon": -77.03661483333333, "fusion_lon": 0.0, "is_disabled": 0, "fusion_lat": 0.0, "bike_id": "9733d0430ea075ad9c0889ac1c954e51", "rental_uris": {"ios": "https://dc.lft.to/lastmile_qr_scan", "android": "https://dc.lft.to/lastmile_qr_scan"}}, {"name": "95fb051706eea2deefddfa6c053f5e59", "type": "electric_scooter", "lat": 38.902907, "is_reserved": 0, "lon": -77.017353, "fusion_lon": 0.0, "is_disabled": 0, "fusion_lat": 0.0, "bike_id": "95fb051706eea2deefddfa6c053f5e59", "rental_uris": {"ios": "https://dc.lft.to/lastmile_qr_scan", "android": "https://dc.lft.to/lastmile_qr_scan"}}, {"name": "dbfdfb981f10f379b05dd40ff470ceee", "type": "electric_scooter", "lat": 38.90655683333333, "is_reserved": 0, "lon": -77.03856333333333, "fusion_lon": 0.0, "is_disabled": 0, "fusion_lat": 0.0, "bike_id": "dbfdfb981f10f379b05dd40ff470ceee", "rental_uris": {"ios": "https://dc.lft.to/lastmile_qr_scan", "android": "https://dc.lft.to/lastmile_qr_scan"}}, {"name": "1b1434301dc73d62f4caeada7436f68c", "type": "electric_scooter", "lat": 38.863547833333335, "is_reserved": 0, "lon": -76.99072133333334, "fusion_lon": 0.0, "is_disabled": 0, "fusion_lat": 0.0, "bike_id": "1b1434301dc73d62f4caeada7436f68c", "rental_uris": {"ios": "https://dc.lft.to/lastmile_qr_scan", "android": "https://dc.lft.to/lastmile_qr_scan"}}, {"name": "5bc08a1191feb3a1c30c5e417a866eea", "type": "electric_scooter", "lat": 38.892235166666666, "is_reserved": 0, "lon": -77.0486715, "fusion_lon": 0.0, "is_disabled": 0, "fusion_lat": 0.0, "bike_id": "5bc08a1191feb3a1c30c5e417a866eea", "rental_uris": {"ios": "https://dc.lft.to/lastmile_qr_scan", "android": "https://dc.lft.to/lastmile_qr_scan"}}, {"name": "480424c1d5007b5c2cfc23c0a85af02c", "type": "electric_bike", "lat": 38.876795333333334, "is_reserved": 0, "lon": -77.01456633333333, "fusion_lon": 0.0, "is_disabled": 0, "fusion_lat": 0.0, "bike_id": "480424c1d5007b5c2cfc23c0a85af02c", "rental_uris": {"ios": "https://dc.lft.to/lastmile_qr_scan", "android": "https://dc.lft.to/lastmile_qr_scan"}}, {"name": "c6c86eb0dc9575741263c8baf091d286", "type": "electric_scooter", "lat": 38.91340616666667, "is_reserved": 0, "lon": -77.04838666666667, "fusion_lon": 0.0, "is_disabled": 0, "fusion_lat": 0.0, "bike_id": "c6c86eb0dc9575741263c8baf091d286", "rental_uris": {"ios": "https://dc.lft.to/lastmile_qr_scan", "android": "https://dc.lft.to/lastmile_qr_scan"}}, {"name": "4286aa6da9145a10ef5ed89b8913b9b8", "type": "electric_bike", "lat": 38.9358085, "is_reserved": 0, "lon": -77.02124183333333, "fusion_lon": 0.0, "is_disabled": 0, "fusion_lat": 0.0, "bike_id": "4286aa6da9145a10ef5ed89b8913b9b8", "rental_uris": {"ios": "https://dc.lft.to/lastmile_qr_scan", "android": "https://dc.lft.to/lastmile_qr_scan"}}, {"name": "39af4bd8e388283f4e972af09b12b981", "type": "electric_scooter", "lat": 38.90022716666667, "is_reserved": 0, "lon": -76.99812433333334, "fusion_lon": 0.0, "is_disabled": 0, "fusion_lat": 0.0, "bike_id": "39af4bd8e388283f4e972af09b12b981", "rental_uris": {"ios": "https://dc.lft.to/lastmile_qr_scan", "android": "https://dc.lft.to/lastmile_qr_scan"}}, {"name": "1bc67c9c1e27c30ad5df9cc1d1a9f476", "type": "electric_scooter", "lat": 38.90118433333333, "is_reserved": 0, "lon": -77.04989116666667, "fusion_lon": 0.0, "is_disabled": 0, "fusion_lat": 0.0, "bike_id": "1bc67c9c1e27c30ad5df9cc1d1a9f476", "rental_uris": {"ios": "https://dc.lft.to/lastmile_qr_scan", "android": "https://dc.lft.to/lastmile_qr_scan"}}, {"name": "e619855807eec1ef8ba2a4f92ea149ec", "type": "electric_scooter", "lat": 38.94043766666667, "is_reserved": 0, "lon": -77.02708166666666, "fusion_lon": 0.0, "is_disabled": 0, "fusion_lat": 0.0, "bike_id": "e619855807eec1ef8ba2a4f92ea149ec", "rental_uris": {"ios": "https://dc.lft.to/lastmile_qr_scan", "android": "https://dc.lft.to/lastmile_qr_scan"}}, {"name": "e0749dd1bd82778d58ae0c21b14ac561", "type": "electric_scooter", "lat": 38.90229883333333, "is_reserved": 0, "lon": -77.017578, "fusion_lon": 0.0, "is_disabled": 0, "fusion_lat": 0.0, "bike_id": "e0749dd1bd82778d58ae0c21b14ac561", "rental_uris": {"ios": "https://dc.lft.to/lastmile_qr_scan", "android": "https://dc.lft.to/lastmile_qr_scan"}}, {"name": "68d07d586ed1ff96efd1e3837334cecd", "type": "electric_scooter", "lat": 38.8783965, "is_reserved": 0, "lon": -76.98845083333333, "fusion_lon": 0.0, "is_disabled": 0, "fusion_lat": 0.0, "bike_id": "68d07d586ed1ff96efd1e3837334cecd", "rental_uris": {"ios": "https://dc.lft.to/lastmile_qr_scan", "android": "https://dc.lft.to/lastmile_qr_scan"}}, {"name": "a838b4bbb75f22057cb57b149e19666d", "type": "electric_scooter", "lat": 38.9148385, "is_reserved": 0, "lon": -77.021812, "fusion_lon": 0.0, "is_disabled": 0, "fusion_lat": 0.0, "bike_id": "a838b4bbb75f22057cb57b149e19666d", "rental_uris": {"ios": "https://dc.lft.to/lastmile_qr_scan", "android": "https://dc.lft.to/lastmile_qr_scan"}}, {"name": "a56a538516e4d61033602bb3c9293342", "type": "electric_scooter", "lat": 38.92042433333334, "is_reserved": 0, "lon": -77.04178466666667, "fusion_lon": 0.0, "is_disabled": 0, "fusion_lat": 0.0, "bike_id": "a56a538516e4d61033602bb3c9293342", "rental_uris": {"ios": "https://dc.lft.to/lastmile_qr_scan", "android": "https://dc.lft.to/lastmile_qr_scan"}}, {"name": "226a88998ecd8eb03cd7d9b419775c56", "type": "electric_scooter", "lat": 38.88049783333334, "is_reserved": 0, "lon": -77.0132845, "fusion_lon": 0.0, "is_disabled": 0, "fusion_lat": 0.0, "bike_id": "226a88998ecd8eb03cd7d9b419775c56", "rental_uris": {"ios": "https://dc.lft.to/lastmile_qr_scan", "android": "https://dc.lft.to/lastmile_qr_scan"}}, {"name": "a4c27a38cf9ab95403c735342b355653", "type": "electric_scooter", "lat": 38.89886283333333, "is_reserved": 0, "lon": -76.93175816666667, "fusion_lon": 0.0, "is_disabled": 0, "fusion_lat": 0.0, "bike_id": "a4c27a38cf9ab95403c735342b355653", "rental_uris": {"ios": "https://dc.lft.to/lastmile_qr_scan", "android": "https://dc.lft.to/lastmile_qr_scan"}}, {"name": "009c283e02a52ca882497cd6461107e3", "type": "electric_scooter", "lat": 38.8952415, "is_reserved": 0, "lon": -76.9913935, "fusion_lon": 0.0, "is_disabled": 0, "fusion_lat": 0.0, "bike_id": "009c283e02a52ca882497cd6461107e3", "rental_uris": {"ios": "https://dc.lft.to/lastmile_qr_scan", "android": "https://dc.lft.to/lastmile_qr_scan"}}, {"name": "a0fe938614217f77229bf5bb20db798f", "type": "electric_scooter", "lat": 38.94208966666667, "is_reserved": 0, "lon": -77.03585516666666, "fusion_lon": 0.0, "is_disabled": 0, "fusion_lat": 0.0, "bike_id": "a0fe938614217f77229bf5bb20db798f", "rental_uris": {"ios": "https://dc.lft.to/lastmile_qr_scan", "android": "https://dc.lft.to/lastmile_qr_scan"}}, {"name": "b3cd16013a66a71bab4fb7f72b1352f6", "type": "electric_scooter", "lat": 38.96724833333333, "is_reserved": 0, "lon": -77.02349866666667, "fusion_lon": 0.0, "is_disabled": 0, "fusion_lat": 0.0, "bike_id": "b3cd16013a66a71bab4fb7f72b1352f6", "rental_uris": {"ios": "https://dc.lft.to/lastmile_qr_scan", "android": "https://dc.lft.to/lastmile_qr_scan"}}, {"name": "b4dbf05561852e29db9af5b0de1578ad", "type": "electric_scooter", "lat": 38.90467233333333, "is_reserved": 0, "lon": -77.04168966666667, "fusion_lon": 0.0, "is_disabled": 0, "fusion_lat": 0.0, "bike_id": "b4dbf05561852e29db9af5b0de1578ad", "rental_uris": {"ios": "https://dc.lft.to/lastmile_qr_scan", "android": "https://dc.lft.to/lastmile_qr_scan"}}, {"name": "37c86a5b95c0bd3f75df9042fb84f747", "type": "electric_scooter", "lat": 38.887186666666665, "is_reserved": 0, "lon": -77.01781966666667, "fusion_lon": 0.0, "is_disabled": 0, "fusion_lat": 0.0, "bike_id": "37c86a5b95c0bd3f75df9042fb84f747", "rental_uris": {"ios": "https://dc.lft.to/lastmile_qr_scan", "android": "https://dc.lft.to/lastmile_qr_scan"}}, {"name": "3f80617130fee710971963e9bd2ea36b", "type": "electric_scooter", "lat": 38.928676333333335, "is_reserved": 0, "lon": -77.026085, "fusion_lon": 0.0, "is_disabled": 0, "fusion_lat": 0.0, "bike_id": "3f80617130fee710971963e9bd2ea36b", "rental_uris": {"ios": "https://dc.lft.to/lastmile_qr_scan", "android": "https://dc.lft.to/lastmile_qr_scan"}}, {"name": "92b19e5d11742b72d20eec521cdde37d", "type": "electric_scooter", "lat": 38.93531616666667, "is_reserved": 0, "lon": -77.03277983333334, "fusion_lon": 0.0, "is_disabled": 0, "fusion_lat": 0.0, "bike_id": "92b19e5d11742b72d20eec521cdde37d", "rental_uris": {"ios": "https://dc.lft.to/lastmile_qr_scan", "android": "https://dc.lft.to/lastmile_qr_scan"}}, {"name": "76a2b9806fc3f3321bb0a59a5e420b0e", "type": "electric_scooter", "lat": 38.9339995, "is_reserved": 0, "lon": -77.0574515, "fusion_lon": 0.0, "is_disabled": 0, "fusion_lat": 0.0, "bike_id": "76a2b9806fc3f3321bb0a59a5e420b0e", "rental_uris": {"ios": "https://dc.lft.to/lastmile_qr_scan", "android": "https://dc.lft.to/lastmile_qr_scan"}}, {"name": "1ebf7e858b2262d0ac2280e27275c8c0", "type": "electric_scooter", "lat": 38.88371933333333, "is_reserved": 0, "lon": -77.0195355, "fusion_lon": 0.0, "is_disabled": 0, "fusion_lat": 0.0, "bike_id": "1ebf7e858b2262d0ac2280e27275c8c0", "rental_uris": {"ios": "https://dc.lft.to/lastmile_qr_scan", "android": "https://dc.lft.to/lastmile_qr_scan"}}, {"name": "9408f4e92d4bac7da6a252cb0fb8bdb2", "type": "electric_scooter", "lat": 38.921122833333335, "is_reserved": 0, "lon": -77.036484, "fusion_lon": 0.0, "is_disabled": 0, "fusion_lat": 0.0, "bike_id": "9408f4e92d4bac7da6a252cb0fb8bdb2", "rental_uris": {"ios": "https://dc.lft.to/lastmile_qr_scan", "android": "https://dc.lft.to/lastmile_qr_scan"}}, {"name": "3af56f61829960746efd2a108a92b09d", "type": "electric_scooter", "lat": 38.901153, "is_reserved": 0, "lon": -77.04989083333334, "fusion_lon": 0.0, "is_disabled": 0, "fusion_lat": 0.0, "bike_id": "3af56f61829960746efd2a108a92b09d", "rental_uris": {"ios": "https://dc.lft.to/lastmile_qr_scan", "android": "https://dc.lft.to/lastmile_qr_scan"}}, {"name": "78006254b1614bd1de935bc8e34a4887", "type": "electric_bike", "lat": 38.85250516666667, "is_reserved": 0, "lon": -77.1142615, "fusion_lon": 0.0, "is_disabled": 0, "fusion_lat": 0.0, "bike_id": "78006254b1614bd1de935bc8e34a4887", "rental_uris": {"ios": "https://dc.lft.to/lastmile_qr_scan", "android": "https://dc.lft.to/lastmile_qr_scan"}}, {"name": "d8248e717f5d522f83dfde0f7f66eba3", "type": "electric_scooter", "lat": 38.91917183333333, "is_reserved": 0, "lon": -77.03019783333333, "fusion_lon": 0.0, "is_disabled": 0, "fusion_lat": 0.0, "bike_id": "d8248e717f5d522f83dfde0f7f66eba3", "rental_uris": {"ios": "https://dc.lft.to/lastmile_qr_scan", "android": "https://dc.lft.to/lastmile_qr_scan"}}, {"name": "0d77581cc79b1d5e3cc58f97b299ff70", "type": "electric_scooter", "lat": 38.89948366666667, "is_reserved": 0, "lon": -77.02978916666666, "fusion_lon": 0.0, "is_disabled": 0, "fusion_lat": 0.0, "bike_id": "0d77581cc79b1d5e3cc58f97b299ff70", "rental_uris": {"ios": "https://dc.lft.to/lastmile_qr_scan", "android": "https://dc.lft.to/lastmile_qr_scan"}}, {"name": "61dbd0c59d748dd9360b94f1bb1f27d7", "type": "electric_scooter", "lat": 38.9027995, "is_reserved": 0, "lon": -77.03840683333334, "fusion_lon": 0.0, "is_disabled": 0, "fusion_lat": 0.0, "bike_id": "61dbd0c59d748dd9360b94f1bb1f27d7", "rental_uris": {"ios": "https://dc.lft.to/lastmile_qr_scan", "android": "https://dc.lft.to/lastmile_qr_scan"}}, {"name": "72f50489c4ce3123417f7a4518dac365", "type": "electric_scooter", "lat": 38.84292766666667, "is_reserved": 0, "lon": -76.99948016666667, "fusion_lon": 0.0, "is_disabled": 0, "fusion_lat": 0.0, "bike_id": "72f50489c4ce3123417f7a4518dac365", "rental_uris": {"ios": "https://dc.lft.to/lastmile_qr_scan", "android": "https://dc.lft.to/lastmile_qr_scan"}}, {"name": "99605203f3e613ed12eba94eca85efb3", "type": "electric_scooter", "lat": 38.922637333333334, "is_reserved": 0, "lon": -77.03639933333334, "fusion_lon": 0.0, "is_disabled": 0, "fusion_lat": 0.0, "bike_id": "99605203f3e613ed12eba94eca85efb3", "rental_uris": {"ios": "https://dc.lft.to/lastmile_qr_scan", "android": "https://dc.lft.to/lastmile_qr_scan"}}, {"name": "73ef2fcd8e77bd382ea9bd290eb5798a", "type": "electric_scooter", "lat": 38.955299833333335, "is_reserved": 0, "lon": -77.06977583333334, "fusion_lon": 0.0, "is_disabled": 0, "fusion_lat": 0.0, "bike_id": "73ef2fcd8e77bd382ea9bd290eb5798a", "rental_uris": {"ios": "https://dc.lft.to/lastmile_qr_scan", "android": "https://dc.lft.to/lastmile_qr_scan"}}, {"name": "c648e447e7c32c71ffe2d5b46049e860", "type": "electric_scooter", "lat": 38.9248085, "is_reserved": 0, "lon": -77.02673716666666, "fusion_lon": 0.0, "is_disabled": 0, "fusion_lat": 0.0, "bike_id": "c648e447e7c32c71ffe2d5b46049e860", "rental_uris": {"ios": "https://dc.lft.to/lastmile_qr_scan", "android": "https://dc.lft.to/lastmile_qr_scan"}}, {"name": "851126449be92c7d4d950fd7b331c889", "type": "electric_scooter", "lat": 38.89979666666667, "is_reserved": 0, "lon": -77.02942633333333, "fusion_lon": 0.0, "is_disabled": 0, "fusion_lat": 0.0, "bike_id": "851126449be92c7d4d950fd7b331c889", "rental_uris": {"ios": "https://dc.lft.to/lastmile_qr_scan", "android": "https://dc.lft.to/lastmile_qr_scan"}}, {"name": "6b9266a3e6f8b928c0a30b0adb50195a", "type": "electric_scooter", "lat": 38.91945333333334, "is_reserved": 0, "lon": -77.0454815, "fusion_lon": 0.0, "is_disabled": 0, "fusion_lat": 0.0, "bike_id": "6b9266a3e6f8b928c0a30b0adb50195a", "rental_uris": {"ios": "https://dc.lft.to/lastmile_qr_scan", "android": "https://dc.lft.to/lastmile_qr_scan"}}, {"name": "3726b2198cd3880275ea56e6a05215f2", "type": "electric_scooter", "lat": 38.8652465, "is_reserved": 0, "lon": -76.990325, "fusion_lon": 0.0, "is_disabled": 0, "fusion_lat": 0.0, "bike_id": "3726b2198cd3880275ea56e6a05215f2", "rental_uris": {"ios": "https://dc.lft.to/lastmile_qr_scan", "android": "https://dc.lft.to/lastmile_qr_scan"}}, {"name": "f88bc0bafd29be3dbed13f415ebf627a", "type": "electric_scooter", "lat": 38.93517766666667, "is_reserved": 0, "lon": -77.0247435, "fusion_lon": 0.0, "is_disabled": 0, "fusion_lat": 0.0, "bike_id": "f88bc0bafd29be3dbed13f415ebf627a", "rental_uris": {"ios": "https://dc.lft.to/lastmile_qr_scan", "android": "https://dc.lft.to/lastmile_qr_scan"}}, {"name": "c98e96f100bb0d8a772a0a4e30d2bb17", "type": "electric_bike", "lat": 38.958821, "is_reserved": 0, "lon": -77.0173995, "fusion_lon": 0.0, "is_disabled": 0, "fusion_lat": 0.0, "bike_id": "c98e96f100bb0d8a772a0a4e30d2bb17", "rental_uris": {"ios": "https://dc.lft.to/lastmile_qr_scan", "android": "https://dc.lft.to/lastmile_qr_scan"}}, {"name": "6e5f17d3f6d62963c769e4d06871338e", "type": "electric_scooter", "lat": 38.921153333333336, "is_reserved": 0, "lon": -77.0420705, "fusion_lon": 0.0, "is_disabled": 0, "fusion_lat": 0.0, "bike_id": "6e5f17d3f6d62963c769e4d06871338e", "rental_uris": {"ios": "https://dc.lft.to/lastmile_qr_scan", "android": "https://dc.lft.to/lastmile_qr_scan"}}, {"name": "77d4545ecf5260c6a14084f4fc74c108", "type": "electric_scooter", "lat": 38.9397395, "is_reserved": 0, "lon": -77.0326175, "fusion_lon": 0.0, "is_disabled": 0, "fusion_lat": 0.0, "bike_id": "77d4545ecf5260c6a14084f4fc74c108", "rental_uris": {"ios": "https://dc.lft.to/lastmile_qr_scan", "android": "https://dc.lft.to/lastmile_qr_scan"}}, {"name": "8df8578b22773a4d7de7c168600cb721", "type": "electric_scooter", "lat": 38.881137833333334, "is_reserved": 0, "lon": -76.99954033333333, "fusion_lon": 0.0, "is_disabled": 0, "fusion_lat": 0.0, "bike_id": "8df8578b22773a4d7de7c168600cb721", "rental_uris": {"ios": "https://dc.lft.to/lastmile_qr_scan", "android": "https://dc.lft.to/lastmile_qr_scan"}}, {"name": "02fb8cc8c05d550e6c94d7e5dee87c20", "type": "electric_scooter", "lat": 38.87650033333333, "is_reserved": 0, "lon": -76.96509833333333, "fusion_lon": 0.0, "is_disabled": 0, "fusion_lat": 0.0, "bike_id": "02fb8cc8c05d550e6c94d7e5dee87c20", "rental_uris": {"ios": "https://dc.lft.to/lastmile_qr_scan", "android": "https://dc.lft.to/lastmile_qr_scan"}}, {"name": "0f09bce16ccf96884f87c60af9db58ce", "type": "electric_scooter", "lat": 38.939515666666665, "is_reserved": 0, "lon": -77.03271283333333, "fusion_lon": 0.0, "is_disabled": 0, "fusion_lat": 0.0, "bike_id": "0f09bce16ccf96884f87c60af9db58ce", "rental_uris": {"ios": "https://dc.lft.to/lastmile_qr_scan", "android": "https://dc.lft.to/lastmile_qr_scan"}}, {"name": "2ba06709325bea671e1991d10a6ac62c", "type": "electric_scooter", "lat": 38.9407895, "is_reserved": 0, "lon": -77.02702483333333, "fusion_lon": 0.0, "is_disabled": 0, "fusion_lat": 0.0, "bike_id": "2ba06709325bea671e1991d10a6ac62c", "rental_uris": {"ios": "https://dc.lft.to/lastmile_qr_scan", "android": "https://dc.lft.to/lastmile_qr_scan"}}, {"name": "210fb6e5354c58cb95fac77406bd7d29", "type": "electric_scooter", "lat": 38.91796033333333, "is_reserved": 0, "lon": -77.02715533333334, "fusion_lon": 0.0, "is_disabled": 0, "fusion_lat": 0.0, "bike_id": "210fb6e5354c58cb95fac77406bd7d29", "rental_uris": {"ios": "https://dc.lft.to/lastmile_qr_scan", "android": "https://dc.lft.to/lastmile_qr_scan"}}, {"name": "5dcea6908ff48149a37a05a849554675", "type": "electric_bike", "lat": 38.99064216666667, "is_reserved": 0, "lon": -77.10031216666667, "fusion_lon": 0.0, "is_disabled": 0, "fusion_lat": 0.0, "bike_id": "5dcea6908ff48149a37a05a849554675", "rental_uris": {"ios": "https://dc.lft.to/lastmile_qr_scan", "android": "https://dc.lft.to/lastmile_qr_scan"}}, {"name": "f7b3aa8e100c267f0055630ee9f7d112", "type": "electric_scooter", "lat": 38.9234445, "is_reserved": 0, "lon": -77.0351775, "fusion_lon": 0.0, "is_disabled": 0, "fusion_lat": 0.0, "bike_id": "f7b3aa8e100c267f0055630ee9f7d112", "rental_uris": {"ios": "https://dc.lft.to/lastmile_qr_scan", "android": "https://dc.lft.to/lastmile_qr_scan"}}, {"name": "53bfde3dd643cb54bb0196f20369f58d", "type": "electric_scooter", "lat": 38.929553, "is_reserved": 0, "lon": -77.0347335, "fusion_lon": 0.0, "is_disabled": 0, "fusion_lat": 0.0, "bike_id": "53bfde3dd643cb54bb0196f20369f58d", "rental_uris": {"ios": "https://dc.lft.to/lastmile_qr_scan", "android": "https://dc.lft.to/lastmile_qr_scan"}}, {"name": "2d7b0bdb6c52c0c56aefb550d3aaad7a", "type": "electric_scooter", "lat": 38.88327833333334, "is_reserved": 0, "lon": -77.01744516666666, "fusion_lon": 0.0, "is_disabled": 0, "fusion_lat": 0.0, "bike_id": "2d7b0bdb6c52c0c56aefb550d3aaad7a", "rental_uris": {"ios": "https://dc.lft.to/lastmile_qr_scan", "android": "https://dc.lft.to/lastmile_qr_scan"}}, {"name": "27a2192db54177ff995a6a6b35bbee75", "type": "electric_scooter", "lat": 38.938407166666664, "is_reserved": 0, "lon": -77.0247385, "fusion_lon": 0.0, "is_disabled": 0, "fusion_lat": 0.0, "bike_id": "27a2192db54177ff995a6a6b35bbee75", "rental_uris": {"ios": "https://dc.lft.to/lastmile_qr_scan", "android": "https://dc.lft.to/lastmile_qr_scan"}}, {"name": "a5ad873a38935cd3a521595b00906a1d", "type": "electric_scooter", "lat": 38.9131305, "is_reserved": 0, "lon": -77.0448575, "fusion_lon": 0.0, "is_disabled": 0, "fusion_lat": 0.0, "bike_id": "a5ad873a38935cd3a521595b00906a1d", "rental_uris": {"ios": "https://dc.lft.to/lastmile_qr_scan", "android": "https://dc.lft.to/lastmile_qr_scan"}}, {"name": "4d9f90ca2f16ee348cf8658ad6a2be8d", "type": "electric_scooter", "lat": 38.907370666666665, "is_reserved": 0, "lon": -77.03066983333333, "fusion_lon": 0.0, "is_disabled": 0, "fusion_lat": 0.0, "bike_id": "4d9f90ca2f16ee348cf8658ad6a2be8d", "rental_uris": {"ios": "https://dc.lft.to/lastmile_qr_scan", "android": "https://dc.lft.to/lastmile_qr_scan"}}, {"name": "92a618a3acbd6c26aab6f483876d6e00", "type": "electric_scooter", "lat": 38.947796333333336, "is_reserved": 0, "lon": -77.06540283333334, "fusion_lon": 0.0, "is_disabled": 0, "fusion_lat": 0.0, "bike_id": "92a618a3acbd6c26aab6f483876d6e00", "rental_uris": {"ios": "https://dc.lft.to/lastmile_qr_scan", "android": "https://dc.lft.to/lastmile_qr_scan"}}, {"name": "0642c93cec1034680555e91cbbd62354", "type": "electric_scooter", "lat": 38.911825666666665, "is_reserved": 0, "lon": -77.00555733333333, "fusion_lon": 0.0, "is_disabled": 0, "fusion_lat": 0.0, "bike_id": "0642c93cec1034680555e91cbbd62354", "rental_uris": {"ios": "https://dc.lft.to/lastmile_qr_scan", "android": "https://dc.lft.to/lastmile_qr_scan"}}, {"name": "bdf00ac7eccc22c16e65c1691eb90717", "type": "electric_scooter", "lat": 38.92912883333333, "is_reserved": 0, "lon": -77.02192316666667, "fusion_lon": 0.0, "is_disabled": 0, "fusion_lat": 0.0, "bike_id": "bdf00ac7eccc22c16e65c1691eb90717", "rental_uris": {"ios": "https://dc.lft.to/lastmile_qr_scan", "android": "https://dc.lft.to/lastmile_qr_scan"}}, {"name": "9de18622840a4868b21e0d153f32f87c", "type": "electric_scooter", "lat": 38.9002595, "is_reserved": 0, "lon": -76.99452416666666, "fusion_lon": 0.0, "is_disabled": 0, "fusion_lat": 0.0, "bike_id": "9de18622840a4868b21e0d153f32f87c", "rental_uris": {"ios": "https://dc.lft.to/lastmile_qr_scan", "android": "https://dc.lft.to/lastmile_qr_scan"}}, {"name": "d97654b2d8b3cb553c9912a2fee25cee", "type": "electric_bike", "lat": 38.838641333333335, "is_reserved": 0, "lon": -77.08869116666666, "fusion_lon": 0.0, "is_disabled": 0, "fusion_lat": 0.0, "bike_id": "d97654b2d8b3cb553c9912a2fee25cee", "rental_uris": {"ios": "https://dc.lft.to/lastmile_qr_scan", "android": "https://dc.lft.to/lastmile_qr_scan"}},