{"data": {"bikes": [{"rental_uris": {"ios": "https://dc.lft.to/lastmile_qr_scan", "android": "https://dc.lft.to/lastmile_qr_scan"}, "lon": -77.12956233333334, "type": "electric_bike", "fusion_lat": 0.0, "lat": 38.85219383333333, "name": "8ab8fc2bae4998ade6ac93cddebc0425", "fusion_lon": 0.0, "bike_id": "8ab8fc2bae4998ade6ac93cddebc0425", "is_disabled": 0, "is_reserved": 0}, {"rental_uris": {"ios": "https://dc.lft.to/lastmile_qr_scan", "android": "https://dc.lft.to/lastmile_qr_scan"}, "lon": -77.09204266666667, "type": "electric_scooter", "fusion_lat": 0.0, "lat": 38.9413235, "name": "d33d549bcf6aaf6cd02620eb103fe126", "fusion_lon": 0.0, "bike_id": "d33d549bcf6aaf6cd02620eb103fe126", "is_disabled": 0, "is_reserved": 0}, {"rental_uris": {"ios": "https://dc.lft.to/lastmile_qr_scan", "android": "https://dc.lft.to/lastmile_qr_scan"}, "lon": -77.02225716666666, "type": "electric_scooter", "fusion_lat": 0.0, "lat": 38.912560666666664, "name": "c575f03e0e75eac3c2ab4c521e6b5faa", "fusion_lon": 0.0, "bike_id": "c575f03e0e75eac3c2ab4c521e6b5faa", "is_disabled": 0, "is_reserved": 0}, {"rental_uris": {"ios": "https://dc.lft.to/lastmile_qr_scan", "android": "https://dc.lft.to/lastmile_qr_scan"}, "lon": -76.93228116666667, "type": "electric_bike", "fusion_lat": 0.0, "lat": 38.8659565, "name": "903b2152c5efe270f98b55d7e95f4ca6", "fusion_lon": 0.0, "bike_id": "903b2152c5efe270f98b55d7e95f4ca6", "is_disabled": 0, "is_reserved": 0}, {"rental_uris": {"ios": "https://dc.lft.to/lastmile_qr_scan", "android": "https://dc.lft.to/lastmile_qr_scan"}, "lon": -77.05473116666667, "type": "electric_scooter", "fusion_lat": 0.0, "lat": 38.89391883333333, "name": "e3946a3585b97fa009372783653efbd3", "fusion_lon": 0.0, "bike_id": "e3946a3585b97fa009372783653efbd3", "is_disabled": 0, "is_reserved": 0}, {"rental_uris": {"ios": "https://dc.lft.to/lastmile_qr_scan", "android": "https://dc.lft.to/lastmile_qr_scan"}, "lon": -77.00334816666667, "type": "electric_scooter", "fusion_lat": 0.0, "lat": 38.89358433333334, "name": "909038e1397a0a2aad8273f39f371d47", "fusion_lon": 0.0, "bike_id": "909038e1397a0a2aad8273f39f371d47", "is_disabled": 0, "is_reserved": 0}, {"rental_uris": {"ios": "https://dc.lft.to/lastmile_qr_scan", "android": "https://dc.lft.to/lastmile_qr_scan"}, "lon": -77.00715633333333, "type": "electric_scooter", "fusion_lat": 0.0, "lat": 38.879173, "name": "0dc4de74412ca4315e616be7f59fa8c2", "fusion_lon": 0.0, "bike_id": "0dc4de74412ca4315e616be7f59fa8c2", "is_disabled": 0, "is_reserved": 0}, {"rental_uris": {"ios": "https://dc.lft.to/lastmile_qr_scan", "android": "https://dc.lft.to/lastmile_qr_scan"}, "lon": -77.0486295, "type": "electric_scooter", "fusion_lat": 0.0, "lat": 38.90637233333333, "name": "d6708a795646904af8a9f27689f3c5e2", "fusion_lon": 0.0, "bike_id": "d6708a795646904af8a9f27689f3c5e2", "is_disabled": 0, "is_reserved": 0}, {"rental_uris": {"ios": "https://dc.lft.to/lastmile_qr_scan", "android": "https://dc.lft.to/lastmile_qr_scan"}, "lon": -76.99515716666667, "type": "electric_scooter", "fusion_lat": 0.0, "lat": 38.8948635, "name": "d095451317aff583d94631c85680b86c", "fusion_lon": 0.0, "bike_id": "d095451317aff583d94631c85680b86c", "is_disabled": 0, "is_reserved": 0}, {"rental_uris": {"ios": "https://dc.lft.to/lastmile_qr_scan", "android": "https://dc.lft.to/lastmile_qr_scan"}, "lon": -77.04635733333333, "type": "electric_scooter", "fusion_lat": 0.0, "lat": 38.8922635, "name": "b008d3e96aa86eb5d4f18f60ca751e2c", "fusion_lon": 0.0, "bike_id": "b008d3e96aa86eb5d4f18f60ca751e2c", "is_disabled": 0, "is_reserved": 0}, {"rental_uris": {"ios": "https://dc.lft.to/lastmile_qr_scan", "android": "https://dc.lft.to/lastmile_qr_scan"}, "lon": -77.00666333333334, "type": "electric_scooter", "fusion_lat": 0.0, "lat": 38.95564816666667, "name": "75f06e81774e46bdbd874eaac75e367c", "fusion_lon": 0.0, "bike_id": "75f06e81774e46bdbd874eaac75e367c", "is_disabled": 0, "is_reserved": 0}, {"rental_uris": {"ios": "https://dc.lft.to/lastmile_qr_scan", "android": "https://dc.lft.to/lastmile_qr_scan"}, "lon": -76.94213066666667, "type": "electric_scooter", "fusion_lat": 0.0, "lat": 38.8967225, "name": "0cd4e2626dbfba5067bd13715fadf6ca", "fusion_lon": 0.0, "bike_id": "0cd4e2626dbfba5067bd13715fadf6ca", "is_disabled": 0, "is_reserved": 0}, {"rental_uris": {"ios": "https://dc.lft.to/lastmile_qr_scan", "android": "https://dc.lft.to/lastmile_qr_scan"}, "lon": -76.99694366666667, "type": "electric_scooter", "fusion_lat": 0.0, "lat": 38.90081266666667, "name": "2b99ef1706cc89468a7e8c3ce6684103", "fusion_lon": 0.0, "bike_id": "2b99ef1706cc89468a7e8c3ce6684103", "is_disabled": 0, "is_reserved": 0}, {"rental_uris": {"ios": "https://dc.lft.to/lastmile_qr_scan", "android": "https://dc.lft.to/lastmile_qr_scan"}, "lon": -76.97289316666667, "type": "electric_scooter", "fusion_lat": 0.0, "lat": 38.90338, "name": "eae5fbba9e3c2568bf533095f853a54e", "fusion_lon": 0.0, "bike_id": "eae5fbba9e3c2568bf533095f853a54e", "is_disabled": 0, "is_reserved": 0}, {"rental_uris": {"ios": "https://dc.lft.to/lastmile_qr_scan", "android": "https://dc.lft.to/lastmile_qr_scan"}, "lon": -77.0419275, "type": "electric_scooter", "fusion_lat": 0.0, "lat": 38.903431, "name": "02cd75d11e5297fdad84b896f5dc4ace", "fusion_lon": 0.0, "bike_id": "02cd75d11e5297fdad84b896f5dc4ace", "is_disabled": 0, "is_reserved": 0}, {"rental_uris": {"ios": "https://dc.lft.to/lastmile_qr_scan", "android": "https://dc.lft.to/lastmile_qr_scan"}, "lon": -77.0248195, "type": "electric_scooter", "fusion_lat": 0.0, "lat": 38.897542, "name": "79ce427eebecdae852c3947fbc3fafd8", "fusion_lon": 0.0, "bike_id": "79ce427eebecdae852c3947fbc3fafd8", "is_disabled": 0, "is_reserved": 0}, {"rental_uris": {"ios": "https://dc.lft.to/lastmile_qr_scan", "android": "https://dc.lft.to/lastmile_qr_scan"}, "lon": -76.99830033333333, "type": "electric_scooter", "fusion_lat": 0.0, "lat": 38.900353, "name": "33c99f2de285491332f895d4301d3def", "fusion_lon": 0.0, "bike_id": "33c99f2de285491332f895d4301d3def", "is_disabled": 0, "is_reserved": 0}, {"rental_uris": {"ios": "https://dc.lft.to/lastmile_qr_scan", "android": "https://dc.lft.to/lastmile_qr_scan"}, "lon": -77.0383625, "type": "electric_scooter", "fusion_lat": 0.0, "lat": 38.903764833333334, "name": "1195b0ee7e686d5b2d5fdad2ed0a3f0d", "fusion_lon": 0.0, "bike_id": "1195b0ee7e686d5b2d5fdad2ed0a3f0d", "is_disabled": 0, "is_reserved": 0}, {"rental_uris": {"ios": "https://dc.lft.to/lastmile_qr_scan", "android": "https://dc.lft.to/lastmile_qr_scan"}, "lon": -77.0365575, "type": "electric_scooter", "fusion_lat": 0.0, "lat": 38.9308515, "name": "87e4ea45551997f18c05213b4f375079", "fusion_lon": 0.0, "bike_id": "87e4ea45551997f18c05213b4f375079", "is_disabled": 0, "is_reserved": 0}, {"rental_uris": {"ios": "https://dc.lft.to/lastmile_qr_scan", "android": "https://dc.lft.to/lastmile_qr_scan"}, "lon": -76.988495, "type": "electric_scooter", "fusion_lat": 0.0, "lat": 38.90345333333333, "name": "3307b918b6a6873024023bc24d3c7326", "fusion_lon": 0.0, "bike_id": "3307b918b6a6873024023bc24d3c7326", "is_disabled": 0, "is_reserved": 0}, {"rental_uris": {"ios": "https://dc.lft.to/lastmile_qr_scan", "android": "https://dc.lft.to/lastmile_qr_scan"}, "lon": -77.02319483333333, "type": "electric_scooter", "fusion_lat": 0.0, "lat": 38.909161, "name": "14af8042bc5b5c7b753de7d4e02be957", "fusion_lon": 0.0, "bike_id": "14af8042bc5b5c7b753de7d4e02be957", "is_disabled": 0, "is_reserved": 0}, {"rental_uris": {"ios": "https://dc.lft.to/lastmile_qr_scan", "android": "https://dc.lft.to/lastmile_qr_scan"}, "lon": -77.03852983333333, "type": "electric_scooter", "fusion_lat": 0.0, "lat": 38.9128185, "name": "6b779a94c610a4706113e45cda4fde46", "fusion_lon": 0.0, "bike_id": "6b779a94c610a4706113e45cda4fde46", "is_disabled": 0, "is_reserved": 0}, {"rental_uris": {"ios": "https://dc.lft.to/lastmile_qr_scan", "android": "https://dc.lft.to/lastmile_qr_scan"}, "lon": -77.02782233333333, "type": "electric_scooter", "fusion_lat": 0.0, "lat": 38.923759, "name": "f056f633c92c5da47762d3e707c7f7ac", "fusion_lon": 0.0, "bike_id": "f056f633c92c5da47762d3e707c7f7ac", "is_disabled": 0, "is_reserved": 0}, {"rental_uris": {"ios": "https://dc.lft.to/lastmile_qr_scan", "android": "https://dc.lft.to/lastmile_qr_scan"}, "lon": -77.04718733333333, "type": "electric_scooter", "fusion_lat": 0.0, "lat": 38.90955783333333, "name": "6ec9ac15fd2e3dabdcbb75de138fd502", "fusion_lon": 0.0, "bike_id": "6ec9ac15fd2e3dabdcbb75de138fd502", "is_disabled": 0, "is_reserved": 0}, {"rental_uris": {"ios": "https://dc.lft.to/lastmile_qr_scan", "android": "https://dc.lft.to/lastmile_qr_scan"}, "lon": -77.03314416666667, "type": "electric_scooter", "fusion_lat": 0.0, "lat": 38.901449666666664, "name": "22da64f1ae025ed4b5a253e7991bdeaf", "fusion_lon": 0.0, "bike_id": "22da64f1ae025ed4b5a253e7991bdeaf", "is_disabled": 0, "is_reserved": 0}, {"rental_uris": {"ios": "https://dc.lft.to/lastmile_qr_scan", "android": "https://dc.lft.to/lastmile_qr_scan"}, "lon": -77.0214515, "type": "electric_scooter", "fusion_lat": 0.0, "lat": 38.92826866666667, "name": "ccb35e81789324c101447b21870ce1bc", "fusion_lon": 0.0, "bike_id": "ccb35e81789324c101447b21870ce1bc", "is_disabled": 0, "is_reserved": 0}, {"rental_uris": {"ios": "https://dc.lft.to/lastmile_qr_scan", "android": "https://dc.lft.to/lastmile_qr_scan"}, "lon": -77.02806016666666, "type": "electric_scooter", "fusion_lat": 0.0, "lat": 38.93083466666667, "name": "f1431c320b7879b858f90f3a5645d060", "fusion_lon": 0.0, "bike_id": "f1431c320b7879b858f90f3a5645d060", "is_disabled": 0, "is_reserved": 0}, {"rental_uris": {"ios": "https://dc.lft.to/lastmile_qr_scan", "android": "https://dc.lft.to/lastmile_qr_scan"}, "lon": -76.976746, "type": "electric_scooter", "fusion_lat": 0.0, "lat": 38.898830833333335, "name": "50c93fb46769c74f38d5bb086bc0ca88", "fusion_lon": 0.0, "bike_id": "50c93fb46769c74f38d5bb086bc0ca88", "is_disabled": 0, "is_reserved": 0}, {"rental_uris": {"ios": "https://dc.lft.to/lastmile_qr_scan", "android": "https://dc.lft.to/lastmile_qr_scan"}, "lon": -76.94763966666666, "type": "electric_scooter", "fusion_lat": 0.0, "lat": 38.900631, "name": "c99e995123f6ef3f46e0ee85b3a15938", "fusion_lon": 0.0, "bike_id": "c99e995123f6ef3f46e0ee85b3a15938", "is_disabled": 0, "is_reserved": 0}, {"rental_uris": {"ios": "https://dc.lft.to/lastmile_qr_scan", "android": "https://dc.lft.to/lastmile_qr_scan"}, "lon": -77.04529233333334, "type": "electric_scooter", "fusion_lat": 0.0, "lat": 38.90779933333334, "name": "0ce90869c479a68e9d4bf60a74b8932a", "fusion_lon": 0.0, "bike_id": "0ce90869c479a68e9d4bf60a74b8932a", "is_disabled": 0, "is_reserved": 0}, {"rental_uris": {"ios": "https://dc.lft.to/lastmile_qr_scan", "android": "https://dc.lft.to/lastmile_qr_scan"}, "lon": -77.02380716666667, "type": "electric_scooter", "fusion_lat": 0.0, "lat": 38.95246066666667, "name": "c9784882720adfd2579f22dc0e5a7592", "fusion_lon": 0.0, "bike_id": "c9784882720adfd2579f22dc0e5a7592", "is_disabled": 0, "is_reserved": 0}, {"rental_uris": {"ios": "https://dc.lft.to/lastmile_qr_scan", "android": "https://dc.lft.to/lastmile_qr_scan"}, "lon": -76.99631316666667, "type": "electric_scooter", "fusion_lat": 0.0, "lat": 38.84620783333333, "name": "40c1258d41e113724a14f1719f7a1703", "fusion_lon": 0.0, "bike_id": "40c1258d41e113724a14f1719f7a1703", "is_disabled": 0, "is_reserved": 0}, {"rental_uris": {"ios": "https://dc.lft.to/lastmile_qr_scan", "android": "https://dc.lft.to/lastmile_qr_scan"}, "lon": -77.01879033333333, "type": "electric_scooter", "fusion_lat": 0.0, "lat": 38.90714666666667, "name": "7b3c22689c6e1002846de55ae664efb3", "fusion_lon": 0.0, "bike_id": "7b3c22689c6e1002846de55ae664efb3", "is_disabled": 0, "is_reserved": 0}, {"rental_uris": {"ios": "https://dc.lft.to/lastmile_qr_scan", "android": "https://dc.lft.to/lastmile_qr_scan"}, "lon": -77.02418116666666, "type": "electric_scooter", "fusion_lat": 0.0, "lat": 38.9182505, "name": "8e5cfa8f3c4dd85a9d59ef06e3324484", "fusion_lon": 0.0, "bike_id": "8e5cfa8f3c4dd85a9d59ef06e3324484", "is_disabled": 0, "is_reserved": 0}, {"rental_uris": {"ios": "https://dc.lft.to/lastmile_qr_scan", "android": "https://dc.lft.to/lastmile_qr_scan"}, "lon": -77.03133566666666, "type": "electric_bike", "fusion_lat": 0.0, "lat": 38.9133125, "name": "0a8ade41b101ce442db8d45a7a2ba3b8", "fusion_lon": 0.0, "bike_id": "0a8ade41b101ce442db8d45a7a2ba3b8", "is_disabled": 0, "is_reserved": 0}, {"rental_uris": {"ios": "https://dc.lft.to/lastmile_qr_scan", "android": "https://dc.lft.to/lastmile_qr_scan"}, "lon": -76.99748116666666, "type": "electric_scooter", "fusion_lat": 0.0, "lat": 38.900254, "name": "9506789f24eb9c8b82cd4a2924389361", "fusion_lon": 0.0, "bike_id": "9506789f24eb9c8b82cd4a2924389361", "is_disabled": 0, "is_reserved": 0}, {"rental_uris": {"ios": "https://dc.lft.to/lastmile_qr_scan", "android": "https://dc.lft.to/lastmile_qr_scan"}, "lon": -76.99012783333333, "type": "electric_scooter", "fusion_lat": 0.0, "lat": 38.861033166666665, "name": "06267eaf9ccded7f9ef8f4545c59395d", "fusion_lon": 0.0, "bike_id": "06267eaf9ccded7f9ef8f4545c59395d", "is_disabled": 0, "is_reserved": 0}, {"rental_uris": {"ios": "https://dc.lft.to/lastmile_qr_scan", "android": "https://dc.lft.to/lastmile_qr_scan"}, "lon": -77.03073183333333, "type": "electric_scooter", "fusion_lat": 0.0, "lat": 38.90571683333334, "name": "ddf75be890c106d00f7c82818d9986fc", "fusion_lon": 0.0, "bike_id": "ddf75be890c106d00f7c82818d9986fc", "is_disabled": 0, "is_reserved": 0}, {"rental_uris": {"ios": "https://dc.lft.to/lastmile_qr_scan", "android": "https://dc.lft.to/lastmile_qr_scan"}, "lon": -77.021308, "type": "electric_scooter", "fusion_lat": 0.0, "lat": 38.9376255, "name": "5b557e50e355205658c81526a4265cf1", "fusion_lon": 0.0, "bike_id": "5b557e50e355205658c81526a4265cf1", "is_disabled": 0, "is_reserved": 0}, {"rental_uris": {"ios": "https://dc.lft.to/lastmile_qr_scan", "android": "https://dc.lft.to/lastmile_qr_scan"}, "lon": -77.033657, "type": "electric_scooter", "fusion_lat": 0.0, "lat": 38.89952783333333, "name": "93041f67dd7e06c59908a065199cfbd5", "fusion_lon": 0.0, "bike_id": "93041f67dd7e06c59908a065199cfbd5", "is_disabled": 0, "is_reserved": 0}, {"rental_uris": {"ios": "https://dc.lft.to/lastmile_qr_scan", "android": "https://dc.lft.to/lastmile_qr_scan"}, "lon": -77.0385525, "type": "electric_scooter", "fusion_lat": 0.0, "lat": 38.912071833333336, "name": "f2b3560bc4b8f7c8158c9bde56ed33eb", "fusion_lon": 0.0, "bike_id": "f2b3560bc4b8f7c8158c9bde56ed33eb", "is_disabled": 0, "is_reserved": 0}, {"rental_uris": {"ios": "https://dc.lft.to/lastmile_qr_scan", "android": "https://dc.lft.to/lastmile_qr_scan"}, "lon": -77.02408866666667, "type": "electric_scooter", "fusion_lat": 0.0, "lat": 38.884855333333334, "name": "ed9ac25eb4c1d47b499f40b55097de92", "fusion_lon": 0.0, "bike_id": "ed9ac25eb4c1d47b499f40b55097de92", "is_disabled": 0, "is_reserved": 0}, {"rental_uris": {"ios": "https://dc.lft.to/lastmile_qr_scan", "android": "https://dc.lft.to/lastmile_qr_scan"}, "lon": -77.04221566666666, "type": "electric_scooter", "fusion_lat": 0.0, "lat": 38.91110483333333, "name": "34c739e321ac21a3f97d9f012dd83d91", "fusion_lon": 0.0, "bike_id": "34c739e321ac21a3f97d9f012dd83d91", "is_disabled": 0, "is_reserved": 0}, {"rental_uris": {"ios": "https://dc.lft.to/lastmile_qr_scan", "android": "https://dc.lft.to/lastmile_qr_scan"}, "lon": -77.03256533333334, "type": "electric_scooter", "fusion_lat": 0.0, "lat": 38.9216855, "name": "085b643e414c6c7970869893dd65b0d3", "fusion_lon": 0.0, "bike_id": "085b643e414c6c7970869893dd65b0d3", "is_disabled": 0, "is_reserved": 0}, {"rental_uris": {"ios": "https://dc.lft.to/lastmile_qr_scan", "android": "https://dc.lft.to/lastmile_qr_scan"}, "lon": -76.986901, "type": "electric_scooter", "fusion_lat": 0.0, "lat": 38.912880666666666, "name": "eeced6c30260d58b4258f91da25d98c4", "fusion_lon": 0.0, "bike_id": "eeced6c30260d58b4258f91da25d98c4", "is_disabled": 0, "is_reserved": 0}, {"rental_uris": {"ios": "https://dc.lft.to/lastmile_qr_scan", "android": "https://dc.lft.to/lastmile_qr_scan"}, "lon": -77.01086166666667, "type": "electric_scooter", "fusion_lat": 0.0, "lat": 38.893979, "name": "63d396cadfa422f3a318a4abe4466110", "fusion_lon": 0.0, "bike_id": "63d396cadfa422f3a318a4abe4466110", "is_disabled": 0, "is_reserved": 0}, {"rental_uris": {"ios": "https://dc.lft.to/lastmile_qr_scan", "android": "https://dc.lft.to/lastmile_qr_scan"}, "lon": -77.044821, "type": "electric_scooter", "fusion_lat": 0.0, "lat": 38.906599, "name": "b5ff21a774d330f4c8e67d6fc0db0c4d", "fusion_lon": 0.0, "bike_id": "b5ff21a774d330f4c8e67d6fc0db0c4d", "is_disabled": 0, "is_reserved": 0}, {"rental_uris": {"ios": "https://dc.lft.to/lastmile_qr_scan", "android": "https://dc.lft.to/lastmile_qr_scan"}, "lon": -77.036534, "type": "electric_scooter", "fusion_lat": 0.0, "lat": 38.918115, "name": "95921fdbbaccc49ed4bbcb2d49a1e879", "fusion_lon": 0.0, "bike_id": "95921fdbbaccc49ed4bbcb2d49a1e879", "is_disabled": 0, "is_reserved": 0}, {"rental_uris": {"ios": "https://dc.lft.to/lastmile_qr_scan", "android": "https://dc.lft.to/lastmile_qr_scan"}, "lon": -77.11313983333334, "type": "electric_bike", "fusion_lat": 0.0, "lat": 38.855635666666664, "name": "5ab893535d322bf7931b6d73384ced40", "fusion_lon": 0.0, "bike_id": "5ab893535d322bf7931b6d73384ced40", "is_disabled": 0, "is_reserved": 0}, {"rental_uris": {"ios": "https://dc.lft.to/lastmile_qr_scan", "android": "https://dc.lft.to/lastmile_qr_scan"}, "lon": -76.9882715, "type": "electric_scooter", "fusion_lat": 0.0, "lat": 38.88027683333333, "name": "e435703d098ae833186543a440d8a2a5", "fusion_lon": 0.0, "bike_id": "e435703d098ae833186543a440d8a2a5", "is_disabled": 0, "is_reserved": 0}, {"rental_uris": {"ios": "https://dc.lft.to/lastmile_qr_scan", "android": "https://dc.lft.to/lastmile_qr_scan"}, "lon": -77.03211216666666, "type": "electric_scooter", "fusion_lat": 0.0, "lat": 38.887049833333336, "name": "e7a6f9d0e893520d23bb5fdd4e17ad4c", "fusion_lon": 0.0, "bike_id": "e7a6f9d0e893520d23bb5fdd4e17ad4c", "is_disabled": 0, "is_reserved": 0}, {"rental_uris": {"ios": "https://dc.lft.to/lastmile_qr_scan", "android": "https://dc.lft.to/lastmile_qr_scan"}, "lon": -77.125008, "type": "electric_bike", "fusion_lat": 0.0, "lat": 39.02425733333333, "name": "5c99c315767f2bfcfb9b2465b1e29489", "fusion_lon": 0.0, "bike_id": "5c99c315767f2bfcfb9b2465b1e29489", "is_disabled": 0, "is_reserved": 0}, {"rental_uris": {"ios": "https://dc.lft.to/lastmile_qr_scan", "android": "https://dc.lft.to/lastmile_qr_scan"}, "lon": -77.0126805, "type": "electric_scooter", "fusion_lat": 0.0, "lat": 38.91541316666667, "name": "21274d90eed8ef1a213e5a95329dc30b", "fusion_lon": 0.0, "bike_id": "21274d90eed8ef1a213e5a95329dc30b", "is_disabled": 0, "is_reserved": 0}, {"rental_uris": {"ios": "https://dc.lft.to/lastmile_qr_scan", "android": "https://dc.lft.to/lastmile_qr_scan"}, "lon": -77.02638116666667, "type": "electric_scooter", "fusion_lat": 0.0, "lat": 38.89848583333333, "name": "37408ffa80fa7c01b060d935b689da73", "fusion_lon": 0.0, "bike_id": "37408ffa80fa7c01b060d935b689da73", "is_disabled": 0, "is_reserved": 0}, {"rental_uris": {"ios": "https://dc.lft.to/lastmile_qr_scan", "android": "https://dc.lft.to/lastmile_qr_scan"}, "lon": -77.071554, "type": "electric_scooter", "fusion_lat": 0.0, "lat": 38.9583985, "name": "1636ff6dfb98e91ebb989595383ac65e", "fusion_lon": 0.0, "bike_id": "1636ff6dfb98e91ebb989595383ac65e", "is_disabled": 0, "is_reserved": 0}, {"rental_uris": {"ios": "https://dc.lft.to/lastmile_qr_scan", "android": "https://dc.lft.to/lastmile_qr_scan"}, "lon": -77.037057, "type": "electric_scooter", "fusion_lat": 0.0, "lat": 38.92643533333333, "name": "1571e05b6b960eb8a61d084f97f77485", "fusion_lon": 0.0, "bike_id": "1571e05b6b960eb8a61d084f97f77485", "is_disabled": 0, "is_reserved": 0}, {"rental_uris": {"ios": "https://dc.lft.to/lastmile_qr_scan", "android": "https://dc.lft.to/lastmile_qr_scan"}, "lon": -77.03564183333333, "type": "electric_scooter", "fusion_lat": 0.0, "lat": 38.9182025, "name": "5ca2893a2e2805f47ad0c10d6ac56a57", "fusion_lon": 0.0, "bike_id": "5ca2893a2e2805f47ad0c10d6ac56a57", "is_disabled": 0, "is_reserved": 0}, {"rental_uris": {"ios": "https://dc.lft.to/lastmile_qr_scan", "android": "https://dc.lft.to/lastmile_qr_scan"}, "lon": -77.03205733333333, "type": "electric_scooter", "fusion_lat": 0.0, "lat": 38.916960833333334, "name": "6f203cb4b0e6b8500582d45b0855685a", "fusion_lon": 0.0, "bike_id": "6f203cb4b0e6b8500582d45b0855685a", "is_disabled": 0, "is_reserved": 0}, {"rental_uris": {"ios": "https://dc.lft.to/lastmile_qr_scan", "android": "https://dc.lft.to/lastmile_qr_scan"}, "lon": -76.95819433333334, "type": "electric_scooter", "fusion_lat": 0.0, "lat": 38.890570333333336, "name": "ccbd32a0d327633f2d3d245f833dd491", "fusion_lon": 0.0, "bike_id": "ccbd32a0d327633f2d3d245f833dd491", "is_disabled": 0, "is_reserved": 0}, {"rental_uris": {"ios": "https://dc.lft.to/lastmile_qr_scan", "android": "https://dc.lft.to/lastmile_qr_scan"}, "lon": -77.03194566666667, "type": "electric_scooter", "fusion_lat": 0.0, "lat": 38.913139666666666, "name": "3bf2316a3c20cb7665c6074236041a70", "fusion_lon": 0.0, "bike_id": "3bf2316a3c20cb7665c6074236041a70", "is_disabled": 0, "is_reserved": 0}, {"rental_uris": {"ios": "https://dc.lft.to/lastmile_qr_scan", "android": "https://dc.lft.to/lastmile_qr_scan"}, "lon": -77.03353533333333, "type": "electric_scooter", "fusion_lat": 0.0, "lat": 38.88508083333333, "name": "0bb40612353a9e4aea4cedadabbb6984", "fusion_lon": 0.0, "bike_id": "0bb40612353a9e4aea4cedadabbb6984", "is_disabled": 0, "is_reserved": 0}, {"rental_uris": {"ios": "https://dc.lft.to/lastmile_qr_scan", "android": "https://dc.lft.to/lastmile_qr_scan"}, "lon": -77.09523016666667, "type": "electric_bike", "fusion_lat": 0.0, "lat": 38.83812316666667, "name": "f381d4d74c4a1f6aab4872bb2827249e", "fusion_lon": 0.0, "bike_id": "f381d4d74c4a1f6aab4872bb2827249e", "is_disabled": 0, "is_reserved": 0}, {"rental_uris": {"ios": "https://dc.lft.to/lastmile_qr_scan", "android": "https://dc.lft.to/lastmile_qr_scan"}, "lon": -77.0559615, "type": "electric_scooter", "fusion_lat": 0.0, "lat": 38.927823, "name": "995dd15ebfac3fbeb7b571d9dde5f5c0", "fusion_lon": 0.0, "bike_id": "995dd15ebfac3fbeb7b571d9dde5f5c0", "is_disabled": 0, "is_reserved": 0}, {"rental_uris": {"ios": "https://dc.lft.to/lastmile_qr_scan", "android": "https://dc.lft.to/lastmile_qr_scan"}, "lon": -77.044523, "type": "electric_scooter", "fusion_lat": 0.0, "lat": 38.9188695, "name": "83a27cca4589afdbad60d4abefe37af1", "fusion_lon": 0.0, "bike_id": "83a27cca4589afdbad60d4abefe37af1", "is_disabled": 0, "is_reserved": 0}, {"rental_uris": {"ios": "https://dc.lft.to/lastmile_qr_scan", "android": "https://dc.lft.to/lastmile_qr_scan"}, "lon": -77.04520983333333, "type": "electric_scooter", "fusion_lat": 0.0, "lat": 38.90975066666667, "name": "77f2463e54b05cdce0ed33e353d04fbd", "fusion_lon": 0.0, "bike_id": "77f2463e54b05cdce0ed33e353d04fbd", "is_disabled": 0, "is_reserved": 0}, {"rental_uris": {"ios": "https://dc.lft.to/lastmile_qr_scan", "android": "https://dc.lft.to/lastmile_qr_scan"}, "lon": -77.0320375, "type": "electric_scooter", "fusion_lat": 0.0, "lat": 38.9130895, "name": "260381a69f0b64ea4dc34f57db4e4500", "fusion_lon": 0.0, "bike_id": "260381a69f0b64ea4dc34f57db4e4500", "is_disabled": 0, "is_reserved": 0}, {"rental_uris": {"ios": "https://dc.lft.to/lastmile_qr_scan", "android": "https://dc.lft.to/lastmile_qr_scan"}, "lon": -77.03829416666666, "type": "electric_scooter", "fusion_lat": 0.0, "lat": 38.920592666666664, "name": "eb47a1cda4c289d0feb9df85eb702cec", "fusion_lon": 0.0, "bike_id": "eb47a1cda4c289d0feb9df85eb702cec", "is_disabled": 0, "is_reserved": 0}, {"rental_uris": {"ios": "https://dc.lft.to/lastmile_qr_scan", "android": "https://dc.lft.to/lastmile_qr_scan"}, "lon": -77.02799766666666, "type": "electric_scooter", "fusion_lat": 0.0, "lat": 38.89391283333333, "name": "2c8ea611d7eaf5a8716f48779b94091d", "fusion_lon": 0.0, "bike_id": "2c8ea611d7eaf5a8716f48779b94091d", "is_disabled": 0, "is_reserved": 0}, {"rental_uris": {"ios": "https://dc.lft.to/lastmile_qr_scan", "android": "https://dc.lft.to/lastmile_qr_scan"}, "lon": -77.04364616666666, "type": "electric_scooter", "fusion_lat": 0.0, "lat": 38.90274333333333, "name": "978f49a9ec4bf260be28b9f9b7f8aa7d", "fusion_lon": 0.0, "bike_id": "978f49a9ec4bf260be28b9f9b7f8aa7d", "is_disabled": 0, "is_reserved": 0}, {"rental_uris": {"ios": "https://dc.lft.to/lastmile_qr_scan", "android": "https://dc.lft.to/lastmile_qr_scan"}, "lon": -77.01326566666667, "type": "electric_scooter", "fusion_lat": 0.0, "lat": 38.892371833333335, "name": "f5a93a2be8507659a88c7518d303498d", "fusion_lon": 0.0, "bike_id": "f5a93a2be8507659a88c7518d303498d", "is_disabled": 0, "is_reserved": 0}, {"rental_uris": {"ios": "https://dc.lft.to/lastmile_qr_scan", "android": "https://dc.lft.to/lastmile_qr_scan"}, "lon": -77.00060583333334, "type": "electric_bike", "fusion_lat": 0.0, "lat": 38.874322666666664, "name": "6e29761b185ef6fa4ebd285a4de306a5", "fusion_lon": 0.0, "bike_id": "6e29761b185ef6fa4ebd285a4de306a5", "is_disabled": 0, "is_reserved": 0}, {"rental_uris": {"ios": "https://dc.lft.to/lastmile_qr_scan", "android": "https://dc.lft.to/lastmile_qr_scan"}, "lon": -77.09557366666667, "type": "electric_bike", "fusion_lat": 0.0, "lat": 38.91703666666667, "name": "557ba86471cf9fafb51b896342dbd59a", "fusion_lon": 0.0, "bike_id": "557ba86471cf9fafb51b896342dbd59a", "is_disabled": 0, "is_reserved": 0}, {"rental_uris": {"ios": "https://dc.lft.to/lastmile_qr_scan", "android": "https://dc.lft.to/lastmile_qr_scan"}, "lon": -77.04395183333334, "type": "electric_scooter", "fusion_lat": 0.0, "lat": 38.909115, "name": "2627151090110119213d07f7a345940c", "fusion_lon": 0.0, "bike_id": "2627151090110119213d07f7a345940c", "is_disabled": 0, "is_reserved": 0}, {"rental_uris": {"ios": "https://dc.lft.to/lastmile_qr_scan", "android": "https://dc.lft.to/lastmile_qr_scan"}, "lon": -76.9081425, "type": "electric_bike", "fusion_lat": 0.0, "lat": 38.994560166666666, "name": "d571bd7032a92553043d41ddf102d663", "fusion_lon": 0.0, "bike_id": "d571bd7032a92553043d41ddf102d663", "is_disabled": 0, "is_reserved": 0}, {"rental_uris": {"ios": "https://dc.lft.to/lastmile_qr_scan", "android": "https://dc.lft.to/lastmile_qr_scan"}, "lon": -77.02531633333334, "type": "electric_scooter", "fusion_lat": 0.0, "lat": 38.91823316666667, "name": "04341d2a97e9c4b941eb6e3165156075", "fusion_lon": 0.0, "bike_id": "04341d2a97e9c4b941eb6e3165156075", "is_disabled": 0, "is_reserved": 0}, {"rental_uris": {"ios": "https://dc.lft.to/lastmile_qr_scan", "android": "https://dc.lft.to/lastmile_qr_scan"}, "lon": -77.02133416666666, "type": "electric_scooter", "fusion_lat": 0.0, "lat": 38.89988833333334, "name": "06705760b6f5840b05fc8a1e6ee927dd", "fusion_lon": 0.0, "bike_id": "06705760b6f5840b05fc8a1e6ee927dd", "is_disabled": 0, "is_reserved": 0}, {"rental_uris": {"ios": "https://dc.lft.to/lastmile_qr_scan", "android": "https://dc.lft.to/lastmile_qr_scan"}, "lon": -77.065286, "type": "electric_scooter", "fusion_lat": 0.0, "lat": 38.934787666666665, "name": "0cf4c31b7fa8a26932827735b1f8279a", "fusion_lon": 0.0, "bike_id": "0cf4c31b7fa8a26932827735b1f8279a", "is_disabled": 0, "is_reserved": 0}, {"rental_uris": {"ios": "https://dc.lft.to/lastmile_qr_scan", "android": "https://dc.lft.to/lastmile_qr_scan"}, "lon": -77.03865483333334, "type": "electric_scooter", "fusion_lat": 0.0, "lat": 38.917125, "name": "365527d21834ae22b43d747e55a83dd9", "fusion_lon": 0.0, "bike_id": "365527d21834ae22b43d747e55a83dd9", "is_disabled": 0, "is_reserved": 0}, {"rental_uris": {"ios": "https://dc.lft.to/lastmile_qr_scan", "android": "https://dc.lft.to/lastmile_qr_scan"}, "lon": -76.98436116666667, "type": "electric_scooter", "fusion_lat": 0.0, "lat": 38.9142665, "name": "ee1c380386c36839694dfc141513cb2f", "fusion_lon": 0.0, "bike_id": "ee1c380386c36839694dfc141513cb2f", "is_disabled": 0, "is_reserved": 0}, {"rental_uris": {"ios": "https://dc.lft.to/lastmile_qr_scan", "android": "https://dc.lft.to/lastmile_qr_scan"}, "lon": -77.04819266666667, "type": "electric_scooter", "fusion_lat": 0.0, "lat": 38.91333766666666, "name": "9bb1bb73fb9d0cd01b930a25cd1c1500", "fusion_lon": 0.0, "bike_id": "9bb1bb73fb9d0cd01b930a25cd1c1500", "is_disabled": 0, "is_reserved": 0}, {"rental_uris": {"ios": "https://dc.lft.to/lastmile_qr_scan", "android": "https://dc.lft.to/lastmile_qr_scan"}, "lon": -77.039162, "type": "electric_scooter", "fusion_lat": 0.0, "lat": 38.91117233333333, "name": "0af19350e840c9adbf007c85a5dc9bce", "fusion_lon": 0.0, "bike_id": "0af19350e840c9adbf007c85a5dc9bce", "is_disabled": 0, "is_reserved": 0}, {"rental_uris": {"ios": "https://dc.lft.to/lastmile_qr_scan", "android": "https://dc.lft.to/lastmile_qr_scan"}, "lon": -77.039014, "type": "electric_scooter", "fusion_lat": 0.0, "lat": 38.92333433333334, "name": "a27de62554b681bd4a73884fa482d306", "fusion_lon": 0.0, "bike_id": "a27de62554b681bd4a73884fa482d306", "is_disabled": 0, "is_reserved": 0}, {"rental_uris": {"ios": "https://dc.lft.to/lastmile_qr_scan", "android": "https://dc.lft.to/lastmile_qr_scan"}, "lon": -77.04280433333334, "type": "electric_scooter", "fusion_lat": 0.0, "lat": 38.9226875, "name": "40ccf5dc8021d76979ec29ab2421d1c9", "fusion_lon": 0.0, "bike_id": "40ccf5dc8021d76979ec29ab2421d1c9", "is_disabled": 0, "is_reserved": 0}, {"rental_uris": {"ios": "https://dc.lft.to/lastmile_qr_scan", "android": "https://dc.lft.to/lastmile_qr_scan"}, "lon": -77.0009395, "type": "electric_scooter", "fusion_lat": 0.0, "lat": 38.907535, "name": "94553cb289a4afba5dd6935332884539", "fusion_lon": 0.0, "bike_id": "94553cb289a4afba5dd6935332884539", "is_disabled": 0, "is_reserved": 0}, {"rental_uris": {"ios": "https://dc.lft.to/lastmile_qr_scan", "android": "https://dc.lft.to/lastmile_qr_scan"}, "lon": -77.049883, "type": "electric_scooter", "fusion_lat": 0.0, "lat": 38.901183333333336, "name": "c4ba92a14226bce66a41a4c01b9a69db", "fusion_lon": 0.0, "bike_id": "c4ba92a14226bce66a41a4c01b9a69db", "is_disabled": 0, "is_reserved": 0}, {"rental_uris": {"ios": "https://dc.lft.to/lastmile_qr_scan", "android": "https://dc.lft.to/lastmile_qr_scan"}, "lon": -76.99001983333333, "type": "electric_scooter", "fusion_lat": 0.0, "lat": 38.8650655, "name": "26523b218406e8f3235c4bfcb468814c", "fusion_lon": 0.0, "bike_id": "26523b218406e8f3235c4bfcb468814c", "is_disabled": 0, "is_reserved": 0}, {"rental_uris": {"ios": "https://dc.lft.to/lastmile_qr_scan", "android": "https://dc.lft.to/lastmile_qr_scan"}, "lon": -77.0025385, "type": "electric_scooter", "fusion_lat": 0.0, "lat": 38.901295833333336, "name": "eccf47d71d678f00950962d863fc229a", "fusion_lon": 0.0, "bike_id": "eccf47d71d678f00950962d863fc229a", "is_disabled": 0, "is_reserved": 0}, {"rental_uris": {"ios": "https://dc.lft.to/lastmile_qr_scan", "android": "https://dc.lft.to/lastmile_qr_scan"}, "lon": -76.99978416666667, "type": "electric_scooter", "fusion_lat": 0.0, "lat": 38.838377, "name": "8b22ba9e7a78cb102d193f5e97c92e60", "fusion_lon": 0.0, "bike_id": "8b22ba9e7a78cb102d193f5e97c92e60", "is_disabled": 0, "is_reserved": 0}, {"rental_uris": {"ios": "https://dc.lft.to/lastmile_qr_scan", "android": "https://dc.lft.to/lastmile_qr_scan"}, "lon": -77.03450283333333, "type": "electric_scooter", "fusion_lat": 0.0, "lat": 38.90895733333333, "name": "7a4255c82614656524f370cc8db56cbe", "fusion_lon": 0.0, "bike_id": "7a4255c82614656524f370cc8db56cbe", "is_disabled": 0, "is_reserved": 0}, {"rental_uris": {"ios": "https://dc.lft.to/lastmile_qr_scan", "android": "https://dc.lft.to/lastmile_qr_scan"}, "lon": -77.04033883333334, "type": "electric_scooter", "fusion_lat": 0.0, "lat": 38.923459, "name": "212e9f8fcf213d505fd49d4579e4a6fb", "fusion_lon": 0.0, "bike_id": "212e9f8fcf213d505fd49d4579e4a6fb", "is_disabled": 0, "is_reserved": 0}, {"rental_uris": {"ios": "https://dc.lft.to/lastmile_qr_scan", "android": "https://dc.lft.to/lastmile_qr_scan"}, "lon": -76.99626566666667, "type": "electric_scooter", "fusion_lat": 0.0, "lat": 38.846852166666665, "name": "31d91f6668f293142f53d33c142987a8", "fusion_lon": 0.0, "bike_id": "31d91f6668f293142f53d33c142987a8", "is_disabled": 0, "is_reserved": 0}, {"rental_uris": {"ios": "https://dc.lft.to/lastmile_qr_scan", "android": "https://dc.lft.to/lastmile_qr_scan"}, "lon": -77.0324525, "type": "electric_bike", "fusion_lat": 0.0, "lat": 38.9097935, "name": "12f4dc34e43157bebe64f095aae7e148", "fusion_lon": 0.0, "bike_id": "12f4dc34e43157bebe64f095aae7e148", "is_disabled": 0, "is_reserved": 0}, {"rental_uris": {"ios": "https://dc.lft.to/lastmile_qr_scan", "android": "https://dc.lft.to/lastmile_qr_scan"}, "lon": -76.980891, "type": "electric_bike", "fusion_lat": 0.0, "lat": 38.963601, "name": "74beee1f184836a2b221e05a962cf072", "fusion_lon": 0.0, "bike_id": "74beee1f184836a2b221e05a962cf072", "is_disabled": 0, "is_reserved": 0}, {"rental_uris": {"ios": "https://dc.lft.to/lastmile_qr_scan", "android": "https://dc.lft.to/lastmile_qr_scan"}, "lon": -77.02600216666667, "type": "electric_scooter", "fusion_lat": 0.0, "lat": 38.90764033333333, "name": "4179fca98007f56b3d4e78e4390d31f4", "fusion_lon": 0.0, "bike_id": "4179fca98007f56b3d4e78e4390d31f4", "is_disabled": 0, "is_reserved": 0}, {"rental_uris": {"ios": "https://dc.lft.to/lastmile_qr_scan", "android": "https://dc.lft.to/lastmile_qr_scan"}, "lon": -76.99779516666666, "type": "electric_scooter", "fusion_lat": 0.0, "lat": 38.844282166666666, "name": "0ed1873a9f9f1d60995f5b5be654671a", "fusion_lon": 0.0, "bike_id": "0ed1873a9f9f1d60995f5b5be654671a", "is_disabled": 0, "is_reserved": 0}, {"rental_uris": {"ios": "https://dc.lft.to/lastmile_qr_scan", "android": "https://dc.lft.to/lastmile_qr_scan"}, "lon": -77.04343866666666, "type": "electric_scooter", "fusion_lat": 0.0, "lat": 38.905273333333334, "name": "2ad9f0dbb0d29a73518187be4e7633f1", "fusion_lon": 0.0, "bike_id": "2ad9f0dbb0d29a73518187be4e7633f1", "is_disabled": 0, "is_reserved": 0}, {"rental_uris": {"ios": "https://dc.lft.to/lastmile_qr_scan", "android": "https://dc.lft.to/lastmile_qr_scan"}, "lon": -77.03868233333333, "type": "electric_scooter", "fusion_lat": 0.0, "lat": 38.915534, "name": "e96ab4cc7fa7a34463e4e4d8a4acd390", "fusion_lon": 0.0, "bike_id": "e96ab4cc7fa7a34463e4e4d8a4acd390", "is_disabled": 0, "is_reserved": 0}, {"rental_uris": {"ios": "https://dc.lft.to/lastmile_qr_scan", "android": "https://dc.lft.to/lastmile_qr_scan"}, "lon": -77.04458266666667, "type": "electric_scooter", "fusion_lat": 0.0, "lat": 38.91896533333333, "name": "29694c710416579b4a15341b21edcec0", "fusion_lon": 0.0, "bike_id": "29694c710416579b4a15341b21edcec0", "is_disabled": 0, "is_reserved": 0}, {"rental_uris": {"ios": "https://dc.lft.to/lastmile_qr_scan", "android": "https://dc.lft.to/lastmile_qr_scan"}, "lon": -77.071691, "type": "electric_scooter", "fusion_lat": 0.0, "lat": 38.91452783333333, "name": "ed0699008391db6dedf886b27b75b55a", "fusion_lon": 0.0, "bike_id": "ed0699008391db6dedf886b27b75b55a", "is_disabled": 0, "is_reserved": 0}, {"rental_uris": {"ios": "https://dc.lft.to/lastmile_qr_scan", "android": "https://dc.lft.to/lastmile_qr_scan"}, "lon": -77.04175183333334, "type": "electric_scooter", "fusion_lat": 0.0, "lat": 38.92025, "name": "4bbea68d9d47921de47a52706384a35c", "fusion_lon": 0.0, "bike_id": "4bbea68d9d47921de47a52706384a35c", "is_disabled": 0, "is_reserved": 0}, {"rental_uris": {"ios": "https://dc.lft.to/lastmile_qr_scan", "android": "https://dc.lft.to/lastmile_qr_scan"}, "lon": -77.02827, "type": "electric_scooter", "fusion_lat": 0.0, "lat": 38.89906966666667, "name": "6778d79c5ad21b51239763b10a5eebd9", "fusion_lon": 0.0, "bike_id": "6778d79c5ad21b51239763b10a5eebd9", "is_disabled": 0, "is_reserved": 0}, {"rental_uris": {"ios": "https://dc.lft.to/lastmile_qr_scan", "android": "https://dc.lft.to/lastmile_qr_scan"}, "lon": -76.96522866666666, "type": "electric_scooter", "fusion_lat": 0.0, "lat": 38.87632166666667, "name": "9e723fcb124a9858b1d777c5e861ce3c", "fusion_lon": 0.0, "bike_id": "9e723fcb124a9858b1d777c5e861ce3c", "is_disabled": 0, "is_reserved": 0}, {"rental_uris": {"ios": "https://dc.lft.to/lastmile_qr_scan", "android": "https://dc.lft.to/lastmile_qr_scan"}, "lon": -77.040142, "type": "electric_scooter", "fusion_lat": 0.0, "lat": 38.92185633333333, "name": "563b873a7b73c1e4002238281ada073e", "fusion_lon": 0.0, "bike_id": "563b873a7b73c1e4002238281ada073e", "is_disabled": 0, "is_reserved": 0}, {"rental_uris": {"ios": "https://dc.lft.to/lastmile_qr_scan", "android": "https://dc.lft.to/lastmile_qr_scan"}, "lon": -77.03320883333333, "type": "electric_scooter", "fusion_lat": 0.0, "lat": 38.90556683333333, "name": "af59364222f24c4b87013562ac2846ce", "fusion_lon": 0.0, "bike_id": "af59364222f24c4b87013562ac2846ce", "is_disabled": 0, "is_reserved": 0}, {"rental_uris": {"ios": "https://dc.lft.to/lastmile_qr_scan", "android": "https://dc.lft.to/lastmile_qr_scan"}, "lon": -77.01599766666666, "type": "electric_scooter", "fusion_lat": 0.0, "lat": 38.89984966666667, "name": "4a12d9ff83d045e7b8776b78d3e2802d", "fusion_lon": 0.0, "bike_id": "4a12d9ff83d045e7b8776b78d3e2802d", "is_disabled": 0, "is_reserved": 0}, {"rental_uris": {"ios": "https://dc.lft.to/lastmile_qr_scan", "android": "https://dc.lft.to/lastmile_qr_scan"}, "lon": -77.02178833333333, "type": "electric_scooter", "fusion_lat": 0.0, "lat": 38.91489416666667, "name": "31e9f01cd9a583ae0499c9efedf1df60", "fusion_lon": 0.0, "bike_id": "31e9f01cd9a583ae0499c9efedf1df60", "is_disabled": 0, "is_reserved": 0}, {"rental_uris": {"ios": "https://dc.lft.to/lastmile_qr_scan", "android": "https://dc.lft.to/lastmile_qr_scan"}, "lon": -77.0110005, "type": "electric_scooter", "fusion_lat": 0.0, "lat": 38.90370083333333, "name": "e3eade262f8059ee3d07891b46faaf9a", "fusion_lon": 0.0, "bike_id": "e3eade262f8059ee3d07891b46faaf9a", "is_disabled": 0, "is_reserved": 0}, {"rental_uris": {"ios": "https://dc.lft.to/lastmile_qr_scan", "android": "https://dc.lft.to/lastmile_qr_scan"}, "lon": -77.02715166666667, "type": "electric_scooter", "fusion_lat": 0.0, "lat": 38.9095425, "name": "6b87a5ca8c63139010116145cdbfe8eb", "fusion_lon": 0.0, "bike_id": "6b87a5ca8c63139010116145cdbfe8eb", "is_disabled": 0, "is_reserved": 0}, {"rental_uris": {"ios": "https://dc.lft.to/lastmile_qr_scan", "android": "https://dc.lft.to/lastmile_qr_scan"}, "lon": -77.03745483333333, "type": "electric_scooter", "fusion_lat": 0.0, "lat": 38.929142666666664, "name": "d759ef9810217a3025fe721b5cfd2414", "fusion_lon": 0.0, "bike_id": "d759ef9810217a3025fe721b5cfd2414", "is_disabled": 0, "is_reserved": 0}, {"rental_uris": {"ios": "https://dc.lft.to/lastmile_qr_scan", "android": "https://dc.lft.to/lastmile_qr_scan"}, "lon": -77.0195755, "type": "electric_scooter", "fusion_lat": 0.0, "lat": 38.883671666666665, "name": "26fc60ddbcad46a5818c051374139c43", "fusion_lon": 0.0, "bike_id": "26fc60ddbcad46a5818c051374139c43", "is_disabled": 0, "is_reserved": 0}, {"rental_uris": {"ios": "https://dc.lft.to/lastmile_qr_scan", "android": "https://dc.lft.to/lastmile_qr_scan"}, "lon": -77.03903666666666, "type": "electric_scooter", "fusion_lat": 0.0, "lat": 38.9142365, "name": "ee95a1252a11b9e7351549373888469a", "fusion_lon": 0.0, "bike_id": "ee95a1252a11b9e7351549373888469a", "is_disabled": 0, "is_reserved": 0}, {"rental_uris": {"ios": "https://dc.lft.to/lastmile_qr_scan", "android": "https://dc.lft.to/lastmile_qr_scan"}, "lon": -77.0363675, "type": "electric_scooter", "fusion_lat": 0.0, "lat": 38.92485166666667, "name": "c899091a2752447c7b149580e2ae63ab", "fusion_lon": 0.0, "bike_id": "c899091a2752447c7b149580e2ae63ab", "is_disabled": 0, "is_reserved": 0}, {"rental_uris": {"ios": "https://dc.lft.to/lastmile_qr_scan", "android": "https://dc.lft.to/lastmile_qr_scan"}, "lon": -77.01152083333334, "type": "electric_scooter", "fusion_lat": 0.0, "lat": 38.9567235, "name": "c3fda99aab5859cef3453d5e339e11ad", "fusion_lon": 0.0, "bike_id": "c3fda99aab5859cef3453d5e339e11ad", "is_disabled": 0, "is_reserved": 0}, {"rental_uris": {"ios": "https://dc.lft.to/lastmile_qr_scan", "android": "https://dc.lft.to/lastmile_qr_scan"}, "lon": -77.0345155, "type": "electric_scooter", "fusion_lat": 0.0, "lat": 38.9181355, "name": "6e117c7516092f36df22610234c41777", "fusion_lon": 0.0, "bike_id": "6e117c7516092f36df22610234c41777", "is_disabled": 0, "is_reserved": 0}, {"rental_uris": {"ios": "https://dc.lft.to/lastmile_qr_scan", "android": "https://dc.lft.to/lastmile_qr_scan"}, "lon": -77.04379866666666, "type": "electric_scooter", "fusion_lat": 0.0, "lat": 38.91086933333333, "name": "34c8c8542e86e082e2543f3f6f61f4ea", "fusion_lon": 0.0, "bike_id": "34c8c8542e86e082e2543f3f6f61f4ea", "is_disabled": 0, "is_reserved": 0}, {"rental_uris": {"ios": "https://dc.lft.to/lastmile_qr_scan", "android": "https://dc.lft.to/lastmile_qr_scan"}, "lon": -76.9899295, "type": "electric_scooter", "fusion_lat": 0.0, "lat": 38.8643625, "name": "7d9bbc8a3845032438a51c80ed0f316c", "fusion_lon": 0.0, "bike_id": "7d9bbc8a3845032438a51c80ed0f316c", "is_disabled": 0, "is_reserved": 0}, {"rental_uris": {"ios": "https://dc.lft.to/lastmile_qr_scan", "android": "https://dc.lft.to/lastmile_qr_scan"}, "lon": -77.001991, "type": "electric_scooter", "fusion_lat": 0.0, "lat": 38.822575666666665, "name": "0b60d19f1be8f247b9b0dae91cf0789e", "fusion_lon": 0.0, "bike_id": "0b60d19f1be8f247b9b0dae91cf0789e", "is_disabled": 0, "is_reserved": 0}, {"rental_uris": {"ios": "https://dc.lft.to/lastmile_qr_scan", "android": "https://dc.lft.to/lastmile_qr_scan"}, "lon": -77.03608, "type": "electric_scooter", "fusion_lat": 0.0, "lat": 38.9025375, "name": "e3a6234b1df8d9298fce5f774d873df3", "fusion_lon": 0.0, "bike_id": "e3a6234b1df8d9298fce5f774d873df3", "is_disabled": 0, "is_reserved": 0}, {"rental_uris": {"ios": "https://dc.lft.to/lastmile_qr_scan", "android": "https://dc.lft.to/lastmile_qr_scan"}, "lon": -77.02354666666666, "type": "electric_scooter", "fusion_lat": 0.0, "lat": 38.92280133333333, "name": "378cfc3fa6cc36d6db09675d825a56dd", "fusion_lon": 0.0, "bike_id": "378cfc3fa6cc36d6db09675d825a56dd", "is_disabled": 0, "is_reserved": 0}, {"rental_uris": {"ios": "https://dc.lft.to/lastmile_qr_scan", "android": "https://dc.lft.to/lastmile_qr_scan"}, "lon": -77.06793983333333, "type": "electric_scooter", "fusion_lat": 0.0, "lat": 38.9521095, "name": "0953d6a01d5ed4869b7ca2b1be5a1a2e", "fusion_lon": 0.0, "bike_id": "0953d6a01d5ed4869b7ca2b1be5a1a2e", "is_disabled": 0, "is_reserved": 0}, {"rental_uris": {"ios": "https://dc.lft.to/lastmile_qr_scan", "android": "https://dc.lft.to/lastmile_qr_scan"}, "lon": -77.00210633333333, "type": "electric_scooter", "fusion_lat": 0.0, "lat": 38.902161666666665, "name": "5ae76efa4b95ae900a0ddcd69a3e0ec2", "fusion_lon": 0.0, "bike_id": "5ae76efa4b95ae900a0ddcd69a3e0ec2", "is_disabled": 0, "is_reserved": 0}, {"rental_uris": {"ios": "https://dc.lft.to/lastmile_qr_scan", "android": "https://dc.lft.to/lastmile_qr_scan"}, "lon": -77.02129283333333, "type": "electric_scooter", "fusion_lat": 0.0, "lat": 38.916089, "name": "374845a640270d9d2f6611c2fe0cf514", "fusion_lon": 0.0, "bike_id": "374845a640270d9d2f6611c2fe0cf514", "is_disabled": 0, "is_reserved": 0}, {"rental_uris": {"ios": "https://dc.lft.to/lastmile_qr_scan", "android": "https://dc.lft.to/lastmile_qr_scan"}, "lon": -77.03216433333333, "type": "electric_scooter", "fusion_lat": 0.0, "lat": 38.91183866666667, "name": "9c9b1b773cb2d198894c0d19f4ff88bb", "fusion_lon": 0.0, "bike_id": "9c9b1b773cb2d198894c0d19f4ff88bb", "is_disabled": 0, "is_reserved": 0}, {"rental_uris": {"ios": "https://dc.lft.to/lastmile_qr_scan", "android": "https://dc.lft.to/lastmile_qr_scan"}, "lon": -77.03188183333333, "type": "electric_scooter", "fusion_lat": 0.0, "lat": 38.91570733333333, "name": "1b5d8bc22bc32fd01a977fa57bbc95a2", "fusion_lon": 0.0, "bike_id": "1b5d8bc22bc32fd01a977fa57bbc95a2", "is_disabled": 0, "is_reserved": 0}, {"rental_uris": {"ios": "https://dc.lft.to/lastmile_qr_scan", "android": "https://dc.lft.to/lastmile_qr_scan"}, "lon": -77.03480933333333, "type": "electric_scooter", "fusion_lat": 0.0, "lat": 38.91706833333333, "name": "ffef86edd1bf94d32901a853a65ee7bb", "fusion_lon": 0.0, "bike_id": "ffef86edd1bf94d32901a853a65ee7bb", "is_disabled": 0, "is_reserved": 0}, {"rental_uris": {"ios": "https://dc.lft.to/lastmile_qr_scan", "android": "https://dc.lft.to/lastmile_qr_scan"}, "lon": -77.032598, "type": "electric_scooter", "fusion_lat": 0.0, "lat": 38.93237833333333, "name": "029c90845b62f3286e6a777d07a8b128", "fusion_lon": 0.0, "bike_id": "029c90845b62f3286e6a777d07a8b128", "is_disabled": 0, "is_reserved": 0}, {"rental_uris": {"ios": "https://dc.lft.to/lastmile_qr_scan", "android": "https://dc.lft.to/lastmile_qr_scan"}, "lon": -77.007365, "type": "electric_scooter", "fusion_lat": 0.0, "lat": 38.955255333333334, "name": "890cbda90c2a75fc2d6ec935ba8e9d2d", "fusion_lon": 0.0, "bike_id": "890cbda90c2a75fc2d6ec935ba8e9d2d", "is_disabled": 0, "is_reserved": 0}, {"rental_uris": {"ios": "https://dc.lft.to/lastmile_qr_scan", "android": "https://dc.lft.to/lastmile_qr_scan"}, "lon": -77.030123, "type": "electric_bike", "fusion_lat": 0.0, "lat": 38.934905666666666, "name": "1517dcf628a9acfea401cbca4f4496ed", "fusion_lon": 0.0, "bike_id": "1517dcf628a9acfea401cbca4f4496ed", "is_disabled": 0, "is_reserved": 0}, {"rental_uris": {"ios": "https://dc.lft.to/lastmile_qr_scan", "android": "https://dc.lft.to/lastmile_qr_scan"}, "lon": -77.03165666666666, "type": "electric_scooter", "fusion_lat": 0.0, "lat": 38.893617166666665, "name": "a9749ccfda5cb332e5d37426aeccc7b7", "fusion_lon": 0.0, "bike_id": "a9749ccfda5cb332e5d37426aeccc7b7", "is_disabled": 0, "is_reserved": 0}, {"rental_uris": {"ios": "https://dc.lft.to/lastmile_qr_scan", "android": "https://dc.lft.to/lastmile_qr_scan"}, "lon": -77.0422925, "type": "electric_scooter", "fusion_lat": 0.0, "lat": 38.91112433333333, "name": "178542fea6c6f908672ea440f47268d7", "fusion_lon": 0.0, "bike_id": "178542fea6c6f908672ea440f47268d7", "is_disabled": 0, "is_reserved": 0}, {"rental_uris": {"ios": "https://dc.lft.to/lastmile_qr_scan", "android": "https://dc.lft.to/lastmile_qr_scan"}, "lon": -77.0300205, "type": "electric_scooter", "fusion_lat": 0.0, "lat": 38.90006183333333, "name": "0a2247f9eefe2695520414b66e8cf36b", "fusion_lon": 0.0, "bike_id": "0a2247f9eefe2695520414b66e8cf36b", "is_disabled": 0, "is_reserved": 0}, {"rental_uris": {"ios": "https://dc.lft.to/lastmile_qr_scan", "android": "https://dc.lft.to/lastmile_qr_scan"}, "lon": -77.04026966666666, "type": "electric_scooter", "fusion_lat": 0.0, "lat": 38.923540833333334, "name": "80df2b946f20ca3671a1365198ea3b20", "fusion_lon": 0.0, "bike_id": "80df2b946f20ca3671a1365198ea3b20", "is_disabled": 0, "is_reserved": 0}, {"rental_uris": {"ios": "https://dc.lft.to/lastmile_qr_scan", "android": "https://dc.lft.to/lastmile_qr_scan"}, "lon": -77.06404833333333, "type": "electric_bike", "fusion_lat": 0.0, "lat": 38.843483166666665, "name": "5347330f4207a8a5f321532a298b39fc", "fusion_lon": 0.0, "bike_id": "5347330f4207a8a5f321532a298b39fc", "is_disabled": 0, "is_reserved": 0}, {"rental_uris": {"ios": "https://dc.lft.to/lastmile_qr_scan", "android": "https://dc.lft.to/lastmile_qr_scan"}, "lon": -77.02381133333333, "type": "electric_scooter", "fusion_lat": 0.0, "lat": 38.91596, "name": "fc476ed646f63ffd70583694eb76cb6a", "fusion_lon": 0.0, "bike_id": "fc476ed646f63ffd70583694eb76cb6a", "is_disabled": 0, "is_reserved": 0}, {"rental_uris": {"ios": "https://dc.lft.to/lastmile_qr_scan", "android": "https://dc.lft.to/lastmile_qr_scan"}, "lon": -77.00647833333333, "type": "electric_scooter", "fusion_lat": 0.0, "lat": 38.9170935, "name": "5e502f7c5e7bbeebd9a393ccd91d7dc3", "fusion_lon": 0.0, "bike_id": "5e502f7c5e7bbeebd9a393ccd91d7dc3", "is_disabled": 0, "is_reserved": 0}, {"rental_uris": {"ios": "https://dc.lft.to/lastmile_qr_scan", "android": "https://dc.lft.to/lastmile_qr_scan"}, "lon": -77.04336333333333, "type": "electric_scooter", "fusion_lat": 0.0, "lat": 38.904977333333335, "name": "c5c579dc7009cd915f93d718a9dcf67b", "fusion_lon": 0.0, "bike_id": "c5c579dc7009cd915f93d718a9dcf67b", "is_disabled": 0, "is_reserved": 0}, {"rental_uris": {"ios": "https://dc.lft.to/lastmile_qr_scan", "android": "https://dc.lft.to/lastmile_qr_scan"}, "lon": -77.03446133333334, "type": "electric_scooter", "fusion_lat": 0.0, "lat": 38.909510833333336, "name": "1bb5ef7bc2172c127732048046a5ab04", "fusion_lon": 0.0, "bike_id": "1bb5ef7bc2172c127732048046a5ab04", "is_disabled": 0, "is_reserved": 0}, {"rental_uris": {"ios": "https://dc.lft.to/lastmile_qr_scan", "android": "https://dc.lft.to/lastmile_qr_scan"}, "lon": -77.0035355, "type": "electric_scooter", "fusion_lat": 0.0, "lat": 38.891546166666664, "name": "646875d730ab5c6e9a090daee7ca35c6", "fusion_lon": 0.0, "bike_id": "646875d730ab5c6e9a090daee7ca35c6", "is_disabled": 0, "is_reserved": 0}, {"rental_uris": {"ios": "https://dc.lft.to/lastmile_qr_scan", "android": "https://dc.lft.to/lastmile_qr_scan"}, "lon": -77.19904333333334, "type": "electric_bike", "fusion_lat": 0.0, "lat": 38.875306, "name": "7b3922a87e09ed230820adeb5df7c319", "fusion_lon": 0.0, "bike_id": "7b3922a87e09ed230820adeb5df7c319", "is_disabled": 0, "is_reserved": 0}, {"rental_uris": {"ios": "https://dc.lft.to/lastmile_qr_scan", "android": "https://dc.lft.to/lastmile_qr_scan"}, "lon": -77.0296325, "type": "electric_bike", "fusion_lat": 0.0, "lat": 38.9115645, "name": "f5817b8c7a938295a5a0735b494e29fa", "fusion_lon": 0.0, "bike_id": "f5817b8c7a938295a5a0735b494e29fa", "is_disabled": 0, "is_reserved": 0}, {"rental_uris": {"ios": "https://dc.lft.to/lastmile_qr_scan", "android": "https://dc.lft.to/lastmile_qr_scan"}, "lon": -77.14982616666667, "type": "electric_bike", "fusion_lat": 0.0, "lat": 39.094622666666666, "name": "fd018081b5917276408d0fbd96ae886e", "fusion_lon": 0.0, "bike_id": "fd018081b5917276408d0fbd96ae886e", "is_disabled": 0, "is_reserved": 0}, {"rental_uris": {"ios": "https://dc.lft.to/lastmile_qr_scan", "android": "https://dc.lft.to/lastmile_qr_scan"}, "lon": -77.0247225, "type": "electric_scooter", "fusion_lat": 0.0, "lat": 38.93349633333333, "name": "b9b5447f5baed46bd938fdc0a0a95848", "fusion_lon": 0.0, "bike_id": "b9b5447f5baed46bd938fdc0a0a95848", "is_disabled": 0, "is_reserved": 0}, {"rental_uris": {"ios": "https://dc.lft.to/lastmile_qr_scan", "android": "https://dc.lft.to/lastmile_qr_scan"}, "lon": -77.0248, "type": "electric_scooter", "fusion_lat": 0.0, "lat": 38.931030666666665, "name": "be3802c644f161076574d631a5c0b8ef", "fusion_lon": 0.0, "bike_id": "be3802c644f161076574d631a5c0b8ef", "is_disabled": 0, "is_reserved": 0}, {"rental_uris": {"ios": "https://dc.lft.to/lastmile_qr_scan", "android": "https://dc.lft.to/lastmile_qr_scan"}, "lon": -77.0065275, "type": "electric_scooter", "fusion_lat": 0.0, "lat": 38.908648666666664, "name": "bf3f100261181b42422212862453b45f", "fusion_lon": 0.0, "bike_id": "bf3f100261181b42422212862453b45f", "is_disabled": 0, "is_reserved": 0}, {"rental_uris": {"ios": "https://dc.lft.to/lastmile_qr_scan", "android": "https://dc.lft.to/lastmile_qr_scan"}, "lon": -77.03786, "type": "electric_scooter", "fusion_lat": 0.0, "lat": 38.930248, "name": "da559c6b0725435bddf9298551f1d4d6", "fusion_lon": 0.0, "bike_id": "da559c6b0725435bddf9298551f1d4d6", "is_disabled": 0, "is_reserved": 0}, {"rental_uris": {"ios": "https://dc.lft.to/lastmile_qr_scan", "android": "https://dc.lft.to/lastmile_qr_scan"}, "lon": -77.00034383333333, "type": "electric_scooter", "fusion_lat": 0.0, "lat": 38.8764575, "name": "e6d4056fd54750db39d930b231cdcc98", "fusion_lon": 0.0, "bike_id": "e6d4056fd54750db39d930b231cdcc98", "is_disabled": 0, "is_reserved": 0}, {"rental_uris": {"ios": "https://dc.lft.to/lastmile_qr_scan", "android": "https://dc.lft.to/lastmile_qr_scan"}, "lon": -77.01612416666667, "type": "electric_scooter", "fusion_lat": 0.0, "lat": 38.911326333333335, "name": "e56928a8e1d1d6fb6ce76e322de95743", "fusion_lon": 0.0, "bike_id": "e56928a8e1d1d6fb6ce76e322de95743", "is_disabled": 0, "is_reserved": 0}, {"rental_uris": {"ios": "https://dc.lft.to/lastmile_qr_scan", "android": "https://dc.lft.to/lastmile_qr_scan"}, "lon": -77.01180333333333, "type": "electric_scooter", "fusion_lat": 0.0, "lat": 38.87241433333333, "name": "810cc69bf92a4050438698d434e9c5c4", "fusion_lon": 0.0, "bike_id": "810cc69bf92a4050438698d434e9c5c4", "is_disabled": 0, "is_reserved": 0}, {"rental_uris": {"ios": "https://dc.lft.to/lastmile_qr_scan", "android": "https://dc.lft.to/lastmile_qr_scan"}, "lon": -77.02650633333333, "type": "electric_scooter", "fusion_lat": 0.0, "lat": 38.88120083333333, "name": "106fc4c80b5da9226fa694f87c4277aa", "fusion_lon": 0.0, "bike_id": "106fc4c80b5da9226fa694f87c4277aa", "is_disabled": 0, "is_reserved": 0}, {"rental_uris": {"ios": "https://dc.lft.to/lastmile_qr_scan", "android": "https://dc.lft.to/lastmile_qr_scan"}, "lon": -77.03258816666667, "type": "electric_scooter", "fusion_lat": 0.0, "lat": 38.927434166666664, "name": "5f5f38e8ac3a99ee0a83176cf0c99211", "fusion_lon": 0.0, "bike_id": "5f5f38e8ac3a99ee0a83176cf0c99211", "is_disabled": 0, "is_reserved": 0}, {"rental_uris": {"ios": "https://dc.lft.to/lastmile_qr_scan", "android": "https://dc.lft.to/lastmile_qr_scan"}, "lon": -77.02113533333333, "type": "electric_scooter", "fusion_lat": 0.0, "lat": 38.9179645, "name": "7e8c63fe80b5571a5613584a4d553522", "fusion_lon": 0.0, "bike_id": "7e8c63fe80b5571a5613584a4d553522", "is_disabled": 0, "is_reserved": 0}, {"rental_uris": {"ios": "https://dc.lft.to/lastmile_qr_scan", "android": "https://dc.lft.to/lastmile_qr_scan"}, "lon": -76.93173183333333, "type": "electric_scooter", "fusion_lat": 0.0, "lat": 38.89886583333333, "name": "7d1c61dfb921ac7528e1dfc837fe7791", "fusion_lon": 0.0, "bike_id": "7d1c61dfb921ac7528e1dfc837fe7791", "is_disabled": 0, "is_reserved": 0}, {"rental_uris": {"ios": "https://dc.lft.to/lastmile_qr_scan", "android": "https://dc.lft.to/lastmile_qr_scan"}, "lon": -77.042609, "type": "electric_scooter", "fusion_lat": 0.0, "lat": 38.922022, "name": "c554d423527ce3e501cc866140110e4d", "fusion_lon": 0.0, "bike_id": "c554d423527ce3e501cc866140110e4d", "is_disabled": 0, "is_reserved": 0}, {"rental_uris": {"ios": "https://dc.lft.to/lastmile_qr_scan", "android": "https://dc.lft.to/lastmile_qr_scan"}, "lon": -77.03664866666666, "type": "electric_scooter", "fusion_lat": 0.0, "lat": 38.917285166666666, "name": "c4072dd2fbe4e125f424c2bba166543c", "fusion_lon": 0.0, "bike_id": "c4072dd2fbe4e125f424c2bba166543c", "is_disabled": 0, "is_reserved": 0}, {"rental_uris": {"ios": "https://dc.lft.to/lastmile_qr_scan", "android": "https://dc.lft.to/lastmile_qr_scan"}, "lon": -77.0922295, "type": "electric_scooter", "fusion_lat": 0.0, "lat": 38.917031, "name": "f8815002936a07122823a49a7832fa36", "fusion_lon": 0.0, "bike_id": "f8815002936a07122823a49a7832fa36", "is_disabled": 0, "is_reserved": 0}, {"rental_uris": {"ios": "https://dc.lft.to/lastmile_qr_scan", "android": "https://dc.lft.to/lastmile_qr_scan"}, "lon": -77.0221085, "type": "electric_scooter", "fusion_lat": 0.0, "lat": 38.9141545, "name": "0b75ee435b0e817b02d75928925340a3", "fusion_lon": 0.0, "bike_id": "0b75ee435b0e817b02d75928925340a3", "is_disabled": 0, "is_reserved": 0}, {"rental_uris": {"ios": "https://dc.lft.to/lastmile_qr_scan", "android": "https://dc.lft.to/lastmile_qr_scan"}, "lon": -77.03833216666666, "type": "electric_scooter", "fusion_lat": 0.0, "lat": 38.902683333333336, "name": "38eb3a9f3f14881783f9373a9763ade0", "fusion_lon": 0.0, "bike_id": "38eb3a9f3f14881783f9373a9763ade0", "is_disabled": 0, "is_reserved": 0}, {"rental_uris": {"ios": "https://dc.lft.to/lastmile_qr_scan", "android": "https://dc.lft.to/lastmile_qr_scan"}, "lon": -77.02834483333334, "type": "electric_scooter", "fusion_lat": 0.0, "lat": 38.88769633333333, "name": "13a0e562e8cc2681a15074eca1f38837", "fusion_lon": 0.0, "bike_id": "13a0e562e8cc2681a15074eca1f38837", "is_disabled": 0, "is_reserved": 0}, {"rental_uris": {"ios": "https://dc.lft.to/lastmile_qr_scan", "android": "https://dc.lft.to/lastmile_qr_scan"}, "lon": -77.03664266666667, "type": "electric_scooter", "fusion_lat": 0.0, "lat": 38.916766, "name": "dbcc50a2838530af825fafb7c3280551", "fusion_lon": 0.0, "bike_id": "dbcc50a2838530af825fafb7c3280551", "is_disabled": 0, "is_reserved": 0}, {"rental_uris": {"ios": "https://dc.lft.to/lastmile_qr_scan", "android": "https://dc.lft.to/lastmile_qr_scan"}, "lon": -77.014398, "type": "electric_scooter", "fusion_lat": 0.0, "lat": 38.93001233333333, "name": "abc706ed674da8ac81f386ac6a66a814", "fusion_lon": 0.0, "bike_id": "abc706ed674da8ac81f386ac6a66a814", "is_disabled": 0, "is_reserved": 0}, {"rental_uris": {"ios": "https://dc.lft.to/lastmile_qr_scan", "android": "https://dc.lft.to/lastmile_qr_scan"}, "lon": -77.03264683333333, "type": "electric_scooter", "fusion_lat": 0.0, "lat": 38.938217, "name": "b080113407d3ac75c4680d71e985b34b", "fusion_lon": 0.0, "bike_id": "b080113407d3ac75c4680d71e985b34b", "is_disabled": 0, "is_reserved": 0}, {"rental_uris": {"ios": "https://dc.lft.to/lastmile_qr_scan", "android": "https://dc.lft.to/lastmile_qr_scan"}, "lon": -77.034475, "type": "electric_scooter", "fusion_lat": 0.0, "lat": 38.91846266666667, "name": "9df0069c0138145a0167924f26efc218", "fusion_lon": 0.0, "bike_id": "9df0069c0138145a0167924f26efc218", "is_disabled": 0, "is_reserved": 0}, {"rental_uris": {"ios": "https://dc.lft.to/lastmile_qr_scan", "android": "https://dc.lft.to/lastmile_qr_scan"}, "lon": -77.01585133333333, "type": "electric_scooter", "fusion_lat": 0.0, "lat": 38.95716183333333, "name": "ad00214ae80829a1a21ae530a8a4a012", "fusion_lon": 0.0, "bike_id": "ad00214ae80829a1a21ae530a8a4a012", "is_disabled": 0, "is_reserved": 0}, {"rental_uris": {"ios": "https://dc.lft.to/lastmile_qr_scan", "android": "https://dc.lft.to/lastmile_qr_scan"}, "lon": -77.00262566666666, "type": "electric_scooter", "fusion_lat": 0.0, "lat": 38.8774795, "name": "930cbba131ec27b70172087a173dc798", "fusion_lon": 0.0, "bike_id": "930cbba131ec27b70172087a173dc798", "is_disabled": 0, "is_reserved": 0}, {"rental_uris": {"ios": "https://dc.lft.to/lastmile_qr_scan", "android": "https://dc.lft.to/lastmile_qr_scan"}, "lon": -77.05439566666666, "type": "electric_scooter", "fusion_lat": 0.0, "lat": 38.89610916666667, "name": "9ce43a841dbf9abe8cd70268a255f913", "fusion_lon": 0.0, "bike_id": "9ce43a841dbf9abe8cd70268a255f913", "is_disabled": 0, "is_reserved": 0}, {"rental_uris": {"ios": "https://dc.lft.to/lastmile_qr_scan", "android": "https://dc.lft.to/lastmile_qr_scan"}, "lon": -77.04411283333333, "type": "electric_scooter", "fusion_lat": 0.0, "lat": 38.90582533333333, "name": "69d4a1b2fa04b5e27fae7cb790170fd8", "fusion_lon": 0.0, "bike_id": "69d4a1b2fa04b5e27fae7cb790170fd8", "is_disabled": 0, "is_reserved": 0}, {"rental_uris": {"ios": "https://dc.lft.to/lastmile_qr_scan", "android": "https://dc.lft.to/lastmile_qr_scan"}, "lon": -77.0183715, "type": "electric_scooter", "fusion_lat": 0.0, "lat": 38.90881516666666, "name": "ea44a23732ddddc615462b157de9923d", "fusion_lon": 0.0, "bike_id": "ea44a23732ddddc615462b157de9923d", "is_disabled": 0, "is_reserved": 0}, {"rental_uris": {"ios": "https://dc.lft.to/lastmile_qr_scan", "android": "https://dc.lft.to/lastmile_qr_scan"}, "lon": -77.02890366666666, "type": "electric_bike", "fusion_lat": 0.0, "lat": 38.90719266666667, "name": "7b049bd06ab6672f6afd99864241a160", "fusion_lon": 0.0, "bike_id": "7b049bd06ab6672f6afd99864241a160", "is_disabled": 0, "is_reserved": 0}, {"rental_uris": {"ios": "https://dc.lft.to/lastmile_qr_scan", "android": "https://dc.lft.to/lastmile_qr_scan"}, "lon": -77.03362566666667, "type": "electric_scooter", "fusion_lat": 0.0, "lat": 38.938539, "name": "d6938300755882fce608fdb1c3af72f9", "fusion_lon": 0.0, "bike_id": "d6938300755882fce608fdb1c3af72f9", "is_disabled": 0, "is_reserved": 0}, {"rental_uris": {"ios": "https://dc.lft.to/lastmile_qr_scan", "android": "https://dc.lft.to/lastmile_qr_scan"}, "lon": -77.04797966666666, "type": "electric_scooter", "fusion_lat": 0.0, "lat": 38.893756833333335, "name": "85a5c26196afb5b9c1f67646c1e06a11", "fusion_lon": 0.0, "bike_id": "85a5c26196afb5b9c1f67646c1e06a11", "is_disabled": 0, "is_reserved": 0}, {"rental_uris": {"ios": "https://dc.lft.to/lastmile_qr_scan", "android": "https://dc.lft.to/lastmile_qr_scan"}, "lon": -77.034864, "type": "electric_scooter", "fusion_lat": 0.0, "lat": 38.9171145, "name": "3f3cbaac3324ebd9793feb91c1f3f004", "fusion_lon": 0.0, "bike_id": "3f3cbaac3324ebd9793feb91c1f3f004", "is_disabled": 0, "is_reserved": 0}, {"rental_uris": {"ios": "https://dc.lft.to/lastmile_qr_scan", "android": "https://dc.lft.to/lastmile_qr_scan"}, "lon": -77.01111516666667, "type": "electric_scooter", "fusion_lat": 0.0, "lat": 38.90017916666667, "name": "74e9b5a643c38ce52350d77f525e8cb8", "fusion_lon": 0.0, "bike_id": "74e9b5a643c38ce52350d77f525e8cb8", "is_disabled": 0, "is_reserved": 0}, {"rental_uris": {"ios": "https://dc.lft.to/lastmile_qr_scan", "android": "https://dc.lft.to/lastmile_qr_scan"}, "lon": -76.982633, "type": "electric_scooter", "fusion_lat": 0.0, "lat": 38.863550000000004, "name": "568540beb48bd06cad84e15c3302eadf", "fusion_lon": 0.0, "bike_id": "568540beb48bd06cad84e15c3302eadf", "is_disabled": 0, "is_reserved": 0}, {"rental_uris": {"ios": "https://dc.lft.to/lastmile_qr_scan", "android": "https://dc.lft.to/lastmile_qr_scan"}, "lon": -77.03807866666666, "type": "electric_scooter", "fusion_lat": 0.0, "lat": 38.90960583333333, "name": "72361baa36fc217444a8d515688d0f34", "fusion_lon": 0.0, "bike_id": "72361baa36fc217444a8d515688d0f34", "is_disabled": 0, "is_reserved": 0}, {"rental_uris": {"ios": "https://dc.lft.to/lastmile_qr_scan", "android": "https://dc.lft.to/lastmile_qr_scan"}, "lon": -77.0165455, "type": "electric_scooter", "fusion_lat": 0.0, "lat": 38.95333316666667, "name": "9116a37fcf86e2443f0360a7f4733e30", "fusion_lon": 0.0, "bike_id": "9116a37fcf86e2443f0360a7f4733e30", "is_disabled": 0, "is_reserved": 0}, {"rental_uris": {"ios": "https://dc.lft.to/lastmile_qr_scan", "android": "https://dc.lft.to/lastmile_qr_scan"}, "lon": -77.04453966666667, "type": "electric_scooter", "fusion_lat": 0.0, "lat": 38.919357166666664, "name": "8e026dd7d5859c0f7f67c4e2352095bd", "fusion_lon": 0.0, "bike_id": "8e026dd7d5859c0f7f67c4e2352095bd", "is_disabled": 0, "is_reserved": 0}, {"rental_uris": {"ios": "https://dc.lft.to/lastmile_qr_scan", "android": "https://dc.lft.to/lastmile_qr_scan"}, "lon": -77.038169, "type": "electric_scooter", "fusion_lat": 0.0, "lat": 38.906925666666666, "name": "a6f00c84ea77570e6da6ade0f2e46bec", "fusion_lon": 0.0, "bike_id": "a6f00c84ea77570e6da6ade0f2e46bec", "is_disabled": 0, "is_reserved": 0}, {"rental_uris": {"ios": "https://dc.lft.to/lastmile_qr_scan", "android": "https://dc.lft.to/lastmile_qr_scan"}, "lon": -77.03070016666666, "type": "electric_scooter", "fusion_lat": 0.0, "lat": 38.89965433333333, "name": "ce9c3bf7045af74977480986c1fca8e7", "fusion_lon": 0.0, "bike_id": "ce9c3bf7045af74977480986c1fca8e7", "is_disabled": 0, "is_reserved": 0}, {"rental_uris": {"ios": "https://dc.lft.to/lastmile_qr_scan", "android": "https://dc.lft.to/lastmile_qr_scan"}, "lon": -77.03318633333333, "type": "electric_scooter", "fusion_lat": 0.0, "lat": 38.8985895, "name": "46c93d5b726a982c7b66dafa7bf047d3", "fusion_lon": 0.0, "bike_id": "46c93d5b726a982c7b66dafa7bf047d3", "is_disabled": 0, "is_reserved": 0}, {"rental_uris": {"ios": "https://dc.lft.to/lastmile_qr_scan", "android": "https://dc.lft.to/lastmile_qr_scan"}, "lon": -77.03799666666667, "type": "electric_scooter", "fusion_lat": 0.0, "lat": 38.9121865, "name": "3bd4286c5d50f2509feba5dc9c9b97d9", "fusion_lon": 0.0, "bike_id": "3bd4286c5d50f2509feba5dc9c9b97d9", "is_disabled": 0, "is_reserved": 0}, {"rental_uris": {"ios": "https://dc.lft.to/lastmile_qr_scan", "android": "https://dc.lft.to/lastmile_qr_scan"}, "lon": -77.02727283333333, "type": "electric_scooter", "fusion_lat": 0.0, "lat": 38.93792883333333, "name": "ded6251b3b6473129614d974d2d74b08", "fusion_lon": 0.0, "bike_id": "ded6251b3b6473129614d974d2d74b08", "is_disabled": 0, "is_reserved": 0}, {"rental_uris": {"ios": "https://dc.lft.to/lastmile_qr_scan", "android": "https://dc.lft.to/lastmile_qr_scan"}, "lon": -77.06395483333333, "type": "electric_scooter", "fusion_lat": 0.0, "lat": 38.90836766666666, "name": "546a91571f398821ca0d3023ada2b7a3", "fusion_lon": 0.0, "bike_id": "546a91571f398821ca0d3023ada2b7a3", "is_disabled": 0, "is_reserved": 0}, {"rental_uris": {"ios": "https://dc.lft.to/lastmile_qr_scan", "android": "https://dc.lft.to/lastmile_qr_scan"}, "lon": -77.01935383333333, "type": "electric_scooter", "fusion_lat": 0.0, "lat": 38.94930816666667, "name": "3bbfd98d3c4eccc13b3bb14e8dc09640", "fusion_lon": 0.0, "bike_id": "3bbfd98d3c4eccc13b3bb14e8dc09640", "is_disabled": 0, "is_reserved": 0}, {"rental_uris": {"ios": "https://dc.lft.to/lastmile_qr_scan", "android": "https://dc.lft.to/lastmile_qr_scan"}, "lon": -77.03853466666666, "type": "electric_scooter", "fusion_lat": 0.0, "lat": 38.91240333333333, "name": "80fad4ebd9f2c4eb85b731e092d21394", "fusion_lon": 0.0, "bike_id": "80fad4ebd9f2c4eb85b731e092d21394", "is_disabled": 0, "is_reserved": 0}, {"rental_uris": {"ios": "https://dc.lft.to/lastmile_qr_scan", "android": "https://dc.lft.to/lastmile_qr_scan"}, "lon": -77.03837466666667, "type": "electric_scooter", "fusion_lat": 0.0, "lat": 38.90867866666667, "name": "7c9220864f0fd34d89e36cd98d4fc050", "fusion_lon": 0.0, "bike_id": "7c9220864f0fd34d89e36cd98d4fc050", "is_disabled": 0, "is_reserved": 0}, {"rental_uris": {"ios": "https://dc.lft.to/lastmile_qr_scan", "android": "https://dc.lft.to/lastmile_qr_scan"}, "lon": -77.04037866666667, "type": "electric_scooter", "fusion_lat": 0.0, "lat": 38.924361833333336, "name": "b1737a1cf5e5a31d4ec3f83eb28d8bfa", "fusion_lon": 0.0, "bike_id": "b1737a1cf5e5a31d4ec3f83eb28d8bfa", "is_disabled": 0, "is_reserved": 0}, {"rental_uris": {"ios": "https://dc.lft.to/lastmile_qr_scan", "android": "https://dc.lft.to/lastmile_qr_scan"}, "lon": -77.04389383333333, "type": "electric_scooter", "fusion_lat": 0.0, "lat": 38.9090945, "name": "78005f9fc1a81b42ee773e6cff897d15", "fusion_lon": 0.0, "bike_id": "78005f9fc1a81b42ee773e6cff897d15", "is_disabled": 0, "is_reserved": 0}, {"rental_uris": {"ios": "https://dc.lft.to/lastmile_qr_scan", "android": "https://dc.lft.to/lastmile_qr_scan"}, "lon": -77.04341266666667, "type": "electric_scooter", "fusion_lat": 0.0, "lat": 38.896607, "name": "8f8d2f3e0633a7ab0f938602eb7d34e5", "fusion_lon": 0.0, "bike_id": "8f8d2f3e0633a7ab0f938602eb7d34e5", "is_disabled": 0, "is_reserved": 0}, {"rental_uris": {"ios": "https://dc.lft.to/lastmile_qr_scan", "android": "https://dc.lft.to/lastmile_qr_scan"}, "lon": -77.02704633333333, "type": "electric_scooter", "fusion_lat": 0.0, "lat": 38.949982166666665, "name": "0b5813e37c6de11e45474701b00069a2", "fusion_lon": 0.0, "bike_id": "0b5813e37c6de11e45474701b00069a2", "is_disabled": 0, "is_reserved": 0}, {"rental_uris": {"ios": "https://dc.lft.to/lastmile_qr_scan", "android": "https://dc.lft.to/lastmile_qr_scan"}, "lon": -77.03260283333333, "type": "electric_scooter", "fusion_lat": 0.0, "lat": 38.927423, "name": "8bf7d041fce0c57ebcd9da4b6fa1f6b7", "fusion_lon": 0.0, "bike_id": "8bf7d041fce0c57ebcd9da4b6fa1f6b7", "is_disabled": 0, "is_reserved": 0}, {"rental_uris": {"ios": "https://dc.lft.to/lastmile_qr_scan", "android": "https://dc.lft.to/lastmile_qr_scan"}, "lon": -77.00192516666667, "type": "electric_scooter", "fusion_lat": 0.0, "lat": 38.90018083333333, "name": "86ef55facebcb0eb6840f27ea62e6861", "fusion_lon": 0.0, "bike_id": "86ef55facebcb0eb6840f27ea62e6861", "is_disabled": 0, "is_reserved": 0}, {"rental_uris": {"ios": "https://dc.lft.to/lastmile_qr_scan", "android": "https://dc.lft.to/lastmile_qr_scan"}, "lon": -77.04306383333333, "type": "electric_bike", "fusion_lat": 0.0, "lat": 39.054502, "name": "dc1332c93b957d120bbaf5ba8716a116", "fusion_lon": 0.0, "bike_id": "dc1332c93b957d120bbaf5ba8716a116", "is_disabled": 0, "is_reserved": 0}, {"rental_uris": {"ios": "https://dc.lft.to/lastmile_qr_scan", "android": "https://dc.lft.to/lastmile_qr_scan"}, "lon": -77.03768616666666, "type": "electric_scooter", "fusion_lat": 0.0, "lat": 38.915937, "name": "b31ca759d3787ea05729aa4a17171ee1", "fusion_lon": 0.0, "bike_id": "b31ca759d3787ea05729aa4a17171ee1", "is_disabled": 0, "is_reserved": 0}, {"rental_uris": {"ios": "https://dc.lft.to/lastmile_qr_scan", "android": "https://dc.lft.to/lastmile_qr_scan"}, "lon": -77.1784555, "type": "electric_bike", "fusion_lat": 0.0, "lat": 39.08863766666666, "name": "e2521d285687d0fdd3bba9e38ecd8e88", "fusion_lon": 0.0, "bike_id": "e2521d285687d0fdd3bba9e38ecd8e88", "is_disabled": 0, "is_reserved": 0}, {"rental_uris": {"ios": "https://dc.lft.to/lastmile_qr_scan", "android": "https://dc.lft.to/lastmile_qr_scan"}, "lon": -76.98899583333333, "type": "electric_scooter", "fusion_lat": 0.0, "lat": 38.866959, "name": "b4ef6437405392fa45cb272f9d4d106c", "fusion_lon": 0.0, "bike_id": "b4ef6437405392fa45cb272f9d4d106c", "is_disabled": 0, "is_reserved": 0}, {"rental_uris": {"ios": "https://dc.lft.to/lastmile_qr_scan", "android": "https://dc.lft.to/lastmile_qr_scan"}, "lon": -77.044169, "type": "electric_scooter", "fusion_lat": 0.0, "lat": 38.922348666666664, "name": "6ecb475ced1cfa32d75041c62b286cdd", "fusion_lon": 0.0, "bike_id": "6ecb475ced1cfa32d75041c62b286cdd", "is_disabled": 0, "is_reserved": 0}, {"rental_uris": {"ios": "https://dc.lft.to/lastmile_qr_scan", "android": "https://dc.lft.to/lastmile_qr_scan"}, "lon": -77.03643466666666, "type": "electric_scooter", "fusion_lat": 0.0, "lat": 38.90282066666666, "name": "5ac2319d515ac8dfda181fdbd8a62b77", "fusion_lon": 0.0, "bike_id": "5ac2319d515ac8dfda181fdbd8a62b77", "is_disabled": 0, "is_reserved": 0}, {"rental_uris": {"ios": "https://dc.lft.to/lastmile_qr_scan", "android": "https://dc.lft.to/lastmile_qr_scan"}, "lon": -76.95355583333334, "type": "electric_bike", "fusion_lat": 0.0, "lat": 38.939568, "name": "6dbef9c1e6517ce9c474195c229ab2c4", "fusion_lon": 0.0, "bike_id": "6dbef9c1e6517ce9c474195c229ab2c4", "is_disabled": 0, "is_reserved": 0}, {"rental_uris": {"ios": "https://dc.lft.to/lastmile_qr_scan", "android": "https://dc.lft.to/lastmile_qr_scan"}, "lon": -77.02840833333333, "type": "electric_scooter", "fusion_lat": 0.0, "lat": 38.88768783333333, "name": "bdbfcc3d3f872c690309e30280f4d424", "fusion_lon": 0.0, "bike_id": "bdbfcc3d3f872c690309e30280f4d424", "is_disabled": 0, "is_reserved": 0}, {"rental_uris": {"ios": "https://dc.lft.to/lastmile_qr_scan", "android": "https://dc.lft.to/lastmile_qr_scan"}, "lon": -77.03659716666667, "type": "electric_scooter", "fusion_lat": 0.0, "lat": 38.92290533333333, "name": "8ef2e793b9a26fbddbc001787cb3a348", "fusion_lon": 0.0, "bike_id": "8ef2e793b9a26fbddbc001787cb3a348", "is_disabled": 0, "is_reserved": 0}, {"rental_uris": {"ios": "https://dc.lft.to/lastmile_qr_scan", "android": "https://dc.lft.to/lastmile_qr_scan"}, "lon": -77.04037133333334, "type": "electric_scooter", "fusion_lat": 0.0, "lat": 38.9256575, "name": "af5fcf8e8cd3279d2942fa61ea4112b4", "fusion_lon": 0.0, "bike_id": "af5fcf8e8cd3279d2942fa61ea4112b4", "is_disabled": 0, "is_reserved": 0}, {"rental_uris": {"ios": "https://dc.lft.to/lastmile_qr_scan", "android": "https://dc.lft.to/lastmile_qr_scan"}, "lon": -77.12744016666667, "type": "electric_bike", "fusion_lat": 0.0, "lat": 38.8882395, "name": "3adae990731f136955dce3a9d5593d81", "fusion_lon": 0.0, "bike_id": "3adae990731f136955dce3a9d5593d81", "is_disabled": 0, "is_reserved": 0}, {"rental_uris": {"ios": "https://dc.lft.to/lastmile_qr_scan", "android": "https://dc.lft.to/lastmile_qr_scan"}, "lon": -77.04996316666667, "type": "electric_scooter", "fusion_lat": 0.0, "lat": 38.9017775, "name": "8d3a47355b4d19589ed1b41869e6c68f", "fusion_lon": 0.0, "bike_id": "8d3a47355b4d19589ed1b41869e6c68f", "is_disabled": 0, "is_reserved": 0}, {"rental_uris": {"ios": "https://dc.lft.to/lastmile_qr_scan", "android": "https://dc.lft.to/lastmile_qr_scan"}, "lon": -77.03171583333334, "type": "electric_scooter", "fusion_lat": 0.0, "lat": 38.896092, "name": "8cbb463ffbf536f48e6377e7beefe6ec", "fusion_lon": 0.0, "bike_id": "8cbb463ffbf536f48e6377e7beefe6ec", "is_disabled": 0, "is_reserved": 0}, {"rental_uris": {"ios": "https://dc.lft.to/lastmile_qr_scan", "android": "https://dc.lft.to/lastmile_qr_scan"}, "lon": -77.0616675, "type": "electric_scooter", "fusion_lat": 0.0, "lat": 38.94220716666667, "name": "3f68699405c92cfd728638ab284304ed", "fusion_lon": 0.0, "bike_id": "3f68699405c92cfd728638ab284304ed", "is_disabled": 0, "is_reserved": 0}, {"rental_uris": {"ios": "https://dc.lft.to/lastmile_qr_scan", "android": "https://dc.lft.to/lastmile_qr_scan"}, "lon": -77.023927, "type": "electric_scooter", "fusion_lat": 0.0, "lat": 38.8873915, "name": "682f8f02a6ebfc0daabd8608736c2ab7", "fusion_lon": 0.0, "bike_id": "682f8f02a6ebfc0daabd8608736c2ab7", "is_disabled": 0, "is_reserved": 0}, {"rental_uris": {"ios": "https://dc.lft.to/lastmile_qr_scan", "android": "https://dc.lft.to/lastmile_qr_scan"}, "lon": -77.02986933333334, "type": "electric_scooter", "fusion_lat": 0.0, "lat": 38.9312135, "name": "e6cf7380902381aca6b47c46d82f0a6a", "fusion_lon": 0.0, "bike_id": "e6cf7380902381aca6b47c46d82f0a6a", "is_disabled": 0, "is_reserved": 0}, {"rental_uris": {"ios": "https://dc.lft.to/lastmile_qr_scan", "android": "https://dc.lft.to/lastmile_qr_scan"}, "lon": -76.97887716666666, "type": "electric_scooter", "fusion_lat": 0.0, "lat": 38.916758, "name": "4ba4d63877115b0efef572962c687aba", "fusion_lon": 0.0, "bike_id": "4ba4d63877115b0efef572962c687aba", "is_disabled": 0, "is_reserved": 0}, {"rental_uris": {"ios": "https://dc.lft.to/lastmile_qr_scan", "android": "https://dc.lft.to/lastmile_qr_scan"}, "lon": -76.9315905, "type": "electric_scooter", "fusion_lat": 0.0, "lat": 38.89881716666667, "name": "f14ba43bbdc085a19381ddda7fbf5605", "fusion_lon": 0.0, "bike_id": "f14ba43bbdc085a19381ddda7fbf5605", "is_disabled": 0, "is_reserved": 0}, {"rental_uris": {"ios": "https://dc.lft.to/lastmile_qr_scan", "android": "https://dc.lft.to/lastmile_qr_scan"}, "lon": -77.04657116666667, "type": "electric_scooter", "fusion_lat": 0.0, "lat": 38.905515666666666, "name": "7cdd109ce3171f122dff35a86e0c5ccd", "fusion_lon": 0.0, "bike_id": "7cdd109ce3171f122dff35a86e0c5ccd", "is_disabled": 0, "is_reserved": 0}, {"rental_uris": {"ios": "https://dc.lft.to/lastmile_qr_scan", "android": "https://dc.lft.to/lastmile_qr_scan"}, "lon": -77.02972166666666, "type": "electric_scooter", "fusion_lat": 0.0, "lat": 38.90781533333333, "name": "542db3fa9286d67599010f4280d4cf9e", "fusion_lon": 0.0, "bike_id": "542db3fa9286d67599010f4280d4cf9e", "is_disabled": 0, "is_reserved": 0}, {"rental_uris": {"ios": "https://dc.lft.to/lastmile_qr_scan", "android": "https://dc.lft.to/lastmile_qr_scan"}, "lon": -76.93810216666667, "type": "electric_scooter", "fusion_lat": 0.0, "lat": 38.91308983333333, "name": "25b010497be53337c1d50e5fe46f1bfe", "fusion_lon": 0.0, "bike_id": "25b010497be53337c1d50e5fe46f1bfe", "is_disabled": 0, "is_reserved": 0}, {"rental_uris": {"ios": "https://dc.lft.to/lastmile_qr_scan", "android": "https://dc.lft.to/lastmile_qr_scan"}, "lon": -76.9877275, "type": "electric_scooter", "fusion_lat": 0.0, "lat": 38.91176466666667, "name": "ae5568f9f1fdd62a0087b737c46cc096", "fusion_lon": 0.0, "bike_id": "ae5568f9f1fdd62a0087b737c46cc096", "is_disabled": 0, "is_reserved": 0}, {"rental_uris": {"ios": "https://dc.lft.to/lastmile_qr_scan", "android": "https://dc.lft.to/lastmile_qr_scan"}, "lon": -77.032259, "type": "electric_bike", "fusion_lat": 0.0, "lat": 38.90710383333333, "name": "7faf6454c5ce3841aa30af6c9b7162d8", "fusion_lon": 0.0, "bike_id": "7faf6454c5ce3841aa30af6c9b7162d8", "is_disabled": 0, "is_reserved": 0}, {"rental_uris": {"ios": "https://dc.lft.to/lastmile_qr_scan", "android": "https://dc.lft.to/lastmile_qr_scan"}, "lon": -76.93520683333334, "type": "electric_scooter", "fusion_lat": 0.0, "lat": 38.9087505, "name": "9eeeb6edba2f8e47f5857f2413f7137f", "fusion_lon": 0.0, "bike_id": "9eeeb6edba2f8e47f5857f2413f7137f", "is_disabled": 0, "is_reserved": 0}, {"rental_uris": {"ios": "https://dc.lft.to/lastmile_qr_scan", "android": "https://dc.lft.to/lastmile_qr_scan"}, "lon": -77.03208166666667, "type": "electric_scooter", "fusion_lat": 0.0, "lat": 38.917176166666664, "name": "c396c73846bda5cc9bf7843ead7cb342", "fusion_lon": 0.0, "bike_id": "c396c73846bda5cc9bf7843ead7cb342", "is_disabled": 0, "is_reserved": 0}, {"rental_uris": {"ios": "https://dc.lft.to/lastmile_qr_scan", "android": "https://dc.lft.to/lastmile_qr_scan"}, "lon": -77.02097716666667, "type": "electric_scooter", "fusion_lat": 0.0, "lat": 38.93448733333334, "name": "ef08bdbadf51783163c28b2a04111239", "fusion_lon": 0.0, "bike_id": "ef08bdbadf51783163c28b2a04111239", "is_disabled": 0, "is_reserved": 0}, {"rental_uris": {"ios": "https://dc.lft.to/lastmile_qr_scan", "android": "https://dc.lft.to/lastmile_qr_scan"}, "lon": -77.03828116666666, "type": "electric_scooter", "fusion_lat": 0.0, "lat": 38.903693833333335, "name": "343440f7f056965092031e2a954a4fe6", "fusion_lon": 0.0, "bike_id": "343440f7f056965092031e2a954a4fe6", "is_disabled": 0, "is_reserved": 0}, {"rental_uris": {"ios": "https://dc.lft.to/lastmile_qr_scan", "android": "https://dc.lft.to/lastmile_qr_scan"}, "lon": -76.94664816666666, "type": "electric_scooter", "fusion_lat": 0.0, "lat": 38.8987265, "name": "ecbd62cd84abb572065ddf1b87e3544e", "fusion_lon": 0.0, "bike_id": "ecbd62cd84abb572065ddf1b87e3544e", "is_disabled": 0, "is_reserved": 0}, {"rental_uris": {"ios": "https://dc.lft.to/lastmile_qr_scan", "android": "https://dc.lft.to/lastmile_qr_scan"}, "lon": -77.011818, "type": "electric_scooter", "fusion_lat": 0.0, "lat": 38.915418333333335, "name": "97fbf07845abc75a509458b54b8ecc9d", "fusion_lon": 0.0, "bike_id": "97fbf07845abc75a509458b54b8ecc9d", "is_disabled": 0, "is_reserved": 0}, {"rental_uris": {"ios": "https://dc.lft.to/lastmile_qr_scan", "android": "https://dc.lft.to/lastmile_qr_scan"}, "lon": -77.0481395, "type": "electric_scooter", "fusion_lat": 0.0, "lat": 38.920320833333335, "name": "8e684fbd3c91412e742f81d516dc2bde", "fusion_lon": 0.0, "bike_id": "8e684fbd3c91412e742f81d516dc2bde", "is_disabled": 0, "is_reserved": 0}, {"rental_uris": {"ios": "https://dc.lft.to/lastmile_qr_scan", "android": "https://dc.lft.to/lastmile_qr_scan"}, "lon": -76.989383, "type": "electric_bike", "fusion_lat": 0.0, "lat": 38.9286145, "name": "b58bc52798f7e3fa8b769af011db2f3e", "fusion_lon": 0.0, "bike_id": "b58bc52798f7e3fa8b769af011db2f3e", "is_disabled": 0, "is_reserved": 0}, {"rental_uris": {"ios": "https://dc.lft.to/lastmile_qr_scan", "android": "https://dc.lft.to/lastmile_qr_scan"}, "lon": -76.94975683333334, "type": "electric_scooter", "fusion_lat": 0.0, "lat": 38.893762, "name": "ac27d7266763c778a013d9be7f85e672", "fusion_lon": 0.0, "bike_id": "ac27d7266763c778a013d9be7f85e672", "is_disabled": 0, "is_reserved": 0}, {"rental_uris": {"ios": "https://dc.lft.to/lastmile_qr_scan", "android": "https://dc.lft.to/lastmile_qr_scan"}, "lon": -76.93176566666666, "type": "electric_scooter", "fusion_lat": 0.0, "lat": 38.8988745, "name": "e4e02ed9f79f6b4952ddc82bc2ce29f9", "fusion_lon": 0.0, "bike_id": "e4e02ed9f79f6b4952ddc82bc2ce29f9", "is_disabled": 0, "is_reserved": 0}, {"rental_uris": {"ios": "https://dc.lft.to/lastmile_qr_scan", "android": "https://dc.lft.to/lastmile_qr_scan"}, "lon": -77.051511, "type": "electric_scooter", "fusion_lat": 0.0, "lat": 38.897745, "name": "003db7923d2a3905688d186997f6f5ae", "fusion_lon": 0.0, "bike_id": "003db7923d2a3905688d186997f6f5ae", "is_disabled": 0, "is_reserved": 0}, {"rental_uris": {"ios": "https://dc.lft.to/lastmile_qr_scan", "android": "https://dc.lft.to/lastmile_qr_scan"}, "lon": -76.99460433333333, "type": "electric_bike", "fusion_lat": 0.0, "lat": 38.9406875, "name": "27bdb7b9c4849a94121bd08d4623304d", "fusion_lon": 0.0, "bike_id": "27bdb7b9c4849a94121bd08d4623304d", "is_disabled": 0, "is_reserved": 0}, {"rental_uris": {"ios": "https://dc.lft.to/lastmile_qr_scan", "android": "https://dc.lft.to/lastmile_qr_scan"}, "lon": -77.00212666666667, "type": "electric_scooter", "fusion_lat": 0.0, "lat": 38.9022095, "name": "cf6e0deccd3c883a99652e4e1b22fc82", "fusion_lon": 0.0, "bike_id": "cf6e0deccd3c883a99652e4e1b22fc82", "is_disabled": 0, "is_reserved": 0}, {"rental_uris": {"ios": "https://dc.lft.to/lastmile_qr_scan", "android": "https://dc.lft.to/lastmile_qr_scan"}, "lon": -77.120305, "type": "electric_bike", "fusion_lat": 0.0, "lat": 38.85526, "name": "d9095448817bcba017a61eb2c47cd1b8", "fusion_lon": 0.0, "bike_id": "d9095448817bcba017a61eb2c47cd1b8", "is_disabled": 0, "is_reserved": 0}, {"rental_uris": {"ios": "https://dc.lft.to/lastmile_qr_scan", "android": "https://dc.lft.to/lastmile_qr_scan"}, "lon": -77.04657216666666, "type": "electric_scooter", "fusion_lat": 0.0, "lat": 38.89335766666667, "name": "26632f540c57a973132d56ccf860b410", "fusion_lon": 0.0, "bike_id": "26632f540c57a973132d56ccf860b410", "is_disabled": 0, "is_reserved": 0}, {"rental_uris": {"ios": "https://dc.lft.to/lastmile_qr_scan", "android": "https://dc.lft.to/lastmile_qr_scan"}, "lon": -77.032731, "type": "electric_scooter", "fusion_lat": 0.0, "lat": 38.90416733333333, "name": "28680e004c0e4f2e8c59e0279d8e0718", "fusion_lon": 0.0, "bike_id": "28680e004c0e4f2e8c59e0279d8e0718", "is_disabled": 0, "is_reserved": 0}, {"rental_uris": {"ios": "https://dc.lft.to/lastmile_qr_scan", "android": "https://dc.lft.to/lastmile_qr_scan"}, "lon": -77.03169483333333, "type": "electric_scooter", "fusion_lat": 0.0, "lat": 38.8862855, "name": "ba34c58f764d10442d1a381cee32d668", "fusion_lon": 0.0, "bike_id": "ba34c58f764d10442d1a381cee32d668", "is_disabled": 0, "is_reserved": 0}, {"rental_uris": {"ios": "https://dc.lft.to/lastmile_qr_scan", "android": "https://dc.lft.to/lastmile_qr_scan"}, "lon": -77.03334233333334, "type": "electric_scooter", "fusion_lat": 0.0, "lat": 38.899056333333334, "name": "94c3ac8b7323e4f2a845df830e56d242", "fusion_lon": 0.0, "bike_id": "94c3ac8b7323e4f2a845df830e56d242", "is_disabled": 0, "is_reserved": 0}, {"rental_uris": {"ios": "https://dc.lft.to/lastmile_qr_scan", "android": "https://dc.lft.to/lastmile_qr_scan"}, "lon": -77.00134316666667, "type": "electric_scooter", "fusion_lat": 0.0, "lat": 38.904132833333335, "name": "42611a1167a1b9cf04c610ee31868152", "fusion_lon": 0.0, "bike_id": "42611a1167a1b9cf04c610ee31868152", "is_disabled": 0, "is_reserved": 0}, {"rental_uris": {"ios": "https://dc.lft.to/lastmile_qr_scan", "android": "https://dc.lft.to/lastmile_qr_scan"}, "lon": -77.01813666666666, "type": "electric_scooter", "fusion_lat": 0.0, "lat": 38.904480166666666, "name": "f5a348934eea9c9efc645d51f749492b", "fusion_lon": 0.0, "bike_id": "f5a348934eea9c9efc645d51f749492b", "is_disabled": 0, "is_reserved": 0}, {"rental_uris": {"ios": "https://dc.lft.to/lastmile_qr_scan", "android": "https://dc.lft.to/lastmile_qr_scan"}, "lon": -77.0485265, "type": "electric_scooter", "fusion_lat": 0.0, "lat": 38.905332, "name": "621f529c7fc52a24e90038b677cd6208", "fusion_lon": 0.0, "bike_id": "621f529c7fc52a24e90038b677cd6208", "is_disabled": 0, "is_reserved": 0}, {"rental_uris": {"ios": "https://dc.lft.to/lastmile_qr_scan", "android": "https://dc.lft.to/lastmile_qr_scan"}, "lon": -76.991508, "type": "electric_scooter", "fusion_lat": 0.0, "lat": 38.893461333333335, "name": "02697b9b909910beed79109679a001c5", "fusion_lon": 0.0, "bike_id": "02697b9b909910beed79109679a001c5", "is_disabled": 0, "is_reserved": 0}, {"rental_uris": {"ios": "https://dc.lft.to/lastmile_qr_scan", "android": "https://dc.lft.to/lastmile_qr_scan"}, "lon": -76.97329, "type": "electric_scooter", "fusion_lat": 0.0, "lat": 38.90488533333333, "name": "eb485ac31f0c53e1e4c535745c0a2597", "fusion_lon": 0.0, "bike_id": "eb485ac31f0c53e1e4c535745c0a2597", "is_disabled": 0, "is_reserved": 0}, {"rental_uris": {"ios": "https://dc.lft.to/lastmile_qr_scan", "android": "https://dc.lft.to/lastmile_qr_scan"}, "lon": -77.10896283333334, "type": "electric_bike", "fusion_lat": 0.0, "lat": 38.83043266666667, "name": "9e3e6940aa4df519b93fd9d0dfd9dcaa", "fusion_lon": 0.0, "bike_id": "9e3e6940aa4df519b93fd9d0dfd9dcaa", "is_disabled": 0, "is_reserved": 0}, {"rental_uris": {"ios": "https://dc.lft.to/lastmile_qr_scan", "android": "https://dc.lft.to/lastmile_qr_scan"}, "lon": -77.02403866666667, "type": "electric_scooter", "fusion_lat": 0.0, "lat": 38.916783, "name": "2d807e0bc7c815c9509f177aceb1153a", "fusion_lon": 0.0, "bike_id": "2d807e0bc7c815c9509f177aceb1153a", "is_disabled": 0, "is_reserved": 0}, {"rental_uris": {"ios": "https://dc.lft.to/lastmile_qr_scan", "android": "https://dc.lft.to/lastmile_qr_scan"}, "lon": -77.01106266666666, "type": "electric_bike", "fusion_lat": 0.0, "lat": 38.963074, "name": "c828d853503dae3ebd350eb53dc7eac9", "fusion_lon": 0.0, "bike_id": "c828d853503dae3ebd350eb53dc7eac9", "is_disabled": 0, "is_reserved": 0}, {"rental_uris": {"ios": "https://dc.lft.to/lastmile_qr_scan", "android": "https://dc.lft.to/lastmile_qr_scan"}, "lon": -77.0334405, "type": "electric_scooter", "fusion_lat": 0.0, "lat": 38.92875466666667, "name": "3e6780da5e2b2f22a62121874a7146ec", "fusion_lon": 0.0, "bike_id": "3e6780da5e2b2f22a62121874a7146ec", "is_disabled": 0, "is_reserved": 0}, {"rental_uris": {"ios": "https://dc.lft.to/lastmile_qr_scan", "android": "https://dc.lft.to/lastmile_qr_scan"}, "lon": -76.9463645, "type": "electric_scooter", "fusion_lat": 0.0, "lat": 38.898349833333334, "name": "02da0c5f7782c5e862164443cef75531", "fusion_lon": 0.0, "bike_id": "02da0c5f7782c5e862164443cef75531", "is_disabled": 0, "is_reserved": 0}, {"rental_uris": {"ios": "https://dc.lft.to/lastmile_qr_scan", "android": "https://dc.lft.to/lastmile_qr_scan"}, "lon": -77.03791316666667, "type": "electric_scooter", "fusion_lat": 0.0, "lat": 38.92631683333333, "name": "b595a3e959d1b7703c7976dbed13a1dd", "fusion_lon": 0.0, "bike_id": "b595a3e959d1b7703c7976dbed13a1dd", "is_disabled": 0, "is_reserved": 0}, {"rental_uris": {"ios": "https://dc.lft.to/lastmile_qr_scan", "android": "https://dc.lft.to/lastmile_qr_scan"}, "lon": -76.97745783333333, "type": "electric_scooter", "fusion_lat": 0.0, "lat": 38.9001385, "name": "279c79907b395a0a04c47d390756fa75", "fusion_lon": 0.0, "bike_id": "279c79907b395a0a04c47d390756fa75", "is_disabled": 0, "is_reserved": 0}, {"rental_uris": {"ios": "https://dc.lft.to/lastmile_qr_scan", "android": "https://dc.lft.to/lastmile_qr_scan"}, "lon": -76.97616716666667, "type": "electric_scooter", "fusion_lat": 0.0, "lat": 38.90383383333333, "name": "a2cef1816adf934259f5e918e3261d2e", "fusion_lon": 0.0, "bike_id": "a2cef1816adf934259f5e918e3261d2e", "is_disabled": 0, "is_reserved": 0}, {"rental_uris": {"ios": "https://dc.lft.to/lastmile_qr_scan", "android": "https://dc.lft.to/lastmile_qr_scan"}, "lon": -77.038326, "type": "electric_scooter", "fusion_lat": 0.0, "lat": 38.92174766666667, "name": "f6c9186d6bb1e3340973042f2fe503c6", "fusion_lon": 0.0, "bike_id": "f6c9186d6bb1e3340973042f2fe503c6", "is_disabled": 0, "is_reserved": 0}, {"rental_uris": {"ios": "https://dc.lft.to/lastmile_qr_scan", "android": "https://dc.lft.to/lastmile_qr_scan"}, "lon": -77.05526116666667, "type": "electric_scooter", "fusion_lat": 0.0, "lat": 38.89942933333333, "name": "0d498c36ea2f3023cce33ecee6213441", "fusion_lon": 0.0, "bike_id": "0d498c36ea2f3023cce33ecee6213441", "is_disabled": 0, "is_reserved": 0}, {"rental_uris": {"ios": "https://dc.lft.to/lastmile_qr_scan", "android": "https://dc.lft.to/lastmile_qr_scan"}, "lon": -76.87821633333333, "type": "electric_bike", "fusion_lat": 0.0, "lat": 38.992297666666666, "name": "98746629db9210b57a14131df935d76f", "fusion_lon": 0.0, "bike_id": "98746629db9210b57a14131df935d76f", "is_disabled": 0, "is_reserved": 0}, {"rental_uris": {"ios": "https://dc.lft.to/lastmile_qr_scan", "android": "https://dc.lft.to/lastmile_qr_scan"}, "lon": -77.02476483333334, "type": "electric_scooter", "fusion_lat": 0.0, "lat": 38.91815533333333, "name": "5d5ed8ac38207533d7feaa879e9565a2", "fusion_lon": 0.0, "bike_id": "5d5ed8ac38207533d7feaa879e9565a2", "is_disabled": 0, "is_reserved": 0}, {"rental_uris": {"ios": "https://dc.lft.to/lastmile_qr_scan", "android": "https://dc.lft.to/lastmile_qr_scan"}, "lon": -77.10716466666666, "type": "electric_bike", "fusion_lat": 0.0, "lat": 38.855567666666666, "name": "f5c462564763d52cf564fab654f7f9ea", "fusion_lon": 0.0, "bike_id": "f5c462564763d52cf564fab654f7f9ea", "is_disabled": 0, "is_reserved": 0}, {"rental_uris": {"ios": "https://dc.lft.to/lastmile_qr_scan", "android": "https://dc.lft.to/lastmile_qr_scan"}, "lon": -77.02143016666666, "type": "electric_bike", "fusion_lat": 0.0, "lat": 38.948066, "name": "3f5c75f7e74a889f1d0f7c767b2ddbc0", "fusion_lon": 0.0, "bike_id": "3f5c75f7e74a889f1d0f7c767b2ddbc0", "is_disabled": 0, "is_reserved": 0}, {"rental_uris": {"ios": "https://dc.lft.to/lastmile_qr_scan", "android": "https://dc.lft.to/lastmile_qr_scan"}, "lon": -77.02304, "type": "electric_scooter", "fusion_lat": 0.0, "lat": 38.9178935, "name": "f5dba697aed7558d243f03fd6bc71dbc", "fusion_lon": 0.0, "bike_id": "f5dba697aed7558d243f03fd6bc71dbc", "is_disabled": 0, "is_reserved": 0}, {"rental_uris": {"ios": "https://dc.lft.to/lastmile_qr_scan", "android": "https://dc.lft.to/lastmile_qr_scan"}, "lon": -77.04033583333333, "type": "electric_scooter", "fusion_lat": 0.0, "lat": 38.924356833333334, "name": "edfd15f2192fc717391adf6e1062166f", "fusion_lon": 0.0, "bike_id": "edfd15f2192fc717391adf6e1062166f", "is_disabled": 0, "is_reserved": 0}, {"rental_uris": {"ios": "https://dc.lft.to/lastmile_qr_scan", "android": "https://dc.lft.to/lastmile_qr_scan"}, "lon": -77.03779983333334, "type": "electric_bike", "fusion_lat": 0.0, "lat": 38.99675716666667, "name": "8c387a9b7222e8502ef5a79bfa6763cc", "fusion_lon": 0.0, "bike_id": "8c387a9b7222e8502ef5a79bfa6763cc", "is_disabled": 0, "is_reserved": 0}, {"rental_uris": {"ios": "https://dc.lft.to/lastmile_qr_scan", "android": "https://dc.lft.to/lastmile_qr_scan"}, "lon": -77.03831883333334, "type": "electric_scooter", "fusion_lat": 0.0, "lat": 38.92173566666666, "name": "5fa0bdc9f30db30272915bc5ffdedd18", "fusion_lon": 0.0, "bike_id": "5fa0bdc9f30db30272915bc5ffdedd18", "is_disabled": 0, "is_reserved": 0}, {"rental_uris": {"ios": "https://dc.lft.to/lastmile_qr_scan", "android": "https://dc.lft.to/lastmile_qr_scan"}, "lon": -76.97730683333333, "type": "electric_scooter", "fusion_lat": 0.0, "lat": 38.87288816666667, "name": "c9ca58692b825ebd3396595e3e084627", "fusion_lon": 0.0, "bike_id": "c9ca58692b825ebd3396595e3e084627", "is_disabled": 0, "is_reserved": 0}, {"rental_uris": {"ios": "https://dc.lft.to/lastmile_qr_scan", "android": "https://dc.lft.to/lastmile_qr_scan"}, "lon": -77.0434705, "type": "electric_scooter", "fusion_lat": 0.0, "lat": 38.9105445, "name": "43ac69e1ce08d626013726a915469b62", "fusion_lon": 0.0, "bike_id": "43ac69e1ce08d626013726a915469b62", "is_disabled": 0, "is_reserved": 0}, {"rental_uris": {"ios": "https://dc.lft.to/lastmile_qr_scan", "android": "https://dc.lft.to/lastmile_qr_scan"}, "lon": -77.03067016666667, "type": "electric_scooter", "fusion_lat": 0.0, "lat": 38.880467833333334, "name": "1c741e4536695cc1fcc1e8e341d4b745", "fusion_lon": 0.0, "bike_id": "1c741e4536695cc1fcc1e8e341d4b745", "is_disabled": 0, "is_reserved": 0}, {"rental_uris": {"ios": "https://dc.lft.to/lastmile_qr_scan", "android": "https://dc.lft.to/lastmile_qr_scan"}, "lon": -76.9494475, "type": "electric_scooter", "fusion_lat": 0.0, "lat": 38.883814, "name": "e8264e669c5067b45d87a648cf11ee1e", "fusion_lon": 0.0, "bike_id": "e8264e669c5067b45d87a648cf11ee1e", "is_disabled": 0, "is_reserved": 0}, {"rental_uris": {"ios": "https://dc.lft.to/lastmile_qr_scan", "android": "https://dc.lft.to/lastmile_qr_scan"}, "lon": -77.13173966666666, "type": "electric_bike", "fusion_lat": 0.0, "lat": 38.869124166666666, "name": "181df5f312e315ca209ba3a9d7c95a85", "fusion_lon": 0.0, "bike_id": "181df5f312e315ca209ba3a9d7c95a85", "is_disabled": 0, "is_reserved": 0}, {"rental_uris": {"ios": "https://dc.lft.to/lastmile_qr_scan", "android": "https://dc.lft.to/lastmile_qr_scan"}, "lon": -77.01675133333333, "type": "electric_scooter", "fusion_lat": 0.0, "lat": 38.90265433333333, "name": "b2fb459d5bd6855208d034acc2d803c8", "fusion_lon": 0.0, "bike_id": "b2fb459d5bd6855208d034acc2d803c8", "is_disabled": 0, "is_reserved": 0}, {"rental_uris": {"ios": "https://dc.lft.to/lastmile_qr_scan", "android": "https://dc.lft.to/lastmile_qr_scan"}, "lon": -77.021854, "type": "electric_scooter", "fusion_lat": 0.0, "lat": 38.915014666666664, "name": "be9b5c670137a23118135d6c57ceaa64", "fusion_lon": 0.0, "bike_id": "be9b5c670137a23118135d6c57ceaa64", "is_disabled": 0, "is_reserved": 0}, {"rental_uris": {"ios": "https://dc.lft.to/lastmile_qr_scan", "android": "https://dc.lft.to/lastmile_qr_scan"}, "lon": -77.04686166666667, "type": "electric_scooter", "fusion_lat": 0.0, "lat": 38.908671, "name": "bb6e07d53d1f3c7cb7208f9f8b23d4ba", "fusion_lon": 0.0, "bike_id": "bb6e07d53d1f3c7cb7208f9f8b23d4ba", "is_disabled": 0, "is_reserved": 0}, {"rental_uris": {"ios": "https://dc.lft.to/lastmile_qr_scan", "android": "https://dc.lft.to/lastmile_qr_scan"}, "lon": -77.04267833333333, "type": "electric_scooter", "fusion_lat": 0.0, "lat": 38.90730466666667, "name": "95c459adf5579281493dfc0a4d9823a1", "fusion_lon": 0.0, "bike_id": "95c459adf5579281493dfc0a4d9823a1", "is_disabled": 0, "is_reserved": 0}, {"rental_uris": {"ios": "https://dc.lft.to/lastmile_qr_scan", "android": "https://dc.lft.to/lastmile_qr_scan"}, "lon": -76.95736616666667, "type": "electric_scooter", "fusion_lat": 0.0, "lat": 38.89223533333333, "name": "e96a59bf25fd7dd72e12334dab293282", "fusion_lon": 0.0, "bike_id": "e96a59bf25fd7dd72e12334dab293282", "is_disabled": 0, "is_reserved": 0}, {"rental_uris": {"ios": "https://dc.lft.to/lastmile_qr_scan", "android": "https://dc.lft.to/lastmile_qr_scan"}, "lon": -77.03422, "type": "electric_scooter", "fusion_lat": 0.0, "lat": 38.9294475, "name": "5c11c0db4ecd834bd5d5319d439b5f96", "fusion_lon": 0.0, "bike_id": "5c11c0db4ecd834bd5d5319d439b5f96", "is_disabled": 0, "is_reserved": 0}, {"rental_uris": {"ios": "https://dc.lft.to/lastmile_qr_scan", "android": "https://dc.lft.to/lastmile_qr_scan"}, "lon": -77.0393535, "type": "electric_scooter", "fusion_lat": 0.0, "lat": 38.931577833333336, "name": "c38e136db31543a416c5690c58d50f8f", "fusion_lon": 0.0, "bike_id": "c38e136db31543a416c5690c58d50f8f", "is_disabled": 0, "is_reserved": 0}, {"rental_uris": {"ios": "https://dc.lft.to/lastmile_qr_scan", "android": "https://dc.lft.to/lastmile_qr_scan"}, "lon": -77.038119, "type": "electric_scooter", "fusion_lat": 0.0, "lat": 38.93065766666667, "name": "01442badff85ad685ce2b3b6822fa5e0", "fusion_lon": 0.0, "bike_id": "01442badff85ad685ce2b3b6822fa5e0", "is_disabled": 0, "is_reserved": 0}, {"rental_uris": {"ios": "https://dc.lft.to/lastmile_qr_scan", "android": "https://dc.lft.to/lastmile_qr_scan"}, "lon": -77.02983516666667, "type": "electric_bike", "fusion_lat": 0.0, "lat": 38.900416666666665, "name": "a8b0ad58c7d27f130d5df38e1b9cee9a", "fusion_lon": 0.0, "bike_id": "a8b0ad58c7d27f130d5df38e1b9cee9a", "is_disabled": 0, "is_reserved": 0}, {"rental_uris": {"ios": "https://dc.lft.to/lastmile_qr_scan", "android": "https://dc.lft.to/lastmile_qr_scan"}, "lon": -77.00054466666667, "type": "electric_scooter", "fusion_lat": 0.0, "lat": 38.889011833333335, "name": "c435f5c8a33fc8d4c729cc774431a5a5", "fusion_lon": 0.0, "bike_id": "c435f5c8a33fc8d4c729cc774431a5a5", "is_disabled": 0, "is_reserved": 0}, {"rental_uris": {"ios": "https://dc.lft.to/lastmile_qr_scan", "android": "https://dc.lft.to/lastmile_qr_scan"}, "lon": -77.03701333333333, "type": "electric_bike", "fusion_lat": 0.0, "lat": 38.93558066666667, "name": "5fa6921c816c2bb84797fd4c1baaaa80", "fusion_lon": 0.0, "bike_id": "5fa6921c816c2bb84797fd4c1baaaa80", "is_disabled": 0, "is_reserved": 0}, {"rental_uris": {"ios": "https://dc.lft.to/lastmile_qr_scan", "android": "https://dc.lft.to/lastmile_qr_scan"}, "lon": -77.08841166666667, "type": "electric_bike", "fusion_lat": 0.0, "lat": 38.8408565, "name": "0c6ad24883071bd82d9fe192d51083e4", "fusion_lon": 0.0, "bike_id": "0c6ad24883071bd82d9fe192d51083e4", "is_disabled": 0, "is_reserved": 0}, {"rental_uris": {"ios": "https://dc.lft.to/lastmile_qr_scan", "android": "https://dc.lft.to/lastmile_qr_scan"}, "lon": -77.01292766666667, "type": "electric_bike", "fusion_lat": 0.0, "lat": 39.003772, "name": "276909b53fb2ac713de5ca5f54850e2f", "fusion_lon": 0.0, "bike_id": "276909b53fb2ac713de5ca5f54850e2f", "is_disabled": 0, "is_reserved": 0}, {"rental_uris": {"ios": "https://dc.lft.to/lastmile_qr_scan", "android": "https://dc.lft.to/lastmile_qr_scan"}, "lon": -77.04562716666666, "type": "electric_scooter", "fusion_lat": 0.0, "lat": 38.914668666666664, "name": "c5cb6a60332146c634fd39318f0d8785", "fusion_lon": 0.0, "bike_id": "c5cb6a60332146c634fd39318f0d8785", "is_disabled": 0, "is_reserved": 0}, {"rental_uris": {"ios": "https://dc.lft.to/lastmile_qr_scan", "android": "https://dc.lft.to/lastmile_qr_scan"}, "lon": -77.03846866666666, "type": "electric_scooter", "fusion_lat": 0.0, "lat": 38.91093266666667, "name": "e99a9fe22801a8b8543e92ea2a92d488", "fusion_lon": 0.0, "bike_id": "e99a9fe22801a8b8543e92ea2a92d488", "is_disabled": 0, "is_reserved": 0}, {"rental_uris": {"ios": "https://dc.lft.to/lastmile_qr_scan", "android": "https://dc.lft.to/lastmile_qr_scan"}, "lon": -77.0112425, "type": "electric_scooter", "fusion_lat": 0.0, "lat": 38.903584, "name": "325b880679f8689070349028c2db078f", "fusion_lon": 0.0, "bike_id": "325b880679f8689070349028c2db078f", "is_disabled": 0, "is_reserved": 0}, {"rental_uris": {"ios": "https://dc.lft.to/lastmile_qr_scan", "android": "https://dc.lft.to/lastmile_qr_scan"}, "lon": -77.025491, "type": "electric_scooter", "fusion_lat": 0.0, "lat": 38.8923115, "name": "47143c2cde6a6b91c414721f46179bfa", "fusion_lon": 0.0, "bike_id": "47143c2cde6a6b91c414721f46179bfa", "is_disabled": 0, "is_reserved": 0}, {"rental_uris": {"ios": "https://dc.lft.to/lastmile_qr_scan", "android": "https://dc.lft.to/lastmile_qr_scan"}, "lon": -77.07546, "type": "electric_bike", "fusion_lat": 0.0, "lat": 38.91056666666667, "name": "265e6306a2ccc5eddb763480b1676db8", "fusion_lon": 0.0, "bike_id": "265e6306a2ccc5eddb763480b1676db8", "is_disabled": 0, "is_reserved": 0}, {"rental_uris": {"ios": "https://dc.lft.to/lastmile_qr_scan", "android": "https://dc.lft.to/lastmile_qr_scan"}, "lon": -77.03192416666667, "type": "electric_scooter", "fusion_lat": 0.0, "lat": 38.9163525, "name": "25c7bc7407b683f81846b73fc4220bf5", "fusion_lon": 0.0, "bike_id": "25c7bc7407b683f81846b73fc4220bf5", "is_disabled": 0, "is_reserved": 0}, {"rental_uris": {"ios": "https://dc.lft.to/lastmile_qr_scan", "android": "https://dc.lft.to/lastmile_qr_scan"}, "lon": -77.01699333333333, "type": "electric_scooter", "fusion_lat": 0.0, "lat": 38.879217, "name": "5ae45b5febfbb1ce33d64fac75b82939", "fusion_lon": 0.0, "bike_id": "5ae45b5febfbb1ce33d64fac75b82939", "is_disabled": 0, "is_reserved": 0}, {"rental_uris": {"ios": "https://dc.lft.to/lastmile_qr_scan", "android": "https://dc.lft.to/lastmile_qr_scan"}, "lon": -76.99911916666667, "type": "electric_scooter", "fusion_lat": 0.0, "lat": 38.90955116666667, "name": "172ebf02390bbfddc9d23d6931916e83", "fusion_lon": 0.0, "bike_id": "172ebf02390bbfddc9d23d6931916e83", "is_disabled": 0, "is_reserved": 0}, {"rental_uris": {"ios": "https://dc.lft.to/lastmile_qr_scan", "android": "https://dc.lft.to/lastmile_qr_scan"}, "lon": -77.0460315, "type": "electric_scooter", "fusion_lat": 0.0, "lat": 38.91719883333333, "name": "0571963e8d7c6e37a2fbaca0a7189c24", "fusion_lon": 0.0, "bike_id": "0571963e8d7c6e37a2fbaca0a7189c24", "is_disabled": 0, "is_reserved": 0}, {"rental_uris": {"ios": "https://dc.lft.to/lastmile_qr_scan", "android": "https://dc.lft.to/lastmile_qr_scan"},