{"data": {"bikes": [{"is_disabled": 0, "fusion_lon": 0.0, "fusion_lat": 0.0, "lat": 38.9084355, "type": "electric_scooter", "lon": -77.026964, "bike_id": "40b9092274851f2eb9fb68f1d47803d2", "rental_uris": {"android": "https://dc.lft.to/lastmile_qr_scan", "ios": "https://dc.lft.to/lastmile_qr_scan"}, "name": "40b9092274851f2eb9fb68f1d47803d2", "is_reserved": 0}, {"is_disabled": 0, "fusion_lon": 0.0, "fusion_lat": 0.0, "lat": 38.914077166666665, "type": "electric_scooter", "lon": -77.0033215, "bike_id": "7b4b409a2bb42eca1967a2ffbf206d4a", "rental_uris": {"android": "https://dc.lft.to/lastmile_qr_scan", "ios": "https://dc.lft.to/lastmile_qr_scan"}, "name": "7b4b409a2bb42eca1967a2ffbf206d4a", "is_reserved": 0}, {"is_disabled": 0, "fusion_lon": 0.0, "fusion_lat": 0.0, "lat": 38.944972166666666, "type": "electric_bike", "lon": -76.98662316666666, "bike_id": "342591b31cee5bb0971adf9515f89a05", "rental_uris": {"android": "https://dc.lft.to/lastmile_qr_scan", "ios": "https://dc.lft.to/lastmile_qr_scan"}, "name": "342591b31cee5bb0971adf9515f89a05", "is_reserved": 0}, {"is_disabled": 0, "fusion_lon": 0.0, "fusion_lat": 0.0, "lat": 38.930558833333336, "type": "electric_scooter", "lon": -77.02803283333333, "bike_id": "d21bd6072e57a50fb1f56e64765123d4", "rental_uris": {"android": "https://dc.lft.to/lastmile_qr_scan", "ios": "https://dc.lft.to/lastmile_qr_scan"}, "name": "d21bd6072e57a50fb1f56e64765123d4", "is_reserved": 0}, {"is_disabled": 0, "fusion_lon": 0.0, "fusion_lat": 0.0, "lat": 38.93544166666667, "type": "electric_scooter", "lon": -77.0581345, "bike_id": "d9f3595ed87d5f90ca43368b80d39269", "rental_uris": {"android": "https://dc.lft.to/lastmile_qr_scan", "ios": "https://dc.lft.to/lastmile_qr_scan"}, "name": "d9f3595ed87d5f90ca43368b80d39269", "is_reserved": 0}, {"is_disabled": 0, "fusion_lon": 0.0, "fusion_lat": 0.0, "lat": 38.917931, "type": "electric_scooter", "lon": -77.043003, "bike_id": "dc6943e8432f5b2b6aeb9ece758dfd7a", "rental_uris": {"android": "https://dc.lft.to/lastmile_qr_scan", "ios": "https://dc.lft.to/lastmile_qr_scan"}, "name": "dc6943e8432f5b2b6aeb9ece758dfd7a", "is_reserved": 0}, {"is_disabled": 0, "fusion_lon": 0.0, "fusion_lat": 0.0, "lat": 38.88579216666667, "type": "electric_scooter", "lon": -76.9191295, "bike_id": "f88bbb652b00a0fe801e93d78bce7c38", "rental_uris": {"android": "https://dc.lft.to/lastmile_qr_scan", "ios": "https://dc.lft.to/lastmile_qr_scan"}, "name": "f88bbb652b00a0fe801e93d78bce7c38", "is_reserved": 0}, {"is_disabled": 0, "fusion_lon": 0.0, "fusion_lat": 0.0, "lat": 38.93967266666667, "type": "electric_bike", "lon": -77.36093316666667, "bike_id": "2e8d5a66495812a624eb2d5d60618a0b", "rental_uris": {"android": "https://dc.lft.to/lastmile_qr_scan", "ios": "https://dc.lft.to/lastmile_qr_scan"}, "name": "2e8d5a66495812a624eb2d5d60618a0b", "is_reserved": 0}, {"is_disabled": 0, "fusion_lon": 0.0, "fusion_lat": 0.0, "lat": 38.85317883333333, "type": "electric_bike", "lon": -77.053328, "bike_id": "f20c11c5981b06e4ce91ffd1a132b734", "rental_uris": {"android": "https://dc.lft.to/lastmile_qr_scan", "ios": "https://dc.lft.to/lastmile_qr_scan"}, "name": "f20c11c5981b06e4ce91ffd1a132b734", "is_reserved": 0}, {"is_disabled": 0, "fusion_lon": 0.0, "fusion_lat": 0.0, "lat": 38.922876, "type": "electric_scooter", "lon": -77.044632, "bike_id": "96d3ce7d7ed727ea678c3bc0880285ef", "rental_uris": {"android": "https://dc.lft.to/lastmile_qr_scan", "ios": "https://dc.lft.to/lastmile_qr_scan"}, "name": "96d3ce7d7ed727ea678c3bc0880285ef", "is_reserved": 0}, {"is_disabled": 0, "fusion_lon": 0.0, "fusion_lat": 0.0, "lat": 38.924649, "type": "electric_scooter", "lon": -77.07859633333334, "bike_id": "8b3748809fbdd10784e4f8eba4d62d25", "rental_uris": {"android": "https://dc.lft.to/lastmile_qr_scan", "ios": "https://dc.lft.to/lastmile_qr_scan"}, "name": "8b3748809fbdd10784e4f8eba4d62d25", "is_reserved": 0}, {"is_disabled": 0, "fusion_lon": 0.0, "fusion_lat": 0.0, "lat": 38.905797666666665, "type": "electric_scooter", "lon": -77.05592766666666, "bike_id": "7365d09a2da7c3646799d0a5dd8d5445", "rental_uris": {"android": "https://dc.lft.to/lastmile_qr_scan", "ios": "https://dc.lft.to/lastmile_qr_scan"}, "name": "7365d09a2da7c3646799d0a5dd8d5445", "is_reserved": 0}, {"is_disabled": 0, "fusion_lon": 0.0, "fusion_lat": 0.0, "lat": 38.94075983333333, "type": "electric_scooter", "lon": -77.02881466666666, "bike_id": "41c8a0cdb11518ed50c95b12d13f4cbc", "rental_uris": {"android": "https://dc.lft.to/lastmile_qr_scan", "ios": "https://dc.lft.to/lastmile_qr_scan"}, "name": "41c8a0cdb11518ed50c95b12d13f4cbc", "is_reserved": 0}, {"is_disabled": 0, "fusion_lon": 0.0, "fusion_lat": 0.0, "lat": 38.902779333333335, "type": "electric_scooter", "lon": -77.04895283333333, "bike_id": "23cdbccc3bb2dad4a294a722e68b12e1", "rental_uris": {"android": "https://dc.lft.to/lastmile_qr_scan", "ios": "https://dc.lft.to/lastmile_qr_scan"}, "name": "23cdbccc3bb2dad4a294a722e68b12e1", "is_reserved": 0}, {"is_disabled": 0, "fusion_lon": 0.0, "fusion_lat": 0.0, "lat": 38.89539033333333, "type": "electric_scooter", "lon": -77.04850816666666, "bike_id": "d66a4796d06db3e7c816f87085c6ed2c", "rental_uris": {"android": "https://dc.lft.to/lastmile_qr_scan", "ios": "https://dc.lft.to/lastmile_qr_scan"}, "name": "d66a4796d06db3e7c816f87085c6ed2c", "is_reserved": 0}, {"is_disabled": 0, "fusion_lon": 0.0, "fusion_lat": 0.0, "lat": 38.91469816666667, "type": "electric_scooter", "lon": -76.98449316666667, "bike_id": "63671e655da766996384d9cd595cd8bf", "rental_uris": {"android": "https://dc.lft.to/lastmile_qr_scan", "ios": "https://dc.lft.to/lastmile_qr_scan"}, "name": "63671e655da766996384d9cd595cd8bf", "is_reserved": 0}, {"is_disabled": 0, "fusion_lon": 0.0, "fusion_lat": 0.0, "lat": 38.877716666666664, "type": "electric_bike", "lon": -76.9798955, "bike_id": "5bce990b87b8d8e30257cef52da856a1", "rental_uris": {"android": "https://dc.lft.to/lastmile_qr_scan", "ios": "https://dc.lft.to/lastmile_qr_scan"}, "name": "5bce990b87b8d8e30257cef52da856a1", "is_reserved": 0}, {"is_disabled": 0, "fusion_lon": 0.0, "fusion_lat": 0.0, "lat": 38.92109333333333, "type": "electric_scooter", "lon": -77.01766433333333, "bike_id": "48e23515c4bb0df166273ed172a8dc6d", "rental_uris": {"android": "https://dc.lft.to/lastmile_qr_scan", "ios": "https://dc.lft.to/lastmile_qr_scan"}, "name": "48e23515c4bb0df166273ed172a8dc6d", "is_reserved": 0}, {"is_disabled": 0, "fusion_lon": 0.0, "fusion_lat": 0.0, "lat": 38.925746833333335, "type": "electric_scooter", "lon": -77.08059083333333, "bike_id": "c44d82c9727abf5484dacaa73e150cc4", "rental_uris": {"android": "https://dc.lft.to/lastmile_qr_scan", "ios": "https://dc.lft.to/lastmile_qr_scan"}, "name": "c44d82c9727abf5484dacaa73e150cc4", "is_reserved": 0}, {"is_disabled": 0, "fusion_lon": 0.0, "fusion_lat": 0.0, "lat": 38.91308633333333, "type": "electric_scooter", "lon": -77.00849133333334, "bike_id": "60059ec286c57422740ebedb55c9e3e1", "rental_uris": {"android": "https://dc.lft.to/lastmile_qr_scan", "ios": "https://dc.lft.to/lastmile_qr_scan"}, "name": "60059ec286c57422740ebedb55c9e3e1", "is_reserved": 0}, {"is_disabled": 0, "fusion_lon": 0.0, "fusion_lat": 0.0, "lat": 38.9126475, "type": "electric_scooter", "lon": -77.03365116666667, "bike_id": "9f92988ac62cd60b13353b3d8f356afd", "rental_uris": {"android": "https://dc.lft.to/lastmile_qr_scan", "ios": "https://dc.lft.to/lastmile_qr_scan"}, "name": "9f92988ac62cd60b13353b3d8f356afd", "is_reserved": 0}, {"is_disabled": 0, "fusion_lon": 0.0, "fusion_lat": 0.0, "lat": 38.951737333333334, "type": "electric_scooter", "lon": -77.033339, "bike_id": "11769c27b21f1ee66dd8d23de818dca6", "rental_uris": {"android": "https://dc.lft.to/lastmile_qr_scan", "ios": "https://dc.lft.to/lastmile_qr_scan"}, "name": "11769c27b21f1ee66dd8d23de818dca6", "is_reserved": 0}, {"is_disabled": 0, "fusion_lon": 0.0, "fusion_lat": 0.0, "lat": 38.92964933333333, "type": "electric_scooter", "lon": -77.04202616666667, "bike_id": "390e99aeaa27f529101313c3a2be3389", "rental_uris": {"android": "https://dc.lft.to/lastmile_qr_scan", "ios": "https://dc.lft.to/lastmile_qr_scan"}, "name": "390e99aeaa27f529101313c3a2be3389", "is_reserved": 0}, {"is_disabled": 0, "fusion_lon": 0.0, "fusion_lat": 0.0, "lat": 38.966202, "type": "electric_scooter", "lon": -77.0353345, "bike_id": "bb16fc8fca7ff45fc21ced56f836d783", "rental_uris": {"android": "https://dc.lft.to/lastmile_qr_scan", "ios": "https://dc.lft.to/lastmile_qr_scan"}, "name": "bb16fc8fca7ff45fc21ced56f836d783", "is_reserved": 0}, {"is_disabled": 0, "fusion_lon": 0.0, "fusion_lat": 0.0, "lat": 38.91543766666667, "type": "electric_scooter", "lon": -77.037969, "bike_id": "76c34945ca671cc465426139a65168fd", "rental_uris": {"android": "https://dc.lft.to/lastmile_qr_scan", "ios": "https://dc.lft.to/lastmile_qr_scan"}, "name": "76c34945ca671cc465426139a65168fd", "is_reserved": 0}, {"is_disabled": 0, "fusion_lon": 0.0, "fusion_lat": 0.0, "lat": 38.94618333333333, "type": "electric_scooter", "lon": -77.03625383333333, "bike_id": "f68ac3ca97a8383437c5f087a0e4b57f", "rental_uris": {"android": "https://dc.lft.to/lastmile_qr_scan", "ios": "https://dc.lft.to/lastmile_qr_scan"}, "name": "f68ac3ca97a8383437c5f087a0e4b57f", "is_reserved": 0}, {"is_disabled": 0, "fusion_lon": 0.0, "fusion_lat": 0.0, "lat": 38.9343385, "type": "electric_scooter", "lon": -77.02588083333333, "bike_id": "80a92e3e3c7e16961ebc1fd8bc35e2ce", "rental_uris": {"android": "https://dc.lft.to/lastmile_qr_scan", "ios": "https://dc.lft.to/lastmile_qr_scan"}, "name": "80a92e3e3c7e16961ebc1fd8bc35e2ce", "is_reserved": 0}, {"is_disabled": 0, "fusion_lon": 0.0, "fusion_lat": 0.0, "lat": 38.90178183333333, "type": "electric_scooter", "lon": -77.05025983333333, "bike_id": "039039efecaf9418fb95307d8c12c211", "rental_uris": {"android": "https://dc.lft.to/lastmile_qr_scan", "ios": "https://dc.lft.to/lastmile_qr_scan"}, "name": "039039efecaf9418fb95307d8c12c211", "is_reserved": 0}, {"is_disabled": 0, "fusion_lon": 0.0, "fusion_lat": 0.0, "lat": 38.9042715, "type": "electric_scooter", "lon": -77.05154583333334, "bike_id": "ace004810dfee58ce65a5f10f03bbc74", "rental_uris": {"android": "https://dc.lft.to/lastmile_qr_scan", "ios": "https://dc.lft.to/lastmile_qr_scan"}, "name": "ace004810dfee58ce65a5f10f03bbc74", "is_reserved": 0}, {"is_disabled": 0, "fusion_lon": 0.0, "fusion_lat": 0.0, "lat": 38.89331266666667, "type": "electric_scooter", "lon": -77.02126016666666, "bike_id": "51837e43ab334ab6fc7b46269ddc27d3", "rental_uris": {"android": "https://dc.lft.to/lastmile_qr_scan", "ios": "https://dc.lft.to/lastmile_qr_scan"}, "name": "51837e43ab334ab6fc7b46269ddc27d3", "is_reserved": 0}, {"is_disabled": 0, "fusion_lon": 0.0, "fusion_lat": 0.0, "lat": 38.93185733333333, "type": "electric_scooter", "lon": -77.04149166666667, "bike_id": "7c07d46649e639553f543b02339b9ba3", "rental_uris": {"android": "https://dc.lft.to/lastmile_qr_scan", "ios": "https://dc.lft.to/lastmile_qr_scan"}, "name": "7c07d46649e639553f543b02339b9ba3", "is_reserved": 0}, {"is_disabled": 0, "fusion_lon": 0.0, "fusion_lat": 0.0, "lat": 38.90866583333333, "type": "electric_scooter", "lon": -77.03015616666667, "bike_id": "9df395535b11e786d527b5820369b270", "rental_uris": {"android": "https://dc.lft.to/lastmile_qr_scan", "ios": "https://dc.lft.to/lastmile_qr_scan"}, "name": "9df395535b11e786d527b5820369b270", "is_reserved": 0}, {"is_disabled": 0, "fusion_lon": 0.0, "fusion_lat": 0.0, "lat": 38.86525666666667, "type": "electric_scooter", "lon": -76.989693, "bike_id": "299aaff1ca37ac498fa7086681711f1a", "rental_uris": {"android": "https://dc.lft.to/lastmile_qr_scan", "ios": "https://dc.lft.to/lastmile_qr_scan"}, "name": "299aaff1ca37ac498fa7086681711f1a", "is_reserved": 0}, {"is_disabled": 0, "fusion_lon": 0.0, "fusion_lat": 0.0, "lat": 38.8984645, "type": "electric_scooter", "lon": -76.944982, "bike_id": "89a76acc2b6b6aff9b048c841657e329", "rental_uris": {"android": "https://dc.lft.to/lastmile_qr_scan", "ios": "https://dc.lft.to/lastmile_qr_scan"}, "name": "89a76acc2b6b6aff9b048c841657e329", "is_reserved": 0}, {"is_disabled": 0, "fusion_lon": 0.0, "fusion_lat": 0.0, "lat": 38.8763755, "type": "electric_scooter", "lon": -77.00747666666666, "bike_id": "4c76451833bbba5d57c0e10c18b53921", "rental_uris": {"android": "https://dc.lft.to/lastmile_qr_scan", "ios": "https://dc.lft.to/lastmile_qr_scan"}, "name": "4c76451833bbba5d57c0e10c18b53921", "is_reserved": 0}, {"is_disabled": 0, "fusion_lon": 0.0, "fusion_lat": 0.0, "lat": 38.941887, "type": "electric_scooter", "lon": -77.04260616666667, "bike_id": "4f8288bbd8c2e825ae67ea89b5d610ac", "rental_uris": {"android": "https://dc.lft.to/lastmile_qr_scan", "ios": "https://dc.lft.to/lastmile_qr_scan"}, "name": "4f8288bbd8c2e825ae67ea89b5d610ac", "is_reserved": 0}, {"is_disabled": 0, "fusion_lon": 0.0, "fusion_lat": 0.0, "lat": 38.88878916666667, "type": "electric_bike", "lon": -77.028592, "bike_id": "3c9631f50d4ce4744c1ba8fc8819d914", "rental_uris": {"android": "https://dc.lft.to/lastmile_qr_scan", "ios": "https://dc.lft.to/lastmile_qr_scan"}, "name": "3c9631f50d4ce4744c1ba8fc8819d914", "is_reserved": 0}, {"is_disabled": 0, "fusion_lon": 0.0, "fusion_lat": 0.0, "lat": 38.89553266666667, "type": "electric_scooter", "lon": -76.9487985, "bike_id": "6c6394ab676c8852d3f1154f17b33601", "rental_uris": {"android": "https://dc.lft.to/lastmile_qr_scan", "ios": "https://dc.lft.to/lastmile_qr_scan"}, "name": "6c6394ab676c8852d3f1154f17b33601", "is_reserved": 0}, {"is_disabled": 0, "fusion_lon": 0.0, "fusion_lat": 0.0, "lat": 38.83045583333333, "type": "electric_scooter", "lon": -77.01241083333333, "bike_id": "4c4033c9279032f2aaa81b5afc4a3d6f", "rental_uris": {"android": "https://dc.lft.to/lastmile_qr_scan", "ios": "https://dc.lft.to/lastmile_qr_scan"}, "name": "4c4033c9279032f2aaa81b5afc4a3d6f", "is_reserved": 0}, {"is_disabled": 0, "fusion_lon": 0.0, "fusion_lat": 0.0, "lat": 39.022997333333336, "type": "electric_bike", "lon": -77.02100316666667, "bike_id": "33d93d44243775d0b026d16027310c0c", "rental_uris": {"android": "https://dc.lft.to/lastmile_qr_scan", "ios": "https://dc.lft.to/lastmile_qr_scan"}, "name": "33d93d44243775d0b026d16027310c0c", "is_reserved": 0}, {"is_disabled": 0, "fusion_lon": 0.0, "fusion_lat": 0.0, "lat": 38.906371666666665, "type": "electric_scooter", "lon": -77.025039, "bike_id": "1bfcdc0278c841be019ab3c48c82e927", "rental_uris": {"android": "https://dc.lft.to/lastmile_qr_scan", "ios": "https://dc.lft.to/lastmile_qr_scan"}, "name": "1bfcdc0278c841be019ab3c48c82e927", "is_reserved": 0}, {"is_disabled": 0, "fusion_lon": 0.0, "fusion_lat": 0.0, "lat": 38.898489, "type": "electric_scooter", "lon": -76.945613, "bike_id": "d64eeecf2dfa0d8f205e9d1fe1f0174e", "rental_uris": {"android": "https://dc.lft.to/lastmile_qr_scan", "ios": "https://dc.lft.to/lastmile_qr_scan"}, "name": "d64eeecf2dfa0d8f205e9d1fe1f0174e", "is_reserved": 0}, {"is_disabled": 0, "fusion_lon": 0.0, "fusion_lat": 0.0, "lat": 38.89503283333333, "type": "electric_scooter", "lon": -76.9487985, "bike_id": "e4e0d0cd07cd3c0991d6f3910b105589", "rental_uris": {"android": "https://dc.lft.to/lastmile_qr_scan", "ios": "https://dc.lft.to/lastmile_qr_scan"}, "name": "e4e0d0cd07cd3c0991d6f3910b105589", "is_reserved": 0}, {"is_disabled": 0, "fusion_lon": 0.0, "fusion_lat": 0.0, "lat": 38.86030916666667, "type": "electric_scooter", "lon": -76.99697433333333, "bike_id": "d624b146a6c179cfc013ae04f3e55886", "rental_uris": {"android": "https://dc.lft.to/lastmile_qr_scan", "ios": "https://dc.lft.to/lastmile_qr_scan"}, "name": "d624b146a6c179cfc013ae04f3e55886", "is_reserved": 0}, {"is_disabled": 0, "fusion_lon": 0.0, "fusion_lat": 0.0, "lat": 39.09590016666667, "type": "electric_bike", "lon": -77.14777866666667, "bike_id": "367d39af4b2d75529e5b249869c5f4a8", "rental_uris": {"android": "https://dc.lft.to/lastmile_qr_scan", "ios": "https://dc.lft.to/lastmile_qr_scan"}, "name": "367d39af4b2d75529e5b249869c5f4a8", "is_reserved": 0}, {"is_disabled": 0, "fusion_lon": 0.0, "fusion_lat": 0.0, "lat": 38.999373, "type": "electric_bike", "lon": -77.0012125, "bike_id": "52f86c4f4d021a1b92384ee47a1f56db", "rental_uris": {"android": "https://dc.lft.to/lastmile_qr_scan", "ios": "https://dc.lft.to/lastmile_qr_scan"}, "name": "52f86c4f4d021a1b92384ee47a1f56db", "is_reserved": 0}, {"is_disabled": 0, "fusion_lon": 0.0, "fusion_lat": 0.0, "lat": 38.919338333333336, "type": "electric_scooter", "lon": -77.08130766666666, "bike_id": "8921bbc1e019d69b4b20b92500b9315a", "rental_uris": {"android": "https://dc.lft.to/lastmile_qr_scan", "ios": "https://dc.lft.to/lastmile_qr_scan"}, "name": "8921bbc1e019d69b4b20b92500b9315a", "is_reserved": 0}, {"is_disabled": 0, "fusion_lon": 0.0, "fusion_lat": 0.0, "lat": 38.85530416666667, "type": "electric_bike", "lon": -77.10718116666666, "bike_id": "845de02e4151565f1be526e0e98f2e46", "rental_uris": {"android": "https://dc.lft.to/lastmile_qr_scan", "ios": "https://dc.lft.to/lastmile_qr_scan"}, "name": "845de02e4151565f1be526e0e98f2e46", "is_reserved": 0}, {"is_disabled": 0, "fusion_lon": 0.0, "fusion_lat": 0.0, "lat": 38.91612383333333, "type": "electric_scooter", "lon": -77.048627, "bike_id": "2da2e6648f379e359993577ca5c026e9", "rental_uris": {"android": "https://dc.lft.to/lastmile_qr_scan", "ios": "https://dc.lft.to/lastmile_qr_scan"}, "name": "2da2e6648f379e359993577ca5c026e9", "is_reserved": 0}, {"is_disabled": 0, "fusion_lon": 0.0, "fusion_lat": 0.0, "lat": 38.9056275, "type": "electric_scooter", "lon": -77.00603483333333, "bike_id": "eace0c5b3f383179a7cf221189942d82", "rental_uris": {"android": "https://dc.lft.to/lastmile_qr_scan", "ios": "https://dc.lft.to/lastmile_qr_scan"}, "name": "eace0c5b3f383179a7cf221189942d82", "is_reserved": 0}, {"is_disabled": 0, "fusion_lon": 0.0, "fusion_lat": 0.0, "lat": 38.88863933333333, "type": "electric_scooter", "lon": -76.97736316666666, "bike_id": "f66dada28a40fbfb01f4cb282ccc0bbd", "rental_uris": {"android": "https://dc.lft.to/lastmile_qr_scan", "ios": "https://dc.lft.to/lastmile_qr_scan"}, "name": "f66dada28a40fbfb01f4cb282ccc0bbd", "is_reserved": 0}, {"is_disabled": 0, "fusion_lon": 0.0, "fusion_lat": 0.0, "lat": 38.93126916666667, "type": "electric_scooter", "lon": -77.05708516666667, "bike_id": "f12504c50df0067fd97faa4df7378f60", "rental_uris": {"android": "https://dc.lft.to/lastmile_qr_scan", "ios": "https://dc.lft.to/lastmile_qr_scan"}, "name": "f12504c50df0067fd97faa4df7378f60", "is_reserved": 0}, {"is_disabled": 0, "fusion_lon": 0.0, "fusion_lat": 0.0, "lat": 38.935240666666665, "type": "electric_scooter", "lon": -77.02379666666667, "bike_id": "f9ecf82ce0c1a9ca4839ba13d7998863", "rental_uris": {"android": "https://dc.lft.to/lastmile_qr_scan", "ios": "https://dc.lft.to/lastmile_qr_scan"}, "name": "f9ecf82ce0c1a9ca4839ba13d7998863", "is_reserved": 0}, {"is_disabled": 0, "fusion_lon": 0.0, "fusion_lat": 0.0, "lat": 38.89642966666667, "type": "electric_scooter", "lon": -77.0434755, "bike_id": "ec1eb7545b4acfc90cd0ee336f65dd87", "rental_uris": {"android": "https://dc.lft.to/lastmile_qr_scan", "ios": "https://dc.lft.to/lastmile_qr_scan"}, "name": "ec1eb7545b4acfc90cd0ee336f65dd87", "is_reserved": 0}, {"is_disabled": 0, "fusion_lon": 0.0, "fusion_lat": 0.0, "lat": 38.911966, "type": "electric_scooter", "lon": -77.01213816666667, "bike_id": "89830cc5e8cb9cbda95ce2a7d053af6b", "rental_uris": {"android": "https://dc.lft.to/lastmile_qr_scan", "ios": "https://dc.lft.to/lastmile_qr_scan"}, "name": "89830cc5e8cb9cbda95ce2a7d053af6b", "is_reserved": 0}, {"is_disabled": 0, "fusion_lon": 0.0, "fusion_lat": 0.0, "lat": 38.90681283333333, "type": "electric_scooter", "lon": -77.02714116666667, "bike_id": "e9ad6f7fa23890d056fd55c0a89988dd", "rental_uris": {"android": "https://dc.lft.to/lastmile_qr_scan", "ios": "https://dc.lft.to/lastmile_qr_scan"}, "name": "e9ad6f7fa23890d056fd55c0a89988dd", "is_reserved": 0}, {"is_disabled": 0, "fusion_lon": 0.0, "fusion_lat": 0.0, "lat": 38.906165333333334, "type": "electric_scooter", "lon": -77.02804133333333, "bike_id": "3565a78bff7f3cc5c01512676637c530", "rental_uris": {"android": "https://dc.lft.to/lastmile_qr_scan", "ios": "https://dc.lft.to/lastmile_qr_scan"}, "name": "3565a78bff7f3cc5c01512676637c530", "is_reserved": 0}, {"is_disabled": 0, "fusion_lon": 0.0, "fusion_lat": 0.0, "lat": 38.9208355, "type": "electric_bike", "lon": -77.00337716666667, "bike_id": "652c0b57560a3b3f188e704144a3c138", "rental_uris": {"android": "https://dc.lft.to/lastmile_qr_scan", "ios": "https://dc.lft.to/lastmile_qr_scan"}, "name": "652c0b57560a3b3f188e704144a3c138", "is_reserved": 0}, {"is_disabled": 0, "fusion_lon": 0.0, "fusion_lat": 0.0, "lat": 38.82732166666667, "type": "electric_bike", "lon": -77.00866533333334, "bike_id": "3cf6361d0b579a2646c7b6de5ceb9eb4", "rental_uris": {"android": "https://dc.lft.to/lastmile_qr_scan", "ios": "https://dc.lft.to/lastmile_qr_scan"}, "name": "3cf6361d0b579a2646c7b6de5ceb9eb4", "is_reserved": 0}, {"is_disabled": 0, "fusion_lon": 0.0, "fusion_lat": 0.0, "lat": 38.90723916666666, "type": "electric_scooter", "lon": -77.0307155, "bike_id": "44078a4b2a4b41ff111f929bd589c2ed", "rental_uris": {"android": "https://dc.lft.to/lastmile_qr_scan", "ios": "https://dc.lft.to/lastmile_qr_scan"}, "name": "44078a4b2a4b41ff111f929bd589c2ed", "is_reserved": 0}, {"is_disabled": 0, "fusion_lon": 0.0, "fusion_lat": 0.0, "lat": 38.893680833333335, "type": "electric_scooter", "lon": -77.02263916666666, "bike_id": "2274197d149111e775791c4094ecd92c", "rental_uris": {"android": "https://dc.lft.to/lastmile_qr_scan", "ios": "https://dc.lft.to/lastmile_qr_scan"}, "name": "2274197d149111e775791c4094ecd92c", "is_reserved": 0}, {"is_disabled": 0, "fusion_lon": 0.0, "fusion_lat": 0.0, "lat": 38.9056765, "type": "electric_scooter", "lon": -77.03015383333333, "bike_id": "c5590a6d023a809dd66e5a2a63abb125", "rental_uris": {"android": "https://dc.lft.to/lastmile_qr_scan", "ios": "https://dc.lft.to/lastmile_qr_scan"}, "name": "c5590a6d023a809dd66e5a2a63abb125", "is_reserved": 0}, {"is_disabled": 0, "fusion_lon": 0.0, "fusion_lat": 0.0, "lat": 38.9179775, "type": "electric_scooter", "lon": -77.04011316666667, "bike_id": "b82c255006e49c6145d661f115b84860", "rental_uris": {"android": "https://dc.lft.to/lastmile_qr_scan", "ios": "https://dc.lft.to/lastmile_qr_scan"}, "name": "b82c255006e49c6145d661f115b84860", "is_reserved": 0}, {"is_disabled": 0, "fusion_lon": 0.0, "fusion_lat": 0.0, "lat": 38.908547166666665, "type": "electric_scooter", "lon": -77.07157166666667, "bike_id": "7471cec6b8958e77ba43e7385d25a475", "rental_uris": {"android": "https://dc.lft.to/lastmile_qr_scan", "ios": "https://dc.lft.to/lastmile_qr_scan"}, "name": "7471cec6b8958e77ba43e7385d25a475", "is_reserved": 0}, {"is_disabled": 0, "fusion_lon": 0.0, "fusion_lat": 0.0, "lat": 38.92593266666667, "type": "electric_bike", "lon": -76.88906816666666, "bike_id": "ff116d6c1349e6e64abe9beb6106fad7", "rental_uris": {"android": "https://dc.lft.to/lastmile_qr_scan", "ios": "https://dc.lft.to/lastmile_qr_scan"}, "name": "ff116d6c1349e6e64abe9beb6106fad7", "is_reserved": 0}, {"is_disabled": 0, "fusion_lon": 0.0, "fusion_lat": 0.0, "lat": 38.87290083333333, "type": "electric_scooter", "lon": -76.9772865, "bike_id": "e09f8fc96ce28ea0b664b9c14d85214f", "rental_uris": {"android": "https://dc.lft.to/lastmile_qr_scan", "ios": "https://dc.lft.to/lastmile_qr_scan"}, "name": "e09f8fc96ce28ea0b664b9c14d85214f", "is_reserved": 0}, {"is_disabled": 0, "fusion_lon": 0.0, "fusion_lat": 0.0, "lat": 38.95417066666667, "type": "electric_scooter", "lon": -77.02844533333334, "bike_id": "57774a2ac76591cd093c4cea7d739255", "rental_uris": {"android": "https://dc.lft.to/lastmile_qr_scan", "ios": "https://dc.lft.to/lastmile_qr_scan"}, "name": "57774a2ac76591cd093c4cea7d739255", "is_reserved": 0}, {"is_disabled": 0, "fusion_lon": 0.0, "fusion_lat": 0.0, "lat": 38.976788166666665, "type": "electric_bike", "lon": -76.97167283333333, "bike_id": "f141c1a98be19ca4b5feba61324475e2", "rental_uris": {"android": "https://dc.lft.to/lastmile_qr_scan", "ios": "https://dc.lft.to/lastmile_qr_scan"}, "name": "f141c1a98be19ca4b5feba61324475e2", "is_reserved": 0}, {"is_disabled": 0, "fusion_lon": 0.0, "fusion_lat": 0.0, "lat": 38.938562, "type": "electric_scooter", "lon": -77.02650116666666, "bike_id": "709ea790d658a4fa86e9f497387d421e", "rental_uris": {"android": "https://dc.lft.to/lastmile_qr_scan", "ios": "https://dc.lft.to/lastmile_qr_scan"}, "name": "709ea790d658a4fa86e9f497387d421e", "is_reserved": 0}, {"is_disabled": 0, "fusion_lon": 0.0, "fusion_lat": 0.0, "lat": 38.8923715, "type": "electric_bike", "lon": -76.95225383333333, "bike_id": "4b312039945b4165801cf2b46d296eb3", "rental_uris": {"android": "https://dc.lft.to/lastmile_qr_scan", "ios": "https://dc.lft.to/lastmile_qr_scan"}, "name": "4b312039945b4165801cf2b46d296eb3", "is_reserved": 0}, {"is_disabled": 0, "fusion_lon": 0.0, "fusion_lat": 0.0, "lat": 38.89647716666666, "type": "electric_scooter", "lon": -77.04334766666666, "bike_id": "cb0523e00764789790082cb3b8991787", "rental_uris": {"android": "https://dc.lft.to/lastmile_qr_scan", "ios": "https://dc.lft.to/lastmile_qr_scan"}, "name": "cb0523e00764789790082cb3b8991787", "is_reserved": 0}, {"is_disabled": 0, "fusion_lon": 0.0, "fusion_lat": 0.0, "lat": 38.92900783333333, "type": "electric_scooter", "lon": -77.02405366666666, "bike_id": "a2e0cb0d32581afa591b547ef5bbc1fe", "rental_uris": {"android": "https://dc.lft.to/lastmile_qr_scan", "ios": "https://dc.lft.to/lastmile_qr_scan"}, "name": "a2e0cb0d32581afa591b547ef5bbc1fe", "is_reserved": 0}, {"is_disabled": 0, "fusion_lon": 0.0, "fusion_lat": 0.0, "lat": 38.92529716666667, "type": "electric_scooter", "lon": -77.073401, "bike_id": "8278dd4a7a46d6dee3f6c24e44b36730", "rental_uris": {"android": "https://dc.lft.to/lastmile_qr_scan", "ios": "https://dc.lft.to/lastmile_qr_scan"}, "name": "8278dd4a7a46d6dee3f6c24e44b36730", "is_reserved": 0}, {"is_disabled": 0, "fusion_lon": 0.0, "fusion_lat": 0.0, "lat": 38.89772266666667, "type": "electric_scooter", "lon": -77.024825, "bike_id": "5cda0ef58fa4cdadb228ee451fb4b90b", "rental_uris": {"android": "https://dc.lft.to/lastmile_qr_scan", "ios": "https://dc.lft.to/lastmile_qr_scan"}, "name": "5cda0ef58fa4cdadb228ee451fb4b90b", "is_reserved": 0}, {"is_disabled": 0, "fusion_lon": 0.0, "fusion_lat": 0.0, "lat": 38.9051095, "type": "electric_scooter", "lon": -77.04342216666667, "bike_id": "add043c39788ed1448543653b169cb83", "rental_uris": {"android": "https://dc.lft.to/lastmile_qr_scan", "ios": "https://dc.lft.to/lastmile_qr_scan"}, "name": "add043c39788ed1448543653b169cb83", "is_reserved": 0}, {"is_disabled": 0, "fusion_lon": 0.0, "fusion_lat": 0.0, "lat": 38.9569715, "type": "electric_scooter", "lon": -77.023966, "bike_id": "df7c54de135d31dd65964fc6c56e2a88", "rental_uris": {"android": "https://dc.lft.to/lastmile_qr_scan", "ios": "https://dc.lft.to/lastmile_qr_scan"}, "name": "df7c54de135d31dd65964fc6c56e2a88", "is_reserved": 0}, {"is_disabled": 0, "fusion_lon": 0.0, "fusion_lat": 0.0, "lat": 38.9181655, "type": "electric_scooter", "lon": -77.03807633333334, "bike_id": "e544f5c08c99b1083fc6e4c4f7f80315", "rental_uris": {"android": "https://dc.lft.to/lastmile_qr_scan", "ios": "https://dc.lft.to/lastmile_qr_scan"}, "name": "e544f5c08c99b1083fc6e4c4f7f80315", "is_reserved": 0}, {"is_disabled": 0, "fusion_lon": 0.0, "fusion_lat": 0.0, "lat": 38.941799, "type": "electric_scooter", "lon": -77.03656333333333, "bike_id": "83f045c7eb40db9445da501871c84242", "rental_uris": {"android": "https://dc.lft.to/lastmile_qr_scan", "ios": "https://dc.lft.to/lastmile_qr_scan"}, "name": "83f045c7eb40db9445da501871c84242", "is_reserved": 0}, {"is_disabled": 0, "fusion_lon": 0.0, "fusion_lat": 0.0, "lat": 38.907398666666666, "type": "electric_scooter", "lon": -77.00772433333333, "bike_id": "a8291176ef73bd3b4a69163c66adeece", "rental_uris": {"android": "https://dc.lft.to/lastmile_qr_scan", "ios": "https://dc.lft.to/lastmile_qr_scan"}, "name": "a8291176ef73bd3b4a69163c66adeece", "is_reserved": 0}, {"is_disabled": 0, "fusion_lon": 0.0, "fusion_lat": 0.0, "lat": 38.9291655, "type": "electric_scooter", "lon": -77.03186633333334, "bike_id": "cf524cc270b6acf6e81175ad3d5b6516", "rental_uris": {"android": "https://dc.lft.to/lastmile_qr_scan", "ios": "https://dc.lft.to/lastmile_qr_scan"}, "name": "cf524cc270b6acf6e81175ad3d5b6516", "is_reserved": 0}, {"is_disabled": 0, "fusion_lon": 0.0, "fusion_lat": 0.0, "lat": 38.9565035, "type": "electric_scooter", "lon": -77.01496266666666, "bike_id": "f02099e4e71f7796de46e9714dd29ab4", "rental_uris": {"android": "https://dc.lft.to/lastmile_qr_scan", "ios": "https://dc.lft.to/lastmile_qr_scan"}, "name": "f02099e4e71f7796de46e9714dd29ab4", "is_reserved": 0}, {"is_disabled": 0, "fusion_lon": 0.0, "fusion_lat": 0.0, "lat": 38.87667866666666, "type": "electric_bike", "lon": -77.01459833333334, "bike_id": "8d1dc55b4cb5dbbce1c0309a1a7ef4c9", "rental_uris": {"android": "https://dc.lft.to/lastmile_qr_scan", "ios": "https://dc.lft.to/lastmile_qr_scan"}, "name": "8d1dc55b4cb5dbbce1c0309a1a7ef4c9", "is_reserved": 0}, {"is_disabled": 0, "fusion_lon": 0.0, "fusion_lat": 0.0, "lat": 38.90143833333333, "type": "electric_scooter", "lon": -77.03998066666666, "bike_id": "7ce05cf0b601339338a1bf3feec37c03", "rental_uris": {"android": "https://dc.lft.to/lastmile_qr_scan", "ios": "https://dc.lft.to/lastmile_qr_scan"}, "name": "7ce05cf0b601339338a1bf3feec37c03", "is_reserved": 0}, {"is_disabled": 0, "fusion_lon": 0.0, "fusion_lat": 0.0, "lat": 38.97168216666667, "type": "electric_bike", "lon": -76.98024166666667, "bike_id": "f3e683fc8de9031d5e792c4e1faf9fe4", "rental_uris": {"android": "https://dc.lft.to/lastmile_qr_scan", "ios": "https://dc.lft.to/lastmile_qr_scan"}, "name": "f3e683fc8de9031d5e792c4e1faf9fe4", "is_reserved": 0}, {"is_disabled": 0, "fusion_lon": 0.0, "fusion_lat": 0.0, "lat": 38.94090333333333, "type": "electric_scooter", "lon": -77.03814633333333, "bike_id": "6f345db6518b2dc95dc40b13eed27c77", "rental_uris": {"android": "https://dc.lft.to/lastmile_qr_scan", "ios": "https://dc.lft.to/lastmile_qr_scan"}, "name": "6f345db6518b2dc95dc40b13eed27c77", "is_reserved": 0}, {"is_disabled": 0, "fusion_lon": 0.0, "fusion_lat": 0.0, "lat": 38.893536166666664, "type": "electric_scooter", "lon": -76.98471516666666, "bike_id": "60a7d5c97a828f89f1e95996b8362983", "rental_uris": {"android": "https://dc.lft.to/lastmile_qr_scan", "ios": "https://dc.lft.to/lastmile_qr_scan"}, "name": "60a7d5c97a828f89f1e95996b8362983", "is_reserved": 0}, {"is_disabled": 0, "fusion_lon": 0.0, "fusion_lat": 0.0, "lat": 38.93963133333333, "type": "electric_scooter", "lon": -77.02754533333334, "bike_id": "4063b4b9c4ec5eba9626e4160e328381", "rental_uris": {"android": "https://dc.lft.to/lastmile_qr_scan", "ios": "https://dc.lft.to/lastmile_qr_scan"}, "name": "4063b4b9c4ec5eba9626e4160e328381", "is_reserved": 0}, {"is_disabled": 0, "fusion_lon": 0.0, "fusion_lat": 0.0, "lat": 38.96807116666667, "type": "electric_scooter", "lon": -77.02123633333333, "bike_id": "0bc14931add3976f3a1340b7f83c2b88", "rental_uris": {"android": "https://dc.lft.to/lastmile_qr_scan", "ios": "https://dc.lft.to/lastmile_qr_scan"}, "name": "0bc14931add3976f3a1340b7f83c2b88", "is_reserved": 0}, {"is_disabled": 0, "fusion_lon": 0.0, "fusion_lat": 0.0, "lat": 38.901399, "type": "electric_scooter", "lon": -77.017802, "bike_id": "46babb7025562f458dbd532f5e693d35", "rental_uris": {"android": "https://dc.lft.to/lastmile_qr_scan", "ios": "https://dc.lft.to/lastmile_qr_scan"}, "name": "46babb7025562f458dbd532f5e693d35", "is_reserved": 0}, {"is_disabled": 0, "fusion_lon": 0.0, "fusion_lat": 0.0, "lat": 38.88019766666667, "type": "electric_scooter", "lon": -76.98239316666667, "bike_id": "a5efa0fa4718f28bf1d9117cd3df42e5", "rental_uris": {"android": "https://dc.lft.to/lastmile_qr_scan", "ios": "https://dc.lft.to/lastmile_qr_scan"}, "name": "a5efa0fa4718f28bf1d9117cd3df42e5", "is_reserved": 0}, {"is_disabled": 0, "fusion_lon": 0.0, "fusion_lat": 0.0, "lat": 38.88323333333334, "type": "electric_scooter", "lon": -77.016645, "bike_id": "7bcd1264c0c9b421f0b506a196d8c1b5", "rental_uris": {"android": "https://dc.lft.to/lastmile_qr_scan", "ios": "https://dc.lft.to/lastmile_qr_scan"}, "name": "7bcd1264c0c9b421f0b506a196d8c1b5", "is_reserved": 0}, {"is_disabled": 0, "fusion_lon": 0.0, "fusion_lat": 0.0, "lat": 38.914952, "type": "electric_scooter", "lon": -77.03208666666667, "bike_id": "e0955ff13c41503c1fca0fab094ff8ea", "rental_uris": {"android": "https://dc.lft.to/lastmile_qr_scan", "ios": "https://dc.lft.to/lastmile_qr_scan"}, "name": "e0955ff13c41503c1fca0fab094ff8ea", "is_reserved": 0}, {"is_disabled": 0, "fusion_lon": 0.0, "fusion_lat": 0.0, "lat": 38.92553016666667, "type": "electric_scooter", "lon": -77.02567883333333, "bike_id": "60cdc4f78e2b8f8bd0ada8408144d2cf", "rental_uris": {"android": "https://dc.lft.to/lastmile_qr_scan", "ios": "https://dc.lft.to/lastmile_qr_scan"}, "name": "60cdc4f78e2b8f8bd0ada8408144d2cf", "is_reserved": 0}, {"is_disabled": 0, "fusion_lon": 0.0, "fusion_lat": 0.0, "lat": 38.918169666666664, "type": "electric_scooter", "lon": -77.02397083333334, "bike_id": "989fe139eef5b87f2a6bd02804430e32", "rental_uris": {"android": "https://dc.lft.to/lastmile_qr_scan", "ios": "https://dc.lft.to/lastmile_qr_scan"}, "name": "989fe139eef5b87f2a6bd02804430e32", "is_reserved": 0}, {"is_disabled": 0, "fusion_lon": 0.0, "fusion_lat": 0.0, "lat": 38.906723, "type": "electric_scooter", "lon": -77.02712083333333, "bike_id": "0e02dc3131619ec2d2571364aabd6405", "rental_uris": {"android": "https://dc.lft.to/lastmile_qr_scan", "ios": "https://dc.lft.to/lastmile_qr_scan"}, "name": "0e02dc3131619ec2d2571364aabd6405", "is_reserved": 0}, {"is_disabled": 0, "fusion_lon": 0.0, "fusion_lat": 0.0, "lat": 38.928267, "type": "electric_scooter", "lon": -77.02255433333333, "bike_id": "0895655ed930e299fc1f6164a1f9cae7", "rental_uris": {"android": "https://dc.lft.to/lastmile_qr_scan", "ios": "https://dc.lft.to/lastmile_qr_scan"}, "name": "0895655ed930e299fc1f6164a1f9cae7", "is_reserved": 0}, {"is_disabled": 0, "fusion_lon": 0.0, "fusion_lat": 0.0, "lat": 38.8695755, "type": "electric_scooter", "lon": -76.97939316666667, "bike_id": "1713a652a9dc1fcd0c8860a3190f8956", "rental_uris": {"android": "https://dc.lft.to/lastmile_qr_scan", "ios": "https://dc.lft.to/lastmile_qr_scan"}, "name": "1713a652a9dc1fcd0c8860a3190f8956", "is_reserved": 0}, {"is_disabled": 0, "fusion_lon": 0.0, "fusion_lat": 0.0, "lat": 38.911117833333336, "type": "electric_scooter", "lon": -77.03558766666667, "bike_id": "390c1b512b0cd34441a6e5f6a24d926d", "rental_uris": {"android": "https://dc.lft.to/lastmile_qr_scan", "ios": "https://dc.lft.to/lastmile_qr_scan"}, "name": "390c1b512b0cd34441a6e5f6a24d926d", "is_reserved": 0}, {"is_disabled": 0, "fusion_lon": 0.0, "fusion_lat": 0.0, "lat": 38.906417833333336, "type": "electric_scooter", "lon": -77.04547433333333, "bike_id": "ff4a6be1eb8002292652f0bbc677aa05", "rental_uris": {"android": "https://dc.lft.to/lastmile_qr_scan", "ios": "https://dc.lft.to/lastmile_qr_scan"}, "name": "ff4a6be1eb8002292652f0bbc677aa05", "is_reserved": 0}, {"is_disabled": 0, "fusion_lon": 0.0, "fusion_lat": 0.0, "lat": 38.91917083333333, "type": "electric_scooter", "lon": -77.030935, "bike_id": "accf0b8d5a53f4bd2aea7e27f23f5b4c", "rental_uris": {"android": "https://dc.lft.to/lastmile_qr_scan", "ios": "https://dc.lft.to/lastmile_qr_scan"}, "name": "accf0b8d5a53f4bd2aea7e27f23f5b4c", "is_reserved": 0}, {"is_disabled": 0, "fusion_lon": 0.0, "fusion_lat": 0.0, "lat": 38.90514866666667, "type": "electric_scooter", "lon": -76.98251583333334, "bike_id": "30b6bd8e838391e692625b7562b5469e", "rental_uris": {"android": "https://dc.lft.to/lastmile_qr_scan", "ios": "https://dc.lft.to/lastmile_qr_scan"}, "name": "30b6bd8e838391e692625b7562b5469e", "is_reserved": 0}, {"is_disabled": 0, "fusion_lon": 0.0, "fusion_lat": 0.0, "lat": 39.0078215, "type": "electric_bike", "lon": -76.99565283333334, "bike_id": "177d39b6d91dfdc006d66c3565713ac1", "rental_uris": {"android": "https://dc.lft.to/lastmile_qr_scan", "ios": "https://dc.lft.to/lastmile_qr_scan"}, "name": "177d39b6d91dfdc006d66c3565713ac1", "is_reserved": 0}, {"is_disabled": 0, "fusion_lon": 0.0, "fusion_lat": 0.0, "lat": 38.923306833333335, "type": "electric_scooter", "lon": -77.03568166666666, "bike_id": "f0895682b81ef06367c9c10780168592", "rental_uris": {"android": "https://dc.lft.to/lastmile_qr_scan", "ios": "https://dc.lft.to/lastmile_qr_scan"}, "name": "f0895682b81ef06367c9c10780168592", "is_reserved": 0}, {"is_disabled": 0, "fusion_lon": 0.0, "fusion_lat": 0.0, "lat": 38.8343705, "type": "electric_bike", "lon": -77.10353233333333, "bike_id": "1cbf0ef7890513202883a5ed7a4a9baa", "rental_uris": {"android": "https://dc.lft.to/lastmile_qr_scan", "ios": "https://dc.lft.to/lastmile_qr_scan"}, "name": "1cbf0ef7890513202883a5ed7a4a9baa", "is_reserved": 0}, {"is_disabled": 0, "fusion_lon": 0.0, "fusion_lat": 0.0, "lat": 38.9053385, "type": "electric_scooter", "lon": -77.00574583333334, "bike_id": "d4495c0dac416f8f564d64b58e30b828", "rental_uris": {"android": "https://dc.lft.to/lastmile_qr_scan", "ios": "https://dc.lft.to/lastmile_qr_scan"}, "name": "d4495c0dac416f8f564d64b58e30b828", "is_reserved": 0}, {"is_disabled": 0, "fusion_lon": 0.0, "fusion_lat": 0.0, "lat": 38.9058185, "type": "electric_scooter", "lon": -77.0260465, "bike_id": "1f909a1408ddc2509243fc9877c1b419", "rental_uris": {"android": "https://dc.lft.to/lastmile_qr_scan", "ios": "https://dc.lft.to/lastmile_qr_scan"}, "name": "1f909a1408ddc2509243fc9877c1b419", "is_reserved": 0}, {"is_disabled": 0, "fusion_lon": 0.0, "fusion_lat": 0.0, "lat": 38.91696983333333, "type": "electric_scooter", "lon": -77.00644583333333, "bike_id": "5eb80a42349507d982b724473412ca7f", "rental_uris": {"android": "https://dc.lft.to/lastmile_qr_scan", "ios": "https://dc.lft.to/lastmile_qr_scan"}, "name": "5eb80a42349507d982b724473412ca7f", "is_reserved": 0}, {"is_disabled": 0, "fusion_lon": 0.0, "fusion_lat": 0.0, "lat": 38.944950166666665, "type": "electric_bike", "lon": -77.00674133333334, "bike_id": "e82cbdecc194461c06303741f423918c", "rental_uris": {"android": "https://dc.lft.to/lastmile_qr_scan", "ios": "https://dc.lft.to/lastmile_qr_scan"}, "name": "e82cbdecc194461c06303741f423918c", "is_reserved": 0}, {"is_disabled": 0, "fusion_lon": 0.0, "fusion_lat": 0.0, "lat": 38.8660245, "type": "electric_bike", "lon": -76.93221683333333, "bike_id": "7e83453e915e56db5c6088720cc71385", "rental_uris": {"android": "https://dc.lft.to/lastmile_qr_scan", "ios": "https://dc.lft.to/lastmile_qr_scan"}, "name": "7e83453e915e56db5c6088720cc71385", "is_reserved": 0}, {"is_disabled": 0, "fusion_lon": 0.0, "fusion_lat": 0.0, "lat": 38.8520855, "type": "electric_bike", "lon": -77.1276415, "bike_id": "419ce68638c389161c6f7f2c3e19d5fa", "rental_uris": {"android": "https://dc.lft.to/lastmile_qr_scan", "ios": "https://dc.lft.to/lastmile_qr_scan"}, "name": "419ce68638c389161c6f7f2c3e19d5fa", "is_reserved": 0}, {"is_disabled": 0, "fusion_lon": 0.0, "fusion_lat": 0.0, "lat": 38.892511999999996, "type": "electric_scooter", "lon": -76.9984895, "bike_id": "dfe2b21ff607538074e5859ae193bfaf", "rental_uris": {"android": "https://dc.lft.to/lastmile_qr_scan", "ios": "https://dc.lft.to/lastmile_qr_scan"}, "name": "dfe2b21ff607538074e5859ae193bfaf", "is_reserved": 0}, {"is_disabled": 0, "fusion_lon": 0.0, "fusion_lat": 0.0, "lat": 38.902900833333334, "type": "electric_scooter", "lon": -77.05067016666666, "bike_id": "7d4e83c67cec20891aa25bbde38d4283", "rental_uris": {"android": "https://dc.lft.to/lastmile_qr_scan", "ios": "https://dc.lft.to/lastmile_qr_scan"}, "name": "7d4e83c67cec20891aa25bbde38d4283", "is_reserved": 0}, {"is_disabled": 0, "fusion_lon": 0.0, "fusion_lat": 0.0, "lat": 38.92694483333333, "type": "electric_scooter", "lon": -77.0377665, "bike_id": "af14c2154b1978c86a5d77db587b99de", "rental_uris": {"android": "https://dc.lft.to/lastmile_qr_scan", "ios": "https://dc.lft.to/lastmile_qr_scan"}, "name": "af14c2154b1978c86a5d77db587b99de", "is_reserved": 0}, {"is_disabled": 0, "fusion_lon": 0.0, "fusion_lat": 0.0, "lat": 38.93609583333333, "type": "electric_scooter", "lon": -77.05860483333333, "bike_id": "ac95e796b5e0f7b1cf798bdeab44e9fd", "rental_uris": {"android": "https://dc.lft.to/lastmile_qr_scan", "ios": "https://dc.lft.to/lastmile_qr_scan"}, "name": "ac95e796b5e0f7b1cf798bdeab44e9fd", "is_reserved": 0}, {"is_disabled": 0, "fusion_lon": 0.0, "fusion_lat": 0.0, "lat": 38.897511, "type": "electric_scooter", "lon": -77.05126983333334, "bike_id": "40a9e7540791b5e4d0d850aecd2ba8f9", "rental_uris": {"android": "https://dc.lft.to/lastmile_qr_scan", "ios": "https://dc.lft.to/lastmile_qr_scan"}, "name": "40a9e7540791b5e4d0d850aecd2ba8f9", "is_reserved": 0}, {"is_disabled": 0, "fusion_lon": 0.0, "fusion_lat": 0.0, "lat": 38.911122, "type": "electric_scooter", "lon": -77.04504666666666, "bike_id": "e39c15199941d03adfd365210a9e45a5", "rental_uris": {"android": "https://dc.lft.to/lastmile_qr_scan", "ios": "https://dc.lft.to/lastmile_qr_scan"}, "name": "e39c15199941d03adfd365210a9e45a5", "is_reserved": 0}, {"is_disabled": 0, "fusion_lon": 0.0, "fusion_lat": 0.0, "lat": 38.90029416666667, "type": "electric_scooter", "lon": -76.99168683333333, "bike_id": "83b6d173824a18c236ff8020aa62de5f", "rental_uris": {"android": "https://dc.lft.to/lastmile_qr_scan", "ios": "https://dc.lft.to/lastmile_qr_scan"}, "name": "83b6d173824a18c236ff8020aa62de5f", "is_reserved": 0}, {"is_disabled": 0, "fusion_lon": 0.0, "fusion_lat": 0.0, "lat": 38.91427016666667, "type": "electric_scooter", "lon": -77.0143115, "bike_id": "ea51ef8fc24e0c8f7bc2bd690af9318b", "rental_uris": {"android": "https://dc.lft.to/lastmile_qr_scan", "ios": "https://dc.lft.to/lastmile_qr_scan"}, "name": "ea51ef8fc24e0c8f7bc2bd690af9318b", "is_reserved": 0}, {"is_disabled": 0, "fusion_lon": 0.0, "fusion_lat": 0.0, "lat": 38.91267716666667, "type": "electric_scooter", "lon": -77.03366516666667, "bike_id": "c7a645cde5cea8a22eb1bd8bf286c40f", "rental_uris": {"android": "https://dc.lft.to/lastmile_qr_scan", "ios": "https://dc.lft.to/lastmile_qr_scan"}, "name": "c7a645cde5cea8a22eb1bd8bf286c40f", "is_reserved": 0}, {"is_disabled": 0, "fusion_lon": 0.0, "fusion_lat": 0.0, "lat": 38.949768166666665, "type": "electric_scooter", "lon": -77.09441716666667, "bike_id": "3dedcde063a79ff22368a3f92e5204ba", "rental_uris": {"android": "https://dc.lft.to/lastmile_qr_scan", "ios": "https://dc.lft.to/lastmile_qr_scan"}, "name": "3dedcde063a79ff22368a3f92e5204ba", "is_reserved": 0}, {"is_disabled": 0, "fusion_lon": 0.0, "fusion_lat": 0.0, "lat": 38.878246, "type": "electric_scooter", "lon": -76.96319016666666, "bike_id": "5f1936fce839d8e7f571a07ea955c526", "rental_uris": {"android": "https://dc.lft.to/lastmile_qr_scan", "ios": "https://dc.lft.to/lastmile_qr_scan"}, "name": "5f1936fce839d8e7f571a07ea955c526", "is_reserved": 0}, {"is_disabled": 0, "fusion_lon": 0.0, "fusion_lat": 0.0, "lat": 38.950078, "type": "electric_bike", "lon": -77.35310516666667, "bike_id": "681d5dec0806ac00e6bb620bbda72226", "rental_uris": {"android": "https://dc.lft.to/lastmile_qr_scan", "ios": "https://dc.lft.to/lastmile_qr_scan"}, "name": "681d5dec0806ac00e6bb620bbda72226", "is_reserved": 0}, {"is_disabled": 0, "fusion_lon": 0.0, "fusion_lat": 0.0, "lat": 38.87666733333333, "type": "electric_scooter", "lon": -76.93190166666666, "bike_id": "3fd250a9d95d24ae069f3c1e28741aac", "rental_uris": {"android": "https://dc.lft.to/lastmile_qr_scan", "ios": "https://dc.lft.to/lastmile_qr_scan"}, "name": "3fd250a9d95d24ae069f3c1e28741aac", "is_reserved": 0}, {"is_disabled": 0, "fusion_lon": 0.0, "fusion_lat": 0.0, "lat": 38.896206666666664, "type": "electric_scooter", "lon": -76.9563685, "bike_id": "a2c66db70e9f8a877adc9e770d55a53b", "rental_uris": {"android": "https://dc.lft.to/lastmile_qr_scan", "ios": "https://dc.lft.to/lastmile_qr_scan"}, "name": "a2c66db70e9f8a877adc9e770d55a53b", "is_reserved": 0}, {"is_disabled": 0, "fusion_lon": 0.0, "fusion_lat": 0.0, "lat": 38.9176885, "type": "electric_scooter", "lon": -77.0359075, "bike_id": "9da85258a22cef4ee9906bfa2eb23953", "rental_uris": {"android": "https://dc.lft.to/lastmile_qr_scan", "ios": "https://dc.lft.to/lastmile_qr_scan"}, "name": "9da85258a22cef4ee9906bfa2eb23953", "is_reserved": 0}, {"is_disabled": 0, "fusion_lon": 0.0, "fusion_lat": 0.0, "lat": 38.95081716666667, "type": "electric_scooter", "lon": -77.02872116666667, "bike_id": "f80d6c0bf6df2fa452089bdda6ae0c04", "rental_uris": {"android": "https://dc.lft.to/lastmile_qr_scan", "ios": "https://dc.lft.to/lastmile_qr_scan"}, "name": "f80d6c0bf6df2fa452089bdda6ae0c04", "is_reserved": 0}, {"is_disabled": 0, "fusion_lon": 0.0, "fusion_lat": 0.0, "lat": 38.91887033333333, "type": "electric_scooter", "lon": -77.015941, "bike_id": "e149a9c015949e36287ada37316bdcc1", "rental_uris": {"android": "https://dc.lft.to/lastmile_qr_scan", "ios": "https://dc.lft.to/lastmile_qr_scan"}, "name": "e149a9c015949e36287ada37316bdcc1", "is_reserved": 0}, {"is_disabled": 0, "fusion_lon": 0.0, "fusion_lat": 0.0, "lat": 38.931931, "type": "electric_bike", "lon": -77.22938583333334, "bike_id": "f2b54728308970b06794b0ee6d8152a9", "rental_uris": {"android": "https://dc.lft.to/lastmile_qr_scan", "ios": "https://dc.lft.to/lastmile_qr_scan"}, "name": "f2b54728308970b06794b0ee6d8152a9", "is_reserved": 0}, {"is_disabled": 0, "fusion_lon": 0.0, "fusion_lat": 0.0, "lat": 38.92056766666666, "type": "electric_scooter", "lon": -76.998718, "bike_id": "6bc824ff715c4c6c3a127ded644f65ff", "rental_uris": {"android": "https://dc.lft.to/lastmile_qr_scan", "ios": "https://dc.lft.to/lastmile_qr_scan"}, "name": "6bc824ff715c4c6c3a127ded644f65ff", "is_reserved": 0}, {"is_disabled": 0, "fusion_lon": 0.0, "fusion_lat": 0.0, "lat": 38.883748833333335, "type": "electric_scooter", "lon": -76.92640366666667, "bike_id": "af060bcad667b0c5e899746a2decfe5e", "rental_uris": {"android": "https://dc.lft.to/lastmile_qr_scan", "ios": "https://dc.lft.to/lastmile_qr_scan"}, "name": "af060bcad667b0c5e899746a2decfe5e", "is_reserved": 0}, {"is_disabled": 0, "fusion_lon": 0.0, "fusion_lat": 0.0, "lat": 38.992582166666665, "type": "electric_bike", "lon": -77.0499455, "bike_id": "c74da72c9b538cf8efaee4ff6930f117", "rental_uris": {"android": "https://dc.lft.to/lastmile_qr_scan", "ios": "https://dc.lft.to/lastmile_qr_scan"}, "name": "c74da72c9b538cf8efaee4ff6930f117", "is_reserved": 0}, {"is_disabled": 0, "fusion_lon": 0.0, "fusion_lat": 0.0, "lat": 38.9147525, "type": "electric_bike", "lon": -77.009242, "bike_id": "84c153cd7027f557d91adde23881dd13", "rental_uris": {"android": "https://dc.lft.to/lastmile_qr_scan", "ios": "https://dc.lft.to/lastmile_qr_scan"}, "name": "84c153cd7027f557d91adde23881dd13", "is_reserved": 0}, {"is_disabled": 0, "fusion_lon": 0.0, "fusion_lat": 0.0, "lat": 38.912794166666664, "type": "electric_scooter", "lon": -77.03860583333334, "bike_id": "9100cf53526f0005ed041694718d9314", "rental_uris": {"android": "https://dc.lft.to/lastmile_qr_scan", "ios": "https://dc.lft.to/lastmile_qr_scan"}, "name": "9100cf53526f0005ed041694718d9314", "is_reserved": 0}, {"is_disabled": 0, "fusion_lon": 0.0, "fusion_lat": 0.0, "lat": 38.89752583333333, "type": "electric_scooter", "lon": -77.02684, "bike_id": "c06c690caa0ecc0feedcd96bd13936fa", "rental_uris": {"android": "https://dc.lft.to/lastmile_qr_scan", "ios": "https://dc.lft.to/lastmile_qr_scan"}, "name": "c06c690caa0ecc0feedcd96bd13936fa", "is_reserved": 0}, {"is_disabled": 0, "fusion_lon": 0.0, "fusion_lat": 0.0, "lat": 38.8904205, "type": "electric_scooter", "lon": -76.9524665, "bike_id": "1a584b9825e194d9f6389ac574b278ca", "rental_uris": {"android": "https://dc.lft.to/lastmile_qr_scan", "ios": "https://dc.lft.to/lastmile_qr_scan"}, "name": "1a584b9825e194d9f6389ac574b278ca", "is_reserved": 0}, {"is_disabled": 0, "fusion_lon": 0.0, "fusion_lat": 0.0, "lat": 38.91183683333333, "type": "electric_scooter", "lon": -77.03508166666667, "bike_id": "f9fc4c6a5150fb0efb783c6579cfbbaf", "rental_uris": {"android": "https://dc.lft.to/lastmile_qr_scan", "ios": "https://dc.lft.to/lastmile_qr_scan"}, "name": "f9fc4c6a5150fb0efb783c6579cfbbaf", "is_reserved": 0}, {"is_disabled": 0, "fusion_lon": 0.0, "fusion_lat": 0.0, "lat": 38.9362755, "type": "electric_scooter", "lon": -77.05904916666667, "bike_id": "c77f8b9b8a223c8c912563dd28d242ef", "rental_uris": {"android": "https://dc.lft.to/lastmile_qr_scan", "ios": "https://dc.lft.to/lastmile_qr_scan"}, "name": "c77f8b9b8a223c8c912563dd28d242ef", "is_reserved": 0}, {"is_disabled": 0, "fusion_lon": 0.0, "fusion_lat": 0.0, "lat": 38.896747166666664, "type": "electric_scooter", "lon": -76.9979, "bike_id": "a38925cddb5f977bc3679d2c22eedbf6", "rental_uris": {"android": "https://dc.lft.to/lastmile_qr_scan", "ios": "https://dc.lft.to/lastmile_qr_scan"}, "name": "a38925cddb5f977bc3679d2c22eedbf6", "is_reserved": 0}, {"is_disabled": 0, "fusion_lon": 0.0, "fusion_lat": 0.0, "lat": 38.931748666666664, "type": "electric_scooter", "lon": -77.023467, "bike_id": "5e4d2f8543eb1f08e793ecb0057f46fe", "rental_uris": {"android": "https://dc.lft.to/lastmile_qr_scan", "ios": "https://dc.lft.to/lastmile_qr_scan"}, "name": "5e4d2f8543eb1f08e793ecb0057f46fe", "is_reserved": 0}, {"is_disabled": 0, "fusion_lon": 0.0, "fusion_lat": 0.0, "lat": 38.92856166666667, "type": "electric_scooter", "lon": -77.01413716666667, "bike_id": "51ac64a08575b1e7cab379c8f1f0198d", "rental_uris": {"android": "https://dc.lft.to/lastmile_qr_scan", "ios": "https://dc.lft.to/lastmile_qr_scan"}, "name": "51ac64a08575b1e7cab379c8f1f0198d", "is_reserved": 0}, {"is_disabled": 0, "fusion_lon": 0.0, "fusion_lat": 0.0, "lat": 38.934768166666665, "type": "electric_scooter", "lon": -77.07214633333334, "bike_id": "a4dc8f59e12d765bf1a5b6978a7a45e8", "rental_uris": {"android": "https://dc.lft.to/lastmile_qr_scan", "ios": "https://dc.lft.to/lastmile_qr_scan"}, "name": "a4dc8f59e12d765bf1a5b6978a7a45e8", "is_reserved": 0}, {"is_disabled": 0, "fusion_lon": 0.0, "fusion_lat": 0.0, "lat": 38.90140666666667, "type": "electric_scooter", "lon": -77.02940733333334, "bike_id": "70b3e8ac8dcdab2841ee2eb1f68a8fc9", "rental_uris": {"android": "https://dc.lft.to/lastmile_qr_scan", "ios": "https://dc.lft.to/lastmile_qr_scan"}, "name": "70b3e8ac8dcdab2841ee2eb1f68a8fc9", "is_reserved": 0}, {"is_disabled": 0, "fusion_lon": 0.0, "fusion_lat": 0.0, "lat": 38.90046133333333, "type": "electric_scooter", "lon": -76.9226965, "bike_id": "52cc02f47177b8e5d983875d95e49cbb", "rental_uris": {"android": "https://dc.lft.to/lastmile_qr_scan", "ios": "https://dc.lft.to/lastmile_qr_scan"}, "name": "52cc02f47177b8e5d983875d95e49cbb", "is_reserved": 0}, {"is_disabled": 0, "fusion_lon": 0.0, "fusion_lat": 0.0, "lat": 38.89370133333333, "type": "electric_scooter", "lon": -76.94999383333334, "bike_id": "d3f07df2769aae59061172f4d5094406", "rental_uris": {"android": "https://dc.lft.to/lastmile_qr_scan", "ios": "https://dc.lft.to/lastmile_qr_scan"}, "name": "d3f07df2769aae59061172f4d5094406", "is_reserved": 0}, {"is_disabled": 0, "fusion_lon": 0.0, "fusion_lat": 0.0, "lat": 38.927075333333335, "type": "electric_scooter", "lon": -77.023314, "bike_id": "17f6f0d11c814416ca6c5660fc7ccc2e", "rental_uris": {"android": "https://dc.lft.to/lastmile_qr_scan", "ios": "https://dc.lft.to/lastmile_qr_scan"}, "name": "17f6f0d11c814416ca6c5660fc7ccc2e", "is_reserved": 0}, {"is_disabled": 0, "fusion_lon": 0.0, "fusion_lat": 0.0, "lat": 38.93680333333333, "type": "electric_scooter", "lon": -77.02470583333333, "bike_id": "0ab8020585a5267e7ac2ba287c96c7f4", "rental_uris": {"android": "https://dc.lft.to/lastmile_qr_scan", "ios": "https://dc.lft.to/lastmile_qr_scan"}, "name": "0ab8020585a5267e7ac2ba287c96c7f4", "is_reserved": 0}, {"is_disabled": 0, "fusion_lon": 0.0, "fusion_lat": 0.0, "lat": 38.92732683333333, "type": "electric_scooter", "lon": -77.02244433333334, "bike_id": "191a5989b5ae04cb8d696214833e9527", "rental_uris": {"android": "https://dc.lft.to/lastmile_qr_scan", "ios": "https://dc.lft.to/lastmile_qr_scan"}, "name": "191a5989b5ae04cb8d696214833e9527", "is_reserved": 0}, {"is_disabled": 0, "fusion_lon": 0.0, "fusion_lat": 0.0, "lat": 38.897329, "type": "electric_scooter", "lon": -77.04941766666667, "bike_id": "a6be76758468272f438c018dd99a8b88", "rental_uris": {"android": "https://dc.lft.to/lastmile_qr_scan", "ios": "https://dc.lft.to/lastmile_qr_scan"}, "name": "a6be76758468272f438c018dd99a8b88", "is_reserved": 0}, {"is_disabled": 0, "fusion_lon": 0.0, "fusion_lat": 0.0, "lat": 38.86135816666667, "type": "electric_scooter", "lon": -76.98528233333333, "bike_id": "6259293f70bead7892e6b2d6879eb747", "rental_uris": {"android": "https://dc.lft.to/lastmile_qr_scan", "ios": "https://dc.lft.to/lastmile_qr_scan"}, "name": "6259293f70bead7892e6b2d6879eb747", "is_reserved": 0}, {"is_disabled": 0, "fusion_lon": 0.0, "fusion_lat": 0.0, "lat": 38.923132, "type": "electric_scooter", "lon": -77.03103816666666, "bike_id": "ea7e0d278a1125399d4fb10c9a5b75be", "rental_uris": {"android": "https://dc.lft.to/lastmile_qr_scan", "ios": "https://dc.lft.to/lastmile_qr_scan"}, "name": "ea7e0d278a1125399d4fb10c9a5b75be", "is_reserved": 0}, {"is_disabled": 0, "fusion_lon": 0.0, "fusion_lat": 0.0, "lat": 38.90716583333333, "type": "electric_scooter", "lon": -77.027165, "bike_id": "17f07f34e9b1e8d8555ace9ac177b6c6", "rental_uris": {"android": "https://dc.lft.to/lastmile_qr_scan", "ios": "https://dc.lft.to/lastmile_qr_scan"}, "name": "17f07f34e9b1e8d8555ace9ac177b6c6", "is_reserved": 0}, {"is_disabled": 0, "fusion_lon": 0.0, "fusion_lat": 0.0, "lat": 38.9346395, "type": "electric_scooter", "lon": -77.02740033333333, "bike_id": "66318bb88ba440bf0ff4e2cc76ecb0b1", "rental_uris": {"android": "https://dc.lft.to/lastmile_qr_scan", "ios": "https://dc.lft.to/lastmile_qr_scan"}, "name": "66318bb88ba440bf0ff4e2cc76ecb0b1", "is_reserved": 0}, {"is_disabled": 0, "fusion_lon": 0.0, "fusion_lat": 0.0, "lat": 38.96558516666666, "type": "electric_bike", "lon": -77.02301216666666, "bike_id": "cd577c5dcb71fc0ef67f68323eb10e40", "rental_uris": {"android": "https://dc.lft.to/lastmile_qr_scan", "ios": "https://dc.lft.to/lastmile_qr_scan"}, "name": "cd577c5dcb71fc0ef67f68323eb10e40", "is_reserved": 0}, {"is_disabled": 0, "fusion_lon": 0.0, "fusion_lat": 0.0, "lat": 38.93490416666667, "type": "electric_scooter", "lon": -77.0328315, "bike_id": "a0525f6da3a380b7afdb30ab250f6227", "rental_uris": {"android": "https://dc.lft.to/lastmile_qr_scan", "ios": "https://dc.lft.to/lastmile_qr_scan"}, "name": "a0525f6da3a380b7afdb30ab250f6227", "is_reserved": 0}, {"is_disabled": 0, "fusion_lon": 0.0, "fusion_lat": 0.0, "lat": 39.003848166666664, "type": "electric_bike", "lon": -77.01286633333333, "bike_id": "039913645f0a7f643772a2e7210ee667", "rental_uris": {"android": "https://dc.lft.to/lastmile_qr_scan", "ios": "https://dc.lft.to/lastmile_qr_scan"}, "name": "039913645f0a7f643772a2e7210ee667", "is_reserved": 0}, {"is_disabled": 0, "fusion_lon": 0.0, "fusion_lat": 0.0, "lat": 38.92437266666666, "type": "electric_scooter", "lon": -77.04247333333333, "bike_id": "2d8c3e3912cda95834fed366a9acce2e", "rental_uris": {"android": "https://dc.lft.to/lastmile_qr_scan", "ios": "https://dc.lft.to/lastmile_qr_scan"}, "name": "2d8c3e3912cda95834fed366a9acce2e", "is_reserved": 0}, {"is_disabled": 0, "fusion_lon": 0.0, "fusion_lat": 0.0, "lat": 38.907112, "type": "electric_scooter", "lon": -77.023857, "bike_id": "f3c4740df9a2bf82204f654d0e7ff45a", "rental_uris": {"android": "https://dc.lft.to/lastmile_qr_scan", "ios": "https://dc.lft.to/lastmile_qr_scan"}, "name": "f3c4740df9a2bf82204f654d0e7ff45a", "is_reserved": 0}, {"is_disabled": 0, "fusion_lon": 0.0, "fusion_lat": 0.0, "lat": 38.918080333333336, "type": "electric_scooter", "lon": -77.0244295, "bike_id": "9f8854f8b34c8cc2ae6a3df8bf1817ff", "rental_uris": {"android": "https://dc.lft.to/lastmile_qr_scan", "ios": "https://dc.lft.to/lastmile_qr_scan"}, "name": "9f8854f8b34c8cc2ae6a3df8bf1817ff", "is_reserved": 0}, {"is_disabled": 0, "fusion_lon": 0.0, "fusion_lat": 0.0, "lat": 38.90114283333333, "type": "electric_scooter", "lon": -77.01796866666666, "bike_id": "035b80a7774363b6047f032c60cbd15e", "rental_uris": {"android": "https://dc.lft.to/lastmile_qr_scan", "ios": "https://dc.lft.to/lastmile_qr_scan"}, "name": "035b80a7774363b6047f032c60cbd15e", "is_reserved": 0}, {"is_disabled": 0, "fusion_lon": 0.0, "fusion_lat": 0.0, "lat": 38.93467716666667, "type": "electric_scooter", "lon": -77.06877866666666, "bike_id": "7a3e27edc2ef335240065d152e75f5a7", "rental_uris": {"android": "https://dc.lft.to/lastmile_qr_scan", "ios": "https://dc.lft.to/lastmile_qr_scan"}, "name": "7a3e27edc2ef335240065d152e75f5a7", "is_reserved": 0}, {"is_disabled": 0, "fusion_lon": 0.0, "fusion_lat": 0.0, "lat": 38.894393666666666, "type": "electric_scooter", "lon": -77.01095933333333, "bike_id": "485cf2a53fc166ae9f0b0c27ef2c59b2", "rental_uris": {"android": "https://dc.lft.to/lastmile_qr_scan", "ios": "https://dc.lft.to/lastmile_qr_scan"}, "name": "485cf2a53fc166ae9f0b0c27ef2c59b2", "is_reserved": 0}, {"is_disabled": 0, "fusion_lon": 0.0, "fusion_lat": 0.0, "lat": 38.91922, "type": "electric_scooter", "lon": -77.03393216666667, "bike_id": "b002621a37addcea244d5c26e84584be", "rental_uris": {"android": "https://dc.lft.to/lastmile_qr_scan", "ios": "https://dc.lft.to/lastmile_qr_scan"}, "name": "b002621a37addcea244d5c26e84584be", "is_reserved": 0}, {"is_disabled": 0, "fusion_lon": 0.0, "fusion_lat": 0.0, "lat": 38.903678, "type": "electric_scooter", "lon": -77.0163425, "bike_id": "e6cf5e8651d686884926794317e155d4", "rental_uris": {"android": "https://dc.lft.to/lastmile_qr_scan", "ios": "https://dc.lft.to/lastmile_qr_scan"}, "name": "e6cf5e8651d686884926794317e155d4", "is_reserved": 0}, {"is_disabled": 0, "fusion_lon": 0.0, "fusion_lat": 0.0, "lat": 38.97262, "type": "electric_bike", "lon": -76.99171083333333, "bike_id": "518555beaffa28bc54fda75a41dd3457", "rental_uris": {"android": "https://dc.lft.to/lastmile_qr_scan", "ios": "https://dc.lft.to/lastmile_qr_scan"}, "name": "518555beaffa28bc54fda75a41dd3457", "is_reserved": 0}, {"is_disabled": 0, "fusion_lon": 0.0, "fusion_lat": 0.0, "lat": 38.895090333333336, "type": "electric_scooter", "lon": -77.0110045, "bike_id": "056cc26e3acafdded28de622c77d90e6", "rental_uris": {"android": "https://dc.lft.to/lastmile_qr_scan", "ios": "https://dc.lft.to/lastmile_qr_scan"}, "name": "056cc26e3acafdded28de622c77d90e6", "is_reserved": 0}, {"is_disabled": 0, "fusion_lon": 0.0, "fusion_lat": 0.0, "lat": 38.89741583333333, "type": "electric_scooter", "lon": -77.0100665, "bike_id": "9370fb5263965fcea1031f2c26ac461a", "rental_uris": {"android": "https://dc.lft.to/lastmile_qr_scan", "ios": "https://dc.lft.to/lastmile_qr_scan"}, "name": "9370fb5263965fcea1031f2c26ac461a", "is_reserved": 0}, {"is_disabled": 0, "fusion_lon": 0.0, "fusion_lat": 0.0, "lat": 38.917663166666664, "type": "electric_scooter", "lon": -77.04757016666667, "bike_id": "0ed56a99b76f32ccde54dc4a4db2f188", "rental_uris": {"android": "https://dc.lft.to/lastmile_qr_scan", "ios": "https://dc.lft.to/lastmile_qr_scan"}, "name": "0ed56a99b76f32ccde54dc4a4db2f188", "is_reserved": 0}, {"is_disabled": 0, "fusion_lon": 0.0, "fusion_lat": 0.0, "lat": 38.83931966666667, "type": "electric_bike", "lon": -77.07905966666667, "bike_id": "2805928f0e7ace2a6ee56f373e67ce7f", "rental_uris": {"android": "https://dc.lft.to/lastmile_qr_scan", "ios": "https://dc.lft.to/lastmile_qr_scan"}, "name": "2805928f0e7ace2a6ee56f373e67ce7f", "is_reserved": 0}, {"is_disabled": 0, "fusion_lon": 0.0, "fusion_lat": 0.0, "lat": 38.912690166666664, "type": "electric_scooter", "lon": -77.01064233333334, "bike_id": "4698c51a1ba899845e50f85c8761bd03", "rental_uris": {"android": "https://dc.lft.to/lastmile_qr_scan", "ios": "https://dc.lft.to/lastmile_qr_scan"}, "name": "4698c51a1ba899845e50f85c8761bd03", "is_reserved": 0}, {"is_disabled": 0, "fusion_lon": 0.0, "fusion_lat": 0.0, "lat": 38.88412233333333, "type": "electric_scooter", "lon": -77.0237705, "bike_id": "c36ce5c9d3fcefe6be3fe9d5a41b3a52", "rental_uris": {"android": "https://dc.lft.to/lastmile_qr_scan", "ios": "https://dc.lft.to/lastmile_qr_scan"}, "name": "c36ce5c9d3fcefe6be3fe9d5a41b3a52", "is_reserved": 0}, {"is_disabled": 0, "fusion_lon": 0.0, "fusion_lat": 0.0, "lat": 38.887412166666664, "type": "electric_scooter", "lon": -77.01536766666666, "bike_id": "bf4d6d2acf9a5f6ee586611dfcd21141", "rental_uris": {"android": "https://dc.lft.to/lastmile_qr_scan", "ios": "https://dc.lft.to/lastmile_qr_scan"}, "name": "bf4d6d2acf9a5f6ee586611dfcd21141", "is_reserved": 0}, {"is_disabled": 0, "fusion_lon": 0.0, "fusion_lat": 0.0, "lat": 38.91949566666667, "type": "electric_scooter", "lon": -77.01386266666667, "bike_id": "1c6ad64cbab5eac2a3158a0ee5abb550", "rental_uris": {"android": "https://dc.lft.to/lastmile_qr_scan", "ios": "https://dc.lft.to/lastmile_qr_scan"}, "name": "1c6ad64cbab5eac2a3158a0ee5abb550", "is_reserved": 0}, {"is_disabled": 0, "fusion_lon": 0.0, "fusion_lat": 0.0, "lat": 38.9076995, "type": "electric_scooter", "lon": -77.00760566666666, "bike_id": "373c8cbf2d81bc2ed3cb6228e2ca675b", "rental_uris": {"android": "https://dc.lft.to/lastmile_qr_scan", "ios": "https://dc.lft.to/lastmile_qr_scan"}, "name": "373c8cbf2d81bc2ed3cb6228e2ca675b", "is_reserved": 0}, {"is_disabled": 0, "fusion_lon": 0.0, "fusion_lat": 0.0, "lat": 38.93481333333333, "type": "electric_scooter", "lon": -77.02425483333333, "bike_id": "a95996645ec2c05ed4adc69daba79dfd", "rental_uris": {"android": "https://dc.lft.to/lastmile_qr_scan", "ios": "https://dc.lft.to/lastmile_qr_scan"}, "name": "a95996645ec2c05ed4adc69daba79dfd", "is_reserved": 0}, {"is_disabled": 0, "fusion_lon": 0.0, "fusion_lat": 0.0, "lat": 38.917015166666665, "type": "electric_scooter", "lon": -77.02893616666667, "bike_id": "d451b8e3830b99d83a0c13fe8272125d", "rental_uris": {"android": "https://dc.lft.to/lastmile_qr_scan", "ios": "https://dc.lft.to/lastmile_qr_scan"}, "name": "d451b8e3830b99d83a0c13fe8272125d", "is_reserved": 0}, {"is_disabled": 0, "fusion_lon": 0.0, "fusion_lat": 0.0, "lat": 38.917392, "type": "electric_scooter", "lon": -77.00884116666667, "bike_id": "4e5f9de4d457be3eab3d32fdbcedc78e", "rental_uris": {"android": "https://dc.lft.to/lastmile_qr_scan", "ios": "https://dc.lft.to/lastmile_qr_scan"}, "name": "4e5f9de4d457be3eab3d32fdbcedc78e", "is_reserved": 0}, {"is_disabled": 0, "fusion_lon": 0.0, "fusion_lat": 0.0, "lat": 38.93036816666667, "type": "electric_bike", "lon": -77.0827645, "bike_id": "3c911aad8b20a12a055d16e7ea353345", "rental_uris": {"android": "https://dc.lft.to/lastmile_qr_scan", "ios": "https://dc.lft.to/lastmile_qr_scan"}, "name": "3c911aad8b20a12a055d16e7ea353345", "is_reserved": 0}, {"is_disabled": 0, "fusion_lon": 0.0, "fusion_lat": 0.0, "lat": 38.936114, "type": "electric_scooter", "lon": -77.05581133333334, "bike_id": "1a86be43c9314cf6fb4795eb30b64cbb", "rental_uris": {"android": "https://dc.lft.to/lastmile_qr_scan", "ios": "https://dc.lft.to/lastmile_qr_scan"}, "name": "1a86be43c9314cf6fb4795eb30b64cbb", "is_reserved": 0}, {"is_disabled": 0, "fusion_lon": 0.0, "fusion_lat": 0.0, "lat": 38.908109, "type": "electric_scooter", "lon": -77.03404383333333, "bike_id": "fbde79e30f491e1c74fbaa1fd5da6a6f", "rental_uris": {"android": "https://dc.lft.to/lastmile_qr_scan", "ios": "https://dc.lft.to/lastmile_qr_scan"}, "name": "fbde79e30f491e1c74fbaa1fd5da6a6f", "is_reserved": 0}, {"is_disabled": 0, "fusion_lon": 0.0, "fusion_lat": 0.0, "lat": 38.915464166666666, "type": "electric_scooter", "lon": -77.0379275, "bike_id": "61b3affd7f627fc599cb67746aba72bf", "rental_uris": {"android": "https://dc.lft.to/lastmile_qr_scan", "ios": "https://dc.lft.to/lastmile_qr_scan"}, "name": "61b3affd7f627fc599cb67746aba72bf", "is_reserved": 0}, {"is_disabled": 0, "fusion_lon": 0.0, "fusion_lat": 0.0, "lat": 38.9223105, "type": "electric_scooter", "lon": -77.03318033333333, "bike_id": "621ea548e24174b55baaa7055b4a32fc", "rental_uris": {"android": "https://dc.lft.to/lastmile_qr_scan", "ios": "https://dc.lft.to/lastmile_qr_scan"}, "name": "621ea548e24174b55baaa7055b4a32fc", "is_reserved": 0}, {"is_disabled": 0, "fusion_lon": 0.0, "fusion_lat": 0.0, "lat": 38.854963166666664, "type": "electric_bike", "lon": -77.12030916666667, "bike_id": "69d25c8bd399de1bea6ed36c1f7bf3f0", "rental_uris": {"android": "https://dc.lft.to/lastmile_qr_scan", "ios": "https://dc.lft.to/lastmile_qr_scan"}, "name": "69d25c8bd399de1bea6ed36c1f7bf3f0", "is_reserved": 0}, {"is_disabled": 0, "fusion_lon": 0.0, "fusion_lat": 0.0, "lat": 38.936614166666665, "type": "electric_scooter", "lon": -77.05926916666667, "bike_id": "0f49419944cca36999e2ad745d4ca742", "rental_uris": {"android": "https://dc.lft.to/lastmile_qr_scan", "ios": "https://dc.lft.to/lastmile_qr_scan"}, "name": "0f49419944cca36999e2ad745d4ca742", "is_reserved": 0}, {"is_disabled": 0, "fusion_lon": 0.0, "fusion_lat": 0.0, "lat": 38.91717583333333, "type": "electric_scooter", "lon": -76.97238533333334, "bike_id": "a991f03f2fcdc371b8877891154da82a", "rental_uris": {"android": "https://dc.lft.to/lastmile_qr_scan", "ios": "https://dc.lft.to/lastmile_qr_scan"}, "name": "a991f03f2fcdc371b8877891154da82a", "is_reserved": 0}, {"is_disabled": 0, "fusion_lon": 0.0, "fusion_lat": 0.0, "lat": 38.803019, "type": "electric_bike", "lon": -77.0398445, "bike_id": "b25929c9ae4fb48cb9da23da40ca930e", "rental_uris": {"android": "https://dc.lft.to/lastmile_qr_scan", "ios": "https://dc.lft.to/lastmile_qr_scan"}, "name": "b25929c9ae4fb48cb9da23da40ca930e", "is_reserved": 0}, {"is_disabled": 0, "fusion_lon": 0.0, "fusion_lat": 0.0, "lat": 38.922124833333335, "type": "electric_scooter", "lon": -77.042405, "bike_id": "5fd60f6f7b6c29d3c5641eb009acfa2e", "rental_uris": {"android": "https://dc.lft.to/lastmile_qr_scan", "ios": "https://dc.lft.to/lastmile_qr_scan"}, "name": "5fd60f6f7b6c29d3c5641eb009acfa2e", "is_reserved": 0}, {"is_disabled": 0, "fusion_lon": 0.0, "fusion_lat": 0.0, "lat": 38.886009, "type": "electric_scooter", "lon": -77.02205266666667, "bike_id": "7fefc49624fef7b792e405dfc23d3c10", "rental_uris": {"android": "https://dc.lft.to/lastmile_qr_scan", "ios": "https://dc.lft.to/lastmile_qr_scan"}, "name": "7fefc49624fef7b792e405dfc23d3c10", "is_reserved": 0}, {"is_disabled": 0, "fusion_lon": 0.0, "fusion_lat": 0.0, "lat": 38.89190133333334, "type": "electric_scooter", "lon": -76.9883725, "bike_id": "9b0352ef5739f9fbfbc3830e2035d95b", "rental_uris": {"android": "https://dc.lft.to/lastmile_qr_scan", "ios": "https://dc.lft.to/lastmile_qr_scan"}, "name": "9b0352ef5739f9fbfbc3830e2035d95b", "is_reserved": 0}, {"is_disabled": 0, "fusion_lon": 0.0, "fusion_lat": 0.0, "lat": 38.9350235, "type": "electric_scooter", "lon": -77.0241605, "bike_id": "8f890f74688d57a63faa14ab90339588", "rental_uris": {"android": "https://dc.lft.to/lastmile_qr_scan", "ios": "https://dc.lft.to/lastmile_qr_scan"}, "name": "8f890f74688d57a63faa14ab90339588", "is_reserved": 0}, {"is_disabled": 0, "fusion_lon": 0.0, "fusion_lat": 0.0, "lat": 38.90012816666667, "type": "electric_scooter", "lon": -77.0261915, "bike_id": "8f414695300ad99fed80ea7c11d925d6", "rental_uris": {"android": "https://dc.lft.to/lastmile_qr_scan", "ios": "https://dc.lft.to/lastmile_qr_scan"}, "name": "8f414695300ad99fed80ea7c11d925d6", "is_reserved": 0}, {"is_disabled": 0, "fusion_lon": 0.0, "fusion_lat": 0.0, "lat": 38.905166666666666, "type": "electric_scooter", "lon": -77.03192266666667, "bike_id": "6fb36b081a19d06d3cd0df1118c1d1df", "rental_uris": {"android": "https://dc.lft.to/lastmile_qr_scan", "ios": "https://dc.lft.to/lastmile_qr_scan"}, "name": "6fb36b081a19d06d3cd0df1118c1d1df", "is_reserved": 0}, {"is_disabled": 0, "fusion_lon": 0.0, "fusion_lat": 0.0, "lat": 38.913264833333336, "type": "electric_scooter", "lon": -77.03239183333334, "bike_id": "76c129618456466bc9f7d30c66201dc6", "rental_uris": {"android": "https://dc.lft.to/lastmile_qr_scan", "ios": "https://dc.lft.to/lastmile_qr_scan"}, "name": "76c129618456466bc9f7d30c66201dc6", "is_reserved": 0}, {"is_disabled": 0, "fusion_lon": 0.0, "fusion_lat": 0.0, "lat": 38.905721, "type": "electric_scooter", "lon": -77.033796, "bike_id": "70bff493bca546b0ad3273f9e560780a", "rental_uris": {"android": "https://dc.lft.to/lastmile_qr_scan", "ios": "https://dc.lft.to/lastmile_qr_scan"}, "name": "70bff493bca546b0ad3273f9e560780a", "is_reserved": 0}, {"is_disabled": 0, "fusion_lon": 0.0, "fusion_lat": 0.0, "lat": 38.962667, "type": "electric_scooter", "lon": -77.02897633333333, "bike_id": "045d94d9e266926d763fa12f54f16857", "rental_uris": {"android": "https://dc.lft.to/lastmile_qr_scan", "ios": "https://dc.lft.to/lastmile_qr_scan"}, "name": "045d94d9e266926d763fa12f54f16857", "is_reserved": 0}, {"is_disabled": 0, "fusion_lon": 0.0, "fusion_lat": 0.0, "lat": 38.923864333333334, "type": "electric_scooter", "lon": -77.030225, "bike_id": "a7e8be8fcb18b07b3d798eceb2857f1f", "rental_uris": {"android": "https://dc.lft.to/lastmile_qr_scan", "ios": "https://dc.lft.to/lastmile_qr_scan"}, "name": "a7e8be8fcb18b07b3d798eceb2857f1f", "is_reserved": 0}, {"is_disabled": 0, "fusion_lon": 0.0, "fusion_lat": 0.0, "lat": 38.907922166666665, "type": "electric_scooter", "lon": -77.03036233333333, "bike_id": "c370172d5eaa80b453fe423de91fc4d7", "rental_uris": {"android": "https://dc.lft.to/lastmile_qr_scan", "ios": "https://dc.lft.to/lastmile_qr_scan"}, "name": "c370172d5eaa80b453fe423de91fc4d7", "is_reserved": 0}, {"is_disabled": 0, "fusion_lon": 0.0, "fusion_lat": 0.0, "lat": 38.9048015, "type": "electric_bike", "lon": -76.95052433333333, "bike_id": "3ab9dee4d880a196ecbf50d9436ec8f0", "rental_uris": {"android": "https://dc.lft.to/lastmile_qr_scan", "ios": "https://dc.lft.to/lastmile_qr_scan"}, "name": "3ab9dee4d880a196ecbf50d9436ec8f0", "is_reserved": 0}, {"is_disabled": 0, "fusion_lon": 0.0, "fusion_lat": 0.0, "lat": 38.9396855, "type": "electric_scooter", "lon": -77.03281433333333, "bike_id": "c9e3cae28c74d9040230401a1d64f5af", "rental_uris": {"android": "https://dc.lft.to/lastmile_qr_scan", "ios": "https://dc.lft.to/lastmile_qr_scan"}, "name": "c9e3cae28c74d9040230401a1d64f5af", "is_reserved": 0}, {"is_disabled": 0, "fusion_lon": 0.0, "fusion_lat": 0.0, "lat": 38.90534566666667, "type": "electric_scooter", "lon": -77.0564655, "bike_id": "4e6d131b50ff0600d9867d1704ef12e3", "rental_uris": {"android": "https://dc.lft.to/lastmile_qr_scan", "ios": "https://dc.lft.to/lastmile_qr_scan"}, "name": "4e6d131b50ff0600d9867d1704ef12e3", "is_reserved": 0}, {"is_disabled": 0, "fusion_lon": 0.0, "fusion_lat": 0.0, "lat": 38.923719166666665, "type": "electric_scooter", "lon": -77.050369, "bike_id": "e3b610a6a9b4953754978cd99c7e9fc3", "rental_uris": {"android": "https://dc.lft.to/lastmile_qr_scan", "ios": "https://dc.lft.to/lastmile_qr_scan"}, "name": "e3b610a6a9b4953754978cd99c7e9fc3", "is_reserved": 0}, {"is_disabled": 0, "fusion_lon": 0.0, "fusion_lat": 0.0, "lat": 38.912706666666665, "type": "electric_scooter", "lon": -77.02559966666666, "bike_id": "1c52e8f023606eb3d0c99c4137186653", "rental_uris": {"android": "https://dc.lft.to/lastmile_qr_scan", "ios": "https://dc.lft.to/lastmile_qr_scan"}, "name": "1c52e8f023606eb3d0c99c4137186653", "is_reserved": 0}, {"is_disabled": 0, "fusion_lon": 0.0, "fusion_lat": 0.0, "lat": 38.9302415, "type": "electric_scooter", "lon": -77.034496, "bike_id": "d5c8b5a9eebd65f40b6f909b4ce44080", "rental_uris": {"android": "https://dc.lft.to/lastmile_qr_scan", "ios": "https://dc.lft.to/lastmile_qr_scan"}, "name": "d5c8b5a9eebd65f40b6f909b4ce44080", "is_reserved": 0}, {"is_disabled": 0, "fusion_lon": 0.0, "fusion_lat": 0.0, "lat": 38.88536216666667, "type": "electric_scooter", "lon": -76.92705266666667, "bike_id": "0c93bb24cf1cc18620a2050c7dc7d37b", "rental_uris": {"android": "https://dc.lft.to/lastmile_qr_scan", "ios": "https://dc.lft.to/lastmile_qr_scan"}, "name": "0c93bb24cf1cc18620a2050c7dc7d37b", "is_reserved": 0}, {"is_disabled": 0, "fusion_lon": 0.0, "fusion_lat": 0.0, "lat": 38.89834916666667, "type": "electric_scooter", "lon": -76.9463265, "bike_id": "b8dbc2d084045d006150ee550ed5217f", "rental_uris": {"android": "https://dc.lft.to/lastmile_qr_scan", "ios": "https://dc.lft.to/lastmile_qr_scan"}, "name": "b8dbc2d084045d006150ee550ed5217f", "is_reserved": 0}, {"is_disabled": 0, "fusion_lon": 0.0, "fusion_lat": 0.0, "lat": 38.82783633333333, "type": "electric_bike", "lon": -77.11082766666667, "bike_id": "33e90ad8ee6e5dee483447f80d240cbf", "rental_uris": {"android": "https://dc.lft.to/lastmile_qr_scan", "ios": "https://dc.lft.to/lastmile_qr_scan"}, "name": "33e90ad8ee6e5dee483447f80d240cbf", "is_reserved": 0}, {"is_disabled": 0, "fusion_lon": 0.0, "fusion_lat": 0.0, "lat": 38.90142483333333, "type": "electric_scooter", "lon": -76.98963233333333, "bike_id": "9703ecbe255f051e6c2bed2ea0a44c1b", "rental_uris": {"android": "https://dc.lft.to/lastmile_qr_scan", "ios": "https://dc.lft.to/lastmile_qr_scan"}, "name": "9703ecbe255f051e6c2bed2ea0a44c1b", "is_reserved": 0}, {"is_disabled": 0, "fusion_lon": 0.0, "fusion_lat": 0.0, "lat": 38.92338983333333, "type": "electric_scooter", "lon": -77.03503083333334, "bike_id": "6b09d415b774007b9ba4a0efe3710065", "rental_uris": {"android": "https://dc.lft.to/lastmile_qr_scan", "ios": "https://dc.lft.to/lastmile_qr_scan"}, "name": "6b09d415b774007b9ba4a0efe3710065", "is_reserved": 0}, {"is_disabled": 0, "fusion_lon": 0.0, "fusion_lat": 0.0, "lat": 38.9171815, "type": "electric_scooter", "lon": -77.0981285, "bike_id": "7bc1ed3b3c6c2836d511febde0de5dcf", "rental_uris": {"android": "https://dc.lft.to/lastmile_qr_scan", "ios": "https://dc.lft.to/lastmile_qr_scan"}, "name": "7bc1ed3b3c6c2836d511febde0de5dcf", "is_reserved": 0}, {"is_disabled": 0, "fusion_lon": 0.0, "fusion_lat": 0.0, "lat": 38.92159383333333, "type": "electric_scooter", "lon": -77.03389866666667, "bike_id": "629213de4db1331ce8b2285c5778fb8e", "rental_uris": {"android": "https://dc.lft.to/lastmile_qr_scan", "ios": "https://dc.lft.to/lastmile_qr_scan"}, "name": "629213de4db1331ce8b2285c5778fb8e", "is_reserved": 0}, {"is_disabled": 0, "fusion_lon": 0.0, "fusion_lat": 0.0, "lat": 39.0268785, "type": "electric_bike", "lon": -77.12598433333334, "bike_id": "0ab5925d040a85f20ff4c5c9d63dd621", "rental_uris": {"android": "https://dc.lft.to/lastmile_qr_scan", "ios": "https://dc.lft.to/lastmile_qr_scan"}, "name": "0ab5925d040a85f20ff4c5c9d63dd621", "is_reserved": 0}, {"is_disabled": 0, "fusion_lon": 0.0, "fusion_lat": 0.0, "lat": 38.904013, "type": "electric_scooter", "lon": -77.04878633333334, "bike_id": "560419f3f15b8add53614e3d5fac38dc", "rental_uris": {"android": "https://dc.lft.to/lastmile_qr_scan", "ios": "https://dc.lft.to/lastmile_qr_scan"}, "name": "560419f3f15b8add53614e3d5fac38dc", "is_reserved": 0}, {"is_disabled": 0, "fusion_lon": 0.0, "fusion_lat": 0.0, "lat": 38.91416783333333, "type": "electric_scooter", "lon": -77.04284066666666, "bike_id": "b2152c2bb340ac206599cf11c205553d", "rental_uris": {"android": "https://dc.lft.to/lastmile_qr_scan", "ios": "https://dc.lft.to/lastmile_qr_scan"}, "name": "b2152c2bb340ac206599cf11c205553d", "is_reserved": 0}, {"is_disabled": 0, "fusion_lon": 0.0, "fusion_lat": 0.0, "lat": 38.88985066666667, "type": "electric_scooter", "lon": -77.00251866666666, "bike_id": "808af21aee0ef06d7559b5b273d1c24c", "rental_uris": {"android": "https://dc.lft.to/lastmile_qr_scan", "ios": "https://dc.lft.to/lastmile_qr_scan"}, "name": "808af21aee0ef06d7559b5b273d1c24c", "is_reserved": 0}, {"is_disabled": 0, "fusion_lon": 0.0, "fusion_lat": 0.0, "lat": 38.90640883333333, "type": "electric_scooter", "lon": -76.98566266666667, "bike_id": "ac4b99e833d1317a62ffd1b48fa0eaba", "rental_uris": {"android": "https://dc.lft.to/lastmile_qr_scan", "ios": "https://dc.lft.to/lastmile_qr_scan"}, "name": "ac4b99e833d1317a62ffd1b48fa0eaba", "is_reserved": 0}, {"is_disabled": 0, "fusion_lon": 0.0, "fusion_lat": 0.0, "lat": 38.884856, "type": "electric_scooter", "lon": -76.92979216666667, "bike_id": "aa3c9515172bfcc9100af3d77df82c48", "rental_uris": {"android": "https://dc.lft.to/lastmile_qr_scan", "ios": "https://dc.lft.to/lastmile_qr_scan"}, "name": "aa3c9515172bfcc9100af3d77df82c48", "is_reserved": 0}, {"is_disabled": 0, "fusion_lon": 0.0, "fusion_lat": 0.0, "lat": 38.896793833333334, "type": "electric_scooter", "lon": -77.0115265, "bike_id": "7448edf96bc2b15266b237288f976e2a", "rental_uris": {"android": "https://dc.lft.to/lastmile_qr_scan", "ios": "https://dc.lft.to/lastmile_qr_scan"}, "name": "7448edf96bc2b15266b237288f976e2a", "is_reserved": 0}, {"is_disabled": 0, "fusion_lon": 0.0, "fusion_lat": 0.0, "lat": 38.87301883333333, "type": "electric_scooter", "lon": -77.00986783333333, "bike_id": "e02caa2ba49bf2cb4c244fe188668391", "rental_uris": {"android": "https://dc.lft.to/lastmile_qr_scan", "ios": "https://dc.lft.to/lastmile_qr_scan"}, "name": "e02caa2ba49bf2cb4c244fe188668391", "is_reserved": 0}, {"is_disabled": 0, "fusion_lon": 0.0, "fusion_lat": 0.0, "lat": 38.91000583333334, "type": "electric_scooter", "lon": -77.03736683333334, "bike_id": "3360ae740179bb4eeff7b0143d6c4dc7", "rental_uris": {"android": "https://dc.lft.to/lastmile_qr_scan", "ios": "https://dc.lft.to/lastmile_qr_scan"}, "name": "3360ae740179bb4eeff7b0143d6c4dc7", "is_reserved": 0}, {"is_disabled": 0, "fusion_lon": 0.0, "fusion_lat": 0.0, "lat": 38.903861666666664, "type": "electric_scooter", "lon": -77.01717483333333, "bike_id": "dc9cec72de9d2df8d8208de2fac6f6d6", "rental_uris": {"android": "https://dc.lft.to/lastmile_qr_scan", "ios": "https://dc.lft.to/lastmile_qr_scan"}, "name": "dc9cec72de9d2df8d8208de2fac6f6d6", "is_reserved": 0}, {"is_disabled": 0, "fusion_lon": 0.0, "fusion_lat": 0.0, "lat": 38.92153183333333, "type": "electric_scooter", "lon": -77.03399083333333, "bike_id": "21bd27cd7527d21aa5854e8fce7a96c1", "rental_uris": {"android": "https://dc.lft.to/lastmile_qr_scan", "ios": "https://dc.lft.to/lastmile_qr_scan"}, "name": "21bd27cd7527d21aa5854e8fce7a96c1", "is_reserved": 0}, {"is_disabled": 0, "fusion_lon": 0.0, "fusion_lat": 0.0, "lat": 38.90271933333333, "type": "electric_scooter", "lon": -77.0532665, "bike_id": "03e26f699afaefe6e838116a00de0185", "rental_uris": {"android": "https://dc.lft.to/lastmile_qr_scan", "ios": "https://dc.lft.to/lastmile_qr_scan"}, "name": "03e26f699afaefe6e838116a00de0185", "is_reserved": 0}, {"is_disabled": 0, "fusion_lon": 0.0, "fusion_lat": 0.0, "lat": 38.9112695, "type": "electric_scooter", "lon": -77.05938166666667, "bike_id": "15ccae16ce5b6e54966a1df3e21cfadb", "rental_uris": {"android": "https://dc.lft.to/lastmile_qr_scan", "ios": "https://dc.lft.to/lastmile_qr_scan"}, "name": "15ccae16ce5b6e54966a1df3e21cfadb", "is_reserved": 0}, {"is_disabled": 0, "fusion_lon": 0.0, "fusion_lat": 0.0, "lat": 38.92863883333333, "type": "electric_scooter", "lon": -77.014177, "bike_id": "48b0a865b57e5d16329b563e44751a10", "rental_uris": {"android": "https://dc.lft.to/lastmile_qr_scan", "ios": "https://dc.lft.to/lastmile_qr_scan"}, "name": "48b0a865b57e5d16329b563e44751a10", "is_reserved": 0}, {"is_disabled": 0, "fusion_lon": 0.0, "fusion_lat": 0.0, "lat": 38.846036833333336, "type": "electric_bike", "lon": -76.96882366666667, "bike_id": "b79bcbc253710f813b014d9723d5c936", "rental_uris": {"android": "https://dc.lft.to/lastmile_qr_scan", "ios": "https://dc.lft.to/lastmile_qr_scan"}, "name": "b79bcbc253710f813b014d9723d5c936", "is_reserved": 0}, {"is_disabled": 0, "fusion_lon": 0.0, "fusion_lat": 0.0, "lat": 38.9247975, "type": "electric_scooter", "lon": -77.03488833333333, "bike_id": "fe8da3ab58d9437d6786cd7cab4bea6f", "rental_uris": {"android": "https://dc.lft.to/lastmile_qr_scan", "ios": "https://dc.lft.to/lastmile_qr_scan"}, "name": "fe8da3ab58d9437d6786cd7cab4bea6f", "is_reserved": 0}, {"is_disabled": 0, "fusion_lon": 0.0, "fusion_lat": 0.0, "lat": 38.86328066666667, "type": "electric_scooter", "lon": -76.99053583333334, "bike_id": "8b986e094812ece04e9e028a01fe3bcc", "rental_uris": {"android": "https://dc.lft.to/lastmile_qr_scan", "ios": "https://dc.lft.to/lastmile_qr_scan"}, "name": "8b986e094812ece04e9e028a01fe3bcc", "is_reserved": 0}, {"is_disabled": 0, "fusion_lon": 0.0, "fusion_lat": 0.0, "lat": 38.967634833333335, "type": "electric_bike", "lon": -77.091697, "bike_id": "c5795833dedc56a5a1a2498ed4232f41", "rental_uris": {"android": "https://dc.lft.to/lastmile_qr_scan", "ios": "https://dc.lft.to/lastmile_qr_scan"}, "name": "c5795833dedc56a5a1a2498ed4232f41", "is_reserved": 0}, {"is_disabled": 0, "fusion_lon": 0.0, "fusion_lat": 0.0, "lat": 38.89366783333333, "type": "electric_scooter", "lon": -77.02264416666667, "bike_id": "1d5d24eabb36c05811e9222c2710ea7d", "rental_uris": {"android": "https://dc.lft.to/lastmile_qr_scan", "ios": "https://dc.lft.to/lastmile_qr_scan"}, "name": "1d5d24eabb36c05811e9222c2710ea7d", "is_reserved": 0}, {"is_disabled": 0, "fusion_lon": 0.0, "fusion_lat": 0.0, "lat": 38.91707133333333, "type": "electric_scooter", "lon": -77.03474133333333, "bike_id": "1b692ea702ef89ff784c569526247886", "rental_uris": {"android": "https://dc.lft.to/lastmile_qr_scan", "ios": "https://dc.lft.to/lastmile_qr_scan"}, "name": "1b692ea702ef89ff784c569526247886", "is_reserved": 0}, {"is_disabled": 0, "fusion_lon": 0.0, "fusion_lat": 0.0, "lat": 38.84203683333333, "type": "electric_bike", "lon": -77.10686216666667, "bike_id": "0043c309f8d7cd5806b49e41b6efb49b", "rental_uris": {"android": "https://dc.lft.to/lastmile_qr_scan", "ios": "https://dc.lft.to/lastmile_qr_scan"}, "name": "0043c309f8d7cd5806b49e41b6efb49b", "is_reserved": 0}, {"is_disabled": 0, "fusion_lon": 0.0, "fusion_lat": 0.0, "lat": 38.919609666666666, "type": "electric_scooter", "lon": -77.02384033333334, "bike_id": "ba41dcbf6c435fb4e9814f30cc6cfaa9", "rental_uris": {"android": "https://dc.lft.to/lastmile_qr_scan", "ios": "https://dc.lft.to/lastmile_qr_scan"}, "name": "ba41dcbf6c435fb4e9814f30cc6cfaa9", "is_reserved": 0}, {"is_disabled": 0, "fusion_lon": 0.0, "fusion_lat": 0.0, "lat": 38.99891916666667, "type": "electric_bike", "lon": -77.028651, "bike_id": "9a3c52914b1aba67001d53fd7fd5cb66", "rental_uris": {"android": "https://dc.lft.to/lastmile_qr_scan", "ios": "https://dc.lft.to/lastmile_qr_scan"}, "name": "9a3c52914b1aba67001d53fd7fd5cb66", "is_reserved": 0}, {"is_disabled": 0, "fusion_lon": 0.0, "fusion_lat": 0.0, "lat": 38.8580725, "type": "electric_scooter", "lon": -76.98654, "bike_id": "1b0dae108aa09d82487c6344ad8b6104", "rental_uris": {"android": "https://dc.lft.to/lastmile_qr_scan", "ios": "https://dc.lft.to/lastmile_qr_scan"}, "name": "1b0dae108aa09d82487c6344ad8b6104", "is_reserved": 0}, {"is_disabled": 0, "fusion_lon": 0.0, "fusion_lat": 0.0, "lat": 38.91587233333333, "type": "electric_scooter", "lon": -76.98113966666666, "bike_id": "5e56ca6632a4358309137154e26244f2", "rental_uris": {"android": "https://dc.lft.to/lastmile_qr_scan", "ios": "https://dc.lft.to/lastmile_qr_scan"}, "name": "5e56ca6632a4358309137154e26244f2", "is_reserved": 0}, {"is_disabled": 0, "fusion_lon": 0.0, "fusion_lat": 0.0, "lat": 38.927975833333335, "type": "electric_scooter", "lon": -77.01461433333333, "bike_id": "a5eae49a657389391a3590d41df788ed", "rental_uris": {"android": "https://dc.lft.to/lastmile_qr_scan", "ios": "https://dc.lft.to/lastmile_qr_scan"}, "name": "a5eae49a657389391a3590d41df788ed", "is_reserved": 0}, {"is_disabled": 0, "fusion_lon": 0.0, "fusion_lat": 0.0, "lat": 38.99064116666667, "type": "electric_bike", "lon": -77.10030333333333, "bike_id": "13ffbd86fc78edbbb1e0791156f62776", "rental_uris": {"android": "https://dc.lft.to/lastmile_qr_scan", "ios": "https://dc.lft.to/lastmile_qr_scan"}, "name": "13ffbd86fc78edbbb1e0791156f62776", "is_reserved": 0}, {"is_disabled": 0, "fusion_lon": 0.0, "fusion_lat": 0.0, "lat": 38.990898333333334, "type": "electric_bike", "lon": -76.87496233333333, "bike_id": "3521567b479dff9751eb3b00066074cd", "rental_uris": {"android": "https://dc.lft.to/lastmile_qr_scan", "ios": "https://dc.lft.to/lastmile_qr_scan"}, "name": "3521567b479dff9751eb3b00066074cd", "is_reserved": 0}, {"is_disabled": 0, "fusion_lon": 0.0, "fusion_lat": 0.0, "lat": 38.88593433333333, "type": "electric_scooter", "lon": -77.01996516666667, "bike_id": "db6dbbc2c4d35226a67d2e5913367f5d", "rental_uris": {"android": "https://dc.lft.to/lastmile_qr_scan", "ios": "https://dc.lft.to/lastmile_qr_scan"}, "name": "db6dbbc2c4d35226a67d2e5913367f5d", "is_reserved": 0}, {"is_disabled": 0, "fusion_lon": 0.0, "fusion_lat": 0.0, "lat": 38.92693533333333, "type": "electric_scooter", "lon": -77.03739316666666, "bike_id": "886135639e71f4546007b0227b4a4c5a", "rental_uris": {"android": "https://dc.lft.to/lastmile_qr_scan", "ios": "https://dc.lft.to/lastmile_qr_scan"}, "name": "886135639e71f4546007b0227b4a4c5a", "is_reserved": 0}, {"is_disabled": 0, "fusion_lon": 0.0, "fusion_lat": 0.0, "lat": 38.90785666666667, "type": "electric_scooter", "lon": -77.03188133333333, "bike_id": "147227e99b5c5dbcac5a842c7cd22a28", "rental_uris": {"android": "https://dc.lft.to/lastmile_qr_scan", "ios": "https://dc.lft.to/lastmile_qr_scan"}, "name": "147227e99b5c5dbcac5a842c7cd22a28", "is_reserved": 0}, {"is_disabled": 0, "fusion_lon": 0.0, "fusion_lat": 0.0, "lat": 38.903771, "type": "electric_scooter", "lon": -77.02917333333333, "bike_id": "560b5b2d339251e5c05b886e2bce5625", "rental_uris": {"android": "https://dc.lft.to/lastmile_qr_scan", "ios": "https://dc.lft.to/lastmile_qr_scan"}, "name": "560b5b2d339251e5c05b886e2bce5625", "is_reserved": 0}, {"is_disabled": 0, "fusion_lon": 0.0, "fusion_lat": 0.0, "lat": 38.86354516666667, "type": "electric_scooter", "lon": -76.99070983333333, "bike_id": "f1cc583755e75a41244f4d3fb4b943c4", "rental_uris": {"android": "https://dc.lft.to/lastmile_qr_scan", "ios": "https://dc.lft.to/lastmile_qr_scan"}, "name": "f1cc583755e75a41244f4d3fb4b943c4", "is_reserved": 0}, {"is_disabled": 0, "fusion_lon": 0.0, "fusion_lat": 0.0, "lat": 38.905339166666664, "type": "electric_scooter", "lon": -77.04995166666667, "bike_id": "1ddf0b83d50f6b85d117f8ebf5e34cb2", "rental_uris": {"android": "https://dc.lft.to/lastmile_qr_scan", "ios": "https://dc.lft.to/lastmile_qr_scan"}, "name": "1ddf0b83d50f6b85d117f8ebf5e34cb2", "is_reserved": 0}, {"is_disabled": 0, "fusion_lon": 0.0, "fusion_lat": 0.0, "lat": 39.03884733333334, "type": "electric_bike", "lon": -77.1091135, "bike_id": "e609f2dba791cdb1af94079718ec964e", "rental_uris": {"android": "https://dc.lft.to/lastmile_qr_scan", "ios": "https://dc.lft.to/lastmile_qr_scan"}, "name": "e609f2dba791cdb1af94079718ec964e", "is_reserved": 0}, {"is_disabled": 0, "fusion_lon": 0.0, "fusion_lat": 0.0, "lat": 38.904743, "type": "electric_scooter", "lon": -77.02744183333333, "bike_id": "9a789d551fe37573ac1e43f62d6c7498", "rental_uris": {"android": "https://dc.lft.to/lastmile_qr_scan", "ios": "https://dc.lft.to/lastmile_qr_scan"}, "name": "9a789d551fe37573ac1e43f62d6c7498", "is_reserved": 0}, {"is_disabled": 0, "fusion_lon": 0.0, "fusion_lat": 0.0, "lat": 38.892896, "type": "electric_bike", "lon": -77.001452, "bike_id": "ce72c8150654dc0e305ed95dc0e919cc", "rental_uris": {"android": "https://dc.lft.to/lastmile_qr_scan", "ios": "https://dc.lft.to/lastmile_qr_scan"}, "name": "ce72c8150654dc0e305ed95dc0e919cc", "is_reserved": 0}, {"is_disabled": 0, "fusion_lon": 0.0, "fusion_lat": 0.0, "lat": 38.86199716666667, "type": "electric_bike", "lon": -77.05677766666666, "bike_id": "d082e44b364a50654d2f06067346d2ec", "rental_uris": {"android": "https://dc.lft.to/lastmile_qr_scan", "ios": "https://dc.lft.to/lastmile_qr_scan"}, "name": "d082e44b364a50654d2f06067346d2ec", "is_reserved": 0}, {"is_disabled": 0, "fusion_lon": 0.0, "fusion_lat": 0.0, "lat": 38.90379133333333, "type": "electric_scooter", "lon": -77.017454, "bike_id": "1510ea2451e4b523c1a1215296908423", "rental_uris": {"android": "https://dc.lft.to/lastmile_qr_scan", "ios": "https://dc.lft.to/lastmile_qr_scan"}, "name": "1510ea2451e4b523c1a1215296908423", "is_reserved": 0}, {"is_disabled": 0, "fusion_lon": 0.0, "fusion_lat": 0.0, "lat": 38.87071, "type": "electric_bike", "lon": -77.110621, "bike_id": "a1e74a6b8c630b5e1ab74ea7c53140e6", "rental_uris": {"android": "https://dc.lft.to/lastmile_qr_scan", "ios": "https://dc.lft.to/lastmile_qr_scan"}, "name": "a1e74a6b8c630b5e1ab74ea7c53140e6", "is_reserved": 0}, {"is_disabled": 0, "fusion_lon": 0.0, "fusion_lat": 0.0, "lat": 38.936671, "type": "electric_bike", "lon": -76.95208983333333, "bike_id": "356cfdc93b7503939494daa4c017ff48", "rental_uris": {"android": "https://dc.lft.to/lastmile_qr_scan", "ios": "https://dc.lft.to/lastmile_qr_scan"}, "name": "356cfdc93b7503939494daa4c017ff48", "is_reserved": 0}, {"is_disabled": 0, "fusion_lon": 0.0, "fusion_lat": 0.0, "lat": 38.88580283333334, "type": "electric_scooter", "lon": -76.9190905, "bike_id": "b795b4b6c9b823ab8dd2de592df7dd97", "rental_uris": {"android": "https://dc.lft.to/lastmile_qr_scan", "ios": "https://dc.lft.to/lastmile_qr_scan"}, "name": "b795b4b6c9b823ab8dd2de592df7dd97", "is_reserved": 0}, {"is_disabled": 0, "fusion_lon": 0.0, "fusion_lat": 0.0, "lat": 38.95620483333333, "type": "electric_scooter", "lon": -77.02785633333333, "bike_id": "916a06b83eee1a15efff2ab439181dd0", "rental_uris": {"android": "https://dc.lft.to/lastmile_qr_scan", "ios": "https://dc.lft.to/lastmile_qr_scan"}, "name": "916a06b83eee1a15efff2ab439181dd0", "is_reserved": 0}, {"is_disabled": 0, "fusion_lon": 0.0, "fusion_lat": 0.0, "lat": 38.908753833333336, "type": "electric_scooter", "lon": -77.00281116666666, "bike_id": "ceeaded9d9262ff92c443eea958b309e", "rental_uris": {"android": "https://dc.lft.to/lastmile_qr_scan", "ios": "https://dc.lft.to/lastmile_qr_scan"}, "name": "ceeaded9d9262ff92c443eea958b309e", "is_reserved": 0}, {"is_disabled": 0, "fusion_lon": 0.0, "fusion_lat": 0.0, "lat": 38.934185, "type": "electric_scooter", "lon": -77.01966283333333, "bike_id": "57e51fd5ea1bc1e022aedc6a79482745", "rental_uris": {"android": "https://dc.lft.to/lastmile_qr_scan", "ios": "https://dc.lft.to/lastmile_qr_scan"}, "name": "57e51fd5ea1bc1e022aedc6a79482745", "is_reserved": 0}, {"is_disabled": 0, "fusion_lon": 0.0, "fusion_lat": 0.0, "lat": 38.953282333333334, "type": "electric_scooter", "lon": -77.06853833333334, "bike_id": "d0bf4505db25b4e619e8552b32582ce9", "rental_uris": {"android": "https://dc.lft.to/lastmile_qr_scan", "ios": "https://dc.lft.to/lastmile_qr_scan"}, "name": "d0bf4505db25b4e619e8552b32582ce9", "is_reserved": 0}, {"is_disabled": 0, "fusion_lon": 0.0, "fusion_lat": 0.0, "lat": 38.91778883333333, "type": "electric_scooter", "lon": -77.04149816666667, "bike_id": "50f9dc9f5e374acfe62cdc169f63a16a", "rental_uris": {"android": "https://dc.lft.to/lastmile_qr_scan", "ios": "https://dc.lft.to/lastmile_qr_scan"}, "name": "50f9dc9f5e374acfe62cdc169f63a16a", "is_reserved": 0}, {"is_disabled": 0, "fusion_lon": 0.0, "fusion_lat": 0.0, "lat": 38.8528635, "type": "electric_bike", "lon": -76.98157133333333, "bike_id": "7318ddc3b3decf987ac923c846acb140", "rental_uris": {"android": "https://dc.lft.to/lastmile_qr_scan", "ios": "https://dc.lft.to/lastmile_qr_scan"}, "name": "7318ddc3b3decf987ac923c846acb140", "is_reserved": 0}, {"is_disabled": 0, "fusion_lon": 0.0, "fusion_lat": 0.0, "lat": 38.92138666666666, "type": "electric_scooter", "lon": -77.04439266666667, "bike_id": "360cb1c603223e0f39a70e9de00c20e1", "rental_uris": {"android": "https://dc.lft.to/lastmile_qr_scan", "ios": "https://dc.lft.to/lastmile_qr_scan"}, "name": "360cb1c603223e0f39a70e9de00c20e1", "is_reserved": 0}, {"is_disabled": 0, "fusion_lon": 0.0, "fusion_lat": 0.0, "lat": 38.9000935, "type": "electric_scooter", "lon": -77.03357766666667, "bike_id": "97dc1a34e61e96de1b5aa41a91805b03", "rental_uris": {"android": "https://dc.lft.to/lastmile_qr_scan", "ios": "https://dc.lft.to/lastmile_qr_scan"}, "name": "97dc1a34e61e96de1b5aa41a91805b03", "is_reserved": 0}, {"is_disabled": 0, "fusion_lon": 0.0, "fusion_lat": 0.0, "lat": 38.92132133333333, "type": "electric_scooter", "lon": -77.04385783333333, "bike_id": "c127d5c2a4d7d7d12753f56d4fc158bd", "rental_uris": {"android": "https://dc.lft.to/lastmile_qr_scan", "ios": "https://dc.lft.to/lastmile_qr_scan"}, "name": "c127d5c2a4d7d7d12753f56d4fc158bd", "is_reserved": 0}, {"is_disabled": 0, "fusion_lon": 0.0, "fusion_lat": 0.0, "lat": 38.9047645, "type": "electric_bike", "lon": -76.92949316666666, "bike_id": "f71c9809d33b29403911a8c87a12bc67", "rental_uris": {"android": "https://dc.lft.to/lastmile_qr_scan", "ios": "https://dc.lft.to/lastmile_qr_scan"}, "name": "f71c9809d33b29403911a8c87a12bc67", "is_reserved": 0}, {"is_disabled": 0, "fusion_lon": 0.0, "fusion_lat": 0.0, "lat": 38.8578765, "type": "electric_bike", "lon": -76.9875765, "bike_id": "310076b8da67a3083b7ab26723a446e3", "rental_uris": {"android": "https://dc.lft.to/lastmile_qr_scan", "ios": "https://dc.lft.to/lastmile_qr_scan"}, "name": "310076b8da67a3083b7ab26723a446e3", "is_reserved": 0}, {"is_disabled": 0, "fusion_lon": 0.0, "fusion_lat": 0.0, "lat": 38.94334716666667, "type": "electric_bike", "lon": -77.01482483333334, "bike_id": "64698e8e431331d7fc1adc43baf9bb51", "rental_uris": {"android": "https://dc.lft.to/lastmile_qr_scan", "ios": "https://dc.lft.to/lastmile_qr_scan"}, "name": "64698e8e431331d7fc1adc43baf9bb51", "is_reserved": 0}, {"is_disabled": 0, "fusion_lon": 0.0, "fusion_lat": 0.0, "lat": 38.90574433333333, "type": "electric_scooter", "lon": -77.05598716666667, "bike_id": "30c931a3810fe455748d2ab690fb9923", "rental_uris": {"android": "https://dc.lft.to/lastmile_qr_scan", "ios": "https://dc.lft.to/lastmile_qr_scan"}, "name": "30c931a3810fe455748d2ab690fb9923", "is_reserved": 0}, {"is_disabled": 0, "fusion_lon": 0.0, "fusion_lat": 0.0, "lat": 38.90439533333333, "type": "electric_scooter", "lon": -77.02435216666667, "bike_id": "da2c6b1eea3e950f4f1881bfa73d4348", "rental_uris": {"android": "https://dc.lft.to/lastmile_qr_scan", "ios": "https://dc.lft.to/lastmile_qr_scan"}, "name": "da2c6b1eea3e950f4f1881bfa73d4348", "is_reserved": 0}, {"is_disabled": 0, "fusion_lon": 0.0, "fusion_lat": 0.0, "lat": 38.914214, "type": "electric_scooter", "lon": -77.02971583333333, "bike_id": "bccb14ae6a346e9942780ea9314b5d99", "rental_uris": {"android": "https://dc.lft.to/lastmile_qr_scan", "ios": "https://dc.lft.to/lastmile_qr_scan"}, "name": "bccb14ae6a346e9942780ea9314b5d99", "is_reserved": 0}, {"is_disabled": 0, "fusion_lon": 0.0, "fusion_lat": 0.0, "lat": 38.936296166666665, "type": "electric_scooter", "lon": -77.02456333333333, "bike_id": "074130f1b35657b5ac734900dba1dc3e", "rental_uris": {"android": "https://dc.lft.to/lastmile_qr_scan", "ios": "https://dc.lft.to/lastmile_qr_scan"}, "name": "074130f1b35657b5ac734900dba1dc3e", "is_reserved": 0}, {"is_disabled": 0, "fusion_lon": 0.0, "fusion_lat": 0.0, "lat": 38.845161, "type": "electric_bike", "lon": -76.97212266666666, "bike_id": "4d2cbb9a856dd6cb5e5b8185703925b5", "rental_uris": {"android": "https://dc.lft.to/lastmile_qr_scan", "ios": "https://dc.lft.to/lastmile_qr_scan"}, "name": "4d2cbb9a856dd6cb5e5b8185703925b5", "is_reserved": 0}, {"is_disabled": 0, "fusion_lon": 0.0, "fusion_lat": 0.0, "lat": 38.916519666666666, "type": "electric_scooter", "lon": -77.028051, "bike_id": "d856fcd0dca253ca704054ab6794cca4", "rental_uris": {"android": "https://dc.lft.to/lastmile_qr_scan", "ios": "https://dc.lft.to/lastmile_qr_scan"}, "name": "d856fcd0dca253ca704054ab6794cca4", "is_reserved": 0}, {"is_disabled": 0, "fusion_lon": 0.0, "fusion_lat": 0.0, "lat": 38.907153, "type": "electric_scooter", "lon": -77.02718166666666, "bike_id": "384cc87d1a9063c3d66d0df9a05e12c4", "rental_uris": {"android": "https://dc.lft.to/lastmile_qr_scan", "ios": "https://dc.lft.to/lastmile_qr_scan"}, "name": "384cc87d1a9063c3d66d0df9a05e12c4", "is_reserved": 0}, {"is_disabled": 0, "fusion_lon": 0.0, "fusion_lat": 0.0, "lat": 38.951749166666666, "type": "electric_scooter", "lon": -77.05659966666667, "bike_id": "e7a5b1a89604c4f0636191230e272860", "rental_uris": {"android": "https://dc.lft.to/lastmile_qr_scan", "ios": "https://dc.lft.to/lastmile_qr_scan"}, "name": "e7a5b1a89604c4f0636191230e272860", "is_reserved": 0}, {"is_disabled": 0, "fusion_lon": 0.0, "fusion_lat": 0.0, "lat": 38.82880266666667, "type": "electric_bike", "lon": -77.11220133333333, "bike_id": "2f2ca772acc45bdb692ea4e1c89dfa58", "rental_uris": {"android": "https://dc.lft.to/lastmile_qr_scan", "ios": "https://dc.lft.to/lastmile_qr_scan"}, "name": "2f2ca772acc45bdb692ea4e1c89dfa58", "is_reserved": 0}, {"is_disabled": 0, "fusion_lon": 0.0, "fusion_lat": 0.0, "lat": 38.96570533333333, "type": "electric_scooter", "lon": -77.01565466666666, "bike_id": "d7fb4b3c2b2338e0de7c16e33b31b97b", "rental_uris": {"android": "https://dc.lft.to/lastmile_qr_scan", "ios": "https://dc.lft.to/lastmile_qr_scan"}, "name": "d7fb4b3c2b2338e0de7c16e33b31b97b", "is_reserved": 0}, {"is_disabled": 0, "fusion_lon": 0.0, "fusion_lat": 0.0, "lat": 38.95561216666667, "type": "electric_bike", "lon": -76.935378, "bike_id": "31eff14eab41514a30a4fc3bd612bdca", "rental_uris": {"android": "https://dc.lft.to/lastmile_qr_scan", "ios": "https://dc.lft.to/lastmile_qr_scan"}, "name": "31eff14eab41514a30a4fc3bd612bdca", "is_reserved": 0}, {"is_disabled": 0, "fusion_lon": 0.0, "fusion_lat": 0.0, "lat": 38.918156, "type": "electric_scooter", "lon": -77.02473133333334, "bike_id": "f247d6602f7603f3e7424646f66f1aba", "rental_uris": {"android": "https://dc.lft.to/lastmile_qr_scan", "ios": "https://dc.lft.to/lastmile_qr_scan"}, "name": "f247d6602f7603f3e7424646f66f1aba", "is_reserved": 0}, {"is_disabled": 0, "fusion_lon": 0.0, "fusion_lat": 0.0, "lat": 38.882668, "type": "electric_scooter", "lon": -76.98541666666667, "bike_id": "4eb0fc6740cb70646f70910698bdb647", "rental_uris": {"android": "https://dc.lft.to/lastmile_qr_scan", "ios": "https://dc.lft.to/lastmile_qr_scan"}, "name": "4eb0fc6740cb70646f70910698bdb647", "is_reserved": 0}, {"is_disabled": 0, "fusion_lon": 0.0, "fusion_lat": 0.0, "lat": 38.87245683333333, "type": "electric_scooter", "lon": -76.97721133333333, "bike_id": "5e72f0869be31ce9299812b73c45b50b", "rental_uris": {"android": "https://dc.lft.to/lastmile_qr_scan", "ios": "https://dc.lft.to/lastmile_qr_scan"}, "name": "5e72f0869be31ce9299812b73c45b50b", "is_reserved": 0}, {"is_disabled": 0, "fusion_lon": 0.0, "fusion_lat": 0.0, "lat": 38.92571983333333, "type": "electric_scooter", "lon": -77.02871133333333, "bike_id": "02ba54fe0951332eb2515f84de4f6c4a", "rental_uris": {"android": "https://dc.lft.to/lastmile_qr_scan", "ios": "https://dc.lft.to/lastmile_qr_scan"}, "name": "02ba54fe0951332eb2515f84de4f6c4a", "is_reserved": 0}, {"is_disabled": 0, "fusion_lon": 0.0, "fusion_lat": 0.0, "lat": 38.91338066666667, "type": "electric_scooter", "lon": -77.04862466666667, "bike_id": "569290a56be9c9b396ad6427487b47eb", "rental_uris": {"android": "https://dc.lft.to/lastmile_qr_scan", "ios": "https://dc.lft.to/lastmile_qr_scan"}, "name": "569290a56be9c9b396ad6427487b47eb", "is_reserved": 0}, {"is_disabled": 0, "fusion_lon": 0.0, "fusion_lat": 0.0, "lat": 38.83193083333333, "type": "electric_bike", "lon": -77.0768675, "bike_id": "2f9a2e5331863f1193d84c242fd7c343", "rental_uris": {"android": "https://dc.lft.to/lastmile_qr_scan", "ios": "https://dc.lft.to/lastmile_qr_scan"}, "name": "2f9a2e5331863f1193d84c242fd7c343", "is_reserved": 0}, {"is_disabled": 0, "fusion_lon": 0.0, "fusion_lat": 0.0, "lat": 38.915387333333335, "type": "electric_scooter", "lon": -77.03798183333333, "bike_id": "7f2f566f1f0d588cda13b10e42ff8b30", "rental_uris": {"android": "https://dc.lft.to/lastmile_qr_scan", "ios": "https://dc.lft.to/lastmile_qr_scan"}, "name": "7f2f566f1f0d588cda13b10e42ff8b30", "is_reserved": 0}, {"is_disabled": 0, "fusion_lon": 0.0, "fusion_lat": 0.0, "lat": 38.88769966666667, "type": "electric_bike", "lon": -77.12258266666667, "bike_id": "e1577d8dcd75c0092dce667b236fa553", "rental_uris": {"android": "https://dc.lft.to/lastmile_qr_scan", "ios": "https://dc.lft.to/lastmile_qr_scan"}, "name": "e1577d8dcd75c0092dce667b236fa553", "is_reserved": 0},