{"data": {"bikes": [{"fusion_lat": 0.0, "name": "e6355b45fb2341cd3ecd3e8931a703e6", "is_disabled": 0, "rental_uris": {"android": "https://dc.lft.to/lastmile_qr_scan", "ios": "https://dc.lft.to/lastmile_qr_scan"}, "fusion_lon": 0.0, "lat": 38.93599416666667, "bike_id": "e6355b45fb2341cd3ecd3e8931a703e6", "type": "electric_scooter", "is_reserved": 0, "lon": -77.02296016666666}, {"fusion_lat": 0.0, "name": "90e06e60be1cf4656f03e31a9b3c8ec6", "is_disabled": 0, "rental_uris": {"android": "https://dc.lft.to/lastmile_qr_scan", "ios": "https://dc.lft.to/lastmile_qr_scan"}, "fusion_lon": 0.0, "lat": 38.887131333333336, "bike_id": "90e06e60be1cf4656f03e31a9b3c8ec6", "type": "electric_scooter", "is_reserved": 0, "lon": -77.01776866666667}, {"fusion_lat": 0.0, "name": "d4ed1f136eec40839325550bc9477b9c", "is_disabled": 0, "rental_uris": {"android": "https://dc.lft.to/lastmile_qr_scan", "ios": "https://dc.lft.to/lastmile_qr_scan"}, "fusion_lon": 0.0, "lat": 38.94430583333333, "bike_id": "d4ed1f136eec40839325550bc9477b9c", "type": "electric_bike", "is_reserved": 0, "lon": -77.0260355}, {"fusion_lat": 0.0, "name": "620259c800d3c65b05a8839421efff8e", "is_disabled": 0, "rental_uris": {"android": "https://dc.lft.to/lastmile_qr_scan", "ios": "https://dc.lft.to/lastmile_qr_scan"}, "fusion_lon": 0.0, "lat": 38.90554383333333, "bike_id": "620259c800d3c65b05a8839421efff8e", "type": "electric_scooter", "is_reserved": 0, "lon": -77.03424783333334}, {"fusion_lat": 0.0, "name": "88f896d760a9df70342b8445c20ede27", "is_disabled": 0, "rental_uris": {"android": "https://dc.lft.to/lastmile_qr_scan", "ios": "https://dc.lft.to/lastmile_qr_scan"}, "fusion_lon": 0.0, "lat": 38.8818225, "bike_id": "88f896d760a9df70342b8445c20ede27", "type": "electric_scooter", "is_reserved": 0, "lon": -77.03574383333333}, {"fusion_lat": 0.0, "name": "e215c574dd0fed6fecc654b78bbc9cbe", "is_disabled": 0, "rental_uris": {"android": "https://dc.lft.to/lastmile_qr_scan", "ios": "https://dc.lft.to/lastmile_qr_scan"}, "fusion_lon": 0.0, "lat": 38.92122, "bike_id": "e215c574dd0fed6fecc654b78bbc9cbe", "type": "electric_scooter", "is_reserved": 0, "lon": -77.04688716666666}, {"fusion_lat": 0.0, "name": "a71fa67dbb797646fe38fad5359bc3e2", "is_disabled": 0, "rental_uris": {"android": "https://dc.lft.to/lastmile_qr_scan", "ios": "https://dc.lft.to/lastmile_qr_scan"}, "fusion_lon": 0.0, "lat": 38.9266765, "bike_id": "a71fa67dbb797646fe38fad5359bc3e2", "type": "electric_scooter", "is_reserved": 0, "lon": -77.030483}, {"fusion_lat": 0.0, "name": "9f843f4b4793864afc8b52af0faccead", "is_disabled": 0, "rental_uris": {"android": "https://dc.lft.to/lastmile_qr_scan", "ios": "https://dc.lft.to/lastmile_qr_scan"}, "fusion_lon": 0.0, "lat": 38.890866333333335, "bike_id": "9f843f4b4793864afc8b52af0faccead", "type": "electric_scooter", "is_reserved": 0, "lon": -76.919289}, {"fusion_lat": 0.0, "name": "92b8ce215388f7419cab480de310120e", "is_disabled": 0, "rental_uris": {"android": "https://dc.lft.to/lastmile_qr_scan", "ios": "https://dc.lft.to/lastmile_qr_scan"}, "fusion_lon": 0.0, "lat": 38.790199, "bike_id": "92b8ce215388f7419cab480de310120e", "type": "electric_bike", "is_reserved": 0, "lon": -77.01545933333334}, {"fusion_lat": 0.0, "name": "a86ec2ac1308bc420a72dd9c67cb804f", "is_disabled": 0, "rental_uris": {"android": "https://dc.lft.to/lastmile_qr_scan", "ios": "https://dc.lft.to/lastmile_qr_scan"}, "fusion_lon": 0.0, "lat": 38.9224925, "bike_id": "a86ec2ac1308bc420a72dd9c67cb804f", "type": "electric_scooter", "is_reserved": 0, "lon": -77.033844}, {"fusion_lat": 0.0, "name": "84222a41bf8c9a7050d0fdc2d9a57be5", "is_disabled": 0, "rental_uris": {"android": "https://dc.lft.to/lastmile_qr_scan", "ios": "https://dc.lft.to/lastmile_qr_scan"}, "fusion_lon": 0.0, "lat": 38.9357465, "bike_id": "84222a41bf8c9a7050d0fdc2d9a57be5", "type": "electric_scooter", "is_reserved": 0, "lon": -77.019264}, {"fusion_lat": 0.0, "name": "a3c43b2969991345f44735043f81f9f4", "is_disabled": 0, "rental_uris": {"android": "https://dc.lft.to/lastmile_qr_scan", "ios": "https://dc.lft.to/lastmile_qr_scan"}, "fusion_lon": 0.0, "lat": 38.897618, "bike_id": "a3c43b2969991345f44735043f81f9f4", "type": "electric_scooter", "is_reserved": 0, "lon": -77.0514395}, {"fusion_lat": 0.0, "name": "4cecd5d230d10eed11a7a1ba86825697", "is_disabled": 0, "rental_uris": {"android": "https://dc.lft.to/lastmile_qr_scan", "ios": "https://dc.lft.to/lastmile_qr_scan"}, "fusion_lon": 0.0, "lat": 38.914817, "bike_id": "4cecd5d230d10eed11a7a1ba86825697", "type": "electric_scooter", "is_reserved": 0, "lon": -77.03829833333333}, {"fusion_lat": 0.0, "name": "fdecba698a83c0164cf169f54386db4b", "is_disabled": 0, "rental_uris": {"android": "https://dc.lft.to/lastmile_qr_scan", "ios": "https://dc.lft.to/lastmile_qr_scan"}, "fusion_lon": 0.0, "lat": 38.862125666666664, "bike_id": "fdecba698a83c0164cf169f54386db4b", "type": "electric_bike", "is_reserved": 0, "lon": -76.99554316666666}, {"fusion_lat": 0.0, "name": "9c38c4c9f23e4bb900fddfe6dd88fe36", "is_disabled": 0, "rental_uris": {"android": "https://dc.lft.to/lastmile_qr_scan", "ios": "https://dc.lft.to/lastmile_qr_scan"}, "fusion_lon": 0.0, "lat": 38.90407283333333, "bike_id": "9c38c4c9f23e4bb900fddfe6dd88fe36", "type": "electric_scooter", "is_reserved": 0, "lon": -76.97329166666667}, {"fusion_lat": 0.0, "name": "24a3c4b9d61d88a923d0f56edbccf57c", "is_disabled": 0, "rental_uris": {"android": "https://dc.lft.to/lastmile_qr_scan", "ios": "https://dc.lft.to/lastmile_qr_scan"}, "fusion_lon": 0.0, "lat": 38.884385333333334, "bike_id": "24a3c4b9d61d88a923d0f56edbccf57c", "type": "electric_scooter", "is_reserved": 0, "lon": -77.00347166666667}, {"fusion_lat": 0.0, "name": "4e357cdb579dd72d8add58fc8b6f7aea", "is_disabled": 0, "rental_uris": {"android": "https://dc.lft.to/lastmile_qr_scan", "ios": "https://dc.lft.to/lastmile_qr_scan"}, "fusion_lon": 0.0, "lat": 38.9142125, "bike_id": "4e357cdb579dd72d8add58fc8b6f7aea", "type": "electric_scooter", "is_reserved": 0, "lon": -77.0320235}, {"fusion_lat": 0.0, "name": "ebf46a1c25101c6ab88b773af89f2f95", "is_disabled": 0, "rental_uris": {"android": "https://dc.lft.to/lastmile_qr_scan", "ios": "https://dc.lft.to/lastmile_qr_scan"}, "fusion_lon": 0.0, "lat": 38.89524316666667, "bike_id": "ebf46a1c25101c6ab88b773af89f2f95", "type": "electric_scooter", "is_reserved": 0, "lon": -77.04226666666666}, {"fusion_lat": 0.0, "name": "652d2844aac7e5c5c935f611dd9ce7ce", "is_disabled": 0, "rental_uris": {"android": "https://dc.lft.to/lastmile_qr_scan", "ios": "https://dc.lft.to/lastmile_qr_scan"}, "fusion_lon": 0.0, "lat": 38.91002183333333, "bike_id": "652d2844aac7e5c5c935f611dd9ce7ce", "type": "electric_scooter", "is_reserved": 0, "lon": -77.01512383333333}, {"fusion_lat": 0.0, "name": "2accf8aeb1e3101e553ec4bad5997d6b", "is_disabled": 0, "rental_uris": {"android": "https://dc.lft.to/lastmile_qr_scan", "ios": "https://dc.lft.to/lastmile_qr_scan"}, "fusion_lon": 0.0, "lat": 38.843466666666664, "bike_id": "2accf8aeb1e3101e553ec4bad5997d6b", "type": "electric_bike", "is_reserved": 0, "lon": -76.97816133333333}, {"fusion_lat": 0.0, "name": "13d5e00fa5911fb40c6feb3cf5f9483b", "is_disabled": 0, "rental_uris": {"android": "https://dc.lft.to/lastmile_qr_scan", "ios": "https://dc.lft.to/lastmile_qr_scan"}, "fusion_lon": 0.0, "lat": 38.9449835, "bike_id": "13d5e00fa5911fb40c6feb3cf5f9483b", "type": "electric_scooter", "is_reserved": 0, "lon": -77.03144433333334}, {"fusion_lat": 0.0, "name": "fe0e90871b4b97188b02c5673a4bcc01", "is_disabled": 0, "rental_uris": {"android": "https://dc.lft.to/lastmile_qr_scan", "ios": "https://dc.lft.to/lastmile_qr_scan"}, "fusion_lon": 0.0, "lat": 38.9116565, "bike_id": "fe0e90871b4b97188b02c5673a4bcc01", "type": "electric_bike", "is_reserved": 0, "lon": -77.00283083333333}, {"fusion_lat": 0.0, "name": "c9f72f960b82b2eec1a8f03d2e9d3a8c", "is_disabled": 0, "rental_uris": {"android": "https://dc.lft.to/lastmile_qr_scan", "ios": "https://dc.lft.to/lastmile_qr_scan"}, "fusion_lon": 0.0, "lat": 38.88364283333333, "bike_id": "c9f72f960b82b2eec1a8f03d2e9d3a8c", "type": "electric_scooter", "is_reserved": 0, "lon": -76.94160283333333}, {"fusion_lat": 0.0, "name": "323497c1cf45a77dcc66c5eb0488a71d", "is_disabled": 0, "rental_uris": {"android": "https://dc.lft.to/lastmile_qr_scan", "ios": "https://dc.lft.to/lastmile_qr_scan"}, "fusion_lon": 0.0, "lat": 38.91953433333333, "bike_id": "323497c1cf45a77dcc66c5eb0488a71d", "type": "electric_bike", "is_reserved": 0, "lon": -77.101037}, {"fusion_lat": 0.0, "name": "adbd3a42a3e35a28e02ef1c9ed15d5e5", "is_disabled": 0, "rental_uris": {"android": "https://dc.lft.to/lastmile_qr_scan", "ios": "https://dc.lft.to/lastmile_qr_scan"}, "fusion_lon": 0.0, "lat": 38.908473666666666, "bike_id": "adbd3a42a3e35a28e02ef1c9ed15d5e5", "type": "electric_scooter", "is_reserved": 0, "lon": -77.0474665}, {"fusion_lat": 0.0, "name": "7f200e7453996b5da91a563f938891d5", "is_disabled": 0, "rental_uris": {"android": "https://dc.lft.to/lastmile_qr_scan", "ios": "https://dc.lft.to/lastmile_qr_scan"}, "fusion_lon": 0.0, "lat": 38.8682405, "bike_id": "7f200e7453996b5da91a563f938891d5", "type": "electric_scooter", "is_reserved": 0, "lon": -77.01123633333333}, {"fusion_lat": 0.0, "name": "86f03cf1f887ac4f7298725c1816f99a", "is_disabled": 0, "rental_uris": {"android": "https://dc.lft.to/lastmile_qr_scan", "ios": "https://dc.lft.to/lastmile_qr_scan"}, "fusion_lon": 0.0, "lat": 38.92741483333333, "bike_id": "86f03cf1f887ac4f7298725c1816f99a", "type": "electric_scooter", "is_reserved": 0, "lon": -77.02147616666667}, {"fusion_lat": 0.0, "name": "41bba8def16ff41e7e0ed67c1ff5d98c", "is_disabled": 0, "rental_uris": {"android": "https://dc.lft.to/lastmile_qr_scan", "ios": "https://dc.lft.to/lastmile_qr_scan"}, "fusion_lon": 0.0, "lat": 38.93583066666667, "bike_id": "41bba8def16ff41e7e0ed67c1ff5d98c", "type": "electric_scooter", "is_reserved": 0, "lon": -77.028479}, {"fusion_lat": 0.0, "name": "cf9be97205e8248ad9d571a247d7f060", "is_disabled": 0, "rental_uris": {"android": "https://dc.lft.to/lastmile_qr_scan", "ios": "https://dc.lft.to/lastmile_qr_scan"}, "fusion_lon": 0.0, "lat": 38.90664, "bike_id": "cf9be97205e8248ad9d571a247d7f060", "type": "electric_bike", "is_reserved": 0, "lon": -77.02804516666667}, {"fusion_lat": 0.0, "name": "a565fc1369c83d9c7f18361234defc9e", "is_disabled": 0, "rental_uris": {"android": "https://dc.lft.to/lastmile_qr_scan", "ios": "https://dc.lft.to/lastmile_qr_scan"}, "fusion_lon": 0.0, "lat": 38.8859125, "bike_id": "a565fc1369c83d9c7f18361234defc9e", "type": "electric_scooter", "is_reserved": 0, "lon": -77.01988266666666}, {"fusion_lat": 0.0, "name": "079d7982da0a08e487ced49d05ea3018", "is_disabled": 0, "rental_uris": {"android": "https://dc.lft.to/lastmile_qr_scan", "ios": "https://dc.lft.to/lastmile_qr_scan"}, "fusion_lon": 0.0, "lat": 38.88739066666667, "bike_id": "079d7982da0a08e487ced49d05ea3018", "type": "electric_scooter", "is_reserved": 0, "lon": -77.02216783333333}, {"fusion_lat": 0.0, "name": "48c2495917cb81654ccf43796e98ccd5", "is_disabled": 0, "rental_uris": {"android": "https://dc.lft.to/lastmile_qr_scan", "ios": "https://dc.lft.to/lastmile_qr_scan"}, "fusion_lon": 0.0, "lat": 38.907396166666665, "bike_id": "48c2495917cb81654ccf43796e98ccd5", "type": "electric_scooter", "is_reserved": 0, "lon": -77.022053}, {"fusion_lat": 0.0, "name": "7cf0ba1bd0253c0cd7786787a3a93016", "is_disabled": 0, "rental_uris": {"android": "https://dc.lft.to/lastmile_qr_scan", "ios": "https://dc.lft.to/lastmile_qr_scan"}, "fusion_lon": 0.0, "lat": 38.916864833333335, "bike_id": "7cf0ba1bd0253c0cd7786787a3a93016", "type": "electric_scooter", "is_reserved": 0, "lon": -77.03103166666666}, {"fusion_lat": 0.0, "name": "b49cc9f603f3b524b98cdc654d4dbf2f", "is_disabled": 0, "rental_uris": {"android": "https://dc.lft.to/lastmile_qr_scan", "ios": "https://dc.lft.to/lastmile_qr_scan"}, "fusion_lon": 0.0, "lat": 38.915465833333336, "bike_id": "b49cc9f603f3b524b98cdc654d4dbf2f", "type": "electric_scooter", "is_reserved": 0, "lon": -77.03251233333333}, {"fusion_lat": 0.0, "name": "6297ddafea1dbf0688298dc1782da320", "is_disabled": 0, "rental_uris": {"android": "https://dc.lft.to/lastmile_qr_scan", "ios": "https://dc.lft.to/lastmile_qr_scan"}, "fusion_lon": 0.0, "lat": 38.9303125, "bike_id": "6297ddafea1dbf0688298dc1782da320", "type": "electric_scooter", "is_reserved": 0, "lon": -77.01950533333333}, {"fusion_lat": 0.0, "name": "4221a992e0981a88093982cafaf89bc3", "is_disabled": 0, "rental_uris": {"android": "https://dc.lft.to/lastmile_qr_scan", "ios": "https://dc.lft.to/lastmile_qr_scan"}, "fusion_lon": 0.0, "lat": 38.894948, "bike_id": "4221a992e0981a88093982cafaf89bc3", "type": "electric_scooter", "is_reserved": 0, "lon": -77.01947716666666}, {"fusion_lat": 0.0, "name": "42da73b703794fa256ee63be41414fdb", "is_disabled": 0, "rental_uris": {"android": "https://dc.lft.to/lastmile_qr_scan", "ios": "https://dc.lft.to/lastmile_qr_scan"}, "fusion_lon": 0.0, "lat": 38.81328883333333, "bike_id": "42da73b703794fa256ee63be41414fdb", "type": "electric_bike", "is_reserved": 0, "lon": -77.05080933333333}, {"fusion_lat": 0.0, "name": "dd2248eed7065d758f274e4b90ae2eef", "is_disabled": 0, "rental_uris": {"android": "https://dc.lft.to/lastmile_qr_scan", "ios": "https://dc.lft.to/lastmile_qr_scan"}, "fusion_lon": 0.0, "lat": 38.92972866666667, "bike_id": "dd2248eed7065d758f274e4b90ae2eef", "type": "electric_bike", "is_reserved": 0, "lon": -77.037804}, {"fusion_lat": 0.0, "name": "ecd9aa5d6770b356d5da5f12affa1df6", "is_disabled": 0, "rental_uris": {"android": "https://dc.lft.to/lastmile_qr_scan", "ios": "https://dc.lft.to/lastmile_qr_scan"}, "fusion_lon": 0.0, "lat": 38.91844666666667, "bike_id": "ecd9aa5d6770b356d5da5f12affa1df6", "type": "electric_bike", "is_reserved": 0, "lon": -76.960913}, {"fusion_lat": 0.0, "name": "63cfbc36b954b0056f59d94320e82823", "is_disabled": 0, "rental_uris": {"android": "https://dc.lft.to/lastmile_qr_scan", "ios": "https://dc.lft.to/lastmile_qr_scan"}, "fusion_lon": 0.0, "lat": 38.89971833333333, "bike_id": "63cfbc36b954b0056f59d94320e82823", "type": "electric_scooter", "is_reserved": 0, "lon": -77.02933}, {"fusion_lat": 0.0, "name": "048d00ff4f2c141210de3b2143339311", "is_disabled": 0, "rental_uris": {"android": "https://dc.lft.to/lastmile_qr_scan", "ios": "https://dc.lft.to/lastmile_qr_scan"}, "fusion_lon": 0.0, "lat": 38.89467283333333, "bike_id": "048d00ff4f2c141210de3b2143339311", "type": "electric_scooter", "is_reserved": 0, "lon": -77.01825383333333}, {"fusion_lat": 0.0, "name": "e217c44898427f41c95629e0fb8b2ca0", "is_disabled": 0, "rental_uris": {"android": "https://dc.lft.to/lastmile_qr_scan", "ios": "https://dc.lft.to/lastmile_qr_scan"}, "fusion_lon": 0.0, "lat": 38.8736805, "bike_id": "e217c44898427f41c95629e0fb8b2ca0", "type": "electric_scooter", "is_reserved": 0, "lon": -77.00069216666667}, {"fusion_lat": 0.0, "name": "8fd25d741b4887b14740a72a91c63078", "is_disabled": 0, "rental_uris": {"android": "https://dc.lft.to/lastmile_qr_scan", "ios": "https://dc.lft.to/lastmile_qr_scan"}, "fusion_lon": 0.0, "lat": 38.9236565, "bike_id": "8fd25d741b4887b14740a72a91c63078", "type": "electric_scooter", "is_reserved": 0, "lon": -77.0205585}, {"fusion_lat": 0.0, "name": "aa16cd745614d58122ba977f86a0d108", "is_disabled": 0, "rental_uris": {"android": "https://dc.lft.to/lastmile_qr_scan", "ios": "https://dc.lft.to/lastmile_qr_scan"}, "fusion_lon": 0.0, "lat": 38.91404083333333, "bike_id": "aa16cd745614d58122ba977f86a0d108", "type": "electric_scooter", "is_reserved": 0, "lon": -77.03218333333334}, {"fusion_lat": 0.0, "name": "777112291973b502a909833a6d893551", "is_disabled": 0, "rental_uris": {"android": "https://dc.lft.to/lastmile_qr_scan", "ios": "https://dc.lft.to/lastmile_qr_scan"}, "fusion_lon": 0.0, "lat": 38.926412666666664, "bike_id": "777112291973b502a909833a6d893551", "type": "electric_scooter", "is_reserved": 0, "lon": -77.04136716666666}, {"fusion_lat": 0.0, "name": "020d70dcb90eda6ff6a377fc75dbe2a7", "is_disabled": 0, "rental_uris": {"android": "https://dc.lft.to/lastmile_qr_scan", "ios": "https://dc.lft.to/lastmile_qr_scan"}, "fusion_lon": 0.0, "lat": 38.90767833333334, "bike_id": "020d70dcb90eda6ff6a377fc75dbe2a7", "type": "electric_scooter", "is_reserved": 0, "lon": -77.00155733333334}, {"fusion_lat": 0.0, "name": "a78972143e84dbf9b8f47464b1c19d63", "is_disabled": 0, "rental_uris": {"android": "https://dc.lft.to/lastmile_qr_scan", "ios": "https://dc.lft.to/lastmile_qr_scan"}, "fusion_lon": 0.0, "lat": 38.913411333333336, "bike_id": "a78972143e84dbf9b8f47464b1c19d63", "type": "electric_scooter", "is_reserved": 0, "lon": -77.0487125}, {"fusion_lat": 0.0, "name": "98842eb4da4d21834cf612dd33f37651", "is_disabled": 0, "rental_uris": {"android": "https://dc.lft.to/lastmile_qr_scan", "ios": "https://dc.lft.to/lastmile_qr_scan"}, "fusion_lon": 0.0, "lat": 38.92403783333334, "bike_id": "98842eb4da4d21834cf612dd33f37651", "type": "electric_scooter", "is_reserved": 0, "lon": -77.036386}, {"fusion_lat": 0.0, "name": "d96970e495d3fce25ee78bca4da82186", "is_disabled": 0, "rental_uris": {"android": "https://dc.lft.to/lastmile_qr_scan", "ios": "https://dc.lft.to/lastmile_qr_scan"}, "fusion_lon": 0.0, "lat": 38.923066666666664, "bike_id": "d96970e495d3fce25ee78bca4da82186", "type": "electric_scooter", "is_reserved": 0, "lon": -77.04264666666667}, {"fusion_lat": 0.0, "name": "67710551106354cfeae7ec9d66f6d1d5", "is_disabled": 0, "rental_uris": {"android": "https://dc.lft.to/lastmile_qr_scan", "ios": "https://dc.lft.to/lastmile_qr_scan"}, "fusion_lon": 0.0, "lat": 38.90763466666667, "bike_id": "67710551106354cfeae7ec9d66f6d1d5", "type": "electric_scooter", "is_reserved": 0, "lon": -77.0346485}, {"fusion_lat": 0.0, "name": "ebd08a5f3e4b17e966320542fa24384e", "is_disabled": 0, "rental_uris": {"android": "https://dc.lft.to/lastmile_qr_scan", "ios": "https://dc.lft.to/lastmile_qr_scan"}, "fusion_lon": 0.0, "lat": 38.91246966666667, "bike_id": "ebd08a5f3e4b17e966320542fa24384e", "type": "electric_scooter", "is_reserved": 0, "lon": -77.04921783333333}, {"fusion_lat": 0.0, "name": "abf492fd1f094544e6a092c020672058", "is_disabled": 0, "rental_uris": {"android": "https://dc.lft.to/lastmile_qr_scan", "ios": "https://dc.lft.to/lastmile_qr_scan"}, "fusion_lon": 0.0, "lat": 38.954724666666664, "bike_id": "abf492fd1f094544e6a092c020672058", "type": "electric_scooter", "is_reserved": 0, "lon": -77.07779916666667}, {"fusion_lat": 0.0, "name": "8fb068a7d34ac11eb191f7cd76658d3c", "is_disabled": 0, "rental_uris": {"android": "https://dc.lft.to/lastmile_qr_scan", "ios": "https://dc.lft.to/lastmile_qr_scan"}, "fusion_lon": 0.0, "lat": 38.95108466666667, "bike_id": "8fb068a7d34ac11eb191f7cd76658d3c", "type": "electric_scooter", "is_reserved": 0, "lon": -77.05867366666666}, {"fusion_lat": 0.0, "name": "95221d965c87a0144b98554b82f5de5e", "is_disabled": 0, "rental_uris": {"android": "https://dc.lft.to/lastmile_qr_scan", "ios": "https://dc.lft.to/lastmile_qr_scan"}, "fusion_lon": 0.0, "lat": 38.908469833333335, "bike_id": "95221d965c87a0144b98554b82f5de5e", "type": "electric_scooter", "is_reserved": 0, "lon": -77.0272575}, {"fusion_lat": 0.0, "name": "539e0fde5ec145054ac6e09e26237e2b", "is_disabled": 0, "rental_uris": {"android": "https://dc.lft.to/lastmile_qr_scan", "ios": "https://dc.lft.to/lastmile_qr_scan"}, "fusion_lon": 0.0, "lat": 38.91502933333334, "bike_id": "539e0fde5ec145054ac6e09e26237e2b", "type": "electric_scooter", "is_reserved": 0, "lon": -77.03272483333333}, {"fusion_lat": 0.0, "name": "808d2f6bbf0ef8e1007fdc18cdc42779", "is_disabled": 0, "rental_uris": {"android": "https://dc.lft.to/lastmile_qr_scan", "ios": "https://dc.lft.to/lastmile_qr_scan"}, "fusion_lon": 0.0, "lat": 38.91683033333333, "bike_id": "808d2f6bbf0ef8e1007fdc18cdc42779", "type": "electric_scooter", "is_reserved": 0, "lon": -77.03727633333334}, {"fusion_lat": 0.0, "name": "ecf2bbb402916ca699deabd32fc97ff5", "is_disabled": 0, "rental_uris": {"android": "https://dc.lft.to/lastmile_qr_scan", "ios": "https://dc.lft.to/lastmile_qr_scan"}, "fusion_lon": 0.0, "lat": 38.916868, "bike_id": "ecf2bbb402916ca699deabd32fc97ff5", "type": "electric_scooter", "is_reserved": 0, "lon": -77.0228615}, {"fusion_lat": 0.0, "name": "8f742035eba0a68ec8f7d65aee868841", "is_disabled": 0, "rental_uris": {"android": "https://dc.lft.to/lastmile_qr_scan", "ios": "https://dc.lft.to/lastmile_qr_scan"}, "fusion_lon": 0.0, "lat": 38.905302166666665, "bike_id": "8f742035eba0a68ec8f7d65aee868841", "type": "electric_bike", "is_reserved": 0, "lon": -76.99805183333334}, {"fusion_lat": 0.0, "name": "be8821997e128c0affd5325051309c56", "is_disabled": 0, "rental_uris": {"android": "https://dc.lft.to/lastmile_qr_scan", "ios": "https://dc.lft.to/lastmile_qr_scan"}, "fusion_lon": 0.0, "lat": 38.86627683333333, "bike_id": "be8821997e128c0affd5325051309c56", "type": "electric_scooter", "is_reserved": 0, "lon": -76.987159}, {"fusion_lat": 0.0, "name": "bc9d83f8dc6a56eccc305aba3e1177dd", "is_disabled": 0, "rental_uris": {"android": "https://dc.lft.to/lastmile_qr_scan", "ios": "https://dc.lft.to/lastmile_qr_scan"}, "fusion_lon": 0.0, "lat": 38.9306415, "bike_id": "bc9d83f8dc6a56eccc305aba3e1177dd", "type": "electric_scooter", "is_reserved": 0, "lon": -77.03945416666667}, {"fusion_lat": 0.0, "name": "4bc8915e50aa9d26701e032adff9e367", "is_disabled": 0, "rental_uris": {"android": "https://dc.lft.to/lastmile_qr_scan", "ios": "https://dc.lft.to/lastmile_qr_scan"}, "fusion_lon": 0.0, "lat": 38.92794333333333, "bike_id": "4bc8915e50aa9d26701e032adff9e367", "type": "electric_scooter", "is_reserved": 0, "lon": -76.955605}, {"fusion_lat": 0.0, "name": "514391261db0dfcf600c7a464ff9093e", "is_disabled": 0, "rental_uris": {"android": "https://dc.lft.to/lastmile_qr_scan", "ios": "https://dc.lft.to/lastmile_qr_scan"}, "fusion_lon": 0.0, "lat": 38.902546, "bike_id": "514391261db0dfcf600c7a464ff9093e", "type": "electric_scooter", "is_reserved": 0, "lon": -77.0020725}, {"fusion_lat": 0.0, "name": "d5e3fdbed6e6edc5b757029d56f6eaea", "is_disabled": 0, "rental_uris": {"android": "https://dc.lft.to/lastmile_qr_scan", "ios": "https://dc.lft.to/lastmile_qr_scan"}, "fusion_lon": 0.0, "lat": 38.9175745, "bike_id": "d5e3fdbed6e6edc5b757029d56f6eaea", "type": "electric_scooter", "is_reserved": 0, "lon": -77.0365415}, {"fusion_lat": 0.0, "name": "be6a01a96479a462061492bccc68c85a", "is_disabled": 0, "rental_uris": {"android": "https://dc.lft.to/lastmile_qr_scan", "ios": "https://dc.lft.to/lastmile_qr_scan"}, "fusion_lon": 0.0, "lat": 38.907711166666665, "bike_id": "be6a01a96479a462061492bccc68c85a", "type": "electric_scooter", "is_reserved": 0, "lon": -77.06237116666667}, {"fusion_lat": 0.0, "name": "5cb406767f42ca2c12f9da72b64c3e76", "is_disabled": 0, "rental_uris": {"android": "https://dc.lft.to/lastmile_qr_scan", "ios": "https://dc.lft.to/lastmile_qr_scan"}, "fusion_lon": 0.0, "lat": 38.8982535, "bike_id": "5cb406767f42ca2c12f9da72b64c3e76", "type": "electric_bike", "is_reserved": 0, "lon": -77.046827}, {"fusion_lat": 0.0, "name": "0504cc1ddc4b4b329934a9c65cc7a95e", "is_disabled": 0, "rental_uris": {"android": "https://dc.lft.to/lastmile_qr_scan", "ios": "https://dc.lft.to/lastmile_qr_scan"}, "fusion_lon": 0.0, "lat": 38.93181766666667, "bike_id": "0504cc1ddc4b4b329934a9c65cc7a95e", "type": "electric_scooter", "is_reserved": 0, "lon": -77.03306516666666}, {"fusion_lat": 0.0, "name": "d3ffebe47d31bf908e56f4352541066a", "is_disabled": 0, "rental_uris": {"android": "https://dc.lft.to/lastmile_qr_scan", "ios": "https://dc.lft.to/lastmile_qr_scan"}, "fusion_lon": 0.0, "lat": 38.9048545, "bike_id": "d3ffebe47d31bf908e56f4352541066a", "type": "electric_scooter", "is_reserved": 0, "lon": -76.949678}, {"fusion_lat": 0.0, "name": "632015897659cb51c9c41bc3d2837d23", "is_disabled": 0, "rental_uris": {"android": "https://dc.lft.to/lastmile_qr_scan", "ios": "https://dc.lft.to/lastmile_qr_scan"}, "fusion_lon": 0.0, "lat": 38.91112916666667, "bike_id": "632015897659cb51c9c41bc3d2837d23", "type": "electric_scooter", "is_reserved": 0, "lon": -77.03832833333334}, {"fusion_lat": 0.0, "name": "dcd6bf686093ee853a67a2ee09875462", "is_disabled": 0, "rental_uris": {"android": "https://dc.lft.to/lastmile_qr_scan", "ios": "https://dc.lft.to/lastmile_qr_scan"}, "fusion_lon": 0.0, "lat": 38.914424833333335, "bike_id": "dcd6bf686093ee853a67a2ee09875462", "type": "electric_scooter", "is_reserved": 0, "lon": -77.04159683333333}, {"fusion_lat": 0.0, "name": "9607e5028ded7caa5eec51a439eb07fa", "is_disabled": 0, "rental_uris": {"android": "https://dc.lft.to/lastmile_qr_scan", "ios": "https://dc.lft.to/lastmile_qr_scan"}, "fusion_lon": 0.0, "lat": 38.86331066666666, "bike_id": "9607e5028ded7caa5eec51a439eb07fa", "type": "electric_bike", "is_reserved": 0, "lon": -76.98723}, {"fusion_lat": 0.0, "name": "76ab73e943f468baaefd93a6289cb036", "is_disabled": 0, "rental_uris": {"android": "https://dc.lft.to/lastmile_qr_scan", "ios": "https://dc.lft.to/lastmile_qr_scan"}, "fusion_lon": 0.0, "lat": 38.95635033333333, "bike_id": "76ab73e943f468baaefd93a6289cb036", "type": "electric_scooter", "is_reserved": 0, "lon": -77.033029}, {"fusion_lat": 0.0, "name": "0e2ede630c08630055d5c877617c9e31", "is_disabled": 0, "rental_uris": {"android": "https://dc.lft.to/lastmile_qr_scan", "ios": "https://dc.lft.to/lastmile_qr_scan"}, "fusion_lon": 0.0, "lat": 38.9026415, "bike_id": "0e2ede630c08630055d5c877617c9e31", "type": "electric_scooter", "is_reserved": 0, "lon": -77.01919883333333}, {"fusion_lat": 0.0, "name": "9a64a1d7025626d34d475c981cc6fa94", "is_disabled": 0, "rental_uris": {"android": "https://dc.lft.to/lastmile_qr_scan", "ios": "https://dc.lft.to/lastmile_qr_scan"}, "fusion_lon": 0.0, "lat": 38.90087, "bike_id": "9a64a1d7025626d34d475c981cc6fa94", "type": "electric_scooter", "is_reserved": 0, "lon": -77.0496245}, {"fusion_lat": 0.0, "name": "93146dc8c30404ff6114004265207c53", "is_disabled": 0, "rental_uris": {"android": "https://dc.lft.to/lastmile_qr_scan", "ios": "https://dc.lft.to/lastmile_qr_scan"}, "fusion_lon": 0.0, "lat": 38.94200633333333, "bike_id": "93146dc8c30404ff6114004265207c53", "type": "electric_scooter", "is_reserved": 0, "lon": -77.02585366666666}, {"fusion_lat": 0.0, "name": "dd17a7a3600c64fb661c79d2959e8d31", "is_disabled": 0, "rental_uris": {"android": "https://dc.lft.to/lastmile_qr_scan", "ios": "https://dc.lft.to/lastmile_qr_scan"}, "fusion_lon": 0.0, "lat": 38.910579166666665, "bike_id": "dd17a7a3600c64fb661c79d2959e8d31", "type": "electric_scooter", "is_reserved": 0, "lon": -77.04577516666667}, {"fusion_lat": 0.0, "name": "780f5c12576db0bd448a85e704d4cbfc", "is_disabled": 0, "rental_uris": {"android": "https://dc.lft.to/lastmile_qr_scan", "ios": "https://dc.lft.to/lastmile_qr_scan"}, "fusion_lon": 0.0, "lat": 38.89600166666666, "bike_id": "780f5c12576db0bd448a85e704d4cbfc", "type": "electric_scooter", "is_reserved": 0, "lon": -77.044975}, {"fusion_lat": 0.0, "name": "c7499fa30f836f71c1ce58c2450c8684", "is_disabled": 0, "rental_uris": {"android": "https://dc.lft.to/lastmile_qr_scan", "ios": "https://dc.lft.to/lastmile_qr_scan"}, "fusion_lon": 0.0, "lat": 38.884486833333334, "bike_id": "c7499fa30f836f71c1ce58c2450c8684", "type": "electric_scooter", "is_reserved": 0, "lon": -76.99389183333334}, {"fusion_lat": 0.0, "name": "4fa582870fd3fadc535fbe8640b7be5d", "is_disabled": 0, "rental_uris": {"android": "https://dc.lft.to/lastmile_qr_scan", "ios": "https://dc.lft.to/lastmile_qr_scan"}, "fusion_lon": 0.0, "lat": 38.90738733333333, "bike_id": "4fa582870fd3fadc535fbe8640b7be5d", "type": "electric_scooter", "is_reserved": 0, "lon": -77.00109766666667}, {"fusion_lat": 0.0, "name": "7b22b43e2322c10df826fc2904e821cf", "is_disabled": 0, "rental_uris": {"android": "https://dc.lft.to/lastmile_qr_scan", "ios": "https://dc.lft.to/lastmile_qr_scan"}, "fusion_lon": 0.0, "lat": 38.937439, "bike_id": "7b22b43e2322c10df826fc2904e821cf", "type": "electric_scooter", "is_reserved": 0, "lon": -77.03585683333333}, {"fusion_lat": 0.0, "name": "af79919fca736cd8e64010b38110927b", "is_disabled": 0, "rental_uris": {"android": "https://dc.lft.to/lastmile_qr_scan", "ios": "https://dc.lft.to/lastmile_qr_scan"}, "fusion_lon": 0.0, "lat": 38.806833, "bike_id": "af79919fca736cd8e64010b38110927b", "type": "electric_bike", "is_reserved": 0, "lon": -77.069203}, {"fusion_lat": 0.0, "name": "22b45739ce3036c89b536514b8c1d3ed", "is_disabled": 0, "rental_uris": {"android": "https://dc.lft.to/lastmile_qr_scan", "ios": "https://dc.lft.to/lastmile_qr_scan"}, "fusion_lon": 0.0, "lat": 38.91323833333333, "bike_id": "22b45739ce3036c89b536514b8c1d3ed", "type": "electric_scooter", "is_reserved": 0, "lon": -77.01033933333333}, {"fusion_lat": 0.0, "name": "d92996675b5c9702b65e14a2e10ba48b", "is_disabled": 0, "rental_uris": {"android": "https://dc.lft.to/lastmile_qr_scan", "ios": "https://dc.lft.to/lastmile_qr_scan"}, "fusion_lon": 0.0, "lat": 38.907042, "bike_id": "d92996675b5c9702b65e14a2e10ba48b", "type": "electric_scooter", "is_reserved": 0, "lon": -77.05052433333333}, {"fusion_lat": 0.0, "name": "c60109847c9e79b8c5748c51772f793a", "is_disabled": 0, "rental_uris": {"android": "https://dc.lft.to/lastmile_qr_scan", "ios": "https://dc.lft.to/lastmile_qr_scan"}, "fusion_lon": 0.0, "lat": 38.90491516666667, "bike_id": "c60109847c9e79b8c5748c51772f793a", "type": "electric_scooter", "is_reserved": 0, "lon": -77.0092755}, {"fusion_lat": 0.0, "name": "558e13965b72d4a27258f347a15a5422", "is_disabled": 0, "rental_uris": {"android": "https://dc.lft.to/lastmile_qr_scan", "ios": "https://dc.lft.to/lastmile_qr_scan"}, "fusion_lon": 0.0, "lat": 38.91509283333333, "bike_id": "558e13965b72d4a27258f347a15a5422", "type": "electric_scooter", "is_reserved": 0, "lon": -77.0159435}, {"fusion_lat": 0.0, "name": "87a4e9fc3732c57bc4fe1cf889320231", "is_disabled": 0, "rental_uris": {"android": "https://dc.lft.to/lastmile_qr_scan", "ios": "https://dc.lft.to/lastmile_qr_scan"}, "fusion_lon": 0.0, "lat": 38.90170466666667, "bike_id": "87a4e9fc3732c57bc4fe1cf889320231", "type": "electric_scooter", "is_reserved": 0, "lon": -76.99260933333333}, {"fusion_lat": 0.0, "name": "df71f53f02a0c78a633314589607c917", "is_disabled": 0, "rental_uris": {"android": "https://dc.lft.to/lastmile_qr_scan", "ios": "https://dc.lft.to/lastmile_qr_scan"}, "fusion_lon": 0.0, "lat": 38.90237183333333, "bike_id": "df71f53f02a0c78a633314589607c917", "type": "electric_scooter", "is_reserved": 0, "lon": -77.05327316666667}, {"fusion_lat": 0.0, "name": "66d1196b2ff077e117cf13eb7c7bc3ab", "is_disabled": 0, "rental_uris": {"android": "https://dc.lft.to/lastmile_qr_scan", "ios": "https://dc.lft.to/lastmile_qr_scan"}, "fusion_lon": 0.0, "lat": 38.91558666666667, "bike_id": "66d1196b2ff077e117cf13eb7c7bc3ab", "type": "electric_scooter", "is_reserved": 0, "lon": -77.03176766666667}, {"fusion_lat": 0.0, "name": "966c3467daa76e3a239b389f10502817", "is_disabled": 0, "rental_uris": {"android": "https://dc.lft.to/lastmile_qr_scan", "ios": "https://dc.lft.to/lastmile_qr_scan"}, "fusion_lon": 0.0, "lat": 38.902894, "bike_id": "966c3467daa76e3a239b389f10502817", "type": "electric_scooter", "is_reserved": 0, "lon": -77.01695533333333}, {"fusion_lat": 0.0, "name": "24693494656672bec53b54e153530030", "is_disabled": 0, "rental_uris": {"android": "https://dc.lft.to/lastmile_qr_scan", "ios": "https://dc.lft.to/lastmile_qr_scan"}, "fusion_lon": 0.0, "lat": 38.89530216666667, "bike_id": "24693494656672bec53b54e153530030", "type": "electric_scooter", "is_reserved": 0, "lon": -77.01098233333333}, {"fusion_lat": 0.0, "name": "a4c4e97bb47a5b9195caf097de5e16c2", "is_disabled": 0, "rental_uris": {"android": "https://dc.lft.to/lastmile_qr_scan", "ios": "https://dc.lft.to/lastmile_qr_scan"}, "fusion_lon": 0.0, "lat": 38.92176216666667, "bike_id": "a4c4e97bb47a5b9195caf097de5e16c2", "type": "electric_scooter", "is_reserved": 0, "lon": -77.02655716666666}, {"fusion_lat": 0.0, "name": "3734ec1623aa1a652625a5b17addb8be", "is_disabled": 0, "rental_uris": {"android": "https://dc.lft.to/lastmile_qr_scan", "ios": "https://dc.lft.to/lastmile_qr_scan"}, "fusion_lon": 0.0, "lat": 38.909514, "bike_id": "3734ec1623aa1a652625a5b17addb8be", "type": "electric_scooter", "is_reserved": 0, "lon": -77.02193416666667}, {"fusion_lat": 0.0, "name": "3bdc26bb663ce6492889933a9fabb23d", "is_disabled": 0, "rental_uris": {"android": "https://dc.lft.to/lastmile_qr_scan", "ios": "https://dc.lft.to/lastmile_qr_scan"}, "fusion_lon": 0.0, "lat": 38.90784283333333, "bike_id": "3bdc26bb663ce6492889933a9fabb23d", "type": "electric_scooter", "is_reserved": 0, "lon": -77.04352833333333}, {"fusion_lat": 0.0, "name": "ade281d9c6c0b6355267c4d0a168bf91", "is_disabled": 0, "rental_uris": {"android": "https://dc.lft.to/lastmile_qr_scan", "ios": "https://dc.lft.to/lastmile_qr_scan"}, "fusion_lon": 0.0, "lat": 38.8359685, "bike_id": "ade281d9c6c0b6355267c4d0a168bf91", "type": "electric_bike", "is_reserved": 0, "lon": -77.003795}, {"fusion_lat": 0.0, "name": "cecfb8f3e2d8a791829470c16eb4d327", "is_disabled": 0, "rental_uris": {"android": "https://dc.lft.to/lastmile_qr_scan", "ios": "https://dc.lft.to/lastmile_qr_scan"}, "fusion_lon": 0.0, "lat": 38.929845666666665, "bike_id": "cecfb8f3e2d8a791829470c16eb4d327", "type": "electric_scooter", "is_reserved": 0, "lon": -77.034732}, {"fusion_lat": 0.0, "name": "d2de59f555819ea336e4e6232730a215", "is_disabled": 0, "rental_uris": {"android": "https://dc.lft.to/lastmile_qr_scan", "ios": "https://dc.lft.to/lastmile_qr_scan"}, "fusion_lon": 0.0, "lat": 38.90025383333333, "bike_id": "d2de59f555819ea336e4e6232730a215", "type": "electric_scooter", "is_reserved": 0, "lon": -77.023873}, {"fusion_lat": 0.0, "name": "77c6f98eafdf49c583c73c29d63a0985", "is_disabled": 0, "rental_uris": {"android": "https://dc.lft.to/lastmile_qr_scan", "ios": "https://dc.lft.to/lastmile_qr_scan"}, "fusion_lon": 0.0, "lat": 38.930525, "bike_id": "77c6f98eafdf49c583c73c29d63a0985", "type": "electric_scooter", "is_reserved": 0, "lon": -77.03213533333333}, {"fusion_lat": 0.0, "name": "f92054278d1f28784818d2568e6b1f73", "is_disabled": 0, "rental_uris": {"android": "https://dc.lft.to/lastmile_qr_scan", "ios": "https://dc.lft.to/lastmile_qr_scan"}, "fusion_lon": 0.0, "lat": 38.8569825, "bike_id": "f92054278d1f28784818d2568e6b1f73", "type": "electric_scooter", "is_reserved": 0, "lon": -76.99584833333333}, {"fusion_lat": 0.0, "name": "c957132c1081102db6df6593e76f0409", "is_disabled": 0, "rental_uris": {"android": "https://dc.lft.to/lastmile_qr_scan", "ios": "https://dc.lft.to/lastmile_qr_scan"}, "fusion_lon": 0.0, "lat": 38.88799366666667, "bike_id": "c957132c1081102db6df6593e76f0409", "type": "electric_bike", "is_reserved": 0, "lon": -76.92996783333334}, {"fusion_lat": 0.0, "name": "c12e5c3b2da9e70d752ff67019da3964", "is_disabled": 0, "rental_uris": {"android": "https://dc.lft.to/lastmile_qr_scan", "ios": "https://dc.lft.to/lastmile_qr_scan"}, "fusion_lon": 0.0, "lat": 38.938698, "bike_id": "c12e5c3b2da9e70d752ff67019da3964", "type": "electric_bike", "is_reserved": 0, "lon": -77.02920416666667}, {"fusion_lat": 0.0, "name": "3f40841ba4c3a711602c6ae9ae7cee82", "is_disabled": 0, "rental_uris": {"android": "https://dc.lft.to/lastmile_qr_scan", "ios": "https://dc.lft.to/lastmile_qr_scan"}, "fusion_lon": 0.0, "lat": 38.897220833333336, "bike_id": "3f40841ba4c3a711602c6ae9ae7cee82", "type": "electric_scooter", "is_reserved": 0, "lon": -77.00761816666666}, {"fusion_lat": 0.0, "name": "b0e65a12d3d6ae2c295aef33d56dd2f0", "is_disabled": 0, "rental_uris": {"android": "https://dc.lft.to/lastmile_qr_scan", "ios": "https://dc.lft.to/lastmile_qr_scan"}, "fusion_lon": 0.0, "lat": 38.909458666666666, "bike_id": "b0e65a12d3d6ae2c295aef33d56dd2f0", "type": "electric_scooter", "is_reserved": 0, "lon": -76.98769716666666}, {"fusion_lat": 0.0, "name": "cdcd20eca57589d34fc80ba2711e5183", "is_disabled": 0, "rental_uris": {"android": "https://dc.lft.to/lastmile_qr_scan", "ios": "https://dc.lft.to/lastmile_qr_scan"}, "fusion_lon": 0.0, "lat": 38.903030666666666, "bike_id": "cdcd20eca57589d34fc80ba2711e5183", "type": "electric_scooter", "is_reserved": 0, "lon": -77.02902433333334}, {"fusion_lat": 0.0, "name": "a7749e4fdbec695215270df1e794355b", "is_disabled": 0, "rental_uris": {"android": "https://dc.lft.to/lastmile_qr_scan", "ios": "https://dc.lft.to/lastmile_qr_scan"}, "fusion_lon": 0.0, "lat": 38.894607, "bike_id": "a7749e4fdbec695215270df1e794355b", "type": "electric_scooter", "is_reserved": 0, "lon": -77.02126866666667}, {"fusion_lat": 0.0, "name": "38e8d5c69fd2cc68ccd9151d347a4d89", "is_disabled": 0, "rental_uris": {"android": "https://dc.lft.to/lastmile_qr_scan", "ios": "https://dc.lft.to/lastmile_qr_scan"}, "fusion_lon": 0.0, "lat": 38.884928, "bike_id": "38e8d5c69fd2cc68ccd9151d347a4d89", "type": "electric_scooter", "is_reserved": 0, "lon": -77.01084616666667}, {"fusion_lat": 0.0, "name": "44e84f7a85bbc42540a6e90a2734caed", "is_disabled": 0, "rental_uris": {"android": "https://dc.lft.to/lastmile_qr_scan", "ios": "https://dc.lft.to/lastmile_qr_scan"}, "fusion_lon": 0.0, "lat": 38.922763333333336, "bike_id": "44e84f7a85bbc42540a6e90a2734caed", "type": "electric_scooter", "is_reserved": 0, "lon": -76.9978605}, {"fusion_lat": 0.0, "name": "6f5d253f3b8f85a9b4f27bc57a0184f3", "is_disabled": 0, "rental_uris": {"android": "https://dc.lft.to/lastmile_qr_scan", "ios": "https://dc.lft.to/lastmile_qr_scan"}, "fusion_lon": 0.0, "lat": 38.90887, "bike_id": "6f5d253f3b8f85a9b4f27bc57a0184f3", "type": "electric_scooter", "is_reserved": 0, "lon": -77.036613}, {"fusion_lat": 0.0, "name": "1301bc26b118cf96ae9e8473c1f3d489", "is_disabled": 0, "rental_uris": {"android": "https://dc.lft.to/lastmile_qr_scan", "ios": "https://dc.lft.to/lastmile_qr_scan"}, "fusion_lon": 0.0, "lat": 38.88846366666667, "bike_id": "1301bc26b118cf96ae9e8473c1f3d489", "type": "electric_scooter", "is_reserved": 0, "lon": -76.92683233333334}, {"fusion_lat": 0.0, "name": "c5cce9f44a8e719ba513014aedd557a3", "is_disabled": 0, "rental_uris": {"android": "https://dc.lft.to/lastmile_qr_scan", "ios": "https://dc.lft.to/lastmile_qr_scan"}, "fusion_lon": 0.0, "lat": 38.913063, "bike_id": "c5cce9f44a8e719ba513014aedd557a3", "type": "electric_scooter", "is_reserved": 0, "lon": -77.03637966666666}, {"fusion_lat": 0.0, "name": "eb5ef96ddecc9b9933b1b2a8614ee94e", "is_disabled": 0, "rental_uris": {"android": "https://dc.lft.to/lastmile_qr_scan", "ios": "https://dc.lft.to/lastmile_qr_scan"}, "fusion_lon": 0.0, "lat": 38.905300833333335, "bike_id": "eb5ef96ddecc9b9933b1b2a8614ee94e", "type": "electric_scooter", "is_reserved": 0, "lon": -77.05873866666667}, {"fusion_lat": 0.0, "name": "92ed6f50d1e2352cfc024a29027b777b", "is_disabled": 0, "rental_uris": {"android": "https://dc.lft.to/lastmile_qr_scan", "ios": "https://dc.lft.to/lastmile_qr_scan"}, "fusion_lon": 0.0, "lat": 38.881421333333336, "bike_id": "92ed6f50d1e2352cfc024a29027b777b", "type": "electric_scooter", "is_reserved": 0, "lon": -76.99497333333333}, {"fusion_lat": 0.0, "name": "d282300bd08f74a070cd96ace64a537a", "is_disabled": 0, "rental_uris": {"android": "https://dc.lft.to/lastmile_qr_scan", "ios": "https://dc.lft.to/lastmile_qr_scan"}, "fusion_lon": 0.0, "lat": 38.8967545, "bike_id": "d282300bd08f74a070cd96ace64a537a", "type": "electric_scooter", "is_reserved": 0, "lon": -77.005553}, {"fusion_lat": 0.0, "name": "5d8063dd7c1661ef499118db103c9ae0", "is_disabled": 0, "rental_uris": {"android": "https://dc.lft.to/lastmile_qr_scan", "ios": "https://dc.lft.to/lastmile_qr_scan"}, "fusion_lon": 0.0, "lat": 38.88603283333333, "bike_id": "5d8063dd7c1661ef499118db103c9ae0", "type": "electric_scooter", "is_reserved": 0, "lon": -77.003387}, {"fusion_lat": 0.0, "name": "9ec0c2790ab2b7b00f3525223bfec40b", "is_disabled": 0, "rental_uris": {"android": "https://dc.lft.to/lastmile_qr_scan", "ios": "https://dc.lft.to/lastmile_qr_scan"}, "fusion_lon": 0.0, "lat": 38.9033305, "bike_id": "9ec0c2790ab2b7b00f3525223bfec40b", "type": "electric_scooter", "is_reserved": 0, "lon": -77.06668033333334}, {"fusion_lat": 0.0, "name": "e470a37ea1341815b15366057efbbb8f", "is_disabled": 0, "rental_uris": {"android": "https://dc.lft.to/lastmile_qr_scan", "ios": "https://dc.lft.to/lastmile_qr_scan"}, "fusion_lon": 0.0, "lat": 38.91402316666667, "bike_id": "e470a37ea1341815b15366057efbbb8f", "type": "electric_scooter", "is_reserved": 0, "lon": -77.0409805}, {"fusion_lat": 0.0, "name": "b4fc9a55122cf0c24f2ee3b4e51dcdb1", "is_disabled": 0, "rental_uris": {"android": "https://dc.lft.to/lastmile_qr_scan", "ios": "https://dc.lft.to/lastmile_qr_scan"}, "fusion_lon": 0.0, "lat": 38.906298166666666, "bike_id": "b4fc9a55122cf0c24f2ee3b4e51dcdb1", "type": "electric_scooter", "is_reserved": 0, "lon": -77.00671183333333}, {"fusion_lat": 0.0, "name": "9a478cf6df2ec5b626b985a71824639b", "is_disabled": 0, "rental_uris": {"android": "https://dc.lft.to/lastmile_qr_scan", "ios": "https://dc.lft.to/lastmile_qr_scan"}, "fusion_lon": 0.0, "lat": 38.96664466666667, "bike_id": "9a478cf6df2ec5b626b985a71824639b", "type": "electric_scooter", "is_reserved": 0, "lon": -77.02549866666666}, {"fusion_lat": 0.0, "name": "b478463ca99d6b71d559cdfac1d2bfea", "is_disabled": 0, "rental_uris": {"android": "https://dc.lft.to/lastmile_qr_scan", "ios": "https://dc.lft.to/lastmile_qr_scan"}, "fusion_lon": 0.0, "lat": 38.9269125, "bike_id": "b478463ca99d6b71d559cdfac1d2bfea", "type": "electric_scooter", "is_reserved": 0, "lon": -77.020908}, {"fusion_lat": 0.0, "name": "e41352adcc8a8d31d12e1abdbf0dc9e9", "is_disabled": 0, "rental_uris": {"android": "https://dc.lft.to/lastmile_qr_scan", "ios": "https://dc.lft.to/lastmile_qr_scan"}, "fusion_lon": 0.0, "lat": 38.931267, "bike_id": "e41352adcc8a8d31d12e1abdbf0dc9e9", "type": "electric_scooter", "is_reserved": 0, "lon": -77.02091283333333}, {"fusion_lat": 0.0, "name": "45b3bfb13492e2e20a048879ec7f825f", "is_disabled": 0, "rental_uris": {"android": "https://dc.lft.to/lastmile_qr_scan", "ios": "https://dc.lft.to/lastmile_qr_scan"}, "fusion_lon": 0.0, "lat": 38.93251433333333, "bike_id": "45b3bfb13492e2e20a048879ec7f825f", "type": "electric_scooter", "is_reserved": 0, "lon": -77.01921483333334}, {"fusion_lat": 0.0, "name": "b6c44979ba6aef3e65feeef5d4223c13", "is_disabled": 0, "rental_uris": {"android": "https://dc.lft.to/lastmile_qr_scan", "ios": "https://dc.lft.to/lastmile_qr_scan"}, "fusion_lon": 0.0, "lat": 38.915211666666664, "bike_id": "b6c44979ba6aef3e65feeef5d4223c13", "type": "electric_scooter", "is_reserved": 0, "lon": -77.0727655}, {"fusion_lat": 0.0, "name": "ed08f4790ca0120c74014d64e8e654a9", "is_disabled": 0, "rental_uris": {"android": "https://dc.lft.to/lastmile_qr_scan", "ios": "https://dc.lft.to/lastmile_qr_scan"}, "fusion_lon": 0.0, "lat": 38.90267933333333, "bike_id": "ed08f4790ca0120c74014d64e8e654a9", "type": "electric_scooter", "is_reserved": 0, "lon": -77.027103}, {"fusion_lat": 0.0, "name": "dd51b33d5be6e4a50aa23a84cf04fe7d", "is_disabled": 0, "rental_uris": {"android": "https://dc.lft.to/lastmile_qr_scan", "ios": "https://dc.lft.to/lastmile_qr_scan"}, "fusion_lon": 0.0, "lat": 38.939607, "bike_id": "dd51b33d5be6e4a50aa23a84cf04fe7d", "type": "electric_scooter", "is_reserved": 0, "lon": -77.03279866666666}, {"fusion_lat": 0.0, "name": "e0655a6d058da47f46fcfee3a95659fb", "is_disabled": 0, "rental_uris": {"android": "https://dc.lft.to/lastmile_qr_scan", "ios": "https://dc.lft.to/lastmile_qr_scan"}, "fusion_lon": 0.0, "lat": 38.89665883333333, "bike_id": "e0655a6d058da47f46fcfee3a95659fb", "type": "electric_scooter", "is_reserved": 0, "lon": -76.93211366666667}, {"fusion_lat": 0.0, "name": "a38b42db076bdefc158d44bd5f520073", "is_disabled": 0, "rental_uris": {"android": "https://dc.lft.to/lastmile_qr_scan", "ios": "https://dc.lft.to/lastmile_qr_scan"}, "fusion_lon": 0.0, "lat": 38.90930483333333, "bike_id": "a38b42db076bdefc158d44bd5f520073", "type": "electric_scooter", "is_reserved": 0, "lon": -77.06269983333334}, {"fusion_lat": 0.0, "name": "09a944d05dc3556c7db79b8f555bf719", "is_disabled": 0, "rental_uris": {"android": "https://dc.lft.to/lastmile_qr_scan", "ios": "https://dc.lft.to/lastmile_qr_scan"}, "fusion_lon": 0.0, "lat": 38.93485866666666, "bike_id": "09a944d05dc3556c7db79b8f555bf719", "type": "electric_scooter", "is_reserved": 0, "lon": -77.04524583333334}, {"fusion_lat": 0.0, "name": "6e51a519fc6693f9bfe0d344ba448f41", "is_disabled": 0, "rental_uris": {"android": "https://dc.lft.to/lastmile_qr_scan", "ios": "https://dc.lft.to/lastmile_qr_scan"}, "fusion_lon": 0.0, "lat": 38.905152666666666, "bike_id": "6e51a519fc6693f9bfe0d344ba448f41", "type": "electric_scooter", "is_reserved": 0, "lon": -77.06782683333333}, {"fusion_lat": 0.0, "name": "9f62986b0703a3a5737fee80f680cacb", "is_disabled": 0, "rental_uris": {"android": "https://dc.lft.to/lastmile_qr_scan", "ios": "https://dc.lft.to/lastmile_qr_scan"}, "fusion_lon": 0.0, "lat": 38.9247995, "bike_id": "9f62986b0703a3a5737fee80f680cacb", "type": "electric_bike", "is_reserved": 0, "lon": -77.23347933333334}, {"fusion_lat": 0.0, "name": "11c157fcbfe1c6a27d9244f9df9f3327", "is_disabled": 0, "rental_uris": {"android": "https://dc.lft.to/lastmile_qr_scan", "ios": "https://dc.lft.to/lastmile_qr_scan"}, "fusion_lon": 0.0, "lat": 38.887073666666666, "bike_id": "11c157fcbfe1c6a27d9244f9df9f3327", "type": "electric_scooter", "is_reserved": 0, "lon": -77.01776983333333}, {"fusion_lat": 0.0, "name": "136b6db5fa5130c9dd251d2b41c2280b", "is_disabled": 0, "rental_uris": {"android": "https://dc.lft.to/lastmile_qr_scan", "ios": "https://dc.lft.to/lastmile_qr_scan"}, "fusion_lon": 0.0, "lat": 38.920759833333335, "bike_id": "136b6db5fa5130c9dd251d2b41c2280b", "type": "electric_bike", "is_reserved": 0, "lon": -76.989459}, {"fusion_lat": 0.0, "name": "dbb509afb63f91349e74facf3140e3be", "is_disabled": 0, "rental_uris": {"android": "https://dc.lft.to/lastmile_qr_scan", "ios": "https://dc.lft.to/lastmile_qr_scan"}, "fusion_lon": 0.0, "lat": 38.88309983333333, "bike_id": "dbb509afb63f91349e74facf3140e3be", "type": "electric_scooter", "is_reserved": 0, "lon": -77.017646}, {"fusion_lat": 0.0, "name": "a796047dd38ba40537d95be77f1b1d0a", "is_disabled": 0, "rental_uris": {"android": "https://dc.lft.to/lastmile_qr_scan", "ios": "https://dc.lft.to/lastmile_qr_scan"}, "fusion_lon": 0.0, "lat": 38.887206166666665, "bike_id": "a796047dd38ba40537d95be77f1b1d0a", "type": "electric_scooter", "is_reserved": 0, "lon": -76.98358816666666}, {"fusion_lat": 0.0, "name": "fdd75e77d45f3de5db0d6a8e9cd22c29", "is_disabled": 0, "rental_uris": {"android": "https://dc.lft.to/lastmile_qr_scan", "ios": "https://dc.lft.to/lastmile_qr_scan"}, "fusion_lon": 0.0, "lat": 38.916297, "bike_id": "fdd75e77d45f3de5db0d6a8e9cd22c29", "type": "electric_scooter", "is_reserved": 0, "lon": -77.02810766666667}, {"fusion_lat": 0.0, "name": "e889e1d3302bca60ea4750102d53e761", "is_disabled": 0, "rental_uris": {"android": "https://dc.lft.to/lastmile_qr_scan", "ios": "https://dc.lft.to/lastmile_qr_scan"}, "fusion_lon": 0.0, "lat": 38.8996235, "bike_id": "e889e1d3302bca60ea4750102d53e761", "type": "electric_scooter", "is_reserved": 0, "lon": -76.9871085}, {"fusion_lat": 0.0, "name": "10294e9181b2c7813bbf6d27cb31be07", "is_disabled": 0, "rental_uris": {"android": "https://dc.lft.to/lastmile_qr_scan", "ios": "https://dc.lft.to/lastmile_qr_scan"}, "fusion_lon": 0.0, "lat": 38.927019333333334, "bike_id": "10294e9181b2c7813bbf6d27cb31be07", "type": "electric_scooter", "is_reserved": 0, "lon": -77.024065}, {"fusion_lat": 0.0, "name": "0a9cde7a685627280516e7d600cf904f", "is_disabled": 0, "rental_uris": {"android": "https://dc.lft.to/lastmile_qr_scan", "ios": "https://dc.lft.to/lastmile_qr_scan"}, "fusion_lon": 0.0, "lat": 38.88708533333333, "bike_id": "0a9cde7a685627280516e7d600cf904f", "type": "electric_scooter", "is_reserved": 0, "lon": -77.0177095}, {"fusion_lat": 0.0, "name": "b411d5ed1958e15ab866cc54b3f7933e", "is_disabled": 0, "rental_uris": {"android": "https://dc.lft.to/lastmile_qr_scan", "ios": "https://dc.lft.to/lastmile_qr_scan"}, "fusion_lon": 0.0, "lat": 38.94229283333333, "bike_id": "b411d5ed1958e15ab866cc54b3f7933e", "type": "electric_scooter", "is_reserved": 0, "lon": -77.01385266666666}, {"fusion_lat": 0.0, "name": "9f16246d222d83abd61929d6ff39b966", "is_disabled": 0, "rental_uris": {"android": "https://dc.lft.to/lastmile_qr_scan", "ios": "https://dc.lft.to/lastmile_qr_scan"}, "fusion_lon": 0.0, "lat": 38.88740166666667, "bike_id": "9f16246d222d83abd61929d6ff39b966", "type": "electric_scooter", "is_reserved": 0, "lon": -77.02379533333334}, {"fusion_lat": 0.0, "name": "3c537b37896ae43602b91cb1844c184c", "is_disabled": 0, "rental_uris": {"android": "https://dc.lft.to/lastmile_qr_scan", "ios": "https://dc.lft.to/lastmile_qr_scan"}, "fusion_lon": 0.0, "lat": 38.908438333333336, "bike_id": "3c537b37896ae43602b91cb1844c184c", "type": "electric_scooter", "is_reserved": 0, "lon": -77.063993}, {"fusion_lat": 0.0, "name": "8dda3c04b1684a04f1106cca2f5ce430", "is_disabled": 0, "rental_uris": {"android": "https://dc.lft.to/lastmile_qr_scan", "ios": "https://dc.lft.to/lastmile_qr_scan"}, "fusion_lon": 0.0, "lat": 38.960646833333335, "bike_id": "8dda3c04b1684a04f1106cca2f5ce430", "type": "electric_scooter", "is_reserved": 0, "lon": -77.00096866666667}, {"fusion_lat": 0.0, "name": "a177ebec054a1c12239706fb4307eb76", "is_disabled": 0, "rental_uris": {"android": "https://dc.lft.to/lastmile_qr_scan", "ios": "https://dc.lft.to/lastmile_qr_scan"}, "fusion_lon": 0.0, "lat": 38.85560233333333, "bike_id": "a177ebec054a1c12239706fb4307eb76", "type": "electric_bike", "is_reserved": 0, "lon": -77.11315916666666}, {"fusion_lat": 0.0, "name": "b379282ecf28ea242b7b71b724269cc4", "is_disabled": 0, "rental_uris": {"android": "https://dc.lft.to/lastmile_qr_scan", "ios": "https://dc.lft.to/lastmile_qr_scan"}, "fusion_lon": 0.0, "lat": 38.894539333333334, "bike_id": "b379282ecf28ea242b7b71b724269cc4", "type": "electric_scooter", "is_reserved": 0, "lon": -77.045458}, {"fusion_lat": 0.0, "name": "b33965d4b2e3a598c4924909382065f0", "is_disabled": 0, "rental_uris": {"android": "https://dc.lft.to/lastmile_qr_scan", "ios": "https://dc.lft.to/lastmile_qr_scan"}, "fusion_lon": 0.0, "lat": 38.88386833333333, "bike_id": "b33965d4b2e3a598c4924909382065f0", "type": "electric_scooter", "is_reserved": 0, "lon": -77.02986216666666}, {"fusion_lat": 0.0, "name": "dde3a0d90e887c3876525faeb083259c", "is_disabled": 0, "rental_uris": {"android": "https://dc.lft.to/lastmile_qr_scan", "ios": "https://dc.lft.to/lastmile_qr_scan"}, "fusion_lon": 0.0, "lat": 38.89730633333333, "bike_id": "dde3a0d90e887c3876525faeb083259c", "type": "electric_scooter", "is_reserved": 0, "lon": -76.947008}, {"fusion_lat": 0.0, "name": "a14cda5b165b19f89596647e6870f36b", "is_disabled": 0, "rental_uris": {"android": "https://dc.lft.to/lastmile_qr_scan", "ios": "https://dc.lft.to/lastmile_qr_scan"}, "fusion_lon": 0.0, "lat": 38.923420166666666, "bike_id": "a14cda5b165b19f89596647e6870f36b", "type": "electric_scooter", "is_reserved": 0, "lon": -76.99243316666667}, {"fusion_lat": 0.0, "name": "d45144b444fadf2c34752dc347458626", "is_disabled": 0, "rental_uris": {"android": "https://dc.lft.to/lastmile_qr_scan", "ios": "https://dc.lft.to/lastmile_qr_scan"}, "fusion_lon": 0.0, "lat": 38.901652166666665, "bike_id": "d45144b444fadf2c34752dc347458626", "type": "electric_scooter", "is_reserved": 0, "lon": -76.99263116666667}, {"fusion_lat": 0.0, "name": "c3bc0511e5ab0387754f66ffda0396d9", "is_disabled": 0, "rental_uris": {"android": "https://dc.lft.to/lastmile_qr_scan", "ios": "https://dc.lft.to/lastmile_qr_scan"}, "fusion_lon": 0.0, "lat": 38.94505383333333, "bike_id": "c3bc0511e5ab0387754f66ffda0396d9", "type": "electric_scooter", "is_reserved": 0, "lon": -77.03889766666667}, {"fusion_lat": 0.0, "name": "72378840cc9288817475fcbd3b89bf53", "is_disabled": 0, "rental_uris": {"android": "https://dc.lft.to/lastmile_qr_scan", "ios": "https://dc.lft.to/lastmile_qr_scan"}, "fusion_lon": 0.0, "lat": 38.8875225, "bike_id": "72378840cc9288817475fcbd3b89bf53", "type": "electric_scooter", "is_reserved": 0, "lon": -76.99784966666667}, {"fusion_lat": 0.0, "name": "42afc88d5d2430fafc3ddde3e1e767bc", "is_disabled": 0, "rental_uris": {"android": "https://dc.lft.to/lastmile_qr_scan", "ios": "https://dc.lft.to/lastmile_qr_scan"}, "fusion_lon": 0.0, "lat": 38.9005255, "bike_id": "42afc88d5d2430fafc3ddde3e1e767bc", "type": "electric_scooter", "is_reserved": 0, "lon": -77.0448285}, {"fusion_lat": 0.0, "name": "bf166d0d41b0e3aa2cd59abef2d4acd5", "is_disabled": 0, "rental_uris": {"android": "https://dc.lft.to/lastmile_qr_scan", "ios": "https://dc.lft.to/lastmile_qr_scan"}, "fusion_lon": 0.0, "lat": 38.936286333333335, "bike_id": "bf166d0d41b0e3aa2cd59abef2d4acd5", "type": "electric_scooter", "is_reserved": 0, "lon": -77.0731235}, {"fusion_lat": 0.0, "name": "14fb64623ec541cd291ff1191e516066", "is_disabled": 0, "rental_uris": {"android": "https://dc.lft.to/lastmile_qr_scan", "ios": "https://dc.lft.to/lastmile_qr_scan"}, "fusion_lon": 0.0, "lat": 38.91714733333333, "bike_id": "14fb64623ec541cd291ff1191e516066", "type": "electric_scooter", "is_reserved": 0, "lon": -77.027463}, {"fusion_lat": 0.0, "name": "9920771e285091f314a773948e03f448", "is_disabled": 0, "rental_uris": {"android": "https://dc.lft.to/lastmile_qr_scan", "ios": "https://dc.lft.to/lastmile_qr_scan"}, "fusion_lon": 0.0, "lat": 38.847553833333336, "bike_id": "9920771e285091f314a773948e03f448", "type": "electric_scooter", "is_reserved": 0, "lon": -76.99501083333334}, {"fusion_lat": 0.0, "name": "48b592830b92f68a2801803f3ed5f7f5", "is_disabled": 0, "rental_uris": {"android": "https://dc.lft.to/lastmile_qr_scan", "ios": "https://dc.lft.to/lastmile_qr_scan"}, "fusion_lon": 0.0, "lat": 38.9064815, "bike_id": "48b592830b92f68a2801803f3ed5f7f5", "type": "electric_scooter", "is_reserved": 0, "lon": -77.02416883333333}, {"fusion_lat": 0.0, "name": "79eda33ba95acf3dd7bc7c9aa245ca13", "is_disabled": 0, "rental_uris": {"android": "https://dc.lft.to/lastmile_qr_scan", "ios": "https://dc.lft.to/lastmile_qr_scan"}, "fusion_lon": 0.0, "lat": 38.962345666666664, "bike_id": "79eda33ba95acf3dd7bc7c9aa245ca13", "type": "electric_bike", "is_reserved": 0, "lon": -76.92779966666667}, {"fusion_lat": 0.0, "name": "645ea54b4b1cb8c234e2111d0e823d37", "is_disabled": 0, "rental_uris": {"android": "https://dc.lft.to/lastmile_qr_scan", "ios": "https://dc.lft.to/lastmile_qr_scan"}, "fusion_lon": 0.0, "lat": 38.924178166666664, "bike_id": "645ea54b4b1cb8c234e2111d0e823d37", "type": "electric_scooter", "is_reserved": 0, "lon": -77.022678}, {"fusion_lat": 0.0, "name": "1c6ad1f08d31c42e4e18798b7e27ca98", "is_disabled": 0, "rental_uris": {"android": "https://dc.lft.to/lastmile_qr_scan", "ios": "https://dc.lft.to/lastmile_qr_scan"}, "fusion_lon": 0.0, "lat": 38.956603, "bike_id": "1c6ad1f08d31c42e4e18798b7e27ca98", "type": "electric_bike", "is_reserved": 0, "lon": -77.011282}, {"fusion_lat": 0.0, "name": "d411ea8dfd75105ba48b803e7a446689", "is_disabled": 0, "rental_uris": {"android": "https://dc.lft.to/lastmile_qr_scan", "ios": "https://dc.lft.to/lastmile_qr_scan"}, "fusion_lon": 0.0, "lat": 38.9594585, "bike_id": "d411ea8dfd75105ba48b803e7a446689", "type": "electric_scooter", "is_reserved": 0, "lon": -77.008976}, {"fusion_lat": 0.0, "name": "bb8ad6665c674bea0c879b494d395e11", "is_disabled": 0, "rental_uris": {"android": "https://dc.lft.to/lastmile_qr_scan", "ios": "https://dc.lft.to/lastmile_qr_scan"}, "fusion_lon": 0.0, "lat": 38.942062, "bike_id": "bb8ad6665c674bea0c879b494d395e11", "type": "electric_scooter", "is_reserved": 0, "lon": -77.02587033333333}, {"fusion_lat": 0.0, "name": "087fa676e05b5c5c71c2738f9d105a1f", "is_disabled": 0, "rental_uris": {"android": "https://dc.lft.to/lastmile_qr_scan", "ios": "https://dc.lft.to/lastmile_qr_scan"}, "fusion_lon": 0.0, "lat": 38.91549116666667, "bike_id": "087fa676e05b5c5c71c2738f9d105a1f", "type": "electric_scooter", "is_reserved": 0, "lon": -77.03224833333333}, {"fusion_lat": 0.0, "name": "ca3ae4025b5266bcb63c95fdd95efb64", "is_disabled": 0, "rental_uris": {"android": "https://dc.lft.to/lastmile_qr_scan", "ios": "https://dc.lft.to/lastmile_qr_scan"}, "fusion_lon": 0.0, "lat": 38.9344025, "bike_id": "ca3ae4025b5266bcb63c95fdd95efb64", "type": "electric_scooter", "is_reserved": 0, "lon": -77.03869883333333}, {"fusion_lat": 0.0, "name": "2fd13ad859ea6d1fcb1a666731ac3144", "is_disabled": 0, "rental_uris": {"android": "https://dc.lft.to/lastmile_qr_scan", "ios": "https://dc.lft.to/lastmile_qr_scan"}, "fusion_lon": 0.0, "lat": 38.92399983333333, "bike_id": "2fd13ad859ea6d1fcb1a666731ac3144", "type": "electric_scooter", "is_reserved": 0, "lon": -77.035139}, {"fusion_lat": 0.0, "name": "5741d66a3d9b6d0267d25c968dd18d4c", "is_disabled": 0, "rental_uris": {"android": "https://dc.lft.to/lastmile_qr_scan", "ios": "https://dc.lft.to/lastmile_qr_scan"}, "fusion_lon": 0.0, "lat": 38.91542533333333, "bike_id": "5741d66a3d9b6d0267d25c968dd18d4c", "type": "electric_scooter", "is_reserved": 0, "lon": -77.03795833333334}, {"fusion_lat": 0.0, "name": "16f3551c4e02e4cb8299e137a02e58c6", "is_disabled": 0, "rental_uris": {"android": "https://dc.lft.to/lastmile_qr_scan", "ios": "https://dc.lft.to/lastmile_qr_scan"}, "fusion_lon": 0.0, "lat": 38.8795275, "bike_id": "16f3551c4e02e4cb8299e137a02e58c6", "type": "electric_scooter", "is_reserved": 0, "lon": -77.00842516666667}, {"fusion_lat": 0.0, "name": "19fab67d02a6c44f6f6236c88ad4ab7e", "is_disabled": 0, "rental_uris": {"android": "https://dc.lft.to/lastmile_qr_scan", "ios": "https://dc.lft.to/lastmile_qr_scan"}, "fusion_lon": 0.0, "lat": 38.90944266666666, "bike_id": "19fab67d02a6c44f6f6236c88ad4ab7e", "type": "electric_scooter", "is_reserved": 0, "lon": -77.022018}, {"fusion_lat": 0.0, "name": "bb097d5ca8b3bca9cf70656a3928e9c1", "is_disabled": 0, "rental_uris": {"android": "https://dc.lft.to/lastmile_qr_scan", "ios": "https://dc.lft.to/lastmile_qr_scan"}, "fusion_lon": 0.0, "lat": 38.91815866666666, "bike_id": "bb097d5ca8b3bca9cf70656a3928e9c1", "type": "electric_scooter", "is_reserved": 0, "lon": -77.03936733333333}, {"fusion_lat": 0.0, "name": "1dfbe0e26bd8411516cce91b46cc52c1", "is_disabled": 0, "rental_uris": {"android": "https://dc.lft.to/lastmile_qr_scan", "ios": "https://dc.lft.to/lastmile_qr_scan"}, "fusion_lon": 0.0, "lat": 38.92475183333333, "bike_id": "1dfbe0e26bd8411516cce91b46cc52c1", "type": "electric_scooter", "is_reserved": 0, "lon": -77.0265265}, {"fusion_lat": 0.0, "name": "32ad09b9d393e0e683b2b510c120f591", "is_disabled": 0, "rental_uris": {"android": "https://dc.lft.to/lastmile_qr_scan", "ios": "https://dc.lft.to/lastmile_qr_scan"}, "fusion_lon": 0.0, "lat": 38.89805483333333, "bike_id": "32ad09b9d393e0e683b2b510c120f591", "type": "electric_scooter", "is_reserved": 0, "lon": -77.02394883333334}, {"fusion_lat": 0.0, "name": "ca5af906e10860175480395396000d0a", "is_disabled": 0, "rental_uris": {"android": "https://dc.lft.to/lastmile_qr_scan", "ios": "https://dc.lft.to/lastmile_qr_scan"}, "fusion_lon": 0.0, "lat": 38.9057475, "bike_id": "ca5af906e10860175480395396000d0a", "type": "electric_scooter", "is_reserved": 0, "lon": -77.04174216666667}, {"fusion_lat": 0.0, "name": "5206ec7df550387994b1c72e6a24d94b", "is_disabled": 0, "rental_uris": {"android": "https://dc.lft.to/lastmile_qr_scan", "ios": "https://dc.lft.to/lastmile_qr_scan"}, "fusion_lon": 0.0, "lat": 38.91313916666667, "bike_id": "5206ec7df550387994b1c72e6a24d94b", "type": "electric_scooter", "is_reserved": 0, "lon": -77.04559733333333}, {"fusion_lat": 0.0, "name": "8026940c292c340693979d7e27bda74c", "is_disabled": 0, "rental_uris": {"android": "https://dc.lft.to/lastmile_qr_scan", "ios": "https://dc.lft.to/lastmile_qr_scan"}, "fusion_lon": 0.0, "lat": 38.90656716666667, "bike_id": "8026940c292c340693979d7e27bda74c", "type": "electric_scooter", "is_reserved": 0, "lon": -77.00903733333334}, {"fusion_lat": 0.0, "name": "062516be3f9e6021193348f6c8bb7f96", "is_disabled": 0, "rental_uris": {"android": "https://dc.lft.to/lastmile_qr_scan", "ios": "https://dc.lft.to/lastmile_qr_scan"}, "fusion_lon": 0.0, "lat": 38.866787333333335, "bike_id": "062516be3f9e6021193348f6c8bb7f96", "type": "electric_bike", "is_reserved": 0, "lon": -76.982385}, {"fusion_lat": 0.0, "name": "ec0491c1223f60d23b5e2ffb356b68ef", "is_disabled": 0, "rental_uris": {"android": "https://dc.lft.to/lastmile_qr_scan", "ios": "https://dc.lft.to/lastmile_qr_scan"}, "fusion_lon": 0.0, "lat": 38.841973833333334, "bike_id": "ec0491c1223f60d23b5e2ffb356b68ef", "type": "electric_bike", "is_reserved": 0, "lon": -77.07752216666667}, {"fusion_lat": 0.0, "name": "2618f7b0eea1aa25658d3672335e7238", "is_disabled": 0, "rental_uris": {"android": "https://dc.lft.to/lastmile_qr_scan", "ios": "https://dc.lft.to/lastmile_qr_scan"}, "fusion_lon": 0.0, "lat": 38.88402083333333, "bike_id": "2618f7b0eea1aa25658d3672335e7238", "type": "electric_scooter", "is_reserved": 0, "lon": -76.93043416666667}, {"fusion_lat": 0.0, "name": "76d29cfe651bc805f20aa5242a943e1f", "is_disabled": 0, "rental_uris": {"android": "https://dc.lft.to/lastmile_qr_scan", "ios": "https://dc.lft.to/lastmile_qr_scan"}, "fusion_lon": 0.0, "lat": 38.862582333333336, "bike_id": "76d29cfe651bc805f20aa5242a943e1f", "type": "electric_bike", "is_reserved": 0, "lon": -76.9835345}, {"fusion_lat": 0.0, "name": "aa3dd3b84c51355d03139f7d0d987742", "is_disabled": 0, "rental_uris": {"android": "https://dc.lft.to/lastmile_qr_scan", "ios": "https://dc.lft.to/lastmile_qr_scan"}, "fusion_lon": 0.0, "lat": 38.88297566666667, "bike_id": "aa3dd3b84c51355d03139f7d0d987742", "type": "electric_scooter", "is_reserved": 0, "lon": -77.0138495}, {"fusion_lat": 0.0, "name": "7bb5d677994c2e04af71327666d47071", "is_disabled": 0, "rental_uris": {"android": "https://dc.lft.to/lastmile_qr_scan", "ios": "https://dc.lft.to/lastmile_qr_scan"}, "fusion_lon": 0.0, "lat": 38.91015483333334, "bike_id": "7bb5d677994c2e04af71327666d47071", "type": "electric_scooter", "is_reserved": 0, "lon": -77.05286333333333}, {"fusion_lat": 0.0, "name": "bb54fe2d75d299ab8b0e076b23f0ac1a", "is_disabled": 0, "rental_uris": {"android": "https://dc.lft.to/lastmile_qr_scan", "ios": "https://dc.lft.to/lastmile_qr_scan"}, "fusion_lon": 0.0, "lat": 38.966352, "bike_id": "bb54fe2d75d299ab8b0e076b23f0ac1a", "type": "electric_bike", "is_reserved": 0, "lon": -77.02757083333333}, {"fusion_lat": 0.0, "name": "e66c62826ba913d448bd596002a28cde", "is_disabled": 0, "rental_uris": {"android": "https://dc.lft.to/lastmile_qr_scan", "ios": "https://dc.lft.to/lastmile_qr_scan"}, "fusion_lon": 0.0, "lat": 38.90384666666667, "bike_id": "e66c62826ba913d448bd596002a28cde", "type": "electric_scooter", "is_reserved": 0, "lon": -77.06723566666666}, {"fusion_lat": 0.0, "name": "64c7452722194075e10c6a83b86f69f4", "is_disabled": 0, "rental_uris": {"android": "https://dc.lft.to/lastmile_qr_scan", "ios": "https://dc.lft.to/lastmile_qr_scan"}, "fusion_lon": 0.0, "lat": 38.9051585, "bike_id": "64c7452722194075e10c6a83b86f69f4", "type": "electric_scooter", "is_reserved": 0, "lon": -77.0677575}, {"fusion_lat": 0.0, "name": "43c258b255617810a15887df0f5ac0ce", "is_disabled": 0, "rental_uris": {"android": "https://dc.lft.to/lastmile_qr_scan", "ios": "https://dc.lft.to/lastmile_qr_scan"}, "fusion_lon": 0.0, "lat": 38.937784, "bike_id": "43c258b255617810a15887df0f5ac0ce", "type": "electric_scooter", "is_reserved": 0, "lon": -77.02331016666666}, {"fusion_lat": 0.0, "name": "e7ed5d022214809426de6665e53d74fb", "is_disabled": 0, "rental_uris": {"android": "https://dc.lft.to/lastmile_qr_scan", "ios": "https://dc.lft.to/lastmile_qr_scan"}, "fusion_lon": 0.0, "lat": 38.894744833333334, "bike_id": "e7ed5d022214809426de6665e53d74fb", "type": "electric_scooter", "is_reserved": 0, "lon": -77.0103735}, {"fusion_lat": 0.0, "name": "2f1bd643326719cc43d17553b69ca012", "is_disabled": 0, "rental_uris": {"android": "https://dc.lft.to/lastmile_qr_scan", "ios": "https://dc.lft.to/lastmile_qr_scan"}, "fusion_lon": 0.0, "lat": 38.93522333333333, "bike_id": "2f1bd643326719cc43d17553b69ca012", "type": "electric_scooter", "is_reserved": 0, "lon": -77.03086533333334}, {"fusion_lat": 0.0, "name": "d8df68bcdb6d63f16dcf93ea384e0776", "is_disabled": 0, "rental_uris": {"android": "https://dc.lft.to/lastmile_qr_scan", "ios": "https://dc.lft.to/lastmile_qr_scan"}, "fusion_lon": 0.0, "lat": 38.909544, "bike_id": "d8df68bcdb6d63f16dcf93ea384e0776", "type": "electric_scooter", "is_reserved": 0, "lon": -77.023796}, {"fusion_lat": 0.0, "name": "896ef897d9592c21bbf253489ea90897", "is_disabled": 0, "rental_uris": {"android": "https://dc.lft.to/lastmile_qr_scan", "ios": "https://dc.lft.to/lastmile_qr_scan"}, "fusion_lon": 0.0, "lat": 38.92280683333333, "bike_id": "896ef897d9592c21bbf253489ea90897", "type": "electric_scooter", "is_reserved": 0, "lon": -77.04236166666666}, {"fusion_lat": 0.0, "name": "3a673b84b9169ea9cbf9f1adc640d2e2", "is_disabled": 0, "rental_uris": {"android": "https://dc.lft.to/lastmile_qr_scan", "ios": "https://dc.lft.to/lastmile_qr_scan"}, "fusion_lon": 0.0, "lat": 38.91414183333333, "bike_id": "3a673b84b9169ea9cbf9f1adc640d2e2", "type": "electric_scooter", "is_reserved": 0, "lon": -77.0343925}, {"fusion_lat": 0.0, "name": "9bdd39fe76b3fbb3aac59ca991e8bd8e", "is_disabled": 0, "rental_uris": {"android": "https://dc.lft.to/lastmile_qr_scan", "ios": "https://dc.lft.to/lastmile_qr_scan"}, "fusion_lon": 0.0, "lat": 38.91266366666667, "bike_id": "9bdd39fe76b3fbb3aac59ca991e8bd8e", "type": "electric_scooter", "is_reserved": 0, "lon": -77.01983983333334}, {"fusion_lat": 0.0, "name": "a6ecc5c52899cb05fd416677c8db8503", "is_disabled": 0, "rental_uris": {"android": "https://dc.lft.to/lastmile_qr_scan", "ios": "https://dc.lft.to/lastmile_qr_scan"}, "fusion_lon": 0.0, "lat": 38.9797425, "bike_id": "a6ecc5c52899cb05fd416677c8db8503", "type": "electric_scooter", "is_reserved": 0, "lon": -77.02635916666667}, {"fusion_lat": 0.0, "name": "f3b6f99c7765450b8d7c0a545b6da251", "is_disabled": 0, "rental_uris": {"android": "https://dc.lft.to/lastmile_qr_scan", "ios": "https://dc.lft.to/lastmile_qr_scan"}, "fusion_lon": 0.0, "lat": 38.83307383333333, "bike_id": "f3b6f99c7765450b8d7c0a545b6da251", "type": "electric_bike", "is_reserved": 0, "lon": -77.041771}, {"fusion_lat": 0.0, "name": "9be706df8a78fc8d03d3989aeb1fc936", "is_disabled": 0, "rental_uris": {"android": "https://dc.lft.to/lastmile_qr_scan", "ios": "https://dc.lft.to/lastmile_qr_scan"}, "fusion_lon": 0.0, "lat": 38.9176635, "bike_id": "9be706df8a78fc8d03d3989aeb1fc936", "type": "electric_scooter", "is_reserved": 0, "lon": -77.04097183333333}, {"fusion_lat": 0.0, "name": "dda0675b04e4159fbbc199ef737379ec", "is_disabled": 0, "rental_uris": {"android": "https://dc.lft.to/lastmile_qr_scan", "ios": "https://dc.lft.to/lastmile_qr_scan"}, "fusion_lon": 0.0, "lat": 38.94523016666667, "bike_id": "dda0675b04e4159fbbc199ef737379ec", "type": "electric_scooter", "is_reserved": 0, "lon": -77.02268783333334}, {"fusion_lat": 0.0, "name": "c076dcdfa28d2eb50960f7ef9de8daed", "is_disabled": 0, "rental_uris": {"android": "https://dc.lft.to/lastmile_qr_scan", "ios": "https://dc.lft.to/lastmile_qr_scan"}, "fusion_lon": 0.0, "lat": 38.9151985, "bike_id": "c076dcdfa28d2eb50960f7ef9de8daed", "type": "electric_scooter", "is_reserved": 0, "lon": -77.02691916666667}, {"fusion_lat": 0.0, "name": "8935b702bdbaf7ec73053188a10e2eb6", "is_disabled": 0, "rental_uris": {"android": "https://dc.lft.to/lastmile_qr_scan", "ios": "https://dc.lft.to/lastmile_qr_scan"}, "fusion_lon": 0.0, "lat": 38.89013116666667, "bike_id": "8935b702bdbaf7ec73053188a10e2eb6", "type": "electric_scooter", "is_reserved": 0, "lon": -76.9373485}, {"fusion_lat": 0.0, "name": "260df5c61b041946340e77b118698a14", "is_disabled": 0, "rental_uris": {"android": "https://dc.lft.to/lastmile_qr_scan", "ios": "https://dc.lft.to/lastmile_qr_scan"}, "fusion_lon": 0.0, "lat": 38.87704333333333, "bike_id": "260df5c61b041946340e77b118698a14", "type": "electric_scooter", "is_reserved": 0, "lon": -76.99383466666667}, {"fusion_lat": 0.0, "name": "2d4a5908c992f040a1e88b6dae26ed11", "is_disabled": 0, "rental_uris": {"android": "https://dc.lft.to/lastmile_qr_scan", "ios": "https://dc.lft.to/lastmile_qr_scan"}, "fusion_lon": 0.0, "lat": 38.923051, "bike_id": "2d4a5908c992f040a1e88b6dae26ed11", "type": "electric_scooter", "is_reserved": 0, "lon": -77.0365845}, {"fusion_lat": 0.0, "name": "02a39ab7b8227e5a0b3f142b71e3cc27", "is_disabled": 0, "rental_uris": {"android": "https://dc.lft.to/lastmile_qr_scan", "ios": "https://dc.lft.to/lastmile_qr_scan"}, "fusion_lon": 0.0, "lat": 38.9839025, "bike_id": "02a39ab7b8227e5a0b3f142b71e3cc27", "type": "electric_scooter", "is_reserved": 0, "lon": -77.02634216666667}, {"fusion_lat": 0.0, "name": "a1387fa5ab1035bccfda501deb4b6e08", "is_disabled": 0, "rental_uris": {"android": "https://dc.lft.to/lastmile_qr_scan", "ios": "https://dc.lft.to/lastmile_qr_scan"}, "fusion_lon": 0.0, "lat": 38.94493133333334, "bike_id": "a1387fa5ab1035bccfda501deb4b6e08", "type": "electric_scooter", "is_reserved": 0, "lon": -77.03878}, {"fusion_lat": 0.0, "name": "fc423bb78a69d4dfdb3ecc206d9c16bc", "is_disabled": 0, "rental_uris": {"android": "https://dc.lft.to/lastmile_qr_scan", "ios": "https://dc.lft.to/lastmile_qr_scan"}, "fusion_lon": 0.0, "lat": 38.895709833333335, "bike_id": "fc423bb78a69d4dfdb3ecc206d9c16bc", "type": "electric_scooter", "is_reserved": 0, "lon": -76.94881133333334}, {"fusion_lat": 0.0, "name": "c620d01f56c02346eee4e1920197f3a6", "is_disabled": 0, "rental_uris": {"android": "https://dc.lft.to/lastmile_qr_scan", "ios": "https://dc.lft.to/lastmile_qr_scan"}, "fusion_lon": 0.0, "lat": 38.91826616666667, "bike_id": "c620d01f56c02346eee4e1920197f3a6", "type": "electric_scooter", "is_reserved": 0, "lon": -77.0402115}, {"fusion_lat": 0.0, "name": "5f62e071566b5382d6568cb914a5deee", "is_disabled": 0, "rental_uris": {"android": "https://dc.lft.to/lastmile_qr_scan", "ios": "https://dc.lft.to/lastmile_qr_scan"}, "fusion_lon": 0.0, "lat": 38.917112833333334, "bike_id": "5f62e071566b5382d6568cb914a5deee", "type": "electric_scooter", "is_reserved": 0, "lon": -77.0347015}, {"fusion_lat": 0.0, "name": "512066cd9b096df21b6a00b35a848e89", "is_disabled": 0, "rental_uris": {"android": "https://dc.lft.to/lastmile_qr_scan", "ios": "https://dc.lft.to/lastmile_qr_scan"}, "fusion_lon": 0.0, "lat": 38.8840105, "bike_id": "512066cd9b096df21b6a00b35a848e89", "type": "electric_scooter", "is_reserved": 0, "lon": -77.025731}, {"fusion_lat": 0.0, "name": "a0a0492e681f680bf7d0ab078c997690", "is_disabled": 0, "rental_uris": {"android": "https://dc.lft.to/lastmile_qr_scan", "ios": "https://dc.lft.to/lastmile_qr_scan"}, "fusion_lon": 0.0, "lat": 38.92828766666667, "bike_id": "a0a0492e681f680bf7d0ab078c997690", "type": "electric_scooter", "is_reserved": 0, "lon": -77.0135515}, {"fusion_lat": 0.0, "name": "dc441b34e5326332019736b6a28bdf51", "is_disabled": 0, "rental_uris": {"android": "https://dc.lft.to/lastmile_qr_scan", "ios": "https://dc.lft.to/lastmile_qr_scan"}, "fusion_lon": 0.0, "lat": 38.929488, "bike_id": "dc441b34e5326332019736b6a28bdf51", "type": "electric_scooter", "is_reserved": 0, "lon": -77.03473733333334}, {"fusion_lat": 0.0, "name": "50c4d4ef834dee0c5900b7b32d02d246", "is_disabled": 0, "rental_uris": {"android": "https://dc.lft.to/lastmile_qr_scan", "ios": "https://dc.lft.to/lastmile_qr_scan"}, "fusion_lon": 0.0, "lat": 38.842804666666666, "bike_id": "50c4d4ef834dee0c5900b7b32d02d246", "type": "electric_bike", "is_reserved": 0, "lon": -77.0450245}, {"fusion_lat": 0.0, "name": "cf86cb74a9b85df1b26711a952f6f10c", "is_disabled": 0, "rental_uris": {"android": "https://dc.lft.to/lastmile_qr_scan", "ios": "https://dc.lft.to/lastmile_qr_scan"}, "fusion_lon": 0.0, "lat": 38.92295, "bike_id": "cf86cb74a9b85df1b26711a952f6f10c", "type": "electric_scooter", "is_reserved": 0, "lon": -77.01822783333333}, {"fusion_lat": 0.0, "name": "3055998503f633d05cbebc114f7031fa", "is_disabled": 0, "rental_uris": {"android": "https://dc.lft.to/lastmile_qr_scan", "ios": "https://dc.lft.to/lastmile_qr_scan"}, "fusion_lon": 0.0, "lat": 38.89561233333333, "bike_id": "3055998503f633d05cbebc114f7031fa", "type": "electric_bike", "is_reserved": 0, "lon": -77.127366}, {"fusion_lat": 0.0, "name": "2e445271fcbbf9550986dd9243ec2e3a", "is_disabled": 0, "rental_uris": {"android": "https://dc.lft.to/lastmile_qr_scan", "ios": "https://dc.lft.to/lastmile_qr_scan"}, "fusion_lon": 0.0, "lat": 38.911282666666665, "bike_id": "2e445271fcbbf9550986dd9243ec2e3a", "type": "electric_scooter", "is_reserved": 0, "lon": -77.01052366666667}, {"fusion_lat": 0.0, "name": "c746d85030209040b47d8c9b7d1ad73d", "is_disabled": 0, "rental_uris": {"android": "https://dc.lft.to/lastmile_qr_scan", "ios": "https://dc.lft.to/lastmile_qr_scan"}, "fusion_lon": 0.0, "lat": 38.85309216666667, "bike_id": "c746d85030209040b47d8c9b7d1ad73d", "type": "electric_bike", "is_reserved": 0, "lon": -77.046108}, {"fusion_lat": 0.0, "name": "6590a35cffee12da7309d2fb55640deb", "is_disabled": 0, "rental_uris": {"android": "https://dc.lft.to/lastmile_qr_scan", "ios": "https://dc.lft.to/lastmile_qr_scan"}, "fusion_lon": 0.0, "lat": 38.92100583333333, "bike_id": "6590a35cffee12da7309d2fb55640deb", "type": "electric_scooter", "is_reserved": 0, "lon": -77.07475016666666}, {"fusion_lat": 0.0, "name": "3418d93ff9f975f0782c7f3ba32dcf35", "is_disabled": 0, "rental_uris": {"android": "https://dc.lft.to/lastmile_qr_scan", "ios": "https://dc.lft.to/lastmile_qr_scan"}, "fusion_lon": 0.0, "lat": 38.8986735, "bike_id": "3418d93ff9f975f0782c7f3ba32dcf35", "type": "electric_scooter", "is_reserved": 0, "lon": -77.0202715}, {"fusion_lat": 0.0, "name": "504a2d9a1e8e12a3f5064e5fc6861e0d", "is_disabled": 0, "rental_uris": {"android": "https://dc.lft.to/lastmile_qr_scan", "ios": "https://dc.lft.to/lastmile_qr_scan"}, "fusion_lon": 0.0, "lat": 38.900101166666666, "bike_id": "504a2d9a1e8e12a3f5064e5fc6861e0d", "type": "electric_scooter", "is_reserved": 0, "lon": -77.044786}, {"fusion_lat": 0.0, "name": "21ed88a9a3bd6280dee86b950872d4af", "is_disabled": 0, "rental_uris": {"android": "https://dc.lft.to/lastmile_qr_scan", "ios": "https://dc.lft.to/lastmile_qr_scan"}, "fusion_lon": 0.0, "lat": 38.907732833333334, "bike_id": "21ed88a9a3bd6280dee86b950872d4af", "type": "electric_scooter", "is_reserved": 0, "lon": -77.04258383333334}, {"fusion_lat": 0.0, "name": "415ff7ef0f06d6f67e4bfa6405628587", "is_disabled": 0, "rental_uris": {"android": "https://dc.lft.to/lastmile_qr_scan", "ios": "https://dc.lft.to/lastmile_qr_scan"}, "fusion_lon": 0.0, "lat": 38.9231835, "bike_id": "415ff7ef0f06d6f67e4bfa6405628587", "type": "electric_scooter", "is_reserved": 0, "lon": -77.0536395}, {"fusion_lat": 0.0, "name": "2c0f11c2d87dfd42e62e4bdd44bba56a", "is_disabled": 0, "rental_uris": {"android": "https://dc.lft.to/lastmile_qr_scan", "ios": "https://dc.lft.to/lastmile_qr_scan"}, "fusion_lon": 0.0, "lat": 38.9280705, "bike_id": "2c0f11c2d87dfd42e62e4bdd44bba56a", "type": "electric_scooter", "is_reserved": 0, "lon": -77.043658}, {"fusion_lat": 0.0, "name": "542714e5a218758f6400902be0922c92", "is_disabled": 0, "rental_uris": {"android": "https://dc.lft.to/lastmile_qr_scan", "ios": "https://dc.lft.to/lastmile_qr_scan"}, "fusion_lon": 0.0, "lat": 38.905089833333335, "bike_id": "542714e5a218758f6400902be0922c92", "type": "electric_scooter", "is_reserved": 0, "lon": -77.04821766666667}, {"fusion_lat": 0.0, "name": "68cb51001a3568a1fcedc1c4337d1f83", "is_disabled": 0, "rental_uris": {"android": "https://dc.lft.to/lastmile_qr_scan", "ios": "https://dc.lft.to/lastmile_qr_scan"}, "fusion_lon": 0.0, "lat": 38.9000155, "bike_id": "68cb51001a3568a1fcedc1c4337d1f83", "type": "electric_scooter", "is_reserved": 0, "lon": -77.00368116666667}, {"fusion_lat": 0.0, "name": "ca5227f6c6e3e3476d5920ce133c6162", "is_disabled": 0, "rental_uris": {"android": "https://dc.lft.to/lastmile_qr_scan", "ios": "https://dc.lft.to/lastmile_qr_scan"}, "fusion_lon": 0.0, "lat": 38.8788505, "bike_id": "ca5227f6c6e3e3476d5920ce133c6162", "type": "electric_scooter", "is_reserved": 0, "lon": -77.007215}, {"fusion_lat": 0.0, "name": "c631072700286adee799e6d818054f22", "is_disabled": 0, "rental_uris": {"android": "https://dc.lft.to/lastmile_qr_scan", "ios": "https://dc.lft.to/lastmile_qr_scan"}, "fusion_lon": 0.0, "lat": 38.901146833333335, "bike_id": "c631072700286adee799e6d818054f22", "type": "electric_scooter", "is_reserved": 0, "lon": -76.97423716666667}, {"fusion_lat": 0.0, "name": "da0ba47af0872a52044450f6f2473e97", "is_disabled": 0, "rental_uris": {"android": "https://dc.lft.to/lastmile_qr_scan", "ios": "https://dc.lft.to/lastmile_qr_scan"}, "fusion_lon": 0.0, "lat": 38.882845333333336, "bike_id": "da0ba47af0872a52044450f6f2473e97", "type": "electric_scooter", "is_reserved": 0, "lon": -77.031286}, {"fusion_lat": 0.0, "name": "e017d945db60c5560b37ce3acd593359", "is_disabled": 0, "rental_uris": {"android": "https://dc.lft.to/lastmile_qr_scan", "ios": "https://dc.lft.to/lastmile_qr_scan"}, "fusion_lon": 0.0, "lat": 38.8956155, "bike_id": "e017d945db60c5560b37ce3acd593359", "type": "electric_bike", "is_reserved": 0, "lon": -77.12738833333333}, {"fusion_lat": 0.0, "name": "f24e1db9e92d64624fc52773f5e83b03", "is_disabled": 0, "rental_uris": {"android": "https://dc.lft.to/lastmile_qr_scan", "ios": "https://dc.lft.to/lastmile_qr_scan"}, "fusion_lon": 0.0, "lat": 38.900665833333335, "bike_id": "f24e1db9e92d64624fc52773f5e83b03", "type": "electric_scooter", "is_reserved": 0, "lon": -76.93387033333333}, {"fusion_lat": 0.0, "name": "aa818859e47052da32d14ea911c086d2", "is_disabled": 0, "rental_uris": {"android": "https://dc.lft.to/lastmile_qr_scan", "ios": "https://dc.lft.to/lastmile_qr_scan"}, "fusion_lon": 0.0, "lat": 38.942829, "bike_id": "aa818859e47052da32d14ea911c086d2", "type": "electric_scooter", "is_reserved": 0, "lon": -77.0200085}, {"fusion_lat": 0.0, "name": "f1cd1e0cb5fc4e87383dc4528907ae37", "is_disabled": 0, "rental_uris": {"android": "https://dc.lft.to/lastmile_qr_scan", "ios": "https://dc.lft.to/lastmile_qr_scan"}, "fusion_lon": 0.0, "lat": 38.89968366666667, "bike_id": "f1cd1e0cb5fc4e87383dc4528907ae37", "type": "electric_scooter", "is_reserved": 0, "lon": -77.02210366666667}, {"fusion_lat": 0.0, "name": "6ca33b9940816b0102c76772f828e45b", "is_disabled": 0, "rental_uris": {"android": "https://dc.lft.to/lastmile_qr_scan", "ios": "https://dc.lft.to/lastmile_qr_scan"}, "fusion_lon": 0.0, "lat": 38.8961145, "bike_id": "6ca33b9940816b0102c76772f828e45b", "type": "electric_scooter", "is_reserved": 0, "lon": -77.050584}, {"fusion_lat": 0.0, "name": "71ae294c38dcb7b99893fe745ca01fd3", "is_disabled": 0, "rental_uris": {"android": "https://dc.lft.to/lastmile_qr_scan", "ios": "https://dc.lft.to/lastmile_qr_scan"}, "fusion_lon": 0.0, "lat": 38.937469666666665, "bike_id": "71ae294c38dcb7b99893fe745ca01fd3", "type": "electric_scooter", "is_reserved": 0, "lon": -77.02525233333333}, {"fusion_lat": 0.0, "name": "f26a5889fd468de26928cbc8155b3a54", "is_disabled": 0, "rental_uris": {"android": "https://dc.lft.to/lastmile_qr_scan", "ios": "https://dc.lft.to/lastmile_qr_scan"}, "fusion_lon": 0.0, "lat": 38.90569816666667, "bike_id": "f26a5889fd468de26928cbc8155b3a54", "type": "electric_scooter", "is_reserved": 0, "lon": -77.00813616666667}, {"fusion_lat": 0.0, "name": "184cd5fef25892229e9fd284b83cda4f", "is_disabled": 0, "rental_uris": {"android": "https://dc.lft.to/lastmile_qr_scan", "ios": "https://dc.lft.to/lastmile_qr_scan"}, "fusion_lon": 0.0, "lat": 38.90382133333333, "bike_id": "184cd5fef25892229e9fd284b83cda4f", "type": "electric_scooter", "is_reserved": 0, "lon": -77.061423}, {"fusion_lat": 0.0, "name": "95a4bfd7cd1de568b5f572a109970c55", "is_disabled": 0, "rental_uris": {"android": "https://dc.lft.to/lastmile_qr_scan", "ios": "https://dc.lft.to/lastmile_qr_scan"}, "fusion_lon": 0.0, "lat": 38.97501166666667, "bike_id": "95a4bfd7cd1de568b5f572a109970c55", "type": "electric_scooter", "is_reserved": 0, "lon": -77.015804}, {"fusion_lat": 0.0, "name": "77091d89f9160e949fa14552876aafca", "is_disabled": 0, "rental_uris": {"android": "https://dc.lft.to/lastmile_qr_scan", "ios": "https://dc.lft.to/lastmile_qr_scan"}, "fusion_lon": 0.0, "lat": 38.84052633333334, "bike_id": "77091d89f9160e949fa14552876aafca", "type": "electric_scooter", "is_reserved": 0, "lon": -76.97668883333333}, {"fusion_lat": 0.0, "name": "1e92b84a6faf1441aa0aafd70d2e5c2d", "is_disabled": 0, "rental_uris": {"android": "https://dc.lft.to/lastmile_qr_scan", "ios": "https://dc.lft.to/lastmile_qr_scan"}, "fusion_lon": 0.0, "lat": 38.90289933333333, "bike_id": "1e92b84a6faf1441aa0aafd70d2e5c2d", "type": "electric_scooter", "is_reserved": 0, "lon": -76.99038533333334}, {"fusion_lat": 0.0, "name": "bbc3ea38004b9438bf0c24510bf225c5", "is_disabled": 0, "rental_uris": {"android": "https://dc.lft.to/lastmile_qr_scan", "ios": "https://dc.lft.to/lastmile_qr_scan"}, "fusion_lon": 0.0, "lat": 38.90845133333333, "bike_id": "bbc3ea38004b9438bf0c24510bf225c5", "type": "electric_scooter", "is_reserved": 0, "lon": -77.03381433333334}, {"fusion_lat": 0.0, "name": "6d0412644a71ebc7c3289d37a4ad0e58", "is_disabled": 0, "rental_uris": {"android": "https://dc.lft.to/lastmile_qr_scan", "ios": "https://dc.lft.to/lastmile_qr_scan"}, "fusion_lon": 0.0, "lat": 38.918059, "bike_id": "6d0412644a71ebc7c3289d37a4ad0e58", "type": "electric_scooter", "is_reserved": 0, "lon": -77.01143683333333}, {"fusion_lat": 0.0, "name": "93c1b768746fa4377e73a36cadd78969", "is_disabled": 0, "rental_uris": {"android": "https://dc.lft.to/lastmile_qr_scan", "ios": "https://dc.lft.to/lastmile_qr_scan"}, "fusion_lon": 0.0, "lat": 38.916138833333335, "bike_id": "93c1b768746fa4377e73a36cadd78969", "type": "electric_scooter", "is_reserved": 0, "lon": -77.02167666666666}, {"fusion_lat": 0.0, "name": "edc29938a3b41e24dded207e855bfdcd", "is_disabled": 0, "rental_uris": {"android": "https://dc.lft.to/lastmile_qr_scan", "ios": "https://dc.lft.to/lastmile_qr_scan"}, "fusion_lon": 0.0, "lat": 38.922802, "bike_id": "edc29938a3b41e24dded207e855bfdcd", "type": "electric_scooter", "is_reserved": 0, "lon": -77.07318516666666}, {"fusion_lat": 0.0, "name": "fdafa7ed1be46a49d03625793e6df9e2", "is_disabled": 0, "rental_uris": {"android": "https://dc.lft.to/lastmile_qr_scan", "ios": "https://dc.lft.to/lastmile_qr_scan"}, "fusion_lon": 0.0, "lat": 38.876859833333334, "bike_id": "fdafa7ed1be46a49d03625793e6df9e2", "type": "electric_scooter", "is_reserved": 0, "lon": -77.00060533333334}, {"fusion_lat": 0.0, "name": "b69c987295ecbb79a0bc806e50a08373", "is_disabled": 0, "rental_uris": {"android": "https://dc.lft.to/lastmile_qr_scan", "ios": "https://dc.lft.to/lastmile_qr_scan"}, "fusion_lon": 0.0, "lat": 38.923858333333335, "bike_id": "b69c987295ecbb79a0bc806e50a08373", "type": "electric_scooter", "is_reserved": 0, "lon": -77.0402445}, {"fusion_lat": 0.0, "name": "6902cffbb62ace8e86dd3c419e84c713", "is_disabled": 0, "rental_uris": {"android": "https://dc.lft.to/lastmile_qr_scan", "ios": "https://dc.lft.to/lastmile_qr_scan"}, "fusion_lon": 0.0, "lat": 38.9043475, "bike_id": "6902cffbb62ace8e86dd3c419e84c713", "type": "electric_scooter", "is_reserved": 0, "lon": -77.0346045}, {"fusion_lat": 0.0, "name": "0d1c98c884d284d04eb52551064695c0", "is_disabled": 0, "rental_uris": {"android": "https://dc.lft.to/lastmile_qr_scan", "ios": "https://dc.lft.to/lastmile_qr_scan"}, "fusion_lon": 0.0, "lat": 38.898187166666666, "bike_id": "0d1c98c884d284d04eb52551064695c0", "type": "electric_scooter", "is_reserved": 0, "lon": -77.02423516666667}, {"fusion_lat": 0.0, "name": "773e2efec85ffe47666f8780968c6111", "is_disabled": 0, "rental_uris": {"android": "https://dc.lft.to/lastmile_qr_scan", "ios": "https://dc.lft.to/lastmile_qr_scan"}, "fusion_lon": 0.0, "lat": 38.90693683333333, "bike_id": "773e2efec85ffe47666f8780968c6111", "type": "electric_scooter", "is_reserved": 0, "lon": -77.06536483333333}, {"fusion_lat": 0.0, "name": "f77385bc45f4eebc9a2c38c038a85d99", "is_disabled": 0, "rental_uris": {"android": "https://dc.lft.to/lastmile_qr_scan", "ios": "https://dc.lft.to/lastmile_qr_scan"}, "fusion_lon": 0.0, "lat": 38.91102, "bike_id": "f77385bc45f4eebc9a2c38c038a85d99", "type": "electric_scooter", "is_reserved": 0, "lon": -77.01668433333333}, {"fusion_lat": 0.0, "name": "72a632a8ae4677b4bb7af65f13ffcd24", "is_disabled": 0, "rental_uris": {"android": "https://dc.lft.to/lastmile_qr_scan", "ios": "https://dc.lft.to/lastmile_qr_scan"}, "fusion_lon": 0.0, "lat": 38.9181095, "bike_id": "72a632a8ae4677b4bb7af65f13ffcd24", "type": "electric_scooter", "is_reserved": 0, "lon": -77.02505083333334}, {"fusion_lat": 0.0, "name": "c3f4ac8278f7d4a34451909b997b230c", "is_disabled": 0, "rental_uris": {"android": "https://dc.lft.to/lastmile_qr_scan", "ios": "https://dc.lft.to/lastmile_qr_scan"}, "fusion_lon": 0.0, "lat": 39.05277866666667, "bike_id": "c3f4ac8278f7d4a34451909b997b230c", "type": "electric_bike", "is_reserved": 0, "lon": -77.11219566666666}, {"fusion_lat": 0.0, "name": "bedf5ad659a4ccb37b8ba619ea95d827", "is_disabled": 0, "rental_uris": {"android": "https://dc.lft.to/lastmile_qr_scan", "ios": "https://dc.lft.to/lastmile_qr_scan"}, "fusion_lon": 0.0, "lat": 38.895547666666666, "bike_id": "bedf5ad659a4ccb37b8ba619ea95d827", "type": "electric_scooter", "is_reserved": 0, "lon": -76.99430216666667}, {"fusion_lat": 0.0, "name": "5b9194c4e9dab48b05c6209b5394c726", "is_disabled": 0, "rental_uris": {"android": "https://dc.lft.to/lastmile_qr_scan", "ios": "https://dc.lft.to/lastmile_qr_scan"}, "fusion_lon": 0.0, "lat": 38.92224216666666, "bike_id": "5b9194c4e9dab48b05c6209b5394c726", "type": "electric_scooter", "is_reserved": 0, "lon": -77.01835816666667}, {"fusion_lat": 0.0, "name": "76d8c3218d5cd004f76e1c123a5dff23", "is_disabled": 0, "rental_uris": {"android": "https://dc.lft.to/lastmile_qr_scan", "ios": "https://dc.lft.to/lastmile_qr_scan"}, "fusion_lon": 0.0, "lat": 38.90781833333333, "bike_id": "76d8c3218d5cd004f76e1c123a5dff23", "type": "electric_scooter", "is_reserved": 0, "lon": -77.042572}, {"fusion_lat": 0.0, "name": "7f51521b7a9f80dc95919c8cf4ccbda3", "is_disabled": 0, "rental_uris": {"android": "https://dc.lft.to/lastmile_qr_scan", "ios": "https://dc.lft.to/lastmile_qr_scan"}, "fusion_lon": 0.0, "lat": 39.014091666666666, "bike_id": "7f51521b7a9f80dc95919c8cf4ccbda3", "type": "electric_bike", "is_reserved": 0, "lon": -77.04496766666666}, {"fusion_lat": 0.0, "name": "7096297537969191a3d17232f7de1115", "is_disabled": 0, "rental_uris": {"android": "https://dc.lft.to/lastmile_qr_scan", "ios": "https://dc.lft.to/lastmile_qr_scan"}, "fusion_lon": 0.0, "lat": 38.9192685, "bike_id": "7096297537969191a3d17232f7de1115", "type": "electric_scooter", "is_reserved": 0, "lon": -77.04555416666666}, {"fusion_lat": 0.0, "name": "a8be8f239c6764ba1ed3984edaa7e078", "is_disabled": 0, "rental_uris": {"android": "https://dc.lft.to/lastmile_qr_scan", "ios": "https://dc.lft.to/lastmile_qr_scan"}, "fusion_lon": 0.0, "lat": 38.89694033333333, "bike_id": "a8be8f239c6764ba1ed3984edaa7e078", "type": "electric_scooter", "is_reserved": 0, "lon": -77.02390466666667}, {"fusion_lat": 0.0, "name": "39817e771baca9d0bffc16ddf820001a", "is_disabled": 0, "rental_uris": {"android": "https://dc.lft.to/lastmile_qr_scan", "ios": "https://dc.lft.to/lastmile_qr_scan"}, "fusion_lon": 0.0, "lat": 38.878955, "bike_id": "39817e771baca9d0bffc16ddf820001a", "type": "electric_scooter", "is_reserved": 0, "lon": -77.01363666666667}, {"fusion_lat": 0.0, "name": "f6259e32fd9c19adbc35f9c52c8bcc1c", "is_disabled": 0, "rental_uris": {"android": "https://dc.lft.to/lastmile_qr_scan", "ios": "https://dc.lft.to/lastmile_qr_scan"}, "fusion_lon": 0.0, "lat": 38.8952325, "bike_id": "f6259e32fd9c19adbc35f9c52c8bcc1c", "type": "electric_scooter", "is_reserved": 0, "lon": -76.93413466666667}, {"fusion_lat": 0.0, "name": "9009a4cf4a6abb6d837329996fc9e140", "is_disabled": 0, "rental_uris": {"android": "https://dc.lft.to/lastmile_qr_scan", "ios": "https://dc.lft.to/lastmile_qr_scan"}, "fusion_lon": 0.0, "lat": 38.901469, "bike_id": "9009a4cf4a6abb6d837329996fc9e140", "type": "electric_scooter", "is_reserved": 0, "lon": -77.06113483333333}, {"fusion_lat": 0.0, "name": "4ba28b351eca7e3d9e3fad0617833f2f", "is_disabled": 0, "rental_uris": {"android": "https://dc.lft.to/lastmile_qr_scan", "ios": "https://dc.lft.to/lastmile_qr_scan"}, "fusion_lon": 0.0, "lat": 38.9007535, "bike_id": "4ba28b351eca7e3d9e3fad0617833f2f", "type": "electric_scooter", "is_reserved": 0, "lon": -77.05029233333333}, {"fusion_lat": 0.0, "name": "c85a5faae11b3626970829976cbea5bc", "is_disabled": 0, "rental_uris": {"android": "https://dc.lft.to/lastmile_qr_scan", "ios": "https://dc.lft.to/lastmile_qr_scan"}, "fusion_lon": 0.0, "lat": 38.923962833333334, "bike_id": "c85a5faae11b3626970829976cbea5bc", "type": "electric_scooter", "is_reserved": 0, "lon": -77.02544133333333}, {"fusion_lat": 0.0, "name": "56dff286431bd4e2084af6128366169f", "is_disabled": 0, "rental_uris": {"android": "https://dc.lft.to/lastmile_qr_scan", "ios": "https://dc.lft.to/lastmile_qr_scan"}, "fusion_lon": 0.0, "lat": 38.92118633333333, "bike_id": "56dff286431bd4e2084af6128366169f", "type": "electric_bike", "is_reserved": 0, "lon": -77.0120955}, {"fusion_lat": 0.0, "name": "3eeacd7180a648f40c92f4fb748f6a03", "is_disabled": 0, "rental_uris": {"android": "https://dc.lft.to/lastmile_qr_scan", "ios": "https://dc.lft.to/lastmile_qr_scan"}, "fusion_lon": 0.0, "lat": 38.92470933333333, "bike_id": "3eeacd7180a648f40c92f4fb748f6a03", "type": "electric_scooter", "is_reserved": 0, "lon": -77.02676566666666}, {"fusion_lat": 0.0, "name": "acb6e161d32f8fd8ee0b89ed1114c2a4", "is_disabled": 0, "rental_uris": {"android": "https://dc.lft.to/lastmile_qr_scan", "ios": "https://dc.lft.to/lastmile_qr_scan"}, "fusion_lon": 0.0, "lat": 38.898248833333334, "bike_id": "acb6e161d32f8fd8ee0b89ed1114c2a4", "type": "electric_scooter", "is_reserved": 0, "lon": -77.040776}, {"fusion_lat": 0.0, "name": "9ba78b32b4b4235e16a5526e8007b216", "is_disabled": 0, "rental_uris": {"android": "https://dc.lft.to/lastmile_qr_scan", "ios": "https://dc.lft.to/lastmile_qr_scan"}, "fusion_lon": 0.0, "lat": 38.8872495, "bike_id": "9ba78b32b4b4235e16a5526e8007b216", "type": "electric_scooter", "is_reserved": 0, "lon": -76.98357283333333}, {"fusion_lat": 0.0, "name": "d758e66363d88ac4ad16dcb011e94eac", "is_disabled": 0, "rental_uris": {"android": "https://dc.lft.to/lastmile_qr_scan", "ios": "https://dc.lft.to/lastmile_qr_scan"}, "fusion_lon": 0.0, "lat": 38.9054895, "bike_id": "d758e66363d88ac4ad16dcb011e94eac", "type": "electric_scooter", "is_reserved": 0, "lon": -77.06262033333333}, {"fusion_lat": 0.0, "name": "77a8fa5aafbdf5374d1ac61fa465b0f1", "is_disabled": 0, "rental_uris": {"android": "https://dc.lft.to/lastmile_qr_scan", "ios": "https://dc.lft.to/lastmile_qr_scan"}, "fusion_lon": 0.0, "lat": 38.898371833333336, "bike_id": "77a8fa5aafbdf5374d1ac61fa465b0f1", "type": "electric_scooter", "is_reserved": 0, "lon": -77.02928033333333}, {"fusion_lat": 0.0, "name": "d44535d28d3783cf450792c4d2de57c6", "is_disabled": 0, "rental_uris": {"android": "https://dc.lft.to/lastmile_qr_scan", "ios": "https://dc.lft.to/lastmile_qr_scan"}, "fusion_lon": 0.0, "lat": 38.90994366666666, "bike_id": "d44535d28d3783cf450792c4d2de57c6", "type": "electric_scooter", "is_reserved": 0, "lon": -77.033874}, {"fusion_lat": 0.0, "name": "e166ade01dbb4a946448b21fca01d5d6", "is_disabled": 0, "rental_uris": {"android": "https://dc.lft.to/lastmile_qr_scan", "ios": "https://dc.lft.to/lastmile_qr_scan"}, "fusion_lon": 0.0, "lat": 38.841332, "bike_id": "e166ade01dbb4a946448b21fca01d5d6", "type": "electric_bike", "is_reserved": 0, "lon": -76.94760883333333}, {"fusion_lat": 0.0, "name": "c57e880fb7467df9a6d174af5f9a94ff", "is_disabled": 0, "rental_uris": {"android": "https://dc.lft.to/lastmile_qr_scan", "ios": "https://dc.lft.to/lastmile_qr_scan"}, "fusion_lon": 0.0, "lat": 38.881406, "bike_id": "c57e880fb7467df9a6d174af5f9a94ff", "type": "electric_scooter", "is_reserved": 0, "lon": -77.01657733333333}, {"fusion_lat": 0.0, "name": "8a99499d3c0c6331fc733edf9d2d4cab", "is_disabled": 0, "rental_uris": {"android": "https://dc.lft.to/lastmile_qr_scan", "ios": "https://dc.lft.to/lastmile_qr_scan"}, "fusion_lon": 0.0, "lat": 38.8860385, "bike_id": "8a99499d3c0c6331fc733edf9d2d4cab", "type": "electric_scooter", "is_reserved": 0, "lon": -77.045112}, {"fusion_lat": 0.0, "name": "f02203190aa289a0e51836b38291e556", "is_disabled": 0, "rental_uris": {"android": "https://dc.lft.to/lastmile_qr_scan", "ios": "https://dc.lft.to/lastmile_qr_scan"}, "fusion_lon": 0.0, "lat": 38.9255345, "bike_id": "f02203190aa289a0e51836b38291e556", "type": "electric_scooter", "is_reserved": 0, "lon": -77.0529635}, {"fusion_lat": 0.0, "name": "f0ab4952d967a3ae8b79704dfbf32c92", "is_disabled": 0, "rental_uris": {"android": "https://dc.lft.to/lastmile_qr_scan", "ios": "https://dc.lft.to/lastmile_qr_scan"}, "fusion_lon": 0.0, "lat": 38.8645735, "bike_id": "f0ab4952d967a3ae8b79704dfbf32c92", "type": "electric_bike", "is_reserved": 0, "lon": -76.94528366666667}, {"fusion_lat": 0.0, "name": "e74123478a52194d692f060c347b7a12", "is_disabled": 0, "rental_uris": {"android": "https://dc.lft.to/lastmile_qr_scan", "ios": "https://dc.lft.to/lastmile_qr_scan"}, "fusion_lon": 0.0, "lat": 38.90576383333333, "bike_id": "e74123478a52194d692f060c347b7a12", "type": "electric_scooter", "is_reserved": 0, "lon": -77.00580383333333}, {"fusion_lat": 0.0, "name": "01aa684f898aaa6dd61f2b89b9f3dc4e", "is_disabled": 0, "rental_uris": {"android": "https://dc.lft.to/lastmile_qr_scan", "ios": "https://dc.lft.to/lastmile_qr_scan"}, "fusion_lon": 0.0, "lat": 38.884848833333336, "bike_id": "01aa684f898aaa6dd61f2b89b9f3dc4e", "type": "electric_scooter", "is_reserved": 0, "lon": -77.02526116666667}, {"fusion_lat": 0.0, "name": "88bf5eedabed4f306fec28ca4a33bd44", "is_disabled": 0, "rental_uris": {"android": "https://dc.lft.to/lastmile_qr_scan", "ios": "https://dc.lft.to/lastmile_qr_scan"}, "fusion_lon": 0.0, "lat": 38.931874, "bike_id": "88bf5eedabed4f306fec28ca4a33bd44", "type": "electric_scooter", "is_reserved": 0, "lon": -77.04294283333333}, {"fusion_lat": 0.0, "name": "1b3746fcb12fce1df1eafa29d858e64e", "is_disabled": 0, "rental_uris": {"android": "https://dc.lft.to/lastmile_qr_scan", "ios": "https://dc.lft.to/lastmile_qr_scan"}, "fusion_lon": 0.0, "lat": 38.88304383333333, "bike_id": "1b3746fcb12fce1df1eafa29d858e64e", "type": "electric_scooter", "is_reserved": 0, "lon": -76.948568}, {"fusion_lat": 0.0, "name": "396a5e96868fb4a8ed7df9937cb5e330", "is_disabled": 0, "rental_uris": {"android": "https://dc.lft.to/lastmile_qr_scan", "ios": "https://dc.lft.to/lastmile_qr_scan"}, "fusion_lon": 0.0, "lat": 38.899427833333334, "bike_id": "396a5e96868fb4a8ed7df9937cb5e330", "type": "electric_scooter", "is_reserved": 0, "lon": -77.033718}, {"fusion_lat": 0.0, "name": "c8ab9017831509f3ae99e52b0903961e", "is_disabled": 0, "rental_uris": {"android": "https://dc.lft.to/lastmile_qr_scan", "ios": "https://dc.lft.to/lastmile_qr_scan"}, "fusion_lon": 0.0, "lat": 38.92540666666667, "bike_id": "c8ab9017831509f3ae99e52b0903961e", "type": "electric_scooter", "is_reserved": 0, "lon": -77.00751216666667}, {"fusion_lat": 0.0, "name": "dc6829c4d82c35f7ef169ae4544a2ef2", "is_disabled": 0, "rental_uris": {"android": "https://dc.lft.to/lastmile_qr_scan", "ios": "https://dc.lft.to/lastmile_qr_scan"}, "fusion_lon": 0.0, "lat": 38.807083, "bike_id": "dc6829c4d82c35f7ef169ae4544a2ef2", "type": "electric_bike", "is_reserved": 0, "lon": -77.06177466666666}, {"fusion_lat": 0.0, "name": "03e14fe76dff65b895d6d5fee243adb3", "is_disabled": 0, "rental_uris": {"android": "https://dc.lft.to/lastmile_qr_scan", "ios": "https://dc.lft.to/lastmile_qr_scan"}, "fusion_lon": 0.0, "lat": 38.891048, "bike_id": "03e14fe76dff65b895d6d5fee243adb3", "type": "electric_scooter", "is_reserved": 0, "lon": -76.996284}, {"fusion_lat": 0.0, "name": "b4c926eedb3a576b5e3d0ff515cc118f", "is_disabled": 0, "rental_uris": {"android": "https://dc.lft.to/lastmile_qr_scan", "ios": "https://dc.lft.to/lastmile_qr_scan"}, "fusion_lon": 0.0, "lat": 38.907253833333336, "bike_id": "b4c926eedb3a576b5e3d0ff515cc118f", "type": "electric_scooter", "is_reserved": 0, "lon": -76.93541866666666}, {"fusion_lat": 0.0, "name": "c287de9ec15b2ad6285f2af84d2d5677", "is_disabled": 0, "rental_uris": {"android": "https://dc.lft.to/lastmile_qr_scan", "ios": "https://dc.lft.to/lastmile_qr_scan"}, "fusion_lon": 0.0, "lat": 38.921920166666666, "bike_id": "c287de9ec15b2ad6285f2af84d2d5677", "type": "electric_scooter", "is_reserved": 0, "lon": -77.04238166666667}, {"fusion_lat": 0.0, "name": "530f0248f81cc327edf18ddfb029ac1f", "is_disabled": 0, "rental_uris": {"android": "https://dc.lft.to/lastmile_qr_scan", "ios": "https://dc.lft.to/lastmile_qr_scan"}, "fusion_lon": 0.0, "lat": 38.906052, "bike_id": "530f0248f81cc327edf18ddfb029ac1f", "type": "electric_scooter", "is_reserved": 0, "lon": -77.0340065}, {"fusion_lat": 0.0, "name": "2884fc2034f6f21b49111c9d1a1991c3", "is_disabled": 0, "rental_uris": {"android": "https://dc.lft.to/lastmile_qr_scan", "ios": "https://dc.lft.to/lastmile_qr_scan"}, "fusion_lon": 0.0, "lat": 38.907166, "bike_id": "2884fc2034f6f21b49111c9d1a1991c3", "type": "electric_scooter", "is_reserved": 0, "lon": -77.047559}, {"fusion_lat": 0.0, "name": "3bb0d468292e9dca9d80d4b8aa35dcc3", "is_disabled": 0, "rental_uris": {"android": "https://dc.lft.to/lastmile_qr_scan", "ios": "https://dc.lft.to/lastmile_qr_scan"}, "fusion_lon": 0.0, "lat": 38.926730666666664, "bike_id": "3bb0d468292e9dca9d80d4b8aa35dcc3", "type": "electric_scooter", "is_reserved": 0, "lon": -77.03076416666667}, {"fusion_lat": 0.0, "name": "9299a7fab460f5e741a960f5ec475425", "is_disabled": 0, "rental_uris": {"android": "https://dc.lft.to/lastmile_qr_scan", "ios": "https://dc.lft.to/lastmile_qr_scan"}, "fusion_lon": 0.0, "lat": 38.81915333333333, "bike_id": "9299a7fab460f5e741a960f5ec475425", "type": "electric_bike", "is_reserved": 0, "lon": -77.04797466666666}, {"fusion_lat": 0.0, "name": "ee3450fed2d2790ffa8c9ada35cb8897", "is_disabled": 0, "rental_uris": {"android": "https://dc.lft.to/lastmile_qr_scan", "ios": "https://dc.lft.to/lastmile_qr_scan"}, "fusion_lon": 0.0, "lat": 38.903938333333336, "bike_id": "ee3450fed2d2790ffa8c9ada35cb8897", "type": "electric_scooter", "is_reserved": 0, "lon": -77.06809116666666}, {"fusion_lat": 0.0, "name": "bb4a5ac2b0c1659db7b70c57e7f879ff", "is_disabled": 0, "rental_uris": {"android": "https://dc.lft.to/lastmile_qr_scan", "ios": "https://dc.lft.to/lastmile_qr_scan"}, "fusion_lon": 0.0, "lat": 38.835079666666665, "bike_id": "bb4a5ac2b0c1659db7b70c57e7f879ff", "type": "electric_bike", "is_reserved": 0, "lon": -76.9867715}, {"fusion_lat": 0.0, "name": "be7c88a41c0cfa24074056e665c8d328", "is_disabled": 0, "rental_uris": {"android": "https://dc.lft.to/lastmile_qr_scan", "ios": "https://dc.lft.to/lastmile_qr_scan"}, "fusion_lon": 0.0, "lat": 38.942676, "bike_id": "be7c88a41c0cfa24074056e665c8d328", "type": "electric_scooter", "is_reserved": 0, "lon": -77.03258233333334}, {"fusion_lat": 0.0, "name": "753ce5c82770e0a989fde45e4c7513a3", "is_disabled": 0, "rental_uris": {"android": "https://dc.lft.to/lastmile_qr_scan", "ios": "https://dc.lft.to/lastmile_qr_scan"}, "fusion_lon": 0.0, "lat": 38.89726683333333, "bike_id": "753ce5c82770e0a989fde45e4c7513a3", "type": "electric_scooter", "is_reserved": 0, "lon": -77.0216125}, {"fusion_lat": 0.0, "name": "51c67a04b7be2fe2cd3a340d7ca6bbb0", "is_disabled": 0, "rental_uris": {"android": "https://dc.lft.to/lastmile_qr_scan", "ios": "https://dc.lft.to/lastmile_qr_scan"}, "fusion_lon": 0.0, "lat": 38.91154866666667, "bike_id": "51c67a04b7be2fe2cd3a340d7ca6bbb0", "type": "electric_scooter", "is_reserved": 0, "lon": -77.07260166666667}, {"fusion_lat": 0.0, "name": "c32db6b970865a5412f12eac9df4cfd7", "is_disabled": 0, "rental_uris": {"android": "https://dc.lft.to/lastmile_qr_scan", "ios": "https://dc.lft.to/lastmile_qr_scan"},