{"data": {"bikes": [{"bike_id": "e867a9d76a4d5700cabd7fcdb928edb4", "type": "electric_scooter", "is_disabled": 0, "lat": 38.91638866666667, "rental_uris": {"ios": "https://dc.lft.to/lastmile_qr_scan", "android": "https://dc.lft.to/lastmile_qr_scan"}, "is_reserved": 0, "fusion_lon": 0.0, "fusion_lat": 0.0, "lon": -77.00047466666666, "name": "e867a9d76a4d5700cabd7fcdb928edb4"}, {"bike_id": "c248e4c39cad57962fdfb116a4a7d350", "type": "electric_scooter", "is_disabled": 0, "lat": 38.915821, "rental_uris": {"ios": "https://dc.lft.to/lastmile_qr_scan", "android": "https://dc.lft.to/lastmile_qr_scan"}, "is_reserved": 0, "fusion_lon": 0.0, "fusion_lat": 0.0, "lon": -77.01600833333333, "name": "c248e4c39cad57962fdfb116a4a7d350"}, {"bike_id": "1b7310a6d58868ae9e2e68d51a21696d", "type": "electric_scooter", "is_disabled": 0, "lat": 38.95652183333333, "rental_uris": {"ios": "https://dc.lft.to/lastmile_qr_scan", "android": "https://dc.lft.to/lastmile_qr_scan"}, "is_reserved": 0, "fusion_lon": 0.0, "fusion_lat": 0.0, "lon": -77.019644, "name": "1b7310a6d58868ae9e2e68d51a21696d"}, {"bike_id": "c9b97cd2de5dd983930cc536f49e5c18", "type": "electric_scooter", "is_disabled": 0, "lat": 38.928544333333335, "rental_uris": {"ios": "https://dc.lft.to/lastmile_qr_scan", "android": "https://dc.lft.to/lastmile_qr_scan"}, "is_reserved": 0, "fusion_lon": 0.0, "fusion_lat": 0.0, "lon": -77.0360455, "name": "c9b97cd2de5dd983930cc536f49e5c18"}, {"bike_id": "d90f08233e0ea84d3b164b396be19b8c", "type": "electric_scooter", "is_disabled": 0, "lat": 38.915276666666664, "rental_uris": {"ios": "https://dc.lft.to/lastmile_qr_scan", "android": "https://dc.lft.to/lastmile_qr_scan"}, "is_reserved": 0, "fusion_lon": 0.0, "fusion_lat": 0.0, "lon": -77.0199515, "name": "d90f08233e0ea84d3b164b396be19b8c"}, {"bike_id": "ff8489109f78bc8ed1f9b18238692189", "type": "electric_scooter", "is_disabled": 0, "lat": 38.88881766666667, "rental_uris": {"ios": "https://dc.lft.to/lastmile_qr_scan", "android": "https://dc.lft.to/lastmile_qr_scan"}, "is_reserved": 0, "fusion_lon": 0.0, "fusion_lat": 0.0, "lon": -76.99032366666667, "name": "ff8489109f78bc8ed1f9b18238692189"}, {"bike_id": "89f7b046c2193f9dad758ed19f12553e", "type": "electric_scooter", "is_disabled": 0, "lat": 38.89798916666667, "rental_uris": {"ios": "https://dc.lft.to/lastmile_qr_scan", "android": "https://dc.lft.to/lastmile_qr_scan"}, "is_reserved": 0, "fusion_lon": 0.0, "fusion_lat": 0.0, "lon": -77.02484633333333, "name": "89f7b046c2193f9dad758ed19f12553e"}, {"bike_id": "da3fd4e39118585ecf7e3c2f0d73e358", "type": "electric_scooter", "is_disabled": 0, "lat": 38.93512483333333, "rental_uris": {"ios": "https://dc.lft.to/lastmile_qr_scan", "android": "https://dc.lft.to/lastmile_qr_scan"}, "is_reserved": 0, "fusion_lon": 0.0, "fusion_lat": 0.0, "lon": -77.03291133333333, "name": "da3fd4e39118585ecf7e3c2f0d73e358"}, {"bike_id": "e6811e62acc05ee4e0487d69dd682153", "type": "electric_scooter", "is_disabled": 0, "lat": 38.94183833333334, "rental_uris": {"ios": "https://dc.lft.to/lastmile_qr_scan", "android": "https://dc.lft.to/lastmile_qr_scan"}, "is_reserved": 0, "fusion_lon": 0.0, "fusion_lat": 0.0, "lon": -77.02484766666667, "name": "e6811e62acc05ee4e0487d69dd682153"}, {"bike_id": "adf92cdb32a702976cba755953e57a72", "type": "electric_scooter", "is_disabled": 0, "lat": 38.859660833333336, "rental_uris": {"ios": "https://dc.lft.to/lastmile_qr_scan", "android": "https://dc.lft.to/lastmile_qr_scan"}, "is_reserved": 0, "fusion_lon": 0.0, "fusion_lat": 0.0, "lon": -76.99161016666666, "name": "adf92cdb32a702976cba755953e57a72"}, {"bike_id": "80af7088dfa6a8f3aa3bc3b410c638f7", "type": "electric_scooter", "is_disabled": 0, "lat": 38.92030233333333, "rental_uris": {"ios": "https://dc.lft.to/lastmile_qr_scan", "android": "https://dc.lft.to/lastmile_qr_scan"}, "is_reserved": 0, "fusion_lon": 0.0, "fusion_lat": 0.0, "lon": -77.04190483333333, "name": "80af7088dfa6a8f3aa3bc3b410c638f7"}, {"bike_id": "764756f7bbe9cfdcdb2f98b20c5e11e4", "type": "electric_scooter", "is_disabled": 0, "lat": 38.9327545, "rental_uris": {"ios": "https://dc.lft.to/lastmile_qr_scan", "android": "https://dc.lft.to/lastmile_qr_scan"}, "is_reserved": 0, "fusion_lon": 0.0, "fusion_lat": 0.0, "lon": -77.034936, "name": "764756f7bbe9cfdcdb2f98b20c5e11e4"}, {"bike_id": "c2bcbb33ee9cf20381efa950901090a8", "type": "electric_scooter", "is_disabled": 0, "lat": 38.919054833333334, "rental_uris": {"ios": "https://dc.lft.to/lastmile_qr_scan", "android": "https://dc.lft.to/lastmile_qr_scan"}, "is_reserved": 0, "fusion_lon": 0.0, "fusion_lat": 0.0, "lon": -77.01358766666667, "name": "c2bcbb33ee9cf20381efa950901090a8"}, {"bike_id": "cecd310a84a309bc6276425fa54e040d", "type": "electric_scooter", "is_disabled": 0, "lat": 38.901314, "rental_uris": {"ios": "https://dc.lft.to/lastmile_qr_scan", "android": "https://dc.lft.to/lastmile_qr_scan"}, "is_reserved": 0, "fusion_lon": 0.0, "fusion_lat": 0.0, "lon": -77.03818916666667, "name": "cecd310a84a309bc6276425fa54e040d"}, {"bike_id": "191c14b960ab2da5273b116986688fdc", "type": "electric_scooter", "is_disabled": 0, "lat": 38.9039505, "rental_uris": {"ios": "https://dc.lft.to/lastmile_qr_scan", "android": "https://dc.lft.to/lastmile_qr_scan"}, "is_reserved": 0, "fusion_lon": 0.0, "fusion_lat": 0.0, "lon": -77.02944366666667, "name": "191c14b960ab2da5273b116986688fdc"}, {"bike_id": "094df85d31f260b1e4d7fdef27b00673", "type": "electric_scooter", "is_disabled": 0, "lat": 38.9287885, "rental_uris": {"ios": "https://dc.lft.to/lastmile_qr_scan", "android": "https://dc.lft.to/lastmile_qr_scan"}, "is_reserved": 0, "fusion_lon": 0.0, "fusion_lat": 0.0, "lon": -77.026946, "name": "094df85d31f260b1e4d7fdef27b00673"}, {"bike_id": "80ea223deb7a225586f236780da4a270", "type": "electric_scooter", "is_disabled": 0, "lat": 38.89235766666667, "rental_uris": {"ios": "https://dc.lft.to/lastmile_qr_scan", "android": "https://dc.lft.to/lastmile_qr_scan"}, "is_reserved": 0, "fusion_lon": 0.0, "fusion_lat": 0.0, "lon": -76.94096983333333, "name": "80ea223deb7a225586f236780da4a270"}, {"bike_id": "f17bd6067f377893843727c2a37602eb", "type": "electric_scooter", "is_disabled": 0, "lat": 38.8827065, "rental_uris": {"ios": "https://dc.lft.to/lastmile_qr_scan", "android": "https://dc.lft.to/lastmile_qr_scan"}, "is_reserved": 0, "fusion_lon": 0.0, "fusion_lat": 0.0, "lon": -76.9901575, "name": "f17bd6067f377893843727c2a37602eb"}, {"bike_id": "0fc6d92edfbe9030663caebca58f2517", "type": "electric_scooter", "is_disabled": 0, "lat": 38.934867, "rental_uris": {"ios": "https://dc.lft.to/lastmile_qr_scan", "android": "https://dc.lft.to/lastmile_qr_scan"}, "is_reserved": 0, "fusion_lon": 0.0, "fusion_lat": 0.0, "lon": -77.08153966666667, "name": "0fc6d92edfbe9030663caebca58f2517"}, {"bike_id": "b022f6ff62b03216c1ca0d6bcdaaed72", "type": "electric_scooter", "is_disabled": 0, "lat": 38.947136666666665, "rental_uris": {"ios": "https://dc.lft.to/lastmile_qr_scan", "android": "https://dc.lft.to/lastmile_qr_scan"}, "is_reserved": 0, "fusion_lon": 0.0, "fusion_lat": 0.0, "lon": -77.03329066666667, "name": "b022f6ff62b03216c1ca0d6bcdaaed72"}, {"bike_id": "1149335ca58bb82eb7b56d641a0c26d5", "type": "electric_scooter", "is_disabled": 0, "lat": 38.9161075, "rental_uris": {"ios": "https://dc.lft.to/lastmile_qr_scan", "android": "https://dc.lft.to/lastmile_qr_scan"}, "is_reserved": 0, "fusion_lon": 0.0, "fusion_lat": 0.0, "lon": -77.02284616666667, "name": "1149335ca58bb82eb7b56d641a0c26d5"}, {"bike_id": "6b3922095dae36c5baa3fb19a1c6df75", "type": "electric_scooter", "is_disabled": 0, "lat": 38.884101333333334, "rental_uris": {"ios": "https://dc.lft.to/lastmile_qr_scan", "android": "https://dc.lft.to/lastmile_qr_scan"}, "is_reserved": 0, "fusion_lon": 0.0, "fusion_lat": 0.0, "lon": -76.9482425, "name": "6b3922095dae36c5baa3fb19a1c6df75"}, {"bike_id": "e34f4133e8b8bcc50f056b29c592e5e1", "type": "electric_scooter", "is_disabled": 0, "lat": 38.896296166666666, "rental_uris": {"ios": "https://dc.lft.to/lastmile_qr_scan", "android": "https://dc.lft.to/lastmile_qr_scan"}, "is_reserved": 0, "fusion_lon": 0.0, "fusion_lat": 0.0, "lon": -77.02588083333333, "name": "e34f4133e8b8bcc50f056b29c592e5e1"}, {"bike_id": "888429584300e5e804d41b7fe8415632", "type": "electric_scooter", "is_disabled": 0, "lat": 38.897288333333336, "rental_uris": {"ios": "https://dc.lft.to/lastmile_qr_scan", "android": "https://dc.lft.to/lastmile_qr_scan"}, "is_reserved": 0, "fusion_lon": 0.0, "fusion_lat": 0.0, "lon": -77.04392166666666, "name": "888429584300e5e804d41b7fe8415632"}, {"bike_id": "51a613bf0da6cd930741d2901a1904c9", "type": "electric_scooter", "is_disabled": 0, "lat": 38.9155115, "rental_uris": {"ios": "https://dc.lft.to/lastmile_qr_scan", "android": "https://dc.lft.to/lastmile_qr_scan"}, "is_reserved": 0, "fusion_lon": 0.0, "fusion_lat": 0.0, "lon": -77.044449, "name": "51a613bf0da6cd930741d2901a1904c9"}, {"bike_id": "b38ab795434cd634907c4038a4be7f2e", "type": "electric_scooter", "is_disabled": 0, "lat": 38.90070516666667, "rental_uris": {"ios": "https://dc.lft.to/lastmile_qr_scan", "android": "https://dc.lft.to/lastmile_qr_scan"}, "is_reserved": 0, "fusion_lon": 0.0, "fusion_lat": 0.0, "lon": -77.048358, "name": "b38ab795434cd634907c4038a4be7f2e"}, {"bike_id": "b8a79de68d95aacb6d161eb8f036f159", "type": "electric_scooter", "is_disabled": 0, "lat": 38.9057415, "rental_uris": {"ios": "https://dc.lft.to/lastmile_qr_scan", "android": "https://dc.lft.to/lastmile_qr_scan"}, "is_reserved": 0, "fusion_lon": 0.0, "fusion_lat": 0.0, "lon": -77.041721, "name": "b8a79de68d95aacb6d161eb8f036f159"}, {"bike_id": "04b7f29ac84d7a253634e23efef0bb19", "type": "electric_scooter", "is_disabled": 0, "lat": 38.933964, "rental_uris": {"ios": "https://dc.lft.to/lastmile_qr_scan", "android": "https://dc.lft.to/lastmile_qr_scan"}, "is_reserved": 0, "fusion_lon": 0.0, "fusion_lat": 0.0, "lon": -77.05743483333333, "name": "04b7f29ac84d7a253634e23efef0bb19"}, {"bike_id": "a4c510ebaf504ba71622521989164906", "type": "electric_scooter", "is_disabled": 0, "lat": 38.9063435, "rental_uris": {"ios": "https://dc.lft.to/lastmile_qr_scan", "android": "https://dc.lft.to/lastmile_qr_scan"}, "is_reserved": 0, "fusion_lon": 0.0, "fusion_lat": 0.0, "lon": -77.02820633333333, "name": "a4c510ebaf504ba71622521989164906"}, {"bike_id": "862384fd93c94d2e528a8eb2b1ce4731", "type": "electric_scooter", "is_disabled": 0, "lat": 38.92407, "rental_uris": {"ios": "https://dc.lft.to/lastmile_qr_scan", "android": "https://dc.lft.to/lastmile_qr_scan"}, "is_reserved": 0, "fusion_lon": 0.0, "fusion_lat": 0.0, "lon": -77.02975566666667, "name": "862384fd93c94d2e528a8eb2b1ce4731"}, {"bike_id": "e79dabcb09876b2a1a4065fa4ed3e938", "type": "electric_bike", "is_disabled": 0, "lat": 38.906251, "rental_uris": {"ios": "https://dc.lft.to/lastmile_qr_scan", "android": "https://dc.lft.to/lastmile_qr_scan"}, "is_reserved": 0, "fusion_lon": 0.0, "fusion_lat": 0.0, "lon": -76.98603833333334, "name": "e79dabcb09876b2a1a4065fa4ed3e938"}, {"bike_id": "92a14e0d73c5b69d5521bf3bff4f68f1", "type": "electric_scooter", "is_disabled": 0, "lat": 38.9869945, "rental_uris": {"ios": "https://dc.lft.to/lastmile_qr_scan", "android": "https://dc.lft.to/lastmile_qr_scan"}, "is_reserved": 0, "fusion_lon": 0.0, "fusion_lat": 0.0, "lon": -77.0297965, "name": "92a14e0d73c5b69d5521bf3bff4f68f1"}, {"bike_id": "ee401d6f022f28c3fec10b39a58b9b6c", "type": "electric_scooter", "is_disabled": 0, "lat": 38.930882833333335, "rental_uris": {"ios": "https://dc.lft.to/lastmile_qr_scan", "android": "https://dc.lft.to/lastmile_qr_scan"}, "is_reserved": 0, "fusion_lon": 0.0, "fusion_lat": 0.0, "lon": -77.02558616666667, "name": "ee401d6f022f28c3fec10b39a58b9b6c"}, {"bike_id": "7d734592fba549cdecaf63cae2c57c4a", "type": "electric_scooter", "is_disabled": 0, "lat": 38.887117833333335, "rental_uris": {"ios": "https://dc.lft.to/lastmile_qr_scan", "android": "https://dc.lft.to/lastmile_qr_scan"}, "is_reserved": 0, "fusion_lon": 0.0, "fusion_lat": 0.0, "lon": -77.02202316666667, "name": "7d734592fba549cdecaf63cae2c57c4a"}, {"bike_id": "1ee6345eab975345dedb8a8fbfc3534b", "type": "electric_scooter", "is_disabled": 0, "lat": 38.88060216666667, "rental_uris": {"ios": "https://dc.lft.to/lastmile_qr_scan", "android": "https://dc.lft.to/lastmile_qr_scan"}, "is_reserved": 0, "fusion_lon": 0.0, "fusion_lat": 0.0, "lon": -77.01535383333334, "name": "1ee6345eab975345dedb8a8fbfc3534b"}, {"bike_id": "66cd01f9067f9a39ec7457bf9d9e98a0", "type": "electric_scooter", "is_disabled": 0, "lat": 38.8991995, "rental_uris": {"ios": "https://dc.lft.to/lastmile_qr_scan", "android": "https://dc.lft.to/lastmile_qr_scan"}, "is_reserved": 0, "fusion_lon": 0.0, "fusion_lat": 0.0, "lon": -77.01468766666666, "name": "66cd01f9067f9a39ec7457bf9d9e98a0"}, {"bike_id": "427e3ea744fef9adfc9ca5fbda76722c", "type": "electric_scooter", "is_disabled": 0, "lat": 38.928517166666666, "rental_uris": {"ios": "https://dc.lft.to/lastmile_qr_scan", "android": "https://dc.lft.to/lastmile_qr_scan"}, "is_reserved": 0, "fusion_lon": 0.0, "fusion_lat": 0.0, "lon": -77.03282766666666, "name": "427e3ea744fef9adfc9ca5fbda76722c"}, {"bike_id": "2b59b77a8eae58b3b9b80931b1114443", "type": "electric_scooter", "is_disabled": 0, "lat": 38.93246716666667, "rental_uris": {"ios": "https://dc.lft.to/lastmile_qr_scan", "android": "https://dc.lft.to/lastmile_qr_scan"}, "is_reserved": 0, "fusion_lon": 0.0, "fusion_lat": 0.0, "lon": -76.995146, "name": "2b59b77a8eae58b3b9b80931b1114443"}, {"bike_id": "ba98444e87bfd5a13eaab2632d08abed", "type": "electric_scooter", "is_disabled": 0, "lat": 38.91018, "rental_uris": {"ios": "https://dc.lft.to/lastmile_qr_scan", "android": "https://dc.lft.to/lastmile_qr_scan"}, "is_reserved": 0, "fusion_lon": 0.0, "fusion_lat": 0.0, "lon": -77.02846583333333, "name": "ba98444e87bfd5a13eaab2632d08abed"}, {"bike_id": "03a6ca956eb06abce4392b8e51a1f57b", "type": "electric_scooter", "is_disabled": 0, "lat": 38.91554, "rental_uris": {"ios": "https://dc.lft.to/lastmile_qr_scan", "android": "https://dc.lft.to/lastmile_qr_scan"}, "is_reserved": 0, "fusion_lon": 0.0, "fusion_lat": 0.0, "lon": -77.0243225, "name": "03a6ca956eb06abce4392b8e51a1f57b"}, {"bike_id": "3f5674655aea92ae10efbcdd91a0b471", "type": "electric_scooter", "is_disabled": 0, "lat": 38.8865725, "rental_uris": {"ios": "https://dc.lft.to/lastmile_qr_scan", "android": "https://dc.lft.to/lastmile_qr_scan"}, "is_reserved": 0, "fusion_lon": 0.0, "fusion_lat": 0.0, "lon": -77.0283505, "name": "3f5674655aea92ae10efbcdd91a0b471"}, {"bike_id": "340f07fc398d63e874e04cc18753a397", "type": "electric_scooter", "is_disabled": 0, "lat": 38.92063, "rental_uris": {"ios": "https://dc.lft.to/lastmile_qr_scan", "android": "https://dc.lft.to/lastmile_qr_scan"}, "is_reserved": 0, "fusion_lon": 0.0, "fusion_lat": 0.0, "lon": -77.080557, "name": "340f07fc398d63e874e04cc18753a397"}, {"bike_id": "69e4c71d3849ae961251065bdc9ede9c", "type": "electric_scooter", "is_disabled": 0, "lat": 38.90655616666667, "rental_uris": {"ios": "https://dc.lft.to/lastmile_qr_scan", "android": "https://dc.lft.to/lastmile_qr_scan"}, "is_reserved": 0, "fusion_lon": 0.0, "fusion_lat": 0.0, "lon": -77.0096755, "name": "69e4c71d3849ae961251065bdc9ede9c"}, {"bike_id": "4acbb574a1e80a039649e3b0d6a6a0fc", "type": "electric_scooter", "is_disabled": 0, "lat": 38.906889166666666, "rental_uris": {"ios": "https://dc.lft.to/lastmile_qr_scan", "android": "https://dc.lft.to/lastmile_qr_scan"}, "is_reserved": 0, "fusion_lon": 0.0, "fusion_lat": 0.0, "lon": -77.01539533333333, "name": "4acbb574a1e80a039649e3b0d6a6a0fc"}, {"bike_id": "2ae472727fdc47c553121f9c187114d2", "type": "electric_scooter", "is_disabled": 0, "lat": 38.9212075, "rental_uris": {"ios": "https://dc.lft.to/lastmile_qr_scan", "android": "https://dc.lft.to/lastmile_qr_scan"}, "is_reserved": 0, "fusion_lon": 0.0, "fusion_lat": 0.0, "lon": -77.01208283333334, "name": "2ae472727fdc47c553121f9c187114d2"}, {"bike_id": "aa9c002a036556eb80f668029a0f1315", "type": "electric_scooter", "is_disabled": 0, "lat": 38.937307833333335, "rental_uris": {"ios": "https://dc.lft.to/lastmile_qr_scan", "android": "https://dc.lft.to/lastmile_qr_scan"}, "is_reserved": 0, "fusion_lon": 0.0, "fusion_lat": 0.0, "lon": -77.0326375, "name": "aa9c002a036556eb80f668029a0f1315"}, {"bike_id": "fc5a598792fb8ad14fb834374576b964", "type": "electric_scooter", "is_disabled": 0, "lat": 38.924726, "rental_uris": {"ios": "https://dc.lft.to/lastmile_qr_scan", "android": "https://dc.lft.to/lastmile_qr_scan"}, "is_reserved": 0, "fusion_lon": 0.0, "fusion_lat": 0.0, "lon": -77.02832366666667, "name": "fc5a598792fb8ad14fb834374576b964"}, {"bike_id": "c6c1a00e737ca3ab982028b47fefe073", "type": "electric_scooter", "is_disabled": 0, "lat": 38.91814083333333, "rental_uris": {"ios": "https://dc.lft.to/lastmile_qr_scan", "android": "https://dc.lft.to/lastmile_qr_scan"}, "is_reserved": 0, "fusion_lon": 0.0, "fusion_lat": 0.0, "lon": -77.03259116666666, "name": "c6c1a00e737ca3ab982028b47fefe073"}, {"bike_id": "8b1f4e7748bc9bd645c8fa94868e8b97", "type": "electric_scooter", "is_disabled": 0, "lat": 38.915777, "rental_uris": {"ios": "https://dc.lft.to/lastmile_qr_scan", "android": "https://dc.lft.to/lastmile_qr_scan"}, "is_reserved": 0, "fusion_lon": 0.0, "fusion_lat": 0.0, "lon": -77.019563, "name": "8b1f4e7748bc9bd645c8fa94868e8b97"}, {"bike_id": "a2c936988690b7d92cb5d7827fb01b1b", "type": "electric_scooter", "is_disabled": 0, "lat": 38.91418266666667, "rental_uris": {"ios": "https://dc.lft.to/lastmile_qr_scan", "android": "https://dc.lft.to/lastmile_qr_scan"}, "is_reserved": 0, "fusion_lon": 0.0, "fusion_lat": 0.0, "lon": -77.02408116666666, "name": "a2c936988690b7d92cb5d7827fb01b1b"}, {"bike_id": "6f37cd72d23530c69118865f23537a3f", "type": "electric_scooter", "is_disabled": 0, "lat": 38.90862666666666, "rental_uris": {"ios": "https://dc.lft.to/lastmile_qr_scan", "android": "https://dc.lft.to/lastmile_qr_scan"}, "is_reserved": 0, "fusion_lon": 0.0, "fusion_lat": 0.0, "lon": -77.04284516666667, "name": "6f37cd72d23530c69118865f23537a3f"}, {"bike_id": "6ee56584f859de0a17ed54ea6c3dc951", "type": "electric_scooter", "is_disabled": 0, "lat": 38.941856333333334, "rental_uris": {"ios": "https://dc.lft.to/lastmile_qr_scan", "android": "https://dc.lft.to/lastmile_qr_scan"}, "is_reserved": 0, "fusion_lon": 0.0, "fusion_lat": 0.0, "lon": -77.02485316666667, "name": "6ee56584f859de0a17ed54ea6c3dc951"}, {"bike_id": "ebc861d854ee01c129eed6b2e7721b52", "type": "electric_scooter", "is_disabled": 0, "lat": 38.86701433333333, "rental_uris": {"ios": "https://dc.lft.to/lastmile_qr_scan", "android": "https://dc.lft.to/lastmile_qr_scan"}, "is_reserved": 0, "fusion_lon": 0.0, "fusion_lat": 0.0, "lon": -76.985515, "name": "ebc861d854ee01c129eed6b2e7721b52"}, {"bike_id": "9c8b36a59576e389f377418cd8ea58fd", "type": "electric_scooter", "is_disabled": 0, "lat": 38.901411333333336, "rental_uris": {"ios": "https://dc.lft.to/lastmile_qr_scan", "android": "https://dc.lft.to/lastmile_qr_scan"}, "is_reserved": 0, "fusion_lon": 0.0, "fusion_lat": 0.0, "lon": -77.0433255, "name": "9c8b36a59576e389f377418cd8ea58fd"}, {"bike_id": "cd77ed47532951e87a502207e810d69a", "type": "electric_scooter", "is_disabled": 0, "lat": 38.897826333333335, "rental_uris": {"ios": "https://dc.lft.to/lastmile_qr_scan", "android": "https://dc.lft.to/lastmile_qr_scan"}, "is_reserved": 0, "fusion_lon": 0.0, "fusion_lat": 0.0, "lon": -76.947361, "name": "cd77ed47532951e87a502207e810d69a"}, {"bike_id": "81f588f04fd2682ee4fa66895ff50436", "type": "electric_scooter", "is_disabled": 0, "lat": 38.899292333333335, "rental_uris": {"ios": "https://dc.lft.to/lastmile_qr_scan", "android": "https://dc.lft.to/lastmile_qr_scan"}, "is_reserved": 0, "fusion_lon": 0.0, "fusion_lat": 0.0, "lon": -77.0144895, "name": "81f588f04fd2682ee4fa66895ff50436"}, {"bike_id": "b1b1fd83940d4b5cfd007067f28612e2", "type": "electric_scooter", "is_disabled": 0, "lat": 38.906600166666664, "rental_uris": {"ios": "https://dc.lft.to/lastmile_qr_scan", "android": "https://dc.lft.to/lastmile_qr_scan"}, "is_reserved": 0, "fusion_lon": 0.0, "fusion_lat": 0.0, "lon": -77.03383266666667, "name": "b1b1fd83940d4b5cfd007067f28612e2"}, {"bike_id": "13279272108cc8609d118baf274d2ef2", "type": "electric_scooter", "is_disabled": 0, "lat": 38.92696183333334, "rental_uris": {"ios": "https://dc.lft.to/lastmile_qr_scan", "android": "https://dc.lft.to/lastmile_qr_scan"}, "is_reserved": 0, "fusion_lon": 0.0, "fusion_lat": 0.0, "lon": -77.020802, "name": "13279272108cc8609d118baf274d2ef2"}, {"bike_id": "f03c3fa80fe406aefbee2cf4eeb09da5", "type": "electric_scooter", "is_disabled": 0, "lat": 38.94595783333333, "rental_uris": {"ios": "https://dc.lft.to/lastmile_qr_scan", "android": "https://dc.lft.to/lastmile_qr_scan"}, "is_reserved": 0, "fusion_lon": 0.0, "fusion_lat": 0.0, "lon": -77.0298235, "name": "f03c3fa80fe406aefbee2cf4eeb09da5"}, {"bike_id": "b099e710f00bf1a7c560f4b5654a4b75", "type": "electric_scooter", "is_disabled": 0, "lat": 38.911902166666664, "rental_uris": {"ios": "https://dc.lft.to/lastmile_qr_scan", "android": "https://dc.lft.to/lastmile_qr_scan"}, "is_reserved": 0, "fusion_lon": 0.0, "fusion_lat": 0.0, "lon": -77.03215816666666, "name": "b099e710f00bf1a7c560f4b5654a4b75"}, {"bike_id": "d8cad3326ccb970cc6fd9f7eeff15a38", "type": "electric_bike", "is_disabled": 0, "lat": 38.89847016666667, "rental_uris": {"ios": "https://dc.lft.to/lastmile_qr_scan", "android": "https://dc.lft.to/lastmile_qr_scan"}, "is_reserved": 0, "fusion_lon": 0.0, "fusion_lat": 0.0, "lon": -77.053008, "name": "d8cad3326ccb970cc6fd9f7eeff15a38"}, {"bike_id": "d18995a87f7064dd14e5fb4b04ee3bba", "type": "electric_scooter", "is_disabled": 0, "lat": 38.93095533333333, "rental_uris": {"ios": "https://dc.lft.to/lastmile_qr_scan", "android": "https://dc.lft.to/lastmile_qr_scan"}, "is_reserved": 0, "fusion_lon": 0.0, "fusion_lat": 0.0, "lon": -77.03744933333333, "name": "d18995a87f7064dd14e5fb4b04ee3bba"}, {"bike_id": "4f68371ebfa2b79852636174bcf06121", "type": "electric_scooter", "is_disabled": 0, "lat": 38.89959916666667, "rental_uris": {"ios": "https://dc.lft.to/lastmile_qr_scan", "android": "https://dc.lft.to/lastmile_qr_scan"}, "is_reserved": 0, "fusion_lon": 0.0, "fusion_lat": 0.0, "lon": -77.01607083333333, "name": "4f68371ebfa2b79852636174bcf06121"}, {"bike_id": "6e6e2ce101c83c4d91a0dd069c284117", "type": "electric_bike", "is_disabled": 0, "lat": 39.02432616666667, "rental_uris": {"ios": "https://dc.lft.to/lastmile_qr_scan", "android": "https://dc.lft.to/lastmile_qr_scan"}, "is_reserved": 0, "fusion_lon": 0.0, "fusion_lat": 0.0, "lon": -77.13101566666667, "name": "6e6e2ce101c83c4d91a0dd069c284117"}, {"bike_id": "51ae6c196f71bd1f5b30ec7d5fe8a56a", "type": "electric_scooter", "is_disabled": 0, "lat": 38.86705083333333, "rental_uris": {"ios": "https://dc.lft.to/lastmile_qr_scan", "android": "https://dc.lft.to/lastmile_qr_scan"}, "is_reserved": 0, "fusion_lon": 0.0, "fusion_lat": 0.0, "lon": -76.98713216666667, "name": "51ae6c196f71bd1f5b30ec7d5fe8a56a"}, {"bike_id": "a527fc99bab35541b3c78edb95781ae0", "type": "electric_scooter", "is_disabled": 0, "lat": 38.900923, "rental_uris": {"ios": "https://dc.lft.to/lastmile_qr_scan", "android": "https://dc.lft.to/lastmile_qr_scan"}, "is_reserved": 0, "fusion_lon": 0.0, "fusion_lat": 0.0, "lon": -77.019312, "name": "a527fc99bab35541b3c78edb95781ae0"}, {"bike_id": "6ff2c090c430a66ca98328276d99b04a", "type": "electric_scooter", "is_disabled": 0, "lat": 38.90854433333333, "rental_uris": {"ios": "https://dc.lft.to/lastmile_qr_scan", "android": "https://dc.lft.to/lastmile_qr_scan"}, "is_reserved": 0, "fusion_lon": 0.0, "fusion_lat": 0.0, "lon": -77.02358483333333, "name": "6ff2c090c430a66ca98328276d99b04a"}, {"bike_id": "b8795114f991a1e9ff77c67fbdd05d31", "type": "electric_scooter", "is_disabled": 0, "lat": 38.93460283333334, "rental_uris": {"ios": "https://dc.lft.to/lastmile_qr_scan", "android": "https://dc.lft.to/lastmile_qr_scan"}, "is_reserved": 0, "fusion_lon": 0.0, "fusion_lat": 0.0, "lon": -76.96441716666666, "name": "b8795114f991a1e9ff77c67fbdd05d31"}, {"bike_id": "9a0581b6087c59fff41295b23794b91d", "type": "electric_scooter", "is_disabled": 0, "lat": 38.917062666666666, "rental_uris": {"ios": "https://dc.lft.to/lastmile_qr_scan", "android": "https://dc.lft.to/lastmile_qr_scan"}, "is_reserved": 0, "fusion_lon": 0.0, "fusion_lat": 0.0, "lon": -77.02876816666667, "name": "9a0581b6087c59fff41295b23794b91d"}, {"bike_id": "d428b468bcd86a7c752cc8b22b047964", "type": "electric_scooter", "is_disabled": 0, "lat": 38.915694333333334, "rental_uris": {"ios": "https://dc.lft.to/lastmile_qr_scan", "android": "https://dc.lft.to/lastmile_qr_scan"}, "is_reserved": 0, "fusion_lon": 0.0, "fusion_lat": 0.0, "lon": -77.03645733333333, "name": "d428b468bcd86a7c752cc8b22b047964"}, {"bike_id": "f59b050d3705b3f5ce4cefb3a3ae1bc5", "type": "electric_scooter", "is_disabled": 0, "lat": 38.912533333333336, "rental_uris": {"ios": "https://dc.lft.to/lastmile_qr_scan", "android": "https://dc.lft.to/lastmile_qr_scan"}, "is_reserved": 0, "fusion_lon": 0.0, "fusion_lat": 0.0, "lon": -77.03827366666667, "name": "f59b050d3705b3f5ce4cefb3a3ae1bc5"}, {"bike_id": "5fa41413414dd4272d1931961dee2553", "type": "electric_scooter", "is_disabled": 0, "lat": 38.90254483333333, "rental_uris": {"ios": "https://dc.lft.to/lastmile_qr_scan", "android": "https://dc.lft.to/lastmile_qr_scan"}, "is_reserved": 0, "fusion_lon": 0.0, "fusion_lat": 0.0, "lon": -77.01782716666666, "name": "5fa41413414dd4272d1931961dee2553"}, {"bike_id": "679c810b6073aea9318c042c4bd5b5b1", "type": "electric_scooter", "is_disabled": 0, "lat": 38.931457333333334, "rental_uris": {"ios": "https://dc.lft.to/lastmile_qr_scan", "android": "https://dc.lft.to/lastmile_qr_scan"}, "is_reserved": 0, "fusion_lon": 0.0, "fusion_lat": 0.0, "lon": -77.04251416666666, "name": "679c810b6073aea9318c042c4bd5b5b1"}, {"bike_id": "ef411b853e717f9356f88507d7e94f62", "type": "electric_scooter", "is_disabled": 0, "lat": 38.91707483333333, "rental_uris": {"ios": "https://dc.lft.to/lastmile_qr_scan", "android": "https://dc.lft.to/lastmile_qr_scan"}, "is_reserved": 0, "fusion_lon": 0.0, "fusion_lat": 0.0, "lon": -77.04002416666667, "name": "ef411b853e717f9356f88507d7e94f62"}, {"bike_id": "a9c317a7b2011f0205fd6f44ea9a47ab", "type": "electric_scooter", "is_disabled": 0, "lat": 38.896946, "rental_uris": {"ios": "https://dc.lft.to/lastmile_qr_scan", "android": "https://dc.lft.to/lastmile_qr_scan"}, "is_reserved": 0, "fusion_lon": 0.0, "fusion_lat": 0.0, "lon": -77.02296066666666, "name": "a9c317a7b2011f0205fd6f44ea9a47ab"}, {"bike_id": "5a8fd3807b6b6f6b7255200f8025a834", "type": "electric_scooter", "is_disabled": 0, "lat": 38.91420766666667, "rental_uris": {"ios": "https://dc.lft.to/lastmile_qr_scan", "android": "https://dc.lft.to/lastmile_qr_scan"}, "is_reserved": 0, "fusion_lon": 0.0, "fusion_lat": 0.0, "lon": -77.021804, "name": "5a8fd3807b6b6f6b7255200f8025a834"}, {"bike_id": "008b0ac02ef2cbb044d88fb373d770e5", "type": "electric_scooter", "is_disabled": 0, "lat": 38.9484125, "rental_uris": {"ios": "https://dc.lft.to/lastmile_qr_scan", "android": "https://dc.lft.to/lastmile_qr_scan"}, "is_reserved": 0, "fusion_lon": 0.0, "fusion_lat": 0.0, "lon": -77.02543866666667, "name": "008b0ac02ef2cbb044d88fb373d770e5"}, {"bike_id": "4bd19c85ea54ca337d9f3d6ab54371d5", "type": "electric_scooter", "is_disabled": 0, "lat": 38.91601883333333, "rental_uris": {"ios": "https://dc.lft.to/lastmile_qr_scan", "android": "https://dc.lft.to/lastmile_qr_scan"}, "is_reserved": 0, "fusion_lon": 0.0, "fusion_lat": 0.0, "lon": -77.03980933333334, "name": "4bd19c85ea54ca337d9f3d6ab54371d5"}, {"bike_id": "938de6755bf5d1ec2059969177c75117", "type": "electric_scooter", "is_disabled": 0, "lat": 38.93272616666667, "rental_uris": {"ios": "https://dc.lft.to/lastmile_qr_scan", "android": "https://dc.lft.to/lastmile_qr_scan"}, "is_reserved": 0, "fusion_lon": 0.0, "fusion_lat": 0.0, "lon": -77.03091466666666, "name": "938de6755bf5d1ec2059969177c75117"}, {"bike_id": "16d4f75914fe932da5ebe652f6e164d3", "type": "electric_scooter", "is_disabled": 0, "lat": 38.89969033333333, "rental_uris": {"ios": "https://dc.lft.to/lastmile_qr_scan", "android": "https://dc.lft.to/lastmile_qr_scan"}, "is_reserved": 0, "fusion_lon": 0.0, "fusion_lat": 0.0, "lon": -76.9830505, "name": "16d4f75914fe932da5ebe652f6e164d3"}, {"bike_id": "dfc28ae9d2da9c0c94f1ce93c5075882", "type": "electric_scooter", "is_disabled": 0, "lat": 38.90386433333333, "rental_uris": {"ios": "https://dc.lft.to/lastmile_qr_scan", "android": "https://dc.lft.to/lastmile_qr_scan"}, "is_reserved": 0, "fusion_lon": 0.0, "fusion_lat": 0.0, "lon": -77.04830183333333, "name": "dfc28ae9d2da9c0c94f1ce93c5075882"}, {"bike_id": "49b3ae1b0e3a065ccc968dff9c85e796", "type": "electric_scooter", "is_disabled": 0, "lat": 38.866817166666664, "rental_uris": {"ios": "https://dc.lft.to/lastmile_qr_scan", "android": "https://dc.lft.to/lastmile_qr_scan"}, "is_reserved": 0, "fusion_lon": 0.0, "fusion_lat": 0.0, "lon": -76.98570583333333, "name": "49b3ae1b0e3a065ccc968dff9c85e796"}, {"bike_id": "f38d66760278098e9922c249f4077a82", "type": "electric_bike", "is_disabled": 0, "lat": 38.94365366666667, "rental_uris": {"ios": "https://dc.lft.to/lastmile_qr_scan", "android": "https://dc.lft.to/lastmile_qr_scan"}, "is_reserved": 0, "fusion_lon": 0.0, "fusion_lat": 0.0, "lon": -77.00353933333334, "name": "f38d66760278098e9922c249f4077a82"}, {"bike_id": "7a9991969407a2ccb89273bac002b8a4", "type": "electric_scooter", "is_disabled": 0, "lat": 38.8871455, "rental_uris": {"ios": "https://dc.lft.to/lastmile_qr_scan", "android": "https://dc.lft.to/lastmile_qr_scan"}, "is_reserved": 0, "fusion_lon": 0.0, "fusion_lat": 0.0, "lon": -76.996284, "name": "7a9991969407a2ccb89273bac002b8a4"}, {"bike_id": "877f87c549c5fc264c3a0975d6169205", "type": "electric_scooter", "is_disabled": 0, "lat": 38.88638733333333, "rental_uris": {"ios": "https://dc.lft.to/lastmile_qr_scan", "android": "https://dc.lft.to/lastmile_qr_scan"}, "is_reserved": 0, "fusion_lon": 0.0, "fusion_lat": 0.0, "lon": -77.01379866666667, "name": "877f87c549c5fc264c3a0975d6169205"}, {"bike_id": "39dad81baa139a31934c5938e04faa04", "type": "electric_scooter", "is_disabled": 0, "lat": 38.9350135, "rental_uris": {"ios": "https://dc.lft.to/lastmile_qr_scan", "android": "https://dc.lft.to/lastmile_qr_scan"}, "is_reserved": 0, "fusion_lon": 0.0, "fusion_lat": 0.0, "lon": -77.02545383333333, "name": "39dad81baa139a31934c5938e04faa04"}, {"bike_id": "6305ff13d8da848d359150e6593f45a4", "type": "electric_scooter", "is_disabled": 0, "lat": 38.89803783333333, "rental_uris": {"ios": "https://dc.lft.to/lastmile_qr_scan", "android": "https://dc.lft.to/lastmile_qr_scan"}, "is_reserved": 0, "fusion_lon": 0.0, "fusion_lat": 0.0, "lon": -77.03204266666667, "name": "6305ff13d8da848d359150e6593f45a4"}, {"bike_id": "88438fb1cbdfc5478d0c3d6689383cf5", "type": "electric_scooter", "is_disabled": 0, "lat": 38.858093, "rental_uris": {"ios": "https://dc.lft.to/lastmile_qr_scan", "android": "https://dc.lft.to/lastmile_qr_scan"}, "is_reserved": 0, "fusion_lon": 0.0, "fusion_lat": 0.0, "lon": -76.98922183333333, "name": "88438fb1cbdfc5478d0c3d6689383cf5"}, {"bike_id": "a83fb7b9391dd63d0ff49e413d1ff826", "type": "electric_scooter", "is_disabled": 0, "lat": 38.894813, "rental_uris": {"ios": "https://dc.lft.to/lastmile_qr_scan", "android": "https://dc.lft.to/lastmile_qr_scan"}, "is_reserved": 0, "fusion_lon": 0.0, "fusion_lat": 0.0, "lon": -76.987792, "name": "a83fb7b9391dd63d0ff49e413d1ff826"}, {"bike_id": "90fb21a78d183b22ed5a788024e55ca4", "type": "electric_scooter", "is_disabled": 0, "lat": 38.90784633333333, "rental_uris": {"ios": "https://dc.lft.to/lastmile_qr_scan", "android": "https://dc.lft.to/lastmile_qr_scan"}, "is_reserved": 0, "fusion_lon": 0.0, "fusion_lat": 0.0, "lon": -76.99420083333334, "name": "90fb21a78d183b22ed5a788024e55ca4"}, {"bike_id": "09b1be53a62cb80e3f7b3b6dbad1d29a", "type": "electric_scooter", "is_disabled": 0, "lat": 38.8662635, "rental_uris": {"ios": "https://dc.lft.to/lastmile_qr_scan", "android": "https://dc.lft.to/lastmile_qr_scan"}, "is_reserved": 0, "fusion_lon": 0.0, "fusion_lat": 0.0, "lon": -76.9872065, "name": "09b1be53a62cb80e3f7b3b6dbad1d29a"}, {"bike_id": "4ef1893b178b3afb9fc0fc8811d3a724", "type": "electric_scooter", "is_disabled": 0, "lat": 38.870699333333334, "rental_uris": {"ios": "https://dc.lft.to/lastmile_qr_scan", "android": "https://dc.lft.to/lastmile_qr_scan"}, "is_reserved": 0, "fusion_lon": 0.0, "fusion_lat": 0.0, "lon": -76.9813235, "name": "4ef1893b178b3afb9fc0fc8811d3a724"}, {"bike_id": "9dc2a3cb0ef1cf0057af98e3d6f25325", "type": "electric_scooter", "is_disabled": 0, "lat": 38.905965, "rental_uris": {"ios": "https://dc.lft.to/lastmile_qr_scan", "android": "https://dc.lft.to/lastmile_qr_scan"}, "is_reserved": 0, "fusion_lon": 0.0, "fusion_lat": 0.0, "lon": -77.04880366666667, "name": "9dc2a3cb0ef1cf0057af98e3d6f25325"}, {"bike_id": "e9532248e6549174ac2ef98422765dbf", "type": "electric_scooter", "is_disabled": 0, "lat": 38.92128183333333, "rental_uris": {"ios": "https://dc.lft.to/lastmile_qr_scan", "android": "https://dc.lft.to/lastmile_qr_scan"}, "is_reserved": 0, "fusion_lon": 0.0, "fusion_lat": 0.0, "lon": -77.02717566666666, "name": "e9532248e6549174ac2ef98422765dbf"}, {"bike_id": "cc818387979e0c5a5830d6cecd431b75", "type": "electric_bike", "is_disabled": 0, "lat": 38.823672, "rental_uris": {"ios": "https://dc.lft.to/lastmile_qr_scan", "android": "https://dc.lft.to/lastmile_qr_scan"}, "is_reserved": 0, "fusion_lon": 0.0, "fusion_lat": 0.0, "lon": -77.00217866666667, "name": "cc818387979e0c5a5830d6cecd431b75"}, {"bike_id": "167a62d4c74db480ba1c522b977e5aad", "type": "electric_scooter", "is_disabled": 0, "lat": 38.92370066666667, "rental_uris": {"ios": "https://dc.lft.to/lastmile_qr_scan", "android": "https://dc.lft.to/lastmile_qr_scan"}, "is_reserved": 0, "fusion_lon": 0.0, "fusion_lat": 0.0, "lon": -77.05029383333333, "name": "167a62d4c74db480ba1c522b977e5aad"}, {"bike_id": "566b3b1a401998cf0f4c0898e85d6f59", "type": "electric_scooter", "is_disabled": 0, "lat": 38.91576516666667, "rental_uris": {"ios": "https://dc.lft.to/lastmile_qr_scan", "android": "https://dc.lft.to/lastmile_qr_scan"}, "is_reserved": 0, "fusion_lon": 0.0, "fusion_lat": 0.0, "lon": -77.019559, "name": "566b3b1a401998cf0f4c0898e85d6f59"}, {"bike_id": "bf4a5b97c11e423cb044f6cb4ab37bee", "type": "electric_scooter", "is_disabled": 0, "lat": 38.923612, "rental_uris": {"ios": "https://dc.lft.to/lastmile_qr_scan", "android": "https://dc.lft.to/lastmile_qr_scan"}, "is_reserved": 0, "fusion_lon": 0.0, "fusion_lat": 0.0, "lon": -77.0505265, "name": "bf4a5b97c11e423cb044f6cb4ab37bee"}, {"bike_id": "62499248b0ebccc6415146286d3747fd", "type": "electric_scooter", "is_disabled": 0, "lat": 38.90960116666667, "rental_uris": {"ios": "https://dc.lft.to/lastmile_qr_scan", "android": "https://dc.lft.to/lastmile_qr_scan"}, "is_reserved": 0, "fusion_lon": 0.0, "fusion_lat": 0.0, "lon": -77.02276716666667, "name": "62499248b0ebccc6415146286d3747fd"}, {"bike_id": "b18a97f6d327963b01c4f14588b8bfa6", "type": "electric_scooter", "is_disabled": 0, "lat": 38.876881833333336, "rental_uris": {"ios": "https://dc.lft.to/lastmile_qr_scan", "android": "https://dc.lft.to/lastmile_qr_scan"}, "is_reserved": 0, "fusion_lon": 0.0, "fusion_lat": 0.0, "lon": -77.01754683333333, "name": "b18a97f6d327963b01c4f14588b8bfa6"}, {"bike_id": "6d1107df0a1fef7736a886b5945d5d83", "type": "electric_bike", "is_disabled": 0, "lat": 38.93608866666667, "rental_uris": {"ios": "https://dc.lft.to/lastmile_qr_scan", "android": "https://dc.lft.to/lastmile_qr_scan"}, "is_reserved": 0, "fusion_lon": 0.0, "fusion_lat": 0.0, "lon": -77.05861, "name": "6d1107df0a1fef7736a886b5945d5d83"}, {"bike_id": "e565cf472d34e0ac8e20b95bb8ae72a0", "type": "electric_scooter", "is_disabled": 0, "lat": 38.915557166666666, "rental_uris": {"ios": "https://dc.lft.to/lastmile_qr_scan", "android": "https://dc.lft.to/lastmile_qr_scan"}, "is_reserved": 0, "fusion_lon": 0.0, "fusion_lat": 0.0, "lon": -77.02415083333334, "name": "e565cf472d34e0ac8e20b95bb8ae72a0"}, {"bike_id": "8e95ab642a4b5aa7f75c29bb1a5d33af", "type": "electric_scooter", "is_disabled": 0, "lat": 38.91320483333333, "rental_uris": {"ios": "https://dc.lft.to/lastmile_qr_scan", "android": "https://dc.lft.to/lastmile_qr_scan"}, "is_reserved": 0, "fusion_lon": 0.0, "fusion_lat": 0.0, "lon": -77.03856533333334, "name": "8e95ab642a4b5aa7f75c29bb1a5d33af"}, {"bike_id": "64432b3afabdf5ba008ac234300865ed", "type": "electric_scooter", "is_disabled": 0, "lat": 38.8753005, "rental_uris": {"ios": "https://dc.lft.to/lastmile_qr_scan", "android": "https://dc.lft.to/lastmile_qr_scan"}, "is_reserved": 0, "fusion_lon": 0.0, "fusion_lat": 0.0, "lon": -77.00049866666667, "name": "64432b3afabdf5ba008ac234300865ed"}, {"bike_id": "8e5fab3202029f165071f9295dbe374f", "type": "electric_bike", "is_disabled": 0, "lat": 38.85935283333333, "rental_uris": {"ios": "https://dc.lft.to/lastmile_qr_scan", "android": "https://dc.lft.to/lastmile_qr_scan"}, "is_reserved": 0, "fusion_lon": 0.0, "fusion_lat": 0.0, "lon": -77.11827133333334, "name": "8e5fab3202029f165071f9295dbe374f"}, {"bike_id": "7d0ce350a68d971a35e045d0ad24802b", "type": "electric_scooter", "is_disabled": 0, "lat": 38.91105733333333, "rental_uris": {"ios": "https://dc.lft.to/lastmile_qr_scan", "android": "https://dc.lft.to/lastmile_qr_scan"}, "is_reserved": 0, "fusion_lon": 0.0, "fusion_lat": 0.0, "lon": -77.04991416666667, "name": "7d0ce350a68d971a35e045d0ad24802b"}, {"bike_id": "e51796c95b0813044cbb49fe06057795", "type": "electric_scooter", "is_disabled": 0, "lat": 38.92361916666667, "rental_uris": {"ios": "https://dc.lft.to/lastmile_qr_scan", "android": "https://dc.lft.to/lastmile_qr_scan"}, "is_reserved": 0, "fusion_lon": 0.0, "fusion_lat": 0.0, "lon": -77.05126133333333, "name": "e51796c95b0813044cbb49fe06057795"}, {"bike_id": "c3ab820f097cc0d6f40fd875d9899f78", "type": "electric_scooter", "is_disabled": 0, "lat": 38.92329683333333, "rental_uris": {"ios": "https://dc.lft.to/lastmile_qr_scan", "android": "https://dc.lft.to/lastmile_qr_scan"}, "is_reserved": 0, "fusion_lon": 0.0, "fusion_lat": 0.0, "lon": -77.0574265, "name": "c3ab820f097cc0d6f40fd875d9899f78"}, {"bike_id": "b6bb5062a1f0b527fc2838736e444470", "type": "electric_scooter", "is_disabled": 0, "lat": 38.91927183333333, "rental_uris": {"ios": "https://dc.lft.to/lastmile_qr_scan", "android": "https://dc.lft.to/lastmile_qr_scan"}, "is_reserved": 0, "fusion_lon": 0.0, "fusion_lat": 0.0, "lon": -77.02440366666667, "name": "b6bb5062a1f0b527fc2838736e444470"}, {"bike_id": "e93e2162b85539dcda911cb774e38409", "type": "electric_scooter", "is_disabled": 0, "lat": 38.93363566666667, "rental_uris": {"ios": "https://dc.lft.to/lastmile_qr_scan", "android": "https://dc.lft.to/lastmile_qr_scan"}, "is_reserved": 0, "fusion_lon": 0.0, "fusion_lat": 0.0, "lon": -77.04117483333333, "name": "e93e2162b85539dcda911cb774e38409"}, {"bike_id": "fca4efedd7f3118d38b05de5451ed2ff", "type": "electric_scooter", "is_disabled": 0, "lat": 38.9287865, "rental_uris": {"ios": "https://dc.lft.to/lastmile_qr_scan", "android": "https://dc.lft.to/lastmile_qr_scan"}, "is_reserved": 0, "fusion_lon": 0.0, "fusion_lat": 0.0, "lon": -77.01842333333333, "name": "fca4efedd7f3118d38b05de5451ed2ff"}, {"bike_id": "d54b78e8c6f480bf35a4285280f38995", "type": "electric_scooter", "is_disabled": 0, "lat": 38.907162, "rental_uris": {"ios": "https://dc.lft.to/lastmile_qr_scan", "android": "https://dc.lft.to/lastmile_qr_scan"}, "is_reserved": 0, "fusion_lon": 0.0, "fusion_lat": 0.0, "lon": -77.01926483333334, "name": "d54b78e8c6f480bf35a4285280f38995"}, {"bike_id": "4d47561eb917809e294f161282a60cdd", "type": "electric_scooter", "is_disabled": 0, "lat": 38.91608133333333, "rental_uris": {"ios": "https://dc.lft.to/lastmile_qr_scan", "android": "https://dc.lft.to/lastmile_qr_scan"}, "is_reserved": 0, "fusion_lon": 0.0, "fusion_lat": 0.0, "lon": -77.03374033333333, "name": "4d47561eb917809e294f161282a60cdd"}, {"bike_id": "0721bf858f3e347ec0b17568565932b9", "type": "electric_scooter", "is_disabled": 0, "lat": 38.91048116666666, "rental_uris": {"ios": "https://dc.lft.to/lastmile_qr_scan", "android": "https://dc.lft.to/lastmile_qr_scan"}, "is_reserved": 0, "fusion_lon": 0.0, "fusion_lat": 0.0, "lon": -77.04095133333334, "name": "0721bf858f3e347ec0b17568565932b9"}, {"bike_id": "f5a6f874940db58cdad5409fd377946c", "type": "electric_bike", "is_disabled": 0, "lat": 38.948325833333335, "rental_uris": {"ios": "https://dc.lft.to/lastmile_qr_scan", "android": "https://dc.lft.to/lastmile_qr_scan"}, "is_reserved": 0, "fusion_lon": 0.0, "fusion_lat": 0.0, "lon": -77.0389595, "name": "f5a6f874940db58cdad5409fd377946c"}, {"bike_id": "7adcfc5a2c2b98ca8fef0f33c07955ce", "type": "electric_bike", "is_disabled": 0, "lat": 38.800247166666665, "rental_uris": {"ios": "https://dc.lft.to/lastmile_qr_scan", "android": "https://dc.lft.to/lastmile_qr_scan"}, "is_reserved": 0, "fusion_lon": 0.0, "fusion_lat": 0.0, "lon": -77.06332616666667, "name": "7adcfc5a2c2b98ca8fef0f33c07955ce"}, {"bike_id": "d52d0446295d1641b439436e2ecd332f", "type": "electric_scooter", "is_disabled": 0, "lat": 38.915631833333336, "rental_uris": {"ios": "https://dc.lft.to/lastmile_qr_scan", "android": "https://dc.lft.to/lastmile_qr_scan"}, "is_reserved": 0, "fusion_lon": 0.0, "fusion_lat": 0.0, "lon": -77.0332035, "name": "d52d0446295d1641b439436e2ecd332f"}, {"bike_id": "bf78ef90736c53245b7ff4b7ed9d1f5c", "type": "electric_scooter", "is_disabled": 0, "lat": 38.931871666666666, "rental_uris": {"ios": "https://dc.lft.to/lastmile_qr_scan", "android": "https://dc.lft.to/lastmile_qr_scan"}, "is_reserved": 0, "fusion_lon": 0.0, "fusion_lat": 0.0, "lon": -77.02679916666666, "name": "bf78ef90736c53245b7ff4b7ed9d1f5c"}, {"bike_id": "1f0356527f084a18cc46e9f52d6fb5c2", "type": "electric_scooter", "is_disabled": 0, "lat": 38.92388783333333, "rental_uris": {"ios": "https://dc.lft.to/lastmile_qr_scan", "android": "https://dc.lft.to/lastmile_qr_scan"}, "is_reserved": 0, "fusion_lon": 0.0, "fusion_lat": 0.0, "lon": -77.04472283333334, "name": "1f0356527f084a18cc46e9f52d6fb5c2"}, {"bike_id": "1da8d437b442249178d84bda0ffdeb4d", "type": "electric_scooter", "is_disabled": 0, "lat": 38.865050833333335, "rental_uris": {"ios": "https://dc.lft.to/lastmile_qr_scan", "android": "https://dc.lft.to/lastmile_qr_scan"}, "is_reserved": 0, "fusion_lon": 0.0, "fusion_lat": 0.0, "lon": -76.990011, "name": "1da8d437b442249178d84bda0ffdeb4d"}, {"bike_id": "d001b62714deba7b473629e388d3d1e0", "type": "electric_scooter", "is_disabled": 0, "lat": 38.86682616666667, "rental_uris": {"ios": "https://dc.lft.to/lastmile_qr_scan", "android": "https://dc.lft.to/lastmile_qr_scan"}, "is_reserved": 0, "fusion_lon": 0.0, "fusion_lat": 0.0, "lon": -76.98574566666667, "name": "d001b62714deba7b473629e388d3d1e0"}, {"bike_id": "4a376bc83ccd0a168f5dd2be31b74952", "type": "electric_scooter", "is_disabled": 0, "lat": 38.92028083333334, "rental_uris": {"ios": "https://dc.lft.to/lastmile_qr_scan", "android": "https://dc.lft.to/lastmile_qr_scan"}, "is_reserved": 0, "fusion_lon": 0.0, "fusion_lat": 0.0, "lon": -77.04205816666666, "name": "4a376bc83ccd0a168f5dd2be31b74952"}, {"bike_id": "b5463f62b5fcd8802f3f3c7469496fb9", "type": "electric_scooter", "is_disabled": 0, "lat": 38.915560166666666, "rental_uris": {"ios": "https://dc.lft.to/lastmile_qr_scan", "android": "https://dc.lft.to/lastmile_qr_scan"}, "is_reserved": 0, "fusion_lon": 0.0, "fusion_lat": 0.0, "lon": -77.044464, "name": "b5463f62b5fcd8802f3f3c7469496fb9"}, {"bike_id": "e3fd7c931f49dd43562ab903959e1e32", "type": "electric_scooter", "is_disabled": 0, "lat": 38.91700316666667, "rental_uris": {"ios": "https://dc.lft.to/lastmile_qr_scan", "android": "https://dc.lft.to/lastmile_qr_scan"}, "is_reserved": 0, "fusion_lon": 0.0, "fusion_lat": 0.0, "lon": -77.0081355, "name": "e3fd7c931f49dd43562ab903959e1e32"}, {"bike_id": "a45aef0cbfa0fd5449e4417ffbab8d71", "type": "electric_scooter", "is_disabled": 0, "lat": 38.9050355, "rental_uris": {"ios": "https://dc.lft.to/lastmile_qr_scan", "android": "https://dc.lft.to/lastmile_qr_scan"}, "is_reserved": 0, "fusion_lon": 0.0, "fusion_lat": 0.0, "lon": -77.02943283333333, "name": "a45aef0cbfa0fd5449e4417ffbab8d71"}, {"bike_id": "1e63a237fe89ae8a39f6dfc560a94fa4", "type": "electric_scooter", "is_disabled": 0, "lat": 38.935214333333334, "rental_uris": {"ios": "https://dc.lft.to/lastmile_qr_scan", "android": "https://dc.lft.to/lastmile_qr_scan"}, "is_reserved": 0, "fusion_lon": 0.0, "fusion_lat": 0.0, "lon": -77.03353933333334, "name": "1e63a237fe89ae8a39f6dfc560a94fa4"}, {"bike_id": "abcc6c98f4e64ffeaf8b9860598707f1", "type": "electric_scooter", "is_disabled": 0, "lat": 38.912575, "rental_uris": {"ios": "https://dc.lft.to/lastmile_qr_scan", "android": "https://dc.lft.to/lastmile_qr_scan"}, "is_reserved": 0, "fusion_lon": 0.0, "fusion_lat": 0.0, "lon": -77.00956383333333, "name": "abcc6c98f4e64ffeaf8b9860598707f1"}, {"bike_id": "bf988ed1e945d2590a7648e96474e062", "type": "electric_scooter", "is_disabled": 0, "lat": 38.9156175, "rental_uris": {"ios": "https://dc.lft.to/lastmile_qr_scan", "android": "https://dc.lft.to/lastmile_qr_scan"}, "is_reserved": 0, "fusion_lon": 0.0, "fusion_lat": 0.0, "lon": -77.02591016666666, "name": "bf988ed1e945d2590a7648e96474e062"}, {"bike_id": "521ab5ee67ca55956dc38f7bb2d5e20b", "type": "electric_scooter", "is_disabled": 0, "lat": 38.9346175, "rental_uris": {"ios": "https://dc.lft.to/lastmile_qr_scan", "android": "https://dc.lft.to/lastmile_qr_scan"}, "is_reserved": 0, "fusion_lon": 0.0, "fusion_lat": 0.0, "lon": -77.04545716666667, "name": "521ab5ee67ca55956dc38f7bb2d5e20b"}, {"bike_id": "6174176763a8bae570ec9f99de2fa59b", "type": "electric_scooter", "is_disabled": 0, "lat": 38.90722516666666, "rental_uris": {"ios": "https://dc.lft.to/lastmile_qr_scan", "android": "https://dc.lft.to/lastmile_qr_scan"}, "is_reserved": 0, "fusion_lon": 0.0, "fusion_lat": 0.0, "lon": -77.032008, "name": "6174176763a8bae570ec9f99de2fa59b"}, {"bike_id": "31b6eac76b1195d9243dece1e4907bf9", "type": "electric_bike", "is_disabled": 0, "lat": 38.966385333333335, "rental_uris": {"ios": "https://dc.lft.to/lastmile_qr_scan", "android": "https://dc.lft.to/lastmile_qr_scan"}, "is_reserved": 0, "fusion_lon": 0.0, "fusion_lat": 0.0, "lon": -76.97673433333334, "name": "31b6eac76b1195d9243dece1e4907bf9"}, {"bike_id": "02299f0f56fbf98cbc34e8daf9908cef", "type": "electric_scooter", "is_disabled": 0, "lat": 38.8828085, "rental_uris": {"ios": "https://dc.lft.to/lastmile_qr_scan", "android": "https://dc.lft.to/lastmile_qr_scan"}, "is_reserved": 0, "fusion_lon": 0.0, "fusion_lat": 0.0, "lon": -77.02143266666667, "name": "02299f0f56fbf98cbc34e8daf9908cef"}, {"bike_id": "8036c077c1fd076d1f6b79e4507be1ae", "type": "electric_bike", "is_disabled": 0, "lat": 38.9223685, "rental_uris": {"ios": "https://dc.lft.to/lastmile_qr_scan", "android": "https://dc.lft.to/lastmile_qr_scan"}, "is_reserved": 0, "fusion_lon": 0.0, "fusion_lat": 0.0, "lon": -77.04480733333334, "name": "8036c077c1fd076d1f6b79e4507be1ae"}, {"bike_id": "2729b90a486a5911873b0a7b594820af", "type": "electric_scooter", "is_disabled": 0, "lat": 38.922533666666666, "rental_uris": {"ios": "https://dc.lft.to/lastmile_qr_scan", "android": "https://dc.lft.to/lastmile_qr_scan"}, "is_reserved": 0, "fusion_lon": 0.0, "fusion_lat": 0.0, "lon": -77.04208333333334, "name": "2729b90a486a5911873b0a7b594820af"}, {"bike_id": "e0f24d6b12e0f50099ab1fcfa90c9955", "type": "electric_scooter", "is_disabled": 0, "lat": 38.899168, "rental_uris": {"ios": "https://dc.lft.to/lastmile_qr_scan", "android": "https://dc.lft.to/lastmile_qr_scan"}, "is_reserved": 0, "fusion_lon": 0.0, "fusion_lat": 0.0, "lon": -76.93371983333333, "name": "e0f24d6b12e0f50099ab1fcfa90c9955"}, {"bike_id": "c67654266ea349b3816de10e179a6212", "type": "electric_scooter", "is_disabled": 0, "lat": 38.8994865, "rental_uris": {"ios": "https://dc.lft.to/lastmile_qr_scan", "android": "https://dc.lft.to/lastmile_qr_scan"}, "is_reserved": 0, "fusion_lon": 0.0, "fusion_lat": 0.0, "lon": -77.01469016666667, "name": "c67654266ea349b3816de10e179a6212"}, {"bike_id": "04308381f5de184c168af15043b7140e", "type": "electric_scooter", "is_disabled": 0, "lat": 38.93026566666666, "rental_uris": {"ios": "https://dc.lft.to/lastmile_qr_scan", "android": "https://dc.lft.to/lastmile_qr_scan"}, "is_reserved": 0, "fusion_lon": 0.0, "fusion_lat": 0.0, "lon": -77.02353283333333, "name": "04308381f5de184c168af15043b7140e"}, {"bike_id": "429ceacc3ec02cd6730bfcb1aa289659", "type": "electric_scooter", "is_disabled": 0, "lat": 38.9048445, "rental_uris": {"ios": "https://dc.lft.to/lastmile_qr_scan", "android": "https://dc.lft.to/lastmile_qr_scan"}, "is_reserved": 0, "fusion_lon": 0.0, "fusion_lat": 0.0, "lon": -77.06122266666667, "name": "429ceacc3ec02cd6730bfcb1aa289659"}, {"bike_id": "2b79fa710c381a79632531928b38692d", "type": "electric_scooter", "is_disabled": 0, "lat": 38.898442833333334, "rental_uris": {"ios": "https://dc.lft.to/lastmile_qr_scan", "android": "https://dc.lft.to/lastmile_qr_scan"}, "is_reserved": 0, "fusion_lon": 0.0, "fusion_lat": 0.0, "lon": -76.94632966666667, "name": "2b79fa710c381a79632531928b38692d"}, {"bike_id": "3ace5a65253aeade81686b3aad2831cf", "type": "electric_scooter", "is_disabled": 0, "lat": 38.90737133333333, "rental_uris": {"ios": "https://dc.lft.to/lastmile_qr_scan", "android": "https://dc.lft.to/lastmile_qr_scan"}, "is_reserved": 0, "fusion_lon": 0.0, "fusion_lat": 0.0, "lon": -77.02182683333334, "name": "3ace5a65253aeade81686b3aad2831cf"}, {"bike_id": "2673888befb8046ea72dd3a5c4399907", "type": "electric_scooter", "is_disabled": 0, "lat": 38.923902166666664, "rental_uris": {"ios": "https://dc.lft.to/lastmile_qr_scan", "android": "https://dc.lft.to/lastmile_qr_scan"}, "is_reserved": 0, "fusion_lon": 0.0, "fusion_lat": 0.0, "lon": -77.0445245, "name": "2673888befb8046ea72dd3a5c4399907"}, {"bike_id": "bbaa6d609e98134e80d9dfc8b941248e", "type": "electric_bike", "is_disabled": 0, "lat": 38.81512383333333, "rental_uris": {"ios": "https://dc.lft.to/lastmile_qr_scan", "android": "https://dc.lft.to/lastmile_qr_scan"}, "is_reserved": 0, "fusion_lon": 0.0, "fusion_lat": 0.0, "lon": -77.12655916666667, "name": "bbaa6d609e98134e80d9dfc8b941248e"}, {"bike_id": "870ea6b7630255eed112d64f0f7ad68b", "type": "electric_scooter", "is_disabled": 0, "lat": 38.923304, "rental_uris": {"ios": "https://dc.lft.to/lastmile_qr_scan", "android": "https://dc.lft.to/lastmile_qr_scan"}, "is_reserved": 0, "fusion_lon": 0.0, "fusion_lat": 0.0, "lon": -77.05416233333334, "name": "870ea6b7630255eed112d64f0f7ad68b"}, {"bike_id": "ef026846b271454992f7d51bb0c95f9e", "type": "electric_scooter", "is_disabled": 0, "lat": 38.912673833333336, "rental_uris": {"ios": "https://dc.lft.to/lastmile_qr_scan", "android": "https://dc.lft.to/lastmile_qr_scan"}, "is_reserved": 0, "fusion_lon": 0.0, "fusion_lat": 0.0, "lon": -77.04490366666667, "name": "ef026846b271454992f7d51bb0c95f9e"}, {"bike_id": "301d1ddaa9c49c6ea11211dfedb88f16", "type": "electric_bike", "is_disabled": 0, "lat": 38.79605316666667, "rental_uris": {"ios": "https://dc.lft.to/lastmile_qr_scan", "android": "https://dc.lft.to/lastmile_qr_scan"}, "is_reserved": 0, "fusion_lon": 0.0, "fusion_lat": 0.0, "lon": -76.99740416666667, "name": "301d1ddaa9c49c6ea11211dfedb88f16"}, {"bike_id": "08139fb9d4378f2ac31756b267647c79", "type": "electric_scooter", "is_disabled": 0, "lat": 38.904211, "rental_uris": {"ios": "https://dc.lft.to/lastmile_qr_scan", "android": "https://dc.lft.to/lastmile_qr_scan"}, "is_reserved": 0, "fusion_lon": 0.0, "fusion_lat": 0.0, "lon": -77.0250205, "name": "08139fb9d4378f2ac31756b267647c79"}, {"bike_id": "594e517471fca0505f5bce7ffc97ead5", "type": "electric_scooter", "is_disabled": 0, "lat": 38.9244985, "rental_uris": {"ios": "https://dc.lft.to/lastmile_qr_scan", "android": "https://dc.lft.to/lastmile_qr_scan"}, "is_reserved": 0, "fusion_lon": 0.0, "fusion_lat": 0.0, "lon": -77.0334415, "name": "594e517471fca0505f5bce7ffc97ead5"}, {"bike_id": "039d96286af24d8e157d6eb07b3c3824", "type": "electric_scooter", "is_disabled": 0, "lat": 38.914203, "rental_uris": {"ios": "https://dc.lft.to/lastmile_qr_scan", "android": "https://dc.lft.to/lastmile_qr_scan"}, "is_reserved": 0, "fusion_lon": 0.0, "fusion_lat": 0.0, "lon": -77.01804033333333, "name": "039d96286af24d8e157d6eb07b3c3824"}, {"bike_id": "1da125b82e1a8d9a6921a4cc0a13524e", "type": "electric_scooter", "is_disabled": 0, "lat": 38.90563316666667, "rental_uris": {"ios": "https://dc.lft.to/lastmile_qr_scan", "android": "https://dc.lft.to/lastmile_qr_scan"}, "is_reserved": 0, "fusion_lon": 0.0, "fusion_lat": 0.0, "lon": -77.034264, "name": "1da125b82e1a8d9a6921a4cc0a13524e"}, {"bike_id": "c0ca4e1ac4683ffd4e2a3dd3af67780f", "type": "electric_scooter", "is_disabled": 0, "lat": 38.89600183333334, "rental_uris": {"ios": "https://dc.lft.to/lastmile_qr_scan", "android": "https://dc.lft.to/lastmile_qr_scan"}, "is_reserved": 0, "fusion_lon": 0.0, "fusion_lat": 0.0, "lon": -77.04427516666667, "name": "c0ca4e1ac4683ffd4e2a3dd3af67780f"}, {"bike_id": "42cad9eca63562fc4fee7ef53204aca8", "type": "electric_scooter", "is_disabled": 0, "lat": 38.902648166666665, "rental_uris": {"ios": "https://dc.lft.to/lastmile_qr_scan", "android": "https://dc.lft.to/lastmile_qr_scan"}, "is_reserved": 0, "fusion_lon": 0.0, "fusion_lat": 0.0, "lon": -77.01885516666667, "name": "42cad9eca63562fc4fee7ef53204aca8"}, {"bike_id": "e54a1b1498d5651f30f0e759c79e94ee", "type": "electric_scooter", "is_disabled": 0, "lat": 38.956542166666665, "rental_uris": {"ios": "https://dc.lft.to/lastmile_qr_scan", "android": "https://dc.lft.to/lastmile_qr_scan"}, "is_reserved": 0, "fusion_lon": 0.0, "fusion_lat": 0.0, "lon": -77.02400583333333, "name": "e54a1b1498d5651f30f0e759c79e94ee"}, {"bike_id": "678265eaa7bb1660e30131304ad3b2db", "type": "electric_scooter", "is_disabled": 0, "lat": 38.887147, "rental_uris": {"ios": "https://dc.lft.to/lastmile_qr_scan", "android": "https://dc.lft.to/lastmile_qr_scan"}, "is_reserved": 0, "fusion_lon": 0.0, "fusion_lat": 0.0, "lon": -76.99629183333333, "name": "678265eaa7bb1660e30131304ad3b2db"}, {"bike_id": "9950738fd0895ecd6819b92bade65347", "type": "electric_scooter", "is_disabled": 0, "lat": 38.90572733333333, "rental_uris": {"ios": "https://dc.lft.to/lastmile_qr_scan", "android": "https://dc.lft.to/lastmile_qr_scan"}, "is_reserved": 0, "fusion_lon": 0.0, "fusion_lat": 0.0, "lon": -77.044919, "name": "9950738fd0895ecd6819b92bade65347"}, {"bike_id": "e881d3d971a2601c3ca939cbea74c81a", "type": "electric_scooter", "is_disabled": 0, "lat": 38.89292716666667, "rental_uris": {"ios": "https://dc.lft.to/lastmile_qr_scan", "android": "https://dc.lft.to/lastmile_qr_scan"}, "is_reserved": 0, "fusion_lon": 0.0, "fusion_lat": 0.0, "lon": -77.0487745, "name": "e881d3d971a2601c3ca939cbea74c81a"}, {"bike_id": "a4874d7531fac40e444a76ac15512ad5", "type": "electric_scooter", "is_disabled": 0, "lat": 38.92915766666667, "rental_uris": {"ios": "https://dc.lft.to/lastmile_qr_scan", "android": "https://dc.lft.to/lastmile_qr_scan"}, "is_reserved": 0, "fusion_lon": 0.0, "fusion_lat": 0.0, "lon": -77.03752233333333, "name": "a4874d7531fac40e444a76ac15512ad5"}, {"bike_id": "395000d540d58ada22ecf80e7bfe6e50", "type": "electric_scooter", "is_disabled": 0, "lat": 38.864436833333336, "rental_uris": {"ios": "https://dc.lft.to/lastmile_qr_scan", "android": "https://dc.lft.to/lastmile_qr_scan"}, "is_reserved": 0, "fusion_lon": 0.0, "fusion_lat": 0.0, "lon": -76.97995616666667, "name": "395000d540d58ada22ecf80e7bfe6e50"}, {"bike_id": "dbd012b38c811889bd3fe0081f0bb8ee", "type": "electric_scooter", "is_disabled": 0, "lat": 38.89725216666667, "rental_uris": {"ios": "https://dc.lft.to/lastmile_qr_scan", "android": "https://dc.lft.to/lastmile_qr_scan"}, "is_reserved": 0, "fusion_lon": 0.0, "fusion_lat": 0.0, "lon": -77.02717183333333, "name": "dbd012b38c811889bd3fe0081f0bb8ee"}, {"bike_id": "d1ffb565fcb7fd71208bfeae85285a90", "type": "electric_scooter", "is_disabled": 0, "lat": 38.879071333333336, "rental_uris": {"ios": "https://dc.lft.to/lastmile_qr_scan", "android": "https://dc.lft.to/lastmile_qr_scan"}, "is_reserved": 0, "fusion_lon": 0.0, "fusion_lat": 0.0, "lon": -77.0056295, "name": "d1ffb565fcb7fd71208bfeae85285a90"}, {"bike_id": "262f5c082683ab192a427fa96261b943", "type": "electric_scooter", "is_disabled": 0, "lat": 38.90644366666667, "rental_uris": {"ios": "https://dc.lft.to/lastmile_qr_scan", "android": "https://dc.lft.to/lastmile_qr_scan"}, "is_reserved": 0, "fusion_lon": 0.0, "fusion_lat": 0.0, "lon": -77.01836416666667, "name": "262f5c082683ab192a427fa96261b943"}, {"bike_id": "089b5e64de8db56e9127aa448fd399f9", "type": "electric_scooter", "is_disabled": 0, "lat": 38.89932016666667, "rental_uris": {"ios": "https://dc.lft.to/lastmile_qr_scan", "android": "https://dc.lft.to/lastmile_qr_scan"}, "is_reserved": 0, "fusion_lon": 0.0, "fusion_lat": 0.0, "lon": -77.01459033333333, "name": "089b5e64de8db56e9127aa448fd399f9"}, {"bike_id": "00c8503704aeb20a47e4d1995e27b815", "type": "electric_scooter", "is_disabled": 0, "lat": 38.87217316666667, "rental_uris": {"ios": "https://dc.lft.to/lastmile_qr_scan", "android": "https://dc.lft.to/lastmile_qr_scan"}, "is_reserved": 0, "fusion_lon": 0.0, "fusion_lat": 0.0, "lon": -77.01769283333333, "name": "00c8503704aeb20a47e4d1995e27b815"}, {"bike_id": "0a09f13842b469f4c0613549a4319397", "type": "electric_scooter", "is_disabled": 0, "lat": 38.892556666666664, "rental_uris": {"ios": "https://dc.lft.to/lastmile_qr_scan", "android": "https://dc.lft.to/lastmile_qr_scan"}, "is_reserved": 0, "fusion_lon": 0.0, "fusion_lat": 0.0, "lon": -76.92574333333333, "name": "0a09f13842b469f4c0613549a4319397"}, {"bike_id": "6d2584fa8b1a8164ffbad4dce0950def", "type": "electric_scooter", "is_disabled": 0, "lat": 38.903939, "rental_uris": {"ios": "https://dc.lft.to/lastmile_qr_scan", "android": "https://dc.lft.to/lastmile_qr_scan"}, "is_reserved": 0, "fusion_lon": 0.0, "fusion_lat": 0.0, "lon": -76.99013816666667, "name": "6d2584fa8b1a8164ffbad4dce0950def"}, {"bike_id": "773866745112eed8619fbf6d7f1b37c8", "type": "electric_scooter", "is_disabled": 0, "lat": 38.884207833333335, "rental_uris": {"ios": "https://dc.lft.to/lastmile_qr_scan", "android": "https://dc.lft.to/lastmile_qr_scan"}, "is_reserved": 0, "fusion_lon": 0.0, "fusion_lat": 0.0, "lon": -77.00066016666666, "name": "773866745112eed8619fbf6d7f1b37c8"}, {"bike_id": "06fd4e5b6697e54fc5c8ad0e520f5ea2", "type": "electric_scooter", "is_disabled": 0, "lat": 38.892263666666665, "rental_uris": {"ios": "https://dc.lft.to/lastmile_qr_scan", "android": "https://dc.lft.to/lastmile_qr_scan"}, "is_reserved": 0, "fusion_lon": 0.0, "fusion_lat": 0.0, "lon": -77.04951483333333, "name": "06fd4e5b6697e54fc5c8ad0e520f5ea2"}, {"bike_id": "588a58b5ff42d77f6dd4b1e9e0698ec6", "type": "electric_scooter", "is_disabled": 0, "lat": 38.906244, "rental_uris": {"ios": "https://dc.lft.to/lastmile_qr_scan", "android": "https://dc.lft.to/lastmile_qr_scan"}, "is_reserved": 0, "fusion_lon": 0.0, "fusion_lat": 0.0, "lon": -77.02825383333334, "name": "588a58b5ff42d77f6dd4b1e9e0698ec6"}, {"bike_id": "05a68d4fd79d33dd581f5c238ca0539d", "type": "electric_scooter", "is_disabled": 0, "lat": 38.9276315, "rental_uris": {"ios": "https://dc.lft.to/lastmile_qr_scan", "android": "https://dc.lft.to/lastmile_qr_scan"}, "is_reserved": 0, "fusion_lon": 0.0, "fusion_lat": 0.0, "lon": -77.05634983333333, "name": "05a68d4fd79d33dd581f5c238ca0539d"}, {"bike_id": "8b8700ed4a2696fb1fe3c46310d4ab03", "type": "electric_scooter", "is_disabled": 0, "lat": 38.907760333333336, "rental_uris": {"ios": "https://dc.lft.to/lastmile_qr_scan", "android": "https://dc.lft.to/lastmile_qr_scan"}, "is_reserved": 0, "fusion_lon": 0.0, "fusion_lat": 0.0, "lon": -77.058002, "name": "8b8700ed4a2696fb1fe3c46310d4ab03"}, {"bike_id": "733df92f18e1a2872ea1b71e7ecaab35", "type": "electric_scooter", "is_disabled": 0, "lat": 38.90737983333333, "rental_uris": {"ios": "https://dc.lft.to/lastmile_qr_scan", "android": "https://dc.lft.to/lastmile_qr_scan"}, "is_reserved": 0, "fusion_lon": 0.0, "fusion_lat": 0.0, "lon": -77.029862, "name": "733df92f18e1a2872ea1b71e7ecaab35"}, {"bike_id": "f62b9002fb9310a89213e6b03e69458a", "type": "electric_scooter", "is_disabled": 0, "lat": 38.909245166666665, "rental_uris": {"ios": "https://dc.lft.to/lastmile_qr_scan", "android": "https://dc.lft.to/lastmile_qr_scan"}, "is_reserved": 0, "fusion_lon": 0.0, "fusion_lat": 0.0, "lon": -77.04577766666667, "name": "f62b9002fb9310a89213e6b03e69458a"}, {"bike_id": "048a692d193c97fe5b0fdf804c569d76", "type": "electric_scooter", "is_disabled": 0, "lat": 38.922505666666666, "rental_uris": {"ios": "https://dc.lft.to/lastmile_qr_scan", "android": "https://dc.lft.to/lastmile_qr_scan"}, "is_reserved": 0, "fusion_lon": 0.0, "fusion_lat": 0.0, "lon": -77.04017583333334, "name": "048a692d193c97fe5b0fdf804c569d76"}, {"bike_id": "a83b6e4657af4493bc0befb71bbf22a0", "type": "electric_scooter", "is_disabled": 0, "lat": 38.914146333333335, "rental_uris": {"ios": "https://dc.lft.to/lastmile_qr_scan", "android": "https://dc.lft.to/lastmile_qr_scan"}, "is_reserved": 0, "fusion_lon": 0.0, "fusion_lat": 0.0, "lon": -77.02814983333333, "name": "a83b6e4657af4493bc0befb71bbf22a0"}, {"bike_id": "0f2212ae00770e54e503cb54031ce618", "type": "electric_scooter", "is_disabled": 0, "lat": 38.90683283333333, "rental_uris": {"ios": "https://dc.lft.to/lastmile_qr_scan", "android": "https://dc.lft.to/lastmile_qr_scan"}, "is_reserved": 0, "fusion_lon": 0.0, "fusion_lat": 0.0, "lon": -77.03520383333333, "name": "0f2212ae00770e54e503cb54031ce618"}, {"bike_id": "a61640bd97de8c805485b17451c67bc0", "type": "electric_scooter", "is_disabled": 0, "lat": 38.915736333333335, "rental_uris": {"ios": "https://dc.lft.to/lastmile_qr_scan", "android": "https://dc.lft.to/lastmile_qr_scan"}, "is_reserved": 0, "fusion_lon": 0.0, "fusion_lat": 0.0, "lon": -77.01871133333333, "name": "a61640bd97de8c805485b17451c67bc0"}, {"bike_id": "7f30d13ad215687f9951b04d69a5ca94", "type": "electric_scooter", "is_disabled": 0, "lat": 38.915819166666665, "rental_uris": {"ios": "https://dc.lft.to/lastmile_qr_scan", "android": "https://dc.lft.to/lastmile_qr_scan"}, "is_reserved": 0, "fusion_lon": 0.0, "fusion_lat": 0.0, "lon": -77.01234916666667, "name": "7f30d13ad215687f9951b04d69a5ca94"}, {"bike_id": "723d6f935bbdc4257648f8dfe0c2e590", "type": "electric_scooter", "is_disabled": 0, "lat": 38.91426516666667, "rental_uris": {"ios": "https://dc.lft.to/lastmile_qr_scan", "android": "https://dc.lft.to/lastmile_qr_scan"}, "is_reserved": 0, "fusion_lon": 0.0, "fusion_lat": 0.0, "lon": -77.03185133333334, "name": "723d6f935bbdc4257648f8dfe0c2e590"}, {"bike_id": "2b8f2e5857f671e1b39cc59a4967b317", "type": "electric_scooter", "is_disabled": 0, "lat": 38.917439333333334, "rental_uris": {"ios": "https://dc.lft.to/lastmile_qr_scan", "android": "https://dc.lft.to/lastmile_qr_scan"}, "is_reserved": 0, "fusion_lon": 0.0, "fusion_lat": 0.0, "lon": -77.0069445, "name": "2b8f2e5857f671e1b39cc59a4967b317"}, {"bike_id": "4d8ec552729ff9e8251ce080c554cf0c", "type": "electric_scooter", "is_disabled": 0, "lat": 38.903847, "rental_uris": {"ios": "https://dc.lft.to/lastmile_qr_scan", "android": "https://dc.lft.to/lastmile_qr_scan"}, "is_reserved": 0, "fusion_lon": 0.0, "fusion_lat": 0.0, "lon": -76.98210366666666, "name": "4d8ec552729ff9e8251ce080c554cf0c"}, {"bike_id": "7b5488b206f1214a2a6da0c820d694e7", "type": "electric_scooter", "is_disabled": 0, "lat": 38.930847, "rental_uris": {"ios": "https://dc.lft.to/lastmile_qr_scan", "android": "https://dc.lft.to/lastmile_qr_scan"}, "is_reserved": 0, "fusion_lon": 0.0, "fusion_lat": 0.0, "lon": -77.02159516666667, "name": "7b5488b206f1214a2a6da0c820d694e7"}, {"bike_id": "2115fb8b1bcb836e319413ee3ea3e644", "type": "electric_scooter", "is_disabled": 0, "lat": 38.9065115, "rental_uris": {"ios": "https://dc.lft.to/lastmile_qr_scan", "android": "https://dc.lft.to/lastmile_qr_scan"}, "is_reserved": 0, "fusion_lon": 0.0, "fusion_lat": 0.0, "lon": -77.04284966666667, "name": "2115fb8b1bcb836e319413ee3ea3e644"}, {"bike_id": "996d105ff2cbca9ca2c2f057597f2ff1", "type": "electric_scooter", "is_disabled": 0, "lat": 38.891335, "rental_uris": {"ios": "https://dc.lft.to/lastmile_qr_scan", "android": "https://dc.lft.to/lastmile_qr_scan"}, "is_reserved": 0, "fusion_lon": 0.0, "fusion_lat": 0.0, "lon": -76.951866, "name": "996d105ff2cbca9ca2c2f057597f2ff1"}, {"bike_id": "ea48cea67c57237795a7dea5028bf5be", "type": "electric_scooter", "is_disabled": 0, "lat": 38.91111683333333, "rental_uris": {"ios": "https://dc.lft.to/lastmile_qr_scan", "android": "https://dc.lft.to/lastmile_qr_scan"}, "is_reserved": 0, "fusion_lon": 0.0, "fusion_lat": 0.0, "lon": -77.03866283333333, "name": "ea48cea67c57237795a7dea5028bf5be"}, {"bike_id": "d9206fbd6d08f40feca73c635059a9f8", "type": "electric_scooter", "is_disabled": 0, "lat": 38.926333166666666, "rental_uris": {"ios": "https://dc.lft.to/lastmile_qr_scan", "android": "https://dc.lft.to/lastmile_qr_scan"}, "is_reserved": 0, "fusion_lon": 0.0, "fusion_lat": 0.0, "lon": -77.03429016666666, "name": "d9206fbd6d08f40feca73c635059a9f8"}, {"bike_id": "d8bc1c6a43a44da36d5492200127fb21", "type": "electric_scooter", "is_disabled": 0, "lat": 38.897339, "rental_uris": {"ios": "https://dc.lft.to/lastmile_qr_scan", "android": "https://dc.lft.to/lastmile_qr_scan"}, "is_reserved": 0, "fusion_lon": 0.0, "fusion_lat": 0.0, "lon": -77.02169683333334, "name": "d8bc1c6a43a44da36d5492200127fb21"}, {"bike_id": "a8a4359b398bebf9195c64c9e2bff208", "type": "electric_scooter", "is_disabled": 0, "lat": 38.903675166666666, "rental_uris": {"ios": "https://dc.lft.to/lastmile_qr_scan", "android": "https://dc.lft.to/lastmile_qr_scan"}, "is_reserved": 0, "fusion_lon": 0.0, "fusion_lat": 0.0, "lon": -77.02939666666667, "name": "a8a4359b398bebf9195c64c9e2bff208"}, {"bike_id": "d2698f3b009189ddde46cadfa84d3dc7", "type": "electric_scooter", "is_disabled": 0, "lat": 38.906853166666664, "rental_uris": {"ios": "https://dc.lft.to/lastmile_qr_scan", "android": "https://dc.lft.to/lastmile_qr_scan"}, "is_reserved": 0, "fusion_lon": 0.0, "fusion_lat": 0.0, "lon": -77.02386633333333, "name": "d2698f3b009189ddde46cadfa84d3dc7"}, {"bike_id": "a3d8424e982ab57adadf28d2b0927015", "type": "electric_scooter", "is_disabled": 0, "lat": 38.94200466666667, "rental_uris": {"ios": "https://dc.lft.to/lastmile_qr_scan", "android": "https://dc.lft.to/lastmile_qr_scan"}, "is_reserved": 0, "fusion_lon": 0.0, "fusion_lat": 0.0, "lon": -77.02431483333334, "name": "a3d8424e982ab57adadf28d2b0927015"}, {"bike_id": "eff67978b35cd7119f5dd15267301675", "type": "electric_bike", "is_disabled": 0, "lat": 38.93053333333334, "rental_uris": {"ios": "https://dc.lft.to/lastmile_qr_scan", "android": "https://dc.lft.to/lastmile_qr_scan"}, "is_reserved": 0, "fusion_lon": 0.0, "fusion_lat": 0.0, "lon": -77.03704283333333, "name": "eff67978b35cd7119f5dd15267301675"}, {"bike_id": "82bb8c690c9795e4dd4a7347a484bac0", "type": "electric_bike", "is_disabled": 0, "lat": 38.926403666666666, "rental_uris": {"ios": "https://dc.lft.to/lastmile_qr_scan", "android": "https://dc.lft.to/lastmile_qr_scan"}, "is_reserved": 0, "fusion_lon": 0.0, "fusion_lat": 0.0, "lon": -76.98425983333334, "name": "82bb8c690c9795e4dd4a7347a484bac0"}, {"bike_id": "f5d7932782374e038942b528a85ab07c", "type": "electric_scooter", "is_disabled": 0, "lat": 38.92776333333333, "rental_uris": {"ios": "https://dc.lft.to/lastmile_qr_scan", "android": "https://dc.lft.to/lastmile_qr_scan"}, "is_reserved": 0, "fusion_lon": 0.0, "fusion_lat": 0.0, "lon": -77.02653183333334, "name": "f5d7932782374e038942b528a85ab07c"}, {"bike_id": "afcdbeed175229fd70c65373abadc7ad", "type": "electric_scooter", "is_disabled": 0, "lat": 38.906558, "rental_uris": {"ios": "https://dc.lft.to/lastmile_qr_scan", "android": "https://dc.lft.to/lastmile_qr_scan"}, "is_reserved": 0, "fusion_lon": 0.0, "fusion_lat": 0.0, "lon": -77.00980033333333, "name": "afcdbeed175229fd70c65373abadc7ad"}, {"bike_id": "ff96e112bb4d486518d634a8105715a1", "type": "electric_bike", "is_disabled": 0, "lat": 38.93669366666666, "rental_uris": {"ios": "https://dc.lft.to/lastmile_qr_scan", "android": "https://dc.lft.to/lastmile_qr_scan"}, "is_reserved": 0, "fusion_lon": 0.0, "fusion_lat": 0.0, "lon": -76.95210283333333, "name": "ff96e112bb4d486518d634a8105715a1"}, {"bike_id": "6c3991d5c0b77e440f365ea5c0e7b8a9", "type": "electric_scooter", "is_disabled": 0, "lat": 38.9001465, "rental_uris": {"ios": "https://dc.lft.to/lastmile_qr_scan", "android": "https://dc.lft.to/lastmile_qr_scan"}, "is_reserved": 0, "fusion_lon": 0.0, "fusion_lat": 0.0, "lon": -77.01165033333334, "name": "6c3991d5c0b77e440f365ea5c0e7b8a9"}, {"bike_id": "1b4f49755b06f957265b54ca0f5315cd", "type": "electric_scooter", "is_disabled": 0, "lat": 38.91688416666667, "rental_uris": {"ios": "https://dc.lft.to/lastmile_qr_scan", "android": "https://dc.lft.to/lastmile_qr_scan"}, "is_reserved": 0, "fusion_lon": 0.0, "fusion_lat": 0.0, "lon": -77.029548, "name": "1b4f49755b06f957265b54ca0f5315cd"}, {"bike_id": "afb041c2551f7cfc9a39347dad59411d", "type": "electric_bike", "is_disabled": 0, "lat": 38.924571666666665, "rental_uris": {"ios": "https://dc.lft.to/lastmile_qr_scan", "android": "https://dc.lft.to/lastmile_qr_scan"}, "is_reserved": 0, "fusion_lon": 0.0, "fusion_lat": 0.0, "lon": -77.22550716666667, "name": "afb041c2551f7cfc9a39347dad59411d"}, {"bike_id": "ab16d1d48c658c163b10c7f584821ae6", "type": "electric_bike", "is_disabled": 0, "lat": 38.9020745, "rental_uris": {"ios": "https://dc.lft.to/lastmile_qr_scan", "android": "https://dc.lft.to/lastmile_qr_scan"}, "is_reserved": 0, "fusion_lon": 0.0, "fusion_lat": 0.0, "lon": -76.97411433333333, "name": "ab16d1d48c658c163b10c7f584821ae6"}, {"bike_id": "7bd3ce96a9fd4d7b3f34b590fcad471e", "type": "electric_scooter", "is_disabled": 0, "lat": 38.9073935, "rental_uris": {"ios": "https://dc.lft.to/lastmile_qr_scan", "android": "https://dc.lft.to/lastmile_qr_scan"}, "is_reserved": 0, "fusion_lon": 0.0, "fusion_lat": 0.0, "lon": -77.029829, "name": "7bd3ce96a9fd4d7b3f34b590fcad471e"}, {"bike_id": "bb65c377d6984f5c9ef7360f46da86b2", "type": "electric_scooter", "is_disabled": 0, "lat": 38.932528833333336, "rental_uris": {"ios": "https://dc.lft.to/lastmile_qr_scan", "android": "https://dc.lft.to/lastmile_qr_scan"}, "is_reserved": 0, "fusion_lon": 0.0, "fusion_lat": 0.0, "lon": -77.03273083333333, "name": "bb65c377d6984f5c9ef7360f46da86b2"}, {"bike_id": "09d5331acf7fe5ceeec07f791b28cad4", "type": "electric_scooter", "is_disabled": 0, "lat": 38.905643, "rental_uris": {"ios": "https://dc.lft.to/lastmile_qr_scan", "android": "https://dc.lft.to/lastmile_qr_scan"}, "is_reserved": 0, "fusion_lon": 0.0, "fusion_lat": 0.0, "lon": -77.022164, "name": "09d5331acf7fe5ceeec07f791b28cad4"}, {"bike_id": "66c5d961f488dfa0a30e60ffdff9b41d", "type": "electric_scooter", "is_disabled": 0, "lat": 38.871165166666664, "rental_uris": {"ios": "https://dc.lft.to/lastmile_qr_scan", "android": "https://dc.lft.to/lastmile_qr_scan"}, "is_reserved": 0, "fusion_lon": 0.0, "fusion_lat": 0.0, "lon": -76.98241666666667, "name": "66c5d961f488dfa0a30e60ffdff9b41d"}, {"bike_id": "68d8ecd24ca0769a11e352f63a7a0499", "type": "electric_scooter", "is_disabled": 0, "lat": 38.90254, "rental_uris": {"ios": "https://dc.lft.to/lastmile_qr_scan", "android": "https://dc.lft.to/lastmile_qr_scan"}, "is_reserved": 0, "fusion_lon": 0.0, "fusion_lat": 0.0, "lon": -77.03635216666666, "name": "68d8ecd24ca0769a11e352f63a7a0499"}, {"bike_id": "08b71e2f7e836539b376852ae813e150", "type": "electric_scooter", "is_disabled": 0, "lat": 38.900723, "rental_uris": {"ios": "https://dc.lft.to/lastmile_qr_scan", "android": "https://dc.lft.to/lastmile_qr_scan"}, "is_reserved": 0, "fusion_lon": 0.0, "fusion_lat": 0.0, "lon": -76.99017416666666, "name": "08b71e2f7e836539b376852ae813e150"}, {"bike_id": "8f45047afda98dc5d2fa63c5b1ea5861", "type": "electric_scooter", "is_disabled": 0, "lat": 38.857104666666665, "rental_uris": {"ios": "https://dc.lft.to/lastmile_qr_scan", "android": "https://dc.lft.to/lastmile_qr_scan"}, "is_reserved": 0, "fusion_lon": 0.0, "fusion_lat": 0.0, "lon": -76.989849, "name": "8f45047afda98dc5d2fa63c5b1ea5861"}, {"bike_id": "c0d66dbec6d78fb5bf36fab73844fb98", "type": "electric_scooter", "is_disabled": 0, "lat": 38.905959, "rental_uris": {"ios": "https://dc.lft.to/lastmile_qr_scan", "android": "https://dc.lft.to/lastmile_qr_scan"}, "is_reserved": 0, "fusion_lon": 0.0, "fusion_lat": 0.0, "lon": -77.057105, "name": "c0d66dbec6d78fb5bf36fab73844fb98"}, {"bike_id": "d19cf763e930b24fd76fcb5467a0553d", "type": "electric_bike", "is_disabled": 0, "lat": 39.05788533333333, "rental_uris": {"ios": "https://dc.lft.to/lastmile_qr_scan", "android": "https://dc.lft.to/lastmile_qr_scan"}, "is_reserved": 0, "fusion_lon": 0.0, "fusion_lat": 0.0, "lon": -77.15024116666666, "name": "d19cf763e930b24fd76fcb5467a0553d"}, {"bike_id": "8091bfda88d0cf878de54fe8b6987d2f", "type": "electric_bike", "is_disabled": 0, "lat": 38.819896666666665, "rental_uris": {"ios": "https://dc.lft.to/lastmile_qr_scan", "android": "https://dc.lft.to/lastmile_qr_scan"}, "is_reserved": 0, "fusion_lon": 0.0, "fusion_lat": 0.0, "lon": -76.99812916666667, "name": "8091bfda88d0cf878de54fe8b6987d2f"}, {"bike_id": "0cb38d0dea027e6e28ebd3fd20c8ad02", "type": "electric_scooter", "is_disabled": 0, "lat": 38.911089833333335, "rental_uris": {"ios": "https://dc.lft.to/lastmile_qr_scan", "android": "https://dc.lft.to/lastmile_qr_scan"}, "is_reserved": 0, "fusion_lon": 0.0, "fusion_lat": 0.0, "lon": -77.04480783333334, "name": "0cb38d0dea027e6e28ebd3fd20c8ad02"}, {"bike_id": "43867f11bc969772f52df8ebc881df3a", "type": "electric_scooter", "is_disabled": 0, "lat": 38.901919166666666, "rental_uris": {"ios": "https://dc.lft.to/lastmile_qr_scan", "android": "https://dc.lft.to/lastmile_qr_scan"}, "is_reserved": 0, "fusion_lon": 0.0, "fusion_lat": 0.0, "lon": -77.0504195, "name": "43867f11bc969772f52df8ebc881df3a"}, {"bike_id": "08fe9461c1b6ab21efd7dbe843014530", "type": "electric_scooter", "is_disabled": 0, "lat": 38.90532733333333, "rental_uris": {"ios": "https://dc.lft.to/lastmile_qr_scan", "android": "https://dc.lft.to/lastmile_qr_scan"}, "is_reserved": 0, "fusion_lon": 0.0, "fusion_lat": 0.0, "lon": -77.05014083333333, "name": "08fe9461c1b6ab21efd7dbe843014530"}, {"bike_id": "0e71ce2a6267466f8f9ffdfe8bdb9493", "type": "electric_scooter", "is_disabled": 0, "lat": 38.938729333333335, "rental_uris": {"ios": "https://dc.lft.to/lastmile_qr_scan", "android": "https://dc.lft.to/lastmile_qr_scan"}, "is_reserved": 0, "fusion_lon": 0.0, "fusion_lat": 0.0, "lon": -77.0245715, "name": "0e71ce2a6267466f8f9ffdfe8bdb9493"}, {"bike_id": "e34cbce97ac31bd9beff799b061b81fd", "type": "electric_scooter", "is_disabled": 0, "lat": 38.897322, "rental_uris": {"ios": "https://dc.lft.to/lastmile_qr_scan", "android": "https://dc.lft.to/lastmile_qr_scan"}, "is_reserved": 0, "fusion_lon": 0.0, "fusion_lat": 0.0, "lon": -77.0547585, "name": "e34cbce97ac31bd9beff799b061b81fd"}, {"bike_id": "2563076564b38572e09d61de894ec549", "type": "electric_scooter", "is_disabled": 0, "lat": 38.916018, "rental_uris": {"ios": "https://dc.lft.to/lastmile_qr_scan", "android": "https://dc.lft.to/lastmile_qr_scan"}, "is_reserved": 0, "fusion_lon": 0.0, "fusion_lat": 0.0, "lon": -77.023911, "name": "2563076564b38572e09d61de894ec549"}, {"bike_id": "8a3653024b6a46b2cbfe4d98761285f3", "type": "electric_scooter", "is_disabled": 0, "lat": 38.89959283333334, "rental_uris": {"ios": "https://dc.lft.to/lastmile_qr_scan", "android": "https://dc.lft.to/lastmile_qr_scan"}, "is_reserved": 0, "fusion_lon": 0.0, "fusion_lat": 0.0, "lon": -77.01976633333334, "name": "8a3653024b6a46b2cbfe4d98761285f3"}, {"bike_id": "8da4835ab207c85e9060b2298d4a13bf", "type": "electric_scooter", "is_disabled": 0, "lat": 38.91421783333333, "rental_uris": {"ios": "https://dc.lft.to/lastmile_qr_scan", "android": "https://dc.lft.to/lastmile_qr_scan"}, "is_reserved": 0, "fusion_lon": 0.0, "fusion_lat": 0.0, "lon": -77.02228133333334, "name": "8da4835ab207c85e9060b2298d4a13bf"}, {"bike_id": "3f8c335e134aefd9d0dc23ca8e66ad1c", "type": "electric_scooter", "is_disabled": 0, "lat": 38.91190116666667, "rental_uris": {"ios": "https://dc.lft.to/lastmile_qr_scan", "android": "https://dc.lft.to/lastmile_qr_scan"}, "is_reserved": 0, "fusion_lon": 0.0, "fusion_lat": 0.0, "lon": -77.038347, "name": "3f8c335e134aefd9d0dc23ca8e66ad1c"}, {"bike_id": "9ab496b678706f6a4b8542921e128062", "type": "electric_scooter", "is_disabled": 0, "lat": 38.902536833333336, "rental_uris": {"ios": "https://dc.lft.to/lastmile_qr_scan", "android": "https://dc.lft.to/lastmile_qr_scan"}, "is_reserved": 0, "fusion_lon": 0.0, "fusion_lat": 0.0, "lon": -76.9866605, "name": "9ab496b678706f6a4b8542921e128062"}, {"bike_id": "a7a7a66cba3d0af763b363dd681247ac", "type": "electric_bike", "is_disabled": 0, "lat": 38.88395466666667, "rental_uris": {"ios": "https://dc.lft.to/lastmile_qr_scan", "android": "https://dc.lft.to/lastmile_qr_scan"}, "is_reserved": 0, "fusion_lon": 0.0, "fusion_lat": 0.0, "lon": -77.02371483333333, "name": "a7a7a66cba3d0af763b363dd681247ac"}, {"bike_id": "b53a4253b0fef268c8d3edf79bd7700b", "type": "electric_scooter", "is_disabled": 0, "lat": 38.885428, "rental_uris": {"ios": "https://dc.lft.to/lastmile_qr_scan", "android": "https://dc.lft.to/lastmile_qr_scan"}, "is_reserved": 0, "fusion_lon": 0.0, "fusion_lat": 0.0, "lon": -77.00583833333333, "name": "b53a4253b0fef268c8d3edf79bd7700b"}, {"bike_id": "29d49aeaa54bed5272834748ef0ef733", "type": "electric_scooter", "is_disabled": 0, "lat": 38.9133385, "rental_uris": {"ios": "https://dc.lft.to/lastmile_qr_scan", "android": "https://dc.lft.to/lastmile_qr_scan"}, "is_reserved": 0, "fusion_lon": 0.0, "fusion_lat": 0.0, "lon": -77.031845, "name": "29d49aeaa54bed5272834748ef0ef733"}, {"bike_id": "3fa3bdf80f84ac4f531c9b4aeab55969", "type": "electric_scooter", "is_disabled": 0, "lat": 38.916943833333335, "rental_uris": {"ios": "https://dc.lft.to/lastmile_qr_scan", "android": "https://dc.lft.to/lastmile_qr_scan"}, "is_reserved": 0, "fusion_lon": 0.0, "fusion_lat": 0.0, "lon": -77.0371985, "name": "3fa3bdf80f84ac4f531c9b4aeab55969"}, {"bike_id": "a26f76d55df77d0fb839c496a6ccda93", "type": "electric_scooter", "is_disabled": 0, "lat": 38.9333045, "rental_uris": {"ios": "https://dc.lft.to/lastmile_qr_scan", "android": "https://dc.lft.to/lastmile_qr_scan"}, "is_reserved": 0, "fusion_lon": 0.0, "fusion_lat": 0.0, "lon": -77.02854166666667, "name": "a26f76d55df77d0fb839c496a6ccda93"}, {"bike_id": "f00ad04037005eeef3dede4903cbbd96", "type": "electric_scooter", "is_disabled": 0, "lat": 38.9040075, "rental_uris": {"ios": "https://dc.lft.to/lastmile_qr_scan", "android": "https://dc.lft.to/lastmile_qr_scan"}, "is_reserved": 0, "fusion_lon": 0.0, "fusion_lat": 0.0, "lon": -77.02210933333333, "name": "f00ad04037005eeef3dede4903cbbd96"}, {"bike_id": "5928a4d68034f51fb5f1ac831304559d", "type": "electric_scooter", "is_disabled": 0, "lat": 38.89978716666667, "rental_uris": {"ios": "https://dc.lft.to/lastmile_qr_scan", "android": "https://dc.lft.to/lastmile_qr_scan"}, "is_reserved": 0, "fusion_lon": 0.0, "fusion_lat": 0.0, "lon": -77.0144525, "name": "5928a4d68034f51fb5f1ac831304559d"}, {"bike_id": "3b12becd3e5b691381f8d4516778b3dc", "type": "electric_bike", "is_disabled": 0, "lat": 38.88123216666666, "rental_uris": {"ios": "https://dc.lft.to/lastmile_qr_scan", "android": "https://dc.lft.to/lastmile_qr_scan"}, "is_reserved": 0, "fusion_lon": 0.0, "fusion_lat": 0.0, "lon": -77.0167925, "name": "3b12becd3e5b691381f8d4516778b3dc"}, {"bike_id": "10c175a62a2d1a898854a0ec7a60524f", "type": "electric_bike", "is_disabled": 0, "lat": 38.80760166666666, "rental_uris": {"ios": "https://dc.lft.to/lastmile_qr_scan", "android": "https://dc.lft.to/lastmile_qr_scan"}, "is_reserved": 0, "fusion_lon": 0.0, "fusion_lat": 0.0, "lon": -77.094678, "name": "10c175a62a2d1a898854a0ec7a60524f"}, {"bike_id": "41e5cc7bfcc0a566f981935d8c46b546", "type": "electric_scooter", "is_disabled": 0, "lat": 38.928766333333336, "rental_uris": {"ios": "https://dc.lft.to/lastmile_qr_scan", "android": "https://dc.lft.to/lastmile_qr_scan"}, "is_reserved": 0, "fusion_lon": 0.0, "fusion_lat": 0.0, "lon": -77.033689, "name": "41e5cc7bfcc0a566f981935d8c46b546"}, {"bike_id": "a469ad451953c4aabe0da18dd63bd2dd", "type": "electric_scooter", "is_disabled": 0, "lat": 38.900437833333335, "rental_uris": {"ios": "https://dc.lft.to/lastmile_qr_scan", "android": "https://dc.lft.to/lastmile_qr_scan"}, "is_reserved": 0, "fusion_lon": 0.0, "fusion_lat": 0.0, "lon": -76.9915475, "name": "a469ad451953c4aabe0da18dd63bd2dd"}, {"bike_id": "0ee2735d4b5454179e03dc0d8f7d7c7a", "type": "electric_scooter", "is_disabled": 0, "lat": 38.92364466666667, "rental_uris": {"ios": "https://dc.lft.to/lastmile_qr_scan", "android": "https://dc.lft.to/lastmile_qr_scan"}, "is_reserved": 0, "fusion_lon": 0.0, "fusion_lat": 0.0, "lon": -77.0771055, "name": "0ee2735d4b5454179e03dc0d8f7d7c7a"}, {"bike_id": "2c7d0ba24eb160c8916fe3d7af951308", "type": "electric_scooter", "is_disabled": 0, "lat": 38.8924005, "rental_uris": {"ios": "https://dc.lft.to/lastmile_qr_scan", "android": "https://dc.lft.to/lastmile_qr_scan"}, "is_reserved": 0, "fusion_lon": 0.0, "fusion_lat": 0.0, "lon": -77.04497883333333, "name": "2c7d0ba24eb160c8916fe3d7af951308"}, {"bike_id": "ed67876fd22387a6f39b0ce31321b0d3", "type": "electric_scooter", "is_disabled": 0, "lat": 38.966054166666666, "rental_uris": {"ios": "https://dc.lft.to/lastmile_qr_scan", "android": "https://dc.lft.to/lastmile_qr_scan"}, "is_reserved": 0, "fusion_lon": 0.0, "fusion_lat": 0.0, "lon": -77.01979916666667, "name": "ed67876fd22387a6f39b0ce31321b0d3"}, {"bike_id": "b8750479e892540a6103a52d78f63af2", "type": "electric_scooter", "is_disabled": 0, "lat": 38.90730583333333, "rental_uris": {"ios": "https://dc.lft.to/lastmile_qr_scan", "android": "https://dc.lft.to/lastmile_qr_scan"}, "is_reserved": 0, "fusion_lon": 0.0, "fusion_lat": 0.0, "lon": -77.04027316666667, "name": "b8750479e892540a6103a52d78f63af2"}, {"bike_id": "b8f8abe3b86b0e89e5d612d2c057e05d", "type": "electric_scooter", "is_disabled": 0, "lat": 38.90202016666667, "rental_uris": {"ios": "https://dc.lft.to/lastmile_qr_scan", "android": "https://dc.lft.to/lastmile_qr_scan"}, "is_reserved": 0, "fusion_lon": 0.0, "fusion_lat": 0.0, "lon": -77.02116383333333, "name": "b8f8abe3b86b0e89e5d612d2c057e05d"}, {"bike_id": "9f80af9981af40701f59fa541239b460", "type": "electric_scooter", "is_disabled": 0, "lat": 38.91443983333333, "rental_uris": {"ios": "https://dc.lft.to/lastmile_qr_scan", "android": "https://dc.lft.to/lastmile_qr_scan"}, "is_reserved": 0, "fusion_lon": 0.0, "fusion_lat": 0.0, "lon": -77.03200633333333, "name": "9f80af9981af40701f59fa541239b460"}, {"bike_id": "a21cb6375a948c865733774bec532ebf", "type": "electric_scooter", "is_disabled": 0, "lat": 38.924885333333336, "rental_uris": {"ios": "https://dc.lft.to/lastmile_qr_scan", "android": "https://dc.lft.to/lastmile_qr_scan"}, "is_reserved": 0, "fusion_lon": 0.0, "fusion_lat": 0.0, "lon": -77.05116066666666, "name": "a21cb6375a948c865733774bec532ebf"}, {"bike_id": "87930cfa39b853ea06f694e4fa5b322d", "type": "electric_scooter", "is_disabled": 0, "lat": 38.900358, "rental_uris": {"ios": "https://dc.lft.to/lastmile_qr_scan", "android": "https://dc.lft.to/lastmile_qr_scan"}, "is_reserved": 0, "fusion_lon": 0.0, "fusion_lat": 0.0, "lon": -76.99837, "name": "87930cfa39b853ea06f694e4fa5b322d"}, {"bike_id": "de6f5c4a7ef0e7e66c4fcbf6c7606298", "type": "electric_scooter", "is_disabled": 0, "lat": 38.90736116666667, "rental_uris": {"ios": "https://dc.lft.to/lastmile_qr_scan", "android": "https://dc.lft.to/lastmile_qr_scan"}, "is_reserved": 0, "fusion_lon": 0.0, "fusion_lat": 0.0, "lon": -77.02183233333334, "name": "de6f5c4a7ef0e7e66c4fcbf6c7606298"}, {"bike_id": "a0666142d51d1cac781c9a850c1870f8", "type": "electric_scooter", "is_disabled": 0, "lat": 38.9075155, "rental_uris": {"ios": "https://dc.lft.to/lastmile_qr_scan", "android": "https://dc.lft.to/lastmile_qr_scan"}, "is_reserved": 0, "fusion_lon": 0.0, "fusion_lat": 0.0, "lon": -77.03207783333333, "name": "a0666142d51d1cac781c9a850c1870f8"}, {"bike_id": "6625c24d27f69f33d2685e51a480490a", "type": "electric_scooter", "is_disabled": 0, "lat": 38.92162066666667, "rental_uris": {"ios": "https://dc.lft.to/lastmile_qr_scan", "android": "https://dc.lft.to/lastmile_qr_scan"}, "is_reserved": 0, "fusion_lon": 0.0, "fusion_lat": 0.0, "lon": -77.03393916666667, "name": "6625c24d27f69f33d2685e51a480490a"}, {"bike_id": "06ded5bf92851cdb747e5377382f50b8", "type": "electric_scooter", "is_disabled": 0, "lat": 38.897469666666666, "rental_uris": {"ios": "https://dc.lft.to/lastmile_qr_scan", "android": "https://dc.lft.to/lastmile_qr_scan"}, "is_reserved": 0, "fusion_lon": 0.0, "fusion_lat": 0.0, "lon": -76.97964066666667, "name": "06ded5bf92851cdb747e5377382f50b8"}, {"bike_id": "a8613704e7309bd9f9b10349530e57bb", "type": "electric_bike", "is_disabled": 0, "lat": 38.915553, "rental_uris": {"ios": "https://dc.lft.to/lastmile_qr_scan", "android": "https://dc.lft.to/lastmile_qr_scan"}, "is_reserved": 0, "fusion_lon": 0.0, "fusion_lat": 0.0, "lon": -77.0382965, "name": "a8613704e7309bd9f9b10349530e57bb"}, {"bike_id": "b21834516d0f80dc086d070b49033758", "type": "electric_bike", "is_disabled": 0, "lat": 38.853553166666664, "rental_uris": {"ios": "https://dc.lft.to/lastmile_qr_scan", "android": "https://dc.lft.to/lastmile_qr_scan"}, "is_reserved": 0, "fusion_lon": 0.0, "fusion_lat": 0.0, "lon": -77.134658, "name": "b21834516d0f80dc086d070b49033758"}, {"bike_id": "585b7aae28629f356d4224276b41a3a3", "type": "electric_scooter", "is_disabled": 0, "lat": 38.911242, "rental_uris": {"ios": "https://dc.lft.to/lastmile_qr_scan", "android": "https://dc.lft.to/lastmile_qr_scan"}, "is_reserved": 0, "fusion_lon": 0.0, "fusion_lat": 0.0, "lon": -77.047222, "name": "585b7aae28629f356d4224276b41a3a3"}, {"bike_id": "f47e82698fdfe443c5f80d91ac674b0c", "type": "electric_scooter", "is_disabled": 0, "lat": 38.89284883333333, "rental_uris": {"ios": "https://dc.lft.to/lastmile_qr_scan", "android": "https://dc.lft.to/lastmile_qr_scan"}, "is_reserved": 0, "fusion_lon": 0.0, "fusion_lat": 0.0, "lon": -77.03340533333333, "name": "f47e82698fdfe443c5f80d91ac674b0c"}, {"bike_id": "70da3860fd8546234c9cf20f04fcdd8d", "type": "electric_scooter", "is_disabled": 0, "lat": 38.94179883333334, "rental_uris": {"ios": "https://dc.lft.to/lastmile_qr_scan", "android": "https://dc.lft.to/lastmile_qr_scan"}, "is_reserved": 0, "fusion_lon": 0.0, "fusion_lat": 0.0, "lon": -77.0248635, "name": "70da3860fd8546234c9cf20f04fcdd8d"}, {"bike_id": "d79a1391f19140900bc4d9faab58ea3e", "type": "electric_scooter", "is_disabled": 0, "lat": 38.920615, "rental_uris": {"ios": "https://dc.lft.to/lastmile_qr_scan", "android": "https://dc.lft.to/lastmile_qr_scan"}, "is_reserved": 0, "fusion_lon": 0.0, "fusion_lat": 0.0, "lon": -77.04255883333333, "name": "d79a1391f19140900bc4d9faab58ea3e"}, {"bike_id": "6c08ec453114891f5343a1bed09b04fc", "type": "electric_scooter", "is_disabled": 0, "lat": 38.930923166666666, "rental_uris": {"ios": "https://dc.lft.to/lastmile_qr_scan", "android": "https://dc.lft.to/lastmile_qr_scan"}, "is_reserved": 0, "fusion_lon": 0.0, "fusion_lat": 0.0, "lon": -77.02361833333333, "name": "6c08ec453114891f5343a1bed09b04fc"}, {"bike_id": "4dd75da439a8d4d006892b1574fd9984", "type": "electric_scooter", "is_disabled": 0, "lat": 38.94291333333334, "rental_uris": {"ios": "https://dc.lft.to/lastmile_qr_scan", "android": "https://dc.lft.to/lastmile_qr_scan"}, "is_reserved": 0, "fusion_lon": 0.0, "fusion_lat": 0.0, "lon": -77.02171066666666, "name": "4dd75da439a8d4d006892b1574fd9984"}, {"bike_id": "323df3912f24ff44a919383b505ba23f", "type": "electric_scooter", "is_disabled": 0, "lat": 38.92749516666667, "rental_uris": {"ios": "https://dc.lft.to/lastmile_qr_scan", "android": "https://dc.lft.to/lastmile_qr_scan"}, "is_reserved": 0, "fusion_lon": 0.0, "fusion_lat": 0.0, "lon": -77.02534683333333, "name": "323df3912f24ff44a919383b505ba23f"}, {"bike_id": "ae377dba03a2cc65d1c34ec472a66058", "type": "electric_scooter", "is_disabled": 0, "lat": 38.86680716666667, "rental_uris": {"ios": "https://dc.lft.to/lastmile_qr_scan", "android": "https://dc.lft.to/lastmile_qr_scan"}, "is_reserved": 0, "fusion_lon": 0.0, "fusion_lat": 0.0, "lon": -76.98572966666667, "name": "ae377dba03a2cc65d1c34ec472a66058"}, {"bike_id": "17e42f6c5a39b027c4d958da319a7e22", "type": "electric_scooter", "is_disabled": 0, "lat": 38.93079216666667, "rental_uris": {"ios": "https://dc.lft.to/lastmile_qr_scan", "android": "https://dc.lft.to/lastmile_qr_scan"}, "is_reserved": 0, "fusion_lon": 0.0, "fusion_lat": 0.0, "lon": -77.027949, "name": "17e42f6c5a39b027c4d958da319a7e22"}, {"bike_id": "fcc47e72b4fbfe6b4c055b5055fb6d24", "type": "electric_scooter", "is_disabled": 0, "lat": 38.9282315, "rental_uris": {"ios": "https://dc.lft.to/lastmile_qr_scan", "android": "https://dc.lft.to/lastmile_qr_scan"}, "is_reserved": 0, "fusion_lon": 0.0, "fusion_lat": 0.0, "lon": -77.02259016666666, "name": "fcc47e72b4fbfe6b4c055b5055fb6d24"}, {"bike_id": "af795625c1f3ab1390e1467ca49a9275", "type": "electric_scooter", "is_disabled": 0, "lat": 38.8922145, "rental_uris": {"ios": "https://dc.lft.to/lastmile_qr_scan", "android": "https://dc.lft.to/lastmile_qr_scan"}, "is_reserved": 0, "fusion_lon": 0.0, "fusion_lat": 0.0, "lon": -77.0225935, "name": "af795625c1f3ab1390e1467ca49a9275"}, {"bike_id": "927f6285680a5b012274947483aaf343", "type": "electric_scooter", "is_disabled": 0, "lat": 38.86702483333333, "rental_uris": {"ios": "https://dc.lft.to/lastmile_qr_scan", "android": "https://dc.lft.to/lastmile_qr_scan"}, "is_reserved": 0, "fusion_lon": 0.0, "fusion_lat": 0.0, "lon": -76.98711083333333, "name": "927f6285680a5b012274947483aaf343"}, {"bike_id": "63063174fc17cabac1a578b14b26ec27", "type": "electric_scooter", "is_disabled": 0, "lat": 38.898830833333335, "rental_uris": {"ios": "https://dc.lft.to/lastmile_qr_scan", "android": "https://dc.lft.to/lastmile_qr_scan"}, "is_reserved": 0, "fusion_lon": 0.0, "fusion_lat": 0.0, "lon": -76.93175733333334, "name": "63063174fc17cabac1a578b14b26ec27"}, {"bike_id": "19968fb823a2d8663123a96f7873d0be", "type": "electric_scooter", "is_disabled": 0, "lat": 38.90284483333333, "rental_uris": {"ios": "https://dc.lft.to/lastmile_qr_scan", "android": "https://dc.lft.to/lastmile_qr_scan"}, "is_reserved": 0, "fusion_lon": 0.0, "fusion_lat": 0.0, "lon": -77.03344483333333, "name": "19968fb823a2d8663123a96f7873d0be"}, {"bike_id": "096c89387bf941e5d087949d36219dda", "type": "electric_scooter", "is_disabled": 0, "lat": 38.89553033333333, "rental_uris": {"ios": "https://dc.lft.to/lastmile_qr_scan", "android": "https://dc.lft.to/lastmile_qr_scan"}, "is_reserved": 0, "fusion_lon": 0.0, "fusion_lat": 0.0, "lon": -76.94941683333333, "name": "096c89387bf941e5d087949d36219dda"}, {"bike_id": "ff5a654a9603c4112f71a07192725a1f", "type": "electric_bike", "is_disabled": 0, "lat": 38.97858083333333, "rental_uris": {"ios": "https://dc.lft.to/lastmile_qr_scan", "android": "https://dc.lft.to/lastmile_qr_scan"}, "is_reserved": 0, "fusion_lon": 0.0, "fusion_lat": 0.0, "lon": -76.94044916666667, "name": "ff5a654a9603c4112f71a07192725a1f"}, {"bike_id": "b3880b65ea5966c94f6b55c15e096d8a", "type": "electric_scooter", "is_disabled": 0, "lat": 38.912702, "rental_uris": {"ios": "https://dc.lft.to/lastmile_qr_scan", "android": "https://dc.lft.to/lastmile_qr_scan"}, "is_reserved": 0, "fusion_lon": 0.0, "fusion_lat": 0.0, "lon": -77.04493866666667, "name": "b3880b65ea5966c94f6b55c15e096d8a"}, {"bike_id": "12596ea50b07a41870636e49c22c7227", "type": "electric_scooter", "is_disabled": 0, "lat": 38.910216166666665, "rental_uris": {"ios": "https://dc.lft.to/lastmile_qr_scan", "android": "https://dc.lft.to/lastmile_qr_scan"}, "is_reserved": 0, "fusion_lon": 0.0, "fusion_lat": 0.0, "lon": -77.03209666666666, "name": "12596ea50b07a41870636e49c22c7227"}, {"bike_id": "a22a079ae3d253db98cd592bbd5c0203", "type": "electric_scooter", "is_disabled": 0, "lat": 38.86700333333334, "rental_uris": {"ios": "https://dc.lft.to/lastmile_qr_scan", "android": "https://dc.lft.to/lastmile_qr_scan"}, "is_reserved": 0, "fusion_lon": 0.0, "fusion_lat": 0.0, "lon": -76.98712566666667, "name": "a22a079ae3d253db98cd592bbd5c0203"}, {"bike_id": "05a6b840558edf4215658beb1946e83f", "type": "electric_scooter", "is_disabled": 0, "lat": 38.921435, "rental_uris": {"ios": "https://dc.lft.to/lastmile_qr_scan", "android": "https://dc.lft.to/lastmile_qr_scan"}, "is_reserved": 0, "fusion_lon": 0.0, "fusion_lat": 0.0, "lon": -77.04365333333334, "name": "05a6b840558edf4215658beb1946e83f"}, {"bike_id": "69c5a4d5e14b59fd96a5d4dd1da455aa", "type": "electric_scooter", "is_disabled": 0, "lat": 38.878794666666664, "rental_uris": {"ios": "https://dc.lft.to/lastmile_qr_scan", "android": "https://dc.lft.to/lastmile_qr_scan"}, "is_reserved": 0, "fusion_lon": 0.0, "fusion_lat": 0.0, "lon": -77.01916633333333, "name": "69c5a4d5e14b59fd96a5d4dd1da455aa"}, {"bike_id": "8e5e277a15692ce4d321b88ec189754f", "type": "electric_scooter", "is_disabled": 0, "lat": 38.917671, "rental_uris": {"ios": "https://dc.lft.to/lastmile_qr_scan", "android": "https://dc.lft.to/lastmile_qr_scan"}, "is_reserved": 0, "fusion_lon": 0.0, "fusion_lat": 0.0, "lon": -77.04766183333334, "name": "8e5e277a15692ce4d321b88ec189754f"}, {"bike_id": "251d2fdb786324c55670dc30e16bef1c", "type": "electric_scooter", "is_disabled": 0, "lat": 38.92628766666667, "rental_uris": {"ios": "https://dc.lft.to/lastmile_qr_scan", "android": "https://dc.lft.to/lastmile_qr_scan"}, "is_reserved": 0, "fusion_lon": 0.0, "fusion_lat": 0.0, "lon": -77.03711, "name": "251d2fdb786324c55670dc30e16bef1c"}, {"bike_id": "5fbcd83d4e4504c5eb6b1dd0113c4950", "type": "electric_bike", "is_disabled": 0, "lat": 38.96164916666667, "rental_uris": {"ios": "https://dc.lft.to/lastmile_qr_scan", "android": "https://dc.lft.to/lastmile_qr_scan"}, "is_reserved": 0, "fusion_lon": 0.0, "fusion_lat": 0.0, "lon": -77.07396083333333, "name": "5fbcd83d4e4504c5eb6b1dd0113c4950"}, {"bike_id": "3d02f9bca1ce7754b5e45ba6a1082e02", "type": "electric_scooter", "is_disabled": 0, "lat": 38.912697666666666, "rental_uris": {"ios": "https://dc.lft.to/lastmile_qr_scan", "android": "https://dc.lft.to/lastmile_qr_scan"}, "is_reserved": 0, "fusion_lon": 0.0, "fusion_lat": 0.0, "lon": -77.04495566666667, "name": "3d02f9bca1ce7754b5e45ba6a1082e02"}, {"bike_id": "a229b5c304b24f243a81a6df57a4d149", "type": "electric_bike", "is_disabled": 0, "lat": 38.896106, "rental_uris": {"ios": "https://dc.lft.to/lastmile_qr_scan", "android": "https://dc.lft.to/lastmile_qr_scan"}, "is_reserved": 0, "fusion_lon": 0.0, "fusion_lat": 0.0, "lon": -76.90737183333333, "name": "a229b5c304b24f243a81a6df57a4d149"}, {"bike_id": "52be9dce12592a56c90edfb067ae2433", "type": "electric_scooter", "is_disabled": 0, "lat": 38.90408866666667, "rental_uris": {"ios": "https://dc.lft.to/lastmile_qr_scan", "android": "https://dc.lft.to/lastmile_qr_scan"}, "is_reserved": 0, "fusion_lon": 0.0, "fusion_lat": 0.0, "lon": -76.97330883333333, "name": "52be9dce12592a56c90edfb067ae2433"}, {"bike_id": "afbc855646ee895c534b6f4ce6b83aa8", "type": "electric_scooter", "is_disabled": 0, "lat": 38.896211, "rental_uris": {"ios": "https://dc.lft.to/lastmile_qr_scan", "android": "https://dc.lft.to/lastmile_qr_scan"}, "is_reserved": 0, "fusion_lon": 0.0, "fusion_lat": 0.0, "lon": -77.0221175, "name": "afbc855646ee895c534b6f4ce6b83aa8"}, {"bike_id": "c01b9771ac898011ebc690c188ce281e", "type": "electric_scooter", "is_disabled": 0, "lat": 38.90294633333333, "rental_uris": {"ios": "https://dc.lft.to/lastmile_qr_scan", "android": "https://dc.lft.to/lastmile_qr_scan"}, "is_reserved": 0, "fusion_lon": 0.0, "fusion_lat": 0.0, "lon": -77.033578, "name": "c01b9771ac898011ebc690c188ce281e"}, {"bike_id": "32894cbad408980f4b0db7f16ca74741", "type": "electric_scooter", "is_disabled": 0, "lat": 38.924142333333336, "rental_uris": {"ios": "https://dc.lft.to/lastmile_qr_scan", "android": "https://dc.lft.to/lastmile_qr_scan"}, "is_reserved": 0, "fusion_lon": 0.0, "fusion_lat": 0.0, "lon": -77.0201265, "name": "32894cbad408980f4b0db7f16ca74741"}, {"bike_id": "0c92dab560ba7a2685fb280e05d3ead6", "type": "electric_scooter", "is_disabled": 0, "lat": 38.941937833333334, "rental_uris": {"ios": "https://dc.lft.to/lastmile_qr_scan", "android": "https://dc.lft.to/lastmile_qr_scan"}, "is_reserved": 0, "fusion_lon": 0.0, "fusion_lat": 0.0, "lon": -77.036563, "name": "0c92dab560ba7a2685fb280e05d3ead6"}, {"bike_id": "a0b842df31efd613d64d1d8fc1c9ec92", "type": "electric_scooter", "is_disabled": 0, "lat": 38.915620833333335, "rental_uris": {"ios": "https://dc.lft.to/lastmile_qr_scan", "android": "https://dc.lft.to/lastmile_qr_scan"}, "is_reserved": 0, "fusion_lon": 0.0, "fusion_lat": 0.0, "lon": -77.03125783333333, "name": "a0b842df31efd613d64d1d8fc1c9ec92"}, {"bike_id": "64dfa7d6e5cbcca439802e8f2fa388f8", "type": "electric_scooter", "is_disabled": 0, "lat": 38.90405716666667, "rental_uris": {"ios": "https://dc.lft.to/lastmile_qr_scan", "android": "https://dc.lft.to/lastmile_qr_scan"}, "is_reserved": 0, "fusion_lon": 0.0, "fusion_lat": 0.0, "lon": -77.02413516666667, "name": "64dfa7d6e5cbcca439802e8f2fa388f8"}, {"bike_id": "1144790f5f69f603fb3312742cc1ca4b", "type": "electric_scooter", "is_disabled": 0, "lat": 38.903673166666664, "rental_uris": {"ios": "https://dc.lft.to/lastmile_qr_scan", "android": "https://dc.lft.to/lastmile_qr_scan"}, "is_reserved": 0, "fusion_lon": 0.0, "fusion_lat": 0.0, "lon": -77.022097, "name": "1144790f5f69f603fb3312742cc1ca4b"}, {"bike_id": "585628b7deb26f652d8b2ba15336a742", "type": "electric_scooter", "is_disabled": 0, "lat": 38.91706, "rental_uris": {"ios": "https://dc.lft.to/lastmile_qr_scan", "android": "https://dc.lft.to/lastmile_qr_scan"}, "is_reserved": 0, "fusion_lon": 0.0, "fusion_lat": 0.0, "lon": -77.03139333333333, "name": "585628b7deb26f652d8b2ba15336a742"}, {"bike_id": "fb4c41cb963eb26eb71fe0a466217e3f", "type": "electric_scooter", "is_disabled": 0, "lat": 38.92164866666667, "rental_uris": {"ios": "https://dc.lft.to/lastmile_qr_scan", "android": "https://dc.lft.to/lastmile_qr_scan"}, "is_reserved": 0, "fusion_lon": 0.0, "fusion_lat": 0.0, "lon": -77.03338983333333, "name": "fb4c41cb963eb26eb71fe0a466217e3f"}, {"bike_id": "8b6898939eba0fd32d6ba21b427cf450", "type": "electric_scooter", "is_disabled": 0, "lat": 38.9127225, "rental_uris": {"ios": "https://dc.lft.to/lastmile_qr_scan", "android": "https://dc.lft.to/lastmile_qr_scan"}, "is_reserved": 0, "fusion_lon": 0.0, "fusion_lat": 0.0, "lon": -77.02215383333333, "name": "8b6898939eba0fd32d6ba21b427cf450"}, {"bike_id": "b458f565f48716e1116d530e4ca2abdd", "type": "electric_scooter", "is_disabled": 0, "lat": 38.915034166666665, "rental_uris": {"ios": "https://dc.lft.to/lastmile_qr_scan", "android": "https://dc.lft.to/lastmile_qr_scan"}, "is_reserved": 0, "fusion_lon": 0.0, "fusion_lat": 0.0, "lon": -77.0177435, "name": "b458f565f48716e1116d530e4ca2abdd"}, {"bike_id": "4999c48e8c071e7ead83630004f6cbe6", "type": "electric_bike", "is_disabled": 0, "lat": 38.9473595, "rental_uris": {"ios": "https://dc.lft.to/lastmile_qr_scan", "android": "https://dc.lft.to/lastmile_qr_scan"}, "is_reserved": 0, "fusion_lon": 0.0, "fusion_lat": 0.0, "lon": -76.99581866666666, "name": "4999c48e8c071e7ead83630004f6cbe6"}, {"bike_id": "4824123573e85ee5b6e356cd14899e1b", "type": "electric_scooter", "is_disabled": 0, "lat": 38.91419066666667, "rental_uris": {"ios": "https://dc.lft.to/lastmile_qr_scan", "android": "https://dc.lft.to/lastmile_qr_scan"}, "is_reserved": 0, "fusion_lon": 0.0, "fusion_lat": 0.0, "lon": -77.02409166666666, "name": "4824123573e85ee5b6e356cd14899e1b"},