{"data": {"bikes": [{"lat": 38.9096535, "fusion_lat": 0.0, "type": "electric_scooter", "name": "ec78efd15db2bee631fb44133872ff24", "is_disabled": 0, "bike_id": "ec78efd15db2bee631fb44133872ff24", "lon": -77.01104533333333, "rental_uris": {"android": "https://dc.lft.to/lastmile_qr_scan", "ios": "https://dc.lft.to/lastmile_qr_scan"}, "fusion_lon": 0.0, "is_reserved": 0}, {"lat": 38.91443666666667, "fusion_lat": 0.0, "type": "electric_scooter", "name": "274f109ee2ca109f7efb36a342299598", "is_disabled": 0, "bike_id": "274f109ee2ca109f7efb36a342299598", "lon": -77.02292066666666, "rental_uris": {"android": "https://dc.lft.to/lastmile_qr_scan", "ios": "https://dc.lft.to/lastmile_qr_scan"}, "fusion_lon": 0.0, "is_reserved": 0}, {"lat": 38.8986145, "fusion_lat": 0.0, "type": "electric_scooter", "name": "d70e378a8524ae63aa21785a4a2de624", "is_disabled": 0, "bike_id": "d70e378a8524ae63aa21785a4a2de624", "lon": -76.94640683333333, "rental_uris": {"android": "https://dc.lft.to/lastmile_qr_scan", "ios": "https://dc.lft.to/lastmile_qr_scan"}, "fusion_lon": 0.0, "is_reserved": 0}, {"lat": 38.9209655, "fusion_lat": 0.0, "type": "electric_scooter", "name": "3aa280ca75a53da8f12326b079d0e941", "is_disabled": 0, "bike_id": "3aa280ca75a53da8f12326b079d0e941", "lon": -77.04202633333334, "rental_uris": {"android": "https://dc.lft.to/lastmile_qr_scan", "ios": "https://dc.lft.to/lastmile_qr_scan"}, "fusion_lon": 0.0, "is_reserved": 0}, {"lat": 38.933684666666664, "fusion_lat": 0.0, "type": "electric_scooter", "name": "9e25a1653c81b2db8f42812924d4e2ca", "is_disabled": 0, "bike_id": "9e25a1653c81b2db8f42812924d4e2ca", "lon": -77.05737433333333, "rental_uris": {"android": "https://dc.lft.to/lastmile_qr_scan", "ios": "https://dc.lft.to/lastmile_qr_scan"}, "fusion_lon": 0.0, "is_reserved": 0}, {"lat": 38.91818466666667, "fusion_lat": 0.0, "type": "electric_scooter", "name": "cfcd40a05907b4b83980f636f4e3af9b", "is_disabled": 0, "bike_id": "cfcd40a05907b4b83980f636f4e3af9b", "lon": -77.041721, "rental_uris": {"android": "https://dc.lft.to/lastmile_qr_scan", "ios": "https://dc.lft.to/lastmile_qr_scan"}, "fusion_lon": 0.0, "is_reserved": 0}, {"lat": 39.056320666666664, "fusion_lat": 0.0, "type": "electric_bike", "name": "8c3bab4cd22226af941bad38c14087f7", "is_disabled": 0, "bike_id": "8c3bab4cd22226af941bad38c14087f7", "lon": -77.12526633333333, "rental_uris": {"android": "https://dc.lft.to/lastmile_qr_scan", "ios": "https://dc.lft.to/lastmile_qr_scan"}, "fusion_lon": 0.0, "is_reserved": 0}, {"lat": 38.93950816666667, "fusion_lat": 0.0, "type": "electric_scooter", "name": "772a3d0d5b8654cd671fbd4f08acaed8", "is_disabled": 0, "bike_id": "772a3d0d5b8654cd671fbd4f08acaed8", "lon": -77.072489, "rental_uris": {"android": "https://dc.lft.to/lastmile_qr_scan", "ios": "https://dc.lft.to/lastmile_qr_scan"}, "fusion_lon": 0.0, "is_reserved": 0}, {"lat": 38.89851683333333, "fusion_lat": 0.0, "type": "electric_scooter", "name": "c39c70c85f30565d601d0e96dfbaf9af", "is_disabled": 0, "bike_id": "c39c70c85f30565d601d0e96dfbaf9af", "lon": -77.02828083333333, "rental_uris": {"android": "https://dc.lft.to/lastmile_qr_scan", "ios": "https://dc.lft.to/lastmile_qr_scan"}, "fusion_lon": 0.0, "is_reserved": 0}, {"lat": 38.91810316666667, "fusion_lat": 0.0, "type": "electric_scooter", "name": "84b0feae2c176cc7bc1f3e892d9fe2ab", "is_disabled": 0, "bike_id": "84b0feae2c176cc7bc1f3e892d9fe2ab", "lon": -77.01258533333333, "rental_uris": {"android": "https://dc.lft.to/lastmile_qr_scan", "ios": "https://dc.lft.to/lastmile_qr_scan"}, "fusion_lon": 0.0, "is_reserved": 0}, {"lat": 38.9250845, "fusion_lat": 0.0, "type": "electric_scooter", "name": "84df3422703e0dd67f35f949fa97e4bf", "is_disabled": 0, "bike_id": "84df3422703e0dd67f35f949fa97e4bf", "lon": -77.0022655, "rental_uris": {"android": "https://dc.lft.to/lastmile_qr_scan", "ios": "https://dc.lft.to/lastmile_qr_scan"}, "fusion_lon": 0.0, "is_reserved": 0}, {"lat": 38.89219516666667, "fusion_lat": 0.0, "type": "electric_scooter", "name": "2c7de5fd7d967d9d0fe2ec146966b1c5", "is_disabled": 0, "bike_id": "2c7de5fd7d967d9d0fe2ec146966b1c5", "lon": -77.043739, "rental_uris": {"android": "https://dc.lft.to/lastmile_qr_scan", "ios": "https://dc.lft.to/lastmile_qr_scan"}, "fusion_lon": 0.0, "is_reserved": 0}, {"lat": 38.90522283333333, "fusion_lat": 0.0, "type": "electric_scooter", "name": "61dde7bfa6173e0f65fcf0b8fe7e74f7", "is_disabled": 0, "bike_id": "61dde7bfa6173e0f65fcf0b8fe7e74f7", "lon": -77.0530835, "rental_uris": {"android": "https://dc.lft.to/lastmile_qr_scan", "ios": "https://dc.lft.to/lastmile_qr_scan"}, "fusion_lon": 0.0, "is_reserved": 0}, {"lat": 38.861371166666665, "fusion_lat": 0.0, "type": "electric_scooter", "name": "08991b1fb65c286712de63be3f4347e2", "is_disabled": 0, "bike_id": "08991b1fb65c286712de63be3f4347e2", "lon": -76.97169316666667, "rental_uris": {"android": "https://dc.lft.to/lastmile_qr_scan", "ios": "https://dc.lft.to/lastmile_qr_scan"}, "fusion_lon": 0.0, "is_reserved": 0}, {"lat": 38.8922075, "fusion_lat": 0.0, "type": "electric_scooter", "name": "7a88e4e11095134956de031390260d70", "is_disabled": 0, "bike_id": "7a88e4e11095134956de031390260d70", "lon": -77.02232833333333, "rental_uris": {"android": "https://dc.lft.to/lastmile_qr_scan", "ios": "https://dc.lft.to/lastmile_qr_scan"}, "fusion_lon": 0.0, "is_reserved": 0}, {"lat": 38.9244445, "fusion_lat": 0.0, "type": "electric_scooter", "name": "9e94513dd14ad06d0f9ccd5e4f91b127", "is_disabled": 0, "bike_id": "9e94513dd14ad06d0f9ccd5e4f91b127", "lon": -77.039863, "rental_uris": {"android": "https://dc.lft.to/lastmile_qr_scan", "ios": "https://dc.lft.to/lastmile_qr_scan"}, "fusion_lon": 0.0, "is_reserved": 0}, {"lat": 38.9145805, "fusion_lat": 0.0, "type": "electric_scooter", "name": "807806cb99af81813d428daa763d86d8", "is_disabled": 0, "bike_id": "807806cb99af81813d428daa763d86d8", "lon": -77.00213466666666, "rental_uris": {"android": "https://dc.lft.to/lastmile_qr_scan", "ios": "https://dc.lft.to/lastmile_qr_scan"}, "fusion_lon": 0.0, "is_reserved": 0}, {"lat": 38.98766216666667, "fusion_lat": 0.0, "type": "electric_bike", "name": "f699e95b8db06a4ccb48564002a4d7e9", "is_disabled": 0, "bike_id": "f699e95b8db06a4ccb48564002a4d7e9", "lon": -77.140547, "rental_uris": {"android": "https://dc.lft.to/lastmile_qr_scan", "ios": "https://dc.lft.to/lastmile_qr_scan"}, "fusion_lon": 0.0, "is_reserved": 0}, {"lat": 38.8997465, "fusion_lat": 0.0, "type": "electric_scooter", "name": "2eab54f6931391dafb1965137bed0f37", "is_disabled": 0, "bike_id": "2eab54f6931391dafb1965137bed0f37", "lon": -77.03123483333333, "rental_uris": {"android": "https://dc.lft.to/lastmile_qr_scan", "ios": "https://dc.lft.to/lastmile_qr_scan"}, "fusion_lon": 0.0, "is_reserved": 0}, {"lat": 38.9215295, "fusion_lat": 0.0, "type": "electric_scooter", "name": "bf48e91406be435aeb6c1f9af12551a2", "is_disabled": 0, "bike_id": "bf48e91406be435aeb6c1f9af12551a2", "lon": -77.04691266666667, "rental_uris": {"android": "https://dc.lft.to/lastmile_qr_scan", "ios": "https://dc.lft.to/lastmile_qr_scan"}, "fusion_lon": 0.0, "is_reserved": 0}, {"lat": 38.86719133333333, "fusion_lat": 0.0, "type": "electric_scooter", "name": "f64832967ef22daf13f1300005d522ba", "is_disabled": 0, "bike_id": "f64832967ef22daf13f1300005d522ba", "lon": -76.986962, "rental_uris": {"android": "https://dc.lft.to/lastmile_qr_scan", "ios": "https://dc.lft.to/lastmile_qr_scan"}, "fusion_lon": 0.0, "is_reserved": 0}, {"lat": 38.88484716666667, "fusion_lat": 0.0, "type": "electric_scooter", "name": "9f12f7b30104fc80edf05bf94c18a356", "is_disabled": 0, "bike_id": "9f12f7b30104fc80edf05bf94c18a356", "lon": -77.00716933333334, "rental_uris": {"android": "https://dc.lft.to/lastmile_qr_scan", "ios": "https://dc.lft.to/lastmile_qr_scan"}, "fusion_lon": 0.0, "is_reserved": 0}, {"lat": 38.892284333333336, "fusion_lat": 0.0, "type": "electric_scooter", "name": "5ecc7a6aedb56f69dc4cbdb7c72b6817", "is_disabled": 0, "bike_id": "5ecc7a6aedb56f69dc4cbdb7c72b6817", "lon": -77.049865, "rental_uris": {"android": "https://dc.lft.to/lastmile_qr_scan", "ios": "https://dc.lft.to/lastmile_qr_scan"}, "fusion_lon": 0.0, "is_reserved": 0}, {"lat": 38.92025116666667, "fusion_lat": 0.0, "type": "electric_scooter", "name": "a0d99ea38defe81c3a93a681d4ba75ba", "is_disabled": 0, "bike_id": "a0d99ea38defe81c3a93a681d4ba75ba", "lon": -77.00307333333333, "rental_uris": {"android": "https://dc.lft.to/lastmile_qr_scan", "ios": "https://dc.lft.to/lastmile_qr_scan"}, "fusion_lon": 0.0, "is_reserved": 0}, {"lat": 38.887189, "fusion_lat": 0.0, "type": "electric_scooter", "name": "e2bb437b8490273933843ac85e5c65c1", "is_disabled": 0, "bike_id": "e2bb437b8490273933843ac85e5c65c1", "lon": -77.01981566666667, "rental_uris": {"android": "https://dc.lft.to/lastmile_qr_scan", "ios": "https://dc.lft.to/lastmile_qr_scan"}, "fusion_lon": 0.0, "is_reserved": 0}, {"lat": 38.90784883333333, "fusion_lat": 0.0, "type": "electric_scooter", "name": "254369dd5bb75ee64b4b20b3bd7f3232", "is_disabled": 0, "bike_id": "254369dd5bb75ee64b4b20b3bd7f3232", "lon": -77.072472, "rental_uris": {"android": "https://dc.lft.to/lastmile_qr_scan", "ios": "https://dc.lft.to/lastmile_qr_scan"}, "fusion_lon": 0.0, "is_reserved": 0}, {"lat": 38.903858166666666, "fusion_lat": 0.0, "type": "electric_scooter", "name": "784341fe2d4fdde60c1cba33c7c99a4b", "is_disabled": 0, "bike_id": "784341fe2d4fdde60c1cba33c7c99a4b", "lon": -77.03596066666667, "rental_uris": {"android": "https://dc.lft.to/lastmile_qr_scan", "ios": "https://dc.lft.to/lastmile_qr_scan"}, "fusion_lon": 0.0, "is_reserved": 0}, {"lat": 38.96312233333333, "fusion_lat": 0.0, "type": "electric_bike", "name": "e3330b965e64e5a49082750dd715c96a", "is_disabled": 0, "bike_id": "e3330b965e64e5a49082750dd715c96a", "lon": -76.97368383333334, "rental_uris": {"android": "https://dc.lft.to/lastmile_qr_scan", "ios": "https://dc.lft.to/lastmile_qr_scan"}, "fusion_lon": 0.0, "is_reserved": 0}, {"lat": 38.928478166666665, "fusion_lat": 0.0, "type": "electric_scooter", "name": "acd0d1d46566e7b68f0c47665831eef4", "is_disabled": 0, "bike_id": "acd0d1d46566e7b68f0c47665831eef4", "lon": -77.08308683333334, "rental_uris": {"android": "https://dc.lft.to/lastmile_qr_scan", "ios": "https://dc.lft.to/lastmile_qr_scan"}, "fusion_lon": 0.0, "is_reserved": 0}, {"lat": 38.90960466666667, "fusion_lat": 0.0, "type": "electric_scooter", "name": "5beb1cd0f1166fb17125a7c9336273b0", "is_disabled": 0, "bike_id": "5beb1cd0f1166fb17125a7c9336273b0", "lon": -77.01075166666666, "rental_uris": {"android": "https://dc.lft.to/lastmile_qr_scan", "ios": "https://dc.lft.to/lastmile_qr_scan"}, "fusion_lon": 0.0, "is_reserved": 0}, {"lat": 38.95744666666667, "fusion_lat": 0.0, "type": "electric_bike", "name": "7b3ce54af06ab8e0eda021e133ade1df", "is_disabled": 0, "bike_id": "7b3ce54af06ab8e0eda021e133ade1df", "lon": -76.97253733333334, "rental_uris": {"android": "https://dc.lft.to/lastmile_qr_scan", "ios": "https://dc.lft.to/lastmile_qr_scan"}, "fusion_lon": 0.0, "is_reserved": 0}, {"lat": 38.90165833333333, "fusion_lat": 0.0, "type": "electric_scooter", "name": "76a1e968eb9d0eab30998fdf41d6cbb9", "is_disabled": 0, "bike_id": "76a1e968eb9d0eab30998fdf41d6cbb9", "lon": -76.930231, "rental_uris": {"android": "https://dc.lft.to/lastmile_qr_scan", "ios": "https://dc.lft.to/lastmile_qr_scan"}, "fusion_lon": 0.0, "is_reserved": 0}, {"lat": 38.906578, "fusion_lat": 0.0, "type": "electric_scooter", "name": "cb9ca73eaca0d122a2af18da07a99f74", "is_disabled": 0, "bike_id": "cb9ca73eaca0d122a2af18da07a99f74", "lon": -77.04183666666667, "rental_uris": {"android": "https://dc.lft.to/lastmile_qr_scan", "ios": "https://dc.lft.to/lastmile_qr_scan"}, "fusion_lon": 0.0, "is_reserved": 0}, {"lat": 38.942281, "fusion_lat": 0.0, "type": "electric_scooter", "name": "e5c2ebcdec93a50cc08d7495bea5e1f8", "is_disabled": 0, "bike_id": "e5c2ebcdec93a50cc08d7495bea5e1f8", "lon": -77.0139895, "rental_uris": {"android": "https://dc.lft.to/lastmile_qr_scan", "ios": "https://dc.lft.to/lastmile_qr_scan"}, "fusion_lon": 0.0, "is_reserved": 0}, {"lat": 38.894415333333335, "fusion_lat": 0.0, "type": "electric_scooter", "name": "59d52a855dc66dc0b4100f92bc9b523a", "is_disabled": 0, "bike_id": "59d52a855dc66dc0b4100f92bc9b523a", "lon": -77.02636133333333, "rental_uris": {"android": "https://dc.lft.to/lastmile_qr_scan", "ios": "https://dc.lft.to/lastmile_qr_scan"}, "fusion_lon": 0.0, "is_reserved": 0}, {"lat": 38.92587266666666, "fusion_lat": 0.0, "type": "electric_scooter", "name": "9c375bb17aefd1c1ffb4e8c2cb7af0ba", "is_disabled": 0, "bike_id": "9c375bb17aefd1c1ffb4e8c2cb7af0ba", "lon": -77.03224116666667, "rental_uris": {"android": "https://dc.lft.to/lastmile_qr_scan", "ios": "https://dc.lft.to/lastmile_qr_scan"}, "fusion_lon": 0.0, "is_reserved": 0}, {"lat": 38.9042035, "fusion_lat": 0.0, "type": "electric_scooter", "name": "094808d4482fe0d41fa83b46b4a576e5", "is_disabled": 0, "bike_id": "094808d4482fe0d41fa83b46b4a576e5", "lon": -77.034643, "rental_uris": {"android": "https://dc.lft.to/lastmile_qr_scan", "ios": "https://dc.lft.to/lastmile_qr_scan"}, "fusion_lon": 0.0, "is_reserved": 0}, {"lat": 38.8730865, "fusion_lat": 0.0, "type": "electric_scooter", "name": "0d1a8c7b0569ebf8538ec18d323e311a", "is_disabled": 0, "bike_id": "0d1a8c7b0569ebf8538ec18d323e311a", "lon": -77.00143566666667, "rental_uris": {"android": "https://dc.lft.to/lastmile_qr_scan", "ios": "https://dc.lft.to/lastmile_qr_scan"}, "fusion_lon": 0.0, "is_reserved": 0}, {"lat": 38.902378, "fusion_lat": 0.0, "type": "electric_scooter", "name": "ebb28ed244cd70e0b886fc23d5f40d73", "is_disabled": 0, "bike_id": "ebb28ed244cd70e0b886fc23d5f40d73", "lon": -77.002042, "rental_uris": {"android": "https://dc.lft.to/lastmile_qr_scan", "ios": "https://dc.lft.to/lastmile_qr_scan"}, "fusion_lon": 0.0, "is_reserved": 0}, {"lat": 38.961928666666665, "fusion_lat": 0.0, "type": "electric_scooter", "name": "d42f098444f50bc76931ad75dad9fa57", "is_disabled": 0, "bike_id": "d42f098444f50bc76931ad75dad9fa57", "lon": -76.99785816666666, "rental_uris": {"android": "https://dc.lft.to/lastmile_qr_scan", "ios": "https://dc.lft.to/lastmile_qr_scan"}, "fusion_lon": 0.0, "is_reserved": 0}, {"lat": 38.904202833333336, "fusion_lat": 0.0, "type": "electric_scooter", "name": "56530b5008f2e7dabf1c64ff5073f58d", "is_disabled": 0, "bike_id": "56530b5008f2e7dabf1c64ff5073f58d", "lon": -77.02636983333333, "rental_uris": {"android": "https://dc.lft.to/lastmile_qr_scan", "ios": "https://dc.lft.to/lastmile_qr_scan"}, "fusion_lon": 0.0, "is_reserved": 0}, {"lat": 38.89987033333333, "fusion_lat": 0.0, "type": "electric_scooter", "name": "774626f9b21ff0e84a46136b83ddffc2", "is_disabled": 0, "bike_id": "774626f9b21ff0e84a46136b83ddffc2", "lon": -76.9812945, "rental_uris": {"android": "https://dc.lft.to/lastmile_qr_scan", "ios": "https://dc.lft.to/lastmile_qr_scan"}, "fusion_lon": 0.0, "is_reserved": 0}, {"lat": 38.86657683333333, "fusion_lat": 0.0, "type": "electric_scooter", "name": "a1c61eb0e2045da867131df9d69884f2", "is_disabled": 0, "bike_id": "a1c61eb0e2045da867131df9d69884f2", "lon": -76.98885183333333, "rental_uris": {"android": "https://dc.lft.to/lastmile_qr_scan", "ios": "https://dc.lft.to/lastmile_qr_scan"}, "fusion_lon": 0.0, "is_reserved": 0}, {"lat": 38.898723, "fusion_lat": 0.0, "type": "electric_scooter", "name": "2a0ef9eb8138cb5acf8046e1cb3a08a6", "is_disabled": 0, "bike_id": "2a0ef9eb8138cb5acf8046e1cb3a08a6", "lon": -77.03268183333333, "rental_uris": {"android": "https://dc.lft.to/lastmile_qr_scan", "ios": "https://dc.lft.to/lastmile_qr_scan"}, "fusion_lon": 0.0, "is_reserved": 0}, {"lat": 38.902583666666665, "fusion_lat": 0.0, "type": "electric_scooter", "name": "11867f92afa848a8a9a2d4213a9659b7", "is_disabled": 0, "bike_id": "11867f92afa848a8a9a2d4213a9659b7", "lon": -77.03445466666666, "rental_uris": {"android": "https://dc.lft.to/lastmile_qr_scan", "ios": "https://dc.lft.to/lastmile_qr_scan"}, "fusion_lon": 0.0, "is_reserved": 0}, {"lat": 38.9230615, "fusion_lat": 0.0, "type": "electric_scooter", "name": "8bce1aac225c311acff555b383e26e04", "is_disabled": 0, "bike_id": "8bce1aac225c311acff555b383e26e04", "lon": -77.02253383333333, "rental_uris": {"android": "https://dc.lft.to/lastmile_qr_scan", "ios": "https://dc.lft.to/lastmile_qr_scan"}, "fusion_lon": 0.0, "is_reserved": 0}, {"lat": 38.89042633333333, "fusion_lat": 0.0, "type": "electric_scooter", "name": "825456bb06b6bb84bc659f03100261af", "is_disabled": 0, "bike_id": "825456bb06b6bb84bc659f03100261af", "lon": -76.95248066666667, "rental_uris": {"android": "https://dc.lft.to/lastmile_qr_scan", "ios": "https://dc.lft.to/lastmile_qr_scan"}, "fusion_lon": 0.0, "is_reserved": 0}, {"lat": 38.90169433333333, "fusion_lat": 0.0, "type": "electric_scooter", "name": "a434b903bafccc9316754d91617f8795", "is_disabled": 0, "bike_id": "a434b903bafccc9316754d91617f8795", "lon": -76.926557, "rental_uris": {"android": "https://dc.lft.to/lastmile_qr_scan", "ios": "https://dc.lft.to/lastmile_qr_scan"}, "fusion_lon": 0.0, "is_reserved": 0}, {"lat": 38.909815333333334, "fusion_lat": 0.0, "type": "electric_scooter", "name": "314abd9942e5829f6c39a75edf5c47f5", "is_disabled": 0, "bike_id": "314abd9942e5829f6c39a75edf5c47f5", "lon": -77.03639783333334, "rental_uris": {"android": "https://dc.lft.to/lastmile_qr_scan", "ios": "https://dc.lft.to/lastmile_qr_scan"}, "fusion_lon": 0.0, "is_reserved": 0}, {"lat": 38.899886, "fusion_lat": 0.0, "type": "electric_scooter", "name": "f079e555edfac58032a473277682fecb", "is_disabled": 0, "bike_id": "f079e555edfac58032a473277682fecb", "lon": -77.02930833333333, "rental_uris": {"android": "https://dc.lft.to/lastmile_qr_scan", "ios": "https://dc.lft.to/lastmile_qr_scan"}, "fusion_lon": 0.0, "is_reserved": 0}, {"lat": 38.919546833333335, "fusion_lat": 0.0, "type": "electric_scooter", "name": "75270cad6e2f07da595716510ea179e1", "is_disabled": 0, "bike_id": "75270cad6e2f07da595716510ea179e1", "lon": -77.02391466666667, "rental_uris": {"android": "https://dc.lft.to/lastmile_qr_scan", "ios": "https://dc.lft.to/lastmile_qr_scan"}, "fusion_lon": 0.0, "is_reserved": 0}, {"lat": 38.937483666666665, "fusion_lat": 0.0, "type": "electric_scooter", "name": "01ef8fc5001ef3a63dacaee53846d9ea", "is_disabled": 0, "bike_id": "01ef8fc5001ef3a63dacaee53846d9ea", "lon": -77.02530883333333, "rental_uris": {"android": "https://dc.lft.to/lastmile_qr_scan", "ios": "https://dc.lft.to/lastmile_qr_scan"}, "fusion_lon": 0.0, "is_reserved": 0}, {"lat": 38.907896666666666, "fusion_lat": 0.0, "type": "electric_scooter", "name": "584f16bb3656960d6b15c753c9fd1897", "is_disabled": 0, "bike_id": "584f16bb3656960d6b15c753c9fd1897", "lon": -77.0271045, "rental_uris": {"android": "https://dc.lft.to/lastmile_qr_scan", "ios": "https://dc.lft.to/lastmile_qr_scan"}, "fusion_lon": 0.0, "is_reserved": 0}, {"lat": 38.89917116666667, "fusion_lat": 0.0, "type": "electric_scooter", "name": "1e919f6d123507dabb0066d79c7fee8e", "is_disabled": 0, "bike_id": "1e919f6d123507dabb0066d79c7fee8e", "lon": -77.02787083333334, "rental_uris": {"android": "https://dc.lft.to/lastmile_qr_scan", "ios": "https://dc.lft.to/lastmile_qr_scan"}, "fusion_lon": 0.0, "is_reserved": 0}, {"lat": 38.931883166666665, "fusion_lat": 0.0, "type": "electric_scooter", "name": "52094066a1a5242529fe66cdb2e59d5d", "is_disabled": 0, "bike_id": "52094066a1a5242529fe66cdb2e59d5d", "lon": -77.02830883333333, "rental_uris": {"android": "https://dc.lft.to/lastmile_qr_scan", "ios": "https://dc.lft.to/lastmile_qr_scan"}, "fusion_lon": 0.0, "is_reserved": 0}, {"lat": 38.92023433333333, "fusion_lat": 0.0, "type": "electric_scooter", "name": "5fd41899c4ca41cf79c31d735dd61ed8", "is_disabled": 0, "bike_id": "5fd41899c4ca41cf79c31d735dd61ed8", "lon": -77.01025666666666, "rental_uris": {"android": "https://dc.lft.to/lastmile_qr_scan", "ios": "https://dc.lft.to/lastmile_qr_scan"}, "fusion_lon": 0.0, "is_reserved": 0}, {"lat": 38.89314516666666, "fusion_lat": 0.0, "type": "electric_scooter", "name": "4bd75d87bf1137bf94e55d109c32afff", "is_disabled": 0, "bike_id": "4bd75d87bf1137bf94e55d109c32afff", "lon": -77.03187083333333, "rental_uris": {"android": "https://dc.lft.to/lastmile_qr_scan", "ios": "https://dc.lft.to/lastmile_qr_scan"}, "fusion_lon": 0.0, "is_reserved": 0}, {"lat": 38.922704333333336, "fusion_lat": 0.0, "type": "electric_scooter", "name": "bfa7440c5f1dbac0267446b2ade142a3", "is_disabled": 0, "bike_id": "bfa7440c5f1dbac0267446b2ade142a3", "lon": -77.0091515, "rental_uris": {"android": "https://dc.lft.to/lastmile_qr_scan", "ios": "https://dc.lft.to/lastmile_qr_scan"}, "fusion_lon": 0.0, "is_reserved": 0}, {"lat": 38.905194, "fusion_lat": 0.0, "type": "electric_scooter", "name": "9de807a23d0b04c1fcc98a5e3ff49958", "is_disabled": 0, "bike_id": "9de807a23d0b04c1fcc98a5e3ff49958", "lon": -77.06548666666667, "rental_uris": {"android": "https://dc.lft.to/lastmile_qr_scan", "ios": "https://dc.lft.to/lastmile_qr_scan"}, "fusion_lon": 0.0, "is_reserved": 0}, {"lat": 38.921722, "fusion_lat": 0.0, "type": "electric_scooter", "name": "a6c9e4fff1e76b9286f0a006515c3485", "is_disabled": 0, "bike_id": "a6c9e4fff1e76b9286f0a006515c3485", "lon": -77.0470375, "rental_uris": {"android": "https://dc.lft.to/lastmile_qr_scan", "ios": "https://dc.lft.to/lastmile_qr_scan"}, "fusion_lon": 0.0, "is_reserved": 0}, {"lat": 38.93874483333333, "fusion_lat": 0.0, "type": "electric_scooter", "name": "861ed68ed7a4f396d631fdea800c0d39", "is_disabled": 0, "bike_id": "861ed68ed7a4f396d631fdea800c0d39", "lon": -77.02483, "rental_uris": {"android": "https://dc.lft.to/lastmile_qr_scan", "ios": "https://dc.lft.to/lastmile_qr_scan"}, "fusion_lon": 0.0, "is_reserved": 0}, {"lat": 38.9105475, "fusion_lat": 0.0, "type": "electric_scooter", "name": "bf043fd7ea4605f6eea6f95de69bee52", "is_disabled": 0, "bike_id": "bf043fd7ea4605f6eea6f95de69bee52", "lon": -77.02184933333334, "rental_uris": {"android": "https://dc.lft.to/lastmile_qr_scan", "ios": "https://dc.lft.to/lastmile_qr_scan"}, "fusion_lon": 0.0, "is_reserved": 0}, {"lat": 38.900061, "fusion_lat": 0.0, "type": "electric_scooter", "name": "74ffb3a1c50531a62737dd517866c6bd", "is_disabled": 0, "bike_id": "74ffb3a1c50531a62737dd517866c6bd", "lon": -77.0022275, "rental_uris": {"android": "https://dc.lft.to/lastmile_qr_scan", "ios": "https://dc.lft.to/lastmile_qr_scan"}, "fusion_lon": 0.0, "is_reserved": 0}, {"lat": 38.934525, "fusion_lat": 0.0, "type": "electric_scooter", "name": "8bb4fa3aa025513e8fbccbf29a8f13ee", "is_disabled": 0, "bike_id": "8bb4fa3aa025513e8fbccbf29a8f13ee", "lon": -77.02899016666667, "rental_uris": {"android": "https://dc.lft.to/lastmile_qr_scan", "ios": "https://dc.lft.to/lastmile_qr_scan"}, "fusion_lon": 0.0, "is_reserved": 0}, {"lat": 38.907178, "fusion_lat": 0.0, "type": "electric_scooter", "name": "c2bf626a215d070430689fd81785f3d0", "is_disabled": 0, "bike_id": "c2bf626a215d070430689fd81785f3d0", "lon": -77.026741, "rental_uris": {"android": "https://dc.lft.to/lastmile_qr_scan", "ios": "https://dc.lft.to/lastmile_qr_scan"}, "fusion_lon": 0.0, "is_reserved": 0}, {"lat": 38.9207035, "fusion_lat": 0.0, "type": "electric_scooter", "name": "3200d215f90ab2374349fcfc06c3a299", "is_disabled": 0, "bike_id": "3200d215f90ab2374349fcfc06c3a299", "lon": -77.02212683333333, "rental_uris": {"android": "https://dc.lft.to/lastmile_qr_scan", "ios": "https://dc.lft.to/lastmile_qr_scan"}, "fusion_lon": 0.0, "is_reserved": 0}, {"lat": 38.92104883333333, "fusion_lat": 0.0, "type": "electric_scooter", "name": "9a1153d208fbac0709e03a489d50dfbc", "is_disabled": 0, "bike_id": "9a1153d208fbac0709e03a489d50dfbc", "lon": -77.06329933333333, "rental_uris": {"android": "https://dc.lft.to/lastmile_qr_scan", "ios": "https://dc.lft.to/lastmile_qr_scan"}, "fusion_lon": 0.0, "is_reserved": 0}, {"lat": 38.9194125, "fusion_lat": 0.0, "type": "electric_scooter", "name": "b95f4ed73fa367e1e38e04b802b3a2a1", "is_disabled": 0, "bike_id": "b95f4ed73fa367e1e38e04b802b3a2a1", "lon": -77.01353316666666, "rental_uris": {"android": "https://dc.lft.to/lastmile_qr_scan", "ios": "https://dc.lft.to/lastmile_qr_scan"}, "fusion_lon": 0.0, "is_reserved": 0}, {"lat": 39.04228116666667, "fusion_lat": 0.0, "type": "electric_bike", "name": "b61c6a5aa3ae90f67da61ec994a31f3e", "is_disabled": 0, "bike_id": "b61c6a5aa3ae90f67da61ec994a31f3e", "lon": -76.99732483333334, "rental_uris": {"android": "https://dc.lft.to/lastmile_qr_scan", "ios": "https://dc.lft.to/lastmile_qr_scan"}, "fusion_lon": 0.0, "is_reserved": 0}, {"lat": 38.90394666666667, "fusion_lat": 0.0, "type": "electric_scooter", "name": "d75ae89466dc0ec62e5f8f5e11a07518", "is_disabled": 0, "bike_id": "d75ae89466dc0ec62e5f8f5e11a07518", "lon": -76.9846435, "rental_uris": {"android": "https://dc.lft.to/lastmile_qr_scan", "ios": "https://dc.lft.to/lastmile_qr_scan"}, "fusion_lon": 0.0, "is_reserved": 0}, {"lat": 38.89979183333333, "fusion_lat": 0.0, "type": "electric_scooter", "name": "c18690c985debcf1b4dc1560541c5f22", "is_disabled": 0, "bike_id": "c18690c985debcf1b4dc1560541c5f22", "lon": -77.05558616666667, "rental_uris": {"android": "https://dc.lft.to/lastmile_qr_scan", "ios": "https://dc.lft.to/lastmile_qr_scan"}, "fusion_lon": 0.0, "is_reserved": 0}, {"lat": 38.8874065, "fusion_lat": 0.0, "type": "electric_scooter", "name": "b4b57156c2c4de7da6d11ee27970bacc", "is_disabled": 0, "bike_id": "b4b57156c2c4de7da6d11ee27970bacc", "lon": -77.0262795, "rental_uris": {"android": "https://dc.lft.to/lastmile_qr_scan", "ios": "https://dc.lft.to/lastmile_qr_scan"}, "fusion_lon": 0.0, "is_reserved": 0}, {"lat": 38.91556966666667, "fusion_lat": 0.0, "type": "electric_scooter", "name": "ad8df408cdf0720b168988705841cc1a", "is_disabled": 0, "bike_id": "ad8df408cdf0720b168988705841cc1a", "lon": -77.03256283333333, "rental_uris": {"android": "https://dc.lft.to/lastmile_qr_scan", "ios": "https://dc.lft.to/lastmile_qr_scan"}, "fusion_lon": 0.0, "is_reserved": 0}, {"lat": 38.912627, "fusion_lat": 0.0, "type": "electric_scooter", "name": "678ba3d19804b1cf9ff93580e0673461", "is_disabled": 0, "bike_id": "678ba3d19804b1cf9ff93580e0673461", "lon": -77.04258433333334, "rental_uris": {"android": "https://dc.lft.to/lastmile_qr_scan", "ios": "https://dc.lft.to/lastmile_qr_scan"}, "fusion_lon": 0.0, "is_reserved": 0}, {"lat": 38.918083, "fusion_lat": 0.0, "type": "electric_scooter", "name": "20004c4b25c1617a3b0d3739129059c7", "is_disabled": 0, "bike_id": "20004c4b25c1617a3b0d3739129059c7", "lon": -77.03697833333334, "rental_uris": {"android": "https://dc.lft.to/lastmile_qr_scan", "ios": "https://dc.lft.to/lastmile_qr_scan"}, "fusion_lon": 0.0, "is_reserved": 0}, {"lat": 38.89076083333333, "fusion_lat": 0.0, "type": "electric_scooter", "name": "0e19ae1ca692216e3a746a77fa83cd54", "is_disabled": 0, "bike_id": "0e19ae1ca692216e3a746a77fa83cd54", "lon": -76.98824133333333, "rental_uris": {"android": "https://dc.lft.to/lastmile_qr_scan", "ios": "https://dc.lft.to/lastmile_qr_scan"}, "fusion_lon": 0.0, "is_reserved": 0}, {"lat": 38.86511866666667, "fusion_lat": 0.0, "type": "electric_scooter", "name": "17a08d3d73bb3986502d3d941535ac37", "is_disabled": 0, "bike_id": "17a08d3d73bb3986502d3d941535ac37", "lon": -76.97343016666667, "rental_uris": {"android": "https://dc.lft.to/lastmile_qr_scan", "ios": "https://dc.lft.to/lastmile_qr_scan"}, "fusion_lon": 0.0, "is_reserved": 0}, {"lat": 38.930026166666664, "fusion_lat": 0.0, "type": "electric_bike", "name": "5fd127ad58c9fa32a5949a78062b5ba2", "is_disabled": 0, "bike_id": "5fd127ad58c9fa32a5949a78062b5ba2", "lon": -77.07975216666667, "rental_uris": {"android": "https://dc.lft.to/lastmile_qr_scan", "ios": "https://dc.lft.to/lastmile_qr_scan"}, "fusion_lon": 0.0, "is_reserved": 0}, {"lat": 38.874381666666665, "fusion_lat": 0.0, "type": "electric_scooter", "name": "f5b50377a47556134b76081b39464b79", "is_disabled": 0, "bike_id": "f5b50377a47556134b76081b39464b79", "lon": -77.00050116666667, "rental_uris": {"android": "https://dc.lft.to/lastmile_qr_scan", "ios": "https://dc.lft.to/lastmile_qr_scan"}, "fusion_lon": 0.0, "is_reserved": 0}, {"lat": 38.9230935, "fusion_lat": 0.0, "type": "electric_scooter", "name": "d37e295334005a59cd1bcc9c7b00351e", "is_disabled": 0, "bike_id": "d37e295334005a59cd1bcc9c7b00351e", "lon": -77.04741883333334, "rental_uris": {"android": "https://dc.lft.to/lastmile_qr_scan", "ios": "https://dc.lft.to/lastmile_qr_scan"}, "fusion_lon": 0.0, "is_reserved": 0}, {"lat": 38.89220666666667, "fusion_lat": 0.0, "type": "electric_scooter", "name": "067d0862f7cc5f11e1aada109e0d78d5", "is_disabled": 0, "bike_id": "067d0862f7cc5f11e1aada109e0d78d5", "lon": -77.04638, "rental_uris": {"android": "https://dc.lft.to/lastmile_qr_scan", "ios": "https://dc.lft.to/lastmile_qr_scan"}, "fusion_lon": 0.0, "is_reserved": 0}, {"lat": 38.900602666666664, "fusion_lat": 0.0, "type": "electric_scooter", "name": "5b3b3369309f52b354b8965756551803", "is_disabled": 0, "bike_id": "5b3b3369309f52b354b8965756551803", "lon": -76.99629966666667, "rental_uris": {"android": "https://dc.lft.to/lastmile_qr_scan", "ios": "https://dc.lft.to/lastmile_qr_scan"}, "fusion_lon": 0.0, "is_reserved": 0}, {"lat": 38.91676983333333, "fusion_lat": 0.0, "type": "electric_scooter", "name": "a69153d2f794e66eeed610f51e2e4e72", "is_disabled": 0, "bike_id": "a69153d2f794e66eeed610f51e2e4e72", "lon": -77.0318825, "rental_uris": {"android": "https://dc.lft.to/lastmile_qr_scan", "ios": "https://dc.lft.to/lastmile_qr_scan"}, "fusion_lon": 0.0, "is_reserved": 0}, {"lat": 38.904321833333334, "fusion_lat": 0.0, "type": "electric_scooter", "name": "309f8a8858e7cd8f74689e50e539fda6", "is_disabled": 0, "bike_id": "309f8a8858e7cd8f74689e50e539fda6", "lon": -77.02503466666667, "rental_uris": {"android": "https://dc.lft.to/lastmile_qr_scan", "ios": "https://dc.lft.to/lastmile_qr_scan"}, "fusion_lon": 0.0, "is_reserved": 0}, {"lat": 38.9183655, "fusion_lat": 0.0, "type": "electric_scooter", "name": "89c92bdd1e871d06f87666625fef93f7", "is_disabled": 0, "bike_id": "89c92bdd1e871d06f87666625fef93f7", "lon": -77.040271, "rental_uris": {"android": "https://dc.lft.to/lastmile_qr_scan", "ios": "https://dc.lft.to/lastmile_qr_scan"}, "fusion_lon": 0.0, "is_reserved": 0}, {"lat": 38.9518455, "fusion_lat": 0.0, "type": "electric_scooter", "name": "7e611902ad5d13cc8cecdfdb65b46134", "is_disabled": 0, "bike_id": "7e611902ad5d13cc8cecdfdb65b46134", "lon": -77.02733666666667, "rental_uris": {"android": "https://dc.lft.to/lastmile_qr_scan", "ios": "https://dc.lft.to/lastmile_qr_scan"}, "fusion_lon": 0.0, "is_reserved": 0}, {"lat": 38.88424233333333, "fusion_lat": 0.0, "type": "electric_scooter", "name": "d8263354dd9aaf5f9603b8c0b1c4c89b", "is_disabled": 0, "bike_id": "d8263354dd9aaf5f9603b8c0b1c4c89b", "lon": -76.957534, "rental_uris": {"android": "https://dc.lft.to/lastmile_qr_scan", "ios": "https://dc.lft.to/lastmile_qr_scan"}, "fusion_lon": 0.0, "is_reserved": 0}, {"lat": 38.91786416666667, "fusion_lat": 0.0, "type": "electric_scooter", "name": "735c8f3d463109ec1f20fc869d34cb59", "is_disabled": 0, "bike_id": "735c8f3d463109ec1f20fc869d34cb59", "lon": -77.02309933333333, "rental_uris": {"android": "https://dc.lft.to/lastmile_qr_scan", "ios": "https://dc.lft.to/lastmile_qr_scan"}, "fusion_lon": 0.0, "is_reserved": 0}, {"lat": 38.89340833333333, "fusion_lat": 0.0, "type": "electric_scooter", "name": "30abe3e0bcc1d267fd937b436a3e19ff", "is_disabled": 0, "bike_id": "30abe3e0bcc1d267fd937b436a3e19ff", "lon": -76.94921733333334, "rental_uris": {"android": "https://dc.lft.to/lastmile_qr_scan", "ios": "https://dc.lft.to/lastmile_qr_scan"}, "fusion_lon": 0.0, "is_reserved": 0}, {"lat": 38.8746565, "fusion_lat": 0.0, "type": "electric_scooter", "name": "774770a6364d069cde57cd6f1a8173da", "is_disabled": 0, "bike_id": "774770a6364d069cde57cd6f1a8173da", "lon": -77.004953, "rental_uris": {"android": "https://dc.lft.to/lastmile_qr_scan", "ios": "https://dc.lft.to/lastmile_qr_scan"}, "fusion_lon": 0.0, "is_reserved": 0}, {"lat": 38.89604416666667, "fusion_lat": 0.0, "type": "electric_scooter", "name": "1964c8006ef45454fa62376d7aaa9b11", "is_disabled": 0, "bike_id": "1964c8006ef45454fa62376d7aaa9b11", "lon": -77.02253933333333, "rental_uris": {"android": "https://dc.lft.to/lastmile_qr_scan", "ios": "https://dc.lft.to/lastmile_qr_scan"}, "fusion_lon": 0.0, "is_reserved": 0}, {"lat": 38.911145, "fusion_lat": 0.0, "type": "electric_scooter", "name": "f9277980df7fe2fe18ffc5532bc06997", "is_disabled": 0, "bike_id": "f9277980df7fe2fe18ffc5532bc06997", "lon": -77.02188333333334, "rental_uris": {"android": "https://dc.lft.to/lastmile_qr_scan", "ios": "https://dc.lft.to/lastmile_qr_scan"}, "fusion_lon": 0.0, "is_reserved": 0}, {"lat": 38.917025333333335, "fusion_lat": 0.0, "type": "electric_scooter", "name": "b4eff06a6819dbe130e0e5f3a19d1b49", "is_disabled": 0, "bike_id": "b4eff06a6819dbe130e0e5f3a19d1b49", "lon": -77.02862266666666, "rental_uris": {"android": "https://dc.lft.to/lastmile_qr_scan", "ios": "https://dc.lft.to/lastmile_qr_scan"}, "fusion_lon": 0.0, "is_reserved": 0}, {"lat": 38.93881, "fusion_lat": 0.0, "type": "electric_scooter", "name": "7c21196e102f42f33df41380e6a6b44c", "is_disabled": 0, "bike_id": "7c21196e102f42f33df41380e6a6b44c", "lon": -77.03286366666667, "rental_uris": {"android": "https://dc.lft.to/lastmile_qr_scan", "ios": "https://dc.lft.to/lastmile_qr_scan"}, "fusion_lon": 0.0, "is_reserved": 0}, {"lat": 38.92234366666667, "fusion_lat": 0.0, "type": "electric_scooter", "name": "a67516928528599d7bc82a9a722aba3f", "is_disabled": 0, "bike_id": "a67516928528599d7bc82a9a722aba3f", "lon": -77.02128583333334, "rental_uris": {"android": "https://dc.lft.to/lastmile_qr_scan", "ios": "https://dc.lft.to/lastmile_qr_scan"}, "fusion_lon": 0.0, "is_reserved": 0}, {"lat": 38.90284033333333, "fusion_lat": 0.0, "type": "electric_scooter", "name": "fac42c5eb7c4cf36d55ba27b7a8a1715", "is_disabled": 0, "bike_id": "fac42c5eb7c4cf36d55ba27b7a8a1715", "lon": -77.03428716666667, "rental_uris": {"android": "https://dc.lft.to/lastmile_qr_scan", "ios": "https://dc.lft.to/lastmile_qr_scan"}, "fusion_lon": 0.0, "is_reserved": 0}, {"lat": 38.9024725, "fusion_lat": 0.0, "type": "electric_scooter", "name": "5907c5d367008dee8abde6074c3dfefe", "is_disabled": 0, "bike_id": "5907c5d367008dee8abde6074c3dfefe", "lon": -77.03458266666667, "rental_uris": {"android": "https://dc.lft.to/lastmile_qr_scan", "ios": "https://dc.lft.to/lastmile_qr_scan"}, "fusion_lon": 0.0, "is_reserved": 0}, {"lat": 38.904761666666666, "fusion_lat": 0.0, "type": "electric_scooter", "name": "623c84c96dc57f292e26315d3e5794cc", "is_disabled": 0, "bike_id": "623c84c96dc57f292e26315d3e5794cc", "lon": -77.0435345, "rental_uris": {"android": "https://dc.lft.to/lastmile_qr_scan", "ios": "https://dc.lft.to/lastmile_qr_scan"}, "fusion_lon": 0.0, "is_reserved": 0}, {"lat": 38.89223116666667, "fusion_lat": 0.0, "type": "electric_scooter", "name": "287f384dd6f6274a030c0f5ce5f40510", "is_disabled": 0, "bike_id": "287f384dd6f6274a030c0f5ce5f40510", "lon": -77.0241195, "rental_uris": {"android": "https://dc.lft.to/lastmile_qr_scan", "ios": "https://dc.lft.to/lastmile_qr_scan"}, "fusion_lon": 0.0, "is_reserved": 0}, {"lat": 38.9090545, "fusion_lat": 0.0, "type": "electric_scooter", "name": "b7a7b869f7d546fddaffcd0494c0bf61", "is_disabled": 0, "bike_id": "b7a7b869f7d546fddaffcd0494c0bf61", "lon": -77.0718925, "rental_uris": {"android": "https://dc.lft.to/lastmile_qr_scan", "ios": "https://dc.lft.to/lastmile_qr_scan"}, "fusion_lon": 0.0, "is_reserved": 0}, {"lat": 38.87214483333333, "fusion_lat": 0.0, "type": "electric_scooter", "name": "69ddf65742539001a4cc8cf03e67d706", "is_disabled": 0, "bike_id": "69ddf65742539001a4cc8cf03e67d706", "lon": -77.01766366666666, "rental_uris": {"android": "https://dc.lft.to/lastmile_qr_scan", "ios": "https://dc.lft.to/lastmile_qr_scan"}, "fusion_lon": 0.0, "is_reserved": 0}, {"lat": 38.92119066666667, "fusion_lat": 0.0, "type": "electric_scooter", "name": "7648b08a63ed9d0fb61ecc1c5bc4f110", "is_disabled": 0, "bike_id": "7648b08a63ed9d0fb61ecc1c5bc4f110", "lon": -77.04587983333333, "rental_uris": {"android": "https://dc.lft.to/lastmile_qr_scan", "ios": "https://dc.lft.to/lastmile_qr_scan"}, "fusion_lon": 0.0, "is_reserved": 0}, {"lat": 38.900172166666664, "fusion_lat": 0.0, "type": "electric_scooter", "name": "9b685c0215f198a3653615d638c1f81a", "is_disabled": 0, "bike_id": "9b685c0215f198a3653615d638c1f81a", "lon": -77.00698333333334, "rental_uris": {"android": "https://dc.lft.to/lastmile_qr_scan", "ios": "https://dc.lft.to/lastmile_qr_scan"}, "fusion_lon": 0.0, "is_reserved": 0}, {"lat": 38.92756883333333, "fusion_lat": 0.0, "type": "electric_scooter", "name": "7a4c32fb86a4722441103081bc373d56", "is_disabled": 0, "bike_id": "7a4c32fb86a4722441103081bc373d56", "lon": -77.02110916666666, "rental_uris": {"android": "https://dc.lft.to/lastmile_qr_scan", "ios": "https://dc.lft.to/lastmile_qr_scan"}, "fusion_lon": 0.0, "is_reserved": 0}, {"lat": 38.898578, "fusion_lat": 0.0, "type": "electric_scooter", "name": "a37509484bfcef6e706db3e3f1078ca8", "is_disabled": 0, "bike_id": "a37509484bfcef6e706db3e3f1078ca8", "lon": -77.01147183333333, "rental_uris": {"android": "https://dc.lft.to/lastmile_qr_scan", "ios": "https://dc.lft.to/lastmile_qr_scan"}, "fusion_lon": 0.0, "is_reserved": 0}, {"lat": 38.906808166666664, "fusion_lat": 0.0, "type": "electric_scooter", "name": "7dd8a1e03a4b5e2c75a0e6edbb4eb2b9", "is_disabled": 0, "bike_id": "7dd8a1e03a4b5e2c75a0e6edbb4eb2b9", "lon": -77.02373766666666, "rental_uris": {"android": "https://dc.lft.to/lastmile_qr_scan", "ios": "https://dc.lft.to/lastmile_qr_scan"}, "fusion_lon": 0.0, "is_reserved": 0}, {"lat": 38.921896833333335, "fusion_lat": 0.0, "type": "electric_scooter", "name": "e9bff1d3263c6d203d15deae2de3c1bb", "is_disabled": 0, "bike_id": "e9bff1d3263c6d203d15deae2de3c1bb", "lon": -77.0412555, "rental_uris": {"android": "https://dc.lft.to/lastmile_qr_scan", "ios": "https://dc.lft.to/lastmile_qr_scan"}, "fusion_lon": 0.0, "is_reserved": 0}, {"lat": 38.891951666666664, "fusion_lat": 0.0, "type": "electric_scooter", "name": "d2fa03392344221f88ff8a5f33f7fe5d", "is_disabled": 0, "bike_id": "d2fa03392344221f88ff8a5f33f7fe5d", "lon": -77.02376916666667, "rental_uris": {"android": "https://dc.lft.to/lastmile_qr_scan", "ios": "https://dc.lft.to/lastmile_qr_scan"}, "fusion_lon": 0.0, "is_reserved": 0}, {"lat": 38.88401983333333, "fusion_lat": 0.0, "type": "electric_scooter", "name": "ce687e4d20d5aac8ed8e51c5389054a1", "is_disabled": 0, "bike_id": "ce687e4d20d5aac8ed8e51c5389054a1", "lon": -76.94826916666666, "rental_uris": {"android": "https://dc.lft.to/lastmile_qr_scan", "ios": "https://dc.lft.to/lastmile_qr_scan"}, "fusion_lon": 0.0, "is_reserved": 0}, {"lat": 38.9370035, "fusion_lat": 0.0, "type": "electric_bike", "name": "55ea419bf8238f24e948c44e072d8203", "is_disabled": 0, "bike_id": "55ea419bf8238f24e948c44e072d8203", "lon": -77.02118966666667, "rental_uris": {"android": "https://dc.lft.to/lastmile_qr_scan", "ios": "https://dc.lft.to/lastmile_qr_scan"}, "fusion_lon": 0.0, "is_reserved": 0}, {"lat": 38.934957, "fusion_lat": 0.0, "type": "electric_scooter", "name": "6eb48be0e2107fc526bf23a9638e4846", "is_disabled": 0, "bike_id": "6eb48be0e2107fc526bf23a9638e4846", "lon": -77.02723366666666, "rental_uris": {"android": "https://dc.lft.to/lastmile_qr_scan", "ios": "https://dc.lft.to/lastmile_qr_scan"}, "fusion_lon": 0.0, "is_reserved": 0}, {"lat": 38.83095566666667, "fusion_lat": 0.0, "type": "electric_bike", "name": "9e956926fee80e544b1d482e307b3310", "is_disabled": 0, "bike_id": "9e956926fee80e544b1d482e307b3310", "lon": -77.04265866666667, "rental_uris": {"android": "https://dc.lft.to/lastmile_qr_scan", "ios": "https://dc.lft.to/lastmile_qr_scan"}, "fusion_lon": 0.0, "is_reserved": 0}, {"lat": 38.89227283333334, "fusion_lat": 0.0, "type": "electric_scooter", "name": "ed77a551f7369a437bd22e6f772f4b29", "is_disabled": 0, "bike_id": "ed77a551f7369a437bd22e6f772f4b29", "lon": -77.02383, "rental_uris": {"android": "https://dc.lft.to/lastmile_qr_scan", "ios": "https://dc.lft.to/lastmile_qr_scan"}, "fusion_lon": 0.0, "is_reserved": 0}, {"lat": 38.897508333333334, "fusion_lat": 0.0, "type": "electric_scooter", "name": "2f11ffda8641a09877a3cd028f36e18d", "is_disabled": 0, "bike_id": "2f11ffda8641a09877a3cd028f36e18d", "lon": -77.03006333333333, "rental_uris": {"android": "https://dc.lft.to/lastmile_qr_scan", "ios": "https://dc.lft.to/lastmile_qr_scan"}, "fusion_lon": 0.0, "is_reserved": 0}, {"lat": 38.901776166666664, "fusion_lat": 0.0, "type": "electric_scooter", "name": "220cf12981fc267345e79883c7dd855b", "is_disabled": 0, "bike_id": "220cf12981fc267345e79883c7dd855b", "lon": -76.92898616666666, "rental_uris": {"android": "https://dc.lft.to/lastmile_qr_scan", "ios": "https://dc.lft.to/lastmile_qr_scan"}, "fusion_lon": 0.0, "is_reserved": 0}, {"lat": 38.887003166666666, "fusion_lat": 0.0, "type": "electric_scooter", "name": "fdcca79c1d2ed1934f338fc4cbc43144", "is_disabled": 0, "bike_id": "fdcca79c1d2ed1934f338fc4cbc43144", "lon": -77.00350516666667, "rental_uris": {"android": "https://dc.lft.to/lastmile_qr_scan", "ios": "https://dc.lft.to/lastmile_qr_scan"}, "fusion_lon": 0.0, "is_reserved": 0}, {"lat": 38.90137933333333, "fusion_lat": 0.0, "type": "electric_scooter", "name": "0afc0dd28f502a5208e0556823810936", "is_disabled": 0, "bike_id": "0afc0dd28f502a5208e0556823810936", "lon": -76.9979805, "rental_uris": {"android": "https://dc.lft.to/lastmile_qr_scan", "ios": "https://dc.lft.to/lastmile_qr_scan"}, "fusion_lon": 0.0, "is_reserved": 0}, {"lat": 38.926649833333336, "fusion_lat": 0.0, "type": "electric_scooter", "name": "addacd7688eebc5a0af346c68ac609e1", "is_disabled": 0, "bike_id": "addacd7688eebc5a0af346c68ac609e1", "lon": -76.99539133333333, "rental_uris": {"android": "https://dc.lft.to/lastmile_qr_scan", "ios": "https://dc.lft.to/lastmile_qr_scan"}, "fusion_lon": 0.0, "is_reserved": 0}, {"lat": 38.91815616666667, "fusion_lat": 0.0, "type": "electric_scooter", "name": "a6f7e818675ef1332c288109e62f6705", "is_disabled": 0, "bike_id": "a6f7e818675ef1332c288109e62f6705", "lon": -77.025117, "rental_uris": {"android": "https://dc.lft.to/lastmile_qr_scan", "ios": "https://dc.lft.to/lastmile_qr_scan"}, "fusion_lon": 0.0, "is_reserved": 0}, {"lat": 38.877063166666666, "fusion_lat": 0.0, "type": "electric_scooter", "name": "b146a430cc1f8945e6ce855aa4e09fb5", "is_disabled": 0, "bike_id": "b146a430cc1f8945e6ce855aa4e09fb5", "lon": -77.01754083333333, "rental_uris": {"android": "https://dc.lft.to/lastmile_qr_scan", "ios": "https://dc.lft.to/lastmile_qr_scan"}, "fusion_lon": 0.0, "is_reserved": 0}, {"lat": 38.89230716666667, "fusion_lat": 0.0, "type": "electric_scooter", "name": "33a411f2580cded21130ae260861bfad", "is_disabled": 0, "bike_id": "33a411f2580cded21130ae260861bfad", "lon": -77.0499905, "rental_uris": {"android": "https://dc.lft.to/lastmile_qr_scan", "ios": "https://dc.lft.to/lastmile_qr_scan"}, "fusion_lon": 0.0, "is_reserved": 0}, {"lat": 38.928822, "fusion_lat": 0.0, "type": "electric_scooter", "name": "9d4282f0a9528f95003976d9d9750fbd", "is_disabled": 0, "bike_id": "9d4282f0a9528f95003976d9d9750fbd", "lon": -77.0331845, "rental_uris": {"android": "https://dc.lft.to/lastmile_qr_scan", "ios": "https://dc.lft.to/lastmile_qr_scan"}, "fusion_lon": 0.0, "is_reserved": 0}, {"lat": 38.924729, "fusion_lat": 0.0, "type": "electric_scooter", "name": "7a21ab2084a2843c676c3ceb6ce45d3a", "is_disabled": 0, "bike_id": "7a21ab2084a2843c676c3ceb6ce45d3a", "lon": -77.02207566666667, "rental_uris": {"android": "https://dc.lft.to/lastmile_qr_scan", "ios": "https://dc.lft.to/lastmile_qr_scan"}, "fusion_lon": 0.0, "is_reserved": 0}, {"lat": 38.89086566666667, "fusion_lat": 0.0, "type": "electric_scooter", "name": "7ea6a09ca45b2b53be550618f91e4285", "is_disabled": 0, "bike_id": "7ea6a09ca45b2b53be550618f91e4285", "lon": -76.9960465, "rental_uris": {"android": "https://dc.lft.to/lastmile_qr_scan", "ios": "https://dc.lft.to/lastmile_qr_scan"}, "fusion_lon": 0.0, "is_reserved": 0}, {"lat": 38.89520733333333, "fusion_lat": 0.0, "type": "electric_scooter", "name": "584c1ed70ffd52980b02ef6476f22232", "is_disabled": 0, "bike_id": "584c1ed70ffd52980b02ef6476f22232", "lon": -77.04476083333333, "rental_uris": {"android": "https://dc.lft.to/lastmile_qr_scan", "ios": "https://dc.lft.to/lastmile_qr_scan"}, "fusion_lon": 0.0, "is_reserved": 0}, {"lat": 38.8861405, "fusion_lat": 0.0, "type": "electric_scooter", "name": "86c5f0eca60795de03f2e4664b34db74", "is_disabled": 0, "bike_id": "86c5f0eca60795de03f2e4664b34db74", "lon": -76.95583483333333, "rental_uris": {"android": "https://dc.lft.to/lastmile_qr_scan", "ios": "https://dc.lft.to/lastmile_qr_scan"}, "fusion_lon": 0.0, "is_reserved": 0}, {"lat": 38.94814816666667, "fusion_lat": 0.0, "type": "electric_scooter", "name": "3a6d4be2f5e59c0fa2b5132500601caf", "is_disabled": 0, "bike_id": "3a6d4be2f5e59c0fa2b5132500601caf", "lon": -77.03283616666667, "rental_uris": {"android": "https://dc.lft.to/lastmile_qr_scan", "ios": "https://dc.lft.to/lastmile_qr_scan"}, "fusion_lon": 0.0, "is_reserved": 0}, {"lat": 38.89221116666667, "fusion_lat": 0.0, "type": "electric_scooter", "name": "885051901d1ba7f65b8808cefa12aaa1", "is_disabled": 0, "bike_id": "885051901d1ba7f65b8808cefa12aaa1", "lon": -77.0469415, "rental_uris": {"android": "https://dc.lft.to/lastmile_qr_scan", "ios": "https://dc.lft.to/lastmile_qr_scan"}, "fusion_lon": 0.0, "is_reserved": 0}, {"lat": 38.8842645, "fusion_lat": 0.0, "type": "electric_scooter", "name": "2cf38e43757ad8aa615d0ee9632374dc", "is_disabled": 0, "bike_id": "2cf38e43757ad8aa615d0ee9632374dc", "lon": -76.957563, "rental_uris": {"android": "https://dc.lft.to/lastmile_qr_scan", "ios": "https://dc.lft.to/lastmile_qr_scan"}, "fusion_lon": 0.0, "is_reserved": 0}, {"lat": 38.92851866666667, "fusion_lat": 0.0, "type": "electric_scooter", "name": "c264651cdd857cd617af2e93ee5b81b5", "is_disabled": 0, "bike_id": "c264651cdd857cd617af2e93ee5b81b5", "lon": -77.0332005, "rental_uris": {"android": "https://dc.lft.to/lastmile_qr_scan", "ios": "https://dc.lft.to/lastmile_qr_scan"}, "fusion_lon": 0.0, "is_reserved": 0}, {"lat": 38.904200833333334, "fusion_lat": 0.0, "type": "electric_scooter", "name": "5d90b052b2fb03bbd208d69d1938c025", "is_disabled": 0, "bike_id": "5d90b052b2fb03bbd208d69d1938c025", "lon": -77.04359416666667, "rental_uris": {"android": "https://dc.lft.to/lastmile_qr_scan", "ios": "https://dc.lft.to/lastmile_qr_scan"}, "fusion_lon": 0.0, "is_reserved": 0}, {"lat": 38.85773533333333, "fusion_lat": 0.0, "type": "electric_scooter", "name": "04bf5e5e1d8adea311f67fa40961a865", "is_disabled": 0, "bike_id": "04bf5e5e1d8adea311f67fa40961a865", "lon": -76.988656, "rental_uris": {"android": "https://dc.lft.to/lastmile_qr_scan", "ios": "https://dc.lft.to/lastmile_qr_scan"}, "fusion_lon": 0.0, "is_reserved": 0}, {"lat": 38.87470666666667, "fusion_lat": 0.0, "type": "electric_scooter", "name": "2ef69e4945ab787aad8672fa0498b4d4", "is_disabled": 0, "bike_id": "2ef69e4945ab787aad8672fa0498b4d4", "lon": -77.00581316666667, "rental_uris": {"android": "https://dc.lft.to/lastmile_qr_scan", "ios": "https://dc.lft.to/lastmile_qr_scan"}, "fusion_lon": 0.0, "is_reserved": 0}, {"lat": 38.91466333333334, "fusion_lat": 0.0, "type": "electric_scooter", "name": "05ed449456e3cdc04effea8ea2dffd4c", "is_disabled": 0, "bike_id": "05ed449456e3cdc04effea8ea2dffd4c", "lon": -76.98453416666666, "rental_uris": {"android": "https://dc.lft.to/lastmile_qr_scan", "ios": "https://dc.lft.to/lastmile_qr_scan"}, "fusion_lon": 0.0, "is_reserved": 0}, {"lat": 38.8973505, "fusion_lat": 0.0, "type": "electric_bike", "name": "e98f27fc9003bda1d3bbc5ee78a8131c", "is_disabled": 0, "bike_id": "e98f27fc9003bda1d3bbc5ee78a8131c", "lon": -76.9204435, "rental_uris": {"android": "https://dc.lft.to/lastmile_qr_scan", "ios": "https://dc.lft.to/lastmile_qr_scan"}, "fusion_lon": 0.0, "is_reserved": 0}, {"lat": 38.9025935, "fusion_lat": 0.0, "type": "electric_scooter", "name": "e0d19002fbc952649f24f7d95deb4932", "is_disabled": 0, "bike_id": "e0d19002fbc952649f24f7d95deb4932", "lon": -77.03432666666667, "rental_uris": {"android": "https://dc.lft.to/lastmile_qr_scan", "ios": "https://dc.lft.to/lastmile_qr_scan"}, "fusion_lon": 0.0, "is_reserved": 0}, {"lat": 38.924179333333335, "fusion_lat": 0.0, "type": "electric_scooter", "name": "0961f115642fff57bdfff8010cf1d200", "is_disabled": 0, "bike_id": "0961f115642fff57bdfff8010cf1d200", "lon": -77.01939533333334, "rental_uris": {"android": "https://dc.lft.to/lastmile_qr_scan", "ios": "https://dc.lft.to/lastmile_qr_scan"}, "fusion_lon": 0.0, "is_reserved": 0}, {"lat": 38.903589333333336, "fusion_lat": 0.0, "type": "electric_scooter", "name": "3d1fbff2aa6c227075c3c9503a27ed6e", "is_disabled": 0, "bike_id": "3d1fbff2aa6c227075c3c9503a27ed6e", "lon": -77.02696716666667, "rental_uris": {"android": "https://dc.lft.to/lastmile_qr_scan", "ios": "https://dc.lft.to/lastmile_qr_scan"}, "fusion_lon": 0.0, "is_reserved": 0}, {"lat": 38.91685416666667, "fusion_lat": 0.0, "type": "electric_scooter", "name": "19e8b02e8224baf0beea4b1eb000c3c6", "is_disabled": 0, "bike_id": "19e8b02e8224baf0beea4b1eb000c3c6", "lon": -77.03213583333333, "rental_uris": {"android": "https://dc.lft.to/lastmile_qr_scan", "ios": "https://dc.lft.to/lastmile_qr_scan"}, "fusion_lon": 0.0, "is_reserved": 0}, {"lat": 38.9274335, "fusion_lat": 0.0, "type": "electric_scooter", "name": "78269e55f2fecc1caef3dfd2e43b1d03", "is_disabled": 0, "bike_id": "78269e55f2fecc1caef3dfd2e43b1d03", "lon": -77.03239583333334, "rental_uris": {"android": "https://dc.lft.to/lastmile_qr_scan", "ios": "https://dc.lft.to/lastmile_qr_scan"}, "fusion_lon": 0.0, "is_reserved": 0}, {"lat": 38.92097583333333, "fusion_lat": 0.0, "type": "electric_scooter", "name": "8ca096820eb5c397e524a5d4237c1751", "is_disabled": 0, "bike_id": "8ca096820eb5c397e524a5d4237c1751", "lon": -77.04193566666666, "rental_uris": {"android": "https://dc.lft.to/lastmile_qr_scan", "ios": "https://dc.lft.to/lastmile_qr_scan"}, "fusion_lon": 0.0, "is_reserved": 0}, {"lat": 38.931863666666665, "fusion_lat": 0.0, "type": "electric_scooter", "name": "4af9068d186a2f9b8fb61730c62f8126", "is_disabled": 0, "bike_id": "4af9068d186a2f9b8fb61730c62f8126", "lon": -77.02835566666667, "rental_uris": {"android": "https://dc.lft.to/lastmile_qr_scan", "ios": "https://dc.lft.to/lastmile_qr_scan"}, "fusion_lon": 0.0, "is_reserved": 0}, {"lat": 38.89520983333333, "fusion_lat": 0.0, "type": "electric_scooter", "name": "f468b7aa3fc51850f65c6d55f504ea76", "is_disabled": 0, "bike_id": "f468b7aa3fc51850f65c6d55f504ea76", "lon": -77.01987016666666, "rental_uris": {"android": "https://dc.lft.to/lastmile_qr_scan", "ios": "https://dc.lft.to/lastmile_qr_scan"}, "fusion_lon": 0.0, "is_reserved": 0}, {"lat": 38.9016665, "fusion_lat": 0.0, "type": "electric_scooter", "name": "9677edbbb4c3f78bd2790f43122c7e32", "is_disabled": 0, "bike_id": "9677edbbb4c3f78bd2790f43122c7e32", "lon": -76.93023433333333, "rental_uris": {"android": "https://dc.lft.to/lastmile_qr_scan", "ios": "https://dc.lft.to/lastmile_qr_scan"}, "fusion_lon": 0.0, "is_reserved": 0}, {"lat": 38.92848766666667, "fusion_lat": 0.0, "type": "electric_scooter", "name": "5883a9b07ada1bb8083aa6bb07284563", "is_disabled": 0, "bike_id": "5883a9b07ada1bb8083aa6bb07284563", "lon": -77.02607216666667, "rental_uris": {"android": "https://dc.lft.to/lastmile_qr_scan", "ios": "https://dc.lft.to/lastmile_qr_scan"}, "fusion_lon": 0.0, "is_reserved": 0}, {"lat": 38.898436, "fusion_lat": 0.0, "type": "electric_scooter", "name": "a04ed9f38fb17d8959e68bc15f6a9ecd", "is_disabled": 0, "bike_id": "a04ed9f38fb17d8959e68bc15f6a9ecd", "lon": -77.00744583333334, "rental_uris": {"android": "https://dc.lft.to/lastmile_qr_scan", "ios": "https://dc.lft.to/lastmile_qr_scan"}, "fusion_lon": 0.0, "is_reserved": 0}, {"lat": 38.90132333333333, "fusion_lat": 0.0, "type": "electric_scooter", "name": "89f82131ac455a0fee327c8d07bcf4ef", "is_disabled": 0, "bike_id": "89f82131ac455a0fee327c8d07bcf4ef", "lon": -77.0363235, "rental_uris": {"android": "https://dc.lft.to/lastmile_qr_scan", "ios": "https://dc.lft.to/lastmile_qr_scan"}, "fusion_lon": 0.0, "is_reserved": 0}, {"lat": 38.89485233333333, "fusion_lat": 0.0, "type": "electric_scooter", "name": "713777158e68ee4916a2afc9c50f7583", "is_disabled": 0, "bike_id": "713777158e68ee4916a2afc9c50f7583", "lon": -77.00227983333333, "rental_uris": {"android": "https://dc.lft.to/lastmile_qr_scan", "ios": "https://dc.lft.to/lastmile_qr_scan"}, "fusion_lon": 0.0, "is_reserved": 0}, {"lat": 38.882617833333335, "fusion_lat": 0.0, "type": "electric_scooter", "name": "23f1f3e3fae4535733ee257c21c06caf", "is_disabled": 0, "bike_id": "23f1f3e3fae4535733ee257c21c06caf", "lon": -76.935568, "rental_uris": {"android": "https://dc.lft.to/lastmile_qr_scan", "ios": "https://dc.lft.to/lastmile_qr_scan"}, "fusion_lon": 0.0, "is_reserved": 0}, {"lat": 38.864738333333335, "fusion_lat": 0.0, "type": "electric_scooter", "name": "28cb3a778c93de39bb23850985e668f9", "is_disabled": 0, "bike_id": "28cb3a778c93de39bb23850985e668f9", "lon": -76.9823345, "rental_uris": {"android": "https://dc.lft.to/lastmile_qr_scan", "ios": "https://dc.lft.to/lastmile_qr_scan"}, "fusion_lon": 0.0, "is_reserved": 0}, {"lat": 38.87540716666667, "fusion_lat": 0.0, "type": "electric_scooter", "name": "ae00a5924ebca9d300f1e7aa589bfb84", "is_disabled": 0, "bike_id": "ae00a5924ebca9d300f1e7aa589bfb84", "lon": -77.000661, "rental_uris": {"android": "https://dc.lft.to/lastmile_qr_scan", "ios": "https://dc.lft.to/lastmile_qr_scan"}, "fusion_lon": 0.0, "is_reserved": 0}, {"lat": 38.9086615, "fusion_lat": 0.0, "type": "electric_scooter", "name": "f768a2434e4f7c2f4fb6d11808d44fcd", "is_disabled": 0, "bike_id": "f768a2434e4f7c2f4fb6d11808d44fcd", "lon": -76.933394, "rental_uris": {"android": "https://dc.lft.to/lastmile_qr_scan", "ios": "https://dc.lft.to/lastmile_qr_scan"}, "fusion_lon": 0.0, "is_reserved": 0}, {"lat": 38.94181783333333, "fusion_lat": 0.0, "type": "electric_scooter", "name": "2a672a9fb013ef9c8f1faa35c44c1b09", "is_disabled": 0, "bike_id": "2a672a9fb013ef9c8f1faa35c44c1b09", "lon": -77.0248995, "rental_uris": {"android": "https://dc.lft.to/lastmile_qr_scan", "ios": "https://dc.lft.to/lastmile_qr_scan"}, "fusion_lon": 0.0, "is_reserved": 0}, {"lat": 38.890779333333334, "fusion_lat": 0.0, "type": "electric_scooter", "name": "4968b9ea8ef671602dda0040d4887d7a", "is_disabled": 0, "bike_id": "4968b9ea8ef671602dda0040d4887d7a", "lon": -76.98823566666667, "rental_uris": {"android": "https://dc.lft.to/lastmile_qr_scan", "ios": "https://dc.lft.to/lastmile_qr_scan"}, "fusion_lon": 0.0, "is_reserved": 0}, {"lat": 38.89520383333333, "fusion_lat": 0.0, "type": "electric_scooter", "name": "31397baa3f5dc500e356fe948ba1658f", "is_disabled": 0, "bike_id": "31397baa3f5dc500e356fe948ba1658f", "lon": -77.00213366666667, "rental_uris": {"android": "https://dc.lft.to/lastmile_qr_scan", "ios": "https://dc.lft.to/lastmile_qr_scan"}, "fusion_lon": 0.0, "is_reserved": 0}, {"lat": 38.93519933333334, "fusion_lat": 0.0, "type": "electric_scooter", "name": "84f9f81a722a9f9dc055adb97cefa1dd", "is_disabled": 0, "bike_id": "84f9f81a722a9f9dc055adb97cefa1dd", "lon": -77.08703566666667, "rental_uris": {"android": "https://dc.lft.to/lastmile_qr_scan", "ios": "https://dc.lft.to/lastmile_qr_scan"}, "fusion_lon": 0.0, "is_reserved": 0}, {"lat": 38.908273, "fusion_lat": 0.0, "type": "electric_scooter", "name": "62d2edc1f2d3f10d9159b554db81e67a", "is_disabled": 0, "bike_id": "62d2edc1f2d3f10d9159b554db81e67a", "lon": -77.036794, "rental_uris": {"android": "https://dc.lft.to/lastmile_qr_scan", "ios": "https://dc.lft.to/lastmile_qr_scan"}, "fusion_lon": 0.0, "is_reserved": 0}, {"lat": 38.8954965, "fusion_lat": 0.0, "type": "electric_scooter", "name": "588e4a4f4d8942ffc62479d6be3d79f7", "is_disabled": 0, "bike_id": "588e4a4f4d8942ffc62479d6be3d79f7", "lon": -76.9834045, "rental_uris": {"android": "https://dc.lft.to/lastmile_qr_scan", "ios": "https://dc.lft.to/lastmile_qr_scan"}, "fusion_lon": 0.0, "is_reserved": 0}, {"lat": 38.92363816666666, "fusion_lat": 0.0, "type": "electric_scooter", "name": "b2ee177a0e8f1fc4c2de8ee22309dd02", "is_disabled": 0, "bike_id": "b2ee177a0e8f1fc4c2de8ee22309dd02", "lon": -77.05102916666667, "rental_uris": {"android": "https://dc.lft.to/lastmile_qr_scan", "ios": "https://dc.lft.to/lastmile_qr_scan"}, "fusion_lon": 0.0, "is_reserved": 0}, {"lat": 38.9002455, "fusion_lat": 0.0, "type": "electric_scooter", "name": "f8bd60182198abc8a0464c24d3261ecb", "is_disabled": 0, "bike_id": "f8bd60182198abc8a0464c24d3261ecb", "lon": -77.002103, "rental_uris": {"android": "https://dc.lft.to/lastmile_qr_scan", "ios": "https://dc.lft.to/lastmile_qr_scan"}, "fusion_lon": 0.0, "is_reserved": 0}, {"lat": 38.883906, "fusion_lat": 0.0, "type": "electric_scooter", "name": "1fa7fba21493dbad47ca45975d7e85fa", "is_disabled": 0, "bike_id": "1fa7fba21493dbad47ca45975d7e85fa", "lon": -76.9858705, "rental_uris": {"android": "https://dc.lft.to/lastmile_qr_scan", "ios": "https://dc.lft.to/lastmile_qr_scan"}, "fusion_lon": 0.0, "is_reserved": 0}, {"lat": 38.92122416666667, "fusion_lat": 0.0, "type": "electric_bike", "name": "8e653445da75923e190be81f9d822a44", "is_disabled": 0, "bike_id": "8e653445da75923e190be81f9d822a44", "lon": -77.00942733333333, "rental_uris": {"android": "https://dc.lft.to/lastmile_qr_scan", "ios": "https://dc.lft.to/lastmile_qr_scan"}, "fusion_lon": 0.0, "is_reserved": 0}, {"lat": 38.9269975, "fusion_lat": 0.0, "type": "electric_scooter", "name": "0dfb3008df8c9761da66e002f2bb7718", "is_disabled": 0, "bike_id": "0dfb3008df8c9761da66e002f2bb7718", "lon": -77.03786583333333, "rental_uris": {"android": "https://dc.lft.to/lastmile_qr_scan", "ios": "https://dc.lft.to/lastmile_qr_scan"}, "fusion_lon": 0.0, "is_reserved": 0}, {"lat": 38.860081, "fusion_lat": 0.0, "type": "electric_scooter", "name": "f9fb7802d6380977b78f56ddfb033077", "is_disabled": 0, "bike_id": "f9fb7802d6380977b78f56ddfb033077", "lon": -76.99656783333333, "rental_uris": {"android": "https://dc.lft.to/lastmile_qr_scan", "ios": "https://dc.lft.to/lastmile_qr_scan"}, "fusion_lon": 0.0, "is_reserved": 0}, {"lat": 38.914236833333334, "fusion_lat": 0.0, "type": "electric_scooter", "name": "85d708a6a732b56cc2a01b9040273c0a", "is_disabled": 0, "bike_id": "85d708a6a732b56cc2a01b9040273c0a", "lon": -77.01997466666667, "rental_uris": {"android": "https://dc.lft.to/lastmile_qr_scan", "ios": "https://dc.lft.to/lastmile_qr_scan"}, "fusion_lon": 0.0, "is_reserved": 0}, {"lat": 38.876564333333334, "fusion_lat": 0.0, "type": "electric_scooter", "name": "241ff3bd37a088e12389f2d555276bae", "is_disabled": 0, "bike_id": "241ff3bd37a088e12389f2d555276bae", "lon": -77.00461633333333, "rental_uris": {"android": "https://dc.lft.to/lastmile_qr_scan", "ios": "https://dc.lft.to/lastmile_qr_scan"}, "fusion_lon": 0.0, "is_reserved": 0}, {"lat": 38.8668755, "fusion_lat": 0.0, "type": "electric_scooter", "name": "14402b6edaa05b6993142f6f013601b8", "is_disabled": 0, "bike_id": "14402b6edaa05b6993142f6f013601b8", "lon": -76.98543766666667, "rental_uris": {"android": "https://dc.lft.to/lastmile_qr_scan", "ios": "https://dc.lft.to/lastmile_qr_scan"}, "fusion_lon": 0.0, "is_reserved": 0}, {"lat": 38.8994095, "fusion_lat": 0.0, "type": "electric_scooter", "name": "c70caa3c00932b8618ae779c9c469aab", "is_disabled": 0, "bike_id": "c70caa3c00932b8618ae779c9c469aab", "lon": -76.99731033333333, "rental_uris": {"android": "https://dc.lft.to/lastmile_qr_scan", "ios": "https://dc.lft.to/lastmile_qr_scan"}, "fusion_lon": 0.0, "is_reserved": 0}, {"lat": 38.909677333333335, "fusion_lat": 0.0, "type": "electric_scooter", "name": "f19bcda637a2e4cd427a925f67da5431", "is_disabled": 0, "bike_id": "f19bcda637a2e4cd427a925f67da5431", "lon": -77.04777866666667, "rental_uris": {"android": "https://dc.lft.to/lastmile_qr_scan", "ios": "https://dc.lft.to/lastmile_qr_scan"}, "fusion_lon": 0.0, "is_reserved": 0}, {"lat": 38.8982285, "fusion_lat": 0.0, "type": "electric_scooter", "name": "511254837ff005f302aa502952360afb", "is_disabled": 0, "bike_id": "511254837ff005f302aa502952360afb", "lon": -76.94632633333333, "rental_uris": {"android": "https://dc.lft.to/lastmile_qr_scan", "ios": "https://dc.lft.to/lastmile_qr_scan"}, "fusion_lon": 0.0, "is_reserved": 0}, {"lat": 38.877196, "fusion_lat": 0.0, "type": "electric_scooter", "name": "fc4ab2cb543db2ffc606fb6d5f0f4625", "is_disabled": 0, "bike_id": "fc4ab2cb543db2ffc606fb6d5f0f4625", "lon": -77.0177095, "rental_uris": {"android": "https://dc.lft.to/lastmile_qr_scan", "ios": "https://dc.lft.to/lastmile_qr_scan"}, "fusion_lon": 0.0, "is_reserved": 0}, {"lat": 38.88117666666667, "fusion_lat": 0.0, "type": "electric_scooter", "name": "0b999aa3516841264e73b7b42b12f93e", "is_disabled": 0, "bike_id": "0b999aa3516841264e73b7b42b12f93e", "lon": -77.016597, "rental_uris": {"android": "https://dc.lft.to/lastmile_qr_scan", "ios": "https://dc.lft.to/lastmile_qr_scan"}, "fusion_lon": 0.0, "is_reserved": 0}, {"lat": 38.904090833333335, "fusion_lat": 0.0, "type": "electric_scooter", "name": "438add1b63a9aeef1bf95613b6f2d827", "is_disabled": 0, "bike_id": "438add1b63a9aeef1bf95613b6f2d827", "lon": -77.02653416666666, "rental_uris": {"android": "https://dc.lft.to/lastmile_qr_scan", "ios": "https://dc.lft.to/lastmile_qr_scan"}, "fusion_lon": 0.0, "is_reserved": 0}, {"lat": 38.85248883333333, "fusion_lat": 0.0, "type": "electric_bike", "name": "e36d9b8da4c55f34aca94b5c8b6efcd1", "is_disabled": 0, "bike_id": "e36d9b8da4c55f34aca94b5c8b6efcd1", "lon": -77.1078435, "rental_uris": {"android": "https://dc.lft.to/lastmile_qr_scan", "ios": "https://dc.lft.to/lastmile_qr_scan"}, "fusion_lon": 0.0, "is_reserved": 0}, {"lat": 38.941626166666666, "fusion_lat": 0.0, "type": "electric_scooter", "name": "15487e51809c0be71cfbc218802fe5bc", "is_disabled": 0, "bike_id": "15487e51809c0be71cfbc218802fe5bc", "lon": -77.02558, "rental_uris": {"android": "https://dc.lft.to/lastmile_qr_scan", "ios": "https://dc.lft.to/lastmile_qr_scan"}, "fusion_lon": 0.0, "is_reserved": 0}, {"lat": 38.9089055, "fusion_lat": 0.0, "type": "electric_scooter", "name": "91077f95575a1fcdc2dae668dcfa3669", "is_disabled": 0, "bike_id": "91077f95575a1fcdc2dae668dcfa3669", "lon": -76.99776133333333, "rental_uris": {"android": "https://dc.lft.to/lastmile_qr_scan", "ios": "https://dc.lft.to/lastmile_qr_scan"}, "fusion_lon": 0.0, "is_reserved": 0}, {"lat": 38.915751, "fusion_lat": 0.0, "type": "electric_scooter", "name": "b1fbdeabdcb96c5e5ee3ce5782bbfebe", "is_disabled": 0, "bike_id": "b1fbdeabdcb96c5e5ee3ce5782bbfebe", "lon": -77.01999433333333, "rental_uris": {"android": "https://dc.lft.to/lastmile_qr_scan", "ios": "https://dc.lft.to/lastmile_qr_scan"}, "fusion_lon": 0.0, "is_reserved": 0}, {"lat": 38.82174583333333, "fusion_lat": 0.0, "type": "electric_bike", "name": "8c1ae05e5784df28c525eef6a007a125", "is_disabled": 0, "bike_id": "8c1ae05e5784df28c525eef6a007a125", "lon": -76.99513033333334, "rental_uris": {"android": "https://dc.lft.to/lastmile_qr_scan", "ios": "https://dc.lft.to/lastmile_qr_scan"}, "fusion_lon": 0.0, "is_reserved": 0}, {"lat": 38.942924, "fusion_lat": 0.0, "type": "electric_scooter", "name": "a643fb9dd67929e6c0440c0f71b2f211", "is_disabled": 0, "bike_id": "a643fb9dd67929e6c0440c0f71b2f211", "lon": -77.02171116666666, "rental_uris": {"android": "https://dc.lft.to/lastmile_qr_scan", "ios": "https://dc.lft.to/lastmile_qr_scan"}, "fusion_lon": 0.0, "is_reserved": 0}, {"lat": 38.89952983333333, "fusion_lat": 0.0, "type": "electric_scooter", "name": "554e71e5d82ebcac1db8eb68243f4428", "is_disabled": 0, "bike_id": "554e71e5d82ebcac1db8eb68243f4428", "lon": -77.0447905, "rental_uris": {"android": "https://dc.lft.to/lastmile_qr_scan", "ios": "https://dc.lft.to/lastmile_qr_scan"}, "fusion_lon": 0.0, "is_reserved": 0}, {"lat": 38.91950383333333, "fusion_lat": 0.0, "type": "electric_scooter", "name": "036a38bed93c2997cebf3454b2eb6f52", "is_disabled": 0, "bike_id": "036a38bed93c2997cebf3454b2eb6f52", "lon": -77.02378016666667, "rental_uris": {"android": "https://dc.lft.to/lastmile_qr_scan", "ios": "https://dc.lft.to/lastmile_qr_scan"}, "fusion_lon": 0.0, "is_reserved": 0}, {"lat": 38.9002005, "fusion_lat": 0.0, "type": "electric_scooter", "name": "0f1e18ed6e49b3b274c846374ab07d46", "is_disabled": 0, "bike_id": "0f1e18ed6e49b3b274c846374ab07d46", "lon": -77.03303366666667, "rental_uris": {"android": "https://dc.lft.to/lastmile_qr_scan", "ios": "https://dc.lft.to/lastmile_qr_scan"}, "fusion_lon": 0.0, "is_reserved": 0}, {"lat": 38.91775833333333, "fusion_lat": 0.0, "type": "electric_scooter", "name": "679f9e60dfc541d6ad268727b0153395", "is_disabled": 0, "bike_id": "679f9e60dfc541d6ad268727b0153395", "lon": -77.03201433333334, "rental_uris": {"android": "https://dc.lft.to/lastmile_qr_scan", "ios": "https://dc.lft.to/lastmile_qr_scan"}, "fusion_lon": 0.0, "is_reserved": 0}, {"lat": 38.94894216666667, "fusion_lat": 0.0, "type": "electric_bike", "name": "e33775ffeef6faac3920495eb8ead2a0", "is_disabled": 0, "bike_id": "e33775ffeef6faac3920495eb8ead2a0", "lon": -76.96375866666666, "rental_uris": {"android": "https://dc.lft.to/lastmile_qr_scan", "ios": "https://dc.lft.to/lastmile_qr_scan"}, "fusion_lon": 0.0, "is_reserved": 0}, {"lat": 38.884190333333336, "fusion_lat": 0.0, "type": "electric_scooter", "name": "faacfc1e77e4847f997fa9e243c7a7d4", "is_disabled": 0, "bike_id": "faacfc1e77e4847f997fa9e243c7a7d4", "lon": -76.9969265, "rental_uris": {"android": "https://dc.lft.to/lastmile_qr_scan", "ios": "https://dc.lft.to/lastmile_qr_scan"}, "fusion_lon": 0.0, "is_reserved": 0}, {"lat": 38.921184833333335, "fusion_lat": 0.0, "type": "electric_scooter", "name": "e5360a4f58b035ada175b1acf431e023", "is_disabled": 0, "bike_id": "e5360a4f58b035ada175b1acf431e023", "lon": -77.04344183333333, "rental_uris": {"android": "https://dc.lft.to/lastmile_qr_scan", "ios": "https://dc.lft.to/lastmile_qr_scan"}, "fusion_lon": 0.0, "is_reserved": 0}, {"lat": 38.92139016666667, "fusion_lat": 0.0, "type": "electric_scooter", "name": "4213604f9859df3bb9fbb2336a39b901", "is_disabled": 0, "bike_id": "4213604f9859df3bb9fbb2336a39b901", "lon": -77.02074866666666, "rental_uris": {"android": "https://dc.lft.to/lastmile_qr_scan", "ios": "https://dc.lft.to/lastmile_qr_scan"}, "fusion_lon": 0.0, "is_reserved": 0}, {"lat": 38.918100333333335, "fusion_lat": 0.0, "type": "electric_scooter", "name": "2c4650766d031487c4e06decebcca262", "is_disabled": 0, "bike_id": "2c4650766d031487c4e06decebcca262", "lon": -77.036914, "rental_uris": {"android": "https://dc.lft.to/lastmile_qr_scan", "ios": "https://dc.lft.to/lastmile_qr_scan"}, "fusion_lon": 0.0, "is_reserved": 0}, {"lat": 38.84635183333333, "fusion_lat": 0.0, "type": "electric_scooter", "name": "0c18ef5b2f50b9d041313e4049d8a98a", "is_disabled": 0, "bike_id": "0c18ef5b2f50b9d041313e4049d8a98a", "lon": -76.991325, "rental_uris": {"android": "https://dc.lft.to/lastmile_qr_scan", "ios": "https://dc.lft.to/lastmile_qr_scan"}, "fusion_lon": 0.0, "is_reserved": 0}, {"lat": 38.90255283333333, "fusion_lat": 0.0, "type": "electric_scooter", "name": "035f91fb38b361fd685223040a34236e", "is_disabled": 0, "bike_id": "035f91fb38b361fd685223040a34236e", "lon": -77.0384075, "rental_uris": {"android": "https://dc.lft.to/lastmile_qr_scan", "ios": "https://dc.lft.to/lastmile_qr_scan"}, "fusion_lon": 0.0, "is_reserved": 0}, {"lat": 38.88742083333333, "fusion_lat": 0.0, "type": "electric_scooter", "name": "6e6431b99f4f41c5d9b5375b1baa7042", "is_disabled": 0, "bike_id": "6e6431b99f4f41c5d9b5375b1baa7042", "lon": -77.02573366666667, "rental_uris": {"android": "https://dc.lft.to/lastmile_qr_scan", "ios": "https://dc.lft.to/lastmile_qr_scan"}, "fusion_lon": 0.0, "is_reserved": 0}, {"lat": 38.92070116666667, "fusion_lat": 0.0, "type": "electric_scooter", "name": "22fb30afeec2f43a8e74fa21cbb4464b", "is_disabled": 0, "bike_id": "22fb30afeec2f43a8e74fa21cbb4464b", "lon": -77.03806483333334, "rental_uris": {"android": "https://dc.lft.to/lastmile_qr_scan", "ios": "https://dc.lft.to/lastmile_qr_scan"}, "fusion_lon": 0.0, "is_reserved": 0}, {"lat": 38.9303265, "fusion_lat": 0.0, "type": "electric_bike", "name": "760b8d5fcb1151ab12197df238bc394e", "is_disabled": 0, "bike_id": "760b8d5fcb1151ab12197df238bc394e", "lon": -77.0836735, "rental_uris": {"android": "https://dc.lft.to/lastmile_qr_scan", "ios": "https://dc.lft.to/lastmile_qr_scan"}, "fusion_lon": 0.0, "is_reserved": 0}, {"lat": 38.93613366666666, "fusion_lat": 0.0, "type": "electric_scooter", "name": "0fb9a343e53fecd36b96a9027449a6a3", "is_disabled": 0, "bike_id": "0fb9a343e53fecd36b96a9027449a6a3", "lon": -77.0586115, "rental_uris": {"android": "https://dc.lft.to/lastmile_qr_scan", "ios": "https://dc.lft.to/lastmile_qr_scan"}, "fusion_lon": 0.0, "is_reserved": 0}, {"lat": 38.91631183333333, "fusion_lat": 0.0, "type": "electric_scooter", "name": "18f0421723c5c4810664ad68648a72ff", "is_disabled": 0, "bike_id": "18f0421723c5c4810664ad68648a72ff", "lon": -77.02550366666667, "rental_uris": {"android": "https://dc.lft.to/lastmile_qr_scan", "ios": "https://dc.lft.to/lastmile_qr_scan"}, "fusion_lon": 0.0, "is_reserved": 0}, {"lat": 38.9312045, "fusion_lat": 0.0, "type": "electric_scooter", "name": "d8b63fea589edba443f94d718130bc5b", "is_disabled": 0, "bike_id": "d8b63fea589edba443f94d718130bc5b", "lon": -77.030127, "rental_uris": {"android": "https://dc.lft.to/lastmile_qr_scan", "ios": "https://dc.lft.to/lastmile_qr_scan"}, "fusion_lon": 0.0, "is_reserved": 0}, {"lat": 38.90260166666667, "fusion_lat": 0.0, "type": "electric_scooter", "name": "112d66ec8a7d0b34ae213807e4d3c1b2", "is_disabled": 0, "bike_id": "112d66ec8a7d0b34ae213807e4d3c1b2", "lon": -77.0407375, "rental_uris": {"android": "https://dc.lft.to/lastmile_qr_scan", "ios": "https://dc.lft.to/lastmile_qr_scan"}, "fusion_lon": 0.0, "is_reserved": 0}, {"lat": 38.906749, "fusion_lat": 0.0, "type": "electric_scooter", "name": "577d8ba645025df94f9d281f89fee8eb", "is_disabled": 0, "bike_id": "577d8ba645025df94f9d281f89fee8eb", "lon": -77.038153, "rental_uris": {"android": "https://dc.lft.to/lastmile_qr_scan", "ios": "https://dc.lft.to/lastmile_qr_scan"}, "fusion_lon": 0.0, "is_reserved": 0}, {"lat": 38.898604, "fusion_lat": 0.0, "type": "electric_scooter", "name": "2c28213e77692c64e7772acc97c26f30", "is_disabled": 0, "bike_id": "2c28213e77692c64e7772acc97c26f30", "lon": -76.94638516666667, "rental_uris": {"android": "https://dc.lft.to/lastmile_qr_scan", "ios": "https://dc.lft.to/lastmile_qr_scan"}, "fusion_lon": 0.0, "is_reserved": 0}, {"lat": 38.90629966666667, "fusion_lat": 0.0, "type": "electric_scooter", "name": "022587463a22707a1d4bcf4701311f63", "is_disabled": 0, "bike_id": "022587463a22707a1d4bcf4701311f63", "lon": -77.0387065, "rental_uris": {"android": "https://dc.lft.to/lastmile_qr_scan", "ios": "https://dc.lft.to/lastmile_qr_scan"}, "fusion_lon": 0.0, "is_reserved": 0}, {"lat": 38.89503166666667, "fusion_lat": 0.0, "type": "electric_scooter", "name": "7e6b1d9204ad3de245f9a9d32285fd00", "is_disabled": 0, "bike_id": "7e6b1d9204ad3de245f9a9d32285fd00", "lon": -76.93476433333333, "rental_uris": {"android": "https://dc.lft.to/lastmile_qr_scan", "ios": "https://dc.lft.to/lastmile_qr_scan"}, "fusion_lon": 0.0, "is_reserved": 0}, {"lat": 38.9023875, "fusion_lat": 0.0, "type": "electric_scooter", "name": "b294a656f6a2aab0667e294d025cf31d", "is_disabled": 0, "bike_id": "b294a656f6a2aab0667e294d025cf31d", "lon": -77.0294465, "rental_uris": {"android": "https://dc.lft.to/lastmile_qr_scan", "ios": "https://dc.lft.to/lastmile_qr_scan"}, "fusion_lon": 0.0, "is_reserved": 0}, {"lat": 38.872422, "fusion_lat": 0.0, "type": "electric_scooter", "name": "18f409a60732b8eb8bdc3674ebbcee3c", "is_disabled": 0, "bike_id": "18f409a60732b8eb8bdc3674ebbcee3c", "lon": -76.9773155, "rental_uris": {"android": "https://dc.lft.to/lastmile_qr_scan", "ios": "https://dc.lft.to/lastmile_qr_scan"}, "fusion_lon": 0.0, "is_reserved": 0}, {"lat": 38.857702833333335, "fusion_lat": 0.0, "type": "electric_bike", "name": "b5698237987e5668b94f49f258897920", "is_disabled": 0, "bike_id": "b5698237987e5668b94f49f258897920", "lon": -76.98750533333333, "rental_uris": {"android": "https://dc.lft.to/lastmile_qr_scan", "ios": "https://dc.lft.to/lastmile_qr_scan"}, "fusion_lon": 0.0, "is_reserved": 0}, {"lat": 38.84437583333333, "fusion_lat": 0.0, "type": "electric_scooter", "name": "3b89b4884715ec20fd2ca2a0ab3d50d6", "is_disabled": 0, "bike_id": "3b89b4884715ec20fd2ca2a0ab3d50d6", "lon": -76.99778033333334, "rental_uris": {"android": "https://dc.lft.to/lastmile_qr_scan", "ios": "https://dc.lft.to/lastmile_qr_scan"}, "fusion_lon": 0.0, "is_reserved": 0}, {"lat": 38.93315033333333, "fusion_lat": 0.0, "type": "electric_scooter", "name": "b31daf3723824b9c6a8af46882e17de4", "is_disabled": 0, "bike_id": "b31daf3723824b9c6a8af46882e17de4", "lon": -77.03275133333334, "rental_uris": {"android": "https://dc.lft.to/lastmile_qr_scan", "ios": "https://dc.lft.to/lastmile_qr_scan"}, "fusion_lon": 0.0, "is_reserved": 0}, {"lat": 38.90539283333333, "fusion_lat": 0.0, "type": "electric_scooter", "name": "10ee08780731b7ed06af1edf104290b4", "is_disabled": 0, "bike_id": "10ee08780731b7ed06af1edf104290b4", "lon": -77.04996183333333, "rental_uris": {"android": "https://dc.lft.to/lastmile_qr_scan", "ios": "https://dc.lft.to/lastmile_qr_scan"}, "fusion_lon": 0.0, "is_reserved": 0}, {"lat": 38.874764666666664, "fusion_lat": 0.0, "type": "electric_bike", "name": "a355596f8b42d1cacb8cd92878baffa3", "is_disabled": 0, "bike_id": "a355596f8b42d1cacb8cd92878baffa3", "lon": -76.96530816666667, "rental_uris": {"android": "https://dc.lft.to/lastmile_qr_scan", "ios": "https://dc.lft.to/lastmile_qr_scan"}, "fusion_lon": 0.0, "is_reserved": 0}, {"lat": 38.866617166666664, "fusion_lat": 0.0, "type": "electric_scooter", "name": "0abf7f94ba5e0c67952f62c5c549497d", "is_disabled": 0, "bike_id": "0abf7f94ba5e0c67952f62c5c549497d", "lon": -76.98891883333333, "rental_uris": {"android": "https://dc.lft.to/lastmile_qr_scan", "ios": "https://dc.lft.to/lastmile_qr_scan"}, "fusion_lon": 0.0, "is_reserved": 0}, {"lat": 38.798544666666665, "fusion_lat": 0.0, "type": "electric_bike", "name": "5681907dbdb3364e6ce814ad95377c37", "is_disabled": 0, "bike_id": "5681907dbdb3364e6ce814ad95377c37", "lon": -77.06304, "rental_uris": {"android": "https://dc.lft.to/lastmile_qr_scan", "ios": "https://dc.lft.to/lastmile_qr_scan"}, "fusion_lon": 0.0, "is_reserved": 0}, {"lat": 38.894876333333336, "fusion_lat": 0.0, "type": "electric_scooter", "name": "11fe56a692472f95988b010a3f3c8fb3", "is_disabled": 0, "bike_id": "11fe56a692472f95988b010a3f3c8fb3", "lon": -77.022886, "rental_uris": {"android": "https://dc.lft.to/lastmile_qr_scan", "ios": "https://dc.lft.to/lastmile_qr_scan"}, "fusion_lon": 0.0, "is_reserved": 0}, {"lat": 38.887321666666665, "fusion_lat": 0.0, "type": "electric_scooter", "name": "ca1bed54e63c8d0eac1de9c1e44c799e", "is_disabled": 0, "bike_id": "ca1bed54e63c8d0eac1de9c1e44c799e", "lon": -77.028291, "rental_uris": {"android": "https://dc.lft.to/lastmile_qr_scan", "ios": "https://dc.lft.to/lastmile_qr_scan"}, "fusion_lon": 0.0, "is_reserved": 0}, {"lat": 38.944030166666664, "fusion_lat": 0.0, "type": "electric_scooter", "name": "046557ec823556abf2b08e713b8b414d", "is_disabled": 0, "bike_id": "046557ec823556abf2b08e713b8b414d", "lon": -77.02604183333334, "rental_uris": {"android": "https://dc.lft.to/lastmile_qr_scan", "ios": "https://dc.lft.to/lastmile_qr_scan"}, "fusion_lon": 0.0, "is_reserved": 0}, {"lat": 38.91312966666667, "fusion_lat": 0.0, "type": "electric_scooter", "name": "d64aa8faa922ae98b0c2bda7fbcef57e", "is_disabled": 0, "bike_id": "d64aa8faa922ae98b0c2bda7fbcef57e", "lon": -77.01436316666667, "rental_uris": {"android": "https://dc.lft.to/lastmile_qr_scan", "ios": "https://dc.lft.to/lastmile_qr_scan"}, "fusion_lon": 0.0, "is_reserved": 0}, {"lat": 38.907127833333334, "fusion_lat": 0.0, "type": "electric_scooter", "name": "93324af885257965bfeed57c1c8b8d23", "is_disabled": 0, "bike_id": "93324af885257965bfeed57c1c8b8d23", "lon": -77.04215583333334, "rental_uris": {"android": "https://dc.lft.to/lastmile_qr_scan", "ios": "https://dc.lft.to/lastmile_qr_scan"}, "fusion_lon": 0.0, "is_reserved": 0}, {"lat": 38.899907, "fusion_lat": 0.0, "type": "electric_scooter", "name": "4ba8c6a9de79ef488fca23e0be3a5033", "is_disabled": 0, "bike_id": "4ba8c6a9de79ef488fca23e0be3a5033", "lon": -76.999463, "rental_uris": {"android": "https://dc.lft.to/lastmile_qr_scan", "ios": "https://dc.lft.to/lastmile_qr_scan"}, "fusion_lon": 0.0, "is_reserved": 0}, {"lat": 38.915347833333335, "fusion_lat": 0.0, "type": "electric_scooter", "name": "495e1b85cae2f333ecda84b38ff42dd3", "is_disabled": 0, "bike_id": "495e1b85cae2f333ecda84b38ff42dd3", "lon": -77.03849716666667, "rental_uris": {"android": "https://dc.lft.to/lastmile_qr_scan", "ios": "https://dc.lft.to/lastmile_qr_scan"}, "fusion_lon": 0.0, "is_reserved": 0}, {"lat": 38.931439166666664, "fusion_lat": 0.0, "type": "electric_scooter", "name": "dccc840ed302d02b1edfd5aad96e3042", "is_disabled": 0, "bike_id": "dccc840ed302d02b1edfd5aad96e3042", "lon": -77.0781755, "rental_uris": {"android": "https://dc.lft.to/lastmile_qr_scan", "ios": "https://dc.lft.to/lastmile_qr_scan"}, "fusion_lon": 0.0, "is_reserved": 0}, {"lat": 38.952489166666666, "fusion_lat": 0.0, "type": "electric_scooter", "name": "1583f80ce98bef29f97681573475efc3", "is_disabled": 0, "bike_id": "1583f80ce98bef29f97681573475efc3", "lon": -77.00695716666667, "rental_uris": {"android": "https://dc.lft.to/lastmile_qr_scan", "ios": "https://dc.lft.to/lastmile_qr_scan"}, "fusion_lon": 0.0, "is_reserved": 0}, {"lat": 38.903107, "fusion_lat": 0.0, "type": "electric_scooter", "name": "d7ff47ddf803d9f5a0bafa4f8302784c", "is_disabled": 0, "bike_id": "d7ff47ddf803d9f5a0bafa4f8302784c", "lon": -77.02121366666667, "rental_uris": {"android": "https://dc.lft.to/lastmile_qr_scan", "ios": "https://dc.lft.to/lastmile_qr_scan"}, "fusion_lon": 0.0, "is_reserved": 0}, {"lat": 38.912675666666665, "fusion_lat": 0.0, "type": "electric_scooter", "name": "81c3e7e3dfe2a42feb1272ff5c50d38f", "is_disabled": 0, "bike_id": "81c3e7e3dfe2a42feb1272ff5c50d38f", "lon": -77.01295866666666, "rental_uris": {"android": "https://dc.lft.to/lastmile_qr_scan", "ios": "https://dc.lft.to/lastmile_qr_scan"}, "fusion_lon": 0.0, "is_reserved": 0}, {"lat": 38.9057245, "fusion_lat": 0.0, "type": "electric_scooter", "name": "f50b892b237c0b475966a3f4010e4bb0", "is_disabled": 0, "bike_id": "f50b892b237c0b475966a3f4010e4bb0", "lon": -77.04361133333333, "rental_uris": {"android": "https://dc.lft.to/lastmile_qr_scan", "ios": "https://dc.lft.to/lastmile_qr_scan"}, "fusion_lon": 0.0, "is_reserved": 0}, {"lat": 38.9006385, "fusion_lat": 0.0, "type": "electric_scooter", "name": "2fcb69b5c9aa64495f222cfd72cbf65f", "is_disabled": 0, "bike_id": "2fcb69b5c9aa64495f222cfd72cbf65f", "lon": -77.044992, "rental_uris": {"android": "https://dc.lft.to/lastmile_qr_scan", "ios": "https://dc.lft.to/lastmile_qr_scan"}, "fusion_lon": 0.0, "is_reserved": 0}, {"lat": 38.87781483333333, "fusion_lat": 0.0, "type": "electric_scooter", "name": "75f58800265d54b759c738c7adfafd39", "is_disabled": 0, "bike_id": "75f58800265d54b759c738c7adfafd39", "lon": -76.99411133333334, "rental_uris": {"android": "https://dc.lft.to/lastmile_qr_scan", "ios": "https://dc.lft.to/lastmile_qr_scan"}, "fusion_lon": 0.0, "is_reserved": 0}, {"lat": 38.927279166666665, "fusion_lat": 0.0, "type": "electric_scooter", "name": "be98b87d4ba2f52edeb856b35ccca561", "is_disabled": 0, "bike_id": "be98b87d4ba2f52edeb856b35ccca561", "lon": -77.03244583333333, "rental_uris": {"android": "https://dc.lft.to/lastmile_qr_scan", "ios": "https://dc.lft.to/lastmile_qr_scan"}, "fusion_lon": 0.0, "is_reserved": 0}, {"lat": 38.896102166666665, "fusion_lat": 0.0, "type": "electric_scooter", "name": "27002c6d8859437e963ec46264fdc29c", "is_disabled": 0, "bike_id": "27002c6d8859437e963ec46264fdc29c", "lon": -77.04807866666667, "rental_uris": {"android": "https://dc.lft.to/lastmile_qr_scan", "ios": "https://dc.lft.to/lastmile_qr_scan"}, "fusion_lon": 0.0, "is_reserved": 0}, {"lat": 38.933890166666664, "fusion_lat": 0.0, "type": "electric_scooter", "name": "2ca069ef766cfc31239a0bf0e17932e1", "is_disabled": 0, "bike_id": "2ca069ef766cfc31239a0bf0e17932e1", "lon": -77.05743633333333, "rental_uris": {"android": "https://dc.lft.to/lastmile_qr_scan", "ios": "https://dc.lft.to/lastmile_qr_scan"}, "fusion_lon": 0.0, "is_reserved": 0}, {"lat": 38.892216833333336, "fusion_lat": 0.0, "type": "electric_scooter", "name": "3a70f3d65dda9ce43acfb29b9d45e525", "is_disabled": 0, "bike_id": "3a70f3d65dda9ce43acfb29b9d45e525", "lon": -77.0278595, "rental_uris": {"android": "https://dc.lft.to/lastmile_qr_scan", "ios": "https://dc.lft.to/lastmile_qr_scan"}, "fusion_lon": 0.0, "is_reserved": 0}, {"lat": 38.89989666666666, "fusion_lat": 0.0, "type": "electric_scooter", "name": "6d34d92c0b7bcb85e4cc9eaa405312a1", "is_disabled": 0, "bike_id": "6d34d92c0b7bcb85e4cc9eaa405312a1", "lon": -77.0212255, "rental_uris": {"android": "https://dc.lft.to/lastmile_qr_scan", "ios": "https://dc.lft.to/lastmile_qr_scan"}, "fusion_lon": 0.0, "is_reserved": 0}, {"lat": 38.92315333333333, "fusion_lat": 0.0, "type": "electric_scooter", "name": "cd5f43250a6c1d77ff7fb5896dd22ce1", "is_disabled": 0, "bike_id": "cd5f43250a6c1d77ff7fb5896dd22ce1", "lon": -77.029052, "rental_uris": {"android": "https://dc.lft.to/lastmile_qr_scan", "ios": "https://dc.lft.to/lastmile_qr_scan"}, "fusion_lon": 0.0, "is_reserved": 0}, {"lat": 38.933466833333334, "fusion_lat": 0.0, "type": "electric_scooter", "name": "6fdd645d72a3120103064a29cc4b294c", "is_disabled": 0, "bike_id": "6fdd645d72a3120103064a29cc4b294c", "lon": -77.03264916666667, "rental_uris": {"android": "https://dc.lft.to/lastmile_qr_scan", "ios": "https://dc.lft.to/lastmile_qr_scan"}, "fusion_lon": 0.0, "is_reserved": 0}, {"lat": 38.925397, "fusion_lat": 0.0, "type": "electric_scooter", "name": "4e7204dd86747c2435e9fce51cbd1bdb", "is_disabled": 0, "bike_id": "4e7204dd86747c2435e9fce51cbd1bdb", "lon": -77.033534, "rental_uris": {"android": "https://dc.lft.to/lastmile_qr_scan", "ios": "https://dc.lft.to/lastmile_qr_scan"}, "fusion_lon": 0.0, "is_reserved": 0}, {"lat": 38.89881333333334, "fusion_lat": 0.0, "type": "electric_scooter", "name": "43bdd87b836a1048fdd575627ae53154", "is_disabled": 0, "bike_id": "43bdd87b836a1048fdd575627ae53154", "lon": -77.02808833333333, "rental_uris": {"android": "https://dc.lft.to/lastmile_qr_scan", "ios": "https://dc.lft.to/lastmile_qr_scan"}, "fusion_lon": 0.0, "is_reserved": 0}, {"lat": 38.898971333333336, "fusion_lat": 0.0, "type": "electric_scooter", "name": "cd9a67f339c53ae6454682311e9d60cd", "is_disabled": 0, "bike_id": "cd9a67f339c53ae6454682311e9d60cd", "lon": -77.04672016666666, "rental_uris": {"android": "https://dc.lft.to/lastmile_qr_scan", "ios": "https://dc.lft.to/lastmile_qr_scan"}, "fusion_lon": 0.0, "is_reserved": 0}, {"lat": 38.921814499999996, "fusion_lat": 0.0, "type": "electric_scooter", "name": "4522181f001c9f1b0cdf011bbeda5d1b", "is_disabled": 0, "bike_id": "4522181f001c9f1b0cdf011bbeda5d1b", "lon": -77.0423025, "rental_uris": {"android": "https://dc.lft.to/lastmile_qr_scan", "ios": "https://dc.lft.to/lastmile_qr_scan"}, "fusion_lon": 0.0, "is_reserved": 0}, {"lat": 38.95726766666667, "fusion_lat": 0.0, "type": "electric_scooter", "name": "931de8edb81de6f2329ae06e8a014e4e", "is_disabled": 0, "bike_id": "931de8edb81de6f2329ae06e8a014e4e", "lon": -77.028758, "rental_uris": {"android": "https://dc.lft.to/lastmile_qr_scan", "ios": "https://dc.lft.to/lastmile_qr_scan"}, "fusion_lon": 0.0, "is_reserved": 0}, {"lat": 38.92133316666666, "fusion_lat": 0.0, "type": "electric_scooter", "name": "f9b390ce7422765c900fbe10cb0c01ef", "is_disabled": 0, "bike_id": "f9b390ce7422765c900fbe10cb0c01ef", "lon": -77.01876816666666, "rental_uris": {"android": "https://dc.lft.to/lastmile_qr_scan", "ios": "https://dc.lft.to/lastmile_qr_scan"}, "fusion_lon": 0.0, "is_reserved": 0}, {"lat": 38.905211, "fusion_lat": 0.0, "type": "electric_scooter", "name": "0d0980c707ba85033548e5926990170a", "is_disabled": 0, "bike_id": "0d0980c707ba85033548e5926990170a", "lon": -77.04338266666667, "rental_uris": {"android": "https://dc.lft.to/lastmile_qr_scan", "ios": "https://dc.lft.to/lastmile_qr_scan"}, "fusion_lon": 0.0, "is_reserved": 0}, {"lat": 38.89727216666667, "fusion_lat": 0.0, "type": "electric_scooter", "name": "aef029a07bd542c263052d78da7200c7", "is_disabled": 0, "bike_id": "aef029a07bd542c263052d78da7200c7", "lon": -77.04710383333334, "rental_uris": {"android": "https://dc.lft.to/lastmile_qr_scan", "ios": "https://dc.lft.to/lastmile_qr_scan"}, "fusion_lon": 0.0, "is_reserved": 0}, {"lat": 39.034168333333334, "fusion_lat": 0.0, "type": "electric_bike", "name": "467b8c2757fd9b81df7d11a77705118a", "is_disabled": 0, "bike_id": "467b8c2757fd9b81df7d11a77705118a", "lon": -77.043031, "rental_uris": {"android": "https://dc.lft.to/lastmile_qr_scan", "ios": "https://dc.lft.to/lastmile_qr_scan"}, "fusion_lon": 0.0, "is_reserved": 0}, {"lat": 38.8767215, "fusion_lat": 0.0, "type": "electric_scooter", "name": "26c179c7ddefb7ebf8bf70ca8304325a", "is_disabled": 0, "bike_id": "26c179c7ddefb7ebf8bf70ca8304325a", "lon": -77.00063466666667, "rental_uris": {"android": "https://dc.lft.to/lastmile_qr_scan", "ios": "https://dc.lft.to/lastmile_qr_scan"}, "fusion_lon": 0.0, "is_reserved": 0}, {"lat": 38.902562833333334, "fusion_lat": 0.0, "type": "electric_scooter", "name": "5a8b16c118fc192f6d381429cfcd79c7", "is_disabled": 0, "bike_id": "5a8b16c118fc192f6d381429cfcd79c7", "lon": -77.0384445, "rental_uris": {"android": "https://dc.lft.to/lastmile_qr_scan", "ios": "https://dc.lft.to/lastmile_qr_scan"}, "fusion_lon": 0.0, "is_reserved": 0}, {"lat": 38.9226475, "fusion_lat": 0.0, "type": "electric_scooter", "name": "6b6ce6f440806d2f32e99d524b4fc590", "is_disabled": 0, "bike_id": "6b6ce6f440806d2f32e99d524b4fc590", "lon": -77.02965383333333, "rental_uris": {"android": "https://dc.lft.to/lastmile_qr_scan", "ios": "https://dc.lft.to/lastmile_qr_scan"}, "fusion_lon": 0.0, "is_reserved": 0}, {"lat": 38.905671, "fusion_lat": 0.0, "type": "electric_scooter", "name": "4f71ec2c49f4386c2cdcb3d9430199ee", "is_disabled": 0, "bike_id": "4f71ec2c49f4386c2cdcb3d9430199ee", "lon": -76.97784066666667, "rental_uris": {"android": "https://dc.lft.to/lastmile_qr_scan", "ios": "https://dc.lft.to/lastmile_qr_scan"}, "fusion_lon": 0.0, "is_reserved": 0}, {"lat": 38.90549566666667, "fusion_lat": 0.0, "type": "electric_scooter", "name": "9c1fe06a7a641c8177d16f7f140252f6", "is_disabled": 0, "bike_id": "9c1fe06a7a641c8177d16f7f140252f6", "lon": -77.04280133333333, "rental_uris": {"android": "https://dc.lft.to/lastmile_qr_scan", "ios": "https://dc.lft.to/lastmile_qr_scan"}, "fusion_lon": 0.0, "is_reserved": 0}, {"lat": 38.901177833333335, "fusion_lat": 0.0, "type": "electric_scooter", "name": "1b2a48702b9daf1d07ecc24aef38a73b", "is_disabled": 0, "bike_id": "1b2a48702b9daf1d07ecc24aef38a73b", "lon": -77.04243066666666, "rental_uris": {"android": "https://dc.lft.to/lastmile_qr_scan", "ios": "https://dc.lft.to/lastmile_qr_scan"}, "fusion_lon": 0.0, "is_reserved": 0}, {"lat": 38.88467433333334, "fusion_lat": 0.0, "type": "electric_bike", "name": "89e86c1ae6563074df8348427cf024ce", "is_disabled": 0, "bike_id": "89e86c1ae6563074df8348427cf024ce", "lon": -76.95663966666666, "rental_uris": {"android": "https://dc.lft.to/lastmile_qr_scan", "ios": "https://dc.lft.to/lastmile_qr_scan"}, "fusion_lon": 0.0, "is_reserved": 0}, {"lat": 38.90019816666667, "fusion_lat": 0.0, "type": "electric_scooter", "name": "6014036bbc03a54bb0e566e636522940", "is_disabled": 0, "bike_id": "6014036bbc03a54bb0e566e636522940", "lon": -76.98697966666667, "rental_uris": {"android": "https://dc.lft.to/lastmile_qr_scan", "ios": "https://dc.lft.to/lastmile_qr_scan"}, "fusion_lon": 0.0, "is_reserved": 0}, {"lat": 38.9216635, "fusion_lat": 0.0, "type": "electric_scooter", "name": "1bbceeee5755dfadf2e90ba74aded824", "is_disabled": 0, "bike_id": "1bbceeee5755dfadf2e90ba74aded824", "lon": -77.038244, "rental_uris": {"android": "https://dc.lft.to/lastmile_qr_scan", "ios": "https://dc.lft.to/lastmile_qr_scan"}, "fusion_lon": 0.0, "is_reserved": 0}, {"lat": 38.844380666666666, "fusion_lat": 0.0, "type": "electric_scooter", "name": "a634fcd89e5aba21159a7436af6654ab", "is_disabled": 0, "bike_id": "a634fcd89e5aba21159a7436af6654ab", "lon": -76.997764, "rental_uris": {"android": "https://dc.lft.to/lastmile_qr_scan", "ios": "https://dc.lft.to/lastmile_qr_scan"}, "fusion_lon": 0.0, "is_reserved": 0}, {"lat": 38.91719666666667, "fusion_lat": 0.0, "type": "electric_scooter", "name": "79f5dc46d3a0d92ef8b0c121b9f3f174", "is_disabled": 0, "bike_id": "79f5dc46d3a0d92ef8b0c121b9f3f174", "lon": -77.027108, "rental_uris": {"android": "https://dc.lft.to/lastmile_qr_scan", "ios": "https://dc.lft.to/lastmile_qr_scan"}, "fusion_lon": 0.0, "is_reserved": 0}, {"lat": 38.92404166666667, "fusion_lat": 0.0, "type": "electric_scooter", "name": "fcb5ef2ed09f3ec9d1bef864895bc248", "is_disabled": 0, "bike_id": "fcb5ef2ed09f3ec9d1bef864895bc248", "lon": -77.05171866666667, "rental_uris": {"android": "https://dc.lft.to/lastmile_qr_scan", "ios": "https://dc.lft.to/lastmile_qr_scan"}, "fusion_lon": 0.0, "is_reserved": 0}, {"lat": 38.911593, "fusion_lat": 0.0, "type": "electric_scooter", "name": "ef129d0eb905f2c84ea0a6b87227b2b1", "is_disabled": 0, "bike_id": "ef129d0eb905f2c84ea0a6b87227b2b1", "lon": -77.03185816666667, "rental_uris": {"android": "https://dc.lft.to/lastmile_qr_scan", "ios": "https://dc.lft.to/lastmile_qr_scan"}, "fusion_lon": 0.0, "is_reserved": 0}, {"lat": 38.994137333333335, "fusion_lat": 0.0, "type": "electric_bike", "name": "9b82add59613e1628ad7a48b2b5005e3", "is_disabled": 0, "bike_id": "9b82add59613e1628ad7a48b2b5005e3", "lon": -77.07695816666667, "rental_uris": {"android": "https://dc.lft.to/lastmile_qr_scan", "ios": "https://dc.lft.to/lastmile_qr_scan"}, "fusion_lon": 0.0, "is_reserved": 0}, {"lat": 38.917195, "fusion_lat": 0.0, "type": "electric_scooter", "name": "cb9bac7a2108a56bf44e7309514b1036", "is_disabled": 0, "bike_id": "cb9bac7a2108a56bf44e7309514b1036", "lon": -77.02967833333334, "rental_uris": {"android": "https://dc.lft.to/lastmile_qr_scan", "ios": "https://dc.lft.to/lastmile_qr_scan"}, "fusion_lon": 0.0, "is_reserved": 0}, {"lat": 38.922442833333335, "fusion_lat": 0.0, "type": "electric_scooter", "name": "ae71accb73a212398597b224ce271ddb", "is_disabled": 0, "bike_id": "ae71accb73a212398597b224ce271ddb", "lon": -77.0425335, "rental_uris": {"android": "https://dc.lft.to/lastmile_qr_scan", "ios": "https://dc.lft.to/lastmile_qr_scan"}, "fusion_lon": 0.0, "is_reserved": 0}, {"lat": 38.907115, "fusion_lat": 0.0, "type": "electric_scooter", "name": "ae259d6f0aa9e73c0a96b307190157eb", "is_disabled": 0, "bike_id": "ae259d6f0aa9e73c0a96b307190157eb", "lon": -77.00330633333333, "rental_uris": {"android": "https://dc.lft.to/lastmile_qr_scan", "ios": "https://dc.lft.to/lastmile_qr_scan"}, "fusion_lon": 0.0, "is_reserved": 0}, {"lat": 38.9037135, "fusion_lat": 0.0, "type": "electric_scooter", "name": "644a667364b63f8a84e85a2a53fe7cbc", "is_disabled": 0, "bike_id": "644a667364b63f8a84e85a2a53fe7cbc", "lon": -77.0343525, "rental_uris": {"android": "https://dc.lft.to/lastmile_qr_scan", "ios": "https://dc.lft.to/lastmile_qr_scan"}, "fusion_lon": 0.0, "is_reserved": 0}, {"lat": 38.8987095, "fusion_lat": 0.0, "type": "electric_scooter", "name": "87280151b5a19ac850093631ea6fea01", "is_disabled": 0, "bike_id": "87280151b5a19ac850093631ea6fea01", "lon": -77.046607, "rental_uris": {"android": "https://dc.lft.to/lastmile_qr_scan", "ios": "https://dc.lft.to/lastmile_qr_scan"}, "fusion_lon": 0.0, "is_reserved": 0}, {"lat": 38.9364705, "fusion_lat": 0.0, "type": "electric_scooter", "name": "9ce1f0bf0023de1ec7d4c08944a1bbfe", "is_disabled": 0, "bike_id": "9ce1f0bf0023de1ec7d4c08944a1bbfe", "lon": -77.02045416666667, "rental_uris": {"android": "https://dc.lft.to/lastmile_qr_scan", "ios": "https://dc.lft.to/lastmile_qr_scan"}, "fusion_lon": 0.0, "is_reserved": 0}, {"lat": 38.899008333333335, "fusion_lat": 0.0, "type": "electric_scooter", "name": "0960ffdfa1360ddb4f2b93d9aac435b9", "is_disabled": 0, "bike_id": "0960ffdfa1360ddb4f2b93d9aac435b9", "lon": -76.933991, "rental_uris": {"android": "https://dc.lft.to/lastmile_qr_scan", "ios": "https://dc.lft.to/lastmile_qr_scan"}, "fusion_lon": 0.0, "is_reserved": 0}, {"lat": 38.931002166666666, "fusion_lat": 0.0, "type": "electric_scooter", "name": "295ff06db8d37dc1187fb84050c6b672", "is_disabled": 0, "bike_id": "295ff06db8d37dc1187fb84050c6b672", "lon": -77.0241485, "rental_uris": {"android": "https://dc.lft.to/lastmile_qr_scan", "ios": "https://dc.lft.to/lastmile_qr_scan"}, "fusion_lon": 0.0, "is_reserved": 0}, {"lat": 38.91852333333333, "fusion_lat": 0.0, "type": "electric_scooter", "name": "bddc75b09112057de4da1f49969caf34", "is_disabled": 0, "bike_id": "bddc75b09112057de4da1f49969caf34", "lon": -77.014816, "rental_uris": {"android": "https://dc.lft.to/lastmile_qr_scan", "ios": "https://dc.lft.to/lastmile_qr_scan"}, "fusion_lon": 0.0, "is_reserved": 0}, {"lat": 38.895793833333336, "fusion_lat": 0.0, "type": "electric_scooter", "name": "a1eaa96efcd04aca23eb1c774575ff2b", "is_disabled": 0, "bike_id": "a1eaa96efcd04aca23eb1c774575ff2b", "lon": -77.02203216666666, "rental_uris": {"android": "https://dc.lft.to/lastmile_qr_scan", "ios": "https://dc.lft.to/lastmile_qr_scan"}, "fusion_lon": 0.0, "is_reserved": 0}, {"lat": 38.923796833333334, "fusion_lat": 0.0, "type": "electric_scooter", "name": "de494cfd12e9b53b47797c92658a745f", "is_disabled": 0, "bike_id": "de494cfd12e9b53b47797c92658a745f", "lon": -77.040739, "rental_uris": {"android": "https://dc.lft.to/lastmile_qr_scan", "ios": "https://dc.lft.to/lastmile_qr_scan"}, "fusion_lon": 0.0, "is_reserved": 0}, {"lat": 38.91385533333333, "fusion_lat": 0.0, "type": "electric_scooter", "name": "e85ef5d22e29fe2061f1a1f0ab2243b0", "is_disabled": 0, "bike_id": "e85ef5d22e29fe2061f1a1f0ab2243b0", "lon": -77.04601433333333, "rental_uris": {"android": "https://dc.lft.to/lastmile_qr_scan", "ios": "https://dc.lft.to/lastmile_qr_scan"}, "fusion_lon": 0.0, "is_reserved": 0}, {"lat": 38.8973545, "fusion_lat": 0.0, "type": "electric_scooter", "name": "1d0403239be7ed000aa9c01fe7c25a39", "is_disabled": 0, "bike_id": "1d0403239be7ed000aa9c01fe7c25a39", "lon": -76.94722216666666, "rental_uris": {"android": "https://dc.lft.to/lastmile_qr_scan", "ios": "https://dc.lft.to/lastmile_qr_scan"}, "fusion_lon": 0.0, "is_reserved": 0}, {"lat": 38.9014355, "fusion_lat": 0.0, "type": "electric_scooter", "name": "bff068bc70f931180783ee7fe2c98b4a", "is_disabled": 0, "bike_id": "bff068bc70f931180783ee7fe2c98b4a", "lon": -77.03416566666667, "rental_uris": {"android": "https://dc.lft.to/lastmile_qr_scan", "ios": "https://dc.lft.to/lastmile_qr_scan"}, "fusion_lon": 0.0, "is_reserved": 0}, {"lat": 38.895746, "fusion_lat": 0.0, "type": "electric_scooter", "name": "8ba6ddaf801a04f4fe321dc7ba87a826", "is_disabled": 0, "bike_id": "8ba6ddaf801a04f4fe321dc7ba87a826", "lon": -77.02304233333334, "rental_uris": {"android": "https://dc.lft.to/lastmile_qr_scan", "ios": "https://dc.lft.to/lastmile_qr_scan"}, "fusion_lon": 0.0, "is_reserved": 0}, {"lat": 38.89219533333333, "fusion_lat": 0.0, "type": "electric_scooter", "name": "c3028bee37d5aea1cd2bb411beb701ec", "is_disabled": 0, "bike_id": "c3028bee37d5aea1cd2bb411beb701ec", "lon": -77.04686583333333, "rental_uris": {"android": "https://dc.lft.to/lastmile_qr_scan", "ios": "https://dc.lft.to/lastmile_qr_scan"}, "fusion_lon": 0.0, "is_reserved": 0}, {"lat": 38.9132655, "fusion_lat": 0.0, "type": "electric_scooter", "name": "db742aa613c8d060e25d27dcbe69c3b6", "is_disabled": 0, "bike_id": "db742aa613c8d060e25d27dcbe69c3b6", "lon": -77.04344016666667, "rental_uris": {"android": "https://dc.lft.to/lastmile_qr_scan", "ios": "https://dc.lft.to/lastmile_qr_scan"}, "fusion_lon": 0.0, "is_reserved": 0}, {"lat": 38.9177975, "fusion_lat": 0.0, "type": "electric_scooter", "name": "b0d43d694163403d33a6b07faa6e861f", "is_disabled": 0, "bike_id": "b0d43d694163403d33a6b07faa6e861f", "lon": -77.02316666666667, "rental_uris": {"android": "https://dc.lft.to/lastmile_qr_scan", "ios": "https://dc.lft.to/lastmile_qr_scan"}, "fusion_lon": 0.0, "is_reserved": 0}, {"lat": 38.94178466666666, "fusion_lat": 0.0, "type": "electric_scooter", "name": "419e8759b4ad4ca24e90b0e8edd34d23", "is_disabled": 0, "bike_id": "419e8759b4ad4ca24e90b0e8edd34d23", "lon": -77.031431, "rental_uris": {"android": "https://dc.lft.to/lastmile_qr_scan", "ios": "https://dc.lft.to/lastmile_qr_scan"}, "fusion_lon": 0.0, "is_reserved": 0}, {"lat": 38.902735, "fusion_lat": 0.0, "type": "electric_scooter", "name": "c185d0653e82211b61d8251fe6a811f8", "is_disabled": 0, "bike_id": "c185d0653e82211b61d8251fe6a811f8", "lon": -77.00553683333334, "rental_uris": {"android": "https://dc.lft.to/lastmile_qr_scan", "ios": "https://dc.lft.to/lastmile_qr_scan"}, "fusion_lon": 0.0, "is_reserved": 0}, {"lat": 38.92057716666667, "fusion_lat": 0.0, "type": "electric_scooter", "name": "6b73721310a0d0a30fbd1368ecad7f8c", "is_disabled": 0, "bike_id": "6b73721310a0d0a30fbd1368ecad7f8c", "lon": -77.02535733333333, "rental_uris": {"android": "https://dc.lft.to/lastmile_qr_scan", "ios": "https://dc.lft.to/lastmile_qr_scan"}, "fusion_lon": 0.0, "is_reserved": 0}, {"lat": 38.915806, "fusion_lat": 0.0, "type": "electric_scooter", "name": "62f6389d2dc03d7b79416596096df9d0", "is_disabled": 0, "bike_id": "62f6389d2dc03d7b79416596096df9d0", "lon": -77.04489166666667, "rental_uris": {"android": "https://dc.lft.to/lastmile_qr_scan", "ios": "https://dc.lft.to/lastmile_qr_scan"}, "fusion_lon": 0.0, "is_reserved": 0}, {"lat": 38.89363266666667, "fusion_lat": 0.0, "type": "electric_scooter", "name": "7b8d56efe8632859c8d9e6354a8f5572", "is_disabled": 0, "bike_id": "7b8d56efe8632859c8d9e6354a8f5572", "lon": -77.02854883333333, "rental_uris": {"android": "https://dc.lft.to/lastmile_qr_scan", "ios": "https://dc.lft.to/lastmile_qr_scan"}, "fusion_lon": 0.0, "is_reserved": 0}, {"lat": 38.89232033333333, "fusion_lat": 0.0, "type": "electric_scooter", "name": "50fd5844402c81f11783927dead46bc2", "is_disabled": 0, "bike_id": "50fd5844402c81f11783927dead46bc2", "lon": -77.04999416666666, "rental_uris": {"android": "https://dc.lft.to/lastmile_qr_scan", "ios": "https://dc.lft.to/lastmile_qr_scan"}, "fusion_lon": 0.0, "is_reserved": 0}, {"lat": 38.917833, "fusion_lat": 0.0, "type": "electric_scooter", "name": "64b95f6d1751365572241990fa0a17e0", "is_disabled": 0, "bike_id": "64b95f6d1751365572241990fa0a17e0", "lon": -77.02313016666666, "rental_uris": {"android": "https://dc.lft.to/lastmile_qr_scan", "ios": "https://dc.lft.to/lastmile_qr_scan"}, "fusion_lon": 0.0, "is_reserved": 0}, {"lat": 38.91834216666667, "fusion_lat": 0.0, "type": "electric_scooter", "name": "4d5a467989e7c8091b897470fd583e3e", "is_disabled": 0, "bike_id": "4d5a467989e7c8091b897470fd583e3e", "lon": -77.03180833333333, "rental_uris": {"android": "https://dc.lft.to/lastmile_qr_scan", "ios": "https://dc.lft.to/lastmile_qr_scan"}, "fusion_lon": 0.0, "is_reserved": 0}, {"lat": 38.88566183333333, "fusion_lat": 0.0, "type": "electric_scooter", "name": "b84cd22097adccddc5ffcc2080738f84", "is_disabled": 0, "bike_id": "b84cd22097adccddc5ffcc2080738f84", "lon": -76.998038, "rental_uris": {"android": "https://dc.lft.to/lastmile_qr_scan", "ios": "https://dc.lft.to/lastmile_qr_scan"}, "fusion_lon": 0.0, "is_reserved": 0}, {"lat": 38.941855, "fusion_lat": 0.0, "type": "electric_scooter", "name": "17c1a655450c17ee453f98994b6aebe8", "is_disabled": 0, "bike_id": "17c1a655450c17ee453f98994b6aebe8", "lon": -77.03842366666667, "rental_uris": {"android": "https://dc.lft.to/lastmile_qr_scan", "ios": "https://dc.lft.to/lastmile_qr_scan"}, "fusion_lon": 0.0, "is_reserved": 0},