{"data": {"bikes": [{"rental_uris": {"ios": "https://dc.lft.to/lastmile_qr_scan", "android": "https://dc.lft.to/lastmile_qr_scan"}, "lon": -77.0435215, "type": "electric_scooter", "fusion_lat": 0.0, "lat": 38.90721033333333, "name": "cf5da03e4f3ea8b657a9086e9fa04c44", "fusion_lon": 0.0, "bike_id": "cf5da03e4f3ea8b657a9086e9fa04c44", "is_disabled": 0, "is_reserved": 0}, {"rental_uris": {"ios": "https://dc.lft.to/lastmile_qr_scan", "android": "https://dc.lft.to/lastmile_qr_scan"}, "lon": -77.03180616666667, "type": "electric_scooter", "fusion_lat": 0.0, "lat": 38.9133755, "name": "0301f7208dd1360424fd59c3df1a1ee6", "fusion_lon": 0.0, "bike_id": "0301f7208dd1360424fd59c3df1a1ee6", "is_disabled": 0, "is_reserved": 0}, {"rental_uris": {"ios": "https://dc.lft.to/lastmile_qr_scan", "android": "https://dc.lft.to/lastmile_qr_scan"}, "lon": -77.0284455, "type": "electric_scooter", "fusion_lat": 0.0, "lat": 38.930804, "name": "2e9f04c87bb99fa0ee1a0439973a2e89", "fusion_lon": 0.0, "bike_id": "2e9f04c87bb99fa0ee1a0439973a2e89", "is_disabled": 0, "is_reserved": 0}, {"rental_uris": {"ios": "https://dc.lft.to/lastmile_qr_scan", "android": "https://dc.lft.to/lastmile_qr_scan"}, "lon": -77.03897316666666, "type": "electric_scooter", "fusion_lat": 0.0, "lat": 38.9233115, "name": "e9d4647a87909be2484475ace40f16fb", "fusion_lon": 0.0, "bike_id": "e9d4647a87909be2484475ace40f16fb", "is_disabled": 0, "is_reserved": 0}, {"rental_uris": {"ios": "https://dc.lft.to/lastmile_qr_scan", "android": "https://dc.lft.to/lastmile_qr_scan"}, "lon": -77.02339933333333, "type": "electric_scooter", "fusion_lat": 0.0, "lat": 38.96206983333333, "name": "44696001bf16d29991f9400c3409616c", "fusion_lon": 0.0, "bike_id": "44696001bf16d29991f9400c3409616c", "is_disabled": 0, "is_reserved": 0}, {"rental_uris": {"ios": "https://dc.lft.to/lastmile_qr_scan", "android": "https://dc.lft.to/lastmile_qr_scan"}, "lon": -77.12502633333334, "type": "electric_bike", "fusion_lat": 0.0, "lat": 39.024181666666664, "name": "b1c80d93baf5e0b1f6dede848aa988c4", "fusion_lon": 0.0, "bike_id": "b1c80d93baf5e0b1f6dede848aa988c4", "is_disabled": 0, "is_reserved": 0}, {"rental_uris": {"ios": "https://dc.lft.to/lastmile_qr_scan", "android": "https://dc.lft.to/lastmile_qr_scan"}, "lon": -77.00588066666667, "type": "electric_scooter", "fusion_lat": 0.0, "lat": 38.9156435, "name": "e68ed64077c0840b94a4f4b077e7d353", "fusion_lon": 0.0, "bike_id": "e68ed64077c0840b94a4f4b077e7d353", "is_disabled": 0, "is_reserved": 0}, {"rental_uris": {"ios": "https://dc.lft.to/lastmile_qr_scan", "android": "https://dc.lft.to/lastmile_qr_scan"}, "lon": -77.02610916666667, "type": "electric_scooter", "fusion_lat": 0.0, "lat": 38.9035115, "name": "2e5dad31d32023f3e8c0c1bf7804d0a8", "fusion_lon": 0.0, "bike_id": "2e5dad31d32023f3e8c0c1bf7804d0a8", "is_disabled": 0, "is_reserved": 0}, {"rental_uris": {"ios": "https://dc.lft.to/lastmile_qr_scan", "android": "https://dc.lft.to/lastmile_qr_scan"}, "lon": -77.02291583333333, "type": "electric_scooter", "fusion_lat": 0.0, "lat": 38.91571233333333, "name": "9d4eef1de29ce68baf19f59a80bcbd1f", "fusion_lon": 0.0, "bike_id": "9d4eef1de29ce68baf19f59a80bcbd1f", "is_disabled": 0, "is_reserved": 0}, {"rental_uris": {"ios": "https://dc.lft.to/lastmile_qr_scan", "android": "https://dc.lft.to/lastmile_qr_scan"}, "lon": -77.042447, "type": "electric_scooter", "fusion_lat": 0.0, "lat": 38.9074965, "name": "d6aceb87d88b3a6c7db57060a96c97f0", "fusion_lon": 0.0, "bike_id": "d6aceb87d88b3a6c7db57060a96c97f0", "is_disabled": 0, "is_reserved": 0}, {"rental_uris": {"ios": "https://dc.lft.to/lastmile_qr_scan", "android": "https://dc.lft.to/lastmile_qr_scan"}, "lon": -77.22210216666667, "type": "electric_bike", "fusion_lat": 0.0, "lat": 38.920816, "name": "5f490a51b1534deddb75cc6462fa7746", "fusion_lon": 0.0, "bike_id": "5f490a51b1534deddb75cc6462fa7746", "is_disabled": 0, "is_reserved": 0}, {"rental_uris": {"ios": "https://dc.lft.to/lastmile_qr_scan", "android": "https://dc.lft.to/lastmile_qr_scan"}, "lon": -77.04385316666666, "type": "electric_scooter", "fusion_lat": 0.0, "lat": 38.92943316666667, "name": "dcbd0788b67046bd02b1e1a8385bdf5e", "fusion_lon": 0.0, "bike_id": "dcbd0788b67046bd02b1e1a8385bdf5e", "is_disabled": 0, "is_reserved": 0}, {"rental_uris": {"ios": "https://dc.lft.to/lastmile_qr_scan", "android": "https://dc.lft.to/lastmile_qr_scan"}, "lon": -77.03196733333333, "type": "electric_scooter", "fusion_lat": 0.0, "lat": 38.91927, "name": "9216ed44483869cac4f2fa9d8e3f94b6", "fusion_lon": 0.0, "bike_id": "9216ed44483869cac4f2fa9d8e3f94b6", "is_disabled": 0, "is_reserved": 0}, {"rental_uris": {"ios": "https://dc.lft.to/lastmile_qr_scan", "android": "https://dc.lft.to/lastmile_qr_scan"}, "lon": -77.030792, "type": "electric_scooter", "fusion_lat": 0.0, "lat": 38.9223725, "name": "8eb4b61fee330909d04bb8122f40ee38", "fusion_lon": 0.0, "bike_id": "8eb4b61fee330909d04bb8122f40ee38", "is_disabled": 0, "is_reserved": 0}, {"rental_uris": {"ios": "https://dc.lft.to/lastmile_qr_scan", "android": "https://dc.lft.to/lastmile_qr_scan"}, "lon": -76.9984655, "type": "electric_scooter", "fusion_lat": 0.0, "lat": 38.900438666666666, "name": "ecfc60a6c840da857750153dcee8abd3", "fusion_lon": 0.0, "bike_id": "ecfc60a6c840da857750153dcee8abd3", "is_disabled": 0, "is_reserved": 0}, {"rental_uris": {"ios": "https://dc.lft.to/lastmile_qr_scan", "android": "https://dc.lft.to/lastmile_qr_scan"}, "lon": -77.038424, "type": "electric_scooter", "fusion_lat": 0.0, "lat": 38.903685333333335, "name": "3efe903b542ceb7d850a83060f4f5694", "fusion_lon": 0.0, "bike_id": "3efe903b542ceb7d850a83060f4f5694", "is_disabled": 0, "is_reserved": 0}, {"rental_uris": {"ios": "https://dc.lft.to/lastmile_qr_scan", "android": "https://dc.lft.to/lastmile_qr_scan"}, "lon": -76.98854, "type": "electric_scooter", "fusion_lat": 0.0, "lat": 38.903443333333335, "name": "e9026f3b162e2039918af4564135d7aa", "fusion_lon": 0.0, "bike_id": "e9026f3b162e2039918af4564135d7aa", "is_disabled": 0, "is_reserved": 0}, {"rental_uris": {"ios": "https://dc.lft.to/lastmile_qr_scan", "android": "https://dc.lft.to/lastmile_qr_scan"}, "lon": -77.036601, "type": "electric_scooter", "fusion_lat": 0.0, "lat": 38.930832333333335, "name": "9d6c30d7ff16134641ac425b58a1bfb3", "fusion_lon": 0.0, "bike_id": "9d6c30d7ff16134641ac425b58a1bfb3", "is_disabled": 0, "is_reserved": 0}, {"rental_uris": {"ios": "https://dc.lft.to/lastmile_qr_scan", "android": "https://dc.lft.to/lastmile_qr_scan"}, "lon": -77.02300316666667, "type": "electric_scooter", "fusion_lat": 0.0, "lat": 38.909035833333334, "name": "9e707df8448dbaec670ef1676a72c525", "fusion_lon": 0.0, "bike_id": "9e707df8448dbaec670ef1676a72c525", "is_disabled": 0, "is_reserved": 0}, {"rental_uris": {"ios": "https://dc.lft.to/lastmile_qr_scan", "android": "https://dc.lft.to/lastmile_qr_scan"}, "lon": -77.04186516666667, "type": "electric_scooter", "fusion_lat": 0.0, "lat": 38.903450666666664, "name": "2e5cadd46434ac809df58b033bb81990", "fusion_lon": 0.0, "bike_id": "2e5cadd46434ac809df58b033bb81990", "is_disabled": 0, "is_reserved": 0}, {"rental_uris": {"ios": "https://dc.lft.to/lastmile_qr_scan", "android": "https://dc.lft.to/lastmile_qr_scan"}, "lon": -77.03848016666667, "type": "electric_scooter", "fusion_lat": 0.0, "lat": 38.91274133333334, "name": "59d47be1125cc9021e7dec6bc7cfbbd5", "fusion_lon": 0.0, "bike_id": "59d47be1125cc9021e7dec6bc7cfbbd5", "is_disabled": 0, "is_reserved": 0}, {"rental_uris": {"ios": "https://dc.lft.to/lastmile_qr_scan", "android": "https://dc.lft.to/lastmile_qr_scan"}, "lon": -77.02782383333333, "type": "electric_scooter", "fusion_lat": 0.0, "lat": 38.923745, "name": "55c9889e3d2f9f6f43c03d43d2dd1572", "fusion_lon": 0.0, "bike_id": "55c9889e3d2f9f6f43c03d43d2dd1572", "is_disabled": 0, "is_reserved": 0}, {"rental_uris": {"ios": "https://dc.lft.to/lastmile_qr_scan", "android": "https://dc.lft.to/lastmile_qr_scan"}, "lon": -77.04721616666667, "type": "electric_scooter", "fusion_lat": 0.0, "lat": 38.90978416666667, "name": "8156ab2c4b032f73e3ffdde9f3e7ad8a", "fusion_lon": 0.0, "bike_id": "8156ab2c4b032f73e3ffdde9f3e7ad8a", "is_disabled": 0, "is_reserved": 0}, {"rental_uris": {"ios": "https://dc.lft.to/lastmile_qr_scan", "android": "https://dc.lft.to/lastmile_qr_scan"}, "lon": -77.03322516666667, "type": "electric_scooter", "fusion_lat": 0.0, "lat": 38.9015605, "name": "d915c98400c922e918d08d8713df2210", "fusion_lon": 0.0, "bike_id": "d915c98400c922e918d08d8713df2210", "is_disabled": 0, "is_reserved": 0}, {"rental_uris": {"ios": "https://dc.lft.to/lastmile_qr_scan", "android": "https://dc.lft.to/lastmile_qr_scan"}, "lon": -77.02153783333333, "type": "electric_scooter", "fusion_lat": 0.0, "lat": 38.92826516666667, "name": "766de842aded7f723903f1a744a546ac", "fusion_lon": 0.0, "bike_id": "766de842aded7f723903f1a744a546ac", "is_disabled": 0, "is_reserved": 0}, {"rental_uris": {"ios": "https://dc.lft.to/lastmile_qr_scan", "android": "https://dc.lft.to/lastmile_qr_scan"}, "lon": -77.028091, "type": "electric_scooter", "fusion_lat": 0.0, "lat": 38.930828, "name": "5f796d0a67b332eefc0f0832efac0796", "fusion_lon": 0.0, "bike_id": "5f796d0a67b332eefc0f0832efac0796", "is_disabled": 0, "is_reserved": 0}, {"rental_uris": {"ios": "https://dc.lft.to/lastmile_qr_scan", "android": "https://dc.lft.to/lastmile_qr_scan"}, "lon": -76.94719433333333, "type": "electric_scooter", "fusion_lat": 0.0, "lat": 38.89677733333333, "name": "c4ac9a274f54c02ff072bdebd8d5dfb4", "fusion_lon": 0.0, "bike_id": "c4ac9a274f54c02ff072bdebd8d5dfb4", "is_disabled": 0, "is_reserved": 0}, {"rental_uris": {"ios": "https://dc.lft.to/lastmile_qr_scan", "android": "https://dc.lft.to/lastmile_qr_scan"}, "lon": -77.02489266666667, "type": "electric_scooter", "fusion_lat": 0.0, "lat": 38.8977235, "name": "28f3ece405f01f3b8294fc6fa11b6fb9", "fusion_lon": 0.0, "bike_id": "28f3ece405f01f3b8294fc6fa11b6fb9", "is_disabled": 0, "is_reserved": 0}, {"rental_uris": {"ios": "https://dc.lft.to/lastmile_qr_scan", "android": "https://dc.lft.to/lastmile_qr_scan"}, "lon": -77.02477966666666, "type": "electric_scooter", "fusion_lat": 0.0, "lat": 38.91813533333333, "name": "f4cb50e089f88f4cd4f464bd3ddc4309", "fusion_lon": 0.0, "bike_id": "f4cb50e089f88f4cd4f464bd3ddc4309", "is_disabled": 0, "is_reserved": 0}, {"rental_uris": {"ios": "https://dc.lft.to/lastmile_qr_scan", "android": "https://dc.lft.to/lastmile_qr_scan"}, "lon": -77.039633, "type": "electric_scooter", "fusion_lat": 0.0, "lat": 38.90259316666667, "name": "64a5f9e5e1d5bd7c8691a7043cad5547", "fusion_lon": 0.0, "bike_id": "64a5f9e5e1d5bd7c8691a7043cad5547", "is_disabled": 0, "is_reserved": 0}, {"rental_uris": {"ios": "https://dc.lft.to/lastmile_qr_scan", "android": "https://dc.lft.to/lastmile_qr_scan"}, "lon": -77.0220045, "type": "electric_scooter", "fusion_lat": 0.0, "lat": 38.915649, "name": "a85edf50247f313d4d8aef6658f02591", "fusion_lon": 0.0, "bike_id": "a85edf50247f313d4d8aef6658f02591", "is_disabled": 0, "is_reserved": 0}, {"rental_uris": {"ios": "https://dc.lft.to/lastmile_qr_scan", "android": "https://dc.lft.to/lastmile_qr_scan"}, "lon": -77.02947916666666, "type": "electric_scooter", "fusion_lat": 0.0, "lat": 38.905034, "name": "9e9eda46f72422cb34dbf025058fd687", "fusion_lon": 0.0, "bike_id": "9e9eda46f72422cb34dbf025058fd687", "is_disabled": 0, "is_reserved": 0}, {"rental_uris": {"ios": "https://dc.lft.to/lastmile_qr_scan", "android": "https://dc.lft.to/lastmile_qr_scan"}, "lon": -76.94963716666666, "type": "electric_scooter", "fusion_lat": 0.0, "lat": 38.89368916666667, "name": "24d1174d8d6e11eac7841e894a23313c", "fusion_lon": 0.0, "bike_id": "24d1174d8d6e11eac7841e894a23313c", "is_disabled": 0, "is_reserved": 0}, {"rental_uris": {"ios": "https://dc.lft.to/lastmile_qr_scan", "android": "https://dc.lft.to/lastmile_qr_scan"}, "lon": -77.02394233333334, "type": "electric_bike", "fusion_lat": 0.0, "lat": 38.99440633333333, "name": "4ae7d889ea09d9732cd2745931aa2512", "fusion_lon": 0.0, "bike_id": "4ae7d889ea09d9732cd2745931aa2512", "is_disabled": 0, "is_reserved": 0}, {"rental_uris": {"ios": "https://dc.lft.to/lastmile_qr_scan", "android": "https://dc.lft.to/lastmile_qr_scan"}, "lon": -77.12818183333333, "type": "electric_bike", "fusion_lat": 0.0, "lat": 38.865301, "name": "81c6366a735c26ba1d5ed08672c57faa", "fusion_lon": 0.0, "bike_id": "81c6366a735c26ba1d5ed08672c57faa", "is_disabled": 0, "is_reserved": 0}, {"rental_uris": {"ios": "https://dc.lft.to/lastmile_qr_scan", "android": "https://dc.lft.to/lastmile_qr_scan"}, "lon": -77.02967966666667, "type": "electric_scooter", "fusion_lat": 0.0, "lat": 38.90739266666667, "name": "fbcd5ee14325b08fb97a191e3b91a9bd", "fusion_lon": 0.0, "bike_id": "fbcd5ee14325b08fb97a191e3b91a9bd", "is_disabled": 0, "is_reserved": 0}, {"rental_uris": {"ios": "https://dc.lft.to/lastmile_qr_scan", "android": "https://dc.lft.to/lastmile_qr_scan"}, "lon": -77.12984566666667, "type": "electric_bike", "fusion_lat": 0.0, "lat": 38.79988766666666, "name": "77ae537c1ef3b7f006a163539c38b822", "fusion_lon": 0.0, "bike_id": "77ae537c1ef3b7f006a163539c38b822", "is_disabled": 0, "is_reserved": 0}, {"rental_uris": {"ios": "https://dc.lft.to/lastmile_qr_scan", "android": "https://dc.lft.to/lastmile_qr_scan"}, "lon": -77.07046483333333, "type": "electric_bike", "fusion_lat": 0.0, "lat": 38.8244845, "name": "9bde15d4564214307aa83fd9c66f12ba", "fusion_lon": 0.0, "bike_id": "9bde15d4564214307aa83fd9c66f12ba", "is_disabled": 0, "is_reserved": 0}, {"rental_uris": {"ios": "https://dc.lft.to/lastmile_qr_scan", "android": "https://dc.lft.to/lastmile_qr_scan"}, "lon": -76.91600916666667, "type": "electric_bike", "fusion_lat": 0.0, "lat": 38.879812, "name": "bb550bc08d04f97eff15ea832f33460e", "fusion_lon": 0.0, "bike_id": "bb550bc08d04f97eff15ea832f33460e", "is_disabled": 0, "is_reserved": 0}, {"rental_uris": {"ios": "https://dc.lft.to/lastmile_qr_scan", "android": "https://dc.lft.to/lastmile_qr_scan"}, "lon": -77.06399783333333, "type": "electric_scooter", "fusion_lat": 0.0, "lat": 38.92909933333333, "name": "b5087d6b9f48c0c223a13ad3659a27f1", "fusion_lon": 0.0, "bike_id": "b5087d6b9f48c0c223a13ad3659a27f1", "is_disabled": 0, "is_reserved": 0}, {"rental_uris": {"ios": "https://dc.lft.to/lastmile_qr_scan", "android": "https://dc.lft.to/lastmile_qr_scan"}, "lon": -77.03117833333333, "type": "electric_scooter", "fusion_lat": 0.0, "lat": 38.9118415, "name": "df6289772f7024b1b20a1ea4c6551636", "fusion_lon": 0.0, "bike_id": "df6289772f7024b1b20a1ea4c6551636", "is_disabled": 0, "is_reserved": 0}, {"rental_uris": {"ios": "https://dc.lft.to/lastmile_qr_scan", "android": "https://dc.lft.to/lastmile_qr_scan"}, "lon": -77.05025983333333, "type": "electric_scooter", "fusion_lat": 0.0, "lat": 38.9235615, "name": "07f8e0e94da1af04e52977d1f95aabd0", "fusion_lon": 0.0, "bike_id": "07f8e0e94da1af04e52977d1f95aabd0", "is_disabled": 0, "is_reserved": 0}, {"rental_uris": {"ios": "https://dc.lft.to/lastmile_qr_scan", "android": "https://dc.lft.to/lastmile_qr_scan"}, "lon": -77.034902, "type": "electric_scooter", "fusion_lat": 0.0, "lat": 38.91709933333333, "name": "229f5306af678f580847bc29fb71bee1", "fusion_lon": 0.0, "bike_id": "229f5306af678f580847bc29fb71bee1", "is_disabled": 0, "is_reserved": 0}, {"rental_uris": {"ios": "https://dc.lft.to/lastmile_qr_scan", "android": "https://dc.lft.to/lastmile_qr_scan"}, "lon": -77.01110583333333, "type": "electric_scooter", "fusion_lat": 0.0, "lat": 38.90014, "name": "69eedee21110598876b486f83b2c5086", "fusion_lon": 0.0, "bike_id": "69eedee21110598876b486f83b2c5086", "is_disabled": 0, "is_reserved": 0}, {"rental_uris": {"ios": "https://dc.lft.to/lastmile_qr_scan", "android": "https://dc.lft.to/lastmile_qr_scan"}, "lon": -76.98263666666666, "type": "electric_scooter", "fusion_lat": 0.0, "lat": 38.86354166666667, "name": "e4e50864de7c2cde9d639867e3f4ca58", "fusion_lon": 0.0, "bike_id": "e4e50864de7c2cde9d639867e3f4ca58", "is_disabled": 0, "is_reserved": 0}, {"rental_uris": {"ios": "https://dc.lft.to/lastmile_qr_scan", "android": "https://dc.lft.to/lastmile_qr_scan"}, "lon": -77.0165445, "type": "electric_scooter", "fusion_lat": 0.0, "lat": 38.953298, "name": "2c5119d6ea3d59c15e737aeaa7ca234c", "fusion_lon": 0.0, "bike_id": "2c5119d6ea3d59c15e737aeaa7ca234c", "is_disabled": 0, "is_reserved": 0}, {"rental_uris": {"ios": "https://dc.lft.to/lastmile_qr_scan", "android": "https://dc.lft.to/lastmile_qr_scan"}, "lon": -77.0381555, "type": "electric_scooter", "fusion_lat": 0.0, "lat": 38.90972383333333, "name": "2c63e27c6e637652aa0b42662d3daf7b", "fusion_lon": 0.0, "bike_id": "2c63e27c6e637652aa0b42662d3daf7b", "is_disabled": 0, "is_reserved": 0}, {"rental_uris": {"ios": "https://dc.lft.to/lastmile_qr_scan", "android": "https://dc.lft.to/lastmile_qr_scan"}, "lon": -77.05442583333334, "type": "electric_scooter", "fusion_lat": 0.0, "lat": 38.89610583333334, "name": "a9f2eb7b71e2bcfbe11a0e96bf51ac94", "fusion_lon": 0.0, "bike_id": "a9f2eb7b71e2bcfbe11a0e96bf51ac94", "is_disabled": 0, "is_reserved": 0}, {"rental_uris": {"ios": "https://dc.lft.to/lastmile_qr_scan", "android": "https://dc.lft.to/lastmile_qr_scan"}, "lon": -77.002639, "type": "electric_scooter", "fusion_lat": 0.0, "lat": 38.87751183333334, "name": "be580ac8b34921d157f3404e148d04fa", "fusion_lon": 0.0, "bike_id": "be580ac8b34921d157f3404e148d04fa", "is_disabled": 0, "is_reserved": 0}, {"rental_uris": {"ios": "https://dc.lft.to/lastmile_qr_scan", "android": "https://dc.lft.to/lastmile_qr_scan"}, "lon": -77.04404216666667, "type": "electric_scooter", "fusion_lat": 0.0, "lat": 38.90583566666667, "name": "32db7f38a5276d293d1d480b40593260", "fusion_lon": 0.0, "bike_id": "32db7f38a5276d293d1d480b40593260", "is_disabled": 0, "is_reserved": 0}, {"rental_uris": {"ios": "https://dc.lft.to/lastmile_qr_scan", "android": "https://dc.lft.to/lastmile_qr_scan"}, "lon": -77.0183905, "type": "electric_scooter", "fusion_lat": 0.0, "lat": 38.90881183333333, "name": "a004df3b8da7034d0eeaa104ad1091bb", "fusion_lon": 0.0, "bike_id": "a004df3b8da7034d0eeaa104ad1091bb", "is_disabled": 0, "is_reserved": 0}, {"rental_uris": {"ios": "https://dc.lft.to/lastmile_qr_scan", "android": "https://dc.lft.to/lastmile_qr_scan"}, "lon": -77.04788533333334, "type": "electric_scooter", "fusion_lat": 0.0, "lat": 38.8936565, "name": "fc39ead4f54df05705fdb7f2f2a25147", "fusion_lon": 0.0, "bike_id": "fc39ead4f54df05705fdb7f2f2a25147", "is_disabled": 0, "is_reserved": 0}, {"rental_uris": {"ios": "https://dc.lft.to/lastmile_qr_scan", "android": "https://dc.lft.to/lastmile_qr_scan"}, "lon": -77.03381933333333, "type": "electric_scooter", "fusion_lat": 0.0, "lat": 38.938400666666666, "name": "7f0d3d39f6ca8075bd215c01a32a62c2", "fusion_lon": 0.0, "bike_id": "7f0d3d39f6ca8075bd215c01a32a62c2", "is_disabled": 0, "is_reserved": 0}, {"rental_uris": {"ios": "https://dc.lft.to/lastmile_qr_scan", "android": "https://dc.lft.to/lastmile_qr_scan"}, "lon": -76.98606716666667, "type": "electric_scooter", "fusion_lat": 0.0, "lat": 38.868223666666665, "name": "6d93133f7a5617bc024c7fdf1cc56817", "fusion_lon": 0.0, "bike_id": "6d93133f7a5617bc024c7fdf1cc56817", "is_disabled": 0, "is_reserved": 0}, {"rental_uris": {"ios": "https://dc.lft.to/lastmile_qr_scan", "android": "https://dc.lft.to/lastmile_qr_scan"}, "lon": -77.011558, "type": "electric_scooter", "fusion_lat": 0.0, "lat": 38.89707716666667, "name": "54574834e100fa1d050286f3f72d58d4", "fusion_lon": 0.0, "bike_id": "54574834e100fa1d050286f3f72d58d4", "is_disabled": 0, "is_reserved": 0}, {"rental_uris": {"ios": "https://dc.lft.to/lastmile_qr_scan", "android": "https://dc.lft.to/lastmile_qr_scan"}, "lon": -77.0363785, "type": "electric_scooter", "fusion_lat": 0.0, "lat": 38.9291755, "name": "4f060cc8049f887195fbebc1a265696a", "fusion_lon": 0.0, "bike_id": "4f060cc8049f887195fbebc1a265696a", "is_disabled": 0, "is_reserved": 0}, {"rental_uris": {"ios": "https://dc.lft.to/lastmile_qr_scan", "android": "https://dc.lft.to/lastmile_qr_scan"}, "lon": -77.04507716666667, "type": "electric_scooter", "fusion_lat": 0.0, "lat": 38.9065, "name": "9086325dfdba61b4e7976e9ec56d801d", "fusion_lon": 0.0, "bike_id": "9086325dfdba61b4e7976e9ec56d801d", "is_disabled": 0, "is_reserved": 0}, {"rental_uris": {"ios": "https://dc.lft.to/lastmile_qr_scan", "android": "https://dc.lft.to/lastmile_qr_scan"}, "lon": -77.05265666666666, "type": "electric_scooter", "fusion_lat": 0.0, "lat": 38.92375666666667, "name": "8f4d619626f16aa61c13d43479dba4aa", "fusion_lon": 0.0, "bike_id": "8f4d619626f16aa61c13d43479dba4aa", "is_disabled": 0, "is_reserved": 0}, {"rental_uris": {"ios": "https://dc.lft.to/lastmile_qr_scan", "android": "https://dc.lft.to/lastmile_qr_scan"}, "lon": -77.01264983333333, "type": "electric_scooter", "fusion_lat": 0.0, "lat": 38.89968866666667, "name": "36aa68fc036653679dc0aee97f8c781f", "fusion_lon": 0.0, "bike_id": "36aa68fc036653679dc0aee97f8c781f", "is_disabled": 0, "is_reserved": 0}, {"rental_uris": {"ios": "https://dc.lft.to/lastmile_qr_scan", "android": "https://dc.lft.to/lastmile_qr_scan"}, "lon": -77.13597133333333, "type": "electric_bike", "fusion_lat": 0.0, "lat": 39.0534945, "name": "e128c2647445aa692d8233e7803ceff4", "fusion_lon": 0.0, "bike_id": "e128c2647445aa692d8233e7803ceff4", "is_disabled": 0, "is_reserved": 0}, {"rental_uris": {"ios": "https://dc.lft.to/lastmile_qr_scan", "android": "https://dc.lft.to/lastmile_qr_scan"}, "lon": -77.01442783333333, "type": "electric_scooter", "fusion_lat": 0.0, "lat": 38.87768966666667, "name": "88c054549989634e687ee9cf68f777bc", "fusion_lon": 0.0, "bike_id": "88c054549989634e687ee9cf68f777bc", "is_disabled": 0, "is_reserved": 0}, {"rental_uris": {"ios": "https://dc.lft.to/lastmile_qr_scan", "android": "https://dc.lft.to/lastmile_qr_scan"}, "lon": -77.043121, "type": "electric_scooter", "fusion_lat": 0.0, "lat": 38.922526166666664, "name": "14a951f43e41dd59ba9544e9c38cc77c", "fusion_lon": 0.0, "bike_id": "14a951f43e41dd59ba9544e9c38cc77c", "is_disabled": 0, "is_reserved": 0}, {"rental_uris": {"ios": "https://dc.lft.to/lastmile_qr_scan", "android": "https://dc.lft.to/lastmile_qr_scan"}, "lon": -77.03655783333333, "type": "electric_scooter", "fusion_lat": 0.0, "lat": 38.9130095, "name": "39dd35e7ee3da4acba475af985d79b86", "fusion_lon": 0.0, "bike_id": "39dd35e7ee3da4acba475af985d79b86", "is_disabled": 0, "is_reserved": 0}, {"rental_uris": {"ios": "https://dc.lft.to/lastmile_qr_scan", "android": "https://dc.lft.to/lastmile_qr_scan"}, "lon": -76.94876266666667, "type": "electric_scooter", "fusion_lat": 0.0, "lat": 38.894628166666664, "name": "168469e54dd891eb9afc229dd4b9caca", "fusion_lon": 0.0, "bike_id": "168469e54dd891eb9afc229dd4b9caca", "is_disabled": 0, "is_reserved": 0}, {"rental_uris": {"ios": "https://dc.lft.to/lastmile_qr_scan", "android": "https://dc.lft.to/lastmile_qr_scan"}, "lon": -77.0616395, "type": "electric_scooter", "fusion_lat": 0.0, "lat": 38.94222166666667, "name": "70a1570747d3424bfdfff869525d132d", "fusion_lon": 0.0, "bike_id": "70a1570747d3424bfdfff869525d132d", "is_disabled": 0, "is_reserved": 0}, {"rental_uris": {"ios": "https://dc.lft.to/lastmile_qr_scan", "android": "https://dc.lft.to/lastmile_qr_scan"}, "lon": -77.02395466666667, "type": "electric_scooter", "fusion_lat": 0.0, "lat": 38.887381, "name": "4934aaee3cd00c465ceed12a919fabd7", "fusion_lon": 0.0, "bike_id": "4934aaee3cd00c465ceed12a919fabd7", "is_disabled": 0, "is_reserved": 0}, {"rental_uris": {"ios": "https://dc.lft.to/lastmile_qr_scan", "android": "https://dc.lft.to/lastmile_qr_scan"}, "lon": -77.02986366666667, "type": "electric_scooter", "fusion_lat": 0.0, "lat": 38.9311975, "name": "f5eb2688edef13033d60a119d9de9556", "fusion_lon": 0.0, "bike_id": "f5eb2688edef13033d60a119d9de9556", "is_disabled": 0, "is_reserved": 0}, {"rental_uris": {"ios": "https://dc.lft.to/lastmile_qr_scan", "android": "https://dc.lft.to/lastmile_qr_scan"}, "lon": -76.97889616666667, "type": "electric_scooter", "fusion_lat": 0.0, "lat": 38.9167545, "name": "2f0f8c2949c2a439e33796742539ace3", "fusion_lon": 0.0, "bike_id": "2f0f8c2949c2a439e33796742539ace3", "is_disabled": 0, "is_reserved": 0}, {"rental_uris": {"ios": "https://dc.lft.to/lastmile_qr_scan", "android": "https://dc.lft.to/lastmile_qr_scan"}, "lon": -77.04653366666666, "type": "electric_scooter", "fusion_lat": 0.0, "lat": 38.905504, "name": "751446e0da2895939ef1e3361f107491", "fusion_lon": 0.0, "bike_id": "751446e0da2895939ef1e3361f107491", "is_disabled": 0, "is_reserved": 0}, {"rental_uris": {"ios": "https://dc.lft.to/lastmile_qr_scan", "android": "https://dc.lft.to/lastmile_qr_scan"}, "lon": -77.0295475, "type": "electric_scooter", "fusion_lat": 0.0, "lat": 38.907802833333335, "name": "b4e8ac89a4c05e095923567aa746380b", "fusion_lon": 0.0, "bike_id": "b4e8ac89a4c05e095923567aa746380b", "is_disabled": 0, "is_reserved": 0}, {"rental_uris": {"ios": "https://dc.lft.to/lastmile_qr_scan", "android": "https://dc.lft.to/lastmile_qr_scan"}, "lon": -76.93160133333333, "type": "electric_scooter", "fusion_lat": 0.0, "lat": 38.898802, "name": "2558234b5650368ec16efc54d27dc5eb", "fusion_lon": 0.0, "bike_id": "2558234b5650368ec16efc54d27dc5eb", "is_disabled": 0, "is_reserved": 0}, {"rental_uris": {"ios": "https://dc.lft.to/lastmile_qr_scan", "android": "https://dc.lft.to/lastmile_qr_scan"}, "lon": -76.98771733333334, "type": "electric_scooter", "fusion_lat": 0.0, "lat": 38.911744666666664, "name": "4666a1c1ade624e3fc1643784ddbea65", "fusion_lon": 0.0, "bike_id": "4666a1c1ade624e3fc1643784ddbea65", "is_disabled": 0, "is_reserved": 0}, {"rental_uris": {"ios": "https://dc.lft.to/lastmile_qr_scan", "android": "https://dc.lft.to/lastmile_qr_scan"}, "lon": -76.93811483333333, "type": "electric_scooter", "fusion_lat": 0.0, "lat": 38.91310283333333, "name": "1d6613a9e1354fe6eceb5e062b357bcf", "fusion_lon": 0.0, "bike_id": "1d6613a9e1354fe6eceb5e062b357bcf", "is_disabled": 0, "is_reserved": 0}, {"rental_uris": {"ios": "https://dc.lft.to/lastmile_qr_scan", "android": "https://dc.lft.to/lastmile_qr_scan"}, "lon": -76.93516966666667, "type": "electric_scooter", "fusion_lat": 0.0, "lat": 38.908716, "name": "222a6b5b805e068bd1ce6fc9e17f2eac", "fusion_lon": 0.0, "bike_id": "222a6b5b805e068bd1ce6fc9e17f2eac", "is_disabled": 0, "is_reserved": 0}, {"rental_uris": {"ios": "https://dc.lft.to/lastmile_qr_scan", "android": "https://dc.lft.to/lastmile_qr_scan"}, "lon": -77.02839316666666, "type": "electric_scooter", "fusion_lat": 0.0, "lat": 38.887694333333336, "name": "807793074daf670d1d74c6849ffbb5d3", "fusion_lon": 0.0, "bike_id": "807793074daf670d1d74c6849ffbb5d3", "is_disabled": 0, "is_reserved": 0}, {"rental_uris": {"ios": "https://dc.lft.to/lastmile_qr_scan", "android": "https://dc.lft.to/lastmile_qr_scan"}, "lon": -77.03661316666667, "type": "electric_scooter", "fusion_lat": 0.0, "lat": 38.92288033333333, "name": "991348af0ce1887a321a887c382bc3d4", "fusion_lon": 0.0, "bike_id": "991348af0ce1887a321a887c382bc3d4", "is_disabled": 0, "is_reserved": 0}, {"rental_uris": {"ios": "https://dc.lft.to/lastmile_qr_scan", "android": "https://dc.lft.to/lastmile_qr_scan"}, "lon": -77.04046083333333, "type": "electric_scooter", "fusion_lat": 0.0, "lat": 38.925668, "name": "91d38cbf2029d2abdd4c3ec2e2255fe6", "fusion_lon": 0.0, "bike_id": "91d38cbf2029d2abdd4c3ec2e2255fe6", "is_disabled": 0, "is_reserved": 0}, {"rental_uris": {"ios": "https://dc.lft.to/lastmile_qr_scan", "android": "https://dc.lft.to/lastmile_qr_scan"}, "lon": -77.12743583333334, "type": "electric_bike", "fusion_lat": 0.0, "lat": 38.888232, "name": "04b300b31f88e7f2ef2564c86947e4e4", "fusion_lon": 0.0, "bike_id": "04b300b31f88e7f2ef2564c86947e4e4", "is_disabled": 0, "is_reserved": 0}, {"rental_uris": {"ios": "https://dc.lft.to/lastmile_qr_scan", "android": "https://dc.lft.to/lastmile_qr_scan"}, "lon": -77.04988383333334, "type": "electric_scooter", "fusion_lat": 0.0, "lat": 38.901747666666665, "name": "de1ef3faf19122534fb2e9c0fcb5ec1a", "fusion_lon": 0.0, "bike_id": "de1ef3faf19122534fb2e9c0fcb5ec1a", "is_disabled": 0, "is_reserved": 0}, {"rental_uris": {"ios": "https://dc.lft.to/lastmile_qr_scan", "android": "https://dc.lft.to/lastmile_qr_scan"}, "lon": -77.031698, "type": "electric_scooter", "fusion_lat": 0.0, "lat": 38.896080833333336, "name": "4e9fefb2cfee4281e03dbdecf66dbbe8", "fusion_lon": 0.0, "bike_id": "4e9fefb2cfee4281e03dbdecf66dbbe8", "is_disabled": 0, "is_reserved": 0}, {"rental_uris": {"ios": "https://dc.lft.to/lastmile_qr_scan", "android": "https://dc.lft.to/lastmile_qr_scan"}, "lon": -77.0247585, "type": "electric_scooter", "fusion_lat": 0.0, "lat": 38.91815166666667, "name": "efd9d2266bde34b5986132907d133041", "fusion_lon": 0.0, "bike_id": "efd9d2266bde34b5986132907d133041", "is_disabled": 0, "is_reserved": 0}, {"rental_uris": {"ios": "https://dc.lft.to/lastmile_qr_scan", "android": "https://dc.lft.to/lastmile_qr_scan"}, "lon": -77.041598, "type": "electric_scooter", "fusion_lat": 0.0, "lat": 38.91909166666667, "name": "6efeb935833355f3b574af277b5cc3ab", "fusion_lon": 0.0, "bike_id": "6efeb935833355f3b574af277b5cc3ab", "is_disabled": 0, "is_reserved": 0}, {"rental_uris": {"ios": "https://dc.lft.to/lastmile_qr_scan", "android": "https://dc.lft.to/lastmile_qr_scan"}, "lon": -77.04511683333334, "type": "electric_scooter", "fusion_lat": 0.0, "lat": 38.90788283333333, "name": "23e661c806a813001c4670622ed0939a", "fusion_lon": 0.0, "bike_id": "23e661c806a813001c4670622ed0939a", "is_disabled": 0, "is_reserved": 0}, {"rental_uris": {"ios": "https://dc.lft.to/lastmile_qr_scan", "android": "https://dc.lft.to/lastmile_qr_scan"}, "lon": -77.03852833333333, "type": "electric_scooter", "fusion_lat": 0.0, "lat": 38.91558533333333, "name": "b91e4b99fa77b2d477cfea7e6baf2266", "fusion_lon": 0.0, "bike_id": "b91e4b99fa77b2d477cfea7e6baf2266", "is_disabled": 0, "is_reserved": 0}, {"rental_uris": {"ios": "https://dc.lft.to/lastmile_qr_scan", "android": "https://dc.lft.to/lastmile_qr_scan"}, "lon": -77.02185966666667, "type": "electric_scooter", "fusion_lat": 0.0, "lat": 38.89247233333333, "name": "4d9993420a52b25a87bbaffc6b65f164", "fusion_lon": 0.0, "bike_id": "4d9993420a52b25a87bbaffc6b65f164", "is_disabled": 0, "is_reserved": 0}, {"rental_uris": {"ios": "https://dc.lft.to/lastmile_qr_scan", "android": "https://dc.lft.to/lastmile_qr_scan"}, "lon": -77.03698416666667, "type": "electric_scooter", "fusion_lat": 0.0, "lat": 38.93524, "name": "cadf40893a86d4ba282a715fae0fd9a2", "fusion_lon": 0.0, "bike_id": "cadf40893a86d4ba282a715fae0fd9a2", "is_disabled": 0, "is_reserved": 0}, {"rental_uris": {"ios": "https://dc.lft.to/lastmile_qr_scan", "android": "https://dc.lft.to/lastmile_qr_scan"}, "lon": -77.027096, "type": "electric_scooter", "fusion_lat": 0.0, "lat": 38.9067695, "name": "101b22b31b8e7c2d51c0b025ec9faab6", "fusion_lon": 0.0, "bike_id": "101b22b31b8e7c2d51c0b025ec9faab6", "is_disabled": 0, "is_reserved": 0}, {"rental_uris": {"ios": "https://dc.lft.to/lastmile_qr_scan", "android": "https://dc.lft.to/lastmile_qr_scan"}, "lon": -76.9734735, "type": "electric_scooter", "fusion_lat": 0.0, "lat": 38.865126, "name": "1ff7494bd6d5a230387d05dc44283514", "fusion_lon": 0.0, "bike_id": "1ff7494bd6d5a230387d05dc44283514", "is_disabled": 0, "is_reserved": 0}, {"rental_uris": {"ios": "https://dc.lft.to/lastmile_qr_scan", "android": "https://dc.lft.to/lastmile_qr_scan"}, "lon": -77.01794083333333, "type": "electric_scooter", "fusion_lat": 0.0, "lat": 38.904056833333335, "name": "f8b27fa839fd22be2a5cdd61061beabf", "fusion_lon": 0.0, "bike_id": "f8b27fa839fd22be2a5cdd61061beabf", "is_disabled": 0, "is_reserved": 0}, {"rental_uris": {"ios": "https://dc.lft.to/lastmile_qr_scan", "android": "https://dc.lft.to/lastmile_qr_scan"}, "lon": -77.035672, "type": "electric_scooter", "fusion_lat": 0.0, "lat": 38.91812516666667, "name": "f108c4d36c61423505d824e496a82f30", "fusion_lon": 0.0, "bike_id": "f108c4d36c61423505d824e496a82f30", "is_disabled": 0, "is_reserved": 0}, {"rental_uris": {"ios": "https://dc.lft.to/lastmile_qr_scan", "android": "https://dc.lft.to/lastmile_qr_scan"}, "lon": -76.93190316666667, "type": "electric_scooter", "fusion_lat": 0.0, "lat": 38.88994916666667, "name": "60098ae8e398fbd53bfe56a065794bd6", "fusion_lon": 0.0, "bike_id": "60098ae8e398fbd53bfe56a065794bd6", "is_disabled": 0, "is_reserved": 0}, {"rental_uris": {"ios": "https://dc.lft.to/lastmile_qr_scan", "android": "https://dc.lft.to/lastmile_qr_scan"}, "lon": -77.0059735, "type": "electric_scooter", "fusion_lat": 0.0, "lat": 38.90629533333333, "name": "12ccec2028c6e74afcd374e582bfdfb2", "fusion_lon": 0.0, "bike_id": "12ccec2028c6e74afcd374e582bfdfb2", "is_disabled": 0, "is_reserved": 0}, {"rental_uris": {"ios": "https://dc.lft.to/lastmile_qr_scan", "android": "https://dc.lft.to/lastmile_qr_scan"}, "lon": -77.01504016666667, "type": "electric_scooter", "fusion_lat": 0.0, "lat": 38.901487833333334, "name": "59848eda2df996a5ec3ab33bfbbc7e35", "fusion_lon": 0.0, "bike_id": "59848eda2df996a5ec3ab33bfbbc7e35", "is_disabled": 0, "is_reserved": 0}, {"rental_uris": {"ios": "https://dc.lft.to/lastmile_qr_scan", "android": "https://dc.lft.to/lastmile_qr_scan"}, "lon": -77.04067066666667, "type": "electric_bike", "fusion_lat": 0.0, "lat": 38.92421266666667, "name": "fd83436471d482d41898918ecf57b968", "fusion_lon": 0.0, "bike_id": "fd83436471d482d41898918ecf57b968", "is_disabled": 0, "is_reserved": 0}, {"rental_uris": {"ios": "https://dc.lft.to/lastmile_qr_scan", "android": "https://dc.lft.to/lastmile_qr_scan"}, "lon": -77.03794833333333, "type": "electric_scooter", "fusion_lat": 0.0, "lat": 38.9360345, "name": "2491bf30f7833f201737c67a91dab54a", "fusion_lon": 0.0, "bike_id": "2491bf30f7833f201737c67a91dab54a", "is_disabled": 0, "is_reserved": 0}, {"rental_uris": {"ios": "https://dc.lft.to/lastmile_qr_scan", "android": "https://dc.lft.to/lastmile_qr_scan"}, "lon": -77.04406766666666, "type": "electric_scooter", "fusion_lat": 0.0, "lat": 38.87427383333333, "name": "8db1a19c3d6b25f664482e50a2c37009", "fusion_lon": 0.0, "bike_id": "8db1a19c3d6b25f664482e50a2c37009", "is_disabled": 0, "is_reserved": 0}, {"rental_uris": {"ios": "https://dc.lft.to/lastmile_qr_scan", "android": "https://dc.lft.to/lastmile_qr_scan"}, "lon": -77.02316683333333, "type": "electric_scooter", "fusion_lat": 0.0, "lat": 38.88358733333333, "name": "26d687839fcfd635b53d93bc723478ac", "fusion_lon": 0.0, "bike_id": "26d687839fcfd635b53d93bc723478ac", "is_disabled": 0, "is_reserved": 0}, {"rental_uris": {"ios": "https://dc.lft.to/lastmile_qr_scan", "android": "https://dc.lft.to/lastmile_qr_scan"}, "lon": -77.0395845, "type": "electric_scooter", "fusion_lat": 0.0, "lat": 38.9025915, "name": "c35f27e733d23f12cf207ae854dc0d60", "fusion_lon": 0.0, "bike_id": "c35f27e733d23f12cf207ae854dc0d60", "is_disabled": 0, "is_reserved": 0}, {"rental_uris": {"ios": "https://dc.lft.to/lastmile_qr_scan", "android": "https://dc.lft.to/lastmile_qr_scan"}, "lon": -76.96173083333333, "type": "electric_bike", "fusion_lat": 0.0, "lat": 38.91865, "name": "0b1fde8a0ea950f68e4e0d554c541e7f", "fusion_lon": 0.0, "bike_id": "0b1fde8a0ea950f68e4e0d554c541e7f", "is_disabled": 0, "is_reserved": 0}, {"rental_uris": {"ios": "https://dc.lft.to/lastmile_qr_scan", "android": "https://dc.lft.to/lastmile_qr_scan"}, "lon": -77.03123166666667, "type": "electric_scooter", "fusion_lat": 0.0, "lat": 38.97377516666667, "name": "315f696e9794c0dea062d78178505173", "fusion_lon": 0.0, "bike_id": "315f696e9794c0dea062d78178505173", "is_disabled": 0, "is_reserved": 0}, {"rental_uris": {"ios": "https://dc.lft.to/lastmile_qr_scan", "android": "https://dc.lft.to/lastmile_qr_scan"}, "lon": -77.13094366666667, "type": "electric_bike", "fusion_lat": 0.0, "lat": 38.86163116666667, "name": "07f02dab2108507ff2374b293e8ac0ee", "fusion_lon": 0.0, "bike_id": "07f02dab2108507ff2374b293e8ac0ee", "is_disabled": 0, "is_reserved": 0}, {"rental_uris": {"ios": "https://dc.lft.to/lastmile_qr_scan", "android": "https://dc.lft.to/lastmile_qr_scan"}, "lon": -77.03929733333334, "type": "electric_scooter", "fusion_lat": 0.0, "lat": 38.9175605, "name": "0f3a9c44b97ef8fe0970a30324e6695f", "fusion_lon": 0.0, "bike_id": "0f3a9c44b97ef8fe0970a30324e6695f", "is_disabled": 0, "is_reserved": 0}, {"rental_uris": {"ios": "https://dc.lft.to/lastmile_qr_scan", "android": "https://dc.lft.to/lastmile_qr_scan"}, "lon": -77.03182433333333, "type": "electric_scooter", "fusion_lat": 0.0, "lat": 38.9140195, "name": "7c1f8c92351eff6d002623d118635254", "fusion_lon": 0.0, "bike_id": "7c1f8c92351eff6d002623d118635254", "is_disabled": 0, "is_reserved": 0}, {"rental_uris": {"ios": "https://dc.lft.to/lastmile_qr_scan", "android": "https://dc.lft.to/lastmile_qr_scan"}, "lon": -77.03764333333334, "type": "electric_scooter", "fusion_lat": 0.0, "lat": 38.92598433333333, "name": "b413aa7834ea0d1a8fe802b459f0755d", "fusion_lon": 0.0, "bike_id": "b413aa7834ea0d1a8fe802b459f0755d", "is_disabled": 0, "is_reserved": 0}, {"rental_uris": {"ios": "https://dc.lft.to/lastmile_qr_scan", "android": "https://dc.lft.to/lastmile_qr_scan"}, "lon": -77.0560255, "type": "electric_scooter", "fusion_lat": 0.0, "lat": 38.936976, "name": "c4d01a6d343349ffd287e8d53498c13f", "fusion_lon": 0.0, "bike_id": "c4d01a6d343349ffd287e8d53498c13f", "is_disabled": 0, "is_reserved": 0}, {"rental_uris": {"ios": "https://dc.lft.to/lastmile_qr_scan", "android": "https://dc.lft.to/lastmile_qr_scan"}, "lon": -77.04178866666666, "type": "electric_scooter", "fusion_lat": 0.0, "lat": 38.918581333333336, "name": "91ccbfd6d934ddd6746e660acbd4d909", "fusion_lon": 0.0, "bike_id": "91ccbfd6d934ddd6746e660acbd4d909", "is_disabled": 0, "is_reserved": 0}, {"rental_uris": {"ios": "https://dc.lft.to/lastmile_qr_scan", "android": "https://dc.lft.to/lastmile_qr_scan"}, "lon": -77.04702066666667, "type": "electric_scooter", "fusion_lat": 0.0, "lat": 38.9210305, "name": "8ccff1f28a0c70c4eedc1e08e0d5a888", "fusion_lon": 0.0, "bike_id": "8ccff1f28a0c70c4eedc1e08e0d5a888", "is_disabled": 0, "is_reserved": 0}, {"rental_uris": {"ios": "https://dc.lft.to/lastmile_qr_scan", "android": "https://dc.lft.to/lastmile_qr_scan"}, "lon": -77.0322935, "type": "electric_scooter", "fusion_lat": 0.0, "lat": 38.8964035, "name": "e22553627dd2ff856982312f331ca65c", "fusion_lon": 0.0, "bike_id": "e22553627dd2ff856982312f331ca65c", "is_disabled": 0, "is_reserved": 0}, {"rental_uris": {"ios": "https://dc.lft.to/lastmile_qr_scan", "android": "https://dc.lft.to/lastmile_qr_scan"}, "lon": -77.0241475, "type": "electric_bike", "fusion_lat": 0.0, "lat": 38.934651, "name": "b78efb2144a8bd374e5df998c6b9621d", "fusion_lon": 0.0, "bike_id": "b78efb2144a8bd374e5df998c6b9621d", "is_disabled": 0, "is_reserved": 0}, {"rental_uris": {"ios": "https://dc.lft.to/lastmile_qr_scan", "android": "https://dc.lft.to/lastmile_qr_scan"}, "lon": -77.091582, "type": "electric_bike", "fusion_lat": 0.0, "lat": 38.9676685, "name": "e968f979503b0710716fb787a78205ab", "fusion_lon": 0.0, "bike_id": "e968f979503b0710716fb787a78205ab", "is_disabled": 0, "is_reserved": 0}, {"rental_uris": {"ios": "https://dc.lft.to/lastmile_qr_scan", "android": "https://dc.lft.to/lastmile_qr_scan"}, "lon": -77.04182116666667, "type": "electric_bike", "fusion_lat": 0.0, "lat": 38.920264833333334, "name": "1190e54a61b017f9c81e724464b69044", "fusion_lon": 0.0, "bike_id": "1190e54a61b017f9c81e724464b69044", "is_disabled": 0, "is_reserved": 0}, {"rental_uris": {"ios": "https://dc.lft.to/lastmile_qr_scan", "android": "https://dc.lft.to/lastmile_qr_scan"}, "lon": -77.01336633333334, "type": "electric_scooter", "fusion_lat": 0.0, "lat": 38.96611683333333, "name": "6e15008aaec8622e292d757d8ca6d393", "fusion_lon": 0.0, "bike_id": "6e15008aaec8622e292d757d8ca6d393", "is_disabled": 0, "is_reserved": 0}, {"rental_uris": {"ios": "https://dc.lft.to/lastmile_qr_scan", "android": "https://dc.lft.to/lastmile_qr_scan"}, "lon": -77.04352933333334, "type": "electric_scooter", "fusion_lat": 0.0, "lat": 38.907154, "name": "f8686000f256a825270e19cb9e9a49ec", "fusion_lon": 0.0, "bike_id": "f8686000f256a825270e19cb9e9a49ec", "is_disabled": 0, "is_reserved": 0}, {"rental_uris": {"ios": "https://dc.lft.to/lastmile_qr_scan", "android": "https://dc.lft.to/lastmile_qr_scan"}, "lon": -77.01597316666667, "type": "electric_scooter", "fusion_lat": 0.0, "lat": 38.8961925, "name": "da096aa5958941ec8aa40f5393bebfff", "fusion_lon": 0.0, "bike_id": "da096aa5958941ec8aa40f5393bebfff", "is_disabled": 0, "is_reserved": 0}, {"rental_uris": {"ios": "https://dc.lft.to/lastmile_qr_scan", "android": "https://dc.lft.to/lastmile_qr_scan"}, "lon": -76.99028433333334, "type": "electric_scooter", "fusion_lat": 0.0, "lat": 38.86408983333333, "name": "805f8dd00c7531051851316e9df9cbad", "fusion_lon": 0.0, "bike_id": "805f8dd00c7531051851316e9df9cbad", "is_disabled": 0, "is_reserved": 0}, {"rental_uris": {"ios": "https://dc.lft.to/lastmile_qr_scan", "android": "https://dc.lft.to/lastmile_qr_scan"}, "lon": -77.0749885, "type": "electric_bike", "fusion_lat": 0.0, "lat": 38.89293133333334, "name": "cc198994e634e23c542c8b8a509929f9", "fusion_lon": 0.0, "bike_id": "cc198994e634e23c542c8b8a509929f9", "is_disabled": 0, "is_reserved": 0}, {"rental_uris": {"ios": "https://dc.lft.to/lastmile_qr_scan", "android": "https://dc.lft.to/lastmile_qr_scan"}, "lon": -77.01361583333333, "type": "electric_scooter", "fusion_lat": 0.0, "lat": 38.87604733333333, "name": "403261b9d5a671e882e52c08b780b7f8", "fusion_lon": 0.0, "bike_id": "403261b9d5a671e882e52c08b780b7f8", "is_disabled": 0, "is_reserved": 0}, {"rental_uris": {"ios": "https://dc.lft.to/lastmile_qr_scan", "android": "https://dc.lft.to/lastmile_qr_scan"}, "lon": -77.02621016666667, "type": "electric_scooter", "fusion_lat": 0.0, "lat": 38.919146166666664, "name": "f3ffe7044baed0daa5191f15bdd64c9c", "fusion_lon": 0.0, "bike_id": "f3ffe7044baed0daa5191f15bdd64c9c", "is_disabled": 0, "is_reserved": 0}, {"rental_uris": {"ios": "https://dc.lft.to/lastmile_qr_scan", "android": "https://dc.lft.to/lastmile_qr_scan"}, "lon": -77.0307755, "type": "electric_scooter", "fusion_lat": 0.0, "lat": 38.899727666666664, "name": "089e98cc2be5ee1750039f0900997358", "fusion_lon": 0.0, "bike_id": "089e98cc2be5ee1750039f0900997358", "is_disabled": 0, "is_reserved": 0}, {"rental_uris": {"ios": "https://dc.lft.to/lastmile_qr_scan", "android": "https://dc.lft.to/lastmile_qr_scan"}, "lon": -77.0793995, "type": "electric_scooter", "fusion_lat": 0.0, "lat": 38.94873, "name": "3393165d5a7fda9199654b10670cb015", "fusion_lon": 0.0, "bike_id": "3393165d5a7fda9199654b10670cb015", "is_disabled": 0, "is_reserved": 0}, {"rental_uris": {"ios": "https://dc.lft.to/lastmile_qr_scan", "android": "https://dc.lft.to/lastmile_qr_scan"}, "lon": -77.01899833333333, "type": "electric_scooter", "fusion_lat": 0.0, "lat": 38.90561116666667, "name": "f3583a430db0c5401bc9edb592c37382", "fusion_lon": 0.0, "bike_id": "f3583a430db0c5401bc9edb592c37382", "is_disabled": 0, "is_reserved": 0}, {"rental_uris": {"ios": "https://dc.lft.to/lastmile_qr_scan", "android": "https://dc.lft.to/lastmile_qr_scan"}, "lon": -77.03957333333334, "type": "electric_scooter", "fusion_lat": 0.0, "lat": 38.919912333333336, "name": "099341600cb78d20dfb898696b6eaeeb", "fusion_lon": 0.0, "bike_id": "099341600cb78d20dfb898696b6eaeeb", "is_disabled": 0, "is_reserved": 0}, {"rental_uris": {"ios": "https://dc.lft.to/lastmile_qr_scan", "android": "https://dc.lft.to/lastmile_qr_scan"}, "lon": -77.0071955, "type": "electric_scooter", "fusion_lat": 0.0, "lat": 38.9134105, "name": "9f4e302c6012ece258c8ffc8e087efbb", "fusion_lon": 0.0, "bike_id": "9f4e302c6012ece258c8ffc8e087efbb", "is_disabled": 0, "is_reserved": 0}, {"rental_uris": {"ios": "https://dc.lft.to/lastmile_qr_scan", "android": "https://dc.lft.to/lastmile_qr_scan"}, "lon": -77.05296966666667, "type": "electric_scooter", "fusion_lat": 0.0, "lat": 38.910168166666665, "name": "6e747f15276a287046f5c784c0d4b246", "fusion_lon": 0.0, "bike_id": "6e747f15276a287046f5c784c0d4b246", "is_disabled": 0, "is_reserved": 0}, {"rental_uris": {"ios": "https://dc.lft.to/lastmile_qr_scan", "android": "https://dc.lft.to/lastmile_qr_scan"}, "lon": -76.92995483333333, "type": "electric_bike", "fusion_lat": 0.0, "lat": 38.887978333333336, "name": "1fab277b8bef2b224822b99367dedced", "fusion_lon": 0.0, "bike_id": "1fab277b8bef2b224822b99367dedced", "is_disabled": 0, "is_reserved": 0}, {"rental_uris": {"ios": "https://dc.lft.to/lastmile_qr_scan", "android": "https://dc.lft.to/lastmile_qr_scan"}, "lon": -77.0021055, "type": "electric_scooter", "fusion_lat": 0.0, "lat": 38.908468666666664, "name": "c58cbc382f3a575e612741541f415d9f", "fusion_lon": 0.0, "bike_id": "c58cbc382f3a575e612741541f415d9f", "is_disabled": 0, "is_reserved": 0}, {"rental_uris": {"ios": "https://dc.lft.to/lastmile_qr_scan", "android": "https://dc.lft.to/lastmile_qr_scan"}, "lon": -77.02888316666666, "type": "electric_scooter", "fusion_lat": 0.0, "lat": 38.91692066666667, "name": "d14ef278dc396853d04240febe61b0f1", "fusion_lon": 0.0, "bike_id": "d14ef278dc396853d04240febe61b0f1", "is_disabled": 0, "is_reserved": 0}, {"rental_uris": {"ios": "https://dc.lft.to/lastmile_qr_scan", "android": "https://dc.lft.to/lastmile_qr_scan"}, "lon": -77.01090966666666, "type": "electric_scooter", "fusion_lat": 0.0, "lat": 38.89399083333333, "name": "714ae7286d40101e3b556bc6d2cc3461", "fusion_lon": 0.0, "bike_id": "714ae7286d40101e3b556bc6d2cc3461", "is_disabled": 0, "is_reserved": 0}, {"rental_uris": {"ios": "https://dc.lft.to/lastmile_qr_scan", "android": "https://dc.lft.to/lastmile_qr_scan"}, "lon": -77.04494, "type": "electric_scooter", "fusion_lat": 0.0, "lat": 38.90652383333333, "name": "6bcfd09d2f3a6357e252b59c27dc5c5e", "fusion_lon": 0.0, "bike_id": "6bcfd09d2f3a6357e252b59c27dc5c5e", "is_disabled": 0, "is_reserved": 0}, {"rental_uris": {"ios": "https://dc.lft.to/lastmile_qr_scan", "android": "https://dc.lft.to/lastmile_qr_scan"}, "lon": -76.98827716666666, "type": "electric_scooter", "fusion_lat": 0.0, "lat": 38.880263666666664, "name": "d141f3e4530bc4afcab24fbf027b2902", "fusion_lon": 0.0, "bike_id": "d141f3e4530bc4afcab24fbf027b2902", "is_disabled": 0, "is_reserved": 0}, {"rental_uris": {"ios": "https://dc.lft.to/lastmile_qr_scan", "android": "https://dc.lft.to/lastmile_qr_scan"}, "lon": -77.11316066666667, "type": "electric_bike", "fusion_lat": 0.0, "lat": 38.85565033333334, "name": "989ff9163c35d81069d313f5170237a9", "fusion_lon": 0.0, "bike_id": "989ff9163c35d81069d313f5170237a9", "is_disabled": 0, "is_reserved": 0}, {"rental_uris": {"ios": "https://dc.lft.to/lastmile_qr_scan", "android": "https://dc.lft.to/lastmile_qr_scan"}, "lon": -77.032099, "type": "electric_scooter", "fusion_lat": 0.0, "lat": 38.887030833333334, "name": "31a0c87595e0642d18cc0b1f8c6a6600", "fusion_lon": 0.0, "bike_id": "31a0c87595e0642d18cc0b1f8c6a6600", "is_disabled": 0, "is_reserved": 0}, {"rental_uris": {"ios": "https://dc.lft.to/lastmile_qr_scan", "android": "https://dc.lft.to/lastmile_qr_scan"}, "lon": -77.03360583333334, "type": "electric_scooter", "fusion_lat": 0.0, "lat": 38.8994905, "name": "913ada5a0b4df151273b53a2807d2096", "fusion_lon": 0.0, "bike_id": "913ada5a0b4df151273b53a2807d2096", "is_disabled": 0, "is_reserved": 0}, {"rental_uris": {"ios": "https://dc.lft.to/lastmile_qr_scan", "android": "https://dc.lft.to/lastmile_qr_scan"}, "lon": -77.02425816666667, "type": "electric_scooter", "fusion_lat": 0.0, "lat": 38.884765333333334, "name": "ac965f8e0b14d70ba500e6d561cbb99c", "fusion_lon": 0.0, "bike_id": "ac965f8e0b14d70ba500e6d561cbb99c", "is_disabled": 0, "is_reserved": 0}, {"rental_uris": {"ios": "https://dc.lft.to/lastmile_qr_scan", "android": "https://dc.lft.to/lastmile_qr_scan"}, "lon": -77.03855333333334, "type": "electric_scooter", "fusion_lat": 0.0, "lat": 38.912048666666664, "name": "cc3ec4092062f924c91c37d59797a287", "fusion_lon": 0.0, "bike_id": "cc3ec4092062f924c91c37d59797a287", "is_disabled": 0, "is_reserved": 0}, {"rental_uris": {"ios": "https://dc.lft.to/lastmile_qr_scan", "android": "https://dc.lft.to/lastmile_qr_scan"}, "lon": -77.03656083333334, "type": "electric_scooter", "fusion_lat": 0.0, "lat": 38.9180845, "name": "81d8cdec846ebc701a1a759a9e90768c", "fusion_lon": 0.0, "bike_id": "81d8cdec846ebc701a1a759a9e90768c", "is_disabled": 0, "is_reserved": 0}, {"rental_uris": {"ios": "https://dc.lft.to/lastmile_qr_scan", "android": "https://dc.lft.to/lastmile_qr_scan"}, "lon": -77.04227333333333, "type": "electric_scooter", "fusion_lat": 0.0, "lat": 38.911088, "name": "26b060230315f27dc3960678415c94e0", "fusion_lon": 0.0, "bike_id": "26b060230315f27dc3960678415c94e0", "is_disabled": 0, "is_reserved": 0}, {"rental_uris": {"ios": "https://dc.lft.to/lastmile_qr_scan", "android": "https://dc.lft.to/lastmile_qr_scan"}, "lon": -77.03252183333333, "type": "electric_scooter", "fusion_lat": 0.0, "lat": 38.921670666666664, "name": "d645131644cb4a00603ce60e743d1282", "fusion_lon": 0.0, "bike_id": "d645131644cb4a00603ce60e743d1282", "is_disabled": 0, "is_reserved": 0}, {"rental_uris": {"ios": "https://dc.lft.to/lastmile_qr_scan", "android": "https://dc.lft.to/lastmile_qr_scan"}, "lon": -76.98690483333333, "type": "electric_scooter", "fusion_lat": 0.0, "lat": 38.912847166666666, "name": "d1aa97a23930505af450c5f5df96375b", "fusion_lon": 0.0, "bike_id": "d1aa97a23930505af450c5f5df96375b", "is_disabled": 0, "is_reserved": 0}, {"rental_uris": {"ios": "https://dc.lft.to/lastmile_qr_scan", "android": "https://dc.lft.to/lastmile_qr_scan"}, "lon": -77.02802883333334, "type": "electric_scooter", "fusion_lat": 0.0, "lat": 38.961941833333334, "name": "dd2f2776d98a0d729c8ec797cac856b0", "fusion_lon": 0.0, "bike_id": "dd2f2776d98a0d729c8ec797cac856b0", "is_disabled": 0, "is_reserved": 0}, {"rental_uris": {"ios": "https://dc.lft.to/lastmile_qr_scan", "android": "https://dc.lft.to/lastmile_qr_scan"}, "lon": -77.09550383333334, "type": "electric_bike", "fusion_lat": 0.0, "lat": 38.83733516666667, "name": "4b4223ad8b8dda03024b973e6c267204", "fusion_lon": 0.0, "bike_id": "4b4223ad8b8dda03024b973e6c267204", "is_disabled": 0, "is_reserved": 0}, {"rental_uris": {"ios": "https://dc.lft.to/lastmile_qr_scan", "android": "https://dc.lft.to/lastmile_qr_scan"}, "lon": -77.02198666666666, "type": "electric_scooter", "fusion_lat": 0.0, "lat": 38.91562733333333, "name": "952cedb72bc4dbcc358d6558d8767db0", "fusion_lon": 0.0, "bike_id": "952cedb72bc4dbcc358d6558d8767db0", "is_disabled": 0, "is_reserved": 0}, {"rental_uris": {"ios": "https://dc.lft.to/lastmile_qr_scan", "android": "https://dc.lft.to/lastmile_qr_scan"}, "lon": -77.0230355, "type": "electric_scooter", "fusion_lat": 0.0, "lat": 38.91849883333333, "name": "1c92b6216b1c2c080d13c109e0651cf4", "fusion_lon": 0.0, "bike_id": "1c92b6216b1c2c080d13c109e0651cf4", "is_disabled": 0, "is_reserved": 0}, {"rental_uris": {"ios": "https://dc.lft.to/lastmile_qr_scan", "android": "https://dc.lft.to/lastmile_qr_scan"}, "lon": -77.0037525, "type": "electric_bike", "fusion_lat": 0.0, "lat": 38.83604833333333, "name": "7cea011640538514585505608c8d48ea", "fusion_lon": 0.0, "bike_id": "7cea011640538514585505608c8d48ea", "is_disabled": 0, "is_reserved": 0}, {"rental_uris": {"ios": "https://dc.lft.to/lastmile_qr_scan", "android": "https://dc.lft.to/lastmile_qr_scan"}, "lon": -76.94634666666667, "type": "electric_scooter", "fusion_lat": 0.0, "lat": 38.898327, "name": "2214d3cbc07afe15e2f72e30f21194fa", "fusion_lon": 0.0, "bike_id": "2214d3cbc07afe15e2f72e30f21194fa", "is_disabled": 0, "is_reserved": 0}, {"rental_uris": {"ios": "https://dc.lft.to/lastmile_qr_scan", "android": "https://dc.lft.to/lastmile_qr_scan"}, "lon": -76.99775416666667, "type": "electric_scooter", "fusion_lat": 0.0, "lat": 38.84426766666667, "name": "645dd160cecc40a067f74ed971bdc679", "fusion_lon": 0.0, "bike_id": "645dd160cecc40a067f74ed971bdc679", "is_disabled": 0, "is_reserved": 0}, {"rental_uris": {"ios": "https://dc.lft.to/lastmile_qr_scan", "android": "https://dc.lft.to/lastmile_qr_scan"}, "lon": -77.04158866666667, "type": "electric_scooter", "fusion_lat": 0.0, "lat": 38.91798583333333, "name": "dce73df0ad69d4437b74b3986900402b", "fusion_lon": 0.0, "bike_id": "dce73df0ad69d4437b74b3986900402b", "is_disabled": 0, "is_reserved": 0}, {"rental_uris": {"ios": "https://dc.lft.to/lastmile_qr_scan", "android": "https://dc.lft.to/lastmile_qr_scan"}, "lon": -77.04388733333333, "type": "electric_scooter", "fusion_lat": 0.0, "lat": 38.91785766666667, "name": "2cbf1d54e6c61aab84b63b906fd4b9cb", "fusion_lon": 0.0, "bike_id": "2cbf1d54e6c61aab84b63b906fd4b9cb", "is_disabled": 0, "is_reserved": 0}, {"rental_uris": {"ios": "https://dc.lft.to/lastmile_qr_scan", "android": "https://dc.lft.to/lastmile_qr_scan"}, "lon": -77.04190516666667, "type": "electric_scooter", "fusion_lat": 0.0, "lat": 38.926145, "name": "6cfe72ba5ae6f15ee03e0054d8a61004", "fusion_lon": 0.0, "bike_id": "6cfe72ba5ae6f15ee03e0054d8a61004", "is_disabled": 0, "is_reserved": 0}, {"rental_uris": {"ios": "https://dc.lft.to/lastmile_qr_scan", "android": "https://dc.lft.to/lastmile_qr_scan"}, "lon": -77.01839616666666, "type": "electric_scooter", "fusion_lat": 0.0, "lat": 38.919659, "name": "a3cb0c6182d5765e1c2ab7d0351b8f71", "fusion_lon": 0.0, "bike_id": "a3cb0c6182d5765e1c2ab7d0351b8f71", "is_disabled": 0, "is_reserved": 0}, {"rental_uris": {"ios": "https://dc.lft.to/lastmile_qr_scan", "android": "https://dc.lft.to/lastmile_qr_scan"}, "lon": -77.04645133333334, "type": "electric_bike", "fusion_lat": 0.0, "lat": 38.8521345, "name": "dd3944837b117ae978ae24e5c67d267d", "fusion_lon": 0.0, "bike_id": "dd3944837b117ae978ae24e5c67d267d", "is_disabled": 0, "is_reserved": 0}, {"rental_uris": {"ios": "https://dc.lft.to/lastmile_qr_scan", "android": "https://dc.lft.to/lastmile_qr_scan"}, "lon": -77.01121483333333, "type": "electric_scooter", "fusion_lat": 0.0, "lat": 38.895021166666666, "name": "c97b3b2f83aab0bb86504ac17c30e433", "fusion_lon": 0.0, "bike_id": "c97b3b2f83aab0bb86504ac17c30e433", "is_disabled": 0, "is_reserved": 0}, {"rental_uris": {"ios": "https://dc.lft.to/lastmile_qr_scan", "android": "https://dc.lft.to/lastmile_qr_scan"}, "lon": -77.02562733333333, "type": "electric_scooter", "fusion_lat": 0.0, "lat": 38.92536666666667, "name": "716cda1726c43cb5e8475d1a9451c49a", "fusion_lon": 0.0, "bike_id": "716cda1726c43cb5e8475d1a9451c49a", "is_disabled": 0, "is_reserved": 0}, {"rental_uris": {"ios": "https://dc.lft.to/lastmile_qr_scan", "android": "https://dc.lft.to/lastmile_qr_scan"}, "lon": -76.9994815, "type": "electric_scooter", "fusion_lat": 0.0, "lat": 38.84297183333334, "name": "ef134e5d14e8dbe4d7ff83e17550a64e", "fusion_lon": 0.0, "bike_id": "ef134e5d14e8dbe4d7ff83e17550a64e", "is_disabled": 0, "is_reserved": 0}, {"rental_uris": {"ios": "https://dc.lft.to/lastmile_qr_scan", "android": "https://dc.lft.to/lastmile_qr_scan"}, "lon": -77.0419135, "type": "electric_scooter", "fusion_lat": 0.0, "lat": 38.92024383333333, "name": "16328be76852018bb12d7fca7eb731d9", "fusion_lon": 0.0, "bike_id": "16328be76852018bb12d7fca7eb731d9", "is_disabled": 0, "is_reserved": 0}, {"rental_uris": {"ios": "https://dc.lft.to/lastmile_qr_scan", "android": "https://dc.lft.to/lastmile_qr_scan"}, "lon": -77.03322466666667, "type": "electric_scooter", "fusion_lat": 0.0, "lat": 38.900311, "name": "55a6c7d098739f0be94847bec5530699", "fusion_lon": 0.0, "bike_id": "55a6c7d098739f0be94847bec5530699", "is_disabled": 0, "is_reserved": 0}, {"rental_uris": {"ios": "https://dc.lft.to/lastmile_qr_scan", "android": "https://dc.lft.to/lastmile_qr_scan"}, "lon": -76.947326, "type": "electric_scooter", "fusion_lat": 0.0, "lat": 38.896832833333335, "name": "9b3b02e5674e0f8f68607b6ffaf598ab", "fusion_lon": 0.0, "bike_id": "9b3b02e5674e0f8f68607b6ffaf598ab", "is_disabled": 0, "is_reserved": 0}, {"rental_uris": {"ios": "https://dc.lft.to/lastmile_qr_scan", "android": "https://dc.lft.to/lastmile_qr_scan"}, "lon": -77.03862966666667, "type": "electric_scooter", "fusion_lat": 0.0, "lat": 38.91553783333333, "name": "e904eeb66a00cc091cf219f6a0d40023", "fusion_lon": 0.0, "bike_id": "e904eeb66a00cc091cf219f6a0d40023", "is_disabled": 0, "is_reserved": 0}, {"rental_uris": {"ios": "https://dc.lft.to/lastmile_qr_scan", "android": "https://dc.lft.to/lastmile_qr_scan"}, "lon": -77.02982116666666, "type": "electric_scooter", "fusion_lat": 0.0, "lat": 38.90899833333334, "name": "dc2e172854baff207df41fe74aea4711", "fusion_lon": 0.0, "bike_id": "dc2e172854baff207df41fe74aea4711", "is_disabled": 0, "is_reserved": 0}, {"rental_uris": {"ios": "https://dc.lft.to/lastmile_qr_scan", "android": "https://dc.lft.to/lastmile_qr_scan"}, "lon": -76.99659633333333, "type": "electric_scooter", "fusion_lat": 0.0, "lat": 38.93223783333333, "name": "8212838b3d226a43135fd682a0f2667e", "fusion_lon": 0.0, "bike_id": "8212838b3d226a43135fd682a0f2667e", "is_disabled": 0, "is_reserved": 0}, {"rental_uris": {"ios": "https://dc.lft.to/lastmile_qr_scan", "android": "https://dc.lft.to/lastmile_qr_scan"}, "lon": -77.0318295, "type": "electric_scooter", "fusion_lat": 0.0, "lat": 38.919191166666664, "name": "cba67294da7af94be7f03f4b7220c40f", "fusion_lon": 0.0, "bike_id": "cba67294da7af94be7f03f4b7220c40f", "is_disabled": 0, "is_reserved": 0}, {"rental_uris": {"ios": "https://dc.lft.to/lastmile_qr_scan", "android": "https://dc.lft.to/lastmile_qr_scan"}, "lon": -77.02216983333334, "type": "electric_bike", "fusion_lat": 0.0, "lat": 38.883324333333334, "name": "162c9b7418f33907e1ecb8b0f629a634", "fusion_lon": 0.0, "bike_id": "162c9b7418f33907e1ecb8b0f629a634", "is_disabled": 0, "is_reserved": 0}, {"rental_uris": {"ios": "https://dc.lft.to/lastmile_qr_scan", "android": "https://dc.lft.to/lastmile_qr_scan"}, "lon": -77.024373, "type": "electric_scooter", "fusion_lat": 0.0, "lat": 38.9188325, "name": "e5cef2061c27decb4fa290c5c1f9e212", "fusion_lon": 0.0, "bike_id": "e5cef2061c27decb4fa290c5c1f9e212", "is_disabled": 0, "is_reserved": 0}, {"rental_uris": {"ios": "https://dc.lft.to/lastmile_qr_scan", "android": "https://dc.lft.to/lastmile_qr_scan"}, "lon": -77.08201533333333, "type": "electric_bike", "fusion_lat": 0.0, "lat": 38.92210566666667, "name": "3937d761460005d9fa4029c18ce863f0", "fusion_lon": 0.0, "bike_id": "3937d761460005d9fa4029c18ce863f0", "is_disabled": 0, "is_reserved": 0}, {"rental_uris": {"ios": "https://dc.lft.to/lastmile_qr_scan", "android": "https://dc.lft.to/lastmile_qr_scan"}, "lon": -77.03184266666666, "type": "electric_scooter", "fusion_lat": 0.0, "lat": 38.91593433333333, "name": "e5a051d5676f4241692661cb0a660d1b", "fusion_lon": 0.0, "bike_id": "e5a051d5676f4241692661cb0a660d1b", "is_disabled": 0, "is_reserved": 0}, {"rental_uris": {"ios": "https://dc.lft.to/lastmile_qr_scan", "android": "https://dc.lft.to/lastmile_qr_scan"}, "lon": -77.05677083333333, "type": "electric_scooter", "fusion_lat": 0.0, "lat": 38.923313666666665, "name": "7c73ae40eae69486c83f82f18930c49e", "fusion_lon": 0.0, "bike_id": "7c73ae40eae69486c83f82f18930c49e", "is_disabled": 0, "is_reserved": 0}, {"rental_uris": {"ios": "https://dc.lft.to/lastmile_qr_scan", "android": "https://dc.lft.to/lastmile_qr_scan"}, "lon": -76.97960233333333, "type": "electric_scooter", "fusion_lat": 0.0, "lat": 38.903811, "name": "0998482713d44bcba37a4838354c5512", "fusion_lon": 0.0, "bike_id": "0998482713d44bcba37a4838354c5512", "is_disabled": 0, "is_reserved": 0}, {"rental_uris": {"ios": "https://dc.lft.to/lastmile_qr_scan", "android": "https://dc.lft.to/lastmile_qr_scan"}, "lon": -77.02869466666667, "type": "electric_scooter", "fusion_lat": 0.0, "lat": 38.907293, "name": "4a5ae22909323c09c242cb58a0354f72", "fusion_lon": 0.0, "bike_id": "4a5ae22909323c09c242cb58a0354f72", "is_disabled": 0, "is_reserved": 0}, {"rental_uris": {"ios": "https://dc.lft.to/lastmile_qr_scan", "android": "https://dc.lft.to/lastmile_qr_scan"}, "lon": -77.03285483333333, "type": "electric_scooter", "fusion_lat": 0.0, "lat": 38.93983733333334, "name": "da635c563c895ae7799d1fce5c89b914", "fusion_lon": 0.0, "bike_id": "da635c563c895ae7799d1fce5c89b914", "is_disabled": 0, "is_reserved": 0}, {"rental_uris": {"ios": "https://dc.lft.to/lastmile_qr_scan", "android": "https://dc.lft.to/lastmile_qr_scan"}, "lon": -76.98685716666667, "type": "electric_scooter", "fusion_lat": 0.0, "lat": 38.88212633333333, "name": "bf277d47d2d38667da4d72a1c4bbd729", "fusion_lon": 0.0, "bike_id": "bf277d47d2d38667da4d72a1c4bbd729", "is_disabled": 0, "is_reserved": 0}, {"rental_uris": {"ios": "https://dc.lft.to/lastmile_qr_scan", "android": "https://dc.lft.to/lastmile_qr_scan"}, "lon": -77.03275216666667, "type": "electric_scooter", "fusion_lat": 0.0, "lat": 38.947846, "name": "6b5f014b3338c0d3c19f24d8261e785b", "fusion_lon": 0.0, "bike_id": "6b5f014b3338c0d3c19f24d8261e785b", "is_disabled": 0, "is_reserved": 0}, {"rental_uris": {"ios": "https://dc.lft.to/lastmile_qr_scan", "android": "https://dc.lft.to/lastmile_qr_scan"}, "lon": -77.00214, "type": "electric_scooter", "fusion_lat": 0.0, "lat": 38.90223533333333, "name": "d857443d4f042bfadb22a16ac529eb6f", "fusion_lon": 0.0, "bike_id": "d857443d4f042bfadb22a16ac529eb6f", "is_disabled": 0, "is_reserved": 0}, {"rental_uris": {"ios": "https://dc.lft.to/lastmile_qr_scan", "android": "https://dc.lft.to/lastmile_qr_scan"}, "lon": -77.05160033333334, "type": "electric_scooter", "fusion_lat": 0.0, "lat": 38.897696, "name": "b97b1d7a640a0db4a5cd861797bc26e2", "fusion_lon": 0.0, "bike_id": "b97b1d7a640a0db4a5cd861797bc26e2", "is_disabled": 0, "is_reserved": 0}, {"rental_uris": {"ios": "https://dc.lft.to/lastmile_qr_scan", "android": "https://dc.lft.to/lastmile_qr_scan"}, "lon": -76.99462383333334, "type": "electric_bike", "fusion_lat": 0.0, "lat": 38.940706, "name": "8e2b17e80bdc7346433ae62743c76524", "fusion_lon": 0.0, "bike_id": "8e2b17e80bdc7346433ae62743c76524", "is_disabled": 0, "is_reserved": 0}, {"rental_uris": {"ios": "https://dc.lft.to/lastmile_qr_scan", "android": "https://dc.lft.to/lastmile_qr_scan"}, "lon": -77.04656933333334, "type": "electric_scooter", "fusion_lat": 0.0, "lat": 38.89336733333333, "name": "ad73ed2fb8180f555654d0d175fbf6b6", "fusion_lon": 0.0, "bike_id": "ad73ed2fb8180f555654d0d175fbf6b6", "is_disabled": 0, "is_reserved": 0}, {"rental_uris": {"ios": "https://dc.lft.to/lastmile_qr_scan", "android": "https://dc.lft.to/lastmile_qr_scan"}, "lon": -77.12046783333334, "type": "electric_bike", "fusion_lat": 0.0, "lat": 38.85509233333333, "name": "1a702ccfea8e10eea0fcd6574c78211f", "fusion_lon": 0.0, "bike_id": "1a702ccfea8e10eea0fcd6574c78211f", "is_disabled": 0, "is_reserved": 0}, {"rental_uris": {"ios": "https://dc.lft.to/lastmile_qr_scan", "android": "https://dc.lft.to/lastmile_qr_scan"}, "lon": -77.03256133333333, "type": "electric_scooter", "fusion_lat": 0.0, "lat": 38.9040465, "name": "c9be430643ea7c64e765d48e5da9e0de", "fusion_lon": 0.0, "bike_id": "c9be430643ea7c64e765d48e5da9e0de", "is_disabled": 0, "is_reserved": 0}, {"rental_uris": {"ios": "https://dc.lft.to/lastmile_qr_scan", "android": "https://dc.lft.to/lastmile_qr_scan"}, "lon": -77.03179, "type": "electric_scooter", "fusion_lat": 0.0, "lat": 38.88627, "name": "5fa312693161642bdc0998c1a23d26bd", "fusion_lon": 0.0, "bike_id": "5fa312693161642bdc0998c1a23d26bd", "is_disabled": 0, "is_reserved": 0}, {"rental_uris": {"ios": "https://dc.lft.to/lastmile_qr_scan", "android": "https://dc.lft.to/lastmile_qr_scan"}, "lon": -77.033221, "type": "electric_scooter", "fusion_lat": 0.0, "lat": 38.8990725, "name": "0d1cd56c2ce01574ae8ba684fde20e53", "fusion_lon": 0.0, "bike_id": "0d1cd56c2ce01574ae8ba684fde20e53", "is_disabled": 0, "is_reserved": 0}, {"rental_uris": {"ios": "https://dc.lft.to/lastmile_qr_scan", "android": "https://dc.lft.to/lastmile_qr_scan"}, "lon": -76.94970983333333, "type": "electric_scooter", "fusion_lat": 0.0, "lat": 38.893753333333336, "name": "6af7d7cead1e6f719c3e8acf1858f959", "fusion_lon": 0.0, "bike_id": "6af7d7cead1e6f719c3e8acf1858f959", "is_disabled": 0, "is_reserved": 0}, {"rental_uris": {"ios": "https://dc.lft.to/lastmile_qr_scan", "android": "https://dc.lft.to/lastmile_qr_scan"}, "lon": -76.9317785, "type": "electric_scooter", "fusion_lat": 0.0, "lat": 38.8988555, "name": "7e366cf5d12f4beacff4ec33bf5e4f2b", "fusion_lon": 0.0, "bike_id": "7e366cf5d12f4beacff4ec33bf5e4f2b", "is_disabled": 0, "is_reserved": 0}, {"rental_uris": {"ios": "https://dc.lft.to/lastmile_qr_scan", "android": "https://dc.lft.to/lastmile_qr_scan"}, "lon": -77.03470833333333, "type": "electric_scooter", "fusion_lat": 0.0, "lat": 38.934442833333335, "name": "c62eb969732e59fde293d5583557c64a", "fusion_lon": 0.0, "bike_id": "c62eb969732e59fde293d5583557c64a", "is_disabled": 0, "is_reserved": 0}, {"rental_uris": {"ios": "https://dc.lft.to/lastmile_qr_scan", "android": "https://dc.lft.to/lastmile_qr_scan"}, "lon": -77.031415, "type": "electric_scooter", "fusion_lat": 0.0, "lat": 38.914022833333334, "name": "cf6f60a335e7464a9b5b8e21b0e7c7e0", "fusion_lon": 0.0, "bike_id": "cf6f60a335e7464a9b5b8e21b0e7c7e0", "is_disabled": 0, "is_reserved": 0}, {"rental_uris": {"ios": "https://dc.lft.to/lastmile_qr_scan", "android": "https://dc.lft.to/lastmile_qr_scan"}, "lon": -76.98998566666667, "type": "electric_scooter", "fusion_lat": 0.0, "lat": 38.903909, "name": "7277df1d06584e0a0a842f1fe7588871", "fusion_lon": 0.0, "bike_id": "7277df1d06584e0a0a842f1fe7588871", "is_disabled": 0, "is_reserved": 0}, {"rental_uris": {"ios": "https://dc.lft.to/lastmile_qr_scan", "android": "https://dc.lft.to/lastmile_qr_scan"}, "lon": -77.0190185, "type": "electric_scooter", "fusion_lat": 0.0, "lat": 38.90359766666667, "name": "ca5e3af4895905fa5426d09eaed38a29", "fusion_lon": 0.0, "bike_id": "ca5e3af4895905fa5426d09eaed38a29", "is_disabled": 0, "is_reserved": 0}, {"rental_uris": {"ios": "https://dc.lft.to/lastmile_qr_scan", "android": "https://dc.lft.to/lastmile_qr_scan"}, "lon": -77.03752516666667, "type": "electric_scooter", "fusion_lat": 0.0, "lat": 38.9127215, "name": "c0065d8b45e74aae034381716ebebd6a", "fusion_lon": 0.0, "bike_id": "c0065d8b45e74aae034381716ebebd6a", "is_disabled": 0, "is_reserved": 0}, {"rental_uris": {"ios": "https://dc.lft.to/lastmile_qr_scan", "android": "https://dc.lft.to/lastmile_qr_scan"}, "lon": -76.99835783333333, "type": "electric_scooter", "fusion_lat": 0.0, "lat": 38.900355166666664, "name": "06ae972a940763c96e8a8400eff66c15", "fusion_lon": 0.0, "bike_id": "06ae972a940763c96e8a8400eff66c15", "is_disabled": 0, "is_reserved": 0}, {"rental_uris": {"ios": "https://dc.lft.to/lastmile_qr_scan", "android": "https://dc.lft.to/lastmile_qr_scan"}, "lon": -77.057572, "type": "electric_scooter", "fusion_lat": 0.0, "lat": 38.934175833333335, "name": "844ec35e1e19b19f3a29edea8f398b68", "fusion_lon": 0.0, "bike_id": "844ec35e1e19b19f3a29edea8f398b68", "is_disabled": 0, "is_reserved": 0}, {"rental_uris": {"ios": "https://dc.lft.to/lastmile_qr_scan", "android": "https://dc.lft.to/lastmile_qr_scan"}, "lon": -77.03091716666667, "type": "electric_scooter", "fusion_lat": 0.0, "lat": 38.916936666666665, "name": "4633fc3d4da55785be69add0651ad1d8", "fusion_lon": 0.0, "bike_id": "4633fc3d4da55785be69add0651ad1d8", "is_disabled": 0, "is_reserved": 0}, {"rental_uris": {"ios": "https://dc.lft.to/lastmile_qr_scan", "android": "https://dc.lft.to/lastmile_qr_scan"}, "lon": -77.059342, "type": "electric_scooter", "fusion_lat": 0.0, "lat": 38.90951416666667, "name": "31b51bfbb8a7e8ed87d2ddba967989d7", "fusion_lon": 0.0, "bike_id": "31b51bfbb8a7e8ed87d2ddba967989d7", "is_disabled": 0, "is_reserved": 0}, {"rental_uris": {"ios": "https://dc.lft.to/lastmile_qr_scan", "android": "https://dc.lft.to/lastmile_qr_scan"}, "lon": -77.01021466666667, "type": "electric_scooter", "fusion_lat": 0.0, "lat": 38.91805816666667, "name": "4f8fb15b4ee9296b4dba3c24e7d40d35", "fusion_lon": 0.0, "bike_id": "4f8fb15b4ee9296b4dba3c24e7d40d35", "is_disabled": 0, "is_reserved": 0}, {"rental_uris": {"ios": "https://dc.lft.to/lastmile_qr_scan", "android": "https://dc.lft.to/lastmile_qr_scan"}, "lon": -77.01991616666666, "type": "electric_scooter", "fusion_lat": 0.0, "lat": 38.93778783333333, "name": "cb9281756663516c81ecb9297b33b52b", "fusion_lon": 0.0, "bike_id": "cb9281756663516c81ecb9297b33b52b", "is_disabled": 0, "is_reserved": 0}, {"rental_uris": {"ios": "https://dc.lft.to/lastmile_qr_scan", "android": "https://dc.lft.to/lastmile_qr_scan"}, "lon": -76.99553866666666, "type": "electric_scooter", "fusion_lat": 0.0, "lat": 38.862318, "name": "b49faff4eee2265c9c87386428007655", "fusion_lon": 0.0, "bike_id": "b49faff4eee2265c9c87386428007655", "is_disabled": 0, "is_reserved": 0}, {"rental_uris": {"ios": "https://dc.lft.to/lastmile_qr_scan", "android": "https://dc.lft.to/lastmile_qr_scan"}, "lon": -76.98311766666667, "type": "electric_scooter", "fusion_lat": 0.0, "lat": 38.89978383333333, "name": "88449c1632c4fd6dbbcd2ecf017a7ab1", "fusion_lon": 0.0, "bike_id": "88449c1632c4fd6dbbcd2ecf017a7ab1", "is_disabled": 0, "is_reserved": 0}, {"rental_uris": {"ios": "https://dc.lft.to/lastmile_qr_scan", "android": "https://dc.lft.to/lastmile_qr_scan"}, "lon": -77.003527, "type": "electric_scooter", "fusion_lat": 0.0, "lat": 38.89157433333333, "name": "4352beb5aea11a7919238747fbfe6f2b", "fusion_lon": 0.0, "bike_id": "4352beb5aea11a7919238747fbfe6f2b", "is_disabled": 0, "is_reserved": 0}, {"rental_uris": {"ios": "https://dc.lft.to/lastmile_qr_scan", "android": "https://dc.lft.to/lastmile_qr_scan"}, "lon": -77.19910566666667, "type": "electric_bike", "fusion_lat": 0.0, "lat": 38.875307166666666, "name": "61f8683941796d6fe9eb65ae28b62a3c", "fusion_lon": 0.0, "bike_id": "61f8683941796d6fe9eb65ae28b62a3c", "is_disabled": 0, "is_reserved": 0}, {"rental_uris": {"ios": "https://dc.lft.to/lastmile_qr_scan", "android": "https://dc.lft.to/lastmile_qr_scan"}, "lon": -77.029475, "type": "electric_bike", "fusion_lat": 0.0, "lat": 38.911569666666665, "name": "c2d83595c754f7c7a95d3fd8b0d9eb99", "fusion_lon": 0.0, "bike_id": "c2d83595c754f7c7a95d3fd8b0d9eb99", "is_disabled": 0, "is_reserved": 0}, {"rental_uris": {"ios": "https://dc.lft.to/lastmile_qr_scan", "android": "https://dc.lft.to/lastmile_qr_scan"}, "lon": -77.024777, "type": "electric_scooter", "fusion_lat": 0.0, "lat": 38.93355116666667, "name": "bb6b8b91c6ed8d507ea02d83241419fc", "fusion_lon": 0.0, "bike_id": "bb6b8b91c6ed8d507ea02d83241419fc", "is_disabled": 0, "is_reserved": 0}, {"rental_uris": {"ios": "https://dc.lft.to/lastmile_qr_scan", "android": "https://dc.lft.to/lastmile_qr_scan"}, "lon": -77.149905, "type": "electric_bike", "fusion_lat": 0.0, "lat": 39.09461866666667, "name": "355fb05b05c23040e45032a5c67892d5", "fusion_lon": 0.0, "bike_id": "355fb05b05c23040e45032a5c67892d5", "is_disabled": 0, "is_reserved": 0}, {"rental_uris": {"ios": "https://dc.lft.to/lastmile_qr_scan", "android": "https://dc.lft.to/lastmile_qr_scan"}, "lon": -77.02484733333333, "type": "electric_scooter", "fusion_lat": 0.0, "lat": 38.931029333333335, "name": "ab3eafb9eadc297800aa98af5abe8aa1", "fusion_lon": 0.0, "bike_id": "ab3eafb9eadc297800aa98af5abe8aa1", "is_disabled": 0, "is_reserved": 0}, {"rental_uris": {"ios": "https://dc.lft.to/lastmile_qr_scan", "android": "https://dc.lft.to/lastmile_qr_scan"}, "lon": -77.0065035, "type": "electric_scooter", "fusion_lat": 0.0, "lat": 38.90862383333333, "name": "bf5ddaacd24afe63fe10913036feedbe", "fusion_lon": 0.0, "bike_id": "bf5ddaacd24afe63fe10913036feedbe", "is_disabled": 0, "is_reserved": 0}, {"rental_uris": {"ios": "https://dc.lft.to/lastmile_qr_scan", "android": "https://dc.lft.to/lastmile_qr_scan"}, "lon": -77.03446166666667, "type": "electric_scooter", "fusion_lat": 0.0, "lat": 38.90946116666667, "name": "f4054d01f8d74f626dacbbdddfb778a8", "fusion_lon": 0.0, "bike_id": "f4054d01f8d74f626dacbbdddfb778a8", "is_disabled": 0, "is_reserved": 0}, {"rental_uris": {"ios": "https://dc.lft.to/lastmile_qr_scan", "android": "https://dc.lft.to/lastmile_qr_scan"}, "lon": -76.9759535, "type": "electric_scooter", "fusion_lat": 0.0, "lat": 38.903345333333334, "name": "ce6f2b306c25ccfbf2418e93b90ca068", "fusion_lon": 0.0, "bike_id": "ce6f2b306c25ccfbf2418e93b90ca068", "is_disabled": 0, "is_reserved": 0}, {"rental_uris": {"ios": "https://dc.lft.to/lastmile_qr_scan", "android": "https://dc.lft.to/lastmile_qr_scan"}, "lon": -77.0513465, "type": "electric_scooter", "fusion_lat": 0.0, "lat": 38.89913166666667, "name": "74accadf53681cad0b59b3155923164f", "fusion_lon": 0.0, "bike_id": "74accadf53681cad0b59b3155923164f", "is_disabled": 0, "is_reserved": 0}, {"rental_uris": {"ios": "https://dc.lft.to/lastmile_qr_scan", "android": "https://dc.lft.to/lastmile_qr_scan"}, "lon": -77.04185983333333, "type": "electric_scooter", "fusion_lat": 0.0, "lat": 38.9119475, "name": "d205bab448d53e8e0934b287a21e777a", "fusion_lon": 0.0, "bike_id": "d205bab448d53e8e0934b287a21e777a", "is_disabled": 0, "is_reserved": 0}, {"rental_uris": {"ios": "https://dc.lft.to/lastmile_qr_scan", "android": "https://dc.lft.to/lastmile_qr_scan"}, "lon": -77.04164733333333, "type": "electric_scooter", "fusion_lat": 0.0, "lat": 38.90244883333333, "name": "cc74178066f7c08f6f10ba31c1f813ea", "fusion_lon": 0.0, "bike_id": "cc74178066f7c08f6f10ba31c1f813ea", "is_disabled": 0, "is_reserved": 0}, {"rental_uris": {"ios": "https://dc.lft.to/lastmile_qr_scan", "android": "https://dc.lft.to/lastmile_qr_scan"}, "lon": -77.0033405, "type": "electric_scooter", "fusion_lat": 0.0, "lat": 38.8935625, "name": "510e11f755b8951e711d69366707e800", "fusion_lon": 0.0, "bike_id": "510e11f755b8951e711d69366707e800", "is_disabled": 0, "is_reserved": 0}, {"rental_uris": {"ios": "https://dc.lft.to/lastmile_qr_scan", "android": "https://dc.lft.to/lastmile_qr_scan"}, "lon": -77.0435315, "type": "electric_bike", "fusion_lat": 0.0, "lat": 38.92065083333333, "name": "e13cf2dfefcd529fd4f4040a6765474a", "fusion_lon": 0.0, "bike_id": "e13cf2dfefcd529fd4f4040a6765474a", "is_disabled": 0, "is_reserved": 0}, {"rental_uris": {"ios": "https://dc.lft.to/lastmile_qr_scan", "android": "https://dc.lft.to/lastmile_qr_scan"}, "lon": -77.04374616666666, "type": "electric_scooter", "fusion_lat": 0.0, "lat": 38.9333955, "name": "a085a88bb4e34c25f6d81edaed3fc181", "fusion_lon": 0.0, "bike_id": "a085a88bb4e34c25f6d81edaed3fc181", "is_disabled": 0, "is_reserved": 0}, {"rental_uris": {"ios": "https://dc.lft.to/lastmile_qr_scan", "android": "https://dc.lft.to/lastmile_qr_scan"}, "lon": -77.00242583333333, "type": "electric_bike", "fusion_lat": 0.0, "lat": 38.90879316666667, "name": "93f6b97ec62fc335bb345368eb231e31", "fusion_lon": 0.0, "bike_id": "93f6b97ec62fc335bb345368eb231e31", "is_disabled": 0, "is_reserved": 0}, {"rental_uris": {"ios": "https://dc.lft.to/lastmile_qr_scan", "android": "https://dc.lft.to/lastmile_qr_scan"}, "lon": -77.03365516666666, "type": "electric_scooter", "fusion_lat": 0.0, "lat": 38.93587083333333, "name": "d9dcc911530229089af8f087d69058fe", "fusion_lon": 0.0, "bike_id": "d9dcc911530229089af8f087d69058fe", "is_disabled": 0, "is_reserved": 0}, {"rental_uris": {"ios": "https://dc.lft.to/lastmile_qr_scan", "android": "https://dc.lft.to/lastmile_qr_scan"}, "lon": -77.0210315, "type": "electric_scooter", "fusion_lat": 0.0, "lat": 38.88511616666667, "name": "89995c041d3bcee96c84e84330b8b91d", "fusion_lon": 0.0, "bike_id": "89995c041d3bcee96c84e84330b8b91d", "is_disabled": 0, "is_reserved": 0}, {"rental_uris": {"ios": "https://dc.lft.to/lastmile_qr_scan", "android": "https://dc.lft.to/lastmile_qr_scan"}, "lon": -77.02597433333334, "type": "electric_scooter", "fusion_lat": 0.0, "lat": 38.88741366666667, "name": "ccd276f853ee8779ca63445a459c8e4f", "fusion_lon": 0.0, "bike_id": "ccd276f853ee8779ca63445a459c8e4f", "is_disabled": 0, "is_reserved": 0}, {"rental_uris": {"ios": "https://dc.lft.to/lastmile_qr_scan", "android": "https://dc.lft.to/lastmile_qr_scan"}, "lon": -77.02406616666667, "type": "electric_scooter", "fusion_lat": 0.0, "lat": 38.915943166666665, "name": "12efa974075bd1bd72093a17195c8450", "fusion_lon": 0.0, "bike_id": "12efa974075bd1bd72093a17195c8450", "is_disabled": 0, "is_reserved": 0}, {"rental_uris": {"ios": "https://dc.lft.to/lastmile_qr_scan", "android": "https://dc.lft.to/lastmile_qr_scan"}, "lon": -77.0221325, "type": "electric_scooter", "fusion_lat": 0.0, "lat": 38.91412583333333, "name": "dc8869e3a85be4d340a9f8a0c003e96c", "fusion_lon": 0.0, "bike_id": "dc8869e3a85be4d340a9f8a0c003e96c", "is_disabled": 0, "is_reserved": 0}, {"rental_uris": {"ios": "https://dc.lft.to/lastmile_qr_scan", "android": "https://dc.lft.to/lastmile_qr_scan"}, "lon": -77.05517116666667, "type": "electric_scooter", "fusion_lat": 0.0, "lat": 38.930041833333334, "name": "792e0fd4a44c4c6cf637746c043224be", "fusion_lon": 0.0, "bike_id": "792e0fd4a44c4c6cf637746c043224be", "is_disabled": 0, "is_reserved": 0}, {"rental_uris": {"ios": "https://dc.lft.to/lastmile_qr_scan", "android": "https://dc.lft.to/lastmile_qr_scan"}, "lon": -77.04486083333333, "type": "electric_scooter", "fusion_lat": 0.0, "lat": 38.90942116666667, "name": "4836869fbc97d90bbdec0e29e239052b", "fusion_lon": 0.0, "bike_id": "4836869fbc97d90bbdec0e29e239052b", "is_disabled": 0, "is_reserved": 0}, {"rental_uris": {"ios": "https://dc.lft.to/lastmile_qr_scan", "android": "https://dc.lft.to/lastmile_qr_scan"}, "lon": -76.99627933333333, "type": "electric_scooter", "fusion_lat": 0.0, "lat": 38.885538833333335, "name": "6e366de308ac3c498df466479eb565a8", "fusion_lon": 0.0, "bike_id": "6e366de308ac3c498df466479eb565a8", "is_disabled": 0, "is_reserved": 0}, {"rental_uris": {"ios": "https://dc.lft.to/lastmile_qr_scan", "android": "https://dc.lft.to/lastmile_qr_scan"}, "lon": -77.05008633333334, "type": "electric_scooter", "fusion_lat": 0.0, "lat": 38.90145416666667, "name": "96ebebeda33d81cf318a5a0c586bbd87", "fusion_lon": 0.0, "bike_id": "96ebebeda33d81cf318a5a0c586bbd87", "is_disabled": 0, "is_reserved": 0}, {"rental_uris": {"ios": "https://dc.lft.to/lastmile_qr_scan", "android": "https://dc.lft.to/lastmile_qr_scan"}, "lon": -77.02393916666666, "type": "electric_scooter", "fusion_lat": 0.0, "lat": 38.957364, "name": "d609097e9e4262d8714e7bc8aac5858d", "fusion_lon": 0.0, "bike_id": "d609097e9e4262d8714e7bc8aac5858d", "is_disabled": 0, "is_reserved": 0}, {"rental_uris": {"ios": "https://dc.lft.to/lastmile_qr_scan", "android": "https://dc.lft.to/lastmile_qr_scan"}, "lon": -76.99255483333333, "type": "electric_scooter", "fusion_lat": 0.0, "lat": 38.91978816666666, "name": "6f8e787a5b6c655a7b173ac88c1fb015", "fusion_lon": 0.0, "bike_id": "6f8e787a5b6c655a7b173ac88c1fb015", "is_disabled": 0, "is_reserved": 0}, {"rental_uris": {"ios": "https://dc.lft.to/lastmile_qr_scan", "android": "https://dc.lft.to/lastmile_qr_scan"}, "lon": -76.98728583333333, "type": "electric_scooter", "fusion_lat": 0.0, "lat": 38.867182, "name": "699deb353b0cb803e88ec29311ded394", "fusion_lon": 0.0, "bike_id": "699deb353b0cb803e88ec29311ded394", "is_disabled": 0, "is_reserved": 0}, {"rental_uris": {"ios": "https://dc.lft.to/lastmile_qr_scan", "android": "https://dc.lft.to/lastmile_qr_scan"}, "lon": -77.03215066666667, "type": "electric_scooter", "fusion_lat": 0.0, "lat": 38.91692966666667, "name": "d2060a3ac09b665bfc60f85dabb0f9d5", "fusion_lon": 0.0, "bike_id": "d2060a3ac09b665bfc60f85dabb0f9d5", "is_disabled": 0, "is_reserved": 0}, {"rental_uris": {"ios": "https://dc.lft.to/lastmile_qr_scan", "android": "https://dc.lft.to/lastmile_qr_scan"}, "lon": -77.01114666666666, "type": "electric_scooter", "fusion_lat": 0.0, "lat": 38.870672666666664, "name": "836924b2cfac90ba365d2a6eb1387761", "fusion_lon": 0.0, "bike_id": "836924b2cfac90ba365d2a6eb1387761", "is_disabled": 0, "is_reserved": 0}, {"rental_uris": {"ios": "https://dc.lft.to/lastmile_qr_scan", "android": "https://dc.lft.to/lastmile_qr_scan"}, "lon": -77.019743, "type": "electric_scooter", "fusion_lat": 0.0, "lat": 38.90238566666667, "name": "f2e818611f0a55c040962f7c4efbe320", "fusion_lon": 0.0, "bike_id": "f2e818611f0a55c040962f7c4efbe320", "is_disabled": 0, "is_reserved": 0}, {"rental_uris": {"ios": "https://dc.lft.to/lastmile_qr_scan", "android": "https://dc.lft.to/lastmile_qr_scan"}, "lon": -77.01791166666666, "type": "electric_scooter", "fusion_lat": 0.0, "lat": 38.9056165, "name": "fc10b98e6dca44186d65270b0399ae5f", "fusion_lon": 0.0, "bike_id": "fc10b98e6dca44186d65270b0399ae5f", "is_disabled": 0, "is_reserved": 0}, {"rental_uris": {"ios": "https://dc.lft.to/lastmile_qr_scan", "android": "https://dc.lft.to/lastmile_qr_scan"}, "lon": -77.003377, "type": "electric_scooter", "fusion_lat": 0.0, "lat": 38.89354683333333, "name": "277515b2eb823d5a42250d49dc3d369d", "fusion_lon": 0.0, "bike_id": "277515b2eb823d5a42250d49dc3d369d", "is_disabled": 0, "is_reserved": 0}, {"rental_uris": {"ios": "https://dc.lft.to/lastmile_qr_scan", "android": "https://dc.lft.to/lastmile_qr_scan"}, "lon": -76.98564566666667, "type": "electric_scooter", "fusion_lat": 0.0, "lat": 38.8995925, "name": "59c0ae0c6433383e158221dbff01f11b", "fusion_lon": 0.0, "bike_id": "59c0ae0c6433383e158221dbff01f11b", "is_disabled": 0, "is_reserved": 0}, {"rental_uris": {"ios": "https://dc.lft.to/lastmile_qr_scan", "android": "https://dc.lft.to/lastmile_qr_scan"}, "lon": -77.0265585, "type": "electric_scooter", "fusion_lat": 0.0, "lat": 38.91058966666667, "name": "c7722c986644636fd9aaab3a937e1e6e", "fusion_lon": 0.0, "bike_id": "c7722c986644636fd9aaab3a937e1e6e", "is_disabled": 0, "is_reserved": 0}, {"rental_uris": {"ios": "https://dc.lft.to/lastmile_qr_scan", "android": "https://dc.lft.to/lastmile_qr_scan"}, "lon": -77.015173, "type": "electric_scooter", "fusion_lat": 0.0, "lat": 38.91762216666667, "name": "cd791b722c3cbf6e00e93616389e7955", "fusion_lon": 0.0, "bike_id": "cd791b722c3cbf6e00e93616389e7955", "is_disabled": 0, "is_reserved": 0}, {"rental_uris": {"ios": "https://dc.lft.to/lastmile_qr_scan", "android": "https://dc.lft.to/lastmile_qr_scan"}, "lon": -77.02815183333334, "type": "electric_scooter", "fusion_lat": 0.0, "lat": 38.914901666666665, "name": "22e9280f514df2db67e02dd5ba6188cd", "fusion_lon": 0.0, "bike_id": "22e9280f514df2db67e02dd5ba6188cd", "is_disabled": 0, "is_reserved": 0}, {"rental_uris": {"ios": "https://dc.lft.to/lastmile_qr_scan", "android": "https://dc.lft.to/lastmile_qr_scan"}, "lon": -77.04580433333334, "type": "electric_scooter", "fusion_lat": 0.0, "lat": 38.921284, "name": "1b69f52f9525450267bcd659b5fe8e3f", "fusion_lon": 0.0, "bike_id": "1b69f52f9525450267bcd659b5fe8e3f", "is_disabled": 0, "is_reserved": 0}, {"rental_uris": {"ios": "https://dc.lft.to/lastmile_qr_scan", "android": "https://dc.lft.to/lastmile_qr_scan"}, "lon": -77.02194866666666, "type": "electric_scooter", "fusion_lat": 0.0, "lat": 38.91557933333333, "name": "df9a8e40e5b2b3e3cd31b68055d321b9", "fusion_lon": 0.0, "bike_id": "df9a8e40e5b2b3e3cd31b68055d321b9", "is_disabled": 0, "is_reserved": 0}, {"rental_uris": {"ios": "https://dc.lft.to/lastmile_qr_scan", "android": "https://dc.lft.to/lastmile_qr_scan"}, "lon": -77.03975433333333, "type": "electric_scooter", "fusion_lat": 0.0, "lat": 38.899038166666664, "name": "f582a711f9d24217722a25275ef4cd5c", "fusion_lon": 0.0, "bike_id": "f582a711f9d24217722a25275ef4cd5c", "is_disabled": 0, "is_reserved": 0}, {"rental_uris": {"ios": "https://dc.lft.to/lastmile_qr_scan", "android": "https://dc.lft.to/lastmile_qr_scan"}, "lon": -76.97939433333333, "type": "electric_scooter", "fusion_lat": 0.0, "lat": 38.866188, "name": "57a695676c1a23e6c9e263ba53ddc2c4", "fusion_lon": 0.0, "bike_id": "57a695676c1a23e6c9e263ba53ddc2c4", "is_disabled": 0, "is_reserved": 0}, {"rental_uris": {"ios": "https://dc.lft.to/lastmile_qr_scan", "android": "https://dc.lft.to/lastmile_qr_scan"}, "lon": -77.02784183333333, "type": "electric_scooter", "fusion_lat": 0.0, "lat": 38.92375033333333, "name": "84e786bb8757ff4b0eb6b5c714c2b446", "fusion_lon": 0.0, "bike_id": "84e786bb8757ff4b0eb6b5c714c2b446", "is_disabled": 0, "is_reserved": 0}, {"rental_uris": {"ios": "https://dc.lft.to/lastmile_qr_scan", "android": "https://dc.lft.to/lastmile_qr_scan"}, "lon": -76.97944966666667, "type": "electric_scooter", "fusion_lat": 0.0, "lat": 38.902447, "name": "474004c16e170ee077902d9482c48973", "fusion_lon": 0.0, "bike_id": "474004c16e170ee077902d9482c48973", "is_disabled": 0, "is_reserved": 0}, {"rental_uris": {"ios": "https://dc.lft.to/lastmile_qr_scan", "android": "https://dc.lft.to/lastmile_qr_scan"}, "lon": -77.017718, "type": "electric_scooter", "fusion_lat": 0.0, "lat": 38.90045683333334, "name": "549c7bd2fa41f40b6941e900c7d09f65", "fusion_lon": 0.0, "bike_id": "549c7bd2fa41f40b6941e900c7d09f65", "is_disabled": 0, "is_reserved": 0}, {"rental_uris": {"ios": "https://dc.lft.to/lastmile_qr_scan", "android": "https://dc.lft.to/lastmile_qr_scan"}, "lon": -77.00980483333333, "type": "electric_scooter", "fusion_lat": 0.0, "lat": 38.91488733333333, "name": "d1c70483e8b1ab77e343f0d1495dcfe6", "fusion_lon": 0.0, "bike_id": "d1c70483e8b1ab77e343f0d1495dcfe6", "is_disabled": 0, "is_reserved": 0}, {"rental_uris": {"ios": "https://dc.lft.to/lastmile_qr_scan", "android": "https://dc.lft.to/lastmile_qr_scan"}, "lon": -76.96630916666666, "type": "electric_bike", "fusion_lat": 0.0, "lat": 38.94204933333333, "name": "df7d2d71dd78ed5a1bc37275af43625b", "fusion_lon": 0.0, "bike_id": "df7d2d71dd78ed5a1bc37275af43625b", "is_disabled": 0, "is_reserved": 0}, {"rental_uris": {"ios": "https://dc.lft.to/lastmile_qr_scan", "android": "https://dc.lft.to/lastmile_qr_scan"}, "lon": -77.02187983333333, "type": "electric_scooter", "fusion_lat": 0.0, "lat": 38.91561083333333, "name": "240d4c793449c3902365b7e4084ff923", "fusion_lon": 0.0, "bike_id": "240d4c793449c3902365b7e4084ff923", "is_disabled": 0, "is_reserved": 0}, {"rental_uris": {"ios": "https://dc.lft.to/lastmile_qr_scan", "android": "https://dc.lft.to/lastmile_qr_scan"}, "lon": -77.03569816666666, "type": "electric_scooter", "fusion_lat": 0.0, "lat": 38.908635, "name": "2793906fb480f6741eb6ac60b271cf62", "fusion_lon": 0.0, "bike_id": "2793906fb480f6741eb6ac60b271cf62", "is_disabled": 0, "is_reserved": 0}, {"rental_uris": {"ios": "https://dc.lft.to/lastmile_qr_scan", "android": "https://dc.lft.to/lastmile_qr_scan"}, "lon": -77.0105495, "type": "electric_scooter", "fusion_lat": 0.0, "lat": 38.879376, "name": "d1101c669c5402b0fb0110d5190842f9", "fusion_lon": 0.0, "bike_id": "d1101c669c5402b0fb0110d5190842f9", "is_disabled": 0, "is_reserved": 0}, {"rental_uris": {"ios": "https://dc.lft.to/lastmile_qr_scan", "android": "https://dc.lft.to/lastmile_qr_scan"}, "lon": -77.04251016666667, "type": "electric_scooter", "fusion_lat": 0.0, "lat": 38.9229575, "name": "ffc100503ffc7f482353808fe78eb7b5", "fusion_lon": 0.0, "bike_id": "ffc100503ffc7f482353808fe78eb7b5", "is_disabled": 0, "is_reserved": 0}, {"rental_uris": {"ios": "https://dc.lft.to/lastmile_qr_scan", "android": "https://dc.lft.to/lastmile_qr_scan"}, "lon": -77.06753416666666, "type": "electric_scooter", "fusion_lat": 0.0, "lat": 38.915622166666665, "name": "e3640920808ef105103f91582bc1c3ae", "fusion_lon": 0.0, "bike_id": "e3640920808ef105103f91582bc1c3ae", "is_disabled": 0, "is_reserved": 0}, {"rental_uris": {"ios": "https://dc.lft.to/lastmile_qr_scan", "android": "https://dc.lft.to/lastmile_qr_scan"}, "lon": -77.025908, "type": "electric_scooter", "fusion_lat": 0.0, "lat": 38.8960275, "name": "32e23efb34bd269dc971d10215342e57", "fusion_lon": 0.0, "bike_id": "32e23efb34bd269dc971d10215342e57", "is_disabled": 0, "is_reserved": 0}, {"rental_uris": {"ios": "https://dc.lft.to/lastmile_qr_scan", "android": "https://dc.lft.to/lastmile_qr_scan"}, "lon": -77.02117483333333, "type": "electric_scooter", "fusion_lat": 0.0, "lat": 38.913250833333336, "name": "63e53de2dee1270a0961543648a0af97", "fusion_lon": 0.0, "bike_id": "63e53de2dee1270a0961543648a0af97", "is_disabled": 0, "is_reserved": 0}, {"rental_uris": {"ios": "https://dc.lft.to/lastmile_qr_scan", "android": "https://dc.lft.to/lastmile_qr_scan"}, "lon": -77.01110583333333, "type": "electric_scooter", "fusion_lat": 0.0, "lat": 38.907742999999996, "name": "fe951fcc6614a9a7c77fd449f93ff7f3", "fusion_lon": 0.0, "bike_id": "fe951fcc6614a9a7c77fd449f93ff7f3", "is_disabled": 0, "is_reserved": 0}, {"rental_uris": {"ios": "https://dc.lft.to/lastmile_qr_scan", "android": "https://dc.lft.to/lastmile_qr_scan"}, "lon": -76.93757433333333, "type": "electric_scooter", "fusion_lat": 0.0, "lat": 38.89056316666667, "name": "0a248abb506c37465abe8ab12c0e1a12", "fusion_lon": 0.0, "bike_id": "0a248abb506c37465abe8ab12c0e1a12", "is_disabled": 0, "is_reserved": 0}, {"rental_uris": {"ios": "https://dc.lft.to/lastmile_qr_scan", "android": "https://dc.lft.to/lastmile_qr_scan"}, "lon": -77.02278516666667, "type": "electric_scooter", "fusion_lat": 0.0, "lat": 38.91657033333333, "name": "18256a10605c159a76fc1a5ca6e34356", "fusion_lon": 0.0, "bike_id": "18256a10605c159a76fc1a5ca6e34356", "is_disabled": 0, "is_reserved": 0}, {"rental_uris": {"ios": "https://dc.lft.to/lastmile_qr_scan", "android": "https://dc.lft.to/lastmile_qr_scan"}, "lon": -77.02591283333334, "type": "electric_scooter", "fusion_lat": 0.0, "lat": 38.9150335, "name": "4c959d6d4ea945679e789a57de2c1e02", "fusion_lon": 0.0, "bike_id": "4c959d6d4ea945679e789a57de2c1e02", "is_disabled": 0, "is_reserved": 0}, {"rental_uris": {"ios": "https://dc.lft.to/lastmile_qr_scan", "android": "https://dc.lft.to/lastmile_qr_scan"}, "lon": -77.023915, "type": "electric_scooter", "fusion_lat": 0.0, "lat": 38.95295933333333, "name": "da04e9e4730924547cf05aa225ea7bea", "fusion_lon": 0.0, "bike_id": "da04e9e4730924547cf05aa225ea7bea", "is_disabled": 0, "is_reserved": 0}, {"rental_uris": {"ios": "https://dc.lft.to/lastmile_qr_scan", "android": "https://dc.lft.to/lastmile_qr_scan"}, "lon": -77.02648216666667, "type": "electric_scooter", "fusion_lat": 0.0, "lat": 38.9386285, "name": "ec5f572cc28aad30374f3663ad41d6ec", "fusion_lon": 0.0, "bike_id": "ec5f572cc28aad30374f3663ad41d6ec", "is_disabled": 0, "is_reserved": 0}, {"rental_uris": {"ios": "https://dc.lft.to/lastmile_qr_scan", "android": "https://dc.lft.to/lastmile_qr_scan"}, "lon": -77.00929283333333, "type": "electric_scooter", "fusion_lat": 0.0, "lat": 38.9169855, "name": "c5260fac876e3366446385ef96b7b92d", "fusion_lon": 0.0, "bike_id": "c5260fac876e3366446385ef96b7b92d", "is_disabled": 0, "is_reserved": 0}, {"rental_uris": {"ios": "https://dc.lft.to/lastmile_qr_scan", "android": "https://dc.lft.to/lastmile_qr_scan"}, "lon": -77.00212816666667, "type": "electric_scooter", "fusion_lat": 0.0, "lat": 38.9051345, "name": "f74c38e4eccb927896ec973f7aa44307", "fusion_lon": 0.0, "bike_id": "f74c38e4eccb927896ec973f7aa44307", "is_disabled": 0, "is_reserved": 0}, {"rental_uris": {"ios": "https://dc.lft.to/lastmile_qr_scan", "android": "https://dc.lft.to/lastmile_qr_scan"}, "lon": -77.00253383333333, "type": "electric_scooter", "fusion_lat": 0.0, "lat": 38.90135183333334, "name": "c1ae00980e0d2bfac5976c1e50e4cc67", "fusion_lon": 0.0, "bike_id": "c1ae00980e0d2bfac5976c1e50e4cc67", "is_disabled": 0, "is_reserved": 0}, {"rental_uris": {"ios": "https://dc.lft.to/lastmile_qr_scan", "android": "https://dc.lft.to/lastmile_qr_scan"}, "lon": -77.02702033333334, "type": "electric_scooter", "fusion_lat": 0.0, "lat": 38.900006, "name": "10f8ed72bad37d8dc3992783fc6d5dfe", "fusion_lon": 0.0, "bike_id": "10f8ed72bad37d8dc3992783fc6d5dfe", "is_disabled": 0, "is_reserved": 0}, {"rental_uris": {"ios": "https://dc.lft.to/lastmile_qr_scan", "android": "https://dc.lft.to/lastmile_qr_scan"}, "lon": -77.03379816666667, "type": "electric_scooter", "fusion_lat": 0.0, "lat": 38.9215355, "name": "df59490b0174da38ee109541e0259633", "fusion_lon": 0.0, "bike_id": "df59490b0174da38ee109541e0259633", "is_disabled": 0, "is_reserved": 0}, {"rental_uris": {"ios": "https://dc.lft.to/lastmile_qr_scan", "android": "https://dc.lft.to/lastmile_qr_scan"}, "lon": -77.020744, "type": "electric_scooter", "fusion_lat": 0.0, "lat": 38.904219166666664, "name": "cbd96de5751ee11d7aa78897cef2cb0f", "fusion_lon": 0.0, "bike_id": "cbd96de5751ee11d7aa78897cef2cb0f", "is_disabled": 0, "is_reserved": 0}, {"rental_uris": {"ios": "https://dc.lft.to/lastmile_qr_scan", "android": "https://dc.lft.to/lastmile_qr_scan"}, "lon": -77.03431166666667, "type": "electric_scooter", "fusion_lat": 0.0, "lat": 38.927364, "name": "ad2f0201580a08944be65d8a2b3fe53e", "fusion_lon": 0.0, "bike_id": "ad2f0201580a08944be65d8a2b3fe53e", "is_disabled": 0, "is_reserved": 0}, {"rental_uris": {"ios": "https://dc.lft.to/lastmile_qr_scan", "android": "https://dc.lft.to/lastmile_qr_scan"}, "lon": -76.99072866666667, "type": "electric_scooter", "fusion_lat": 0.0, "lat": 38.904178, "name": "c3cb5d2e6aeca044ded9cc3510db747d", "fusion_lon": 0.0, "bike_id": "c3cb5d2e6aeca044ded9cc3510db747d", "is_disabled": 0, "is_reserved": 0}, {"rental_uris": {"ios": "https://dc.lft.to/lastmile_qr_scan", "android": "https://dc.lft.to/lastmile_qr_scan"}, "lon": -77.0050315, "type": "electric_scooter", "fusion_lat": 0.0, "lat": 38.875340666666666, "name": "5da1357be3f69fa6878767b994b446fb", "fusion_lon": 0.0, "bike_id": "5da1357be3f69fa6878767b994b446fb", "is_disabled": 0, "is_reserved": 0}, {"rental_uris": {"ios": "https://dc.lft.to/lastmile_qr_scan", "android": "https://dc.lft.to/lastmile_qr_scan"}, "lon": -77.01503866666667, "type": "electric_scooter", "fusion_lat": 0.0, "lat": 38.9107995, "name": "d21d305c496cba89c4912ae509134920", "fusion_lon": 0.0, "bike_id": "d21d305c496cba89c4912ae509134920", "is_disabled": 0, "is_reserved": 0}, {"rental_uris": {"ios": "https://dc.lft.to/lastmile_qr_scan", "android": "https://dc.lft.to/lastmile_qr_scan"}, "lon": -77.06474266666666, "type": "electric_bike", "fusion_lat": 0.0, "lat": 38.973863, "name": "12edcc51e248c983e6800f00368b9084", "fusion_lon": 0.0, "bike_id": "12edcc51e248c983e6800f00368b9084", "is_disabled": 0, "is_reserved": 0}, {"rental_uris": {"ios": "https://dc.lft.to/lastmile_qr_scan", "android": "https://dc.lft.to/lastmile_qr_scan"}, "lon": -77.02720866666667, "type": "electric_scooter", "fusion_lat": 0.0, "lat": 38.90519916666667, "name": "964d0e64febd15fefe8f91e6ec62072a", "fusion_lon": 0.0, "bike_id": "964d0e64febd15fefe8f91e6ec62072a", "is_disabled": 0, "is_reserved": 0}, {"rental_uris": {"ios": "https://dc.lft.to/lastmile_qr_scan", "android": "https://dc.lft.to/lastmile_qr_scan"}, "lon": -76.991692, "type": "electric_scooter", "fusion_lat": 0.0, "lat": 38.8792455, "name": "807b8f0217160d9ff564d912cd0e0bff", "fusion_lon": 0.0, "bike_id": "807b8f0217160d9ff564d912cd0e0bff", "is_disabled": 0, "is_reserved": 0}, {"rental_uris": {"ios": "https://dc.lft.to/lastmile_qr_scan", "android": "https://dc.lft.to/lastmile_qr_scan"}, "lon": -77.02496366666666, "type": "electric_scooter", "fusion_lat": 0.0, "lat": 38.9428885, "name": "bf6b1f5bdcac603fdcae0d9043d803a2", "fusion_lon": 0.0, "bike_id": "bf6b1f5bdcac603fdcae0d9043d803a2", "is_disabled": 0, "is_reserved": 0}, {"rental_uris": {"ios": "https://dc.lft.to/lastmile_qr_scan", "android": "https://dc.lft.to/lastmile_qr_scan"}, "lon": -77.05026366666667, "type": "electric_scooter", "fusion_lat": 0.0, "lat": 38.923561, "name": "bfb452b62f7114993b2d70ac3613d7a4", "fusion_lon": 0.0, "bike_id": "bfb452b62f7114993b2d70ac3613d7a4", "is_disabled": 0, "is_reserved": 0}, {"rental_uris": {"ios": "https://dc.lft.to/lastmile_qr_scan", "android": "https://dc.lft.to/lastmile_qr_scan"}, "lon": -77.00191416666667, "type": "electric_scooter", "fusion_lat": 0.0, "lat": 38.900375, "name": "646a44693039837d9c40191726a44811", "fusion_lon": 0.0, "bike_id": "646a44693039837d9c40191726a44811", "is_disabled": 0, "is_reserved": 0}, {"rental_uris": {"ios": "https://dc.lft.to/lastmile_qr_scan", "android": "https://dc.lft.to/lastmile_qr_scan"}, "lon": -77.0660625, "type": "electric_scooter", "fusion_lat": 0.0, "lat": 38.90522633333333, "name": "c90f8aa29b6c91acdd7c0c6abd4a06ad", "fusion_lon": 0.0, "bike_id": "c90f8aa29b6c91acdd7c0c6abd4a06ad", "is_disabled": 0, "is_reserved": 0}, {"rental_uris": {"ios": "https://dc.lft.to/lastmile_qr_scan", "android": "https://dc.lft.to/lastmile_qr_scan"}, "lon": -77.06673716666667, "type": "electric_scooter", "fusion_lat": 0.0, "lat": 38.914044833333335, "name": "dccfc290db70f4bfa8865ab37e07ba27", "fusion_lon": 0.0, "bike_id": "dccfc290db70f4bfa8865ab37e07ba27", "is_disabled": 0, "is_reserved": 0}, {"rental_uris": {"ios": "https://dc.lft.to/lastmile_qr_scan", "android": "https://dc.lft.to/lastmile_qr_scan"}, "lon": -77.10727716666666, "type": "electric_bike", "fusion_lat": 0.0, "lat": 38.8555335, "name": "77d30104f73f852052d89f0dd8324d96", "fusion_lon": 0.0, "bike_id": "77d30104f73f852052d89f0dd8324d96", "is_disabled": 0, "is_reserved": 0}, {"rental_uris": {"ios": "https://dc.lft.to/lastmile_qr_scan", "android": "https://dc.lft.to/lastmile_qr_scan"}, "lon": -77.03869166666667, "type": "electric_scooter", "fusion_lat": 0.0, "lat": 38.9125765, "name": "f423f0039146df2e65b8240075f61cc1", "fusion_lon": 0.0, "bike_id": "f423f0039146df2e65b8240075f61cc1", "is_disabled": 0, "is_reserved": 0}, {"rental_uris": {"ios": "https://dc.lft.to/lastmile_qr_scan", "android": "https://dc.lft.to/lastmile_qr_scan"}, "lon": -77.04413916666667, "type": "electric_scooter", "fusion_lat": 0.0, "lat": 38.9107925, "name": "a244b13398c8c8c987c1641483e6ce1b", "fusion_lon": 0.0, "bike_id": "a244b13398c8c8c987c1641483e6ce1b", "is_disabled": 0, "is_reserved": 0}, {"rental_uris": {"ios": "https://dc.lft.to/lastmile_qr_scan", "android": "https://dc.lft.to/lastmile_qr_scan"}, "lon": -77.015225, "type": "electric_scooter", "fusion_lat": 0.0, "lat": 38.872814, "name": "397125bea869ab223f134c510227549b", "fusion_lon": 0.0, "bike_id": "397125bea869ab223f134c510227549b", "is_disabled": 0, "is_reserved": 0}, {"rental_uris": {"ios": "https://dc.lft.to/lastmile_qr_scan", "android": "https://dc.lft.to/lastmile_qr_scan"}, "lon": -77.05271433333333, "type": "electric_scooter", "fusion_lat": 0.0, "lat": 38.898406333333334, "name": "7c6c5d0c266e68dd7b321657a2f142d4", "fusion_lon": 0.0, "bike_id": "7c6c5d0c266e68dd7b321657a2f142d4", "is_disabled": 0, "is_reserved": 0}, {"rental_uris": {"ios": "https://dc.lft.to/lastmile_qr_scan", "android": "https://dc.lft.to/lastmile_qr_scan"}, "lon": -77.02662416666666, "type": "electric_bike", "fusion_lat": 0.0, "lat": 38.99753166666667, "name": "31261fb0851e7e08dfc59e637ef4608c", "fusion_lon": 0.0, "bike_id": "31261fb0851e7e08dfc59e637ef4608c", "is_disabled": 0, "is_reserved": 0}, {"rental_uris": {"ios": "https://dc.lft.to/lastmile_qr_scan", "android": "https://dc.lft.to/lastmile_qr_scan"}, "lon": -77.04447966666666, "type": "electric_scooter", "fusion_lat": 0.0, "lat": 38.90560033333333, "name": "255564959b6e8177d6b065033f6a46ff", "fusion_lon": 0.0, "bike_id": "255564959b6e8177d6b065033f6a46ff", "is_disabled": 0, "is_reserved": 0}, {"rental_uris": {"ios": "https://dc.lft.to/lastmile_qr_scan", "android": "https://dc.lft.to/lastmile_qr_scan"}, "lon": -77.04226716666666, "type": "electric_scooter", "fusion_lat": 0.0, "lat": 38.921682833333335, "name": "5e418d4d28edc5d0d5262ef817558a48", "fusion_lon": 0.0, "bike_id": "5e418d4d28edc5d0d5262ef817558a48", "is_disabled": 0, "is_reserved": 0}, {"rental_uris": {"ios": "https://dc.lft.to/lastmile_qr_scan", "android": "https://dc.lft.to/lastmile_qr_scan"}, "lon": -77.0256205, "type": "electric_scooter", "fusion_lat": 0.0, "lat": 38.939782666666666, "name": "bb0e5765689943e3eeb5190c779cf02d", "fusion_lon": 0.0, "bike_id": "bb0e5765689943e3eeb5190c779cf02d", "is_disabled": 0, "is_reserved": 0}, {"rental_uris": {"ios": "https://dc.lft.to/lastmile_qr_scan", "android": "https://dc.lft.to/lastmile_qr_scan"}, "lon": -77.0388435, "type": "electric_scooter", "fusion_lat": 0.0, "lat": 38.9231785, "name": "be67bf75b1d5a3058512cb6bd24546ea", "fusion_lon": 0.0, "bike_id": "be67bf75b1d5a3058512cb6bd24546ea", "is_disabled": 0, "is_reserved": 0}, {"rental_uris": {"ios": "https://dc.lft.to/lastmile_qr_scan", "android": "https://dc.lft.to/lastmile_qr_scan"}, "lon": -77.051248, "type": "electric_scooter", "fusion_lat": 0.0, "lat": 38.92361833333333, "name": "bafd3782b06578f89e7d2d488c4b7750", "fusion_lon": 0.0, "bike_id": "bafd3782b06578f89e7d2d488c4b7750", "is_disabled": 0, "is_reserved": 0}, {"rental_uris": {"ios": "https://dc.lft.to/lastmile_qr_scan", "android": "https://dc.lft.to/lastmile_qr_scan"},