{"data": {"bikes": [{"lon": -77.03284133333334, "is_disabled": 0, "lat": 38.9288855, "fusion_lat": 0.0, "is_reserved": 0, "rental_uris": {"ios": "https://dc.lft.to/lastmile_qr_scan", "android": "https://dc.lft.to/lastmile_qr_scan"}, "fusion_lon": 0.0, "type": "electric_scooter", "bike_id": "ea3a0d8b98e227af8823c85ac025f783", "name": "ea3a0d8b98e227af8823c85ac025f783"}, {"lon": -77.04497533333333, "is_disabled": 0, "lat": 38.90857583333333, "fusion_lat": 0.0, "is_reserved": 0, "rental_uris": {"ios": "https://dc.lft.to/lastmile_qr_scan", "android": "https://dc.lft.to/lastmile_qr_scan"}, "fusion_lon": 0.0, "type": "electric_scooter", "bike_id": "87db5e4c892d8eb8dc1502b765a5bafe", "name": "87db5e4c892d8eb8dc1502b765a5bafe"}, {"lon": -77.03330866666667, "is_disabled": 0, "lat": 38.892227166666665, "fusion_lat": 0.0, "is_reserved": 0, "rental_uris": {"ios": "https://dc.lft.to/lastmile_qr_scan", "android": "https://dc.lft.to/lastmile_qr_scan"}, "fusion_lon": 0.0, "type": "electric_scooter", "bike_id": "3ff087964f256c161d88d9db6269c64b", "name": "3ff087964f256c161d88d9db6269c64b"}, {"lon": -77.024585, "is_disabled": 0, "lat": 38.93860033333333, "fusion_lat": 0.0, "is_reserved": 0, "rental_uris": {"ios": "https://dc.lft.to/lastmile_qr_scan", "android": "https://dc.lft.to/lastmile_qr_scan"}, "fusion_lon": 0.0, "type": "electric_scooter", "bike_id": "ed9fc400353614072f5a39a0e80ce451", "name": "ed9fc400353614072f5a39a0e80ce451"}, {"lon": -77.0515985, "is_disabled": 0, "lat": 38.905272833333335, "fusion_lat": 0.0, "is_reserved": 0, "rental_uris": {"ios": "https://dc.lft.to/lastmile_qr_scan", "android": "https://dc.lft.to/lastmile_qr_scan"}, "fusion_lon": 0.0, "type": "electric_scooter", "bike_id": "aa7705ca6e79cadc2fccc2b20db760ce", "name": "aa7705ca6e79cadc2fccc2b20db760ce"}, {"lon": -77.01489733333334, "is_disabled": 0, "lat": 38.892197833333334, "fusion_lat": 0.0, "is_reserved": 0, "rental_uris": {"ios": "https://dc.lft.to/lastmile_qr_scan", "android": "https://dc.lft.to/lastmile_qr_scan"}, "fusion_lon": 0.0, "type": "electric_scooter", "bike_id": "a3c1537ebde4fafedb64ee17f0093db9", "name": "a3c1537ebde4fafedb64ee17f0093db9"}, {"lon": -77.00072383333334, "is_disabled": 0, "lat": 38.8738295, "fusion_lat": 0.0, "is_reserved": 0, "rental_uris": {"ios": "https://dc.lft.to/lastmile_qr_scan", "android": "https://dc.lft.to/lastmile_qr_scan"}, "fusion_lon": 0.0, "type": "electric_scooter", "bike_id": "ba0050d55c9da34eccf8172a70db5add", "name": "ba0050d55c9da34eccf8172a70db5add"}, {"lon": -77.04097683333333, "is_disabled": 0, "lat": 38.91781616666667, "fusion_lat": 0.0, "is_reserved": 0, "rental_uris": {"ios": "https://dc.lft.to/lastmile_qr_scan", "android": "https://dc.lft.to/lastmile_qr_scan"}, "fusion_lon": 0.0, "type": "electric_scooter", "bike_id": "51c5e9c75c57fcbde7fd30417d28e4ad", "name": "51c5e9c75c57fcbde7fd30417d28e4ad"}, {"lon": -77.02428033333334, "is_disabled": 0, "lat": 38.935356666666664, "fusion_lat": 0.0, "is_reserved": 0, "rental_uris": {"ios": "https://dc.lft.to/lastmile_qr_scan", "android": "https://dc.lft.to/lastmile_qr_scan"}, "fusion_lon": 0.0, "type": "electric_scooter", "bike_id": "722d4cf39f5cb42951380facb80a97fc", "name": "722d4cf39f5cb42951380facb80a97fc"}, {"lon": -77.03172916666666, "is_disabled": 0, "lat": 38.9155285, "fusion_lat": 0.0, "is_reserved": 0, "rental_uris": {"ios": "https://dc.lft.to/lastmile_qr_scan", "android": "https://dc.lft.to/lastmile_qr_scan"}, "fusion_lon": 0.0, "type": "electric_scooter", "bike_id": "9379154dd46ae957a8861e71446a8239", "name": "9379154dd46ae957a8861e71446a8239"}, {"lon": -77.04681333333333, "is_disabled": 0, "lat": 38.89507033333334, "fusion_lat": 0.0, "is_reserved": 0, "rental_uris": {"ios": "https://dc.lft.to/lastmile_qr_scan", "android": "https://dc.lft.to/lastmile_qr_scan"}, "fusion_lon": 0.0, "type": "electric_scooter", "bike_id": "b53b37be0bf2b599ac4a1bfbd1351a59", "name": "b53b37be0bf2b599ac4a1bfbd1351a59"}, {"lon": -77.0172655, "is_disabled": 0, "lat": 38.943545666666665, "fusion_lat": 0.0, "is_reserved": 0, "rental_uris": {"ios": "https://dc.lft.to/lastmile_qr_scan", "android": "https://dc.lft.to/lastmile_qr_scan"}, "fusion_lon": 0.0, "type": "electric_scooter", "bike_id": "217ae9b5be445a2845e765a1ddfec350", "name": "217ae9b5be445a2845e765a1ddfec350"}, {"lon": -77.05338716666667, "is_disabled": 0, "lat": 39.04079933333333, "fusion_lat": 0.0, "is_reserved": 0, "rental_uris": {"ios": "https://dc.lft.to/lastmile_qr_scan", "android": "https://dc.lft.to/lastmile_qr_scan"}, "fusion_lon": 0.0, "type": "electric_bike", "bike_id": "93195d0df306082e66525247c1a006f7", "name": "93195d0df306082e66525247c1a006f7"}, {"lon": -76.9509615, "is_disabled": 0, "lat": 38.8845135, "fusion_lat": 0.0, "is_reserved": 0, "rental_uris": {"ios": "https://dc.lft.to/lastmile_qr_scan", "android": "https://dc.lft.to/lastmile_qr_scan"}, "fusion_lon": 0.0, "type": "electric_scooter", "bike_id": "1705ff7d7076e9905b8502bf444fd25f", "name": "1705ff7d7076e9905b8502bf444fd25f"}, {"lon": -77.04673516666666, "is_disabled": 0, "lat": 38.8955855, "fusion_lat": 0.0, "is_reserved": 0, "rental_uris": {"ios": "https://dc.lft.to/lastmile_qr_scan", "android": "https://dc.lft.to/lastmile_qr_scan"}, "fusion_lon": 0.0, "type": "electric_scooter", "bike_id": "d7f073156a1466929a2fdfcbeab33684", "name": "d7f073156a1466929a2fdfcbeab33684"}, {"lon": -77.0218205, "is_disabled": 0, "lat": 38.90191083333333, "fusion_lat": 0.0, "is_reserved": 0, "rental_uris": {"ios": "https://dc.lft.to/lastmile_qr_scan", "android": "https://dc.lft.to/lastmile_qr_scan"}, "fusion_lon": 0.0, "type": "electric_scooter", "bike_id": "55a625c3252e9022b1b9bfbf64c056e5", "name": "55a625c3252e9022b1b9bfbf64c056e5"}, {"lon": -77.02309133333333, "is_disabled": 0, "lat": 38.91785733333333, "fusion_lat": 0.0, "is_reserved": 0, "rental_uris": {"ios": "https://dc.lft.to/lastmile_qr_scan", "android": "https://dc.lft.to/lastmile_qr_scan"}, "fusion_lon": 0.0, "type": "electric_scooter", "bike_id": "890fae38576c66f08a7915a8f02ba621", "name": "890fae38576c66f08a7915a8f02ba621"}, {"lon": -76.97084466666666, "is_disabled": 0, "lat": 38.892219833333336, "fusion_lat": 0.0, "is_reserved": 0, "rental_uris": {"ios": "https://dc.lft.to/lastmile_qr_scan", "android": "https://dc.lft.to/lastmile_qr_scan"}, "fusion_lon": 0.0, "type": "electric_bike", "bike_id": "9aa7678ca96ee14598aca4104e3314c1", "name": "9aa7678ca96ee14598aca4104e3314c1"}, {"lon": -77.050396, "is_disabled": 0, "lat": 38.900804, "fusion_lat": 0.0, "is_reserved": 0, "rental_uris": {"ios": "https://dc.lft.to/lastmile_qr_scan", "android": "https://dc.lft.to/lastmile_qr_scan"}, "fusion_lon": 0.0, "type": "electric_scooter", "bike_id": "bafb7d36fe1f4e18eb11d39579e0832a", "name": "bafb7d36fe1f4e18eb11d39579e0832a"}, {"lon": -77.0067965, "is_disabled": 0, "lat": 38.9001025, "fusion_lat": 0.0, "is_reserved": 0, "rental_uris": {"ios": "https://dc.lft.to/lastmile_qr_scan", "android": "https://dc.lft.to/lastmile_qr_scan"}, "fusion_lon": 0.0, "type": "electric_scooter", "bike_id": "e5fb64258c62594dd3636791cf781bc6", "name": "e5fb64258c62594dd3636791cf781bc6"}, {"lon": -77.02504183333333, "is_disabled": 0, "lat": 38.9192835, "fusion_lat": 0.0, "is_reserved": 0, "rental_uris": {"ios": "https://dc.lft.to/lastmile_qr_scan", "android": "https://dc.lft.to/lastmile_qr_scan"}, "fusion_lon": 0.0, "type": "electric_scooter", "bike_id": "b03a3b3758405b1248063d1a8e88c9de", "name": "b03a3b3758405b1248063d1a8e88c9de"}, {"lon": -77.043612, "is_disabled": 0, "lat": 38.911255, "fusion_lat": 0.0, "is_reserved": 0, "rental_uris": {"ios": "https://dc.lft.to/lastmile_qr_scan", "android": "https://dc.lft.to/lastmile_qr_scan"}, "fusion_lon": 0.0, "type": "electric_scooter", "bike_id": "1ae95b67f3005d0a72f1763a59a5c0d6", "name": "1ae95b67f3005d0a72f1763a59a5c0d6"}, {"lon": -77.011054, "is_disabled": 0, "lat": 38.90968483333333, "fusion_lat": 0.0, "is_reserved": 0, "rental_uris": {"ios": "https://dc.lft.to/lastmile_qr_scan", "android": "https://dc.lft.to/lastmile_qr_scan"}, "fusion_lon": 0.0, "type": "electric_scooter", "bike_id": "3c7a4f3952655312a2c9e7364859ce3c", "name": "3c7a4f3952655312a2c9e7364859ce3c"}, {"lon": -76.96063766666667, "is_disabled": 0, "lat": 38.884078, "fusion_lat": 0.0, "is_reserved": 0, "rental_uris": {"ios": "https://dc.lft.to/lastmile_qr_scan", "android": "https://dc.lft.to/lastmile_qr_scan"}, "fusion_lon": 0.0, "type": "electric_bike", "bike_id": "82c5886b39844683e4ea1250c7b42c52", "name": "82c5886b39844683e4ea1250c7b42c52"}, {"lon": -77.008906, "is_disabled": 0, "lat": 38.901088, "fusion_lat": 0.0, "is_reserved": 0, "rental_uris": {"ios": "https://dc.lft.to/lastmile_qr_scan", "android": "https://dc.lft.to/lastmile_qr_scan"}, "fusion_lon": 0.0, "type": "electric_scooter", "bike_id": "4536a52c578d7edad7b59feb4812a4d7", "name": "4536a52c578d7edad7b59feb4812a4d7"}, {"lon": -77.02477616666667, "is_disabled": 0, "lat": 38.91881883333333, "fusion_lat": 0.0, "is_reserved": 0, "rental_uris": {"ios": "https://dc.lft.to/lastmile_qr_scan", "android": "https://dc.lft.to/lastmile_qr_scan"}, "fusion_lon": 0.0, "type": "electric_scooter", "bike_id": "83a3dd16107975e578b76e3c2ad55afb", "name": "83a3dd16107975e578b76e3c2ad55afb"}, {"lon": -76.99986466666667, "is_disabled": 0, "lat": 38.874777, "fusion_lat": 0.0, "is_reserved": 0, "rental_uris": {"ios": "https://dc.lft.to/lastmile_qr_scan", "android": "https://dc.lft.to/lastmile_qr_scan"}, "fusion_lon": 0.0, "type": "electric_scooter", "bike_id": "b19c66f1dad9fbb25d1af5b8bf0bf37c", "name": "b19c66f1dad9fbb25d1af5b8bf0bf37c"}, {"lon": -77.02622833333334, "is_disabled": 0, "lat": 38.928234833333335, "fusion_lat": 0.0, "is_reserved": 0, "rental_uris": {"ios": "https://dc.lft.to/lastmile_qr_scan", "android": "https://dc.lft.to/lastmile_qr_scan"}, "fusion_lon": 0.0, "type": "electric_scooter", "bike_id": "e9e7468827ad1bc73d091a862daf3526", "name": "e9e7468827ad1bc73d091a862daf3526"}, {"lon": -77.00131716666667, "is_disabled": 0, "lat": 38.892718333333335, "fusion_lat": 0.0, "is_reserved": 0, "rental_uris": {"ios": "https://dc.lft.to/lastmile_qr_scan", "android": "https://dc.lft.to/lastmile_qr_scan"}, "fusion_lon": 0.0, "type": "electric_scooter", "bike_id": "d5f03ef7597d1313f73b35d91b256301", "name": "d5f03ef7597d1313f73b35d91b256301"}, {"lon": -77.01221233333334, "is_disabled": 0, "lat": 38.90094166666667, "fusion_lat": 0.0, "is_reserved": 0, "rental_uris": {"ios": "https://dc.lft.to/lastmile_qr_scan", "android": "https://dc.lft.to/lastmile_qr_scan"}, "fusion_lon": 0.0, "type": "electric_scooter", "bike_id": "0f43b36bbb716a5a715b42f57a1fab2f", "name": "0f43b36bbb716a5a715b42f57a1fab2f"}, {"lon": -77.029771, "is_disabled": 0, "lat": 38.92236316666666, "fusion_lat": 0.0, "is_reserved": 0, "rental_uris": {"ios": "https://dc.lft.to/lastmile_qr_scan", "android": "https://dc.lft.to/lastmile_qr_scan"}, "fusion_lon": 0.0, "type": "electric_scooter", "bike_id": "3a9dc8643908b91a3ca149a9b5bdfafa", "name": "3a9dc8643908b91a3ca149a9b5bdfafa"}, {"lon": -76.99060916666667, "is_disabled": 0, "lat": 38.86372033333333, "fusion_lat": 0.0, "is_reserved": 0, "rental_uris": {"ios": "https://dc.lft.to/lastmile_qr_scan", "android": "https://dc.lft.to/lastmile_qr_scan"}, "fusion_lon": 0.0, "type": "electric_scooter", "bike_id": "9fb798607f6054745edd70852e66ed2b", "name": "9fb798607f6054745edd70852e66ed2b"}, {"lon": -77.03845583333333, "is_disabled": 0, "lat": 38.902732, "fusion_lat": 0.0, "is_reserved": 0, "rental_uris": {"ios": "https://dc.lft.to/lastmile_qr_scan", "android": "https://dc.lft.to/lastmile_qr_scan"}, "fusion_lon": 0.0, "type": "electric_scooter", "bike_id": "a727c259aa9014f62efff6c8f10fb065", "name": "a727c259aa9014f62efff6c8f10fb065"}, {"lon": -77.02060333333333, "is_disabled": 0, "lat": 38.903377166666665, "fusion_lat": 0.0, "is_reserved": 0, "rental_uris": {"ios": "https://dc.lft.to/lastmile_qr_scan", "android": "https://dc.lft.to/lastmile_qr_scan"}, "fusion_lon": 0.0, "type": "electric_scooter", "bike_id": "5ef6f977633d195f952b48864d164c8f", "name": "5ef6f977633d195f952b48864d164c8f"}, {"lon": -77.00045016666667, "is_disabled": 0, "lat": 38.87383716666667, "fusion_lat": 0.0, "is_reserved": 0, "rental_uris": {"ios": "https://dc.lft.to/lastmile_qr_scan", "android": "https://dc.lft.to/lastmile_qr_scan"}, "fusion_lon": 0.0, "type": "electric_scooter", "bike_id": "cce2bbc99a47d195382c0bbddf800cea", "name": "cce2bbc99a47d195382c0bbddf800cea"}, {"lon": -77.00577066666666, "is_disabled": 0, "lat": 38.90595, "fusion_lat": 0.0, "is_reserved": 0, "rental_uris": {"ios": "https://dc.lft.to/lastmile_qr_scan", "android": "https://dc.lft.to/lastmile_qr_scan"}, "fusion_lon": 0.0, "type": "electric_scooter", "bike_id": "896f0cbdcbdc48e3098c98314a4f2193", "name": "896f0cbdcbdc48e3098c98314a4f2193"}, {"lon": -77.0335955, "is_disabled": 0, "lat": 38.920530166666666, "fusion_lat": 0.0, "is_reserved": 0, "rental_uris": {"ios": "https://dc.lft.to/lastmile_qr_scan", "android": "https://dc.lft.to/lastmile_qr_scan"}, "fusion_lon": 0.0, "type": "electric_scooter", "bike_id": "55365cb870d7c3ed64f4b9c527340045", "name": "55365cb870d7c3ed64f4b9c527340045"}, {"lon": -76.92656033333333, "is_disabled": 0, "lat": 38.90172583333333, "fusion_lat": 0.0, "is_reserved": 0, "rental_uris": {"ios": "https://dc.lft.to/lastmile_qr_scan", "android": "https://dc.lft.to/lastmile_qr_scan"}, "fusion_lon": 0.0, "type": "electric_scooter", "bike_id": "10f3b1a3e94b4a6d8372454b53646600", "name": "10f3b1a3e94b4a6d8372454b53646600"}, {"lon": -77.06115316666667, "is_disabled": 0, "lat": 38.9053585, "fusion_lat": 0.0, "is_reserved": 0, "rental_uris": {"ios": "https://dc.lft.to/lastmile_qr_scan", "android": "https://dc.lft.to/lastmile_qr_scan"}, "fusion_lon": 0.0, "type": "electric_scooter", "bike_id": "99bf1c62a5c4faf6422a5396d3328395", "name": "99bf1c62a5c4faf6422a5396d3328395"}, {"lon": -77.02807766666666, "is_disabled": 0, "lat": 38.899243, "fusion_lat": 0.0, "is_reserved": 0, "rental_uris": {"ios": "https://dc.lft.to/lastmile_qr_scan", "android": "https://dc.lft.to/lastmile_qr_scan"}, "fusion_lon": 0.0, "type": "electric_scooter", "bike_id": "2e1ef089d8ed270ecd789ae2dc74d5a7", "name": "2e1ef089d8ed270ecd789ae2dc74d5a7"}, {"lon": -77.0119935, "is_disabled": 0, "lat": 38.90034766666667, "fusion_lat": 0.0, "is_reserved": 0, "rental_uris": {"ios": "https://dc.lft.to/lastmile_qr_scan", "android": "https://dc.lft.to/lastmile_qr_scan"}, "fusion_lon": 0.0, "type": "electric_scooter", "bike_id": "8ffefbde8bff5beb8491cf739a29e125", "name": "8ffefbde8bff5beb8491cf739a29e125"}, {"lon": -77.02077933333334, "is_disabled": 0, "lat": 38.88189533333333, "fusion_lat": 0.0, "is_reserved": 0, "rental_uris": {"ios": "https://dc.lft.to/lastmile_qr_scan", "android": "https://dc.lft.to/lastmile_qr_scan"}, "fusion_lon": 0.0, "type": "electric_scooter", "bike_id": "9cab7cc77fb29d219915e54db9d7f010", "name": "9cab7cc77fb29d219915e54db9d7f010"}, {"lon": -77.00100716666667, "is_disabled": 0, "lat": 38.9076755, "fusion_lat": 0.0, "is_reserved": 0, "rental_uris": {"ios": "https://dc.lft.to/lastmile_qr_scan", "android": "https://dc.lft.to/lastmile_qr_scan"}, "fusion_lon": 0.0, "type": "electric_scooter", "bike_id": "204452aef8e7662dc3344d168426d8e7", "name": "204452aef8e7662dc3344d168426d8e7"}, {"lon": -77.02947233333333, "is_disabled": 0, "lat": 38.902299666666664, "fusion_lat": 0.0, "is_reserved": 0, "rental_uris": {"ios": "https://dc.lft.to/lastmile_qr_scan", "android": "https://dc.lft.to/lastmile_qr_scan"}, "fusion_lon": 0.0, "type": "electric_scooter", "bike_id": "5c8a318d41afd562a53dce54cf7afb3c", "name": "5c8a318d41afd562a53dce54cf7afb3c"}, {"lon": -77.03840116666667, "is_disabled": 0, "lat": 38.921722833333334, "fusion_lat": 0.0, "is_reserved": 0, "rental_uris": {"ios": "https://dc.lft.to/lastmile_qr_scan", "android": "https://dc.lft.to/lastmile_qr_scan"}, "fusion_lon": 0.0, "type": "electric_scooter", "bike_id": "89e659c30f367403ec62f31031e37139", "name": "89e659c30f367403ec62f31031e37139"}, {"lon": -77.01692883333334, "is_disabled": 0, "lat": 38.97492616666667, "fusion_lat": 0.0, "is_reserved": 0, "rental_uris": {"ios": "https://dc.lft.to/lastmile_qr_scan", "android": "https://dc.lft.to/lastmile_qr_scan"}, "fusion_lon": 0.0, "type": "electric_scooter", "bike_id": "f10982e9e4a0b4862f06a907437f7413", "name": "f10982e9e4a0b4862f06a907437f7413"}, {"lon": -77.02701783333333, "is_disabled": 0, "lat": 38.90671366666667, "fusion_lat": 0.0, "is_reserved": 0, "rental_uris": {"ios": "https://dc.lft.to/lastmile_qr_scan", "android": "https://dc.lft.to/lastmile_qr_scan"}, "fusion_lon": 0.0, "type": "electric_scooter", "bike_id": "44a7940dd5497d586acbf36300d37ddf", "name": "44a7940dd5497d586acbf36300d37ddf"}, {"lon": -77.0329895, "is_disabled": 0, "lat": 38.92880516666666, "fusion_lat": 0.0, "is_reserved": 0, "rental_uris": {"ios": "https://dc.lft.to/lastmile_qr_scan", "android": "https://dc.lft.to/lastmile_qr_scan"}, "fusion_lon": 0.0, "type": "electric_scooter", "bike_id": "b1a15b3ef83654c99619d8147ceec6f3", "name": "b1a15b3ef83654c99619d8147ceec6f3"}, {"lon": -77.01211716666667, "is_disabled": 0, "lat": 38.91798333333333, "fusion_lat": 0.0, "is_reserved": 0, "rental_uris": {"ios": "https://dc.lft.to/lastmile_qr_scan", "android": "https://dc.lft.to/lastmile_qr_scan"}, "fusion_lon": 0.0, "type": "electric_scooter", "bike_id": "68f8395c465bba62e6980515d2879dd9", "name": "68f8395c465bba62e6980515d2879dd9"}, {"lon": -77.027132, "is_disabled": 0, "lat": 38.90087666666667, "fusion_lat": 0.0, "is_reserved": 0, "rental_uris": {"ios": "https://dc.lft.to/lastmile_qr_scan", "android": "https://dc.lft.to/lastmile_qr_scan"}, "fusion_lon": 0.0, "type": "electric_scooter", "bike_id": "62f74ce24d6a0e38616b51c11825121f", "name": "62f74ce24d6a0e38616b51c11825121f"}, {"lon": -77.0223295, "is_disabled": 0, "lat": 38.911087, "fusion_lat": 0.0, "is_reserved": 0, "rental_uris": {"ios": "https://dc.lft.to/lastmile_qr_scan", "android": "https://dc.lft.to/lastmile_qr_scan"}, "fusion_lon": 0.0, "type": "electric_scooter", "bike_id": "dc0fc5e4665d41c6c8a63a79fc0b5da8", "name": "dc0fc5e4665d41c6c8a63a79fc0b5da8"}, {"lon": -77.02567916666666, "is_disabled": 0, "lat": 38.90960483333333, "fusion_lat": 0.0, "is_reserved": 0, "rental_uris": {"ios": "https://dc.lft.to/lastmile_qr_scan", "android": "https://dc.lft.to/lastmile_qr_scan"}, "fusion_lon": 0.0, "type": "electric_scooter", "bike_id": "a27c573e1597f5bebb4952cce204bed7", "name": "a27c573e1597f5bebb4952cce204bed7"}, {"lon": -77.05721583333333, "is_disabled": 0, "lat": 38.93372383333333, "fusion_lat": 0.0, "is_reserved": 0, "rental_uris": {"ios": "https://dc.lft.to/lastmile_qr_scan", "android": "https://dc.lft.to/lastmile_qr_scan"}, "fusion_lon": 0.0, "type": "electric_scooter", "bike_id": "89a2ff343c422b36749003e502be17bc", "name": "89a2ff343c422b36749003e502be17bc"}, {"lon": -77.00573216666666, "is_disabled": 0, "lat": 38.876535, "fusion_lat": 0.0, "is_reserved": 0, "rental_uris": {"ios": "https://dc.lft.to/lastmile_qr_scan", "android": "https://dc.lft.to/lastmile_qr_scan"}, "fusion_lon": 0.0, "type": "electric_scooter", "bike_id": "f7c8594e402c948e54f04c79c2b59fdb", "name": "f7c8594e402c948e54f04c79c2b59fdb"}, {"lon": -77.0565595, "is_disabled": 0, "lat": 38.9060615, "fusion_lat": 0.0, "is_reserved": 0, "rental_uris": {"ios": "https://dc.lft.to/lastmile_qr_scan", "android": "https://dc.lft.to/lastmile_qr_scan"}, "fusion_lon": 0.0, "type": "electric_scooter", "bike_id": "4d1ce95744e7cf1afa4c6a6d9c9f4e2c", "name": "4d1ce95744e7cf1afa4c6a6d9c9f4e2c"}, {"lon": -77.03325183333334, "is_disabled": 0, "lat": 38.97222383333333, "fusion_lat": 0.0, "is_reserved": 0, "rental_uris": {"ios": "https://dc.lft.to/lastmile_qr_scan", "android": "https://dc.lft.to/lastmile_qr_scan"}, "fusion_lon": 0.0, "type": "electric_bike", "bike_id": "143586cc2fb8f7f9b9eb21243408aae6", "name": "143586cc2fb8f7f9b9eb21243408aae6"}, {"lon": -77.00847583333334, "is_disabled": 0, "lat": 38.922325666666666, "fusion_lat": 0.0, "is_reserved": 0, "rental_uris": {"ios": "https://dc.lft.to/lastmile_qr_scan", "android": "https://dc.lft.to/lastmile_qr_scan"}, "fusion_lon": 0.0, "type": "electric_scooter", "bike_id": "0822ede34d3b436ffd412cacc66046a8", "name": "0822ede34d3b436ffd412cacc66046a8"}, {"lon": -76.98378066666666, "is_disabled": 0, "lat": 38.879431833333335, "fusion_lat": 0.0, "is_reserved": 0, "rental_uris": {"ios": "https://dc.lft.to/lastmile_qr_scan", "android": "https://dc.lft.to/lastmile_qr_scan"}, "fusion_lon": 0.0, "type": "electric_scooter", "bike_id": "f862dae45c49bebce7c4325a4ef57a99", "name": "f862dae45c49bebce7c4325a4ef57a99"}, {"lon": -76.97882616666666, "is_disabled": 0, "lat": 38.9019595, "fusion_lat": 0.0, "is_reserved": 0, "rental_uris": {"ios": "https://dc.lft.to/lastmile_qr_scan", "android": "https://dc.lft.to/lastmile_qr_scan"}, "fusion_lon": 0.0, "type": "electric_scooter", "bike_id": "6afcf7c80e55d98111e68ac828342c5f", "name": "6afcf7c80e55d98111e68ac828342c5f"}, {"lon": -77.0638235, "is_disabled": 0, "lat": 38.905316, "fusion_lat": 0.0, "is_reserved": 0, "rental_uris": {"ios": "https://dc.lft.to/lastmile_qr_scan", "android": "https://dc.lft.to/lastmile_qr_scan"}, "fusion_lon": 0.0, "type": "electric_scooter", "bike_id": "726a0c03fff3946fb0a791457fc4959b", "name": "726a0c03fff3946fb0a791457fc4959b"}, {"lon": -77.02495433333333, "is_disabled": 0, "lat": 38.9180825, "fusion_lat": 0.0, "is_reserved": 0, "rental_uris": {"ios": "https://dc.lft.to/lastmile_qr_scan", "android": "https://dc.lft.to/lastmile_qr_scan"}, "fusion_lon": 0.0, "type": "electric_scooter", "bike_id": "3027b2c264bc4681d326f08ad3bf2658", "name": "3027b2c264bc4681d326f08ad3bf2658"}, {"lon": -76.97858016666666, "is_disabled": 0, "lat": 38.844715, "fusion_lat": 0.0, "is_reserved": 0, "rental_uris": {"ios": "https://dc.lft.to/lastmile_qr_scan", "android": "https://dc.lft.to/lastmile_qr_scan"}, "fusion_lon": 0.0, "type": "electric_bike", "bike_id": "b9fba4505a9be2770a4dae758b492a16", "name": "b9fba4505a9be2770a4dae758b492a16"}, {"lon": -77.03477666666667, "is_disabled": 0, "lat": 38.884837166666664, "fusion_lat": 0.0, "is_reserved": 0, "rental_uris": {"ios": "https://dc.lft.to/lastmile_qr_scan", "android": "https://dc.lft.to/lastmile_qr_scan"}, "fusion_lon": 0.0, "type": "electric_scooter", "bike_id": "2168445ea236a81bd800188500174fe4", "name": "2168445ea236a81bd800188500174fe4"}, {"lon": -77.01221083333333, "is_disabled": 0, "lat": 38.89850083333333, "fusion_lat": 0.0, "is_reserved": 0, "rental_uris": {"ios": "https://dc.lft.to/lastmile_qr_scan", "android": "https://dc.lft.to/lastmile_qr_scan"}, "fusion_lon": 0.0, "type": "electric_scooter", "bike_id": "15b5e627726fea3d85166fb67b1c8792", "name": "15b5e627726fea3d85166fb67b1c8792"}, {"lon": -76.96707816666667, "is_disabled": 0, "lat": 38.860393333333334, "fusion_lat": 0.0, "is_reserved": 0, "rental_uris": {"ios": "https://dc.lft.to/lastmile_qr_scan", "android": "https://dc.lft.to/lastmile_qr_scan"}, "fusion_lon": 0.0, "type": "electric_scooter", "bike_id": "11cb5abda0f79d77238c4d6c3c86805a", "name": "11cb5abda0f79d77238c4d6c3c86805a"}, {"lon": -76.93341433333333, "is_disabled": 0, "lat": 38.908669333333336, "fusion_lat": 0.0, "is_reserved": 0, "rental_uris": {"ios": "https://dc.lft.to/lastmile_qr_scan", "android": "https://dc.lft.to/lastmile_qr_scan"}, "fusion_lon": 0.0, "type": "electric_scooter", "bike_id": "7c4d377c99979465560c5c690ae146b8", "name": "7c4d377c99979465560c5c690ae146b8"}, {"lon": -77.04991433333333, "is_disabled": 0, "lat": 38.901126833333336, "fusion_lat": 0.0, "is_reserved": 0, "rental_uris": {"ios": "https://dc.lft.to/lastmile_qr_scan", "android": "https://dc.lft.to/lastmile_qr_scan"}, "fusion_lon": 0.0, "type": "electric_scooter", "bike_id": "ca4588e701c5324c13ebb79f2e49acdf", "name": "ca4588e701c5324c13ebb79f2e49acdf"}, {"lon": -77.03832083333333, "is_disabled": 0, "lat": 38.90266416666667, "fusion_lat": 0.0, "is_reserved": 0, "rental_uris": {"ios": "https://dc.lft.to/lastmile_qr_scan", "android": "https://dc.lft.to/lastmile_qr_scan"}, "fusion_lon": 0.0, "type": "electric_scooter", "bike_id": "5b91d98eaeab03370c3ca19d3cc1fdfb", "name": "5b91d98eaeab03370c3ca19d3cc1fdfb"}, {"lon": -76.9763865, "is_disabled": 0, "lat": 38.88687016666667, "fusion_lat": 0.0, "is_reserved": 0, "rental_uris": {"ios": "https://dc.lft.to/lastmile_qr_scan", "android": "https://dc.lft.to/lastmile_qr_scan"}, "fusion_lon": 0.0, "type": "electric_scooter", "bike_id": "3bf1b563ed747668345476ac4caf284e", "name": "3bf1b563ed747668345476ac4caf284e"}, {"lon": -77.054027, "is_disabled": 0, "lat": 38.9013065, "fusion_lat": 0.0, "is_reserved": 0, "rental_uris": {"ios": "https://dc.lft.to/lastmile_qr_scan", "android": "https://dc.lft.to/lastmile_qr_scan"}, "fusion_lon": 0.0, "type": "electric_scooter", "bike_id": "02140777c25ec65cd18d5a017ab17fe9", "name": "02140777c25ec65cd18d5a017ab17fe9"}, {"lon": -77.00566266666667, "is_disabled": 0, "lat": 38.87579733333333, "fusion_lat": 0.0, "is_reserved": 0, "rental_uris": {"ios": "https://dc.lft.to/lastmile_qr_scan", "android": "https://dc.lft.to/lastmile_qr_scan"}, "fusion_lon": 0.0, "type": "electric_scooter", "bike_id": "9c7db24860576c6e9c1bda514979937a", "name": "9c7db24860576c6e9c1bda514979937a"}, {"lon": -76.973758, "is_disabled": 0, "lat": 38.904207666666665, "fusion_lat": 0.0, "is_reserved": 0, "rental_uris": {"ios": "https://dc.lft.to/lastmile_qr_scan", "android": "https://dc.lft.to/lastmile_qr_scan"}, "fusion_lon": 0.0, "type": "electric_scooter", "bike_id": "310d1a9cc17b6c225c78a78a457da78c", "name": "310d1a9cc17b6c225c78a78a457da78c"}, {"lon": -77.03050316666666, "is_disabled": 0, "lat": 38.90531883333333, "fusion_lat": 0.0, "is_reserved": 0, "rental_uris": {"ios": "https://dc.lft.to/lastmile_qr_scan", "android": "https://dc.lft.to/lastmile_qr_scan"}, "fusion_lon": 0.0, "type": "electric_scooter", "bike_id": "d677c81848f7d9d5a23dd6b4e5416047", "name": "d677c81848f7d9d5a23dd6b4e5416047"}, {"lon": -77.054294, "is_disabled": 0, "lat": 38.92579766666667, "fusion_lat": 0.0, "is_reserved": 0, "rental_uris": {"ios": "https://dc.lft.to/lastmile_qr_scan", "android": "https://dc.lft.to/lastmile_qr_scan"}, "fusion_lon": 0.0, "type": "electric_scooter", "bike_id": "13bc6dd495b2640a19cf6817d6872e9f", "name": "13bc6dd495b2640a19cf6817d6872e9f"}, {"lon": -77.0238865, "is_disabled": 0, "lat": 38.90573966666667, "fusion_lat": 0.0, "is_reserved": 0, "rental_uris": {"ios": "https://dc.lft.to/lastmile_qr_scan", "android": "https://dc.lft.to/lastmile_qr_scan"}, "fusion_lon": 0.0, "type": "electric_scooter", "bike_id": "91b073a22fd549fd645461f3c5f5be33", "name": "91b073a22fd549fd645461f3c5f5be33"}, {"lon": -77.01663866666667, "is_disabled": 0, "lat": 38.92047916666667, "fusion_lat": 0.0, "is_reserved": 0, "rental_uris": {"ios": "https://dc.lft.to/lastmile_qr_scan", "android": "https://dc.lft.to/lastmile_qr_scan"}, "fusion_lon": 0.0, "type": "electric_scooter", "bike_id": "92618860e66c141954aa58d6c4bd25f5", "name": "92618860e66c141954aa58d6c4bd25f5"}, {"lon": -76.987679, "is_disabled": 0, "lat": 38.85771966666667, "fusion_lat": 0.0, "is_reserved": 0, "rental_uris": {"ios": "https://dc.lft.to/lastmile_qr_scan", "android": "https://dc.lft.to/lastmile_qr_scan"}, "fusion_lon": 0.0, "type": "electric_bike", "bike_id": "d09f76b3ffb253fb0b87173736c087aa", "name": "d09f76b3ffb253fb0b87173736c087aa"}, {"lon": -77.03332966666666, "is_disabled": 0, "lat": 38.937870333333336, "fusion_lat": 0.0, "is_reserved": 0, "rental_uris": {"ios": "https://dc.lft.to/lastmile_qr_scan", "android": "https://dc.lft.to/lastmile_qr_scan"}, "fusion_lon": 0.0, "type": "electric_scooter", "bike_id": "9f4c38a65c2286e23b995a838bf5b374", "name": "9f4c38a65c2286e23b995a838bf5b374"}, {"lon": -77.02485316666667, "is_disabled": 0, "lat": 38.901748, "fusion_lat": 0.0, "is_reserved": 0, "rental_uris": {"ios": "https://dc.lft.to/lastmile_qr_scan", "android": "https://dc.lft.to/lastmile_qr_scan"}, "fusion_lon": 0.0, "type": "electric_scooter", "bike_id": "380a1c88f9424c5033b3fe5eb9e28a56", "name": "380a1c88f9424c5033b3fe5eb9e28a56"}, {"lon": -77.04343683333333, "is_disabled": 0, "lat": 38.905605666666666, "fusion_lat": 0.0, "is_reserved": 0, "rental_uris": {"ios": "https://dc.lft.to/lastmile_qr_scan", "android": "https://dc.lft.to/lastmile_qr_scan"}, "fusion_lon": 0.0, "type": "electric_scooter", "bike_id": "5e1ca4bce25287787841ee22ca143679", "name": "5e1ca4bce25287787841ee22ca143679"}, {"lon": -76.9753865, "is_disabled": 0, "lat": 38.899554333333334, "fusion_lat": 0.0, "is_reserved": 0, "rental_uris": {"ios": "https://dc.lft.to/lastmile_qr_scan", "android": "https://dc.lft.to/lastmile_qr_scan"}, "fusion_lon": 0.0, "type": "electric_scooter", "bike_id": "118ebd83edb997bbb9dd8d543644e83d", "name": "118ebd83edb997bbb9dd8d543644e83d"}, {"lon": -76.98887316666666, "is_disabled": 0, "lat": 38.86662616666667, "fusion_lat": 0.0, "is_reserved": 0, "rental_uris": {"ios": "https://dc.lft.to/lastmile_qr_scan", "android": "https://dc.lft.to/lastmile_qr_scan"}, "fusion_lon": 0.0, "type": "electric_scooter", "bike_id": "1f6c59897c1f2e50f60bc4e156045df2", "name": "1f6c59897c1f2e50f60bc4e156045df2"}, {"lon": -77.03318, "is_disabled": 0, "lat": 38.89856566666667, "fusion_lat": 0.0, "is_reserved": 0, "rental_uris": {"ios": "https://dc.lft.to/lastmile_qr_scan", "android": "https://dc.lft.to/lastmile_qr_scan"}, "fusion_lon": 0.0, "type": "electric_scooter", "bike_id": "134509adad2795f86fca7fbd16f729e5", "name": "134509adad2795f86fca7fbd16f729e5"}, {"lon": -76.98271816666667, "is_disabled": 0, "lat": 38.84615133333333, "fusion_lat": 0.0, "is_reserved": 0, "rental_uris": {"ios": "https://dc.lft.to/lastmile_qr_scan", "android": "https://dc.lft.to/lastmile_qr_scan"}, "fusion_lon": 0.0, "type": "electric_scooter", "bike_id": "20e7b01bcf70ee6d94dc05b9b7b627ee", "name": "20e7b01bcf70ee6d94dc05b9b7b627ee"}, {"lon": -77.0167065, "is_disabled": 0, "lat": 38.920463833333336, "fusion_lat": 0.0, "is_reserved": 0, "rental_uris": {"ios": "https://dc.lft.to/lastmile_qr_scan", "android": "https://dc.lft.to/lastmile_qr_scan"}, "fusion_lon": 0.0, "type": "electric_scooter", "bike_id": "c27a5e3f25ace981eea166e7f2df1517", "name": "c27a5e3f25ace981eea166e7f2df1517"}, {"lon": -77.039659, "is_disabled": 0, "lat": 38.90343516666667, "fusion_lat": 0.0, "is_reserved": 0, "rental_uris": {"ios": "https://dc.lft.to/lastmile_qr_scan", "android": "https://dc.lft.to/lastmile_qr_scan"}, "fusion_lon": 0.0, "type": "electric_scooter", "bike_id": "03597486afcf39461c21b3072bb508b7", "name": "03597486afcf39461c21b3072bb508b7"}, {"lon": -76.99494316666667, "is_disabled": 0, "lat": 38.86243616666667, "fusion_lat": 0.0, "is_reserved": 0, "rental_uris": {"ios": "https://dc.lft.to/lastmile_qr_scan", "android": "https://dc.lft.to/lastmile_qr_scan"}, "fusion_lon": 0.0, "type": "electric_scooter", "bike_id": "94034394418bc7cbab2271a346a160b0", "name": "94034394418bc7cbab2271a346a160b0"}, {"lon": -77.03213416666667, "is_disabled": 0, "lat": 38.8924815, "fusion_lat": 0.0, "is_reserved": 0, "rental_uris": {"ios": "https://dc.lft.to/lastmile_qr_scan", "android": "https://dc.lft.to/lastmile_qr_scan"}, "fusion_lon": 0.0, "type": "electric_scooter", "bike_id": "21e3dbf5ca3b2653a9878a698bd336af", "name": "21e3dbf5ca3b2653a9878a698bd336af"}, {"lon": -77.04190233333334, "is_disabled": 0, "lat": 38.9262065, "fusion_lat": 0.0, "is_reserved": 0, "rental_uris": {"ios": "https://dc.lft.to/lastmile_qr_scan", "android": "https://dc.lft.to/lastmile_qr_scan"}, "fusion_lon": 0.0, "type": "electric_scooter", "bike_id": "48ca93fabbee44cd780385425dad01f9", "name": "48ca93fabbee44cd780385425dad01f9"}, {"lon": -76.9397175, "is_disabled": 0, "lat": 38.893109833333334, "fusion_lat": 0.0, "is_reserved": 0, "rental_uris": {"ios": "https://dc.lft.to/lastmile_qr_scan", "android": "https://dc.lft.to/lastmile_qr_scan"}, "fusion_lon": 0.0, "type": "electric_scooter", "bike_id": "aa80084d47f194817d19fe64741ec23f", "name": "aa80084d47f194817d19fe64741ec23f"}, {"lon": -77.04372266666667, "is_disabled": 0, "lat": 38.892213166666664, "fusion_lat": 0.0, "is_reserved": 0, "rental_uris": {"ios": "https://dc.lft.to/lastmile_qr_scan", "android": "https://dc.lft.to/lastmile_qr_scan"}, "fusion_lon": 0.0, "type": "electric_scooter", "bike_id": "4db08f2d1faae9ee94eb2dc1c47db8a1", "name": "4db08f2d1faae9ee94eb2dc1c47db8a1"}, {"lon": -77.029044, "is_disabled": 0, "lat": 38.910248333333335, "fusion_lat": 0.0, "is_reserved": 0, "rental_uris": {"ios": "https://dc.lft.to/lastmile_qr_scan", "android": "https://dc.lft.to/lastmile_qr_scan"}, "fusion_lon": 0.0, "type": "electric_scooter", "bike_id": "00ceeba3f6b249583b50c79fefb9e339", "name": "00ceeba3f6b249583b50c79fefb9e339"}, {"lon": -77.043358, "is_disabled": 0, "lat": 38.92220533333333, "fusion_lat": 0.0, "is_reserved": 0, "rental_uris": {"ios": "https://dc.lft.to/lastmile_qr_scan", "android": "https://dc.lft.to/lastmile_qr_scan"}, "fusion_lon": 0.0, "type": "electric_scooter", "bike_id": "263b7c95f44108aa8011321b56be9056", "name": "263b7c95f44108aa8011321b56be9056"}, {"lon": -77.00112866666667, "is_disabled": 0, "lat": 38.873739666666665, "fusion_lat": 0.0, "is_reserved": 0, "rental_uris": {"ios": "https://dc.lft.to/lastmile_qr_scan", "android": "https://dc.lft.to/lastmile_qr_scan"}, "fusion_lon": 0.0, "type": "electric_scooter", "bike_id": "a8947f2d9a7e58f9bf0537d92778ad38", "name": "a8947f2d9a7e58f9bf0537d92778ad38"}, {"lon": -77.0238015, "is_disabled": 0, "lat": 38.936437, "fusion_lat": 0.0, "is_reserved": 0, "rental_uris": {"ios": "https://dc.lft.to/lastmile_qr_scan", "android": "https://dc.lft.to/lastmile_qr_scan"}, "fusion_lon": 0.0, "type": "electric_scooter", "bike_id": "2ef22efada7168b47d7df57af2e35bb7", "name": "2ef22efada7168b47d7df57af2e35bb7"}, {"lon": -77.04009033333334, "is_disabled": 0, "lat": 38.9342995, "fusion_lat": 0.0, "is_reserved": 0, "rental_uris": {"ios": "https://dc.lft.to/lastmile_qr_scan", "android": "https://dc.lft.to/lastmile_qr_scan"}, "fusion_lon": 0.0, "type": "electric_scooter", "bike_id": "311268c9ff13df870d96b6ee5ee0c8e4", "name": "311268c9ff13df870d96b6ee5ee0c8e4"}, {"lon": -77.04318966666666, "is_disabled": 0, "lat": 38.908566, "fusion_lat": 0.0, "is_reserved": 0, "rental_uris": {"ios": "https://dc.lft.to/lastmile_qr_scan", "android": "https://dc.lft.to/lastmile_qr_scan"}, "fusion_lon": 0.0, "type": "electric_scooter", "bike_id": "e8a20177a96b7e5fc7e8b3d06891759f", "name": "e8a20177a96b7e5fc7e8b3d06891759f"}, {"lon": -77.02723566666667, "is_disabled": 0, "lat": 38.8972185, "fusion_lat": 0.0, "is_reserved": 0, "rental_uris": {"ios": "https://dc.lft.to/lastmile_qr_scan", "android": "https://dc.lft.to/lastmile_qr_scan"}, "fusion_lon": 0.0, "type": "electric_scooter", "bike_id": "80caa784c808646d3da856e59d08aa6e", "name": "80caa784c808646d3da856e59d08aa6e"}, {"lon": -77.07654116666667, "is_disabled": 0, "lat": 38.94326183333333, "fusion_lat": 0.0, "is_reserved": 0, "rental_uris": {"ios": "https://dc.lft.to/lastmile_qr_scan", "android": "https://dc.lft.to/lastmile_qr_scan"}, "fusion_lon": 0.0, "type": "electric_scooter", "bike_id": "cbd94de87d13559a1fe775f1c556311a", "name": "cbd94de87d13559a1fe775f1c556311a"}, {"lon": -77.02359183333333, "is_disabled": 0, "lat": 38.924129, "fusion_lat": 0.0, "is_reserved": 0, "rental_uris": {"ios": "https://dc.lft.to/lastmile_qr_scan", "android": "https://dc.lft.to/lastmile_qr_scan"}, "fusion_lon": 0.0, "type": "electric_scooter", "bike_id": "766c7ee46a2419dd38a9a5a8b726fc0c", "name": "766c7ee46a2419dd38a9a5a8b726fc0c"}, {"lon": -77.04160033333334, "is_disabled": 0, "lat": 38.907206333333335, "fusion_lat": 0.0, "is_reserved": 0, "rental_uris": {"ios": "https://dc.lft.to/lastmile_qr_scan", "android": "https://dc.lft.to/lastmile_qr_scan"}, "fusion_lon": 0.0, "type": "electric_scooter", "bike_id": "2120947fda4b09b460f8253a89248449", "name": "2120947fda4b09b460f8253a89248449"}, {"lon": -77.04349666666667, "is_disabled": 0, "lat": 38.910457666666666, "fusion_lat": 0.0, "is_reserved": 0, "rental_uris": {"ios": "https://dc.lft.to/lastmile_qr_scan", "android": "https://dc.lft.to/lastmile_qr_scan"}, "fusion_lon": 0.0, "type": "electric_scooter", "bike_id": "fc83356762e0fc68c314923dac34118a", "name": "fc83356762e0fc68c314923dac34118a"}, {"lon": -76.97784216666666, "is_disabled": 0, "lat": 38.90568833333333, "fusion_lat": 0.0, "is_reserved": 0, "rental_uris": {"ios": "https://dc.lft.to/lastmile_qr_scan", "android": "https://dc.lft.to/lastmile_qr_scan"}, "fusion_lon": 0.0, "type": "electric_scooter", "bike_id": "e058fcc293d86ea996928a2e668d1faa", "name": "e058fcc293d86ea996928a2e668d1faa"}, {"lon": -77.04620216666666, "is_disabled": 0, "lat": 38.90272133333333, "fusion_lat": 0.0, "is_reserved": 0, "rental_uris": {"ios": "https://dc.lft.to/lastmile_qr_scan", "android": "https://dc.lft.to/lastmile_qr_scan"}, "fusion_lon": 0.0, "type": "electric_scooter", "bike_id": "c70d62c3990e917594b859c2fe2cca60", "name": "c70d62c3990e917594b859c2fe2cca60"}, {"lon": -77.0515065, "is_disabled": 0, "lat": 38.92376816666667, "fusion_lat": 0.0, "is_reserved": 0, "rental_uris": {"ios": "https://dc.lft.to/lastmile_qr_scan", "android": "https://dc.lft.to/lastmile_qr_scan"}, "fusion_lon": 0.0, "type": "electric_scooter", "bike_id": "0e4495286d2e7e1d0fce549c14f332e9", "name": "0e4495286d2e7e1d0fce549c14f332e9"}, {"lon": -77.01211533333333, "is_disabled": 0, "lat": 38.90618116666667, "fusion_lat": 0.0, "is_reserved": 0, "rental_uris": {"ios": "https://dc.lft.to/lastmile_qr_scan", "android": "https://dc.lft.to/lastmile_qr_scan"}, "fusion_lon": 0.0, "type": "electric_scooter", "bike_id": "308fb89cfa29041b27d4dc74ca4aae8f", "name": "308fb89cfa29041b27d4dc74ca4aae8f"}, {"lon": -76.98686683333334, "is_disabled": 0, "lat": 38.877635833333336, "fusion_lat": 0.0, "is_reserved": 0, "rental_uris": {"ios": "https://dc.lft.to/lastmile_qr_scan", "android": "https://dc.lft.to/lastmile_qr_scan"}, "fusion_lon": 0.0, "type": "electric_scooter", "bike_id": "88dbe3a94be92a5c920243ec1a735968", "name": "88dbe3a94be92a5c920243ec1a735968"}, {"lon": -77.0151695, "is_disabled": 0, "lat": 38.92676266666667, "fusion_lat": 0.0, "is_reserved": 0, "rental_uris": {"ios": "https://dc.lft.to/lastmile_qr_scan", "android": "https://dc.lft.to/lastmile_qr_scan"}, "fusion_lon": 0.0, "type": "electric_scooter", "bike_id": "18427ec1ec3815a8be6f0130e15c3525", "name": "18427ec1ec3815a8be6f0130e15c3525"}, {"lon": -77.03364383333333, "is_disabled": 0, "lat": 38.92158116666667, "fusion_lat": 0.0, "is_reserved": 0, "rental_uris": {"ios": "https://dc.lft.to/lastmile_qr_scan", "android": "https://dc.lft.to/lastmile_qr_scan"}, "fusion_lon": 0.0, "type": "electric_scooter", "bike_id": "f6427702e21410b63e547bbc6df6dbe2", "name": "f6427702e21410b63e547bbc6df6dbe2"}, {"lon": -77.04515, "is_disabled": 0, "lat": 38.923217, "fusion_lat": 0.0, "is_reserved": 0, "rental_uris": {"ios": "https://dc.lft.to/lastmile_qr_scan", "android": "https://dc.lft.to/lastmile_qr_scan"}, "fusion_lon": 0.0, "type": "electric_scooter", "bike_id": "aa2e44e3ef68baf4c9ec4163d91aadcc", "name": "aa2e44e3ef68baf4c9ec4163d91aadcc"}, {"lon": -76.94630383333333, "is_disabled": 0, "lat": 38.832452833333335, "fusion_lat": 0.0, "is_reserved": 0, "rental_uris": {"ios": "https://dc.lft.to/lastmile_qr_scan", "android": "https://dc.lft.to/lastmile_qr_scan"}, "fusion_lon": 0.0, "type": "electric_bike", "bike_id": "84cb87ec6414030efd5278ddd8d12b12", "name": "84cb87ec6414030efd5278ddd8d12b12"}, {"lon": -77.02772933333334, "is_disabled": 0, "lat": 38.9286225, "fusion_lat": 0.0, "is_reserved": 0, "rental_uris": {"ios": "https://dc.lft.to/lastmile_qr_scan", "android": "https://dc.lft.to/lastmile_qr_scan"}, "fusion_lon": 0.0, "type": "electric_scooter", "bike_id": "618b2201b7f2d111f339a45e5d7e5590", "name": "618b2201b7f2d111f339a45e5d7e5590"}, {"lon": -77.0240795, "is_disabled": 0, "lat": 38.91417833333333, "fusion_lat": 0.0, "is_reserved": 0, "rental_uris": {"ios": "https://dc.lft.to/lastmile_qr_scan", "android": "https://dc.lft.to/lastmile_qr_scan"}, "fusion_lon": 0.0, "type": "electric_scooter", "bike_id": "6b75fc7c6bd89e0daf1655bccda26ab0", "name": "6b75fc7c6bd89e0daf1655bccda26ab0"}, {"lon": -77.037771, "is_disabled": 0, "lat": 38.902218166666664, "fusion_lat": 0.0, "is_reserved": 0, "rental_uris": {"ios": "https://dc.lft.to/lastmile_qr_scan", "android": "https://dc.lft.to/lastmile_qr_scan"}, "fusion_lon": 0.0, "type": "electric_scooter", "bike_id": "869ea6ac42ae4f8d4ac96b2978ff6d87", "name": "869ea6ac42ae4f8d4ac96b2978ff6d87"}, {"lon": -77.02284283333333, "is_disabled": 0, "lat": 38.92747033333333, "fusion_lat": 0.0, "is_reserved": 0, "rental_uris": {"ios": "https://dc.lft.to/lastmile_qr_scan", "android": "https://dc.lft.to/lastmile_qr_scan"}, "fusion_lon": 0.0, "type": "electric_scooter", "bike_id": "51c05d1fd768ca17f753054dddbe86d3", "name": "51c05d1fd768ca17f753054dddbe86d3"}, {"lon": -76.93029416666667, "is_disabled": 0, "lat": 38.895762, "fusion_lat": 0.0, "is_reserved": 0, "rental_uris": {"ios": "https://dc.lft.to/lastmile_qr_scan", "android": "https://dc.lft.to/lastmile_qr_scan"}, "fusion_lon": 0.0, "type": "electric_scooter", "bike_id": "8d17846fd44239c40b57a3dcd4efcd06", "name": "8d17846fd44239c40b57a3dcd4efcd06"}, {"lon": -76.95664733333334, "is_disabled": 0, "lat": 38.8847315, "fusion_lat": 0.0, "is_reserved": 0, "rental_uris": {"ios": "https://dc.lft.to/lastmile_qr_scan", "android": "https://dc.lft.to/lastmile_qr_scan"}, "fusion_lon": 0.0, "type": "electric_bike", "bike_id": "4029b321e36f924d520772ab2e70b8b1", "name": "4029b321e36f924d520772ab2e70b8b1"}, {"lon": -76.99618766666667, "is_disabled": 0, "lat": 38.88446366666667, "fusion_lat": 0.0, "is_reserved": 0, "rental_uris": {"ios": "https://dc.lft.to/lastmile_qr_scan", "android": "https://dc.lft.to/lastmile_qr_scan"}, "fusion_lon": 0.0, "type": "electric_scooter", "bike_id": "134f2cc81200c3ac4e28323725e71b87", "name": "134f2cc81200c3ac4e28323725e71b87"}, {"lon": -77.04298816666666, "is_disabled": 0, "lat": 39.03429416666667, "fusion_lat": 0.0, "is_reserved": 0, "rental_uris": {"ios": "https://dc.lft.to/lastmile_qr_scan", "android": "https://dc.lft.to/lastmile_qr_scan"}, "fusion_lon": 0.0, "type": "electric_bike", "bike_id": "cff62e0dfc06befff4c18ceb7816fb06", "name": "cff62e0dfc06befff4c18ceb7816fb06"}, {"lon": -77.03160466666667, "is_disabled": 0, "lat": 38.916230166666665, "fusion_lat": 0.0, "is_reserved": 0, "rental_uris": {"ios": "https://dc.lft.to/lastmile_qr_scan", "android": "https://dc.lft.to/lastmile_qr_scan"}, "fusion_lon": 0.0, "type": "electric_scooter", "bike_id": "24ac35dd3973e508657483ba76d6bdc6", "name": "24ac35dd3973e508657483ba76d6bdc6"}, {"lon": -77.02637916666667, "is_disabled": 0, "lat": 38.936554666666666, "fusion_lat": 0.0, "is_reserved": 0, "rental_uris": {"ios": "https://dc.lft.to/lastmile_qr_scan", "android": "https://dc.lft.to/lastmile_qr_scan"}, "fusion_lon": 0.0, "type": "electric_scooter", "bike_id": "444c0a29e5415d6f16e7bb642a349e96", "name": "444c0a29e5415d6f16e7bb642a349e96"}, {"lon": -77.0034275, "is_disabled": 0, "lat": 38.89509316666667, "fusion_lat": 0.0, "is_reserved": 0, "rental_uris": {"ios": "https://dc.lft.to/lastmile_qr_scan", "android": "https://dc.lft.to/lastmile_qr_scan"}, "fusion_lon": 0.0, "type": "electric_scooter", "bike_id": "b6813ecfdda29e7f9b0f1c5446b563b7", "name": "b6813ecfdda29e7f9b0f1c5446b563b7"}, {"lon": -77.0487715, "is_disabled": 0, "lat": 38.90518683333333, "fusion_lat": 0.0, "is_reserved": 0, "rental_uris": {"ios": "https://dc.lft.to/lastmile_qr_scan", "android": "https://dc.lft.to/lastmile_qr_scan"}, "fusion_lon": 0.0, "type": "electric_scooter", "bike_id": "45b1bc1af0409a01cdc41704300d6dde", "name": "45b1bc1af0409a01cdc41704300d6dde"}, {"lon": -77.04256316666667, "is_disabled": 0, "lat": 38.90927216666667, "fusion_lat": 0.0, "is_reserved": 0, "rental_uris": {"ios": "https://dc.lft.to/lastmile_qr_scan", "android": "https://dc.lft.to/lastmile_qr_scan"}, "fusion_lon": 0.0, "type": "electric_scooter", "bike_id": "003d11d4c96ea359d125cdcf977ae3dd", "name": "003d11d4c96ea359d125cdcf977ae3dd"}, {"lon": -77.02293366666666, "is_disabled": 0, "lat": 38.92698866666667, "fusion_lat": 0.0, "is_reserved": 0, "rental_uris": {"ios": "https://dc.lft.to/lastmile_qr_scan", "android": "https://dc.lft.to/lastmile_qr_scan"}, "fusion_lon": 0.0, "type": "electric_scooter", "bike_id": "1a2c31e652ef2514b53939bb703a30ed", "name": "1a2c31e652ef2514b53939bb703a30ed"}, {"lon": -77.02453233333334, "is_disabled": 0, "lat": 38.900037, "fusion_lat": 0.0, "is_reserved": 0, "rental_uris": {"ios": "https://dc.lft.to/lastmile_qr_scan", "android": "https://dc.lft.to/lastmile_qr_scan"}, "fusion_lon": 0.0, "type": "electric_scooter", "bike_id": "fb79b6b6d745d6f1cb8e1af0619c6f3f", "name": "fb79b6b6d745d6f1cb8e1af0619c6f3f"}, {"lon": -76.9575265, "is_disabled": 0, "lat": 38.8843445, "fusion_lat": 0.0, "is_reserved": 0, "rental_uris": {"ios": "https://dc.lft.to/lastmile_qr_scan", "android": "https://dc.lft.to/lastmile_qr_scan"}, "fusion_lon": 0.0, "type": "electric_scooter", "bike_id": "f069eb0d54f4a007d1fa881922cca10f", "name": "f069eb0d54f4a007d1fa881922cca10f"}, {"lon": -77.05139133333333, "is_disabled": 0, "lat": 38.898249166666666, "fusion_lat": 0.0, "is_reserved": 0, "rental_uris": {"ios": "https://dc.lft.to/lastmile_qr_scan", "android": "https://dc.lft.to/lastmile_qr_scan"}, "fusion_lon": 0.0, "type": "electric_scooter", "bike_id": "4ee39a138d0cb69a8ebb2b3ddb9418cd", "name": "4ee39a138d0cb69a8ebb2b3ddb9418cd"}, {"lon": -77.0088515, "is_disabled": 0, "lat": 38.92514383333334, "fusion_lat": 0.0, "is_reserved": 0, "rental_uris": {"ios": "https://dc.lft.to/lastmile_qr_scan", "android": "https://dc.lft.to/lastmile_qr_scan"}, "fusion_lon": 0.0, "type": "electric_scooter", "bike_id": "97f45bf81fa183f440506043a49fcdc2", "name": "97f45bf81fa183f440506043a49fcdc2"}, {"lon": -77.08658516666667, "is_disabled": 0, "lat": 38.86250866666666, "fusion_lat": 0.0, "is_reserved": 0, "rental_uris": {"ios": "https://dc.lft.to/lastmile_qr_scan", "android": "https://dc.lft.to/lastmile_qr_scan"}, "fusion_lon": 0.0, "type": "electric_bike", "bike_id": "0dafb89437ca67e7fffcfc67345f8697", "name": "0dafb89437ca67e7fffcfc67345f8697"}, {"lon": -77.0223895, "is_disabled": 0, "lat": 38.92242666666667, "fusion_lat": 0.0, "is_reserved": 0, "rental_uris": {"ios": "https://dc.lft.to/lastmile_qr_scan", "android": "https://dc.lft.to/lastmile_qr_scan"}, "fusion_lon": 0.0, "type": "electric_scooter", "bike_id": "19d03660e5fb0acab73dded6eed05424", "name": "19d03660e5fb0acab73dded6eed05424"}, {"lon": -77.030523, "is_disabled": 0, "lat": 38.9238725, "fusion_lat": 0.0, "is_reserved": 0, "rental_uris": {"ios": "https://dc.lft.to/lastmile_qr_scan", "android": "https://dc.lft.to/lastmile_qr_scan"}, "fusion_lon": 0.0, "type": "electric_scooter", "bike_id": "e741729b8785d4f0f035fdc68cf826df", "name": "e741729b8785d4f0f035fdc68cf826df"}, {"lon": -77.03359316666666, "is_disabled": 0, "lat": 38.92894233333333, "fusion_lat": 0.0, "is_reserved": 0, "rental_uris": {"ios": "https://dc.lft.to/lastmile_qr_scan", "android": "https://dc.lft.to/lastmile_qr_scan"}, "fusion_lon": 0.0, "type": "electric_scooter", "bike_id": "bb8d389727682074219b1e5a703e182f", "name": "bb8d389727682074219b1e5a703e182f"}, {"lon": -76.99794883333334, "is_disabled": 0, "lat": 38.95092866666667, "fusion_lat": 0.0, "is_reserved": 0, "rental_uris": {"ios": "https://dc.lft.to/lastmile_qr_scan", "android": "https://dc.lft.to/lastmile_qr_scan"}, "fusion_lon": 0.0, "type": "electric_bike", "bike_id": "682bf6d4e5c448d40aa0c81e85df0816", "name": "682bf6d4e5c448d40aa0c81e85df0816"}, {"lon": -77.043927, "is_disabled": 0, "lat": 38.900208, "fusion_lat": 0.0, "is_reserved": 0, "rental_uris": {"ios": "https://dc.lft.to/lastmile_qr_scan", "android": "https://dc.lft.to/lastmile_qr_scan"}, "fusion_lon": 0.0, "type": "electric_scooter", "bike_id": "da5529c0bfa0e213b74f42c917b1b3ee", "name": "da5529c0bfa0e213b74f42c917b1b3ee"}, {"lon": -77.04379333333333, "is_disabled": 0, "lat": 38.9256655, "fusion_lat": 0.0, "is_reserved": 0, "rental_uris": {"ios": "https://dc.lft.to/lastmile_qr_scan", "android": "https://dc.lft.to/lastmile_qr_scan"}, "fusion_lon": 0.0, "type": "electric_scooter", "bike_id": "a3822356ba60a0acff9baf774362ac36", "name": "a3822356ba60a0acff9baf774362ac36"}, {"lon": -77.0735735, "is_disabled": 0, "lat": 38.933553, "fusion_lat": 0.0, "is_reserved": 0, "rental_uris": {"ios": "https://dc.lft.to/lastmile_qr_scan", "android": "https://dc.lft.to/lastmile_qr_scan"}, "fusion_lon": 0.0, "type": "electric_scooter", "bike_id": "79fd9d8b1a14c4347c03ac0b235c9587", "name": "79fd9d8b1a14c4347c03ac0b235c9587"}, {"lon": -77.02388566666667, "is_disabled": 0, "lat": 38.91673083333333, "fusion_lat": 0.0, "is_reserved": 0, "rental_uris": {"ios": "https://dc.lft.to/lastmile_qr_scan", "android": "https://dc.lft.to/lastmile_qr_scan"}, "fusion_lon": 0.0, "type": "electric_scooter", "bike_id": "04ab5839e4b5b00877dcfb02c21dc6b7", "name": "04ab5839e4b5b00877dcfb02c21dc6b7"}, {"lon": -77.02507083333333, "is_disabled": 0, "lat": 38.942727, "fusion_lat": 0.0, "is_reserved": 0, "rental_uris": {"ios": "https://dc.lft.to/lastmile_qr_scan", "android": "https://dc.lft.to/lastmile_qr_scan"}, "fusion_lon": 0.0, "type": "electric_scooter", "bike_id": "42d09d0f22059d57fee39d6a7c23dfe3", "name": "42d09d0f22059d57fee39d6a7c23dfe3"}, {"lon": -77.03279416666666, "is_disabled": 0, "lat": 38.92889866666667, "fusion_lat": 0.0, "is_reserved": 0, "rental_uris": {"ios": "https://dc.lft.to/lastmile_qr_scan", "android": "https://dc.lft.to/lastmile_qr_scan"}, "fusion_lon": 0.0, "type": "electric_scooter", "bike_id": "d8fcc5ce9069fcebbbd28531bbb83344", "name": "d8fcc5ce9069fcebbbd28531bbb83344"}, {"lon": -77.04649866666666, "is_disabled": 0, "lat": 38.909613666666665, "fusion_lat": 0.0, "is_reserved": 0, "rental_uris": {"ios": "https://dc.lft.to/lastmile_qr_scan", "android": "https://dc.lft.to/lastmile_qr_scan"}, "fusion_lon": 0.0, "type": "electric_scooter", "bike_id": "239249a8912e27e1555334fe5172d121", "name": "239249a8912e27e1555334fe5172d121"}, {"lon": -77.0476945, "is_disabled": 0, "lat": 38.9050095, "fusion_lat": 0.0, "is_reserved": 0, "rental_uris": {"ios": "https://dc.lft.to/lastmile_qr_scan", "android": "https://dc.lft.to/lastmile_qr_scan"}, "fusion_lon": 0.0, "type": "electric_scooter", "bike_id": "b94e9d307a6d33459133fcf48d55ec70", "name": "b94e9d307a6d33459133fcf48d55ec70"}, {"lon": -77.02959766666666, "is_disabled": 0, "lat": 38.91687, "fusion_lat": 0.0, "is_reserved": 0, "rental_uris": {"ios": "https://dc.lft.to/lastmile_qr_scan", "android": "https://dc.lft.to/lastmile_qr_scan"}, "fusion_lon": 0.0, "type": "electric_scooter", "bike_id": "34dc6b273873322b05c9c222411ed92d", "name": "34dc6b273873322b05c9c222411ed92d"}, {"lon": -77.041358, "is_disabled": 0, "lat": 38.924936333333335, "fusion_lat": 0.0, "is_reserved": 0, "rental_uris": {"ios": "https://dc.lft.to/lastmile_qr_scan", "android": "https://dc.lft.to/lastmile_qr_scan"}, "fusion_lon": 0.0, "type": "electric_scooter", "bike_id": "47e3b256bcaa6a215c90296fcae172d7", "name": "47e3b256bcaa6a215c90296fcae172d7"}, {"lon": -76.99296166666667, "is_disabled": 0, "lat": 38.857553833333334, "fusion_lat": 0.0, "is_reserved": 0, "rental_uris": {"ios": "https://dc.lft.to/lastmile_qr_scan", "android": "https://dc.lft.to/lastmile_qr_scan"}, "fusion_lon": 0.0, "type": "electric_scooter", "bike_id": "e1e0290001795298fcecd2e2ea6118b1", "name": "e1e0290001795298fcecd2e2ea6118b1"}, {"lon": -77.03192566666667, "is_disabled": 0, "lat": 38.91847766666667, "fusion_lat": 0.0, "is_reserved": 0, "rental_uris": {"ios": "https://dc.lft.to/lastmile_qr_scan", "android": "https://dc.lft.to/lastmile_qr_scan"}, "fusion_lon": 0.0, "type": "electric_scooter", "bike_id": "27d3ea6bbe0f44c50a9f302469475e63", "name": "27d3ea6bbe0f44c50a9f302469475e63"}, {"lon": -77.04302616666666, "is_disabled": 0, "lat": 38.90561016666667, "fusion_lat": 0.0, "is_reserved": 0, "rental_uris": {"ios": "https://dc.lft.to/lastmile_qr_scan", "android": "https://dc.lft.to/lastmile_qr_scan"}, "fusion_lon": 0.0, "type": "electric_scooter", "bike_id": "cf97877caaa7fc190e9e853166d016fa", "name": "cf97877caaa7fc190e9e853166d016fa"}, {"lon": -77.03808466666666, "is_disabled": 0, "lat": 38.906795, "fusion_lat": 0.0, "is_reserved": 0, "rental_uris": {"ios": "https://dc.lft.to/lastmile_qr_scan", "android": "https://dc.lft.to/lastmile_qr_scan"}, "fusion_lon": 0.0, "type": "electric_scooter", "bike_id": "f50ddc7fe25698dde49f0d917cace069", "name": "f50ddc7fe25698dde49f0d917cace069"}, {"lon": -77.02294116666667, "is_disabled": 0, "lat": 38.89494033333333, "fusion_lat": 0.0, "is_reserved": 0, "rental_uris": {"ios": "https://dc.lft.to/lastmile_qr_scan", "android": "https://dc.lft.to/lastmile_qr_scan"}, "fusion_lon": 0.0, "type": "electric_scooter", "bike_id": "982788c753e3f274f9238d3a43c6b0fd", "name": "982788c753e3f274f9238d3a43c6b0fd"}, {"lon": -77.02640116666667, "is_disabled": 0, "lat": 38.98475233333333, "fusion_lat": 0.0, "is_reserved": 0, "rental_uris": {"ios": "https://dc.lft.to/lastmile_qr_scan", "android": "https://dc.lft.to/lastmile_qr_scan"}, "fusion_lon": 0.0, "type": "electric_scooter", "bike_id": "aa13b1b9313f2370048e690cdad875dc", "name": "aa13b1b9313f2370048e690cdad875dc"}, {"lon": -76.96530783333333, "is_disabled": 0, "lat": 38.876281, "fusion_lat": 0.0, "is_reserved": 0, "rental_uris": {"ios": "https://dc.lft.to/lastmile_qr_scan", "android": "https://dc.lft.to/lastmile_qr_scan"}, "fusion_lon": 0.0, "type": "electric_scooter", "bike_id": "89dc411cf4da40dbd244e4a0744f8645", "name": "89dc411cf4da40dbd244e4a0744f8645"}, {"lon": -77.01577716666667, "is_disabled": 0, "lat": 38.87646633333333, "fusion_lat": 0.0, "is_reserved": 0, "rental_uris": {"ios": "https://dc.lft.to/lastmile_qr_scan", "android": "https://dc.lft.to/lastmile_qr_scan"}, "fusion_lon": 0.0, "type": "electric_scooter", "bike_id": "8db450c16bd9bd5a03c3093caf88e99a", "name": "8db450c16bd9bd5a03c3093caf88e99a"}, {"lon": -76.9464205, "is_disabled": 0, "lat": 38.89866833333333, "fusion_lat": 0.0, "is_reserved": 0, "rental_uris": {"ios": "https://dc.lft.to/lastmile_qr_scan", "android": "https://dc.lft.to/lastmile_qr_scan"}, "fusion_lon": 0.0, "type": "electric_scooter", "bike_id": "57caa32ad4cf212f4332a96177a7582b", "name": "57caa32ad4cf212f4332a96177a7582b"}, {"lon": -77.007994, "is_disabled": 0, "lat": 38.94919066666667, "fusion_lat": 0.0, "is_reserved": 0, "rental_uris": {"ios": "https://dc.lft.to/lastmile_qr_scan", "android": "https://dc.lft.to/lastmile_qr_scan"}, "fusion_lon": 0.0, "type": "electric_bike", "bike_id": "8ae3856175e9a6ff61078fca7a066180", "name": "8ae3856175e9a6ff61078fca7a066180"}, {"lon": -77.0208765, "is_disabled": 0, "lat": 38.88185133333333, "fusion_lat": 0.0, "is_reserved": 0, "rental_uris": {"ios": "https://dc.lft.to/lastmile_qr_scan", "android": "https://dc.lft.to/lastmile_qr_scan"}, "fusion_lon": 0.0, "type": "electric_scooter", "bike_id": "1315d2bfeebadd9ce39162319c685f95", "name": "1315d2bfeebadd9ce39162319c685f95"}, {"lon": -77.040122, "is_disabled": 0, "lat": 38.910067166666664, "fusion_lat": 0.0, "is_reserved": 0, "rental_uris": {"ios": "https://dc.lft.to/lastmile_qr_scan", "android": "https://dc.lft.to/lastmile_qr_scan"}, "fusion_lon": 0.0, "type": "electric_scooter", "bike_id": "e1fa11428be1edbb9c66eb58c80d04f7", "name": "e1fa11428be1edbb9c66eb58c80d04f7"}, {"lon": -77.04488983333333, "is_disabled": 0, "lat": 38.903919333333334, "fusion_lat": 0.0, "is_reserved": 0, "rental_uris": {"ios": "https://dc.lft.to/lastmile_qr_scan", "android": "https://dc.lft.to/lastmile_qr_scan"}, "fusion_lon": 0.0, "type": "electric_scooter", "bike_id": "ef1e0da67ad81ad6e60bece060c568ed", "name": "ef1e0da67ad81ad6e60bece060c568ed"}, {"lon": -76.98818266666666, "is_disabled": 0, "lat": 38.900715166666664, "fusion_lat": 0.0, "is_reserved": 0, "rental_uris": {"ios": "https://dc.lft.to/lastmile_qr_scan", "android": "https://dc.lft.to/lastmile_qr_scan"}, "fusion_lon": 0.0, "type": "electric_scooter", "bike_id": "65be1ad6ef7809f04275fabddce3b4a3", "name": "65be1ad6ef7809f04275fabddce3b4a3"}, {"lon": -76.98602133333333, "is_disabled": 0, "lat": 38.9001405, "fusion_lat": 0.0, "is_reserved": 0, "rental_uris": {"ios": "https://dc.lft.to/lastmile_qr_scan", "android": "https://dc.lft.to/lastmile_qr_scan"}, "fusion_lon": 0.0, "type": "electric_scooter", "bike_id": "bf214ef70be8b0853251ccc884bd2dc0", "name": "bf214ef70be8b0853251ccc884bd2dc0"}, {"lon": -77.048768, "is_disabled": 0, "lat": 38.909786833333335, "fusion_lat": 0.0, "is_reserved": 0, "rental_uris": {"ios": "https://dc.lft.to/lastmile_qr_scan", "android": "https://dc.lft.to/lastmile_qr_scan"}, "fusion_lon": 0.0, "type": "electric_scooter", "bike_id": "5a9629800ec18940c070cf5269dd8dd9", "name": "5a9629800ec18940c070cf5269dd8dd9"}, {"lon": -76.9949155, "is_disabled": 0, "lat": 38.8834595, "fusion_lat": 0.0, "is_reserved": 0, "rental_uris": {"ios": "https://dc.lft.to/lastmile_qr_scan", "android": "https://dc.lft.to/lastmile_qr_scan"}, "fusion_lon": 0.0, "type": "electric_scooter", "bike_id": "061486617aeabcceb6137f5ccf5c41c4", "name": "061486617aeabcceb6137f5ccf5c41c4"}, {"lon": -77.0401765, "is_disabled": 0, "lat": 38.89632116666667, "fusion_lat": 0.0, "is_reserved": 0, "rental_uris": {"ios": "https://dc.lft.to/lastmile_qr_scan", "android": "https://dc.lft.to/lastmile_qr_scan"}, "fusion_lon": 0.0, "type": "electric_scooter", "bike_id": "7da504c3f2b8ed2fa011c939402c256c", "name": "7da504c3f2b8ed2fa011c939402c256c"}, {"lon": -77.015289, "is_disabled": 0, "lat": 38.8874025, "fusion_lat": 0.0, "is_reserved": 0, "rental_uris": {"ios": "https://dc.lft.to/lastmile_qr_scan", "android": "https://dc.lft.to/lastmile_qr_scan"}, "fusion_lon": 0.0, "type": "electric_scooter", "bike_id": "8e8693e8d68cd85427abb43a00cf2336", "name": "8e8693e8d68cd85427abb43a00cf2336"}, {"lon": -77.08067633333333, "is_disabled": 0, "lat": 39.05255316666667, "fusion_lat": 0.0, "is_reserved": 0, "rental_uris": {"ios": "https://dc.lft.to/lastmile_qr_scan", "android": "https://dc.lft.to/lastmile_qr_scan"}, "fusion_lon": 0.0, "type": "electric_bike", "bike_id": "da4e2fe69c9fc35b2387d1964c28c1c5", "name": "da4e2fe69c9fc35b2387d1964c28c1c5"}, {"lon": -77.02407116666667, "is_disabled": 0, "lat": 38.914058, "fusion_lat": 0.0, "is_reserved": 0, "rental_uris": {"ios": "https://dc.lft.to/lastmile_qr_scan", "android": "https://dc.lft.to/lastmile_qr_scan"}, "fusion_lon": 0.0, "type": "electric_scooter", "bike_id": "a6c799e1c1293e4c547ea302fc46cda7", "name": "a6c799e1c1293e4c547ea302fc46cda7"}, {"lon": -77.04499433333334, "is_disabled": 0, "lat": 38.9150775, "fusion_lat": 0.0, "is_reserved": 0, "rental_uris": {"ios": "https://dc.lft.to/lastmile_qr_scan", "android": "https://dc.lft.to/lastmile_qr_scan"}, "fusion_lon": 0.0, "type": "electric_scooter", "bike_id": "38a899e2369c22a2fe122bc2e500c813", "name": "38a899e2369c22a2fe122bc2e500c813"}, {"lon": -77.0176245, "is_disabled": 0, "lat": 38.90253166666667, "fusion_lat": 0.0, "is_reserved": 0, "rental_uris": {"ios": "https://dc.lft.to/lastmile_qr_scan", "android": "https://dc.lft.to/lastmile_qr_scan"}, "fusion_lon": 0.0, "type": "electric_scooter", "bike_id": "d1c4332129296e41b5f271f19bd3f8d0", "name": "d1c4332129296e41b5f271f19bd3f8d0"}, {"lon": -76.95776533333333, "is_disabled": 0, "lat": 38.868813333333335, "fusion_lat": 0.0, "is_reserved": 0, "rental_uris": {"ios": "https://dc.lft.to/lastmile_qr_scan", "android": "https://dc.lft.to/lastmile_qr_scan"}, "fusion_lon": 0.0, "type": "electric_bike", "bike_id": "a8454bad02b9738a2f9c42b2e2f0a0fc", "name": "a8454bad02b9738a2f9c42b2e2f0a0fc"}, {"lon": -77.03829583333334, "is_disabled": 0, "lat": 38.90779783333333, "fusion_lat": 0.0, "is_reserved": 0, "rental_uris": {"ios": "https://dc.lft.to/lastmile_qr_scan", "android": "https://dc.lft.to/lastmile_qr_scan"}, "fusion_lon": 0.0, "type": "electric_scooter", "bike_id": "00a6839c7fc580647f3a4d54c688ca77", "name": "00a6839c7fc580647f3a4d54c688ca77"}, {"lon": -77.02057533333333, "is_disabled": 0, "lat": 38.93342366666667, "fusion_lat": 0.0, "is_reserved": 0, "rental_uris": {"ios": "https://dc.lft.to/lastmile_qr_scan", "android": "https://dc.lft.to/lastmile_qr_scan"}, "fusion_lon": 0.0, "type": "electric_scooter", "bike_id": "bdec27d2f58bc57c2ed0c1cc4190c474", "name": "bdec27d2f58bc57c2ed0c1cc4190c474"}, {"lon": -77.03441583333333, "is_disabled": 0, "lat": 38.904323833333336, "fusion_lat": 0.0, "is_reserved": 0, "rental_uris": {"ios": "https://dc.lft.to/lastmile_qr_scan", "android": "https://dc.lft.to/lastmile_qr_scan"}, "fusion_lon": 0.0, "type": "electric_scooter", "bike_id": "6a6b74b7815139f8c9c2ff1fc00c381b", "name": "6a6b74b7815139f8c9c2ff1fc00c381b"}, {"lon": -77.00592933333333, "is_disabled": 0, "lat": 38.8757085, "fusion_lat": 0.0, "is_reserved": 0, "rental_uris": {"ios": "https://dc.lft.to/lastmile_qr_scan", "android": "https://dc.lft.to/lastmile_qr_scan"}, "fusion_lon": 0.0, "type": "electric_scooter", "bike_id": "00efc2dcd44f06a2727f72e5dae1da81", "name": "00efc2dcd44f06a2727f72e5dae1da81"}, {"lon": -77.04943533333334, "is_disabled": 0, "lat": 38.9182335, "fusion_lat": 0.0, "is_reserved": 0, "rental_uris": {"ios": "https://dc.lft.to/lastmile_qr_scan", "android": "https://dc.lft.to/lastmile_qr_scan"}, "fusion_lon": 0.0, "type": "electric_scooter", "bike_id": "e06c185cacb72dac21189ede0abdcc93", "name": "e06c185cacb72dac21189ede0abdcc93"}, {"lon": -76.9654525, "is_disabled": 0, "lat": 38.918411, "fusion_lat": 0.0, "is_reserved": 0, "rental_uris": {"ios": "https://dc.lft.to/lastmile_qr_scan", "android": "https://dc.lft.to/lastmile_qr_scan"}, "fusion_lon": 0.0, "type": "electric_scooter", "bike_id": "af40c2ba9619b4f841384d3059f8a899", "name": "af40c2ba9619b4f841384d3059f8a899"}, {"lon": -77.02291983333333, "is_disabled": 0, "lat": 38.894962666666665, "fusion_lat": 0.0, "is_reserved": 0, "rental_uris": {"ios": "https://dc.lft.to/lastmile_qr_scan", "android": "https://dc.lft.to/lastmile_qr_scan"}, "fusion_lon": 0.0, "type": "electric_scooter", "bike_id": "55078cd7351ebd60f09d8d3d7d3a076e", "name": "55078cd7351ebd60f09d8d3d7d3a076e"}, {"lon": -76.9702695, "is_disabled": 0, "lat": 38.873631333333336, "fusion_lat": 0.0, "is_reserved": 0, "rental_uris": {"ios": "https://dc.lft.to/lastmile_qr_scan", "android": "https://dc.lft.to/lastmile_qr_scan"}, "fusion_lon": 0.0, "type": "electric_scooter", "bike_id": "dbd4616ef31179e8fb769b8eae733f2f", "name": "dbd4616ef31179e8fb769b8eae733f2f"}, {"lon": -77.02951716666666, "is_disabled": 0, "lat": 38.9325065, "fusion_lat": 0.0, "is_reserved": 0, "rental_uris": {"ios": "https://dc.lft.to/lastmile_qr_scan", "android": "https://dc.lft.to/lastmile_qr_scan"}, "fusion_lon": 0.0, "type": "electric_scooter", "bike_id": "2b968a502550ca350f685bfdebcb4089", "name": "2b968a502550ca350f685bfdebcb4089"}, {"lon": -77.03735383333333, "is_disabled": 0, "lat": 38.92024116666666, "fusion_lat": 0.0, "is_reserved": 0, "rental_uris": {"ios": "https://dc.lft.to/lastmile_qr_scan", "android": "https://dc.lft.to/lastmile_qr_scan"}, "fusion_lon": 0.0, "type": "electric_scooter", "bike_id": "3f04b20ddff75e933ba8c78ac90d8092", "name": "3f04b20ddff75e933ba8c78ac90d8092"}, {"lon": -77.0365095, "is_disabled": 0, "lat": 38.9051115, "fusion_lat": 0.0, "is_reserved": 0, "rental_uris": {"ios": "https://dc.lft.to/lastmile_qr_scan", "android": "https://dc.lft.to/lastmile_qr_scan"}, "fusion_lon": 0.0, "type": "electric_scooter", "bike_id": "60f508e4da89c75c26c8211550a65985", "name": "60f508e4da89c75c26c8211550a65985"}, {"lon": -77.04685666666667, "is_disabled": 0, "lat": 38.89556433333333, "fusion_lat": 0.0, "is_reserved": 0, "rental_uris": {"ios": "https://dc.lft.to/lastmile_qr_scan", "android": "https://dc.lft.to/lastmile_qr_scan"}, "fusion_lon": 0.0, "type": "electric_scooter", "bike_id": "d9abfab610e55c7ba34d1e9fdf98b8b1", "name": "d9abfab610e55c7ba34d1e9fdf98b8b1"}, {"lon": -77.04346366666667, "is_disabled": 0, "lat": 38.904041666666664, "fusion_lat": 0.0, "is_reserved": 0, "rental_uris": {"ios": "https://dc.lft.to/lastmile_qr_scan", "android": "https://dc.lft.to/lastmile_qr_scan"}, "fusion_lon": 0.0, "type": "electric_scooter", "bike_id": "857fa03e7202b3ff4de2c8222752cdc3", "name": "857fa03e7202b3ff4de2c8222752cdc3"}, {"lon": -76.99994016666666, "is_disabled": 0, "lat": 38.964063, "fusion_lat": 0.0, "is_reserved": 0, "rental_uris": {"ios": "https://dc.lft.to/lastmile_qr_scan", "android": "https://dc.lft.to/lastmile_qr_scan"}, "fusion_lon": 0.0, "type": "electric_bike", "bike_id": "c242a7b8a17c4fb570149285ef923358", "name": "c242a7b8a17c4fb570149285ef923358"}, {"lon": -77.04085483333333, "is_disabled": 0, "lat": 38.9039165, "fusion_lat": 0.0, "is_reserved": 0, "rental_uris": {"ios": "https://dc.lft.to/lastmile_qr_scan", "android": "https://dc.lft.to/lastmile_qr_scan"}, "fusion_lon": 0.0, "type": "electric_scooter", "bike_id": "f164f4dbf9c3906248091dfc42fbec08", "name": "f164f4dbf9c3906248091dfc42fbec08"}, {"lon": -77.0281705, "is_disabled": 0, "lat": 38.899050833333334, "fusion_lat": 0.0, "is_reserved": 0, "rental_uris": {"ios": "https://dc.lft.to/lastmile_qr_scan", "android": "https://dc.lft.to/lastmile_qr_scan"}, "fusion_lon": 0.0, "type": "electric_scooter", "bike_id": "3a19db943b7d3d69015acb83ffdf8007", "name": "3a19db943b7d3d69015acb83ffdf8007"}, {"lon": -77.038553, "is_disabled": 0, "lat": 38.916026, "fusion_lat": 0.0, "is_reserved": 0, "rental_uris": {"ios": "https://dc.lft.to/lastmile_qr_scan", "android": "https://dc.lft.to/lastmile_qr_scan"}, "fusion_lon": 0.0, "type": "electric_scooter", "bike_id": "86972154fc97570408c118fe9b8ba13d", "name": "86972154fc97570408c118fe9b8ba13d"}, {"lon": -77.04681316666667, "is_disabled": 0, "lat": 38.895126166666664, "fusion_lat": 0.0, "is_reserved": 0, "rental_uris": {"ios": "https://dc.lft.to/lastmile_qr_scan", "android": "https://dc.lft.to/lastmile_qr_scan"}, "fusion_lon": 0.0, "type": "electric_scooter", "bike_id": "c9468d4bd5aeaf9aea35b8dd77ae6869", "name": "c9468d4bd5aeaf9aea35b8dd77ae6869"}, {"lon": -77.04477983333334, "is_disabled": 0, "lat": 38.909443333333336, "fusion_lat": 0.0, "is_reserved": 0, "rental_uris": {"ios": "https://dc.lft.to/lastmile_qr_scan", "android": "https://dc.lft.to/lastmile_qr_scan"}, "fusion_lon": 0.0, "type": "electric_scooter", "bike_id": "7bc66acba2525a3dd0a53a733e73c57d", "name": "7bc66acba2525a3dd0a53a733e73c57d"}, {"lon": -77.024647, "is_disabled": 0, "lat": 38.89733716666667, "fusion_lat": 0.0, "is_reserved": 0, "rental_uris": {"ios": "https://dc.lft.to/lastmile_qr_scan", "android": "https://dc.lft.to/lastmile_qr_scan"}, "fusion_lon": 0.0, "type": "electric_scooter", "bike_id": "caecbd84a855661dfbdb89f7759e4f7e", "name": "caecbd84a855661dfbdb89f7759e4f7e"}, {"lon": -77.03583733333333, "is_disabled": 0, "lat": 38.942438833333334, "fusion_lat": 0.0, "is_reserved": 0, "rental_uris": {"ios": "https://dc.lft.to/lastmile_qr_scan", "android": "https://dc.lft.to/lastmile_qr_scan"}, "fusion_lon": 0.0, "type": "electric_scooter", "bike_id": "eedf9e6b635b74471dfe30efc6e0c6a1", "name": "eedf9e6b635b74471dfe30efc6e0c6a1"}, {"lon": -77.04171016666666, "is_disabled": 0, "lat": 38.91402016666667, "fusion_lat": 0.0, "is_reserved": 0, "rental_uris": {"ios": "https://dc.lft.to/lastmile_qr_scan", "android": "https://dc.lft.to/lastmile_qr_scan"}, "fusion_lon": 0.0, "type": "electric_scooter", "bike_id": "8e05da89e0d5e728fbd91b717fdeffc2", "name": "8e05da89e0d5e728fbd91b717fdeffc2"}, {"lon": -77.03935766666666, "is_disabled": 0, "lat": 38.90633666666667, "fusion_lat": 0.0, "is_reserved": 0, "rental_uris": {"ios": "https://dc.lft.to/lastmile_qr_scan", "android": "https://dc.lft.to/lastmile_qr_scan"}, "fusion_lon": 0.0, "type": "electric_scooter", "bike_id": "bcf7e04774c2c92662b97a9e5cb97472", "name": "bcf7e04774c2c92662b97a9e5cb97472"}, {"lon": -77.039178, "is_disabled": 0, "lat": 38.8985855, "fusion_lat": 0.0, "is_reserved": 0, "rental_uris": {"ios": "https://dc.lft.to/lastmile_qr_scan", "android": "https://dc.lft.to/lastmile_qr_scan"}, "fusion_lon": 0.0, "type": "electric_scooter", "bike_id": "71251c6378001b8ed001381f61396a74", "name": "71251c6378001b8ed001381f61396a74"}, {"lon": -77.0342065, "is_disabled": 0, "lat": 38.90576183333334, "fusion_lat": 0.0, "is_reserved": 0, "rental_uris": {"ios": "https://dc.lft.to/lastmile_qr_scan", "android": "https://dc.lft.to/lastmile_qr_scan"}, "fusion_lon": 0.0, "type": "electric_scooter", "bike_id": "600cac945b48b7a2b27b2e1fe9d54ace", "name": "600cac945b48b7a2b27b2e1fe9d54ace"}, {"lon": -77.0380765, "is_disabled": 0, "lat": 38.9067225, "fusion_lat": 0.0, "is_reserved": 0, "rental_uris": {"ios": "https://dc.lft.to/lastmile_qr_scan", "android": "https://dc.lft.to/lastmile_qr_scan"}, "fusion_lon": 0.0, "type": "electric_scooter", "bike_id": "156e45033d51d1503deef54c5441b3fe", "name": "156e45033d51d1503deef54c5441b3fe"}, {"lon": -76.95755883333334, "is_disabled": 0, "lat": 38.88430916666667, "fusion_lat": 0.0, "is_reserved": 0, "rental_uris": {"ios": "https://dc.lft.to/lastmile_qr_scan", "android": "https://dc.lft.to/lastmile_qr_scan"}, "fusion_lon": 0.0, "type": "electric_scooter", "bike_id": "57fd6a2cd7b2e9f91a1fc53f029d9dd5", "name": "57fd6a2cd7b2e9f91a1fc53f029d9dd5"}, {"lon": -77.03333483333333, "is_disabled": 0, "lat": 38.92051083333333, "fusion_lat": 0.0, "is_reserved": 0, "rental_uris": {"ios": "https://dc.lft.to/lastmile_qr_scan", "android": "https://dc.lft.to/lastmile_qr_scan"}, "fusion_lon": 0.0, "type": "electric_scooter", "bike_id": "5ec0ce25399516be6102875020aad28c", "name": "5ec0ce25399516be6102875020aad28c"}, {"lon": -77.031941, "is_disabled": 0, "lat": 38.913260666666666, "fusion_lat": 0.0, "is_reserved": 0, "rental_uris": {"ios": "https://dc.lft.to/lastmile_qr_scan", "android": "https://dc.lft.to/lastmile_qr_scan"}, "fusion_lon": 0.0, "type": "electric_scooter", "bike_id": "ec7db80857ebe374ff1baae9c6378e54", "name": "ec7db80857ebe374ff1baae9c6378e54"}, {"lon": -77.05745216666666, "is_disabled": 0, "lat": 38.933934, "fusion_lat": 0.0, "is_reserved": 0, "rental_uris": {"ios": "https://dc.lft.to/lastmile_qr_scan", "android": "https://dc.lft.to/lastmile_qr_scan"}, "fusion_lon": 0.0, "type": "electric_scooter", "bike_id": "f0f03394351a704d5b8e8ba9b3c5f583", "name": "f0f03394351a704d5b8e8ba9b3c5f583"}, {"lon": -77.0324255, "is_disabled": 0, "lat": 38.923876, "fusion_lat": 0.0, "is_reserved": 0, "rental_uris": {"ios": "https://dc.lft.to/lastmile_qr_scan", "android": "https://dc.lft.to/lastmile_qr_scan"}, "fusion_lon": 0.0, "type": "electric_scooter", "bike_id": "2c4e3cece2faf15aea29794ce0b9e78e", "name": "2c4e3cece2faf15aea29794ce0b9e78e"}, {"lon": -77.00517716666667, "is_disabled": 0, "lat": 38.87472133333333, "fusion_lat": 0.0, "is_reserved": 0, "rental_uris": {"ios": "https://dc.lft.to/lastmile_qr_scan", "android": "https://dc.lft.to/lastmile_qr_scan"}, "fusion_lon": 0.0, "type": "electric_scooter", "bike_id": "b05945262d0a432e78498b54f85edcc2", "name": "b05945262d0a432e78498b54f85edcc2"}, {"lon": -76.94891433333333, "is_disabled": 0, "lat": 38.895311166666666, "fusion_lat": 0.0, "is_reserved": 0, "rental_uris": {"ios": "https://dc.lft.to/lastmile_qr_scan", "android": "https://dc.lft.to/lastmile_qr_scan"}, "fusion_lon": 0.0, "type": "electric_scooter", "bike_id": "b9d4495aa49c6c7fb5d1937bf12380ad", "name": "b9d4495aa49c6c7fb5d1937bf12380ad"}, {"lon": -77.03634233333334, "is_disabled": 0, "lat": 38.903768166666666, "fusion_lat": 0.0, "is_reserved": 0, "rental_uris": {"ios": "https://dc.lft.to/lastmile_qr_scan", "android": "https://dc.lft.to/lastmile_qr_scan"}, "fusion_lon": 0.0, "type": "electric_scooter", "bike_id": "835f91e8f0a3e4ccaa1177d806586334", "name": "835f91e8f0a3e4ccaa1177d806586334"}, {"lon": -77.0515155, "is_disabled": 0, "lat": 38.92375416666667, "fusion_lat": 0.0, "is_reserved": 0, "rental_uris": {"ios": "https://dc.lft.to/lastmile_qr_scan", "android": "https://dc.lft.to/lastmile_qr_scan"}, "fusion_lon": 0.0, "type": "electric_scooter", "bike_id": "03f1c4fef8799ea5dc83fc9cfa5e5ddd", "name": "03f1c4fef8799ea5dc83fc9cfa5e5ddd"}, {"lon": -77.03523316666667, "is_disabled": 0, "lat": 38.92241466666667, "fusion_lat": 0.0, "is_reserved": 0, "rental_uris": {"ios": "https://dc.lft.to/lastmile_qr_scan", "android": "https://dc.lft.to/lastmile_qr_scan"}, "fusion_lon": 0.0, "type": "electric_scooter", "bike_id": "4ec1fa01f8b3e4784186f381bcbf506b", "name": "4ec1fa01f8b3e4784186f381bcbf506b"}, {"lon": -77.01874966666666, "is_disabled": 0, "lat": 38.874462666666666, "fusion_lat": 0.0, "is_reserved": 0, "rental_uris": {"ios": "https://dc.lft.to/lastmile_qr_scan", "android": "https://dc.lft.to/lastmile_qr_scan"}, "fusion_lon": 0.0, "type": "electric_scooter", "bike_id": "c44a217ae9221f37dd34653ac1200f0f", "name": "c44a217ae9221f37dd34653ac1200f0f"}, {"lon": -77.0413955, "is_disabled": 0, "lat": 38.901309, "fusion_lat": 0.0, "is_reserved": 0, "rental_uris": {"ios": "https://dc.lft.to/lastmile_qr_scan", "android": "https://dc.lft.to/lastmile_qr_scan"}, "fusion_lon": 0.0, "type": "electric_scooter", "bike_id": "21f42e6e80d407034809032e0e09415e", "name": "21f42e6e80d407034809032e0e09415e"}, {"lon": -77.0240765, "is_disabled": 0, "lat": 38.9154895, "fusion_lat": 0.0, "is_reserved": 0, "rental_uris": {"ios": "https://dc.lft.to/lastmile_qr_scan", "android": "https://dc.lft.to/lastmile_qr_scan"}, "fusion_lon": 0.0, "type": "electric_scooter", "bike_id": "073d70ad8e804639cda2249defab1116", "name": "073d70ad8e804639cda2249defab1116"}, {"lon": -77.06405233333334, "is_disabled": 0, "lat": 38.94440516666667, "fusion_lat": 0.0, "is_reserved": 0, "rental_uris": {"ios": "https://dc.lft.to/lastmile_qr_scan", "android": "https://dc.lft.to/lastmile_qr_scan"}, "fusion_lon": 0.0, "type": "electric_scooter", "bike_id": "34a106828634de0e6cd0779dde9bac90", "name": "34a106828634de0e6cd0779dde9bac90"}, {"lon": -77.046671, "is_disabled": 0, "lat": 38.9035325, "fusion_lat": 0.0, "is_reserved": 0, "rental_uris": {"ios": "https://dc.lft.to/lastmile_qr_scan", "android": "https://dc.lft.to/lastmile_qr_scan"}, "fusion_lon": 0.0, "type": "electric_scooter", "bike_id": "c7a18d35ea1f115b5970a0f8b92e79e7", "name": "c7a18d35ea1f115b5970a0f8b92e79e7"}, {"lon": -77.08431116666667, "is_disabled": 0, "lat": 38.93184566666667, "fusion_lat": 0.0, "is_reserved": 0, "rental_uris": {"ios": "https://dc.lft.to/lastmile_qr_scan", "android": "https://dc.lft.to/lastmile_qr_scan"}, "fusion_lon": 0.0, "type": "electric_scooter", "bike_id": "663f16f65ecf365c99c0f39008b9cb97", "name": "663f16f65ecf365c99c0f39008b9cb97"}, {"lon": -76.99612666666667, "is_disabled": 0, "lat": 38.90068616666667, "fusion_lat": 0.0, "is_reserved": 0, "rental_uris": {"ios": "https://dc.lft.to/lastmile_qr_scan", "android": "https://dc.lft.to/lastmile_qr_scan"}, "fusion_lon": 0.0, "type": "electric_scooter", "bike_id": "02c8673868cd0e77d30c9f5ef69d4bed", "name": "02c8673868cd0e77d30c9f5ef69d4bed"}, {"lon": -77.032063, "is_disabled": 0, "lat": 38.9286285, "fusion_lat": 0.0, "is_reserved": 0, "rental_uris": {"ios": "https://dc.lft.to/lastmile_qr_scan", "android": "https://dc.lft.to/lastmile_qr_scan"}, "fusion_lon": 0.0, "type": "electric_scooter", "bike_id": "a5d5f1349048c0861a79258fadb7d657", "name": "a5d5f1349048c0861a79258fadb7d657"}, {"lon": -76.94569916666667, "is_disabled": 0, "lat": 38.86625, "fusion_lat": 0.0, "is_reserved": 0, "rental_uris": {"ios": "https://dc.lft.to/lastmile_qr_scan", "android": "https://dc.lft.to/lastmile_qr_scan"}, "fusion_lon": 0.0, "type": "electric_bike", "bike_id": "5e2a5a9d81521d2c9e0f20a5b7c239c0", "name": "5e2a5a9d81521d2c9e0f20a5b7c239c0"}, {"lon": -77.04540616666667, "is_disabled": 0, "lat": 38.91324633333333, "fusion_lat": 0.0, "is_reserved": 0, "rental_uris": {"ios": "https://dc.lft.to/lastmile_qr_scan", "android": "https://dc.lft.to/lastmile_qr_scan"}, "fusion_lon": 0.0, "type": "electric_scooter", "bike_id": "cf60cd810e34580560258fe27a1d6377", "name": "cf60cd810e34580560258fe27a1d6377"}, {"lon": -77.0068275, "is_disabled": 0, "lat": 38.87173583333333, "fusion_lat": 0.0, "is_reserved": 0, "rental_uris": {"ios": "https://dc.lft.to/lastmile_qr_scan", "android": "https://dc.lft.to/lastmile_qr_scan"}, "fusion_lon": 0.0, "type": "electric_scooter", "bike_id": "f283df7755490c3a82f19ce1e5ec761e", "name": "f283df7755490c3a82f19ce1e5ec761e"}, {"lon": -77.03803216666667, "is_disabled": 0, "lat": 38.919981, "fusion_lat": 0.0, "is_reserved": 0, "rental_uris": {"ios": "https://dc.lft.to/lastmile_qr_scan", "android": "https://dc.lft.to/lastmile_qr_scan"}, "fusion_lon": 0.0, "type": "electric_scooter", "bike_id": "18f96d011ee935cbabac7254ff9d0de9", "name": "18f96d011ee935cbabac7254ff9d0de9"}, {"lon": -77.13097966666666, "is_disabled": 0, "lat": 39.02442033333333, "fusion_lat": 0.0, "is_reserved": 0, "rental_uris": {"ios": "https://dc.lft.to/lastmile_qr_scan", "android": "https://dc.lft.to/lastmile_qr_scan"}, "fusion_lon": 0.0, "type": "electric_bike", "bike_id": "6ca22ce0b39d75f3e1a68412ea2adae8", "name": "6ca22ce0b39d75f3e1a68412ea2adae8"}, {"lon": -77.02587433333333, "is_disabled": 0, "lat": 38.914882, "fusion_lat": 0.0, "is_reserved": 0, "rental_uris": {"ios": "https://dc.lft.to/lastmile_qr_scan", "android": "https://dc.lft.to/lastmile_qr_scan"}, "fusion_lon": 0.0, "type": "electric_scooter", "bike_id": "3c40049f4602306347268910ed4e21d8", "name": "3c40049f4602306347268910ed4e21d8"}, {"lon": -77.04454283333334, "is_disabled": 0, "lat": 38.896168, "fusion_lat": 0.0, "is_reserved": 0, "rental_uris": {"ios": "https://dc.lft.to/lastmile_qr_scan", "android": "https://dc.lft.to/lastmile_qr_scan"}, "fusion_lon": 0.0, "type": "electric_scooter", "bike_id": "bc5dfe0126e705dcdbc3306fcac3fa62", "name": "bc5dfe0126e705dcdbc3306fcac3fa62"}, {"lon": -77.00745233333333, "is_disabled": 0, "lat": 38.90963883333333, "fusion_lat": 0.0, "is_reserved": 0, "rental_uris": {"ios": "https://dc.lft.to/lastmile_qr_scan", "android": "https://dc.lft.to/lastmile_qr_scan"}, "fusion_lon": 0.0, "type": "electric_bike", "bike_id": "660cb261b33b3f74ee349a34cf9e853b", "name": "660cb261b33b3f74ee349a34cf9e853b"}, {"lon": -77.04860283333333, "is_disabled": 0, "lat": 38.9045035, "fusion_lat": 0.0, "is_reserved": 0, "rental_uris": {"ios": "https://dc.lft.to/lastmile_qr_scan", "android": "https://dc.lft.to/lastmile_qr_scan"}, "fusion_lon": 0.0, "type": "electric_scooter", "bike_id": "668e52f96eb51a26c0aae4e5b94f1697", "name": "668e52f96eb51a26c0aae4e5b94f1697"}, {"lon": -77.03122533333334, "is_disabled": 0, "lat": 38.920233, "fusion_lat": 0.0, "is_reserved": 0, "rental_uris": {"ios": "https://dc.lft.to/lastmile_qr_scan", "android": "https://dc.lft.to/lastmile_qr_scan"}, "fusion_lon": 0.0, "type": "electric_scooter", "bike_id": "fd3bd81cde3658187f31d8c141a7e7d6", "name": "fd3bd81cde3658187f31d8c141a7e7d6"}, {"lon": -77.00377966666667, "is_disabled": 0, "lat": 38.90760216666666, "fusion_lat": 0.0, "is_reserved": 0, "rental_uris": {"ios": "https://dc.lft.to/lastmile_qr_scan", "android": "https://dc.lft.to/lastmile_qr_scan"}, "fusion_lon": 0.0, "type": "electric_scooter", "bike_id": "a8a4141888b118252a930ccd73098562", "name": "a8a4141888b118252a930ccd73098562"}, {"lon": -77.04332716666667, "is_disabled": 0, "lat": 38.8952535, "fusion_lat": 0.0, "is_reserved": 0, "rental_uris": {"ios": "https://dc.lft.to/lastmile_qr_scan", "android": "https://dc.lft.to/lastmile_qr_scan"}, "fusion_lon": 0.0, "type": "electric_scooter", "bike_id": "44de9afa29c19a3fcbcebb79155ff683", "name": "44de9afa29c19a3fcbcebb79155ff683"}, {"lon": -77.04334083333333, "is_disabled": 0, "lat": 38.922199166666665, "fusion_lat": 0.0, "is_reserved": 0, "rental_uris": {"ios": "https://dc.lft.to/lastmile_qr_scan", "android": "https://dc.lft.to/lastmile_qr_scan"}, "fusion_lon": 0.0, "type": "electric_scooter", "bike_id": "b07cf72fabb2c8c36ae136d3dd5320b3", "name": "b07cf72fabb2c8c36ae136d3dd5320b3"}, {"lon": -77.03454716666667, "is_disabled": 0, "lat": 38.918208166666666, "fusion_lat": 0.0, "is_reserved": 0, "rental_uris": {"ios": "https://dc.lft.to/lastmile_qr_scan", "android": "https://dc.lft.to/lastmile_qr_scan"}, "fusion_lon": 0.0, "type": "electric_scooter", "bike_id": "98f59053b8e6d6dcc35577b41e5d2d09", "name": "98f59053b8e6d6dcc35577b41e5d2d09"}, {"lon": -77.0320905, "is_disabled": 0, "lat": 38.91835966666667, "fusion_lat": 0.0, "is_reserved": 0, "rental_uris": {"ios": "https://dc.lft.to/lastmile_qr_scan", "android": "https://dc.lft.to/lastmile_qr_scan"}, "fusion_lon": 0.0, "type": "electric_scooter", "bike_id": "b38ead2b598775722ad312acefeadba3", "name": "b38ead2b598775722ad312acefeadba3"}, {"lon": -77.02800916666666, "is_disabled": 0, "lat": 38.929729, "fusion_lat": 0.0, "is_reserved": 0, "rental_uris": {"ios": "https://dc.lft.to/lastmile_qr_scan", "android": "https://dc.lft.to/lastmile_qr_scan"}, "fusion_lon": 0.0, "type": "electric_scooter", "bike_id": "ec65c0c40b692f33129b536766eb88f6", "name": "ec65c0c40b692f33129b536766eb88f6"}, {"lon": -77.01705016666666, "is_disabled": 0, "lat": 38.91385, "fusion_lat": 0.0, "is_reserved": 0, "rental_uris": {"ios": "https://dc.lft.to/lastmile_qr_scan", "android": "https://dc.lft.to/lastmile_qr_scan"}, "fusion_lon": 0.0, "type": "electric_scooter", "bike_id": "85b437418261a2c2473c6fe97ffd6bca", "name": "85b437418261a2c2473c6fe97ffd6bca"}, {"lon": -76.9321275, "is_disabled": 0, "lat": 38.89672933333333, "fusion_lat": 0.0, "is_reserved": 0, "rental_uris": {"ios": "https://dc.lft.to/lastmile_qr_scan", "android": "https://dc.lft.to/lastmile_qr_scan"}, "fusion_lon": 0.0, "type": "electric_scooter", "bike_id": "390279a9a12ee1d56bfbf89d9a6bda58", "name": "390279a9a12ee1d56bfbf89d9a6bda58"}, {"lon": -77.0416995, "is_disabled": 0, "lat": 38.9064335, "fusion_lat": 0.0, "is_reserved": 0, "rental_uris": {"ios": "https://dc.lft.to/lastmile_qr_scan", "android": "https://dc.lft.to/lastmile_qr_scan"}, "fusion_lon": 0.0, "type": "electric_scooter", "bike_id": "f53d3b0ba12a6c542823dd31eb6798bb", "name": "f53d3b0ba12a6c542823dd31eb6798bb"}, {"lon": -77.01958216666667, "is_disabled": 0, "lat": 38.92421, "fusion_lat": 0.0, "is_reserved": 0, "rental_uris": {"ios": "https://dc.lft.to/lastmile_qr_scan", "android": "https://dc.lft.to/lastmile_qr_scan"}, "fusion_lon": 0.0, "type": "electric_scooter", "bike_id": "075eee118fb352aae947a4a5af4a431f", "name": "075eee118fb352aae947a4a5af4a431f"}, {"lon": -77.02712283333334, "is_disabled": 0, "lat": 38.9000195, "fusion_lat": 0.0, "is_reserved": 0, "rental_uris": {"ios": "https://dc.lft.to/lastmile_qr_scan", "android": "https://dc.lft.to/lastmile_qr_scan"}, "fusion_lon": 0.0, "type": "electric_scooter", "bike_id": "43d95b614ff2e46ad7784318d147f0cb", "name": "43d95b614ff2e46ad7784318d147f0cb"}, {"lon": -77.0007195, "is_disabled": 0, "lat": 38.901504, "fusion_lat": 0.0, "is_reserved": 0, "rental_uris": {"ios": "https://dc.lft.to/lastmile_qr_scan", "android": "https://dc.lft.to/lastmile_qr_scan"}, "fusion_lon": 0.0, "type": "electric_scooter", "bike_id": "468072f1a892ae7d94ed9c0430308a4e", "name": "468072f1a892ae7d94ed9c0430308a4e"}, {"lon": -77.01766433333333, "is_disabled": 0, "lat": 38.920553, "fusion_lat": 0.0, "is_reserved": 0, "rental_uris": {"ios": "https://dc.lft.to/lastmile_qr_scan", "android": "https://dc.lft.to/lastmile_qr_scan"}, "fusion_lon": 0.0, "type": "electric_scooter", "bike_id": "5e4f276ca2253951a41b06a5923dc9ef", "name": "5e4f276ca2253951a41b06a5923dc9ef"}, {"lon": -76.99615733333333, "is_disabled": 0, "lat": 38.90066433333333, "fusion_lat": 0.0, "is_reserved": 0, "rental_uris": {"ios": "https://dc.lft.to/lastmile_qr_scan", "android": "https://dc.lft.to/lastmile_qr_scan"}, "fusion_lon": 0.0, "type": "electric_scooter", "bike_id": "4d0dc320e4bdcaddf644a576dd8f4f8c", "name": "4d0dc320e4bdcaddf644a576dd8f4f8c"}, {"lon": -77.02792883333333, "is_disabled": 0, "lat": 38.92969566666667, "fusion_lat": 0.0, "is_reserved": 0, "rental_uris": {"ios": "https://dc.lft.to/lastmile_qr_scan", "android": "https://dc.lft.to/lastmile_qr_scan"}, "fusion_lon": 0.0, "type": "electric_scooter", "bike_id": "db8f665d20e5f9ebbda881d3832d3696", "name": "db8f665d20e5f9ebbda881d3832d3696"}, {"lon": -77.04015166666667, "is_disabled": 0, "lat": 38.903825, "fusion_lat": 0.0, "is_reserved": 0, "rental_uris": {"ios": "https://dc.lft.to/lastmile_qr_scan", "android": "https://dc.lft.to/lastmile_qr_scan"}, "fusion_lon": 0.0, "type": "electric_scooter", "bike_id": "f5c6b06575f27893187a0a5b456b1f96", "name": "f5c6b06575f27893187a0a5b456b1f96"}, {"lon": -77.03233916666667, "is_disabled": 0, "lat": 38.9055055, "fusion_lat": 0.0, "is_reserved": 0, "rental_uris": {"ios": "https://dc.lft.to/lastmile_qr_scan", "android": "https://dc.lft.to/lastmile_qr_scan"}, "fusion_lon": 0.0, "type": "electric_scooter", "bike_id": "5c908aa5802d20e85a41043eebdf535d", "name": "5c908aa5802d20e85a41043eebdf535d"}, {"lon": -77.07164816666666, "is_disabled": 0, "lat": 38.938198166666666, "fusion_lat": 0.0, "is_reserved": 0, "rental_uris": {"ios": "https://dc.lft.to/lastmile_qr_scan", "android": "https://dc.lft.to/lastmile_qr_scan"}, "fusion_lon": 0.0, "type": "electric_scooter", "bike_id": "991a5d8c3f7fe8ce5c035ed02f297384", "name": "991a5d8c3f7fe8ce5c035ed02f297384"}, {"lon": -77.0651065, "is_disabled": 0, "lat": 38.903983833333335, "fusion_lat": 0.0, "is_reserved": 0, "rental_uris": {"ios": "https://dc.lft.to/lastmile_qr_scan", "android": "https://dc.lft.to/lastmile_qr_scan"}, "fusion_lon": 0.0, "type": "electric_scooter", "bike_id": "e86cb8ec519902c70c1e30b973278b4f", "name": "e86cb8ec519902c70c1e30b973278b4f"}, {"lon": -77.02954033333333, "is_disabled": 0, "lat": 38.916863166666666, "fusion_lat": 0.0, "is_reserved": 0, "rental_uris": {"ios": "https://dc.lft.to/lastmile_qr_scan", "android": "https://dc.lft.to/lastmile_qr_scan"}, "fusion_lon": 0.0, "type": "electric_scooter", "bike_id": "dd36e6d17726548a09f045f1480e9ba5", "name": "dd36e6d17726548a09f045f1480e9ba5"}, {"lon": -77.057252, "is_disabled": 0, "lat": 38.93371633333334, "fusion_lat": 0.0, "is_reserved": 0, "rental_uris": {"ios": "https://dc.lft.to/lastmile_qr_scan", "android": "https://dc.lft.to/lastmile_qr_scan"}, "fusion_lon": 0.0, "type": "electric_scooter", "bike_id": "589b2911dacdba51c03236ce82bfa78b", "name": "589b2911dacdba51c03236ce82bfa78b"}, {"lon": -77.00198116666667, "is_disabled": 0, "lat": 38.900434, "fusion_lat": 0.0, "is_reserved": 0, "rental_uris": {"ios": "https://dc.lft.to/lastmile_qr_scan", "android": "https://dc.lft.to/lastmile_qr_scan"}, "fusion_lon": 0.0, "type": "electric_scooter", "bike_id": "44c6999a61ab6d9f737d83ccfb56b135", "name": "44c6999a61ab6d9f737d83ccfb56b135"}, {"lon": -77.04164816666666, "is_disabled": 0, "lat": 38.905539, "fusion_lat": 0.0, "is_reserved": 0, "rental_uris": {"ios": "https://dc.lft.to/lastmile_qr_scan", "android": "https://dc.lft.to/lastmile_qr_scan"}, "fusion_lon": 0.0, "type": "electric_scooter", "bike_id": "98b6554bb13468f3f556725e4b6d3a5c", "name": "98b6554bb13468f3f556725e4b6d3a5c"}, {"lon": -77.02359683333333, "is_disabled": 0, "lat": 38.909645, "fusion_lat": 0.0, "is_reserved": 0, "rental_uris": {"ios": "https://dc.lft.to/lastmile_qr_scan", "android": "https://dc.lft.to/lastmile_qr_scan"}, "fusion_lon": 0.0, "type": "electric_scooter", "bike_id": "7778d8c8714d6de744b05f35869b0fc2", "name": "7778d8c8714d6de744b05f35869b0fc2"}, {"lon": -77.045033, "is_disabled": 0, "lat": 38.903718166666664, "fusion_lat": 0.0, "is_reserved": 0, "rental_uris": {"ios": "https://dc.lft.to/lastmile_qr_scan", "android": "https://dc.lft.to/lastmile_qr_scan"}, "fusion_lon": 0.0, "type": "electric_scooter", "bike_id": "aaaad5ada98dc1a55423198f1a208a98", "name": "aaaad5ada98dc1a55423198f1a208a98"}, {"lon": -77.03408466666667, "is_disabled": 0, "lat": 38.92869783333333, "fusion_lat": 0.0, "is_reserved": 0, "rental_uris": {"ios": "https://dc.lft.to/lastmile_qr_scan", "android": "https://dc.lft.to/lastmile_qr_scan"}, "fusion_lon": 0.0, "type": "electric_scooter", "bike_id": "f4e7460759c5453cc167a60a300189d9", "name": "f4e7460759c5453cc167a60a300189d9"}, {"lon": -77.060328, "is_disabled": 0, "lat": 38.944547, "fusion_lat": 0.0, "is_reserved": 0, "rental_uris": {"ios": "https://dc.lft.to/lastmile_qr_scan", "android": "https://dc.lft.to/lastmile_qr_scan"}, "fusion_lon": 0.0, "type": "electric_scooter", "bike_id": "5ac7881ec7ee8a7555f1d3a3ef9be33a", "name": "5ac7881ec7ee8a7555f1d3a3ef9be33a"}, {"lon": -77.03200916666667, "is_disabled": 0, "lat": 38.920616833333334, "fusion_lat": 0.0, "is_reserved": 0, "rental_uris": {"ios": "https://dc.lft.to/lastmile_qr_scan", "android": "https://dc.lft.to/lastmile_qr_scan"}, "fusion_lon": 0.0, "type": "electric_scooter", "bike_id": "b2064902481160134753a9ba96dfe11b", "name": "b2064902481160134753a9ba96dfe11b"}, {"lon": -76.94640733333334, "is_disabled": 0, "lat": 38.89864983333333, "fusion_lat": 0.0, "is_reserved": 0, "rental_uris": {"ios": "https://dc.lft.to/lastmile_qr_scan", "android": "https://dc.lft.to/lastmile_qr_scan"}, "fusion_lon": 0.0, "type": "electric_scooter", "bike_id": "540d521541470492bdd15d3b6179ce27", "name": "540d521541470492bdd15d3b6179ce27"}, {"lon": -77.02452533333333, "is_disabled": 0, "lat": 38.90863816666667, "fusion_lat": 0.0, "is_reserved": 0, "rental_uris": {"ios": "https://dc.lft.to/lastmile_qr_scan", "android": "https://dc.lft.to/lastmile_qr_scan"}, "fusion_lon": 0.0, "type": "electric_scooter", "bike_id": "e5f56ff6a9791cbda2067ff14a45d5de", "name": "e5f56ff6a9791cbda2067ff14a45d5de"}, {"lon": -77.031766, "is_disabled": 0, "lat": 38.89223966666667, "fusion_lat": 0.0, "is_reserved": 0, "rental_uris": {"ios": "https://dc.lft.to/lastmile_qr_scan", "android": "https://dc.lft.to/lastmile_qr_scan"}, "fusion_lon": 0.0, "type": "electric_scooter", "bike_id": "21cbcc6abe68a517117ddac9ee0de56f", "name": "21cbcc6abe68a517117ddac9ee0de56f"}, {"lon": -77.12525016666666, "is_disabled": 0, "lat": 39.056339333333334, "fusion_lat": 0.0, "is_reserved": 0, "rental_uris": {"ios": "https://dc.lft.to/lastmile_qr_scan", "android": "https://dc.lft.to/lastmile_qr_scan"}, "fusion_lon": 0.0, "type": "electric_bike", "bike_id": "bd330b3cc75102cd794e7d415a60ec38", "name": "bd330b3cc75102cd794e7d415a60ec38"}, {"lon": -76.97178766666667, "is_disabled": 0, "lat": 38.861351166666665, "fusion_lat": 0.0, "is_reserved": 0, "rental_uris": {"ios": "https://dc.lft.to/lastmile_qr_scan", "android": "https://dc.lft.to/lastmile_qr_scan"}, "fusion_lon": 0.0, "type": "electric_scooter", "bike_id": "1e023469a852bae7cef275af4b886aa1", "name": "1e023469a852bae7cef275af4b886aa1"}, {"lon": -76.95588466666666, "is_disabled": 0, "lat": 38.887692333333334, "fusion_lat": 0.0, "is_reserved": 0, "rental_uris": {"ios": "https://dc.lft.to/lastmile_qr_scan", "android": "https://dc.lft.to/lastmile_qr_scan"}, "fusion_lon": 0.0, "type": "electric_scooter", "bike_id": "e70968d1e5a98d94599b04d4e561e3be", "name": "e70968d1e5a98d94599b04d4e561e3be"}, {"lon": -77.005355, "is_disabled": 0, "lat": 38.90543733333333, "fusion_lat": 0.0, "is_reserved": 0, "rental_uris": {"ios": "https://dc.lft.to/lastmile_qr_scan", "android": "https://dc.lft.to/lastmile_qr_scan"}, "fusion_lon": 0.0, "type": "electric_scooter", "bike_id": "c9b44e20afcd3403178c2c6ed924678e", "name": "c9b44e20afcd3403178c2c6ed924678e"}, {"lon": -77.08935916666667, "is_disabled": 0, "lat": 38.88784533333333, "fusion_lat": 0.0, "is_reserved": 0, "rental_uris": {"ios": "https://dc.lft.to/lastmile_qr_scan", "android": "https://dc.lft.to/lastmile_qr_scan"}, "fusion_lon": 0.0, "type": "electric_bike", "bike_id": "d232c97906542ba291ad6d04f52b6c35", "name": "d232c97906542ba291ad6d04f52b6c35"}, {"lon": -77.00570316666666, "is_disabled": 0, "lat": 38.8757645, "fusion_lat": 0.0, "is_reserved": 0, "rental_uris": {"ios": "https://dc.lft.to/lastmile_qr_scan", "android": "https://dc.lft.to/lastmile_qr_scan"}, "fusion_lon": 0.0, "type": "electric_scooter", "bike_id": "401c64e15c0f8a900fd412d754422d7c", "name": "401c64e15c0f8a900fd412d754422d7c"}, {"lon": -77.025415, "is_disabled": 0, "lat": 38.997060166666664, "fusion_lat": 0.0, "is_reserved": 0, "rental_uris": {"ios": "https://dc.lft.to/lastmile_qr_scan", "android": "https://dc.lft.to/lastmile_qr_scan"}, "fusion_lon": 0.0, "type": "electric_bike", "bike_id": "2f09c05ae7ed83e303228c5f722b7d4d", "name": "2f09c05ae7ed83e303228c5f722b7d4d"}, {"lon": -77.02721283333334, "is_disabled": 0, "lat": 38.89744916666667, "fusion_lat": 0.0, "is_reserved": 0, "rental_uris": {"ios": "https://dc.lft.to/lastmile_qr_scan", "android": "https://dc.lft.to/lastmile_qr_scan"}, "fusion_lon": 0.0, "type": "electric_scooter", "bike_id": "6a0b3fad24af6110e348643259ee828f", "name": "6a0b3fad24af6110e348643259ee828f"}, {"lon": -77.07070433333334, "is_disabled": 0, "lat": 38.896639666666665, "fusion_lat": 0.0, "is_reserved": 0, "rental_uris": {"ios": "https://dc.lft.to/lastmile_qr_scan", "android": "https://dc.lft.to/lastmile_qr_scan"}, "fusion_lon": 0.0, "type": "electric_scooter", "bike_id": "75881d8ec1be3632985490492a36b0d5", "name": "75881d8ec1be3632985490492a36b0d5"}, {"lon": -77.03288, "is_disabled": 0, "lat": 38.91980183333333, "fusion_lat": 0.0, "is_reserved": 0, "rental_uris": {"ios": "https://dc.lft.to/lastmile_qr_scan", "android": "https://dc.lft.to/lastmile_qr_scan"}, "fusion_lon": 0.0, "type": "electric_scooter", "bike_id": "69ade29a583db1bf830b45e65f0b7a20", "name": "69ade29a583db1bf830b45e65f0b7a20"}, {"lon": -76.98715266666666, "is_disabled": 0, "lat": 38.86627583333333, "fusion_lat": 0.0, "is_reserved": 0, "rental_uris": {"ios": "https://dc.lft.to/lastmile_qr_scan", "android": "https://dc.lft.to/lastmile_qr_scan"}, "fusion_lon": 0.0, "type": "electric_scooter", "bike_id": "fa88516bf29b383bb30b1bd4c90b10a9", "name": "fa88516bf29b383bb30b1bd4c90b10a9"}, {"lon": -77.00339183333334, "is_disabled": 0, "lat": 38.90614583333333, "fusion_lat": 0.0, "is_reserved": 0, "rental_uris": {"ios": "https://dc.lft.to/lastmile_qr_scan", "android": "https://dc.lft.to/lastmile_qr_scan"}, "fusion_lon": 0.0, "type": "electric_scooter", "bike_id": "48446ba8a7bc17d754c3ebb3433d64dc", "name": "48446ba8a7bc17d754c3ebb3433d64dc"}, {"lon": -77.0246725, "is_disabled": 0, "lat": 38.898325, "fusion_lat": 0.0, "is_reserved": 0, "rental_uris": {"ios": "https://dc.lft.to/lastmile_qr_scan", "android": "https://dc.lft.to/lastmile_qr_scan"}, "fusion_lon": 0.0, "type": "electric_scooter", "bike_id": "e77512557e0bc01d9e410b43fef4e47e", "name": "e77512557e0bc01d9e410b43fef4e47e"}, {"lon": -77.0521715, "is_disabled": 0, "lat": 38.92482666666667, "fusion_lat": 0.0, "is_reserved": 0, "rental_uris": {"ios": "https://dc.lft.to/lastmile_qr_scan", "android": "https://dc.lft.to/lastmile_qr_scan"}, "fusion_lon": 0.0, "type": "electric_scooter", "bike_id": "240b1423cb483ab7a02eb0bd958976ea", "name": "240b1423cb483ab7a02eb0bd958976ea"}, {"lon": -77.03830933333333, "is_disabled": 0, "lat": 38.90777283333333, "fusion_lat": 0.0, "is_reserved": 0, "rental_uris": {"ios": "https://dc.lft.to/lastmile_qr_scan", "android": "https://dc.lft.to/lastmile_qr_scan"}, "fusion_lon": 0.0, "type": "electric_scooter", "bike_id": "475b2ca5e0a382880980c5b35ac04cba", "name": "475b2ca5e0a382880980c5b35ac04cba"}, {"lon": -76.96835366666667, "is_disabled": 0, "lat": 38.9189875, "fusion_lat": 0.0, "is_reserved": 0, "rental_uris": {"ios": "https://dc.lft.to/lastmile_qr_scan", "android": "https://dc.lft.to/lastmile_qr_scan"}, "fusion_lon": 0.0, "type": "electric_scooter", "bike_id": "65f1c5f273cdcad994ac96dac4b59145", "name": "65f1c5f273cdcad994ac96dac4b59145"}, {"lon": -77.01196483333334, "is_disabled": 0, "lat": 38.9157155, "fusion_lat": 0.0, "is_reserved": 0, "rental_uris": {"ios": "https://dc.lft.to/lastmile_qr_scan", "android": "https://dc.lft.to/lastmile_qr_scan"}, "fusion_lon": 0.0, "type": "electric_scooter", "bike_id": "6a26c904bba6c8f5e870bf6504478548", "name": "6a26c904bba6c8f5e870bf6504478548"}, {"lon": -77.03297416666666, "is_disabled": 0, "lat": 38.923544, "fusion_lat": 0.0, "is_reserved": 0, "rental_uris": {"ios": "https://dc.lft.to/lastmile_qr_scan", "android": "https://dc.lft.to/lastmile_qr_scan"}, "fusion_lon": 0.0, "type": "electric_scooter", "bike_id": "faeb9c6f13cfeaa2b31a9af29a3cfc1b", "name": "faeb9c6f13cfeaa2b31a9af29a3cfc1b"}, {"lon": -76.99614583333333, "is_disabled": 0, "lat": 38.90066016666667, "fusion_lat": 0.0, "is_reserved": 0, "rental_uris": {"ios": "https://dc.lft.to/lastmile_qr_scan", "android": "https://dc.lft.to/lastmile_qr_scan"}, "fusion_lon": 0.0, "type": "electric_scooter", "bike_id": "59d6b03176ee0c1b832cac91772c300c", "name": "59d6b03176ee0c1b832cac91772c300c"}, {"lon": -77.02196516666666, "is_disabled": 0, "lat": 38.911287, "fusion_lat": 0.0, "is_reserved": 0, "rental_uris": {"ios": "https://dc.lft.to/lastmile_qr_scan", "android": "https://dc.lft.to/lastmile_qr_scan"}, "fusion_lon": 0.0, "type": "electric_scooter", "bike_id": "0dc3cbe4be314199992485d9e03c6014", "name": "0dc3cbe4be314199992485d9e03c6014"}, {"lon": -77.03449166666667, "is_disabled": 0, "lat": 38.922237833333334, "fusion_lat": 0.0, "is_reserved": 0, "rental_uris": {"ios": "https://dc.lft.to/lastmile_qr_scan", "android": "https://dc.lft.to/lastmile_qr_scan"}, "fusion_lon": 0.0, "type": "electric_scooter", "bike_id": "8ef12c598197dc54f0e3c950bd235b33", "name": "8ef12c598197dc54f0e3c950bd235b33"}, {"lon": -77.00578616666667, "is_disabled": 0, "lat": 38.90041383333333, "fusion_lat": 0.0, "is_reserved": 0, "rental_uris": {"ios": "https://dc.lft.to/lastmile_qr_scan", "android": "https://dc.lft.to/lastmile_qr_scan"}, "fusion_lon": 0.0, "type": "electric_scooter", "bike_id": "adc5555654b2a42200da2922395086cd", "name": "adc5555654b2a42200da2922395086cd"}, {"lon": -77.04354933333333, "is_disabled": 0, "lat": 38.908237, "fusion_lat": 0.0, "is_reserved": 0, "rental_uris": {"ios": "https://dc.lft.to/lastmile_qr_scan", "android": "https://dc.lft.to/lastmile_qr_scan"}, "fusion_lon": 0.0, "type": "electric_scooter", "bike_id": "703a483ec371f629bdfb679adb698a90", "name": "703a483ec371f629bdfb679adb698a90"}, {"lon": -77.02237166666667, "is_disabled": 0, "lat": 38.92241116666667, "fusion_lat": 0.0, "is_reserved": 0, "rental_uris": {"ios": "https://dc.lft.to/lastmile_qr_scan", "android": "https://dc.lft.to/lastmile_qr_scan"}, "fusion_lon": 0.0, "type": "electric_scooter", "bike_id": "c57667b6ab96a0941358c69dc465b9cd", "name": "c57667b6ab96a0941358c69dc465b9cd"}, {"lon": -76.99740883333334, "is_disabled": 0, "lat": 39.0423685, "fusion_lat": 0.0, "is_reserved": 0, "rental_uris": {"ios": "https://dc.lft.to/lastmile_qr_scan", "android": "https://dc.lft.to/lastmile_qr_scan"}, "fusion_lon": 0.0, "type": "electric_bike", "bike_id": "5440f7add37414f935a0a9c6363a2e0a", "name": "5440f7add37414f935a0a9c6363a2e0a"}, {"lon": -76.99637333333334, "is_disabled": 0, "lat": 38.90531466666667, "fusion_lat": 0.0, "is_reserved": 0, "rental_uris": {"ios": "https://dc.lft.to/lastmile_qr_scan", "android": "https://dc.lft.to/lastmile_qr_scan"}, "fusion_lon": 0.0, "type": "electric_scooter", "bike_id": "3c6aab47f3a34e5dd9e4ea2ecb554e2e", "name": "3c6aab47f3a34e5dd9e4ea2ecb554e2e"}, {"lon": -77.0319195, "is_disabled": 0, "lat": 38.91740933333333, "fusion_lat": 0.0, "is_reserved": 0, "rental_uris": {"ios": "https://dc.lft.to/lastmile_qr_scan", "android": "https://dc.lft.to/lastmile_qr_scan"}, "fusion_lon": 0.0, "type": "electric_scooter", "bike_id": "c90df984905ded45e2d419a1137e6d3d", "name": "c90df984905ded45e2d419a1137e6d3d"}, {"lon": -77.01782766666666, "is_disabled": 0, "lat": 38.877098333333336, "fusion_lat": 0.0, "is_reserved": 0, "rental_uris": {"ios": "https://dc.lft.to/lastmile_qr_scan", "android": "https://dc.lft.to/lastmile_qr_scan"}, "fusion_lon": 0.0, "type": "electric_scooter", "bike_id": "d9ae5de656703250afe4b8ba36a14c7f", "name": "d9ae5de656703250afe4b8ba36a14c7f"}, {"lon": -77.05507, "is_disabled": 0, "lat": 38.91527266666667, "fusion_lat": 0.0, "is_reserved": 0, "rental_uris": {"ios": "https://dc.lft.to/lastmile_qr_scan", "android": "https://dc.lft.to/lastmile_qr_scan"}, "fusion_lon": 0.0, "type": "electric_scooter", "bike_id": "f0b7cb7dcab6cd3e57d22bc2b8ac59b0", "name": "f0b7cb7dcab6cd3e57d22bc2b8ac59b0"},