{"data": {"bikes": [{"fusion_lat": 0.0, "lon": -77.05130966666667, "is_reserved": 0, "bike_id": "05105dc9d5cde54a2660ab6da30ee55b", "fusion_lon": 0.0, "rental_uris": {"android": "https://dc.lft.to/lastmile_qr_scan", "ios": "https://dc.lft.to/lastmile_qr_scan"}, "name": "05105dc9d5cde54a2660ab6da30ee55b", "type": "electric_scooter", "lat": 38.905321666666666, "is_disabled": 0}, {"fusion_lat": 0.0, "lon": -77.0486565, "is_reserved": 0, "bike_id": "0817bdbe71faa763716a7cf59161a609", "fusion_lon": 0.0, "rental_uris": {"android": "https://dc.lft.to/lastmile_qr_scan", "ios": "https://dc.lft.to/lastmile_qr_scan"}, "name": "0817bdbe71faa763716a7cf59161a609", "type": "electric_scooter", "lat": 38.892215666666665, "is_disabled": 0}, {"fusion_lat": 0.0, "lon": -77.02154383333334, "is_reserved": 0, "bike_id": "19d8bdf0fc2c31f214e78da6525135a3", "fusion_lon": 0.0, "rental_uris": {"android": "https://dc.lft.to/lastmile_qr_scan", "ios": "https://dc.lft.to/lastmile_qr_scan"}, "name": "19d8bdf0fc2c31f214e78da6525135a3", "type": "electric_scooter", "lat": 38.9260155, "is_disabled": 0}, {"fusion_lat": 0.0, "lon": -77.05018266666667, "is_reserved": 0, "bike_id": "a0b45a5ba385ca79946735bb0850d3d8", "fusion_lon": 0.0, "rental_uris": {"android": "https://dc.lft.to/lastmile_qr_scan", "ios": "https://dc.lft.to/lastmile_qr_scan"}, "name": "a0b45a5ba385ca79946735bb0850d3d8", "type": "electric_scooter", "lat": 38.9051485, "is_disabled": 0}, {"fusion_lat": 0.0, "lon": -76.9709775, "is_reserved": 0, "bike_id": "a23e03cd6630f92df8f8f1c1a876fdc1", "fusion_lon": 0.0, "rental_uris": {"android": "https://dc.lft.to/lastmile_qr_scan", "ios": "https://dc.lft.to/lastmile_qr_scan"}, "name": "a23e03cd6630f92df8f8f1c1a876fdc1", "type": "electric_bike", "lat": 38.91802116666667, "is_disabled": 0}, {"fusion_lat": 0.0, "lon": -77.03559666666666, "is_reserved": 0, "bike_id": "e2112450b9f548e941fa394a4cf81f20", "fusion_lon": 0.0, "rental_uris": {"android": "https://dc.lft.to/lastmile_qr_scan", "ios": "https://dc.lft.to/lastmile_qr_scan"}, "name": "e2112450b9f548e941fa394a4cf81f20", "type": "electric_scooter", "lat": 38.91709133333333, "is_disabled": 0}, {"fusion_lat": 0.0, "lon": -77.03953516666667, "is_reserved": 0, "bike_id": "1964db0636c29de90b09142468d8d744", "fusion_lon": 0.0, "rental_uris": {"android": "https://dc.lft.to/lastmile_qr_scan", "ios": "https://dc.lft.to/lastmile_qr_scan"}, "name": "1964db0636c29de90b09142468d8d744", "type": "electric_scooter", "lat": 38.90249283333333, "is_disabled": 0}, {"fusion_lat": 0.0, "lon": -76.99936216666667, "is_reserved": 0, "bike_id": "1471f2bdbe7c651ad81e8a37c6a50117", "fusion_lon": 0.0, "rental_uris": {"android": "https://dc.lft.to/lastmile_qr_scan", "ios": "https://dc.lft.to/lastmile_qr_scan"}, "name": "1471f2bdbe7c651ad81e8a37c6a50117", "type": "electric_scooter", "lat": 38.84301133333334, "is_disabled": 0}, {"fusion_lat": 0.0, "lon": -77.0474495, "is_reserved": 0, "bike_id": "4e41d95f906f5659017652fe17a3746f", "fusion_lon": 0.0, "rental_uris": {"android": "https://dc.lft.to/lastmile_qr_scan", "ios": "https://dc.lft.to/lastmile_qr_scan"}, "name": "4e41d95f906f5659017652fe17a3746f", "type": "electric_scooter", "lat": 38.905406666666664, "is_disabled": 0}, {"fusion_lat": 0.0, "lon": -77.06334533333333, "is_reserved": 0, "bike_id": "5e81c4fac5f731f1da3443343484d17e", "fusion_lon": 0.0, "rental_uris": {"android": "https://dc.lft.to/lastmile_qr_scan", "ios": "https://dc.lft.to/lastmile_qr_scan"}, "name": "5e81c4fac5f731f1da3443343484d17e", "type": "electric_bike", "lat": 38.920943, "is_disabled": 0}, {"fusion_lat": 0.0, "lon": -76.99639783333333, "is_reserved": 0, "bike_id": "b51d4b46425bde82b5c11a21e9b91422", "fusion_lon": 0.0, "rental_uris": {"android": "https://dc.lft.to/lastmile_qr_scan", "ios": "https://dc.lft.to/lastmile_qr_scan"}, "name": "b51d4b46425bde82b5c11a21e9b91422", "type": "electric_scooter", "lat": 38.900253, "is_disabled": 0}, {"fusion_lat": 0.0, "lon": -77.05742866666667, "is_reserved": 0, "bike_id": "7b3e2732dea54fc1c7ca1f04035f5aaa", "fusion_lon": 0.0, "rental_uris": {"android": "https://dc.lft.to/lastmile_qr_scan", "ios": "https://dc.lft.to/lastmile_qr_scan"}, "name": "7b3e2732dea54fc1c7ca1f04035f5aaa", "type": "electric_scooter", "lat": 38.933888, "is_disabled": 0}, {"fusion_lat": 0.0, "lon": -77.02553233333333, "is_reserved": 0, "bike_id": "ad74f08eaee8ef257f3741a1d058dabb", "fusion_lon": 0.0, "rental_uris": {"android": "https://dc.lft.to/lastmile_qr_scan", "ios": "https://dc.lft.to/lastmile_qr_scan"}, "name": "ad74f08eaee8ef257f3741a1d058dabb", "type": "electric_scooter", "lat": 38.94137, "is_disabled": 0}, {"fusion_lat": 0.0, "lon": -77.01077533333333, "is_reserved": 0, "bike_id": "8d9e05f261f120cf5842cb61adf881a7", "fusion_lon": 0.0, "rental_uris": {"android": "https://dc.lft.to/lastmile_qr_scan", "ios": "https://dc.lft.to/lastmile_qr_scan"}, "name": "8d9e05f261f120cf5842cb61adf881a7", "type": "electric_scooter", "lat": 38.917666, "is_disabled": 0}, {"fusion_lat": 0.0, "lon": -77.031601, "is_reserved": 0, "bike_id": "30cf417a778aa863256455e73b35a40d", "fusion_lon": 0.0, "rental_uris": {"android": "https://dc.lft.to/lastmile_qr_scan", "ios": "https://dc.lft.to/lastmile_qr_scan"}, "name": "30cf417a778aa863256455e73b35a40d", "type": "electric_scooter", "lat": 38.93601916666667, "is_disabled": 0}, {"fusion_lat": 0.0, "lon": -77.0419255, "is_reserved": 0, "bike_id": "4c11bbc5e8503ccd0dc47b12ad05599d", "fusion_lon": 0.0, "rental_uris": {"android": "https://dc.lft.to/lastmile_qr_scan", "ios": "https://dc.lft.to/lastmile_qr_scan"}, "name": "4c11bbc5e8503ccd0dc47b12ad05599d", "type": "electric_scooter", "lat": 38.91967666666667, "is_disabled": 0}, {"fusion_lat": 0.0, "lon": -77.03191516666666, "is_reserved": 0, "bike_id": "131a50329f57539bd42c13c585ffc786", "fusion_lon": 0.0, "rental_uris": {"android": "https://dc.lft.to/lastmile_qr_scan", "ios": "https://dc.lft.to/lastmile_qr_scan"}, "name": "131a50329f57539bd42c13c585ffc786", "type": "electric_scooter", "lat": 38.908558666666664, "is_disabled": 0}, {"fusion_lat": 0.0, "lon": -77.00335916666667, "is_reserved": 0, "bike_id": "13b8452bc931df80963dd5b7b54b9f47", "fusion_lon": 0.0, "rental_uris": {"android": "https://dc.lft.to/lastmile_qr_scan", "ios": "https://dc.lft.to/lastmile_qr_scan"}, "name": "13b8452bc931df80963dd5b7b54b9f47", "type": "electric_scooter", "lat": 38.89524883333333, "is_disabled": 0}, {"fusion_lat": 0.0, "lon": -76.9937805, "is_reserved": 0, "bike_id": "ee3d7d4f0c07aef46ab79d9acb7178f9", "fusion_lon": 0.0, "rental_uris": {"android": "https://dc.lft.to/lastmile_qr_scan", "ios": "https://dc.lft.to/lastmile_qr_scan"}, "name": "ee3d7d4f0c07aef46ab79d9acb7178f9", "type": "electric_bike", "lat": 38.971843666666665, "is_disabled": 0}, {"fusion_lat": 0.0, "lon": -77.06290133333333, "is_reserved": 0, "bike_id": "bf996251baa6e32a4e2730e541170efb", "fusion_lon": 0.0, "rental_uris": {"android": "https://dc.lft.to/lastmile_qr_scan", "ios": "https://dc.lft.to/lastmile_qr_scan"}, "name": "bf996251baa6e32a4e2730e541170efb", "type": "electric_scooter", "lat": 38.905837166666664, "is_disabled": 0}, {"fusion_lat": 0.0, "lon": -76.99837883333333, "is_reserved": 0, "bike_id": "f6363f46d75a1bd51c5d4bc663a41a39", "fusion_lon": 0.0, "rental_uris": {"android": "https://dc.lft.to/lastmile_qr_scan", "ios": "https://dc.lft.to/lastmile_qr_scan"}, "name": "f6363f46d75a1bd51c5d4bc663a41a39", "type": "electric_scooter", "lat": 38.90036083333333, "is_disabled": 0}, {"fusion_lat": 0.0, "lon": -76.94877033333333, "is_reserved": 0, "bike_id": "0b85acf42a7fa29c5de822733b6a1581", "fusion_lon": 0.0, "rental_uris": {"android": "https://dc.lft.to/lastmile_qr_scan", "ios": "https://dc.lft.to/lastmile_qr_scan"}, "name": "0b85acf42a7fa29c5de822733b6a1581", "type": "electric_scooter", "lat": 38.895469166666665, "is_disabled": 0}, {"fusion_lat": 0.0, "lon": -77.0195145, "is_reserved": 0, "bike_id": "53d1eab785c9aa11828a59a06c04970d", "fusion_lon": 0.0, "rental_uris": {"android": "https://dc.lft.to/lastmile_qr_scan", "ios": "https://dc.lft.to/lastmile_qr_scan"}, "name": "53d1eab785c9aa11828a59a06c04970d", "type": "electric_scooter", "lat": 38.922519333333334, "is_disabled": 0}, {"fusion_lat": 0.0, "lon": -77.03496116666666, "is_reserved": 0, "bike_id": "2a890a806237c92da222bf0846d42aa1", "fusion_lon": 0.0, "rental_uris": {"android": "https://dc.lft.to/lastmile_qr_scan", "ios": "https://dc.lft.to/lastmile_qr_scan"}, "name": "2a890a806237c92da222bf0846d42aa1", "type": "electric_scooter", "lat": 38.9186925, "is_disabled": 0}, {"fusion_lat": 0.0, "lon": -77.0295035, "is_reserved": 0, "bike_id": "8c392417ca336c30423d3cf9b3cb831f", "fusion_lon": 0.0, "rental_uris": {"android": "https://dc.lft.to/lastmile_qr_scan", "ios": "https://dc.lft.to/lastmile_qr_scan"}, "name": "8c392417ca336c30423d3cf9b3cb831f", "type": "electric_scooter", "lat": 38.92171416666667, "is_disabled": 0}, {"fusion_lat": 0.0, "lon": -77.0434955, "is_reserved": 0, "bike_id": "181e2f35605b49672c2d7c6958327215", "fusion_lon": 0.0, "rental_uris": {"android": "https://dc.lft.to/lastmile_qr_scan", "ios": "https://dc.lft.to/lastmile_qr_scan"}, "name": "181e2f35605b49672c2d7c6958327215", "type": "electric_scooter", "lat": 38.9084025, "is_disabled": 0}, {"fusion_lat": 0.0, "lon": -77.0279845, "is_reserved": 0, "bike_id": "7666a608e6276992cfdb271daa05170c", "fusion_lon": 0.0, "rental_uris": {"android": "https://dc.lft.to/lastmile_qr_scan", "ios": "https://dc.lft.to/lastmile_qr_scan"}, "name": "7666a608e6276992cfdb271daa05170c", "type": "electric_scooter", "lat": 38.892296, "is_disabled": 0}, {"fusion_lat": 0.0, "lon": -77.02903, "is_reserved": 0, "bike_id": "bee04dc035a8a1c891677de741d67e90", "fusion_lon": 0.0, "rental_uris": {"android": "https://dc.lft.to/lastmile_qr_scan", "ios": "https://dc.lft.to/lastmile_qr_scan"}, "name": "bee04dc035a8a1c891677de741d67e90", "type": "electric_scooter", "lat": 38.940417, "is_disabled": 0}, {"fusion_lat": 0.0, "lon": -77.02901333333334, "is_reserved": 0, "bike_id": "106d163778985f2dabfc5ea138abef55", "fusion_lon": 0.0, "rental_uris": {"android": "https://dc.lft.to/lastmile_qr_scan", "ios": "https://dc.lft.to/lastmile_qr_scan"}, "name": "106d163778985f2dabfc5ea138abef55", "type": "electric_scooter", "lat": 38.96131966666667, "is_disabled": 0}, {"fusion_lat": 0.0, "lon": -76.9786205, "is_reserved": 0, "bike_id": "ec7b41f5372eb22210eb43b79d981fff", "fusion_lon": 0.0, "rental_uris": {"android": "https://dc.lft.to/lastmile_qr_scan", "ios": "https://dc.lft.to/lastmile_qr_scan"}, "name": "ec7b41f5372eb22210eb43b79d981fff", "type": "electric_scooter", "lat": 38.8706715, "is_disabled": 0}, {"fusion_lat": 0.0, "lon": -77.04349716666667, "is_reserved": 0, "bike_id": "50b82daed92a9ead877a522a0284e38f", "fusion_lon": 0.0, "rental_uris": {"android": "https://dc.lft.to/lastmile_qr_scan", "ios": "https://dc.lft.to/lastmile_qr_scan"}, "name": "50b82daed92a9ead877a522a0284e38f", "type": "electric_scooter", "lat": 38.90753083333333, "is_disabled": 0}, {"fusion_lat": 0.0, "lon": -76.99905683333333, "is_reserved": 0, "bike_id": "1c266a73af581d7d6b37a218fc192c5f", "fusion_lon": 0.0, "rental_uris": {"android": "https://dc.lft.to/lastmile_qr_scan", "ios": "https://dc.lft.to/lastmile_qr_scan"}, "name": "1c266a73af581d7d6b37a218fc192c5f", "type": "electric_scooter", "lat": 38.924542, "is_disabled": 0}, {"fusion_lat": 0.0, "lon": -77.06204566666666, "is_reserved": 0, "bike_id": "b9a6c80f7387ee95b60aafc9afddc5b8", "fusion_lon": 0.0, "rental_uris": {"android": "https://dc.lft.to/lastmile_qr_scan", "ios": "https://dc.lft.to/lastmile_qr_scan"}, "name": "b9a6c80f7387ee95b60aafc9afddc5b8", "type": "electric_bike", "lat": 38.9203605, "is_disabled": 0}, {"fusion_lat": 0.0, "lon": -77.04535166666666, "is_reserved": 0, "bike_id": "9a9be4355dbfba915a243e1deed626e6", "fusion_lon": 0.0, "rental_uris": {"android": "https://dc.lft.to/lastmile_qr_scan", "ios": "https://dc.lft.to/lastmile_qr_scan"}, "name": "9a9be4355dbfba915a243e1deed626e6", "type": "electric_scooter", "lat": 38.900652666666666, "is_disabled": 0}, {"fusion_lat": 0.0, "lon": -77.00496066666666, "is_reserved": 0, "bike_id": "ae67ec65dce687cdedc005efd3577495", "fusion_lon": 0.0, "rental_uris": {"android": "https://dc.lft.to/lastmile_qr_scan", "ios": "https://dc.lft.to/lastmile_qr_scan"}, "name": "ae67ec65dce687cdedc005efd3577495", "type": "electric_scooter", "lat": 38.9055515, "is_disabled": 0}, {"fusion_lat": 0.0, "lon": -77.03348933333334, "is_reserved": 0, "bike_id": "a5157ae4086d548c90f13f3c77511458", "fusion_lon": 0.0, "rental_uris": {"android": "https://dc.lft.to/lastmile_qr_scan", "ios": "https://dc.lft.to/lastmile_qr_scan"}, "name": "a5157ae4086d548c90f13f3c77511458", "type": "electric_scooter", "lat": 38.89841216666667, "is_disabled": 0}, {"fusion_lat": 0.0, "lon": -76.96533733333334, "is_reserved": 0, "bike_id": "bd30289c94a6ad8928c44c82d86e441e", "fusion_lon": 0.0, "rental_uris": {"android": "https://dc.lft.to/lastmile_qr_scan", "ios": "https://dc.lft.to/lastmile_qr_scan"}, "name": "bd30289c94a6ad8928c44c82d86e441e", "type": "electric_bike", "lat": 38.874795166666665, "is_disabled": 0}, {"fusion_lat": 0.0, "lon": -77.01816266666667, "is_reserved": 0, "bike_id": "7aaaf0926dc1e0adb579bd9989f70484", "fusion_lon": 0.0, "rental_uris": {"android": "https://dc.lft.to/lastmile_qr_scan", "ios": "https://dc.lft.to/lastmile_qr_scan"}, "name": "7aaaf0926dc1e0adb579bd9989f70484", "type": "electric_scooter", "lat": 38.9304115, "is_disabled": 0}, {"fusion_lat": 0.0, "lon": -77.039042, "is_reserved": 0, "bike_id": "b9269392b4f0bee01e46521c5d38d8d0", "fusion_lon": 0.0, "rental_uris": {"android": "https://dc.lft.to/lastmile_qr_scan", "ios": "https://dc.lft.to/lastmile_qr_scan"}, "name": "b9269392b4f0bee01e46521c5d38d8d0", "type": "electric_scooter", "lat": 38.91869916666667, "is_disabled": 0}, {"fusion_lat": 0.0, "lon": -77.07411383333333, "is_reserved": 0, "bike_id": "ce8a49f89e40e73c775de0447b913e0b", "fusion_lon": 0.0, "rental_uris": {"android": "https://dc.lft.to/lastmile_qr_scan", "ios": "https://dc.lft.to/lastmile_qr_scan"}, "name": "ce8a49f89e40e73c775de0447b913e0b", "type": "electric_scooter", "lat": 38.928862, "is_disabled": 0}, {"fusion_lat": 0.0, "lon": -77.026059, "is_reserved": 0, "bike_id": "0a0ec5d6ba81b52acb362784faf5eda9", "fusion_lon": 0.0, "rental_uris": {"android": "https://dc.lft.to/lastmile_qr_scan", "ios": "https://dc.lft.to/lastmile_qr_scan"}, "name": "0a0ec5d6ba81b52acb362784faf5eda9", "type": "electric_scooter", "lat": 38.898362666666664, "is_disabled": 0}, {"fusion_lat": 0.0, "lon": -76.98602616666666, "is_reserved": 0, "bike_id": "f7edb7d632bfe20a12f4adf56267e5e1", "fusion_lon": 0.0, "rental_uris": {"android": "https://dc.lft.to/lastmile_qr_scan", "ios": "https://dc.lft.to/lastmile_qr_scan"}, "name": "f7edb7d632bfe20a12f4adf56267e5e1", "type": "electric_scooter", "lat": 38.90010266666667, "is_disabled": 0}, {"fusion_lat": 0.0, "lon": -77.02802116666666, "is_reserved": 0, "bike_id": "ca4768e0759445f8858458c9ec7bbf8c", "fusion_lon": 0.0, "rental_uris": {"android": "https://dc.lft.to/lastmile_qr_scan", "ios": "https://dc.lft.to/lastmile_qr_scan"}, "name": "ca4768e0759445f8858458c9ec7bbf8c", "type": "electric_scooter", "lat": 38.899683, "is_disabled": 0}, {"fusion_lat": 0.0, "lon": -76.9348895, "is_reserved": 0, "bike_id": "68321e2dcc25acf82669935723d97267", "fusion_lon": 0.0, "rental_uris": {"android": "https://dc.lft.to/lastmile_qr_scan", "ios": "https://dc.lft.to/lastmile_qr_scan"}, "name": "68321e2dcc25acf82669935723d97267", "type": "electric_scooter", "lat": 38.905844, "is_disabled": 0}, {"fusion_lat": 0.0, "lon": -76.98914083333334, "is_reserved": 0, "bike_id": "4f09d7ac083b926993e8aaa2a5e22328", "fusion_lon": 0.0, "rental_uris": {"android": "https://dc.lft.to/lastmile_qr_scan", "ios": "https://dc.lft.to/lastmile_qr_scan"}, "name": "4f09d7ac083b926993e8aaa2a5e22328", "type": "electric_scooter", "lat": 38.8648695, "is_disabled": 0}, {"fusion_lat": 0.0, "lon": -77.063481, "is_reserved": 0, "bike_id": "3b7eacf299cc672b4e94286c5acadb0a", "fusion_lon": 0.0, "rental_uris": {"android": "https://dc.lft.to/lastmile_qr_scan", "ios": "https://dc.lft.to/lastmile_qr_scan"}, "name": "3b7eacf299cc672b4e94286c5acadb0a", "type": "electric_scooter", "lat": 38.907419, "is_disabled": 0}, {"fusion_lat": 0.0, "lon": -77.03894816666667, "is_reserved": 0, "bike_id": "2d8be71f72e0a98c5c9747b9de3447fc", "fusion_lon": 0.0, "rental_uris": {"android": "https://dc.lft.to/lastmile_qr_scan", "ios": "https://dc.lft.to/lastmile_qr_scan"}, "name": "2d8be71f72e0a98c5c9747b9de3447fc", "type": "electric_scooter", "lat": 38.90625383333333, "is_disabled": 0}, {"fusion_lat": 0.0, "lon": -77.0658895, "is_reserved": 0, "bike_id": "869afeb337f1cbff1b09e6997fa53d6f", "fusion_lon": 0.0, "rental_uris": {"android": "https://dc.lft.to/lastmile_qr_scan", "ios": "https://dc.lft.to/lastmile_qr_scan"}, "name": "869afeb337f1cbff1b09e6997fa53d6f", "type": "electric_scooter", "lat": 38.903964, "is_disabled": 0}, {"fusion_lat": 0.0, "lon": -77.0243705, "is_reserved": 0, "bike_id": "dbcc9c7b23966314c4a45f7fdc0f89d6", "fusion_lon": 0.0, "rental_uris": {"android": "https://dc.lft.to/lastmile_qr_scan", "ios": "https://dc.lft.to/lastmile_qr_scan"}, "name": "dbcc9c7b23966314c4a45f7fdc0f89d6", "type": "electric_scooter", "lat": 38.930931333333334, "is_disabled": 0}, {"fusion_lat": 0.0, "lon": -76.9460165, "is_reserved": 0, "bike_id": "87dff0d3575d7e1c413b53f59008294d", "fusion_lon": 0.0, "rental_uris": {"android": "https://dc.lft.to/lastmile_qr_scan", "ios": "https://dc.lft.to/lastmile_qr_scan"}, "name": "87dff0d3575d7e1c413b53f59008294d", "type": "electric_scooter", "lat": 38.90147433333333, "is_disabled": 0}, {"fusion_lat": 0.0, "lon": -76.9993205, "is_reserved": 0, "bike_id": "445832e849fd71af7cb6abd28e7a12be", "fusion_lon": 0.0, "rental_uris": {"android": "https://dc.lft.to/lastmile_qr_scan", "ios": "https://dc.lft.to/lastmile_qr_scan"}, "name": "445832e849fd71af7cb6abd28e7a12be", "type": "electric_scooter", "lat": 38.906756, "is_disabled": 0}, {"fusion_lat": 0.0, "lon": -77.01244883333334, "is_reserved": 0, "bike_id": "2f4dd714168cc840ed7f4347f91d103f", "fusion_lon": 0.0, "rental_uris": {"android": "https://dc.lft.to/lastmile_qr_scan", "ios": "https://dc.lft.to/lastmile_qr_scan"}, "name": "2f4dd714168cc840ed7f4347f91d103f", "type": "electric_scooter", "lat": 38.915707166666664, "is_disabled": 0}, {"fusion_lat": 0.0, "lon": -77.0390905, "is_reserved": 0, "bike_id": "fa8424b757fd068b3486e0537d5fced3", "fusion_lon": 0.0, "rental_uris": {"android": "https://dc.lft.to/lastmile_qr_scan", "ios": "https://dc.lft.to/lastmile_qr_scan"}, "name": "fa8424b757fd068b3486e0537d5fced3", "type": "electric_scooter", "lat": 38.932486, "is_disabled": 0}, {"fusion_lat": 0.0, "lon": -77.00054366666667, "is_reserved": 0, "bike_id": "9bc0f83de4eb930a69dcaadb2cf68f9d", "fusion_lon": 0.0, "rental_uris": {"android": "https://dc.lft.to/lastmile_qr_scan", "ios": "https://dc.lft.to/lastmile_qr_scan"}, "name": "9bc0f83de4eb930a69dcaadb2cf68f9d", "type": "electric_scooter", "lat": 38.900098666666665, "is_disabled": 0}, {"fusion_lat": 0.0, "lon": -76.97395783333333, "is_reserved": 0, "bike_id": "c77688ea00aa5b472e36a786e1762e66", "fusion_lon": 0.0, "rental_uris": {"android": "https://dc.lft.to/lastmile_qr_scan", "ios": "https://dc.lft.to/lastmile_qr_scan"}, "name": "c77688ea00aa5b472e36a786e1762e66", "type": "electric_scooter", "lat": 38.9029655, "is_disabled": 0}, {"fusion_lat": 0.0, "lon": -77.09845016666667, "is_reserved": 0, "bike_id": "dcb7a0f34d06504fac8aad48a0503f83", "fusion_lon": 0.0, "rental_uris": {"android": "https://dc.lft.to/lastmile_qr_scan", "ios": "https://dc.lft.to/lastmile_qr_scan"}, "name": "dcb7a0f34d06504fac8aad48a0503f83", "type": "electric_bike", "lat": 38.8484465, "is_disabled": 0}, {"fusion_lat": 0.0, "lon": -77.00060366666666, "is_reserved": 0, "bike_id": "6787c605645e5a31188f987ee62c7758", "fusion_lon": 0.0, "rental_uris": {"android": "https://dc.lft.to/lastmile_qr_scan", "ios": "https://dc.lft.to/lastmile_qr_scan"}, "name": "6787c605645e5a31188f987ee62c7758", "type": "electric_scooter", "lat": 38.907204, "is_disabled": 0}, {"fusion_lat": 0.0, "lon": -76.98992483333333, "is_reserved": 0, "bike_id": "1cfed0deecd27ba75e4b39b2991f2143", "fusion_lon": 0.0, "rental_uris": {"android": "https://dc.lft.to/lastmile_qr_scan", "ios": "https://dc.lft.to/lastmile_qr_scan"}, "name": "1cfed0deecd27ba75e4b39b2991f2143", "type": "electric_scooter", "lat": 38.864309666666664, "is_disabled": 0}, {"fusion_lat": 0.0, "lon": -77.0271385, "is_reserved": 0, "bike_id": "5dff68aaa8040f82715d27fdbdbc3895", "fusion_lon": 0.0, "rental_uris": {"android": "https://dc.lft.to/lastmile_qr_scan", "ios": "https://dc.lft.to/lastmile_qr_scan"}, "name": "5dff68aaa8040f82715d27fdbdbc3895", "type": "electric_scooter", "lat": 38.92466733333333, "is_disabled": 0}, {"fusion_lat": 0.0, "lon": -77.03940333333334, "is_reserved": 0, "bike_id": "495540533b260b6484029982dadf2f0c", "fusion_lon": 0.0, "rental_uris": {"android": "https://dc.lft.to/lastmile_qr_scan", "ios": "https://dc.lft.to/lastmile_qr_scan"}, "name": "495540533b260b6484029982dadf2f0c", "type": "electric_scooter", "lat": 38.911074166666666, "is_disabled": 0}, {"fusion_lat": 0.0, "lon": -77.01200516666667, "is_reserved": 0, "bike_id": "e3d975b9d097ff04a78212201e5f0abe", "fusion_lon": 0.0, "rental_uris": {"android": "https://dc.lft.to/lastmile_qr_scan", "ios": "https://dc.lft.to/lastmile_qr_scan"}, "name": "e3d975b9d097ff04a78212201e5f0abe", "type": "electric_scooter", "lat": 38.89314066666667, "is_disabled": 0}, {"fusion_lat": 0.0, "lon": -76.99540433333334, "is_reserved": 0, "bike_id": "867c481e005cd688ee6e6709e4365994", "fusion_lon": 0.0, "rental_uris": {"android": "https://dc.lft.to/lastmile_qr_scan", "ios": "https://dc.lft.to/lastmile_qr_scan"}, "name": "867c481e005cd688ee6e6709e4365994", "type": "electric_scooter", "lat": 38.8620925, "is_disabled": 0}, {"fusion_lat": 0.0, "lon": -77.044311, "is_reserved": 0, "bike_id": "4de7b208ff3dad1e1647b4b7587aa3b3", "fusion_lon": 0.0, "rental_uris": {"android": "https://dc.lft.to/lastmile_qr_scan", "ios": "https://dc.lft.to/lastmile_qr_scan"}, "name": "4de7b208ff3dad1e1647b4b7587aa3b3", "type": "electric_scooter", "lat": 38.921331333333335, "is_disabled": 0}, {"fusion_lat": 0.0, "lon": -77.029228, "is_reserved": 0, "bike_id": "ce50095c7ae495bf27d4a8941ec48a09", "fusion_lon": 0.0, "rental_uris": {"android": "https://dc.lft.to/lastmile_qr_scan", "ios": "https://dc.lft.to/lastmile_qr_scan"}, "name": "ce50095c7ae495bf27d4a8941ec48a09", "type": "electric_scooter", "lat": 38.89994733333333, "is_disabled": 0}, {"fusion_lat": 0.0, "lon": -77.011329, "is_reserved": 0, "bike_id": "9828901185967f4d9a2174fcd514e83e", "fusion_lon": 0.0, "rental_uris": {"android": "https://dc.lft.to/lastmile_qr_scan", "ios": "https://dc.lft.to/lastmile_qr_scan"}, "name": "9828901185967f4d9a2174fcd514e83e", "type": "electric_scooter", "lat": 38.91592266666667, "is_disabled": 0}, {"fusion_lat": 0.0, "lon": -77.00725533333333, "is_reserved": 0, "bike_id": "4480583e709c6ee5e3267b7636e88482", "fusion_lon": 0.0, "rental_uris": {"android": "https://dc.lft.to/lastmile_qr_scan", "ios": "https://dc.lft.to/lastmile_qr_scan"}, "name": "4480583e709c6ee5e3267b7636e88482", "type": "electric_scooter", "lat": 38.88492433333333, "is_disabled": 0}, {"fusion_lat": 0.0, "lon": -77.0345225, "is_reserved": 0, "bike_id": "6bfe1e045e4ff3aeb48d0f443f078a79", "fusion_lon": 0.0, "rental_uris": {"android": "https://dc.lft.to/lastmile_qr_scan", "ios": "https://dc.lft.to/lastmile_qr_scan"}, "name": "6bfe1e045e4ff3aeb48d0f443f078a79", "type": "electric_scooter", "lat": 38.925406, "is_disabled": 0}, {"fusion_lat": 0.0, "lon": -76.99768883333333, "is_reserved": 0, "bike_id": "a8df792582b7253e60baa95642696cf6", "fusion_lon": 0.0, "rental_uris": {"android": "https://dc.lft.to/lastmile_qr_scan", "ios": "https://dc.lft.to/lastmile_qr_scan"}, "name": "a8df792582b7253e60baa95642696cf6", "type": "electric_scooter", "lat": 38.9105905, "is_disabled": 0}, {"fusion_lat": 0.0, "lon": -77.03649483333334, "is_reserved": 0, "bike_id": "d462978529ee628db47d3a60e13f65b8", "fusion_lon": 0.0, "rental_uris": {"android": "https://dc.lft.to/lastmile_qr_scan", "ios": "https://dc.lft.to/lastmile_qr_scan"}, "name": "d462978529ee628db47d3a60e13f65b8", "type": "electric_scooter", "lat": 38.903749, "is_disabled": 0}, {"fusion_lat": 0.0, "lon": -77.07794483333333, "is_reserved": 0, "bike_id": "06a50ffb6ffb1fc0fd3d44640ae0cc36", "fusion_lon": 0.0, "rental_uris": {"android": "https://dc.lft.to/lastmile_qr_scan", "ios": "https://dc.lft.to/lastmile_qr_scan"}, "name": "06a50ffb6ffb1fc0fd3d44640ae0cc36", "type": "electric_bike", "lat": 38.996037333333334, "is_disabled": 0}, {"fusion_lat": 0.0, "lon": -76.9969855, "is_reserved": 0, "bike_id": "d740ef1de2f2ee43433c2db449623b3f", "fusion_lon": 0.0, "rental_uris": {"android": "https://dc.lft.to/lastmile_qr_scan", "ios": "https://dc.lft.to/lastmile_qr_scan"}, "name": "d740ef1de2f2ee43433c2db449623b3f", "type": "electric_scooter", "lat": 38.90799033333333, "is_disabled": 0}, {"fusion_lat": 0.0, "lon": -76.9373455, "is_reserved": 0, "bike_id": "08ae76517db06888473de63b75d7c212", "fusion_lon": 0.0, "rental_uris": {"android": "https://dc.lft.to/lastmile_qr_scan", "ios": "https://dc.lft.to/lastmile_qr_scan"}, "name": "08ae76517db06888473de63b75d7c212", "type": "electric_scooter", "lat": 38.89015333333333, "is_disabled": 0}, {"fusion_lat": 0.0, "lon": -77.02185566666667, "is_reserved": 0, "bike_id": "078242feff44a81fc76466c8c1c6999a", "fusion_lon": 0.0, "rental_uris": {"android": "https://dc.lft.to/lastmile_qr_scan", "ios": "https://dc.lft.to/lastmile_qr_scan"}, "name": "078242feff44a81fc76466c8c1c6999a", "type": "electric_scooter", "lat": 38.9095735, "is_disabled": 0}, {"fusion_lat": 0.0, "lon": -76.990356, "is_reserved": 0, "bike_id": "4176c89b294785aefbf971631545371f", "fusion_lon": 0.0, "rental_uris": {"android": "https://dc.lft.to/lastmile_qr_scan", "ios": "https://dc.lft.to/lastmile_qr_scan"}, "name": "4176c89b294785aefbf971631545371f", "type": "electric_scooter", "lat": 38.89853516666667, "is_disabled": 0}, {"fusion_lat": 0.0, "lon": -76.98924683333334, "is_reserved": 0, "bike_id": "3f7fe93769faee4ab81b321aeb4a58ff", "fusion_lon": 0.0, "rental_uris": {"android": "https://dc.lft.to/lastmile_qr_scan", "ios": "https://dc.lft.to/lastmile_qr_scan"}, "name": "3f7fe93769faee4ab81b321aeb4a58ff", "type": "electric_scooter", "lat": 38.858098166666664, "is_disabled": 0}, {"fusion_lat": 0.0, "lon": -77.0198325, "is_reserved": 0, "bike_id": "222157ec7226b785f2d3c2315433537e", "fusion_lon": 0.0, "rental_uris": {"android": "https://dc.lft.to/lastmile_qr_scan", "ios": "https://dc.lft.to/lastmile_qr_scan"}, "name": "222157ec7226b785f2d3c2315433537e", "type": "electric_bike", "lat": 38.92268883333333, "is_disabled": 0}, {"fusion_lat": 0.0, "lon": -77.06984983333334, "is_reserved": 0, "bike_id": "fda46f64e6d6d10f36ca581f75d4c8c9", "fusion_lon": 0.0, "rental_uris": {"android": "https://dc.lft.to/lastmile_qr_scan", "ios": "https://dc.lft.to/lastmile_qr_scan"}, "name": "fda46f64e6d6d10f36ca581f75d4c8c9", "type": "electric_scooter", "lat": 38.9526095, "is_disabled": 0}, {"fusion_lat": 0.0, "lon": -77.01554366666667, "is_reserved": 0, "bike_id": "9fca4abf4150b00ce34af5795e9d6276", "fusion_lon": 0.0, "rental_uris": {"android": "https://dc.lft.to/lastmile_qr_scan", "ios": "https://dc.lft.to/lastmile_qr_scan"}, "name": "9fca4abf4150b00ce34af5795e9d6276", "type": "electric_bike", "lat": 38.975011333333335, "is_disabled": 0}, {"fusion_lat": 0.0, "lon": -77.03403616666667, "is_reserved": 0, "bike_id": "7a5cef2b3db36321a55a6fcb1f0dc1b6", "fusion_lon": 0.0, "rental_uris": {"android": "https://dc.lft.to/lastmile_qr_scan", "ios": "https://dc.lft.to/lastmile_qr_scan"}, "name": "7a5cef2b3db36321a55a6fcb1f0dc1b6", "type": "electric_scooter", "lat": 38.909678, "is_disabled": 0}, {"fusion_lat": 0.0, "lon": -76.9008155, "is_reserved": 0, "bike_id": "4c7844a7329336de31befcc59b48847d", "fusion_lon": 0.0, "rental_uris": {"android": "https://dc.lft.to/lastmile_qr_scan", "ios": "https://dc.lft.to/lastmile_qr_scan"}, "name": "4c7844a7329336de31befcc59b48847d", "type": "electric_bike", "lat": 38.887518166666666, "is_disabled": 0}, {"fusion_lat": 0.0, "lon": -77.0211715, "is_reserved": 0, "bike_id": "8c0e536f7391e0c2942c9a06cdb3e86d", "fusion_lon": 0.0, "rental_uris": {"android": "https://dc.lft.to/lastmile_qr_scan", "ios": "https://dc.lft.to/lastmile_qr_scan"}, "name": "8c0e536f7391e0c2942c9a06cdb3e86d", "type": "electric_scooter", "lat": 38.90570066666667, "is_disabled": 0}, {"fusion_lat": 0.0, "lon": -77.00342516666667, "is_reserved": 0, "bike_id": "aace885d21310c1a18dc4c31289faad2", "fusion_lon": 0.0, "rental_uris": {"android": "https://dc.lft.to/lastmile_qr_scan", "ios": "https://dc.lft.to/lastmile_qr_scan"}, "name": "aace885d21310c1a18dc4c31289faad2", "type": "electric_scooter", "lat": 38.9161195, "is_disabled": 0}, {"fusion_lat": 0.0, "lon": -77.00206766666666, "is_reserved": 0, "bike_id": "2de3465a645e5cf41d225c9aa7ffeebc", "fusion_lon": 0.0, "rental_uris": {"android": "https://dc.lft.to/lastmile_qr_scan", "ios": "https://dc.lft.to/lastmile_qr_scan"}, "name": "2de3465a645e5cf41d225c9aa7ffeebc", "type": "electric_scooter", "lat": 38.90033183333333, "is_disabled": 0}, {"fusion_lat": 0.0, "lon": -77.04401633333333, "is_reserved": 0, "bike_id": "0cbf2a3f4e659a620b865834de9c13d3", "fusion_lon": 0.0, "rental_uris": {"android": "https://dc.lft.to/lastmile_qr_scan", "ios": "https://dc.lft.to/lastmile_qr_scan"}, "name": "0cbf2a3f4e659a620b865834de9c13d3", "type": "electric_scooter", "lat": 38.92445766666667, "is_disabled": 0}, {"fusion_lat": 0.0, "lon": -77.03333733333334, "is_reserved": 0, "bike_id": "e9714c21bf4c1e1a4b6127c22a5c3805", "fusion_lon": 0.0, "rental_uris": {"android": "https://dc.lft.to/lastmile_qr_scan", "ios": "https://dc.lft.to/lastmile_qr_scan"}, "name": "e9714c21bf4c1e1a4b6127c22a5c3805", "type": "electric_scooter", "lat": 38.92871316666667, "is_disabled": 0}, {"fusion_lat": 0.0, "lon": -77.02229166666666, "is_reserved": 0, "bike_id": "7190caf5a116a59162f9b1784223ea0e", "fusion_lon": 0.0, "rental_uris": {"android": "https://dc.lft.to/lastmile_qr_scan", "ios": "https://dc.lft.to/lastmile_qr_scan"}, "name": "7190caf5a116a59162f9b1784223ea0e", "type": "electric_scooter", "lat": 38.926082, "is_disabled": 0}, {"fusion_lat": 0.0, "lon": -77.03850533333333, "is_reserved": 0, "bike_id": "687dee759e0867fd3ef28eec0d1f4422", "fusion_lon": 0.0, "rental_uris": {"android": "https://dc.lft.to/lastmile_qr_scan", "ios": "https://dc.lft.to/lastmile_qr_scan"}, "name": "687dee759e0867fd3ef28eec0d1f4422", "type": "electric_scooter", "lat": 38.90365666666667, "is_disabled": 0}, {"fusion_lat": 0.0, "lon": -76.98088583333333, "is_reserved": 0, "bike_id": "c47c69925275faa800e643c28fc2348c", "fusion_lon": 0.0, "rental_uris": {"android": "https://dc.lft.to/lastmile_qr_scan", "ios": "https://dc.lft.to/lastmile_qr_scan"}, "name": "c47c69925275faa800e643c28fc2348c", "type": "electric_bike", "lat": 38.953534, "is_disabled": 0}, {"fusion_lat": 0.0, "lon": -77.02579783333333, "is_reserved": 0, "bike_id": "ca1d86b5de88472f0a7178f44ca0afb9", "fusion_lon": 0.0, "rental_uris": {"android": "https://dc.lft.to/lastmile_qr_scan", "ios": "https://dc.lft.to/lastmile_qr_scan"}, "name": "ca1d86b5de88472f0a7178f44ca0afb9", "type": "electric_scooter", "lat": 38.9205185, "is_disabled": 0}, {"fusion_lat": 0.0, "lon": -77.01765383333333, "is_reserved": 0, "bike_id": "9f16e70d1ace13279ce98de3a62bb81b", "fusion_lon": 0.0, "rental_uris": {"android": "https://dc.lft.to/lastmile_qr_scan", "ios": "https://dc.lft.to/lastmile_qr_scan"}, "name": "9f16e70d1ace13279ce98de3a62bb81b", "type": "electric_scooter", "lat": 38.97594616666667, "is_disabled": 0}, {"fusion_lat": 0.0, "lon": -77.027237, "is_reserved": 0, "bike_id": "481f0ad370d73dc44fd03557a90f4f74", "fusion_lon": 0.0, "rental_uris": {"android": "https://dc.lft.to/lastmile_qr_scan", "ios": "https://dc.lft.to/lastmile_qr_scan"}, "name": "481f0ad370d73dc44fd03557a90f4f74", "type": "electric_scooter", "lat": 38.949582, "is_disabled": 0}, {"fusion_lat": 0.0, "lon": -77.04672466666666, "is_reserved": 0, "bike_id": "dbdca5c2c2b80047751da144394f56fb", "fusion_lon": 0.0, "rental_uris": {"android": "https://dc.lft.to/lastmile_qr_scan", "ios": "https://dc.lft.to/lastmile_qr_scan"}, "name": "dbdca5c2c2b80047751da144394f56fb", "type": "electric_scooter", "lat": 38.89555566666667, "is_disabled": 0}, {"fusion_lat": 0.0, "lon": -77.0437575, "is_reserved": 0, "bike_id": "96c6c8069a20d2292304b7f1d8705627", "fusion_lon": 0.0, "rental_uris": {"android": "https://dc.lft.to/lastmile_qr_scan", "ios": "https://dc.lft.to/lastmile_qr_scan"}, "name": "96c6c8069a20d2292304b7f1d8705627", "type": "electric_scooter", "lat": 38.8984885, "is_disabled": 0}, {"fusion_lat": 0.0, "lon": -77.02560166666666, "is_reserved": 0, "bike_id": "ac62775cfc4b8de4effdab21a279491c", "fusion_lon": 0.0, "rental_uris": {"android": "https://dc.lft.to/lastmile_qr_scan", "ios": "https://dc.lft.to/lastmile_qr_scan"}, "name": "ac62775cfc4b8de4effdab21a279491c", "type": "electric_scooter", "lat": 38.9386145, "is_disabled": 0}, {"fusion_lat": 0.0, "lon": -77.0450275, "is_reserved": 0, "bike_id": "f86e2054f7a3382d7d6739d13b1d0045", "fusion_lon": 0.0, "rental_uris": {"android": "https://dc.lft.to/lastmile_qr_scan", "ios": "https://dc.lft.to/lastmile_qr_scan"}, "name": "f86e2054f7a3382d7d6739d13b1d0045", "type": "electric_scooter", "lat": 38.89236983333333, "is_disabled": 0}, {"fusion_lat": 0.0, "lon": -77.04465466666667, "is_reserved": 0, "bike_id": "403ffa6d0990ab4ddaa92d73658cdf70", "fusion_lon": 0.0, "rental_uris": {"android": "https://dc.lft.to/lastmile_qr_scan", "ios": "https://dc.lft.to/lastmile_qr_scan"}, "name": "403ffa6d0990ab4ddaa92d73658cdf70", "type": "electric_scooter", "lat": 38.903800833333335, "is_disabled": 0}, {"fusion_lat": 0.0, "lon": -76.93361966666667, "is_reserved": 0, "bike_id": "9009ba009ded4434d42ed0d4faa1321d", "fusion_lon": 0.0, "rental_uris": {"android": "https://dc.lft.to/lastmile_qr_scan", "ios": "https://dc.lft.to/lastmile_qr_scan"}, "name": "9009ba009ded4434d42ed0d4faa1321d", "type": "electric_scooter", "lat": 38.887979, "is_disabled": 0}, {"fusion_lat": 0.0, "lon": -77.00345066666667, "is_reserved": 0, "bike_id": "2f8914fdcdd5c7e0bdd932d133afd1bb", "fusion_lon": 0.0, "rental_uris": {"android": "https://dc.lft.to/lastmile_qr_scan", "ios": "https://dc.lft.to/lastmile_qr_scan"}, "name": "2f8914fdcdd5c7e0bdd932d133afd1bb", "type": "electric_scooter", "lat": 38.89532066666666, "is_disabled": 0}, {"fusion_lat": 0.0, "lon": -77.052094, "is_reserved": 0, "bike_id": "dee13e7805ba1eb5c294ca71d3cbca3c", "fusion_lon": 0.0, "rental_uris": {"android": "https://dc.lft.to/lastmile_qr_scan", "ios": "https://dc.lft.to/lastmile_qr_scan"}, "name": "dee13e7805ba1eb5c294ca71d3cbca3c", "type": "electric_scooter", "lat": 38.91563283333333, "is_disabled": 0}, {"fusion_lat": 0.0, "lon": -77.03638533333333, "is_reserved": 0, "bike_id": "b8940e904130ceae7f1cb0216a985fee", "fusion_lon": 0.0, "rental_uris": {"android": "https://dc.lft.to/lastmile_qr_scan", "ios": "https://dc.lft.to/lastmile_qr_scan"}, "name": "b8940e904130ceae7f1cb0216a985fee", "type": "electric_scooter", "lat": 38.90995916666667, "is_disabled": 0}, {"fusion_lat": 0.0, "lon": -77.03076616666667, "is_reserved": 0, "bike_id": "7899f17ed6b9b349ecacb87c39628d3d", "fusion_lon": 0.0, "rental_uris": {"android": "https://dc.lft.to/lastmile_qr_scan", "ios": "https://dc.lft.to/lastmile_qr_scan"}, "name": "7899f17ed6b9b349ecacb87c39628d3d", "type": "electric_scooter", "lat": 38.9237625, "is_disabled": 0}, {"fusion_lat": 0.0, "lon": -77.03051133333334, "is_reserved": 0, "bike_id": "275dd68d80ca0f61343f5b1da3917934", "fusion_lon": 0.0, "rental_uris": {"android": "https://dc.lft.to/lastmile_qr_scan", "ios": "https://dc.lft.to/lastmile_qr_scan"}, "name": "275dd68d80ca0f61343f5b1da3917934", "type": "electric_scooter", "lat": 38.8841335, "is_disabled": 0}, {"fusion_lat": 0.0, "lon": -77.003719, "is_reserved": 0, "bike_id": "0f1da194e4ffa4a4f7e0b78a24277c1c", "fusion_lon": 0.0, "rental_uris": {"android": "https://dc.lft.to/lastmile_qr_scan", "ios": "https://dc.lft.to/lastmile_qr_scan"}, "name": "0f1da194e4ffa4a4f7e0b78a24277c1c", "type": "electric_scooter", "lat": 38.897320666666666, "is_disabled": 0}, {"fusion_lat": 0.0, "lon": -77.0469765, "is_reserved": 0, "bike_id": "ea8d509e1e6ff18cd2805d34db5f5a66", "fusion_lon": 0.0, "rental_uris": {"android": "https://dc.lft.to/lastmile_qr_scan", "ios": "https://dc.lft.to/lastmile_qr_scan"}, "name": "ea8d509e1e6ff18cd2805d34db5f5a66", "type": "electric_scooter", "lat": 38.921657333333336, "is_disabled": 0}, {"fusion_lat": 0.0, "lon": -77.03549383333333, "is_reserved": 0, "bike_id": "d849dc81e06c4ecdce8b5d87fd859e27", "fusion_lon": 0.0, "rental_uris": {"android": "https://dc.lft.to/lastmile_qr_scan", "ios": "https://dc.lft.to/lastmile_qr_scan"}, "name": "d849dc81e06c4ecdce8b5d87fd859e27", "type": "electric_scooter", "lat": 38.9170845, "is_disabled": 0}, {"fusion_lat": 0.0, "lon": -77.00861516666667, "is_reserved": 0, "bike_id": "2f8700f8b25c58b2c70fabd8113f9468", "fusion_lon": 0.0, "rental_uris": {"android": "https://dc.lft.to/lastmile_qr_scan", "ios": "https://dc.lft.to/lastmile_qr_scan"}, "name": "2f8700f8b25c58b2c70fabd8113f9468", "type": "electric_scooter", "lat": 38.9065355, "is_disabled": 0}, {"fusion_lat": 0.0, "lon": -77.024419, "is_reserved": 0, "bike_id": "b8cacd2585cb5a01a5725857b09013b0", "fusion_lon": 0.0, "rental_uris": {"android": "https://dc.lft.to/lastmile_qr_scan", "ios": "https://dc.lft.to/lastmile_qr_scan"}, "name": "b8cacd2585cb5a01a5725857b09013b0", "type": "electric_scooter", "lat": 38.899952666666664, "is_disabled": 0}, {"fusion_lat": 0.0, "lon": -77.04477183333333, "is_reserved": 0, "bike_id": "3aae1c5719f6fbcddded5a95cb21dafe", "fusion_lon": 0.0, "rental_uris": {"android": "https://dc.lft.to/lastmile_qr_scan", "ios": "https://dc.lft.to/lastmile_qr_scan"}, "name": "3aae1c5719f6fbcddded5a95cb21dafe", "type": "electric_scooter", "lat": 38.90557883333334, "is_disabled": 0}, {"fusion_lat": 0.0, "lon": -77.03859816666667, "is_reserved": 0, "bike_id": "272393522b494b6804ec4d7f59b915f3", "fusion_lon": 0.0, "rental_uris": {"android": "https://dc.lft.to/lastmile_qr_scan", "ios": "https://dc.lft.to/lastmile_qr_scan"}, "name": "272393522b494b6804ec4d7f59b915f3", "type": "electric_scooter", "lat": 38.902549666666665, "is_disabled": 0}, {"fusion_lat": 0.0, "lon": -77.027971, "is_reserved": 0, "bike_id": "82bdb1ff26e83e8387835d5cd3ffea87", "fusion_lon": 0.0, "rental_uris": {"android": "https://dc.lft.to/lastmile_qr_scan", "ios": "https://dc.lft.to/lastmile_qr_scan"}, "name": "82bdb1ff26e83e8387835d5cd3ffea87", "type": "electric_scooter", "lat": 38.89231783333334, "is_disabled": 0}, {"fusion_lat": 0.0, "lon": -77.01318416666666, "is_reserved": 0, "bike_id": "11702326eadcad4b23f81d17f7d3b6c3", "fusion_lon": 0.0, "rental_uris": {"android": "https://dc.lft.to/lastmile_qr_scan", "ios": "https://dc.lft.to/lastmile_qr_scan"}, "name": "11702326eadcad4b23f81d17f7d3b6c3", "type": "electric_scooter", "lat": 38.87155583333333, "is_disabled": 0}, {"fusion_lat": 0.0, "lon": -76.995464, "is_reserved": 0, "bike_id": "6c31e0b59a6c45e798f1881429c15fc8", "fusion_lon": 0.0, "rental_uris": {"android": "https://dc.lft.to/lastmile_qr_scan", "ios": "https://dc.lft.to/lastmile_qr_scan"}, "name": "6c31e0b59a6c45e798f1881429c15fc8", "type": "electric_scooter", "lat": 38.86257583333333, "is_disabled": 0}, {"fusion_lat": 0.0, "lon": -77.0430665, "is_reserved": 0, "bike_id": "61fd38658e81b3e51822c88cc6754819", "fusion_lon": 0.0, "rental_uris": {"android": "https://dc.lft.to/lastmile_qr_scan", "ios": "https://dc.lft.to/lastmile_qr_scan"}, "name": "61fd38658e81b3e51822c88cc6754819", "type": "electric_scooter", "lat": 38.92323366666667, "is_disabled": 0}, {"fusion_lat": 0.0, "lon": -77.01748733333334, "is_reserved": 0, "bike_id": "9940071b671b364418b677aeda9aca65", "fusion_lon": 0.0, "rental_uris": {"android": "https://dc.lft.to/lastmile_qr_scan", "ios": "https://dc.lft.to/lastmile_qr_scan"}, "name": "9940071b671b364418b677aeda9aca65", "type": "electric_scooter", "lat": 38.88325966666667, "is_disabled": 0}, {"fusion_lat": 0.0, "lon": -77.00052533333333, "is_reserved": 0, "bike_id": "4343c9ca3bac904ccd3970ddd5459cff", "fusion_lon": 0.0, "rental_uris": {"android": "https://dc.lft.to/lastmile_qr_scan", "ios": "https://dc.lft.to/lastmile_qr_scan"}, "name": "4343c9ca3bac904ccd3970ddd5459cff", "type": "electric_scooter", "lat": 38.89641, "is_disabled": 0}, {"fusion_lat": 0.0, "lon": -77.028871, "is_reserved": 0, "bike_id": "d0e93af736e6b5cf5eae5fbf9a76b524", "fusion_lon": 0.0, "rental_uris": {"android": "https://dc.lft.to/lastmile_qr_scan", "ios": "https://dc.lft.to/lastmile_qr_scan"}, "name": "d0e93af736e6b5cf5eae5fbf9a76b524", "type": "electric_scooter", "lat": 38.917230833333335, "is_disabled": 0}, {"fusion_lat": 0.0, "lon": -77.00928833333333, "is_reserved": 0, "bike_id": "6613d21020569a3459d9d92052416041", "fusion_lon": 0.0, "rental_uris": {"android": "https://dc.lft.to/lastmile_qr_scan", "ios": "https://dc.lft.to/lastmile_qr_scan"}, "name": "6613d21020569a3459d9d92052416041", "type": "electric_scooter", "lat": 38.9125395, "is_disabled": 0}, {"fusion_lat": 0.0, "lon": -77.08653966666667, "is_reserved": 0, "bike_id": "967f4beeb2ceb0805bc4bf47e424612b", "fusion_lon": 0.0, "rental_uris": {"android": "https://dc.lft.to/lastmile_qr_scan", "ios": "https://dc.lft.to/lastmile_qr_scan"}, "name": "967f4beeb2ceb0805bc4bf47e424612b", "type": "electric_bike", "lat": 38.862489, "is_disabled": 0}, {"fusion_lat": 0.0, "lon": -76.99459683333333, "is_reserved": 0, "bike_id": "692ab6bf6da02db8ec033ac0d08e1065", "fusion_lon": 0.0, "rental_uris": {"android": "https://dc.lft.to/lastmile_qr_scan", "ios": "https://dc.lft.to/lastmile_qr_scan"}, "name": "692ab6bf6da02db8ec033ac0d08e1065", "type": "electric_bike", "lat": 38.966197, "is_disabled": 0}, {"fusion_lat": 0.0, "lon": -77.05039716666667, "is_reserved": 0, "bike_id": "32704e5ef45cb7559917683402639eee", "fusion_lon": 0.0, "rental_uris": {"android": "https://dc.lft.to/lastmile_qr_scan", "ios": "https://dc.lft.to/lastmile_qr_scan"}, "name": "32704e5ef45cb7559917683402639eee", "type": "electric_scooter", "lat": 38.923642, "is_disabled": 0}, {"fusion_lat": 0.0, "lon": -77.02240783333333, "is_reserved": 0, "bike_id": "1e583694e13f49c367d44908c185e82d", "fusion_lon": 0.0, "rental_uris": {"android": "https://dc.lft.to/lastmile_qr_scan", "ios": "https://dc.lft.to/lastmile_qr_scan"}, "name": "1e583694e13f49c367d44908c185e82d", "type": "electric_bike", "lat": 38.956882666666665, "is_disabled": 0}, {"fusion_lat": 0.0, "lon": -77.00597316666666, "is_reserved": 0, "bike_id": "14b1fa8afe7a3e32e6ca6a4dc0aee195", "fusion_lon": 0.0, "rental_uris": {"android": "https://dc.lft.to/lastmile_qr_scan", "ios": "https://dc.lft.to/lastmile_qr_scan"}, "name": "14b1fa8afe7a3e32e6ca6a4dc0aee195", "type": "electric_scooter", "lat": 38.90557483333333, "is_disabled": 0}, {"fusion_lat": 0.0, "lon": -76.99387583333333, "is_reserved": 0, "bike_id": "ad71573056bbb0a4b911a315cbf2aece", "fusion_lon": 0.0, "rental_uris": {"android": "https://dc.lft.to/lastmile_qr_scan", "ios": "https://dc.lft.to/lastmile_qr_scan"}, "name": "ad71573056bbb0a4b911a315cbf2aece", "type": "electric_scooter", "lat": 38.897286666666666, "is_disabled": 0}, {"fusion_lat": 0.0, "lon": -76.9275115, "is_reserved": 0, "bike_id": "ea31e3c3af3c4e7e2d3549a790375b3a", "fusion_lon": 0.0, "rental_uris": {"android": "https://dc.lft.to/lastmile_qr_scan", "ios": "https://dc.lft.to/lastmile_qr_scan"}, "name": "ea31e3c3af3c4e7e2d3549a790375b3a", "type": "electric_scooter", "lat": 38.880606666666665, "is_disabled": 0}, {"fusion_lat": 0.0, "lon": -77.02378, "is_reserved": 0, "bike_id": "5353fcb8f8c612e9d868fc4b947df10d", "fusion_lon": 0.0, "rental_uris": {"android": "https://dc.lft.to/lastmile_qr_scan", "ios": "https://dc.lft.to/lastmile_qr_scan"}, "name": "5353fcb8f8c612e9d868fc4b947df10d", "type": "electric_scooter", "lat": 38.90743916666667, "is_disabled": 0}, {"fusion_lat": 0.0, "lon": -77.00395483333334, "is_reserved": 0, "bike_id": "50a15c7386021b20e3a30bf27333ee15", "fusion_lon": 0.0, "rental_uris": {"android": "https://dc.lft.to/lastmile_qr_scan", "ios": "https://dc.lft.to/lastmile_qr_scan"}, "name": "50a15c7386021b20e3a30bf27333ee15", "type": "electric_scooter", "lat": 38.9056915, "is_disabled": 0}, {"fusion_lat": 0.0, "lon": -77.00778233333334, "is_reserved": 0, "bike_id": "e3a882d5e16630e1e758687abddd87b2", "fusion_lon": 0.0, "rental_uris": {"android": "https://dc.lft.to/lastmile_qr_scan", "ios": "https://dc.lft.to/lastmile_qr_scan"}, "name": "e3a882d5e16630e1e758687abddd87b2", "type": "electric_scooter", "lat": 38.9064515, "is_disabled": 0}, {"fusion_lat": 0.0, "lon": -77.1033015, "is_reserved": 0, "bike_id": "bc47ab70ee73c8855c53293c7d8ef481", "fusion_lon": 0.0, "rental_uris": {"android": "https://dc.lft.to/lastmile_qr_scan", "ios": "https://dc.lft.to/lastmile_qr_scan"}, "name": "bc47ab70ee73c8855c53293c7d8ef481", "type": "electric_bike", "lat": 38.8741375, "is_disabled": 0}, {"fusion_lat": 0.0, "lon": -77.03480383333333, "is_reserved": 0, "bike_id": "8116cf2ea18b649f3bbfb5d8b5bf081a", "fusion_lon": 0.0, "rental_uris": {"android": "https://dc.lft.to/lastmile_qr_scan", "ios": "https://dc.lft.to/lastmile_qr_scan"}, "name": "8116cf2ea18b649f3bbfb5d8b5bf081a", "type": "electric_scooter", "lat": 38.924822166666665, "is_disabled": 0}, {"fusion_lat": 0.0, "lon": -76.99829033333333, "is_reserved": 0, "bike_id": "81f468683c74213604a137829a7524cd", "fusion_lon": 0.0, "rental_uris": {"android": "https://dc.lft.to/lastmile_qr_scan", "ios": "https://dc.lft.to/lastmile_qr_scan"}, "name": "81f468683c74213604a137829a7524cd", "type": "electric_scooter", "lat": 38.908555666666665, "is_disabled": 0}, {"fusion_lat": 0.0, "lon": -77.04336466666666, "is_reserved": 0, "bike_id": "f594257aa26979221f1d5068e3d924ce", "fusion_lon": 0.0, "rental_uris": {"android": "https://dc.lft.to/lastmile_qr_scan", "ios": "https://dc.lft.to/lastmile_qr_scan"}, "name": "f594257aa26979221f1d5068e3d924ce", "type": "electric_scooter", "lat": 38.90713933333333, "is_disabled": 0}, {"fusion_lat": 0.0, "lon": -76.99079, "is_reserved": 0, "bike_id": "ee2f20fbd93706c1f7bcb90cb29ac8ef", "fusion_lon": 0.0, "rental_uris": {"android": "https://dc.lft.to/lastmile_qr_scan", "ios": "https://dc.lft.to/lastmile_qr_scan"}, "name": "ee2f20fbd93706c1f7bcb90cb29ac8ef", "type": "electric_scooter", "lat": 38.84285783333333, "is_disabled": 0}, {"fusion_lat": 0.0, "lon": -77.03409783333333, "is_reserved": 0, "bike_id": "d48eec41262210fe92002f71b5cef7da", "fusion_lon": 0.0, "rental_uris": {"android": "https://dc.lft.to/lastmile_qr_scan", "ios": "https://dc.lft.to/lastmile_qr_scan"}, "name": "d48eec41262210fe92002f71b5cef7da", "type": "electric_scooter", "lat": 38.92306266666667, "is_disabled": 0}, {"fusion_lat": 0.0, "lon": -77.02402766666667, "is_reserved": 0, "bike_id": "15630e7be543031205d69007d2e26754", "fusion_lon": 0.0, "rental_uris": {"android": "https://dc.lft.to/lastmile_qr_scan", "ios": "https://dc.lft.to/lastmile_qr_scan"}, "name": "15630e7be543031205d69007d2e26754", "type": "electric_scooter", "lat": 38.957061333333336, "is_disabled": 0}, {"fusion_lat": 0.0, "lon": -77.00588716666667, "is_reserved": 0, "bike_id": "8b8760e099cbd99a12f06948c3c930fe", "fusion_lon": 0.0, "rental_uris": {"android": "https://dc.lft.to/lastmile_qr_scan", "ios": "https://dc.lft.to/lastmile_qr_scan"}, "name": "8b8760e099cbd99a12f06948c3c930fe", "type": "electric_scooter", "lat": 38.905679666666664, "is_disabled": 0}, {"fusion_lat": 0.0, "lon": -77.03069783333333, "is_reserved": 0, "bike_id": "bdd4d9cc7cf4f4d4ecefadb9dd4e1778", "fusion_lon": 0.0, "rental_uris": {"android": "https://dc.lft.to/lastmile_qr_scan", "ios": "https://dc.lft.to/lastmile_qr_scan"}, "name": "bdd4d9cc7cf4f4d4ecefadb9dd4e1778", "type": "electric_scooter", "lat": 38.917548833333335, "is_disabled": 0}, {"fusion_lat": 0.0, "lon": -77.034725, "is_reserved": 0, "bike_id": "bb7e49505a1fde490973815ad10f6ae5", "fusion_lon": 0.0, "rental_uris": {"android": "https://dc.lft.to/lastmile_qr_scan", "ios": "https://dc.lft.to/lastmile_qr_scan"}, "name": "bb7e49505a1fde490973815ad10f6ae5", "type": "electric_scooter", "lat": 38.906578, "is_disabled": 0}, {"fusion_lat": 0.0, "lon": -77.03235616666667, "is_reserved": 0, "bike_id": "ae1c1e15c57fd83d739dbc5ed97ddaea", "fusion_lon": 0.0, "rental_uris": {"android": "https://dc.lft.to/lastmile_qr_scan", "ios": "https://dc.lft.to/lastmile_qr_scan"}, "name": "ae1c1e15c57fd83d739dbc5ed97ddaea", "type": "electric_scooter", "lat": 38.9286265, "is_disabled": 0}, {"fusion_lat": 0.0, "lon": -76.93757716666667, "is_reserved": 0, "bike_id": "caad2c5a5b074de75510cb0abef59b88", "fusion_lon": 0.0, "rental_uris": {"android": "https://dc.lft.to/lastmile_qr_scan", "ios": "https://dc.lft.to/lastmile_qr_scan"}, "name": "caad2c5a5b074de75510cb0abef59b88", "type": "electric_scooter", "lat": 38.890464333333334, "is_disabled": 0}, {"fusion_lat": 0.0, "lon": -77.07577716666667, "is_reserved": 0, "bike_id": "7896c19e2524b5f4bb98565e6486f31c", "fusion_lon": 0.0, "rental_uris": {"android": "https://dc.lft.to/lastmile_qr_scan", "ios": "https://dc.lft.to/lastmile_qr_scan"}, "name": "7896c19e2524b5f4bb98565e6486f31c", "type": "electric_scooter", "lat": 38.912647166666666, "is_disabled": 0}, {"fusion_lat": 0.0, "lon": -77.02916466666667, "is_reserved": 0, "bike_id": "d92018788f9a51ae04b539d9faa127cc", "fusion_lon": 0.0, "rental_uris": {"android": "https://dc.lft.to/lastmile_qr_scan", "ios": "https://dc.lft.to/lastmile_qr_scan"}, "name": "d92018788f9a51ae04b539d9faa127cc", "type": "electric_scooter", "lat": 38.903539333333335, "is_disabled": 0}, {"fusion_lat": 0.0, "lon": -77.0058945, "is_reserved": 0, "bike_id": "bd7c2ea9dc1584b98807133b38fbe696", "fusion_lon": 0.0, "rental_uris": {"android": "https://dc.lft.to/lastmile_qr_scan", "ios": "https://dc.lft.to/lastmile_qr_scan"}, "name": "bd7c2ea9dc1584b98807133b38fbe696", "type": "electric_scooter", "lat": 38.90565333333333, "is_disabled": 0}, {"fusion_lat": 0.0, "lon": -77.040258, "is_reserved": 0, "bike_id": "afd3c0d16de347a3f82b6c6cee350d24", "fusion_lon": 0.0, "rental_uris": {"android": "https://dc.lft.to/lastmile_qr_scan", "ios": "https://dc.lft.to/lastmile_qr_scan"}, "name": "afd3c0d16de347a3f82b6c6cee350d24", "type": "electric_scooter", "lat": 38.89530583333333, "is_disabled": 0}, {"fusion_lat": 0.0, "lon": -77.045351, "is_reserved": 0, "bike_id": "7cb5afa706e069910a48357dac6bbb14", "fusion_lon": 0.0, "rental_uris": {"android": "https://dc.lft.to/lastmile_qr_scan", "ios": "https://dc.lft.to/lastmile_qr_scan"}, "name": "7cb5afa706e069910a48357dac6bbb14", "type": "electric_scooter", "lat": 38.900623, "is_disabled": 0}, {"fusion_lat": 0.0, "lon": -77.00628283333333, "is_reserved": 0, "bike_id": "0ae5c3ba6a9319034f6060a911f155b6", "fusion_lon": 0.0, "rental_uris": {"android": "https://dc.lft.to/lastmile_qr_scan", "ios": "https://dc.lft.to/lastmile_qr_scan"}, "name": "0ae5c3ba6a9319034f6060a911f155b6", "type": "electric_scooter", "lat": 38.83275416666667, "is_disabled": 0}, {"fusion_lat": 0.0, "lon": -77.028297, "is_reserved": 0, "bike_id": "53aeed3c02caf716c334610b6f5c95d8", "fusion_lon": 0.0, "rental_uris": {"android": "https://dc.lft.to/lastmile_qr_scan", "ios": "https://dc.lft.to/lastmile_qr_scan"}, "name": "53aeed3c02caf716c334610b6f5c95d8", "type": "electric_scooter", "lat": 38.898458, "is_disabled": 0}, {"fusion_lat": 0.0, "lon": -76.99417916666667, "is_reserved": 0, "bike_id": "0b7f38eea514c0bdaa8be70c634ba3a1", "fusion_lon": 0.0, "rental_uris": {"android": "https://dc.lft.to/lastmile_qr_scan", "ios": "https://dc.lft.to/lastmile_qr_scan"}, "name": "0b7f38eea514c0bdaa8be70c634ba3a1", "type": "electric_scooter", "lat": 38.8778525, "is_disabled": 0}, {"fusion_lat": 0.0, "lon": -77.0029225, "is_reserved": 0, "bike_id": "d7fc6221bf404ebeec1a03e03f9890b5", "fusion_lon": 0.0, "rental_uris": {"android": "https://dc.lft.to/lastmile_qr_scan", "ios": "https://dc.lft.to/lastmile_qr_scan"}, "name": "d7fc6221bf404ebeec1a03e03f9890b5", "type": "electric_scooter", "lat": 38.89490116666666, "is_disabled": 0}, {"fusion_lat": 0.0, "lon": -77.03693966666667, "is_reserved": 0, "bike_id": "e6aebc68b0c8e656f3352fd41dea1f68", "fusion_lon": 0.0, "rental_uris": {"android": "https://dc.lft.to/lastmile_qr_scan", "ios": "https://dc.lft.to/lastmile_qr_scan"}, "name": "e6aebc68b0c8e656f3352fd41dea1f68", "type": "electric_scooter", "lat": 38.903602166666666, "is_disabled": 0}, {"fusion_lat": 0.0, "lon": -76.919745, "is_reserved": 0, "bike_id": "d5124ab66501e958eff24f9c7923b5f3", "fusion_lon": 0.0, "rental_uris": {"android": "https://dc.lft.to/lastmile_qr_scan", "ios": "https://dc.lft.to/lastmile_qr_scan"}, "name": "d5124ab66501e958eff24f9c7923b5f3", "type": "electric_scooter", "lat": 38.90026316666667, "is_disabled": 0}, {"fusion_lat": 0.0, "lon": -77.03910433333333, "is_reserved": 0, "bike_id": "5164de0e218c9555013e89da2ada8b1e", "fusion_lon": 0.0, "rental_uris": {"android": "https://dc.lft.to/lastmile_qr_scan", "ios": "https://dc.lft.to/lastmile_qr_scan"}, "name": "5164de0e218c9555013e89da2ada8b1e", "type": "electric_scooter", "lat": 38.9241715, "is_disabled": 0}, {"fusion_lat": 0.0, "lon": -77.06597683333334, "is_reserved": 0, "bike_id": "045825204929df82e218b64d15b0b17e", "fusion_lon": 0.0, "rental_uris": {"android": "https://dc.lft.to/lastmile_qr_scan", "ios": "https://dc.lft.to/lastmile_qr_scan"}, "name": "045825204929df82e218b64d15b0b17e", "type": "electric_scooter", "lat": 38.90360183333333, "is_disabled": 0}, {"fusion_lat": 0.0, "lon": -77.03864333333334, "is_reserved": 0, "bike_id": "7ec3beee8a3cd0b2c12ebd1bfd4f724a", "fusion_lon": 0.0, "rental_uris": {"android": "https://dc.lft.to/lastmile_qr_scan", "ios": "https://dc.lft.to/lastmile_qr_scan"}, "name": "7ec3beee8a3cd0b2c12ebd1bfd4f724a", "type": "electric_scooter", "lat": 38.90806883333333, "is_disabled": 0}, {"fusion_lat": 0.0, "lon": -76.997898, "is_reserved": 0, "bike_id": "1d0a7f69be6ec848cae9aa72247f73f9", "fusion_lon": 0.0, "rental_uris": {"android": "https://dc.lft.to/lastmile_qr_scan", "ios": "https://dc.lft.to/lastmile_qr_scan"}, "name": "1d0a7f69be6ec848cae9aa72247f73f9", "type": "electric_bike", "lat": 38.9508725, "is_disabled": 0}, {"fusion_lat": 0.0, "lon": -77.01513816666667, "is_reserved": 0, "bike_id": "90be89c2009cbc09339a01dbd4a48fdc", "fusion_lon": 0.0, "rental_uris": {"android": "https://dc.lft.to/lastmile_qr_scan", "ios": "https://dc.lft.to/lastmile_qr_scan"}, "name": "90be89c2009cbc09339a01dbd4a48fdc", "type": "electric_scooter", "lat": 38.89243166666667, "is_disabled": 0}, {"fusion_lat": 0.0, "lon": -77.01770233333333, "is_reserved": 0, "bike_id": "052b281afa6e4d1c270ff0d5b9ccf910", "fusion_lon": 0.0, "rental_uris": {"android": "https://dc.lft.to/lastmile_qr_scan", "ios": "https://dc.lft.to/lastmile_qr_scan"}, "name": "052b281afa6e4d1c270ff0d5b9ccf910", "type": "electric_scooter", "lat": 38.88579333333333, "is_disabled": 0}, {"fusion_lat": 0.0, "lon": -77.005981, "is_reserved": 0, "bike_id": "93aafc545b64eeb90dd7733d5bc53a07", "fusion_lon": 0.0, "rental_uris": {"android": "https://dc.lft.to/lastmile_qr_scan", "ios": "https://dc.lft.to/lastmile_qr_scan"}, "name": "93aafc545b64eeb90dd7733d5bc53a07", "type": "electric_scooter", "lat": 38.88519333333333, "is_disabled": 0}, {"fusion_lat": 0.0, "lon": -77.06300166666666, "is_reserved": 0, "bike_id": "fc416d4445819fba33e694ddc4e6f3ba", "fusion_lon": 0.0, "rental_uris": {"android": "https://dc.lft.to/lastmile_qr_scan", "ios": "https://dc.lft.to/lastmile_qr_scan"}, "name": "fc416d4445819fba33e694ddc4e6f3ba", "type": "electric_scooter", "lat": 38.903972333333336, "is_disabled": 0}, {"fusion_lat": 0.0, "lon": -77.043755, "is_reserved": 0, "bike_id": "f601750cf8ac31cd9e511a1e7b429a8c", "fusion_lon": 0.0, "rental_uris": {"android": "https://dc.lft.to/lastmile_qr_scan", "ios": "https://dc.lft.to/lastmile_qr_scan"}, "name": "f601750cf8ac31cd9e511a1e7b429a8c", "type": "electric_scooter", "lat": 38.89222633333333, "is_disabled": 0}, {"fusion_lat": 0.0, "lon": -77.07904083333334, "is_reserved": 0, "bike_id": "4eae29e01a2b032a508465ce487c69ca", "fusion_lon": 0.0, "rental_uris": {"android": "https://dc.lft.to/lastmile_qr_scan", "ios": "https://dc.lft.to/lastmile_qr_scan"}, "name": "4eae29e01a2b032a508465ce487c69ca", "type": "electric_scooter", "lat": 38.948016833333334, "is_disabled": 0}, {"fusion_lat": 0.0, "lon": -77.04486983333334, "is_reserved": 0, "bike_id": "58070d6aa1fa581e5696accb188948dd", "fusion_lon": 0.0, "rental_uris": {"android": "https://dc.lft.to/lastmile_qr_scan", "ios": "https://dc.lft.to/lastmile_qr_scan"}, "name": "58070d6aa1fa581e5696accb188948dd", "type": "electric_scooter", "lat": 38.91098066666667, "is_disabled": 0}, {"fusion_lat": 0.0, "lon": -77.04378016666666, "is_reserved": 0, "bike_id": "889d6f1f4093d0d9f1dacf3be9905b22", "fusion_lon": 0.0, "rental_uris": {"android": "https://dc.lft.to/lastmile_qr_scan", "ios": "https://dc.lft.to/lastmile_qr_scan"}, "name": "889d6f1f4093d0d9f1dacf3be9905b22", "type": "electric_scooter", "lat": 38.921095, "is_disabled": 0}, {"fusion_lat": 0.0, "lon": -77.01695816666667, "is_reserved": 0, "bike_id": "b3bbccc2f799e15511978f98d9fd0f12", "fusion_lon": 0.0, "rental_uris": {"android": "https://dc.lft.to/lastmile_qr_scan", "ios": "https://dc.lft.to/lastmile_qr_scan"}, "name": "b3bbccc2f799e15511978f98d9fd0f12", "type": "electric_scooter", "lat": 38.90522283333333, "is_disabled": 0}, {"fusion_lat": 0.0, "lon": -76.9970675, "is_reserved": 0, "bike_id": "5e9f5e4738c4a3f3e1bfad283a23f05f", "fusion_lon": 0.0, "rental_uris": {"android": "https://dc.lft.to/lastmile_qr_scan", "ios": "https://dc.lft.to/lastmile_qr_scan"}, "name": "5e9f5e4738c4a3f3e1bfad283a23f05f", "type": "electric_scooter", "lat": 38.84426966666667, "is_disabled": 0}, {"fusion_lat": 0.0, "lon": -77.07606866666667, "is_reserved": 0, "bike_id": "b8ee2bfad29280a78bd8af031973e1c9", "fusion_lon": 0.0, "rental_uris": {"android": "https://dc.lft.to/lastmile_qr_scan", "ios": "https://dc.lft.to/lastmile_qr_scan"}, "name": "b8ee2bfad29280a78bd8af031973e1c9", "type": "electric_scooter", "lat": 38.920577, "is_disabled": 0}, {"fusion_lat": 0.0, "lon": -76.97598583333334, "is_reserved": 0, "bike_id": "15d48d92be0086eaeb05eef80c84a620", "fusion_lon": 0.0, "rental_uris": {"android": "https://dc.lft.to/lastmile_qr_scan", "ios": "https://dc.lft.to/lastmile_qr_scan"}, "name": "15d48d92be0086eaeb05eef80c84a620", "type": "electric_scooter", "lat": 38.8974895, "is_disabled": 0}, {"fusion_lat": 0.0, "lon": -76.9876285, "is_reserved": 0, "bike_id": "8382b902aa366625aeeb2471fbe77e19", "fusion_lon": 0.0, "rental_uris": {"android": "https://dc.lft.to/lastmile_qr_scan", "ios": "https://dc.lft.to/lastmile_qr_scan"}, "name": "8382b902aa366625aeeb2471fbe77e19", "type": "electric_scooter", "lat": 38.9002605, "is_disabled": 0}, {"fusion_lat": 0.0, "lon": -77.0274065, "is_reserved": 0, "bike_id": "d950adc580e0f0b36cb34b220e2b5ca3", "fusion_lon": 0.0, "rental_uris": {"android": "https://dc.lft.to/lastmile_qr_scan", "ios": "https://dc.lft.to/lastmile_qr_scan"}, "name": "d950adc580e0f0b36cb34b220e2b5ca3", "type": "electric_scooter", "lat": 38.92380683333333, "is_disabled": 0}, {"fusion_lat": 0.0, "lon": -77.03097416666667, "is_reserved": 0, "bike_id": "5b46dbc9d86376cb0ac4ce8deaad611c", "fusion_lon": 0.0, "rental_uris": {"android": "https://dc.lft.to/lastmile_qr_scan", "ios": "https://dc.lft.to/lastmile_qr_scan"}, "name": "5b46dbc9d86376cb0ac4ce8deaad611c", "type": "electric_scooter", "lat": 38.923798, "is_disabled": 0}, {"fusion_lat": 0.0, "lon": -77.02157433333333, "is_reserved": 0, "bike_id": "ad1fd2cd37d17c7c8a8d58de7b1b13a5", "fusion_lon": 0.0, "rental_uris": {"android": "https://dc.lft.to/lastmile_qr_scan", "ios": "https://dc.lft.to/lastmile_qr_scan"}, "name": "ad1fd2cd37d17c7c8a8d58de7b1b13a5", "type": "electric_scooter", "lat": 38.92602383333333, "is_disabled": 0}, {"fusion_lat": 0.0, "lon": -77.00335133333333, "is_reserved": 0, "bike_id": "7ceffc6da2095eab0581a90597dce3be", "fusion_lon": 0.0, "rental_uris": {"android": "https://dc.lft.to/lastmile_qr_scan", "ios": "https://dc.lft.to/lastmile_qr_scan"}, "name": "7ceffc6da2095eab0581a90597dce3be", "type": "electric_scooter", "lat": 38.8898475, "is_disabled": 0}, {"fusion_lat": 0.0, "lon": -76.99807233333334, "is_reserved": 0, "bike_id": "a9850ffe06237e89666ae17ee39fa04d", "fusion_lon": 0.0, "rental_uris": {"android": "https://dc.lft.to/lastmile_qr_scan", "ios": "https://dc.lft.to/lastmile_qr_scan"}, "name": "a9850ffe06237e89666ae17ee39fa04d", "type": "electric_scooter", "lat": 38.88567466666667, "is_disabled": 0}, {"fusion_lat": 0.0, "lon": -77.04188233333333, "is_reserved": 0, "bike_id": "0ebe97b044f1d1f05bf5055f9fccf3a6", "fusion_lon": 0.0, "rental_uris": {"android": "https://dc.lft.to/lastmile_qr_scan", "ios": "https://dc.lft.to/lastmile_qr_scan"}, "name": "0ebe97b044f1d1f05bf5055f9fccf3a6", "type": "electric_scooter", "lat": 38.91982816666667, "is_disabled": 0}, {"fusion_lat": 0.0, "lon": -77.027394, "is_reserved": 0, "bike_id": "eefdd217ed362b6d459a6d879d022aab", "fusion_lon": 0.0, "rental_uris": {"android": "https://dc.lft.to/lastmile_qr_scan", "ios": "https://dc.lft.to/lastmile_qr_scan"}, "name": "eefdd217ed362b6d459a6d879d022aab", "type": "electric_scooter", "lat": 38.927638333333334, "is_disabled": 0}, {"fusion_lat": 0.0, "lon": -77.04809716666666, "is_reserved": 0, "bike_id": "ac917e648a545addcf8debc7d38baee3", "fusion_lon": 0.0, "rental_uris": {"android": "https://dc.lft.to/lastmile_qr_scan", "ios": "https://dc.lft.to/lastmile_qr_scan"}, "name": "ac917e648a545addcf8debc7d38baee3", "type": "electric_scooter", "lat": 38.9103515, "is_disabled": 0}, {"fusion_lat": 0.0, "lon": -77.02053733333334, "is_reserved": 0, "bike_id": "ba1b93fbf6a4d75a3348b95c7f7d9b22", "fusion_lon": 0.0, "rental_uris": {"android": "https://dc.lft.to/lastmile_qr_scan", "ios": "https://dc.lft.to/lastmile_qr_scan"}, "name": "ba1b93fbf6a4d75a3348b95c7f7d9b22", "type": "electric_bike", "lat": 38.95753883333333, "is_disabled": 0}, {"fusion_lat": 0.0, "lon": -77.00614483333334, "is_reserved": 0, "bike_id": "7a5230368cdff78df2e1b62d12a275a2", "fusion_lon": 0.0, "rental_uris": {"android": "https://dc.lft.to/lastmile_qr_scan", "ios": "https://dc.lft.to/lastmile_qr_scan"}, "name": "7a5230368cdff78df2e1b62d12a275a2", "type": "electric_scooter", "lat": 38.875494333333336, "is_disabled": 0}, {"fusion_lat": 0.0, "lon": -77.00213783333334, "is_reserved": 0, "bike_id": "f115a27fa21bdb0827a1c11a2cd679a8", "fusion_lon": 0.0, "rental_uris": {"android": "https://dc.lft.to/lastmile_qr_scan", "ios": "https://dc.lft.to/lastmile_qr_scan"}, "name": "f115a27fa21bdb0827a1c11a2cd679a8", "type": "electric_scooter", "lat": 38.900429, "is_disabled": 0}, {"fusion_lat": 0.0, "lon": -76.9957095, "is_reserved": 0, "bike_id": "f89d31eedfc30a76deab1008b369ec4c", "fusion_lon": 0.0, "rental_uris": {"android": "https://dc.lft.to/lastmile_qr_scan", "ios": "https://dc.lft.to/lastmile_qr_scan"}, "name": "f89d31eedfc30a76deab1008b369ec4c", "type": "electric_scooter", "lat": 38.8842395, "is_disabled": 0}, {"fusion_lat": 0.0, "lon": -77.01990283333333, "is_reserved": 0, "bike_id": "f9c67d77128087a7bb8c84630bed1e73", "fusion_lon": 0.0, "rental_uris": {"android": "https://dc.lft.to/lastmile_qr_scan", "ios": "https://dc.lft.to/lastmile_qr_scan"}, "name": "f9c67d77128087a7bb8c84630bed1e73", "type": "electric_scooter", "lat": 38.89556266666666, "is_disabled": 0}, {"fusion_lat": 0.0, "lon": -76.99492433333333, "is_reserved": 0, "bike_id": "d43bdb47a3ad99e3b0847c41d8fd6b30", "fusion_lon": 0.0, "rental_uris": {"android": "https://dc.lft.to/lastmile_qr_scan", "ios": "https://dc.lft.to/lastmile_qr_scan"}, "name": "d43bdb47a3ad99e3b0847c41d8fd6b30", "type": "electric_scooter", "lat": 38.881555, "is_disabled": 0}, {"fusion_lat": 0.0, "lon": -77.00930716666667, "is_reserved": 0, "bike_id": "af1b6c8f81f898e5a3ab66ea7129eb71", "fusion_lon": 0.0, "rental_uris": {"android": "https://dc.lft.to/lastmile_qr_scan", "ios": "https://dc.lft.to/lastmile_qr_scan"}, "name": "af1b6c8f81f898e5a3ab66ea7129eb71", "type": "electric_scooter", "lat": 38.896047833333334, "is_disabled": 0}, {"fusion_lat": 0.0, "lon": -77.019492, "is_reserved": 0, "bike_id": "dec24d37d8f74771c1eacca8a5c43ecd", "fusion_lon": 0.0, "rental_uris": {"android": "https://dc.lft.to/lastmile_qr_scan", "ios": "https://dc.lft.to/lastmile_qr_scan"}, "name": "dec24d37d8f74771c1eacca8a5c43ecd", "type": "electric_scooter", "lat": 38.92417283333333, "is_disabled": 0}, {"fusion_lat": 0.0, "lon": -77.0211375, "is_reserved": 0, "bike_id": "353c7495ac9a2bbf98e61a4d940d6ff1", "fusion_lon": 0.0, "rental_uris": {"android": "https://dc.lft.to/lastmile_qr_scan", "ios": "https://dc.lft.to/lastmile_qr_scan"}, "name": "353c7495ac9a2bbf98e61a4d940d6ff1", "type": "electric_scooter", "lat": 38.924691, "is_disabled": 0}, {"fusion_lat": 0.0, "lon": -77.026391, "is_reserved": 0, "bike_id": "073915b844bd2ecfa9a829afbf10873d", "fusion_lon": 0.0, "rental_uris": {"android": "https://dc.lft.to/lastmile_qr_scan", "ios": "https://dc.lft.to/lastmile_qr_scan"}, "name": "073915b844bd2ecfa9a829afbf10873d", "type": "electric_scooter", "lat": 38.8980335, "is_disabled": 0}, {"fusion_lat": 0.0, "lon": -77.01646533333333, "is_reserved": 0, "bike_id": "3a2dfc092a58ce316c6b330fbe8241ee", "fusion_lon": 0.0, "rental_uris": {"android": "https://dc.lft.to/lastmile_qr_scan", "ios": "https://dc.lft.to/lastmile_qr_scan"}, "name": "3a2dfc092a58ce316c6b330fbe8241ee", "type": "electric_scooter", "lat": 38.928977333333336, "is_disabled": 0}, {"fusion_lat": 0.0, "lon": -77.03910766666667, "is_reserved": 0, "bike_id": "627ccfa2adf280820499b52c7cec581b", "fusion_lon": 0.0, "rental_uris": {"android": "https://dc.lft.to/lastmile_qr_scan", "ios": "https://dc.lft.to/lastmile_qr_scan"}, "name": "627ccfa2adf280820499b52c7cec581b", "type": "electric_scooter", "lat": 38.923211333333334, "is_disabled": 0}, {"fusion_lat": 0.0, "lon": -77.01349466666667, "is_reserved": 0, "bike_id": "f6ec8a970bb4f4f2919f1ca988559825", "fusion_lon": 0.0, "rental_uris": {"android": "https://dc.lft.to/lastmile_qr_scan", "ios": "https://dc.lft.to/lastmile_qr_scan"}, "name": "f6ec8a970bb4f4f2919f1ca988559825", "type": "electric_scooter", "lat": 38.86972266666667, "is_disabled": 0}, {"fusion_lat": 0.0, "lon": -77.021725, "is_reserved": 0, "bike_id": "8e1ea6ad12362aa0f44533757e5d76c1", "fusion_lon": 0.0, "rental_uris": {"android": "https://dc.lft.to/lastmile_qr_scan", "ios": "https://dc.lft.to/lastmile_qr_scan"}, "name": "8e1ea6ad12362aa0f44533757e5d76c1", "type": "electric_scooter", "lat": 38.92611933333333, "is_disabled": 0}, {"fusion_lat": 0.0, "lon": -76.99550716666667, "is_reserved": 0, "bike_id": "6017977b97da8d23b50a6a42d98c298b", "fusion_lon": 0.0, "rental_uris": {"android": "https://dc.lft.to/lastmile_qr_scan", "ios": "https://dc.lft.to/lastmile_qr_scan"}, "name": "6017977b97da8d23b50a6a42d98c298b", "type": "electric_scooter", "lat": 38.862601833333336, "is_disabled": 0}, {"fusion_lat": 0.0, "lon": -76.98093183333333, "is_reserved": 0, "bike_id": "2996c1b41578706fee5b157514362fb1", "fusion_lon": 0.0, "rental_uris": {"android": "https://dc.lft.to/lastmile_qr_scan", "ios": "https://dc.lft.to/lastmile_qr_scan"}, "name": "2996c1b41578706fee5b157514362fb1", "type": "electric_bike", "lat": 38.953496333333334, "is_disabled": 0}, {"fusion_lat": 0.0, "lon": -77.03856833333333, "is_reserved": 0, "bike_id": "2a7d3ff819077fecb311163b66536bb5", "fusion_lon": 0.0, "rental_uris": {"android": "https://dc.lft.to/lastmile_qr_scan", "ios": "https://dc.lft.to/lastmile_qr_scan"}, "name": "2a7d3ff819077fecb311163b66536bb5", "type": "electric_scooter", "lat": 38.915436666666665, "is_disabled": 0}, {"fusion_lat": 0.0, "lon": -76.93129783333333, "is_reserved": 0, "bike_id": "7c6e9e660c48a44e7fd0402b8a2ae986", "fusion_lon": 0.0, "rental_uris": {"android": "https://dc.lft.to/lastmile_qr_scan", "ios": "https://dc.lft.to/lastmile_qr_scan"}, "name": "7c6e9e660c48a44e7fd0402b8a2ae986", "type": "electric_scooter", "lat": 38.876082, "is_disabled": 0}, {"fusion_lat": 0.0, "lon": -77.02366, "is_reserved": 0, "bike_id": "0a17938303285031a285caa2fd758446", "fusion_lon": 0.0, "rental_uris": {"android": "https://dc.lft.to/lastmile_qr_scan", "ios": "https://dc.lft.to/lastmile_qr_scan"}, "name": "0a17938303285031a285caa2fd758446", "type": "electric_scooter", "lat": 38.892218, "is_disabled": 0}, {"fusion_lat": 0.0, "lon": -77.0486875, "is_reserved": 0, "bike_id": "8e6248d8d7d20c1133e8326767e84b4c", "fusion_lon": 0.0, "rental_uris": {"android": "https://dc.lft.to/lastmile_qr_scan", "ios": "https://dc.lft.to/lastmile_qr_scan"}, "name": "8e6248d8d7d20c1133e8326767e84b4c", "type": "electric_scooter", "lat": 38.9097315, "is_disabled": 0}, {"fusion_lat": 0.0, "lon": -77.048857, "is_reserved": 0, "bike_id": "eb0db65b601a59834654024205ed43ed", "fusion_lon": 0.0, "rental_uris": {"android": "https://dc.lft.to/lastmile_qr_scan", "ios": "https://dc.lft.to/lastmile_qr_scan"}, "name": "eb0db65b601a59834654024205ed43ed", "type": "electric_scooter", "lat": 38.90111066666667, "is_disabled": 0}, {"fusion_lat": 0.0, "lon": -77.01981283333333, "is_reserved": 0, "bike_id": "6e89b200568a38a27fbb0f0cf78f2782", "fusion_lon": 0.0, "rental_uris": {"android": "https://dc.lft.to/lastmile_qr_scan", "ios": "https://dc.lft.to/lastmile_qr_scan"}, "name": "6e89b200568a38a27fbb0f0cf78f2782", "type": "electric_scooter", "lat": 38.9109675, "is_disabled": 0}, {"fusion_lat": 0.0, "lon": -77.0197805, "is_reserved": 0, "bike_id": "28edac251d3cf2cf782d803774d1ad98", "fusion_lon": 0.0, "rental_uris": {"android": "https://dc.lft.to/lastmile_qr_scan", "ios": "https://dc.lft.to/lastmile_qr_scan"}, "name": "28edac251d3cf2cf782d803774d1ad98", "type": "electric_scooter", "lat": 38.9127655, "is_disabled": 0}, {"fusion_lat": 0.0, "lon": -77.03135333333333, "is_reserved": 0, "bike_id": "3057936cedea7d2599b3e90950c4f2a7", "fusion_lon": 0.0, "rental_uris": {"android": "https://dc.lft.to/lastmile_qr_scan", "ios": "https://dc.lft.to/lastmile_qr_scan"}, "name": "3057936cedea7d2599b3e90950c4f2a7", "type": "electric_scooter", "lat": 38.92568283333333, "is_disabled": 0}, {"fusion_lat": 0.0, "lon": -76.99549483333334, "is_reserved": 0, "bike_id": "dc23e71e5fe3a410dfefb92b980758a2", "fusion_lon": 0.0, "rental_uris": {"android": "https://dc.lft.to/lastmile_qr_scan", "ios": "https://dc.lft.to/lastmile_qr_scan"}, "name": "dc23e71e5fe3a410dfefb92b980758a2", "type": "electric_scooter", "lat": 38.9266645, "is_disabled": 0}, {"fusion_lat": 0.0, "lon": -77.03514783333334, "is_reserved": 0, "bike_id": "9429b03ddf19ddbc517e00cbb4f163fe", "fusion_lon": 0.0, "rental_uris": {"android": "https://dc.lft.to/lastmile_qr_scan", "ios": "https://dc.lft.to/lastmile_qr_scan"}, "name": "9429b03ddf19ddbc517e00cbb4f163fe", "type": "electric_scooter", "lat": 38.92156466666667, "is_disabled": 0}, {"fusion_lat": 0.0, "lon": -77.032089, "is_reserved": 0, "bike_id": "6444df8d9c9789de716f2bed6cdcfa29", "fusion_lon": 0.0, "rental_uris": {"android": "https://dc.lft.to/lastmile_qr_scan", "ios": "https://dc.lft.to/lastmile_qr_scan"}, "name": "6444df8d9c9789de716f2bed6cdcfa29", "type": "electric_scooter", "lat": 38.916443, "is_disabled": 0}, {"fusion_lat": 0.0, "lon": -77.02230916666667, "is_reserved": 0, "bike_id": "c59eb9ababb8f3e3695fd19c310bc659", "fusion_lon": 0.0, "rental_uris": {"android": "https://dc.lft.to/lastmile_qr_scan", "ios": "https://dc.lft.to/lastmile_qr_scan"}, "name": "c59eb9ababb8f3e3695fd19c310bc659", "type": "electric_scooter", "lat": 38.89220616666667, "is_disabled": 0}, {"fusion_lat": 0.0, "lon": -76.94538183333333, "is_reserved": 0, "bike_id": "18b62862bb7644ef495244145faaba98", "fusion_lon": 0.0, "rental_uris": {"android": "https://dc.lft.to/lastmile_qr_scan", "ios": "https://dc.lft.to/lastmile_qr_scan"}, "name": "18b62862bb7644ef495244145faaba98", "type": "electric_bike", "lat": 38.867624, "is_disabled": 0}, {"fusion_lat": 0.0, "lon": -76.986675, "is_reserved": 0, "bike_id": "a6ba8d08cd31355f7bf6076c06d5c72c", "fusion_lon": 0.0, "rental_uris": {"android": "https://dc.lft.to/lastmile_qr_scan", "ios": "https://dc.lft.to/lastmile_qr_scan"}, "name": "a6ba8d08cd31355f7bf6076c06d5c72c", "type": "electric_scooter", "lat": 38.867217833333335, "is_disabled": 0}, {"fusion_lat": 0.0, "lon": -77.00966166666667, "is_reserved": 0, "bike_id": "8de4ad68f64f927611b47ae176ca4c1a", "fusion_lon": 0.0, "rental_uris": {"android": "https://dc.lft.to/lastmile_qr_scan", "ios": "https://dc.lft.to/lastmile_qr_scan"}, "name": "8de4ad68f64f927611b47ae176ca4c1a", "type": "electric_scooter", "lat": 38.9078875, "is_disabled": 0}, {"fusion_lat": 0.0, "lon": -77.00045383333334, "is_reserved": 0, "bike_id": "0abc9e0e61482a3970da69753abb2ffd", "fusion_lon": 0.0, "rental_uris": {"android": "https://dc.lft.to/lastmile_qr_scan", "ios": "https://dc.lft.to/lastmile_qr_scan"}, "name": "0abc9e0e61482a3970da69753abb2ffd", "type": "electric_scooter", "lat": 38.896336166666664, "is_disabled": 0}, {"fusion_lat": 0.0, "lon": -77.0230115, "is_reserved": 0, "bike_id": "9b98e7c99f68fcea04f4040bb63bd30f", "fusion_lon": 0.0, "rental_uris": {"android": "https://dc.lft.to/lastmile_qr_scan", "ios": "https://dc.lft.to/lastmile_qr_scan"}, "name": "9b98e7c99f68fcea04f4040bb63bd30f", "type": "electric_scooter", "lat": 38.901483999999996, "is_disabled": 0}, {"fusion_lat": 0.0, "lon": -77.03261283333333, "is_reserved": 0, "bike_id": "f8ea3d31247150bb029b65a32d33d541", "fusion_lon": 0.0, "rental_uris": {"android": "https://dc.lft.to/lastmile_qr_scan", "ios": "https://dc.lft.to/lastmile_qr_scan"}, "name": "f8ea3d31247150bb029b65a32d33d541", "type": "electric_scooter", "lat": 38.9096295, "is_disabled": 0}, {"fusion_lat": 0.0, "lon": -77.03667983333334, "is_reserved": 0, "bike_id": "5a01688c2de6da23cf68fbab2fddd539", "fusion_lon": 0.0, "rental_uris": {"android": "https://dc.lft.to/lastmile_qr_scan", "ios": "https://dc.lft.to/lastmile_qr_scan"}, "name": "5a01688c2de6da23cf68fbab2fddd539", "type": "electric_scooter", "lat": 38.923163333333335, "is_disabled": 0}, {"fusion_lat": 0.0, "lon": -77.04506066666667, "is_reserved": 0, "bike_id": "f7993c0b55fca63f87467d125e10cf9b", "fusion_lon": 0.0, "rental_uris": {"android": "https://dc.lft.to/lastmile_qr_scan", "ios": "https://dc.lft.to/lastmile_qr_scan"}, "name": "f7993c0b55fca63f87467d125e10cf9b", "type": "electric_scooter", "lat": 38.909818333333334, "is_disabled": 0}, {"fusion_lat": 0.0, "lon": -77.03228, "is_reserved": 0, "bike_id": "1867333b4e0ce18c2b5d03ca39e0c332", "fusion_lon": 0.0, "rental_uris": {"android": "https://dc.lft.to/lastmile_qr_scan", "ios": "https://dc.lft.to/lastmile_qr_scan"}, "name": "1867333b4e0ce18c2b5d03ca39e0c332", "type": "electric_scooter", "lat": 38.92171316666666, "is_disabled": 0}, {"fusion_lat": 0.0, "lon": -77.0241545, "is_reserved": 0, "bike_id": "9a7db4187ff253e17c4d0fad4c2bb088", "fusion_lon": 0.0, "rental_uris": {"android": "https://dc.lft.to/lastmile_qr_scan", "ios": "https://dc.lft.to/lastmile_qr_scan"}, "name": "9a7db4187ff253e17c4d0fad4c2bb088", "type": "electric_scooter", "lat": 38.897806333333335, "is_disabled": 0}, {"fusion_lat": 0.0, "lon": -77.032644, "is_reserved": 0, "bike_id": "79c8a41e46862b034371ca8d4a8fe15a", "fusion_lon": 0.0, "rental_uris": {"android": "https://dc.lft.to/lastmile_qr_scan", "ios": "https://dc.lft.to/lastmile_qr_scan"}, "name": "79c8a41e46862b034371ca8d4a8fe15a", "type": "electric_scooter", "lat": 38.93891966666666, "is_disabled": 0}, {"fusion_lat": 0.0, "lon": -77.04653933333333, "is_reserved": 0, "bike_id": "49bb9909387098de5f700bd6f0df6527", "fusion_lon": 0.0, "rental_uris": {"android": "https://dc.lft.to/lastmile_qr_scan", "ios": "https://dc.lft.to/lastmile_qr_scan"}, "name": "49bb9909387098de5f700bd6f0df6527", "type": "electric_scooter", "lat": 38.90955266666667, "is_disabled": 0}, {"fusion_lat": 0.0, "lon": -77.0223105, "is_reserved": 0, "bike_id": "58227e5164fbc82bc78c00f539248167", "fusion_lon": 0.0, "rental_uris": {"android": "https://dc.lft.to/lastmile_qr_scan", "ios": "https://dc.lft.to/lastmile_qr_scan"}, "name": "58227e5164fbc82bc78c00f539248167", "type": "electric_scooter", "lat": 38.8921975, "is_disabled": 0}, {"fusion_lat": 0.0, "lon": -76.99769566666667, "is_reserved": 0, "bike_id": "dc7dcfacecde848dd704cbc3483bf299", "fusion_lon": 0.0, "rental_uris": {"android": "https://dc.lft.to/lastmile_qr_scan", "ios": "https://dc.lft.to/lastmile_qr_scan"}, "name": "dc7dcfacecde848dd704cbc3483bf299", "type": "electric_scooter", "lat": 38.9244615, "is_disabled": 0}, {"fusion_lat": 0.0, "lon": -77.038753, "is_reserved": 0, "bike_id": "e73b30c7bba2ce5185a77289ad8718bf", "fusion_lon": 0.0, "rental_uris": {"android": "https://dc.lft.to/lastmile_qr_scan", "ios": "https://dc.lft.to/lastmile_qr_scan"}, "name": "e73b30c7bba2ce5185a77289ad8718bf", "type": "electric_scooter", "lat": 38.89188683333333, "is_disabled": 0}, {"fusion_lat": 0.0, "lon": -77.02946433333334, "is_reserved": 0, "bike_id": "26b93ca79b4247a341ddf8697b979787", "fusion_lon": 0.0, "rental_uris": {"android": "https://dc.lft.to/lastmile_qr_scan", "ios": "https://dc.lft.to/lastmile_qr_scan"}, "name": "26b93ca79b4247a341ddf8697b979787", "type": "electric_scooter", "lat": 38.905036, "is_disabled": 0}, {"fusion_lat": 0.0, "lon": -77.00338416666666, "is_reserved": 0, "bike_id": "679e6f82daf9145772ac752d4e288666", "fusion_lon": 0.0, "rental_uris": {"android": "https://dc.lft.to/lastmile_qr_scan", "ios": "https://dc.lft.to/lastmile_qr_scan"}, "name": "679e6f82daf9145772ac752d4e288666", "type": "electric_scooter", "lat": 38.89523416666667, "is_disabled": 0}, {"fusion_lat": 0.0, "lon": -77.034939, "is_reserved": 0, "bike_id": "cbf47617c27c9b3a5953a0fb08c63f60", "fusion_lon": 0.0, "rental_uris": {"android": "https://dc.lft.to/lastmile_qr_scan", "ios": "https://dc.lft.to/lastmile_qr_scan"}, "name": "cbf47617c27c9b3a5953a0fb08c63f60", "type": "electric_scooter", "lat": 38.923488, "is_disabled": 0}, {"fusion_lat": 0.0, "lon": -76.97751066666666, "is_reserved": 0, "bike_id": "bb76982b5d82ded8e4c6625ac72f753d", "fusion_lon": 0.0, "rental_uris": {"android": "https://dc.lft.to/lastmile_qr_scan", "ios": "https://dc.lft.to/lastmile_qr_scan"}, "name": "bb76982b5d82ded8e4c6625ac72f753d", "type": "electric_bike", "lat": 38.8645635, "is_disabled": 0}, {"fusion_lat": 0.0, "lon": -77.05148066666666, "is_reserved": 0, "bike_id": "764279e7dabffc37a558554e60076afa", "fusion_lon": 0.0, "rental_uris": {"android": "https://dc.lft.to/lastmile_qr_scan", "ios": "https://dc.lft.to/lastmile_qr_scan"}, "name": "764279e7dabffc37a558554e60076afa", "type": "electric_scooter", "lat": 38.905065, "is_disabled": 0}, {"fusion_lat": 0.0, "lon": -77.02989383333333, "is_reserved": 0, "bike_id": "b2a8b6833702fc6d78154245bf96f5a1", "fusion_lon": 0.0, "rental_uris": {"android": "https://dc.lft.to/lastmile_qr_scan", "ios": "https://dc.lft.to/lastmile_qr_scan"}, "name": "b2a8b6833702fc6d78154245bf96f5a1", "type": "electric_bike", "lat": 38.97437716666666, "is_disabled": 0}, {"fusion_lat": 0.0, "lon": -77.02888333333334, "is_reserved": 0, "bike_id": "04fcdc4926ad258a809ab7fb7436f790", "fusion_lon": 0.0, "rental_uris": {"android": "https://dc.lft.to/lastmile_qr_scan", "ios": "https://dc.lft.to/lastmile_qr_scan"}, "name": "04fcdc4926ad258a809ab7fb7436f790", "type": "electric_scooter", "lat": 38.93985133333334, "is_disabled": 0}, {"fusion_lat": 0.0, "lon": -77.03873983333334, "is_reserved": 0, "bike_id": "fe27c93b0ea6cb20c714146766b92327", "fusion_lon": 0.0, "rental_uris": {"android": "https://dc.lft.to/lastmile_qr_scan", "ios": "https://dc.lft.to/lastmile_qr_scan"}, "name": "fe27c93b0ea6cb20c714146766b92327", "type": "electric_scooter", "lat": 38.90270733333333, "is_disabled": 0}, {"fusion_lat": 0.0, "lon": -77.00402883333334, "is_reserved": 0, "bike_id": "810a8a23786ac05c860a04e8d3a6424d", "fusion_lon": 0.0, "rental_uris": {"android": "https://dc.lft.to/lastmile_qr_scan", "ios": "https://dc.lft.to/lastmile_qr_scan"}, "name": "810a8a23786ac05c860a04e8d3a6424d", "type": "electric_scooter", "lat": 38.92132383333333, "is_disabled": 0}, {"fusion_lat": 0.0, "lon": -77.36096833333333, "is_reserved": 0, "bike_id": "288513143424a0477ec31e3d72a75be4", "fusion_lon": 0.0, "rental_uris": {"android": "https://dc.lft.to/lastmile_qr_scan", "ios": "https://dc.lft.to/lastmile_qr_scan"}, "name": "288513143424a0477ec31e3d72a75be4", "type": "electric_bike", "lat": 38.93950666666667, "is_disabled": 0}, {"fusion_lat": 0.0, "lon": -77.02404033333333, "is_reserved": 0, "bike_id": "4af49fbc1e73cac461a8a5d292363e12", "fusion_lon": 0.0, "rental_uris": {"android": "https://dc.lft.to/lastmile_qr_scan", "ios": "https://dc.lft.to/lastmile_qr_scan"}, "name": "4af49fbc1e73cac461a8a5d292363e12", "type": "electric_scooter", "lat": 38.9073195, "is_disabled": 0}, {"fusion_lat": 0.0, "lon": -77.005973, "is_reserved": 0, "bike_id": "db08a5412c4647f12de8e8c7263402c0", "fusion_lon": 0.0, "rental_uris": {"android": "https://dc.lft.to/lastmile_qr_scan", "ios": "https://dc.lft.to/lastmile_qr_scan"}, "name": "db08a5412c4647f12de8e8c7263402c0", "type": "electric_scooter", "lat": 38.88519516666667, "is_disabled": 0}, {"fusion_lat": 0.0, "lon": -77.02365216666666, "is_reserved": 0, "bike_id": "40bcd0338bfe6e9ea55c3571da73f17d", "fusion_lon": 0.0, "rental_uris": {"android": "https://dc.lft.to/lastmile_qr_scan", "ios": "https://dc.lft.to/lastmile_qr_scan"}, "name": "40bcd0338bfe6e9ea55c3571da73f17d", "type": "electric_scooter", "lat": 38.892222, "is_disabled": 0}, {"fusion_lat": 0.0, "lon": -77.0268535, "is_reserved": 0, "bike_id": "b9effc32d8bc9ec73a05b8ca6fd8c162", "fusion_lon": 0.0, "rental_uris": {"android": "https://dc.lft.to/lastmile_qr_scan", "ios": "https://dc.lft.to/lastmile_qr_scan"}, "name": "b9effc32d8bc9ec73a05b8ca6fd8c162", "type": "electric_scooter", "lat": 38.90233216666667, "is_disabled": 0}, {"fusion_lat": 0.0, "lon": -77.05023583333333, "is_reserved": 0, "bike_id": "4d843e192511f974bb9803183bd94ed8", "fusion_lon": 0.0, "rental_uris": {"android": "https://dc.lft.to/lastmile_qr_scan", "ios": "https://dc.lft.to/lastmile_qr_scan"}, "name": "4d843e192511f974bb9803183bd94ed8", "type": "electric_scooter", "lat": 38.9071475, "is_disabled": 0}, {"fusion_lat": 0.0, "lon": -77.02626733333334, "is_reserved": 0, "bike_id": "a41e56cd8c124373dbdc45243488b4fd", "fusion_lon": 0.0, "rental_uris": {"android": "https://dc.lft.to/lastmile_qr_scan", "ios": "https://dc.lft.to/lastmile_qr_scan"}, "name": "a41e56cd8c124373dbdc45243488b4fd", "type": "electric_bike", "lat": 38.96220366666667, "is_disabled": 0}, {"fusion_lat": 0.0, "lon": -77.03221583333334, "is_reserved": 0, "bike_id": "87ed0c0589f37423990e74c5739c95ad", "fusion_lon": 0.0, "rental_uris": {"android": "https://dc.lft.to/lastmile_qr_scan", "ios": "https://dc.lft.to/lastmile_qr_scan"}, "name": "87ed0c0589f37423990e74c5739c95ad", "type": "electric_scooter", "lat": 38.90882916666666, "is_disabled": 0}, {"fusion_lat": 0.0, "lon": -77.01934133333333, "is_reserved": 0, "bike_id": "339af409be843f0f8dc4639e2213627c", "fusion_lon": 0.0, "rental_uris": {"android": "https://dc.lft.to/lastmile_qr_scan", "ios": "https://dc.lft.to/lastmile_qr_scan"}, "name": "339af409be843f0f8dc4639e2213627c", "type": "electric_scooter", "lat": 38.9055825, "is_disabled": 0}, {"fusion_lat": 0.0, "lon": -77.03227833333334, "is_reserved": 0, "bike_id": "f69ac8e048e1913d07e4313904b0b9c9", "fusion_lon": 0.0, "rental_uris": {"android": "https://dc.lft.to/lastmile_qr_scan", "ios": "https://dc.lft.to/lastmile_qr_scan"}, "name": "f69ac8e048e1913d07e4313904b0b9c9", "type": "electric_scooter", "lat": 38.91399766666667, "is_disabled": 0}, {"fusion_lat": 0.0, "lon": -76.95150466666666, "is_reserved": 0, "bike_id": "2cd1a46fc856ddde5c94279291b7b293", "fusion_lon": 0.0, "rental_uris": {"android": "https://dc.lft.to/lastmile_qr_scan", "ios": "https://dc.lft.to/lastmile_qr_scan"}, "name": "2cd1a46fc856ddde5c94279291b7b293", "type": "electric_scooter", "lat": 38.890354333333335, "is_disabled": 0}, {"fusion_lat": 0.0, "lon": -77.032123, "is_reserved": 0, "bike_id": "7c6c20a00b3f782e0784837d6c3011de", "fusion_lon": 0.0, "rental_uris": {"android": "https://dc.lft.to/lastmile_qr_scan", "ios": "https://dc.lft.to/lastmile_qr_scan"}, "name": "7c6c20a00b3f782e0784837d6c3011de", "type": "electric_scooter", "lat": 38.910954333333336, "is_disabled": 0}, {"fusion_lat": 0.0, "lon": -77.0119545, "is_reserved": 0, "bike_id": "3d3db4171c789aa1fea0b0f3fcfedc47", "fusion_lon": 0.0, "rental_uris": {"android": "https://dc.lft.to/lastmile_qr_scan", "ios": "https://dc.lft.to/lastmile_qr_scan"}, "name": "3d3db4171c789aa1fea0b0f3fcfedc47", "type": "electric_scooter", "lat": 38.877223666666666, "is_disabled": 0}, {"fusion_lat": 0.0, "lon": -76.98614116666667, "is_reserved": 0, "bike_id": "4b52fb92b445d4afe37276cdfd159475", "fusion_lon": 0.0, "rental_uris": {"android": "https://dc.lft.to/lastmile_qr_scan", "ios": "https://dc.lft.to/lastmile_qr_scan"}, "name": "4b52fb92b445d4afe37276cdfd159475", "type": "electric_scooter", "lat": 38.93826033333333, "is_disabled": 0}, {"fusion_lat": 0.0, "lon": -76.9081765, "is_reserved": 0, "bike_id": "b38203d5ba210e59fec64652e30e1b35", "fusion_lon": 0.0, "rental_uris": {"android": "https://dc.lft.to/lastmile_qr_scan", "ios": "https://dc.lft.to/lastmile_qr_scan"}, "name": "b38203d5ba210e59fec64652e30e1b35", "type": "electric_bike", "lat": 39.00263316666667, "is_disabled": 0}, {"fusion_lat": 0.0, "lon": -76.9770435, "is_reserved": 0, "bike_id": "d8c5e8d287124cfcd8cfb1c973012a41", "fusion_lon": 0.0, "rental_uris": {"android": "https://dc.lft.to/lastmile_qr_scan", "ios": "https://dc.lft.to/lastmile_qr_scan"}, "name": "d8c5e8d287124cfcd8cfb1c973012a41", "type": "electric_bike", "lat": 38.9491365, "is_disabled": 0}, {"fusion_lat": 0.0, "lon": -76.980067, "is_reserved": 0, "bike_id": "c69a72b76da5569d3ba89ba573b1ad5b", "fusion_lon": 0.0, "rental_uris": {"android": "https://dc.lft.to/lastmile_qr_scan", "ios": "https://dc.lft.to/lastmile_qr_scan"}, "name": "c69a72b76da5569d3ba89ba573b1ad5b", "type": "electric_bike", "lat": 38.90249433333334, "is_disabled": 0}, {"fusion_lat": 0.0, "lon": -77.04347416666667, "is_reserved": 0, "bike_id": "83e0a070e6c055bc1ea1986bcfc388fe", "fusion_lon": 0.0, "rental_uris": {"android": "https://dc.lft.to/lastmile_qr_scan", "ios": "https://dc.lft.to/lastmile_qr_scan"}, "name": "83e0a070e6c055bc1ea1986bcfc388fe", "type": "electric_scooter", "lat": 38.899569, "is_disabled": 0}, {"fusion_lat": 0.0, "lon": -77.01210333333333, "is_reserved": 0, "bike_id": "e0e095ebfd250d72b73217ec886346e2", "fusion_lon": 0.0, "rental_uris": {"android": "https://dc.lft.to/lastmile_qr_scan", "ios": "https://dc.lft.to/lastmile_qr_scan"}, "name": "e0e095ebfd250d72b73217ec886346e2", "type": "electric_bike", "lat": 38.870929, "is_disabled": 0}, {"fusion_lat": 0.0, "lon": -77.03497583333333, "is_reserved": 0, "bike_id": "14b20be39f1e8c9205cff4550cc790f7", "fusion_lon": 0.0, "rental_uris": {"android": "https://dc.lft.to/lastmile_qr_scan", "ios": "https://dc.lft.to/lastmile_qr_scan"}, "name": "14b20be39f1e8c9205cff4550cc790f7", "type": "electric_scooter", "lat": 38.923505, "is_disabled": 0}, {"fusion_lat": 0.0, "lon": -76.93369066666666, "is_reserved": 0, "bike_id": "1263cc229c7e5080d24d7d1795004585", "fusion_lon": 0.0, "rental_uris": {"android": "https://dc.lft.to/lastmile_qr_scan", "ios": "https://dc.lft.to/lastmile_qr_scan"}, "name": "1263cc229c7e5080d24d7d1795004585", "type": "electric_scooter", "lat": 38.899128, "is_disabled": 0}, {"fusion_lat": 0.0, "lon": -76.9837225, "is_reserved": 0, "bike_id": "32c19c5e146becd8665473fb0e2bbbf9", "fusion_lon": 0.0, "rental_uris": {"android": "https://dc.lft.to/lastmile_qr_scan", "ios": "https://dc.lft.to/lastmile_qr_scan"}, "name": "32c19c5e146becd8665473fb0e2bbbf9", "type": "electric_scooter", "lat": 38.9149355, "is_disabled": 0}, {"fusion_lat": 0.0, "lon": -77.04223266666666, "is_reserved": 0, "bike_id": "431e44de0d45236ffe8d1c27cf4a854e", "fusion_lon": 0.0, "rental_uris": {"android": "https://dc.lft.to/lastmile_qr_scan", "ios": "https://dc.lft.to/lastmile_qr_scan"}, "name": "431e44de0d45236ffe8d1c27cf4a854e", "type": "electric_scooter", "lat": 38.92174116666666, "is_disabled": 0}, {"fusion_lat": 0.0, "lon": -77.043584, "is_reserved": 0, "bike_id": "8c7aaff228312277e2130915e27d826f", "fusion_lon": 0.0, "rental_uris": {"android": "https://dc.lft.to/lastmile_qr_scan", "ios": "https://dc.lft.to/lastmile_qr_scan"}, "name": "8c7aaff228312277e2130915e27d826f", "type": "electric_scooter", "lat": 38.90576466666667, "is_disabled": 0}, {"fusion_lat": 0.0, "lon": -77.04362216666667, "is_reserved": 0, "bike_id": "d062b535025a310100f3d7845cdefca1", "fusion_lon": 0.0, "rental_uris": {"android": "https://dc.lft.to/lastmile_qr_scan", "ios": "https://dc.lft.to/lastmile_qr_scan"}, "name": "d062b535025a310100f3d7845cdefca1", "type": "electric_scooter", "lat": 38.91121533333333, "is_disabled": 0}, {"fusion_lat": 0.0, "lon": -76.996017, "is_reserved": 0, "bike_id": "5d66d81c51933ec6184973ece02d04bf", "fusion_lon": 0.0, "rental_uris": {"android": "https://dc.lft.to/lastmile_qr_scan", "ios": "https://dc.lft.to/lastmile_qr_scan"}, "name": "5d66d81c51933ec6184973ece02d04bf", "type": "electric_scooter", "lat": 38.89224883333333, "is_disabled": 0}, {"fusion_lat": 0.0, "lon": -77.02694616666666, "is_reserved": 0, "bike_id": "81d035c7f593335a4ffd2e5691612911", "fusion_lon": 0.0, "rental_uris": {"android": "https://dc.lft.to/lastmile_qr_scan", "ios": "https://dc.lft.to/lastmile_qr_scan"}, "name": "81d035c7f593335a4ffd2e5691612911", "type": "electric_scooter", "lat": 38.909296499999996, "is_disabled": 0}, {"fusion_lat": 0.0, "lon": -77.02306083333333, "is_reserved": 0, "bike_id": "07134dc14c42dce80b0897628aef2fe7", "fusion_lon": 0.0, "rental_uris": {"android": "https://dc.lft.to/lastmile_qr_scan", "ios": "https://dc.lft.to/lastmile_qr_scan"}, "name": "07134dc14c42dce80b0897628aef2fe7", "type": "electric_scooter", "lat": 38.927215833333335, "is_disabled": 0}, {"fusion_lat": 0.0, "lon": -77.08939716666667, "is_reserved": 0, "bike_id": "e1eabafe79f104762bada500c643d272", "fusion_lon": 0.0, "rental_uris": {"android": "https://dc.lft.to/lastmile_qr_scan", "ios": "https://dc.lft.to/lastmile_qr_scan"}, "name": "e1eabafe79f104762bada500c643d272", "type": "electric_bike", "lat": 38.841036, "is_disabled": 0}, {"fusion_lat": 0.0, "lon": -76.995059, "is_reserved": 0, "bike_id": "430e1fa07dd247e382a89bd1af6ac514", "fusion_lon": 0.0, "rental_uris": {"android": "https://dc.lft.to/lastmile_qr_scan", "ios": "https://dc.lft.to/lastmile_qr_scan"}, "name": "430e1fa07dd247e382a89bd1af6ac514", "type": "electric_scooter", "lat": 38.909807, "is_disabled": 0}, {"fusion_lat": 0.0, "lon": -77.02410116666667, "is_reserved": 0, "bike_id": "fdd6aea64ce5c09ee3be88031dda180a", "fusion_lon": 0.0, "rental_uris": {"android": "https://dc.lft.to/lastmile_qr_scan", "ios": "https://dc.lft.to/lastmile_qr_scan"}, "name": "fdd6aea64ce5c09ee3be88031dda180a", "type": "electric_scooter", "lat": 38.920705833333336, "is_disabled": 0}, {"fusion_lat": 0.0, "lon": -77.02553933333333, "is_reserved": 0, "bike_id": "cf445df1a4027816a1d459074480db1b", "fusion_lon": 0.0, "rental_uris": {"android": "https://dc.lft.to/lastmile_qr_scan", "ios": "https://dc.lft.to/lastmile_qr_scan"}, "name": "cf445df1a4027816a1d459074480db1b", "type": "electric_scooter", "lat": 38.92472016666667, "is_disabled": 0}, {"fusion_lat": 0.0, "lon": -77.046576, "is_reserved": 0, "bike_id": "f33204530c92a7f0606fb83d62830ed8", "fusion_lon": 0.0, "rental_uris": {"android": "https://dc.lft.to/lastmile_qr_scan", "ios": "https://dc.lft.to/lastmile_qr_scan"}, "name": "f33204530c92a7f0606fb83d62830ed8", "type": "electric_scooter", "lat": 38.903362666666666, "is_disabled": 0}, {"fusion_lat": 0.0, "lon": -77.01366566666667, "is_reserved": 0, "bike_id": "f790edce707826b3511f302fb91b813f", "fusion_lon": 0.0, "rental_uris": {"android": "https://dc.lft.to/lastmile_qr_scan", "ios": "https://dc.lft.to/lastmile_qr_scan"}, "name": "f790edce707826b3511f302fb91b813f", "type": "electric_scooter", "lat": 38.92863533333333, "is_disabled": 0}, {"fusion_lat": 0.0, "lon": -77.02329366666666, "is_reserved": 0, "bike_id": "5aa6ad09a37e758f240edc918e7d6a9a", "fusion_lon": 0.0, "rental_uris": {"android": "https://dc.lft.to/lastmile_qr_scan", "ios": "https://dc.lft.to/lastmile_qr_scan"}, "name": "5aa6ad09a37e758f240edc918e7d6a9a", "type": "electric_scooter", "lat": 38.92702233333333, "is_disabled": 0}, {"fusion_lat": 0.0, "lon": -76.93731116666666, "is_reserved": 0, "bike_id": "37ae031cf6855babaaa624f772a392dd", "fusion_lon": 0.0, "rental_uris": {"android": "https://dc.lft.to/lastmile_qr_scan", "ios": "https://dc.lft.to/lastmile_qr_scan"}, "name": "37ae031cf6855babaaa624f772a392dd", "type": "electric_scooter", "lat": 38.89015916666666, "is_disabled": 0}, {"fusion_lat": 0.0, "lon": -77.0281265, "is_reserved": 0, "bike_id": "f1ec6987b6a392dab1ebebb08324b072", "fusion_lon": 0.0, "rental_uris": {"android": "https://dc.lft.to/lastmile_qr_scan", "ios": "https://dc.lft.to/lastmile_qr_scan"}, "name": "f1ec6987b6a392dab1ebebb08324b072", "type": "electric_scooter", "lat": 38.89976016666667, "is_disabled": 0}, {"fusion_lat": 0.0, "lon": -77.02685783333334, "is_reserved": 0, "bike_id": "5326327a677285497ac5300244ee7955", "fusion_lon": 0.0, "rental_uris": {"android": "https://dc.lft.to/lastmile_qr_scan", "ios": "https://dc.lft.to/lastmile_qr_scan"}, "name": "5326327a677285497ac5300244ee7955", "type": "electric_scooter", "lat": 38.90232066666667, "is_disabled": 0}, {"fusion_lat": 0.0, "lon": -77.006203, "is_reserved": 0, "bike_id": "cb6d8ae42e702b9bef4a86a128ecf98a", "fusion_lon": 0.0, "rental_uris": {"android": "https://dc.lft.to/lastmile_qr_scan", "ios": "https://dc.lft.to/lastmile_qr_scan"}, "name": "cb6d8ae42e702b9bef4a86a128ecf98a", "type": "electric_scooter", "lat": 38.87172266666666, "is_disabled": 0}, {"fusion_lat": 0.0, "lon": -77.01513216666666, "is_reserved": 0, "bike_id": "d48f380a75b48d2b9929371edae96942", "fusion_lon": 0.0, "rental_uris": {"android": "https://dc.lft.to/lastmile_qr_scan", "ios": "https://dc.lft.to/lastmile_qr_scan"}, "name": "d48f380a75b48d2b9929371edae96942", "type": "electric_scooter", "lat": 38.89241066666666, "is_disabled": 0}, {"fusion_lat": 0.0, "lon": -77.007693, "is_reserved": 0, "bike_id": "58fed6643a08d819cf77ddef642e25f3", "fusion_lon": 0.0, "rental_uris": {"android": "https://dc.lft.to/lastmile_qr_scan", "ios": "https://dc.lft.to/lastmile_qr_scan"}, "name": "58fed6643a08d819cf77ddef642e25f3", "type": "electric_scooter", "lat": 38.897912166666664, "is_disabled": 0}, {"fusion_lat": 0.0, "lon": -77.005999, "is_reserved": 0, "bike_id": "74677d2f7a619b3c90e72056ffa8f40a", "fusion_lon": 0.0, "rental_uris": {"android": "https://dc.lft.to/lastmile_qr_scan", "ios": "https://dc.lft.to/lastmile_qr_scan"}, "name": "74677d2f7a619b3c90e72056ffa8f40a", "type": "electric_scooter", "lat": 38.885183833333336, "is_disabled": 0}, {"fusion_lat": 0.0, "lon": -77.044902, "is_reserved": 0, "bike_id": "fecb48d0ff5ac67d83d42b23eccf6eea", "fusion_lon": 0.0, "rental_uris": {"android": "https://dc.lft.to/lastmile_qr_scan", "ios": "https://dc.lft.to/lastmile_qr_scan"}, "name": "fecb48d0ff5ac67d83d42b23eccf6eea", "type": "electric_scooter", "lat": 38.902373833333336, "is_disabled": 0}, {"fusion_lat": 0.0, "lon": -77.04460583333334, "is_reserved": 0, "bike_id": "85db53c9f07a0b868cd3887a83808cf9", "fusion_lon": 0.0, "rental_uris": {"android": "https://dc.lft.to/lastmile_qr_scan", "ios": "https://dc.lft.to/lastmile_qr_scan"}, "name": "85db53c9f07a0b868cd3887a83808cf9", "type": "electric_scooter", "lat": 38.909546666666664, "is_disabled": 0}, {"fusion_lat": 0.0, "lon": -77.074801, "is_reserved": 0, "bike_id": "7266bac473fcbf93630845ebf3b15fbb", "fusion_lon": 0.0, "rental_uris": {"android": "https://dc.lft.to/lastmile_qr_scan", "ios": "https://dc.lft.to/lastmile_qr_scan"}, "name": "7266bac473fcbf93630845ebf3b15fbb", "type": "electric_scooter", "lat": 38.963202833333334, "is_disabled": 0}, {"fusion_lat": 0.0, "lon": -77.03821833333333, "is_reserved": 0, "bike_id": "5d1bbd85affdad7898ed6b8976947013", "fusion_lon": 0.0, "rental_uris": {"android": "https://dc.lft.to/lastmile_qr_scan", "ios": "https://dc.lft.to/lastmile_qr_scan"}, "name": "5d1bbd85affdad7898ed6b8976947013", "type": "electric_scooter", "lat": 38.90665583333333, "is_disabled": 0}, {"fusion_lat": 0.0, "lon": -77.02283566666667, "is_reserved": 0, "bike_id": "f629957655790ccf4c2e1b078a4fa814", "fusion_lon": 0.0, "rental_uris": {"android": "https://dc.lft.to/lastmile_qr_scan", "ios": "https://dc.lft.to/lastmile_qr_scan"}, "name": "f629957655790ccf4c2e1b078a4fa814", "type": "electric_scooter", "lat": 38.914174833333334, "is_disabled": 0}, {"fusion_lat": 0.0, "lon": -76.89539416666666, "is_reserved": 0, "bike_id": "2e34abb01b2fb12b27f2270e2126d5d8", "fusion_lon": 0.0, "rental_uris": {"android": "https://dc.lft.to/lastmile_qr_scan", "ios": "https://dc.lft.to/lastmile_qr_scan"}, "name": "2e34abb01b2fb12b27f2270e2126d5d8", "type": "electric_bike", "lat": 38.9455115, "is_disabled": 0}, {"fusion_lat": 0.0, "lon": -77.02728133333333, "is_reserved": 0, "bike_id": "bd53f78296c9c0ac580b35fdb40ca481", "fusion_lon": 0.0, "rental_uris": {"android": "https://dc.lft.to/lastmile_qr_scan", "ios": "https://dc.lft.to/lastmile_qr_scan"}, "name": "bd53f78296c9c0ac580b35fdb40ca481", "type": "electric_scooter", "lat": 38.940863666666665, "is_disabled": 0}, {"fusion_lat": 0.0, "lon": -77.0686395, "is_reserved": 0, "bike_id": "ca67fd9ad6e8d5d6bbf45661591a7692", "fusion_lon": 0.0, "rental_uris": {"android": "https://dc.lft.to/lastmile_qr_scan", "ios": "https://dc.lft.to/lastmile_qr_scan"}, "name": "ca67fd9ad6e8d5d6bbf45661591a7692", "type": "electric_bike", "lat": 38.8057385, "is_disabled": 0}, {"fusion_lat": 0.0, "lon": -77.04394783333333, "is_reserved": 0, "bike_id": "0646e3d58f012dab08fa529e913fc7f4", "fusion_lon": 0.0, "rental_uris": {"android": "https://dc.lft.to/lastmile_qr_scan", "ios": "https://dc.lft.to/lastmile_qr_scan"}, "name": "0646e3d58f012dab08fa529e913fc7f4", "type": "electric_scooter", "lat": 38.90904783333333, "is_disabled": 0}, {"fusion_lat": 0.0, "lon": -77.03642083333334, "is_reserved": 0, "bike_id": "7ec84eb8c9e0e1790caf3567b877f416", "fusion_lon": 0.0, "rental_uris": {"android": "https://dc.lft.to/lastmile_qr_scan", "ios": "https://dc.lft.to/lastmile_qr_scan"}, "name": "7ec84eb8c9e0e1790caf3567b877f416", "type": "electric_scooter", "lat": 38.922632166666666, "is_disabled": 0}, {"fusion_lat": 0.0, "lon": -77.019448, "is_reserved": 0, "bike_id": "c387a6312f649a869d33f155326515f8", "fusion_lon": 0.0, "rental_uris": {"android": "https://dc.lft.to/lastmile_qr_scan", "ios": "https://dc.lft.to/lastmile_qr_scan"}, "name": "c387a6312f649a869d33f155326515f8", "type": "electric_bike", "lat": 38.9241635, "is_disabled": 0}, {"fusion_lat": 0.0, "lon": -77.02097, "is_reserved": 0, "bike_id": "e55652765fda1a57127d31a3061bc0c5", "fusion_lon": 0.0, "rental_uris": {"android": "https://dc.lft.to/lastmile_qr_scan", "ios": "https://dc.lft.to/lastmile_qr_scan"}, "name": "e55652765fda1a57127d31a3061bc0c5", "type": "electric_scooter", "lat": 38.911245666666666, "is_disabled": 0}, {"fusion_lat": 0.0, "lon": -76.99504633333333, "is_reserved": 0, "bike_id": "b650a701e9b7a84403185a2189dfba39", "fusion_lon": 0.0, "rental_uris": {"android": "https://dc.lft.to/lastmile_qr_scan", "ios": "https://dc.lft.to/lastmile_qr_scan"}, "name": "b650a701e9b7a84403185a2189dfba39", "type": "electric_scooter", "lat": 38.88280266666666, "is_disabled": 0}, {"fusion_lat": 0.0, "lon": -77.02207966666667, "is_reserved": 0, "bike_id": "b260b1da26512b00dabc5db8df4dc686", "fusion_lon": 0.0, "rental_uris": {"android": "https://dc.lft.to/lastmile_qr_scan", "ios": "https://dc.lft.to/lastmile_qr_scan"},