{"data": {"bikes": [{"fusion_lat": 0.0, "name": "645fa2a3d34a89ef06fb7c21c2743189", "is_disabled": 0, "rental_uris": {"android": "https://dc.lft.to/lastmile_qr_scan", "ios": "https://dc.lft.to/lastmile_qr_scan"}, "fusion_lon": 0.0, "lat": 38.92150183333333, "bike_id": "645fa2a3d34a89ef06fb7c21c2743189", "type": "electric_scooter", "is_reserved": 0, "lon": -77.024237}, {"fusion_lat": 0.0, "name": "d62159f60c461068ef227326cac7f4f2", "is_disabled": 0, "rental_uris": {"android": "https://dc.lft.to/lastmile_qr_scan", "ios": "https://dc.lft.to/lastmile_qr_scan"}, "fusion_lon": 0.0, "lat": 38.873684833333336, "bike_id": "d62159f60c461068ef227326cac7f4f2", "type": "electric_scooter", "is_reserved": 0, "lon": -77.00130333333334}, {"fusion_lat": 0.0, "name": "fa8e34b0042df283080463d7fa77f1eb", "is_disabled": 0, "rental_uris": {"android": "https://dc.lft.to/lastmile_qr_scan", "ios": "https://dc.lft.to/lastmile_qr_scan"}, "fusion_lon": 0.0, "lat": 38.895419833333335, "bike_id": "fa8e34b0042df283080463d7fa77f1eb", "type": "electric_scooter", "is_reserved": 0, "lon": -76.95636116666667}, {"fusion_lat": 0.0, "name": "5a877530777067859dd2196120e439e0", "is_disabled": 0, "rental_uris": {"android": "https://dc.lft.to/lastmile_qr_scan", "ios": "https://dc.lft.to/lastmile_qr_scan"}, "fusion_lon": 0.0, "lat": 38.89469366666667, "bike_id": "5a877530777067859dd2196120e439e0", "type": "electric_scooter", "is_reserved": 0, "lon": -77.0203235}, {"fusion_lat": 0.0, "name": "64566a339d664881362aa920f68df774", "is_disabled": 0, "rental_uris": {"android": "https://dc.lft.to/lastmile_qr_scan", "ios": "https://dc.lft.to/lastmile_qr_scan"}, "fusion_lon": 0.0, "lat": 38.8676165, "bike_id": "64566a339d664881362aa920f68df774", "type": "electric_scooter", "is_reserved": 0, "lon": -76.9826845}, {"fusion_lat": 0.0, "name": "49191595bf11df2853678ffbec4a3e2b", "is_disabled": 0, "rental_uris": {"android": "https://dc.lft.to/lastmile_qr_scan", "ios": "https://dc.lft.to/lastmile_qr_scan"}, "fusion_lon": 0.0, "lat": 38.924448, "bike_id": "49191595bf11df2853678ffbec4a3e2b", "type": "electric_scooter", "is_reserved": 0, "lon": -77.0087925}, {"fusion_lat": 0.0, "name": "0dcd7661809980ee7d264a96c085ca18", "is_disabled": 0, "rental_uris": {"android": "https://dc.lft.to/lastmile_qr_scan", "ios": "https://dc.lft.to/lastmile_qr_scan"}, "fusion_lon": 0.0, "lat": 38.896708333333336, "bike_id": "0dcd7661809980ee7d264a96c085ca18", "type": "electric_scooter", "is_reserved": 0, "lon": -77.05130366666667}, {"fusion_lat": 0.0, "name": "f3109ef9b0ac2268d7a84e724a4d2f52", "is_disabled": 0, "rental_uris": {"android": "https://dc.lft.to/lastmile_qr_scan", "ios": "https://dc.lft.to/lastmile_qr_scan"}, "fusion_lon": 0.0, "lat": 38.930168333333334, "bike_id": "f3109ef9b0ac2268d7a84e724a4d2f52", "type": "electric_scooter", "is_reserved": 0, "lon": -77.02328733333333}, {"fusion_lat": 0.0, "name": "30d0c71f2b20ab3c92547365eb17c288", "is_disabled": 0, "rental_uris": {"android": "https://dc.lft.to/lastmile_qr_scan", "ios": "https://dc.lft.to/lastmile_qr_scan"}, "fusion_lon": 0.0, "lat": 38.923979833333334, "bike_id": "30d0c71f2b20ab3c92547365eb17c288", "type": "electric_scooter", "is_reserved": 0, "lon": -77.03638533333333}, {"fusion_lat": 0.0, "name": "94625f3d6548867a01dbe977a38b93b7", "is_disabled": 0, "rental_uris": {"android": "https://dc.lft.to/lastmile_qr_scan", "ios": "https://dc.lft.to/lastmile_qr_scan"}, "fusion_lon": 0.0, "lat": 38.997470166666666, "bike_id": "94625f3d6548867a01dbe977a38b93b7", "type": "electric_bike", "is_reserved": 0, "lon": -77.026875}, {"fusion_lat": 0.0, "name": "4888e0c65f2a0fc6e90581201406c738", "is_disabled": 0, "rental_uris": {"android": "https://dc.lft.to/lastmile_qr_scan", "ios": "https://dc.lft.to/lastmile_qr_scan"}, "fusion_lon": 0.0, "lat": 38.902599333333335, "bike_id": "4888e0c65f2a0fc6e90581201406c738", "type": "electric_scooter", "is_reserved": 0, "lon": -77.04363316666667}, {"fusion_lat": 0.0, "name": "b0063edbd44f6549c72ce75bd191b3b0", "is_disabled": 0, "rental_uris": {"android": "https://dc.lft.to/lastmile_qr_scan", "ios": "https://dc.lft.to/lastmile_qr_scan"}, "fusion_lon": 0.0, "lat": 38.88312783333333, "bike_id": "b0063edbd44f6549c72ce75bd191b3b0", "type": "electric_scooter", "is_reserved": 0, "lon": -77.01386933333333}, {"fusion_lat": 0.0, "name": "3c5e8a4760ac9d72cd2088ad57a39bc5", "is_disabled": 0, "rental_uris": {"android": "https://dc.lft.to/lastmile_qr_scan", "ios": "https://dc.lft.to/lastmile_qr_scan"}, "fusion_lon": 0.0, "lat": 38.91325483333333, "bike_id": "3c5e8a4760ac9d72cd2088ad57a39bc5", "type": "electric_scooter", "is_reserved": 0, "lon": -77.045374}, {"fusion_lat": 0.0, "name": "6112c7cc6262ab445701ce3c7b1fd882", "is_disabled": 0, "rental_uris": {"android": "https://dc.lft.to/lastmile_qr_scan", "ios": "https://dc.lft.to/lastmile_qr_scan"}, "fusion_lon": 0.0, "lat": 38.90539783333333, "bike_id": "6112c7cc6262ab445701ce3c7b1fd882", "type": "electric_scooter", "is_reserved": 0, "lon": -77.0219715}, {"fusion_lat": 0.0, "name": "365389ec0746c1257b688700d7e46b3b", "is_disabled": 0, "rental_uris": {"android": "https://dc.lft.to/lastmile_qr_scan", "ios": "https://dc.lft.to/lastmile_qr_scan"}, "fusion_lon": 0.0, "lat": 38.935873, "bike_id": "365389ec0746c1257b688700d7e46b3b", "type": "electric_scooter", "is_reserved": 0, "lon": -77.0335585}, {"fusion_lat": 0.0, "name": "f988e06f9f1fbfd0cd549f592e62db68", "is_disabled": 0, "rental_uris": {"android": "https://dc.lft.to/lastmile_qr_scan", "ios": "https://dc.lft.to/lastmile_qr_scan"}, "fusion_lon": 0.0, "lat": 38.899283833333335, "bike_id": "f988e06f9f1fbfd0cd549f592e62db68", "type": "electric_scooter", "is_reserved": 0, "lon": -76.99731933333334}, {"fusion_lat": 0.0, "name": "f44ae030a190b842fc962b0f8123df3f", "is_disabled": 0, "rental_uris": {"android": "https://dc.lft.to/lastmile_qr_scan", "ios": "https://dc.lft.to/lastmile_qr_scan"}, "fusion_lon": 0.0, "lat": 38.90512, "bike_id": "f44ae030a190b842fc962b0f8123df3f", "type": "electric_scooter", "is_reserved": 0, "lon": -77.06771283333333}, {"fusion_lat": 0.0, "name": "b2f32ecd6dbede27f69aa559a9f7021f", "is_disabled": 0, "rental_uris": {"android": "https://dc.lft.to/lastmile_qr_scan", "ios": "https://dc.lft.to/lastmile_qr_scan"}, "fusion_lon": 0.0, "lat": 38.91921633333333, "bike_id": "b2f32ecd6dbede27f69aa559a9f7021f", "type": "electric_scooter", "is_reserved": 0, "lon": -77.0459515}, {"fusion_lat": 0.0, "name": "97783f8f892cdc8c367e4e234d983f7c", "is_disabled": 0, "rental_uris": {"android": "https://dc.lft.to/lastmile_qr_scan", "ios": "https://dc.lft.to/lastmile_qr_scan"}, "fusion_lon": 0.0, "lat": 38.90885633333333, "bike_id": "97783f8f892cdc8c367e4e234d983f7c", "type": "electric_scooter", "is_reserved": 0, "lon": -77.06426466666667}, {"fusion_lat": 0.0, "name": "e5778f7773e916577a43a19f25be29a2", "is_disabled": 0, "rental_uris": {"android": "https://dc.lft.to/lastmile_qr_scan", "ios": "https://dc.lft.to/lastmile_qr_scan"}, "fusion_lon": 0.0, "lat": 38.907342, "bike_id": "e5778f7773e916577a43a19f25be29a2", "type": "electric_scooter", "is_reserved": 0, "lon": -76.9982135}, {"fusion_lat": 0.0, "name": "367f5f0196754e8b77b254d7bb8a6516", "is_disabled": 0, "rental_uris": {"android": "https://dc.lft.to/lastmile_qr_scan", "ios": "https://dc.lft.to/lastmile_qr_scan"}, "fusion_lon": 0.0, "lat": 38.9179805, "bike_id": "367f5f0196754e8b77b254d7bb8a6516", "type": "electric_scooter", "is_reserved": 0, "lon": -77.03657783333334}, {"fusion_lat": 0.0, "name": "dcf1a9c23699cb49707bf47593e649fd", "is_disabled": 0, "rental_uris": {"android": "https://dc.lft.to/lastmile_qr_scan", "ios": "https://dc.lft.to/lastmile_qr_scan"}, "fusion_lon": 0.0, "lat": 38.90027033333333, "bike_id": "dcf1a9c23699cb49707bf47593e649fd", "type": "electric_scooter", "is_reserved": 0, "lon": -77.0348175}, {"fusion_lat": 0.0, "name": "35c3bb94c566a37f815c55eb3ce8aebe", "is_disabled": 0, "rental_uris": {"android": "https://dc.lft.to/lastmile_qr_scan", "ios": "https://dc.lft.to/lastmile_qr_scan"}, "fusion_lon": 0.0, "lat": 38.9358495, "bike_id": "35c3bb94c566a37f815c55eb3ce8aebe", "type": "electric_scooter", "is_reserved": 0, "lon": -77.074326}, {"fusion_lat": 0.0, "name": "07f8e43faa7d9544ee1e463884e99cf2", "is_disabled": 0, "rental_uris": {"android": "https://dc.lft.to/lastmile_qr_scan", "ios": "https://dc.lft.to/lastmile_qr_scan"}, "fusion_lon": 0.0, "lat": 38.930363166666666, "bike_id": "07f8e43faa7d9544ee1e463884e99cf2", "type": "electric_scooter", "is_reserved": 0, "lon": -77.033533}, {"fusion_lat": 0.0, "name": "b33511c04980f0850fc8c971b98345d9", "is_disabled": 0, "rental_uris": {"android": "https://dc.lft.to/lastmile_qr_scan", "ios": "https://dc.lft.to/lastmile_qr_scan"}, "fusion_lon": 0.0, "lat": 38.911234666666665, "bike_id": "b33511c04980f0850fc8c971b98345d9", "type": "electric_scooter", "is_reserved": 0, "lon": -77.02199516666667}, {"fusion_lat": 0.0, "name": "6cacb875caf2056785eb43ae1addfe2b", "is_disabled": 0, "rental_uris": {"android": "https://dc.lft.to/lastmile_qr_scan", "ios": "https://dc.lft.to/lastmile_qr_scan"}, "fusion_lon": 0.0, "lat": 38.9166795, "bike_id": "6cacb875caf2056785eb43ae1addfe2b", "type": "electric_scooter", "is_reserved": 0, "lon": -77.02709583333333}, {"fusion_lat": 0.0, "name": "d9909d896b946c04010827a875bf2572", "is_disabled": 0, "rental_uris": {"android": "https://dc.lft.to/lastmile_qr_scan", "ios": "https://dc.lft.to/lastmile_qr_scan"}, "fusion_lon": 0.0, "lat": 38.881532166666666, "bike_id": "d9909d896b946c04010827a875bf2572", "type": "electric_scooter", "is_reserved": 0, "lon": -77.02751583333334}, {"fusion_lat": 0.0, "name": "0c5dd900b273bdb321a9f8621278fc16", "is_disabled": 0, "rental_uris": {"android": "https://dc.lft.to/lastmile_qr_scan", "ios": "https://dc.lft.to/lastmile_qr_scan"}, "fusion_lon": 0.0, "lat": 38.9036865, "bike_id": "0c5dd900b273bdb321a9f8621278fc16", "type": "electric_scooter", "is_reserved": 0, "lon": -77.03861}, {"fusion_lat": 0.0, "name": "bb88ee357b8a660d224b110c1d84a34e", "is_disabled": 0, "rental_uris": {"android": "https://dc.lft.to/lastmile_qr_scan", "ios": "https://dc.lft.to/lastmile_qr_scan"}, "fusion_lon": 0.0, "lat": 38.93559366666667, "bike_id": "bb88ee357b8a660d224b110c1d84a34e", "type": "electric_scooter", "is_reserved": 0, "lon": -77.03485533333334}, {"fusion_lat": 0.0, "name": "85a62e23415d6697bdf8f8d572131123", "is_disabled": 0, "rental_uris": {"android": "https://dc.lft.to/lastmile_qr_scan", "ios": "https://dc.lft.to/lastmile_qr_scan"}, "fusion_lon": 0.0, "lat": 38.942021, "bike_id": "85a62e23415d6697bdf8f8d572131123", "type": "electric_bike", "is_reserved": 0, "lon": -77.018288}, {"fusion_lat": 0.0, "name": "84937f527fd502f8ea5b7aa2239b8733", "is_disabled": 0, "rental_uris": {"android": "https://dc.lft.to/lastmile_qr_scan", "ios": "https://dc.lft.to/lastmile_qr_scan"}, "fusion_lon": 0.0, "lat": 38.930603833333336, "bike_id": "84937f527fd502f8ea5b7aa2239b8733", "type": "electric_scooter", "is_reserved": 0, "lon": -77.02981616666666}, {"fusion_lat": 0.0, "name": "9bbec3785fe9682bb969ffdc031c362b", "is_disabled": 0, "rental_uris": {"android": "https://dc.lft.to/lastmile_qr_scan", "ios": "https://dc.lft.to/lastmile_qr_scan"}, "fusion_lon": 0.0, "lat": 38.857949166666664, "bike_id": "9bbec3785fe9682bb969ffdc031c362b", "type": "electric_bike", "is_reserved": 0, "lon": -77.12014583333334}, {"fusion_lat": 0.0, "name": "4a87f904551bbeb92b071257a0654471", "is_disabled": 0, "rental_uris": {"android": "https://dc.lft.to/lastmile_qr_scan", "ios": "https://dc.lft.to/lastmile_qr_scan"}, "fusion_lon": 0.0, "lat": 38.90562, "bike_id": "4a87f904551bbeb92b071257a0654471", "type": "electric_scooter", "is_reserved": 0, "lon": -77.01312633333333}, {"fusion_lat": 0.0, "name": "3f8ca7b6c044ac4caa44469ab1198c51", "is_disabled": 0, "rental_uris": {"android": "https://dc.lft.to/lastmile_qr_scan", "ios": "https://dc.lft.to/lastmile_qr_scan"}, "fusion_lon": 0.0, "lat": 38.862528833333336, "bike_id": "3f8ca7b6c044ac4caa44469ab1198c51", "type": "electric_bike", "is_reserved": 0, "lon": -76.9835635}, {"fusion_lat": 0.0, "name": "68c887449fc0ae393f57ae88cbbb74db", "is_disabled": 0, "rental_uris": {"android": "https://dc.lft.to/lastmile_qr_scan", "ios": "https://dc.lft.to/lastmile_qr_scan"}, "fusion_lon": 0.0, "lat": 38.91029116666667, "bike_id": "68c887449fc0ae393f57ae88cbbb74db", "type": "electric_scooter", "is_reserved": 0, "lon": -77.0075685}, {"fusion_lat": 0.0, "name": "e714f624e70381e02e99e8e668e06f50", "is_disabled": 0, "rental_uris": {"android": "https://dc.lft.to/lastmile_qr_scan", "ios": "https://dc.lft.to/lastmile_qr_scan"}, "fusion_lon": 0.0, "lat": 38.931385666666664, "bike_id": "e714f624e70381e02e99e8e668e06f50", "type": "electric_scooter", "is_reserved": 0, "lon": -77.03832833333334}, {"fusion_lat": 0.0, "name": "400a41dafabae31e0c8c28b9aa5e8d18", "is_disabled": 0, "rental_uris": {"android": "https://dc.lft.to/lastmile_qr_scan", "ios": "https://dc.lft.to/lastmile_qr_scan"}, "fusion_lon": 0.0, "lat": 38.90879983333333, "bike_id": "400a41dafabae31e0c8c28b9aa5e8d18", "type": "electric_scooter", "is_reserved": 0, "lon": -77.04341683333334}, {"fusion_lat": 0.0, "name": "b67eb0b352729e1de3fdd118dd181a39", "is_disabled": 0, "rental_uris": {"android": "https://dc.lft.to/lastmile_qr_scan", "ios": "https://dc.lft.to/lastmile_qr_scan"}, "fusion_lon": 0.0, "lat": 38.918164, "bike_id": "b67eb0b352729e1de3fdd118dd181a39", "type": "electric_scooter", "is_reserved": 0, "lon": -77.01209666666666}, {"fusion_lat": 0.0, "name": "cb05d536ded9930a12854ffb6f4e9c42", "is_disabled": 0, "rental_uris": {"android": "https://dc.lft.to/lastmile_qr_scan", "ios": "https://dc.lft.to/lastmile_qr_scan"}, "fusion_lon": 0.0, "lat": 38.84909233333333, "bike_id": "cb05d536ded9930a12854ffb6f4e9c42", "type": "electric_bike", "is_reserved": 0, "lon": -77.07927383333333}, {"fusion_lat": 0.0, "name": "e8f414295450d5151d68667a80b61514", "is_disabled": 0, "rental_uris": {"android": "https://dc.lft.to/lastmile_qr_scan", "ios": "https://dc.lft.to/lastmile_qr_scan"}, "fusion_lon": 0.0, "lat": 38.921535, "bike_id": "e8f414295450d5151d68667a80b61514", "type": "electric_scooter", "is_reserved": 0, "lon": -77.0209085}, {"fusion_lat": 0.0, "name": "88ff9377f4bfeb2bb533f160fbde48fb", "is_disabled": 0, "rental_uris": {"android": "https://dc.lft.to/lastmile_qr_scan", "ios": "https://dc.lft.to/lastmile_qr_scan"}, "fusion_lon": 0.0, "lat": 38.90065116666667, "bike_id": "88ff9377f4bfeb2bb533f160fbde48fb", "type": "electric_scooter", "is_reserved": 0, "lon": -76.98692933333334}, {"fusion_lat": 0.0, "name": "3ec252e464d83bef44850c2f41888814", "is_disabled": 0, "rental_uris": {"android": "https://dc.lft.to/lastmile_qr_scan", "ios": "https://dc.lft.to/lastmile_qr_scan"}, "fusion_lon": 0.0, "lat": 38.9069985, "bike_id": "3ec252e464d83bef44850c2f41888814", "type": "electric_scooter", "is_reserved": 0, "lon": -77.04170183333333}, {"fusion_lat": 0.0, "name": "d8cadb4df4bda23776b16fbf881eb8a2", "is_disabled": 0, "rental_uris": {"android": "https://dc.lft.to/lastmile_qr_scan", "ios": "https://dc.lft.to/lastmile_qr_scan"}, "fusion_lon": 0.0, "lat": 38.816087333333336, "bike_id": "d8cadb4df4bda23776b16fbf881eb8a2", "type": "electric_bike", "is_reserved": 0, "lon": -76.996663}, {"fusion_lat": 0.0, "name": "fc66ca2ef7747969f929a570deb6fd3a", "is_disabled": 0, "rental_uris": {"android": "https://dc.lft.to/lastmile_qr_scan", "ios": "https://dc.lft.to/lastmile_qr_scan"}, "fusion_lon": 0.0, "lat": 39.014135, "bike_id": "fc66ca2ef7747969f929a570deb6fd3a", "type": "electric_bike", "is_reserved": 0, "lon": -77.04502183333334}, {"fusion_lat": 0.0, "name": "63cac054d4395ef6f50d24fc48c0b03f", "is_disabled": 0, "rental_uris": {"android": "https://dc.lft.to/lastmile_qr_scan", "ios": "https://dc.lft.to/lastmile_qr_scan"}, "fusion_lon": 0.0, "lat": 38.885045833333336, "bike_id": "63cac054d4395ef6f50d24fc48c0b03f", "type": "electric_scooter", "is_reserved": 0, "lon": -76.99752666666667}, {"fusion_lat": 0.0, "name": "a3f240cecf005309cf26fca1a0c94baf", "is_disabled": 0, "rental_uris": {"android": "https://dc.lft.to/lastmile_qr_scan", "ios": "https://dc.lft.to/lastmile_qr_scan"}, "fusion_lon": 0.0, "lat": 38.87368133333333, "bike_id": "a3f240cecf005309cf26fca1a0c94baf", "type": "electric_scooter", "is_reserved": 0, "lon": -77.0090415}, {"fusion_lat": 0.0, "name": "3757b2ecab7152c60317e09c8d0f99a1", "is_disabled": 0, "rental_uris": {"android": "https://dc.lft.to/lastmile_qr_scan", "ios": "https://dc.lft.to/lastmile_qr_scan"}, "fusion_lon": 0.0, "lat": 38.887920333333334, "bike_id": "3757b2ecab7152c60317e09c8d0f99a1", "type": "electric_bike", "is_reserved": 0, "lon": -76.9299475}, {"fusion_lat": 0.0, "name": "d1722be8179cb028719c10c7568fdb19", "is_disabled": 0, "rental_uris": {"android": "https://dc.lft.to/lastmile_qr_scan", "ios": "https://dc.lft.to/lastmile_qr_scan"}, "fusion_lon": 0.0, "lat": 38.856957333333334, "bike_id": "d1722be8179cb028719c10c7568fdb19", "type": "electric_scooter", "is_reserved": 0, "lon": -76.99598933333333}, {"fusion_lat": 0.0, "name": "993234f50a0b71b7f85e89a63f6b612b", "is_disabled": 0, "rental_uris": {"android": "https://dc.lft.to/lastmile_qr_scan", "ios": "https://dc.lft.to/lastmile_qr_scan"}, "fusion_lon": 0.0, "lat": 38.9062985, "bike_id": "993234f50a0b71b7f85e89a63f6b612b", "type": "electric_scooter", "is_reserved": 0, "lon": -77.04141516666667}, {"fusion_lat": 0.0, "name": "7590587ec0344ea9f1a1889d2e7cd300", "is_disabled": 0, "rental_uris": {"android": "https://dc.lft.to/lastmile_qr_scan", "ios": "https://dc.lft.to/lastmile_qr_scan"}, "fusion_lon": 0.0, "lat": 38.88985316666667, "bike_id": "7590587ec0344ea9f1a1889d2e7cd300", "type": "electric_scooter", "is_reserved": 0, "lon": -76.98421733333333}, {"fusion_lat": 0.0, "name": "9675ef2385e0a9491155c1d904d73fb4", "is_disabled": 0, "rental_uris": {"android": "https://dc.lft.to/lastmile_qr_scan", "ios": "https://dc.lft.to/lastmile_qr_scan"}, "fusion_lon": 0.0, "lat": 38.91216883333333, "bike_id": "9675ef2385e0a9491155c1d904d73fb4", "type": "electric_scooter", "is_reserved": 0, "lon": -77.027175}, {"fusion_lat": 0.0, "name": "6aca47b177adbe3e9308ab0615f3a5e3", "is_disabled": 0, "rental_uris": {"android": "https://dc.lft.to/lastmile_qr_scan", "ios": "https://dc.lft.to/lastmile_qr_scan"}, "fusion_lon": 0.0, "lat": 38.927958, "bike_id": "6aca47b177adbe3e9308ab0615f3a5e3", "type": "electric_scooter", "is_reserved": 0, "lon": -77.05524016666666}, {"fusion_lat": 0.0, "name": "e80f50f8bf61db45f73b2ee588414313", "is_disabled": 0, "rental_uris": {"android": "https://dc.lft.to/lastmile_qr_scan", "ios": "https://dc.lft.to/lastmile_qr_scan"}, "fusion_lon": 0.0, "lat": 38.9078685, "bike_id": "e80f50f8bf61db45f73b2ee588414313", "type": "electric_scooter", "is_reserved": 0, "lon": -77.0435085}, {"fusion_lat": 0.0, "name": "2e3e590e24f2ff360b4de64a071877ea", "is_disabled": 0, "rental_uris": {"android": "https://dc.lft.to/lastmile_qr_scan", "ios": "https://dc.lft.to/lastmile_qr_scan"}, "fusion_lon": 0.0, "lat": 38.934736, "bike_id": "2e3e590e24f2ff360b4de64a071877ea", "type": "electric_scooter", "is_reserved": 0, "lon": -77.02845716666667}, {"fusion_lat": 0.0, "name": "72fd3057d1ace8feb9b26c590c7ffe0c", "is_disabled": 0, "rental_uris": {"android": "https://dc.lft.to/lastmile_qr_scan", "ios": "https://dc.lft.to/lastmile_qr_scan"}, "fusion_lon": 0.0, "lat": 38.898767166666666, "bike_id": "72fd3057d1ace8feb9b26c590c7ffe0c", "type": "electric_scooter", "is_reserved": 0, "lon": -76.93183716666667}, {"fusion_lat": 0.0, "name": "2a7353b665f802651ffffcb65f2f5ebf", "is_disabled": 0, "rental_uris": {"android": "https://dc.lft.to/lastmile_qr_scan", "ios": "https://dc.lft.to/lastmile_qr_scan"}, "fusion_lon": 0.0, "lat": 38.900389, "bike_id": "2a7353b665f802651ffffcb65f2f5ebf", "type": "electric_scooter", "is_reserved": 0, "lon": -77.03477716666667}, {"fusion_lat": 0.0, "name": "4ebfb2d744e4d58b25667dda2fcdb4bb", "is_disabled": 0, "rental_uris": {"android": "https://dc.lft.to/lastmile_qr_scan", "ios": "https://dc.lft.to/lastmile_qr_scan"}, "fusion_lon": 0.0, "lat": 38.87892866666667, "bike_id": "4ebfb2d744e4d58b25667dda2fcdb4bb", "type": "electric_scooter", "is_reserved": 0, "lon": -77.00575283333333}, {"fusion_lat": 0.0, "name": "11017e431f52437de1b563429bee7c99", "is_disabled": 0, "rental_uris": {"android": "https://dc.lft.to/lastmile_qr_scan", "ios": "https://dc.lft.to/lastmile_qr_scan"}, "fusion_lon": 0.0, "lat": 38.96218733333333, "bike_id": "11017e431f52437de1b563429bee7c99", "type": "electric_bike", "is_reserved": 0, "lon": -77.02628166666666}, {"fusion_lat": 0.0, "name": "cf7b04650e3f1d641488b7eaceefb4ca", "is_disabled": 0, "rental_uris": {"android": "https://dc.lft.to/lastmile_qr_scan", "ios": "https://dc.lft.to/lastmile_qr_scan"}, "fusion_lon": 0.0, "lat": 38.9141815, "bike_id": "cf7b04650e3f1d641488b7eaceefb4ca", "type": "electric_scooter", "is_reserved": 0, "lon": -77.03171}, {"fusion_lat": 0.0, "name": "52883723a1e38d2267ae9f6673602d33", "is_disabled": 0, "rental_uris": {"android": "https://dc.lft.to/lastmile_qr_scan", "ios": "https://dc.lft.to/lastmile_qr_scan"}, "fusion_lon": 0.0, "lat": 38.884423166666664, "bike_id": "52883723a1e38d2267ae9f6673602d33", "type": "electric_scooter", "is_reserved": 0, "lon": -76.98587983333333}, {"fusion_lat": 0.0, "name": "11f1a40df5711b44477822b8a5ceb226", "is_disabled": 0, "rental_uris": {"android": "https://dc.lft.to/lastmile_qr_scan", "ios": "https://dc.lft.to/lastmile_qr_scan"}, "fusion_lon": 0.0, "lat": 38.92985916666667, "bike_id": "11f1a40df5711b44477822b8a5ceb226", "type": "electric_scooter", "is_reserved": 0, "lon": -77.0366535}, {"fusion_lat": 0.0, "name": "08f2dcadee003807029f1d726ac5f5da", "is_disabled": 0, "rental_uris": {"android": "https://dc.lft.to/lastmile_qr_scan", "ios": "https://dc.lft.to/lastmile_qr_scan"}, "fusion_lon": 0.0, "lat": 38.932874, "bike_id": "08f2dcadee003807029f1d726ac5f5da", "type": "electric_scooter", "is_reserved": 0, "lon": -77.02793433333333}, {"fusion_lat": 0.0, "name": "4f69c7d76b7cf6361c019b509912d748", "is_disabled": 0, "rental_uris": {"android": "https://dc.lft.to/lastmile_qr_scan", "ios": "https://dc.lft.to/lastmile_qr_scan"}, "fusion_lon": 0.0, "lat": 38.8823015, "bike_id": "4f69c7d76b7cf6361c019b509912d748", "type": "electric_scooter", "is_reserved": 0, "lon": -77.026153}, {"fusion_lat": 0.0, "name": "0472331c465264f9ab7cd4150388914b", "is_disabled": 0, "rental_uris": {"android": "https://dc.lft.to/lastmile_qr_scan", "ios": "https://dc.lft.to/lastmile_qr_scan"}, "fusion_lon": 0.0, "lat": 38.92063783333333, "bike_id": "0472331c465264f9ab7cd4150388914b", "type": "electric_scooter", "is_reserved": 0, "lon": -77.02379333333333}, {"fusion_lat": 0.0, "name": "98cca9d22029bbaa0c9eb7c64b05e396", "is_disabled": 0, "rental_uris": {"android": "https://dc.lft.to/lastmile_qr_scan", "ios": "https://dc.lft.to/lastmile_qr_scan"}, "fusion_lon": 0.0, "lat": 38.878143666666666, "bike_id": "98cca9d22029bbaa0c9eb7c64b05e396", "type": "electric_scooter", "is_reserved": 0, "lon": -77.01322983333333}, {"fusion_lat": 0.0, "name": "8de61c6d168f2a8bcf2d218396d5a911", "is_disabled": 0, "rental_uris": {"android": "https://dc.lft.to/lastmile_qr_scan", "ios": "https://dc.lft.to/lastmile_qr_scan"}, "fusion_lon": 0.0, "lat": 38.87456, "bike_id": "8de61c6d168f2a8bcf2d218396d5a911", "type": "electric_scooter", "is_reserved": 0, "lon": -77.0096465}, {"fusion_lat": 0.0, "name": "6683ff9b172b5056c44b3a337570479f", "is_disabled": 0, "rental_uris": {"android": "https://dc.lft.to/lastmile_qr_scan", "ios": "https://dc.lft.to/lastmile_qr_scan"}, "fusion_lon": 0.0, "lat": 38.914258333333336, "bike_id": "6683ff9b172b5056c44b3a337570479f", "type": "electric_scooter", "is_reserved": 0, "lon": -77.06422416666666}, {"fusion_lat": 0.0, "name": "5455d45cd40b13b68e03bf7a062189d4", "is_disabled": 0, "rental_uris": {"android": "https://dc.lft.to/lastmile_qr_scan", "ios": "https://dc.lft.to/lastmile_qr_scan"}, "fusion_lon": 0.0, "lat": 38.9444805, "bike_id": "5455d45cd40b13b68e03bf7a062189d4", "type": "electric_scooter", "is_reserved": 0, "lon": -77.02343066666667}, {"fusion_lat": 0.0, "name": "24fc2b1cf439bd42e053383747cd1f4e", "is_disabled": 0, "rental_uris": {"android": "https://dc.lft.to/lastmile_qr_scan", "ios": "https://dc.lft.to/lastmile_qr_scan"}, "fusion_lon": 0.0, "lat": 38.907822, "bike_id": "24fc2b1cf439bd42e053383747cd1f4e", "type": "electric_scooter", "is_reserved": 0, "lon": -77.04336733333334}, {"fusion_lat": 0.0, "name": "424648631ddb356b372ec561ce7d95e3", "is_disabled": 0, "rental_uris": {"android": "https://dc.lft.to/lastmile_qr_scan", "ios": "https://dc.lft.to/lastmile_qr_scan"}, "fusion_lon": 0.0, "lat": 38.9315345, "bike_id": "424648631ddb356b372ec561ce7d95e3", "type": "electric_scooter", "is_reserved": 0, "lon": -77.078469}, {"fusion_lat": 0.0, "name": "cd0764794af49aa51a85c105c9f3dcba", "is_disabled": 0, "rental_uris": {"android": "https://dc.lft.to/lastmile_qr_scan", "ios": "https://dc.lft.to/lastmile_qr_scan"}, "fusion_lon": 0.0, "lat": 38.90265333333333, "bike_id": "cd0764794af49aa51a85c105c9f3dcba", "type": "electric_scooter", "is_reserved": 0, "lon": -77.04363383333333}, {"fusion_lat": 0.0, "name": "3c34411f214bcf8d8341fb1485b4b58a", "is_disabled": 0, "rental_uris": {"android": "https://dc.lft.to/lastmile_qr_scan", "ios": "https://dc.lft.to/lastmile_qr_scan"}, "fusion_lon": 0.0, "lat": 38.911026, "bike_id": "3c34411f214bcf8d8341fb1485b4b58a", "type": "electric_scooter", "is_reserved": 0, "lon": -77.00370866666667}, {"fusion_lat": 0.0, "name": "679b2d51c7265ffc9e7a8d8f594137c4", "is_disabled": 0, "rental_uris": {"android": "https://dc.lft.to/lastmile_qr_scan", "ios": "https://dc.lft.to/lastmile_qr_scan"}, "fusion_lon": 0.0, "lat": 38.9203095, "bike_id": "679b2d51c7265ffc9e7a8d8f594137c4", "type": "electric_scooter", "is_reserved": 0, "lon": -77.03080733333333}, {"fusion_lat": 0.0, "name": "9c125531c5ea00bf7e53c315717085f3", "is_disabled": 0, "rental_uris": {"android": "https://dc.lft.to/lastmile_qr_scan", "ios": "https://dc.lft.to/lastmile_qr_scan"}, "fusion_lon": 0.0, "lat": 38.895425, "bike_id": "9c125531c5ea00bf7e53c315717085f3", "type": "electric_scooter", "is_reserved": 0, "lon": -77.056747}, {"fusion_lat": 0.0, "name": "93c8f7473e4fda3d65b90a705702542c", "is_disabled": 0, "rental_uris": {"android": "https://dc.lft.to/lastmile_qr_scan", "ios": "https://dc.lft.to/lastmile_qr_scan"}, "fusion_lon": 0.0, "lat": 38.866244333333334, "bike_id": "93c8f7473e4fda3d65b90a705702542c", "type": "electric_scooter", "is_reserved": 0, "lon": -76.98716133333333}, {"fusion_lat": 0.0, "name": "88eb71c566f7203f622021794849b911", "is_disabled": 0, "rental_uris": {"android": "https://dc.lft.to/lastmile_qr_scan", "ios": "https://dc.lft.to/lastmile_qr_scan"}, "fusion_lon": 0.0, "lat": 38.9241355, "bike_id": "88eb71c566f7203f622021794849b911", "type": "electric_scooter", "is_reserved": 0, "lon": -77.02015533333334}, {"fusion_lat": 0.0, "name": "2ab49de1b3960f90f50905f822ca544f", "is_disabled": 0, "rental_uris": {"android": "https://dc.lft.to/lastmile_qr_scan", "ios": "https://dc.lft.to/lastmile_qr_scan"}, "fusion_lon": 0.0, "lat": 38.880835, "bike_id": "2ab49de1b3960f90f50905f822ca544f", "type": "electric_scooter", "is_reserved": 0, "lon": -76.99511983333333}, {"fusion_lat": 0.0, "name": "8bb01cf30f0d43577b96d2fcf38d2a12", "is_disabled": 0, "rental_uris": {"android": "https://dc.lft.to/lastmile_qr_scan", "ios": "https://dc.lft.to/lastmile_qr_scan"}, "fusion_lon": 0.0, "lat": 38.883887666666666, "bike_id": "8bb01cf30f0d43577b96d2fcf38d2a12", "type": "electric_scooter", "is_reserved": 0, "lon": -76.93053233333333}, {"fusion_lat": 0.0, "name": "7a198d42c48b74320e80b309c5513c91", "is_disabled": 0, "rental_uris": {"android": "https://dc.lft.to/lastmile_qr_scan", "ios": "https://dc.lft.to/lastmile_qr_scan"}, "fusion_lon": 0.0, "lat": 38.90383416666667, "bike_id": "7a198d42c48b74320e80b309c5513c91", "type": "electric_scooter", "is_reserved": 0, "lon": -77.06714816666667}, {"fusion_lat": 0.0, "name": "0b3cabddfc0105ba4a8fbfc81b27cab3", "is_disabled": 0, "rental_uris": {"android": "https://dc.lft.to/lastmile_qr_scan", "ios": "https://dc.lft.to/lastmile_qr_scan"}, "fusion_lon": 0.0, "lat": 38.91520966666667, "bike_id": "0b3cabddfc0105ba4a8fbfc81b27cab3", "type": "electric_scooter", "is_reserved": 0, "lon": -77.03187933333334}, {"fusion_lat": 0.0, "name": "f009f72f27434cc17818643cdb282516", "is_disabled": 0, "rental_uris": {"android": "https://dc.lft.to/lastmile_qr_scan", "ios": "https://dc.lft.to/lastmile_qr_scan"}, "fusion_lon": 0.0, "lat": 38.898312833333335, "bike_id": "f009f72f27434cc17818643cdb282516", "type": "electric_scooter", "is_reserved": 0, "lon": -77.02972083333333}, {"fusion_lat": 0.0, "name": "18eea99d3c66a37dc19293f474f6565c", "is_disabled": 0, "rental_uris": {"android": "https://dc.lft.to/lastmile_qr_scan", "ios": "https://dc.lft.to/lastmile_qr_scan"}, "fusion_lon": 0.0, "lat": 38.90418366666667, "bike_id": "18eea99d3c66a37dc19293f474f6565c", "type": "electric_scooter", "is_reserved": 0, "lon": -77.05321583333334}, {"fusion_lat": 0.0, "name": "561b10b013ab78d0cf9dd1b6d1cd32dc", "is_disabled": 0, "rental_uris": {"android": "https://dc.lft.to/lastmile_qr_scan", "ios": "https://dc.lft.to/lastmile_qr_scan"}, "fusion_lon": 0.0, "lat": 38.9588695, "bike_id": "561b10b013ab78d0cf9dd1b6d1cd32dc", "type": "electric_scooter", "is_reserved": 0, "lon": -77.027755}, {"fusion_lat": 0.0, "name": "e23364150111265adf2b8094933fc5c6", "is_disabled": 0, "rental_uris": {"android": "https://dc.lft.to/lastmile_qr_scan", "ios": "https://dc.lft.to/lastmile_qr_scan"}, "fusion_lon": 0.0, "lat": 38.83931116666667, "bike_id": "e23364150111265adf2b8094933fc5c6", "type": "electric_bike", "is_reserved": 0, "lon": -77.07898533333334}, {"fusion_lat": 0.0, "name": "0d4aceec77bc5176980f07b9fe3d949a", "is_disabled": 0, "rental_uris": {"android": "https://dc.lft.to/lastmile_qr_scan", "ios": "https://dc.lft.to/lastmile_qr_scan"}, "fusion_lon": 0.0, "lat": 38.89809066666667, "bike_id": "0d4aceec77bc5176980f07b9fe3d949a", "type": "electric_scooter", "is_reserved": 0, "lon": -77.02953316666667}, {"fusion_lat": 0.0, "name": "53f910f09f62a981049f0a3db5c06253", "is_disabled": 0, "rental_uris": {"android": "https://dc.lft.to/lastmile_qr_scan", "ios": "https://dc.lft.to/lastmile_qr_scan"}, "fusion_lon": 0.0, "lat": 38.898532833333334, "bike_id": "53f910f09f62a981049f0a3db5c06253", "type": "electric_scooter", "is_reserved": 0, "lon": -77.022185}, {"fusion_lat": 0.0, "name": "436594ac9ab5f7601b7de9adba5633ca", "is_disabled": 0, "rental_uris": {"android": "https://dc.lft.to/lastmile_qr_scan", "ios": "https://dc.lft.to/lastmile_qr_scan"}, "fusion_lon": 0.0, "lat": 38.90667333333333, "bike_id": "436594ac9ab5f7601b7de9adba5633ca", "type": "electric_scooter", "is_reserved": 0, "lon": -77.07128616666667}, {"fusion_lat": 0.0, "name": "3e7016f3076549fbe0710c972808045f", "is_disabled": 0, "rental_uris": {"android": "https://dc.lft.to/lastmile_qr_scan", "ios": "https://dc.lft.to/lastmile_qr_scan"}, "fusion_lon": 0.0, "lat": 38.91715966666667, "bike_id": "3e7016f3076549fbe0710c972808045f", "type": "electric_scooter", "is_reserved": 0, "lon": -77.03854433333333}, {"fusion_lat": 0.0, "name": "c0f32e5ef2abeb64fe4ea4c77ddbddf8", "is_disabled": 0, "rental_uris": {"android": "https://dc.lft.to/lastmile_qr_scan", "ios": "https://dc.lft.to/lastmile_qr_scan"}, "fusion_lon": 0.0, "lat": 38.885962166666665, "bike_id": "c0f32e5ef2abeb64fe4ea4c77ddbddf8", "type": "electric_scooter", "is_reserved": 0, "lon": -77.019586}, {"fusion_lat": 0.0, "name": "3d098dbad4d07bd4265e8f90d04866bb", "is_disabled": 0, "rental_uris": {"android": "https://dc.lft.to/lastmile_qr_scan", "ios": "https://dc.lft.to/lastmile_qr_scan"}, "fusion_lon": 0.0, "lat": 38.91769216666667, "bike_id": "3d098dbad4d07bd4265e8f90d04866bb", "type": "electric_scooter", "is_reserved": 0, "lon": -77.0477565}, {"fusion_lat": 0.0, "name": "2947a38d04ff2aa61327b428fcf9bb2b", "is_disabled": 0, "rental_uris": {"android": "https://dc.lft.to/lastmile_qr_scan", "ios": "https://dc.lft.to/lastmile_qr_scan"}, "fusion_lon": 0.0, "lat": 38.921881, "bike_id": "2947a38d04ff2aa61327b428fcf9bb2b", "type": "electric_scooter", "is_reserved": 0, "lon": -76.99624666666666}, {"fusion_lat": 0.0, "name": "bf85b40239f73ebb9a383e44c61087c5", "is_disabled": 0, "rental_uris": {"android": "https://dc.lft.to/lastmile_qr_scan", "ios": "https://dc.lft.to/lastmile_qr_scan"}, "fusion_lon": 0.0, "lat": 38.87454916666667, "bike_id": "bf85b40239f73ebb9a383e44c61087c5", "type": "electric_scooter", "is_reserved": 0, "lon": -77.0002835}, {"fusion_lat": 0.0, "name": "56f97e20a7a3acbdad33169cd3ce9103", "is_disabled": 0, "rental_uris": {"android": "https://dc.lft.to/lastmile_qr_scan", "ios": "https://dc.lft.to/lastmile_qr_scan"}, "fusion_lon": 0.0, "lat": 38.874609666666665, "bike_id": "56f97e20a7a3acbdad33169cd3ce9103", "type": "electric_scooter", "is_reserved": 0, "lon": -77.00040166666666}, {"fusion_lat": 0.0, "name": "e5d51739fd5739d756fe8132123025af", "is_disabled": 0, "rental_uris": {"android": "https://dc.lft.to/lastmile_qr_scan", "ios": "https://dc.lft.to/lastmile_qr_scan"}, "fusion_lon": 0.0, "lat": 38.909024333333335, "bike_id": "e5d51739fd5739d756fe8132123025af", "type": "electric_scooter", "is_reserved": 0, "lon": -77.02712016666666}, {"fusion_lat": 0.0, "name": "73a60f6a6a056203067666003f832a35", "is_disabled": 0, "rental_uris": {"android": "https://dc.lft.to/lastmile_qr_scan", "ios": "https://dc.lft.to/lastmile_qr_scan"}, "fusion_lon": 0.0, "lat": 38.97877833333333, "bike_id": "73a60f6a6a056203067666003f832a35", "type": "electric_bike", "is_reserved": 0, "lon": -77.06024166666667}, {"fusion_lat": 0.0, "name": "d8c27e99417e94d1fc45407859d99a56", "is_disabled": 0, "rental_uris": {"android": "https://dc.lft.to/lastmile_qr_scan", "ios": "https://dc.lft.to/lastmile_qr_scan"}, "fusion_lon": 0.0, "lat": 38.9013915, "bike_id": "d8c27e99417e94d1fc45407859d99a56", "type": "electric_scooter", "is_reserved": 0, "lon": -76.98662066666667}, {"fusion_lat": 0.0, "name": "ccb6da2cbea87a0db2c7fb64d5f31b77", "is_disabled": 0, "rental_uris": {"android": "https://dc.lft.to/lastmile_qr_scan", "ios": "https://dc.lft.to/lastmile_qr_scan"}, "fusion_lon": 0.0, "lat": 38.915528, "bike_id": "ccb6da2cbea87a0db2c7fb64d5f31b77", "type": "electric_scooter", "is_reserved": 0, "lon": -77.03866466666666}, {"fusion_lat": 0.0, "name": "dd8ea6b634d0fefd052e8735eeed44b9", "is_disabled": 0, "rental_uris": {"android": "https://dc.lft.to/lastmile_qr_scan", "ios": "https://dc.lft.to/lastmile_qr_scan"}, "fusion_lon": 0.0, "lat": 38.905866, "bike_id": "dd8ea6b634d0fefd052e8735eeed44b9", "type": "electric_scooter", "is_reserved": 0, "lon": -77.072727}, {"fusion_lat": 0.0, "name": "b1addb85aabe48a3a2b7e2994c7c82bc", "is_disabled": 0, "rental_uris": {"android": "https://dc.lft.to/lastmile_qr_scan", "ios": "https://dc.lft.to/lastmile_qr_scan"}, "fusion_lon": 0.0, "lat": 38.912570833333334, "bike_id": "b1addb85aabe48a3a2b7e2994c7c82bc", "type": "electric_scooter", "is_reserved": 0, "lon": -77.04450566666667}, {"fusion_lat": 0.0, "name": "7e02af37e3c318c5f15f1d16078f8ca6", "is_disabled": 0, "rental_uris": {"android": "https://dc.lft.to/lastmile_qr_scan", "ios": "https://dc.lft.to/lastmile_qr_scan"}, "fusion_lon": 0.0, "lat": 38.91631566666667, "bike_id": "7e02af37e3c318c5f15f1d16078f8ca6", "type": "electric_scooter", "is_reserved": 0, "lon": -77.047921}, {"fusion_lat": 0.0, "name": "91bc33ee8d6f4cc21ffe2d9cef813135", "is_disabled": 0, "rental_uris": {"android": "https://dc.lft.to/lastmile_qr_scan", "ios": "https://dc.lft.to/lastmile_qr_scan"}, "fusion_lon": 0.0, "lat": 39.036112833333334, "bike_id": "91bc33ee8d6f4cc21ffe2d9cef813135", "type": "electric_bike", "is_reserved": 0, "lon": -77.0554965}, {"fusion_lat": 0.0, "name": "40713995dc0dae70c8d43651deb3b86e", "is_disabled": 0, "rental_uris": {"android": "https://dc.lft.to/lastmile_qr_scan", "ios": "https://dc.lft.to/lastmile_qr_scan"}, "fusion_lon": 0.0, "lat": 38.89984616666667, "bike_id": "40713995dc0dae70c8d43651deb3b86e", "type": "electric_scooter", "is_reserved": 0, "lon": -76.98432366666667}, {"fusion_lat": 0.0, "name": "eb8f0eb97ed81c8c8df39b05ed4f477f", "is_disabled": 0, "rental_uris": {"android": "https://dc.lft.to/lastmile_qr_scan", "ios": "https://dc.lft.to/lastmile_qr_scan"}, "fusion_lon": 0.0, "lat": 38.91828, "bike_id": "eb8f0eb97ed81c8c8df39b05ed4f477f", "type": "electric_scooter", "is_reserved": 0, "lon": -77.04565933333333}, {"fusion_lat": 0.0, "name": "c848573dfaad7fb4ebb42e8be71e7e71", "is_disabled": 0, "rental_uris": {"android": "https://dc.lft.to/lastmile_qr_scan", "ios": "https://dc.lft.to/lastmile_qr_scan"}, "fusion_lon": 0.0, "lat": 38.910378333333334, "bike_id": "c848573dfaad7fb4ebb42e8be71e7e71", "type": "electric_scooter", "is_reserved": 0, "lon": -77.03826516666666}, {"fusion_lat": 0.0, "name": "333b98d38e6d67a818ffc47b9255bf34", "is_disabled": 0, "rental_uris": {"android": "https://dc.lft.to/lastmile_qr_scan", "ios": "https://dc.lft.to/lastmile_qr_scan"}, "fusion_lon": 0.0, "lat": 38.929795166666665, "bike_id": "333b98d38e6d67a818ffc47b9255bf34", "type": "electric_scooter", "is_reserved": 0, "lon": -77.02533883333334}, {"fusion_lat": 0.0, "name": "51291dbcffb1631dddcc036b6fa2cf28", "is_disabled": 0, "rental_uris": {"android": "https://dc.lft.to/lastmile_qr_scan", "ios": "https://dc.lft.to/lastmile_qr_scan"}, "fusion_lon": 0.0, "lat": 38.923706333333335, "bike_id": "51291dbcffb1631dddcc036b6fa2cf28", "type": "electric_scooter", "is_reserved": 0, "lon": -77.04333616666666}, {"fusion_lat": 0.0, "name": "d30ec45ef024b0c7c12dfd9e4361e496", "is_disabled": 0, "rental_uris": {"android": "https://dc.lft.to/lastmile_qr_scan", "ios": "https://dc.lft.to/lastmile_qr_scan"}, "fusion_lon": 0.0, "lat": 38.91921966666666, "bike_id": "d30ec45ef024b0c7c12dfd9e4361e496", "type": "electric_scooter", "is_reserved": 0, "lon": -77.00984}, {"fusion_lat": 0.0, "name": "3083e74a09a5a885d628ae1e26d17e34", "is_disabled": 0, "rental_uris": {"android": "https://dc.lft.to/lastmile_qr_scan", "ios": "https://dc.lft.to/lastmile_qr_scan"}, "fusion_lon": 0.0, "lat": 38.941868166666666, "bike_id": "3083e74a09a5a885d628ae1e26d17e34", "type": "electric_scooter", "is_reserved": 0, "lon": -77.02313833333334}, {"fusion_lat": 0.0, "name": "09a892b9018b643a182b2d8fa463450f", "is_disabled": 0, "rental_uris": {"android": "https://dc.lft.to/lastmile_qr_scan", "ios": "https://dc.lft.to/lastmile_qr_scan"}, "fusion_lon": 0.0, "lat": 38.922728, "bike_id": "09a892b9018b643a182b2d8fa463450f", "type": "electric_bike", "is_reserved": 0, "lon": -77.2330895}, {"fusion_lat": 0.0, "name": "ef6db4e7b0aaf467300cdee715194cac", "is_disabled": 0, "rental_uris": {"android": "https://dc.lft.to/lastmile_qr_scan", "ios": "https://dc.lft.to/lastmile_qr_scan"}, "fusion_lon": 0.0, "lat": 38.86446566666667, "bike_id": "ef6db4e7b0aaf467300cdee715194cac", "type": "electric_bike", "is_reserved": 0, "lon": -77.10684933333333}, {"fusion_lat": 0.0, "name": "f2309bfde8757c67dbde3d02af65e234", "is_disabled": 0, "rental_uris": {"android": "https://dc.lft.to/lastmile_qr_scan", "ios": "https://dc.lft.to/lastmile_qr_scan"}, "fusion_lon": 0.0, "lat": 38.905944, "bike_id": "f2309bfde8757c67dbde3d02af65e234", "type": "electric_scooter", "is_reserved": 0, "lon": -77.04707933333333}, {"fusion_lat": 0.0, "name": "3392a1e605c0696f907aaf31378fedad", "is_disabled": 0, "rental_uris": {"android": "https://dc.lft.to/lastmile_qr_scan", "ios": "https://dc.lft.to/lastmile_qr_scan"}, "fusion_lon": 0.0, "lat": 38.900295666666665, "bike_id": "3392a1e605c0696f907aaf31378fedad", "type": "electric_scooter", "is_reserved": 0, "lon": -77.0124575}, {"fusion_lat": 0.0, "name": "6e67a6d389892ef804604d15df82a50b", "is_disabled": 0, "rental_uris": {"android": "https://dc.lft.to/lastmile_qr_scan", "ios": "https://dc.lft.to/lastmile_qr_scan"}, "fusion_lon": 0.0, "lat": 38.87468466666667, "bike_id": "6e67a6d389892ef804604d15df82a50b", "type": "electric_scooter", "is_reserved": 0, "lon": -77.000541}, {"fusion_lat": 0.0, "name": "c2c577318d12e5dc8b9efe9c8b726747", "is_disabled": 0, "rental_uris": {"android": "https://dc.lft.to/lastmile_qr_scan", "ios": "https://dc.lft.to/lastmile_qr_scan"}, "fusion_lon": 0.0, "lat": 38.9126415, "bike_id": "c2c577318d12e5dc8b9efe9c8b726747", "type": "electric_scooter", "is_reserved": 0, "lon": -77.03145666666667}, {"fusion_lat": 0.0, "name": "fc7a7ed1ed8c9c67e46bc35d6ba8df6d", "is_disabled": 0, "rental_uris": {"android": "https://dc.lft.to/lastmile_qr_scan", "ios": "https://dc.lft.to/lastmile_qr_scan"}, "fusion_lon": 0.0, "lat": 38.9028155, "bike_id": "fc7a7ed1ed8c9c67e46bc35d6ba8df6d", "type": "electric_scooter", "is_reserved": 0, "lon": -77.0187675}, {"fusion_lat": 0.0, "name": "b543afb392c5df0d617edc10404d8ec3", "is_disabled": 0, "rental_uris": {"android": "https://dc.lft.to/lastmile_qr_scan", "ios": "https://dc.lft.to/lastmile_qr_scan"}, "fusion_lon": 0.0, "lat": 38.903643, "bike_id": "b543afb392c5df0d617edc10404d8ec3", "type": "electric_scooter", "is_reserved": 0, "lon": -77.03585516666666}, {"fusion_lat": 0.0, "name": "efff619118eb2762e9e037bbe08ec68f", "is_disabled": 0, "rental_uris": {"android": "https://dc.lft.to/lastmile_qr_scan", "ios": "https://dc.lft.to/lastmile_qr_scan"}, "fusion_lon": 0.0, "lat": 38.9096035, "bike_id": "efff619118eb2762e9e037bbe08ec68f", "type": "electric_scooter", "is_reserved": 0, "lon": -77.01440883333333}, {"fusion_lat": 0.0, "name": "335780bd3b0a789fd43284ff3122af59", "is_disabled": 0, "rental_uris": {"android": "https://dc.lft.to/lastmile_qr_scan", "ios": "https://dc.lft.to/lastmile_qr_scan"}, "fusion_lon": 0.0, "lat": 38.91596416666667, "bike_id": "335780bd3b0a789fd43284ff3122af59", "type": "electric_scooter", "is_reserved": 0, "lon": -77.02399866666667}, {"fusion_lat": 0.0, "name": "5c8d57e40380cebed69631d8c5ae9bb6", "is_disabled": 0, "rental_uris": {"android": "https://dc.lft.to/lastmile_qr_scan", "ios": "https://dc.lft.to/lastmile_qr_scan"}, "fusion_lon": 0.0, "lat": 38.88505266666667, "bike_id": "5c8d57e40380cebed69631d8c5ae9bb6", "type": "electric_scooter", "is_reserved": 0, "lon": -77.0209045}, {"fusion_lat": 0.0, "name": "344e6deb6f178145ec67c7ed57640bb8", "is_disabled": 0, "rental_uris": {"android": "https://dc.lft.to/lastmile_qr_scan", "ios": "https://dc.lft.to/lastmile_qr_scan"}, "fusion_lon": 0.0, "lat": 38.9168205, "bike_id": "344e6deb6f178145ec67c7ed57640bb8", "type": "electric_scooter", "is_reserved": 0, "lon": -77.01582466666666}, {"fusion_lat": 0.0, "name": "7ee5450e783a415b2284354acd2f083f", "is_disabled": 0, "rental_uris": {"android": "https://dc.lft.to/lastmile_qr_scan", "ios": "https://dc.lft.to/lastmile_qr_scan"}, "fusion_lon": 0.0, "lat": 38.95310833333333, "bike_id": "7ee5450e783a415b2284354acd2f083f", "type": "electric_scooter", "is_reserved": 0, "lon": -77.02248333333333}, {"fusion_lat": 0.0, "name": "019080a5bd75ebf9441f6b479bf8ad77", "is_disabled": 0, "rental_uris": {"android": "https://dc.lft.to/lastmile_qr_scan", "ios": "https://dc.lft.to/lastmile_qr_scan"}, "fusion_lon": 0.0, "lat": 38.8850355, "bike_id": "019080a5bd75ebf9441f6b479bf8ad77", "type": "electric_scooter", "is_reserved": 0, "lon": -77.00053716666666}, {"fusion_lat": 0.0, "name": "d9caaab5d2ee89ca6f90202c77045029", "is_disabled": 0, "rental_uris": {"android": "https://dc.lft.to/lastmile_qr_scan", "ios": "https://dc.lft.to/lastmile_qr_scan"}, "fusion_lon": 0.0, "lat": 38.855262833333335, "bike_id": "d9caaab5d2ee89ca6f90202c77045029", "type": "electric_bike", "is_reserved": 0, "lon": -77.12011233333334}, {"fusion_lat": 0.0, "name": "47390cc9210f0ae0b6d75f388fee1d00", "is_disabled": 0, "rental_uris": {"android": "https://dc.lft.to/lastmile_qr_scan", "ios": "https://dc.lft.to/lastmile_qr_scan"}, "fusion_lon": 0.0, "lat": 38.99226266666667, "bike_id": "47390cc9210f0ae0b6d75f388fee1d00", "type": "electric_bike", "is_reserved": 0, "lon": -76.94421183333333}, {"fusion_lat": 0.0, "name": "3180ac40bf73b78944c3e1077105fc37", "is_disabled": 0, "rental_uris": {"android": "https://dc.lft.to/lastmile_qr_scan", "ios": "https://dc.lft.to/lastmile_qr_scan"}, "fusion_lon": 0.0, "lat": 38.89671216666667, "bike_id": "3180ac40bf73b78944c3e1077105fc37", "type": "electric_scooter", "is_reserved": 0, "lon": -77.03248116666667}, {"fusion_lat": 0.0, "name": "6bfec34f233d8f7a4280c7b63c994020", "is_disabled": 0, "rental_uris": {"android": "https://dc.lft.to/lastmile_qr_scan", "ios": "https://dc.lft.to/lastmile_qr_scan"}, "fusion_lon": 0.0, "lat": 38.93021233333333, "bike_id": "6bfec34f233d8f7a4280c7b63c994020", "type": "electric_scooter", "is_reserved": 0, "lon": -77.037892}, {"fusion_lat": 0.0, "name": "a8d44a186f125ec5d4ae3a8dcda3e647", "is_disabled": 0, "rental_uris": {"android": "https://dc.lft.to/lastmile_qr_scan", "ios": "https://dc.lft.to/lastmile_qr_scan"}, "fusion_lon": 0.0, "lat": 38.9151865, "bike_id": "a8d44a186f125ec5d4ae3a8dcda3e647", "type": "electric_scooter", "is_reserved": 0, "lon": -77.01320833333334}, {"fusion_lat": 0.0, "name": "528f622ac61327011051c39098e3b139", "is_disabled": 0, "rental_uris": {"android": "https://dc.lft.to/lastmile_qr_scan", "ios": "https://dc.lft.to/lastmile_qr_scan"}, "fusion_lon": 0.0, "lat": 38.924688333333336, "bike_id": "528f622ac61327011051c39098e3b139", "type": "electric_scooter", "is_reserved": 0, "lon": -77.0363395}, {"fusion_lat": 0.0, "name": "e9c94d6e13f3029708b9bececc03953c", "is_disabled": 0, "rental_uris": {"android": "https://dc.lft.to/lastmile_qr_scan", "ios": "https://dc.lft.to/lastmile_qr_scan"}, "fusion_lon": 0.0, "lat": 38.90122266666667, "bike_id": "e9c94d6e13f3029708b9bececc03953c", "type": "electric_scooter", "is_reserved": 0, "lon": -77.06036133333333}, {"fusion_lat": 0.0, "name": "d1a6bf26628da7946a3dbea7bc6b72ef", "is_disabled": 0, "rental_uris": {"android": "https://dc.lft.to/lastmile_qr_scan", "ios": "https://dc.lft.to/lastmile_qr_scan"}, "fusion_lon": 0.0, "lat": 38.916743, "bike_id": "d1a6bf26628da7946a3dbea7bc6b72ef", "type": "electric_scooter", "is_reserved": 0, "lon": -77.01580216666666}, {"fusion_lat": 0.0, "name": "822b4ee5c0eb23e895ee19046b6f56e6", "is_disabled": 0, "rental_uris": {"android": "https://dc.lft.to/lastmile_qr_scan", "ios": "https://dc.lft.to/lastmile_qr_scan"}, "fusion_lon": 0.0, "lat": 38.80444383333333, "bike_id": "822b4ee5c0eb23e895ee19046b6f56e6", "type": "electric_bike", "is_reserved": 0, "lon": -77.13228433333333}, {"fusion_lat": 0.0, "name": "88b7ce0588617054bf18946b0fbee640", "is_disabled": 0, "rental_uris": {"android": "https://dc.lft.to/lastmile_qr_scan", "ios": "https://dc.lft.to/lastmile_qr_scan"}, "fusion_lon": 0.0, "lat": 38.89612366666667, "bike_id": "88b7ce0588617054bf18946b0fbee640", "type": "electric_scooter", "is_reserved": 0, "lon": -76.948135}, {"fusion_lat": 0.0, "name": "f34fbb09cfb743ec0aad70694bac9626", "is_disabled": 0, "rental_uris": {"android": "https://dc.lft.to/lastmile_qr_scan", "ios": "https://dc.lft.to/lastmile_qr_scan"}, "fusion_lon": 0.0, "lat": 38.918161166666664, "bike_id": "f34fbb09cfb743ec0aad70694bac9626", "type": "electric_scooter", "is_reserved": 0, "lon": -77.02612716666667}, {"fusion_lat": 0.0, "name": "7f8bfa26e14b3e46fdb87d8e4bc34cf7", "is_disabled": 0, "rental_uris": {"android": "https://dc.lft.to/lastmile_qr_scan", "ios": "https://dc.lft.to/lastmile_qr_scan"}, "fusion_lon": 0.0, "lat": 38.885834333333335, "bike_id": "7f8bfa26e14b3e46fdb87d8e4bc34cf7", "type": "electric_scooter", "is_reserved": 0, "lon": -76.92987616666667}, {"fusion_lat": 0.0, "name": "a7970ae7f17cb9d7128c2a5054ea612e", "is_disabled": 0, "rental_uris": {"android": "https://dc.lft.to/lastmile_qr_scan", "ios": "https://dc.lft.to/lastmile_qr_scan"}, "fusion_lon": 0.0, "lat": 38.9342035, "bike_id": "a7970ae7f17cb9d7128c2a5054ea612e", "type": "electric_scooter", "is_reserved": 0, "lon": -77.02842033333333}, {"fusion_lat": 0.0, "name": "b0ba9ef9a07e84d392bde42542266ec6", "is_disabled": 0, "rental_uris": {"android": "https://dc.lft.to/lastmile_qr_scan", "ios": "https://dc.lft.to/lastmile_qr_scan"}, "fusion_lon": 0.0, "lat": 38.9451205, "bike_id": "b0ba9ef9a07e84d392bde42542266ec6", "type": "electric_scooter", "is_reserved": 0, "lon": -77.0388415}, {"fusion_lat": 0.0, "name": "3d843420668da25c4c27c150f32d83fa", "is_disabled": 0, "rental_uris": {"android": "https://dc.lft.to/lastmile_qr_scan", "ios": "https://dc.lft.to/lastmile_qr_scan"}, "fusion_lon": 0.0, "lat": 38.920899166666665, "bike_id": "3d843420668da25c4c27c150f32d83fa", "type": "electric_scooter", "is_reserved": 0, "lon": -77.02422216666666}, {"fusion_lat": 0.0, "name": "aa8f2f55fb4d34b81cb260dcfdc1212a", "is_disabled": 0, "rental_uris": {"android": "https://dc.lft.to/lastmile_qr_scan", "ios": "https://dc.lft.to/lastmile_qr_scan"}, "fusion_lon": 0.0, "lat": 38.93702533333333, "bike_id": "aa8f2f55fb4d34b81cb260dcfdc1212a", "type": "electric_scooter", "is_reserved": 0, "lon": -77.061083}, {"fusion_lat": 0.0, "name": "43600e1317386adbcfe9ee6eb5050ab1", "is_disabled": 0, "rental_uris": {"android": "https://dc.lft.to/lastmile_qr_scan", "ios": "https://dc.lft.to/lastmile_qr_scan"}, "fusion_lon": 0.0, "lat": 38.8475505, "bike_id": "43600e1317386adbcfe9ee6eb5050ab1", "type": "electric_scooter", "is_reserved": 0, "lon": -76.99499366666667}, {"fusion_lat": 0.0, "name": "d45bb4152f5fe9aca8ccc5a0acd5cb3d", "is_disabled": 0, "rental_uris": {"android": "https://dc.lft.to/lastmile_qr_scan", "ios": "https://dc.lft.to/lastmile_qr_scan"}, "fusion_lon": 0.0, "lat": 38.90948933333333, "bike_id": "d45bb4152f5fe9aca8ccc5a0acd5cb3d", "type": "electric_scooter", "is_reserved": 0, "lon": -77.0442465}, {"fusion_lat": 0.0, "name": "10f0c81e59340d29196807e445c9e810", "is_disabled": 0, "rental_uris": {"android": "https://dc.lft.to/lastmile_qr_scan", "ios": "https://dc.lft.to/lastmile_qr_scan"}, "fusion_lon": 0.0, "lat": 38.8871835, "bike_id": "10f0c81e59340d29196807e445c9e810", "type": "electric_scooter", "is_reserved": 0, "lon": -76.9968955}, {"fusion_lat": 0.0, "name": "5c6053d6865b9601bf2ff84ce8c0242a", "is_disabled": 0, "rental_uris": {"android": "https://dc.lft.to/lastmile_qr_scan", "ios": "https://dc.lft.to/lastmile_qr_scan"}, "fusion_lon": 0.0, "lat": 38.918148333333335, "bike_id": "5c6053d6865b9601bf2ff84ce8c0242a", "type": "electric_scooter", "is_reserved": 0, "lon": -77.02587283333334}, {"fusion_lat": 0.0, "name": "77dcf3599172dcc989e9dcfeb7a5eaad", "is_disabled": 0, "rental_uris": {"android": "https://dc.lft.to/lastmile_qr_scan", "ios": "https://dc.lft.to/lastmile_qr_scan"}, "fusion_lon": 0.0, "lat": 38.918608666666664, "bike_id": "77dcf3599172dcc989e9dcfeb7a5eaad", "type": "electric_scooter", "is_reserved": 0, "lon": -77.04172366666667}, {"fusion_lat": 0.0, "name": "1440d04c6632c0d4a5bed096850c876c", "is_disabled": 0, "rental_uris": {"android": "https://dc.lft.to/lastmile_qr_scan", "ios": "https://dc.lft.to/lastmile_qr_scan"}, "fusion_lon": 0.0, "lat": 38.9411275, "bike_id": "1440d04c6632c0d4a5bed096850c876c", "type": "electric_scooter", "is_reserved": 0, "lon": -77.0347865}, {"fusion_lat": 0.0, "name": "19859c9cc52e1df618f024fc9889eddd", "is_disabled": 0, "rental_uris": {"android": "https://dc.lft.to/lastmile_qr_scan", "ios": "https://dc.lft.to/lastmile_qr_scan"}, "fusion_lon": 0.0, "lat": 38.927642, "bike_id": "19859c9cc52e1df618f024fc9889eddd", "type": "electric_scooter", "is_reserved": 0, "lon": -77.01621733333333}, {"fusion_lat": 0.0, "name": "93f4aa0d73b11ef5fabdbd5e288661a6", "is_disabled": 0, "rental_uris": {"android": "https://dc.lft.to/lastmile_qr_scan", "ios": "https://dc.lft.to/lastmile_qr_scan"}, "fusion_lon": 0.0, "lat": 38.91270516666667, "bike_id": "93f4aa0d73b11ef5fabdbd5e288661a6", "type": "electric_scooter", "is_reserved": 0, "lon": -77.04502933333333}, {"fusion_lat": 0.0, "name": "b46107f7e6ec7f70955de09f6d443032", "is_disabled": 0, "rental_uris": {"android": "https://dc.lft.to/lastmile_qr_scan", "ios": "https://dc.lft.to/lastmile_qr_scan"}, "fusion_lon": 0.0, "lat": 38.92601616666666, "bike_id": "b46107f7e6ec7f70955de09f6d443032", "type": "electric_scooter", "is_reserved": 0, "lon": -77.02152266666667}, {"fusion_lat": 0.0, "name": "949e1832ea581ea3bfece27b6fd6b73f", "is_disabled": 0, "rental_uris": {"android": "https://dc.lft.to/lastmile_qr_scan", "ios": "https://dc.lft.to/lastmile_qr_scan"}, "fusion_lon": 0.0, "lat": 38.897347, "bike_id": "949e1832ea581ea3bfece27b6fd6b73f", "type": "electric_scooter", "is_reserved": 0, "lon": -76.947214}, {"fusion_lat": 0.0, "name": "935006086ffbf0d3298be3c87c0059e5", "is_disabled": 0, "rental_uris": {"android": "https://dc.lft.to/lastmile_qr_scan", "ios": "https://dc.lft.to/lastmile_qr_scan"}, "fusion_lon": 0.0, "lat": 38.915675, "bike_id": "935006086ffbf0d3298be3c87c0059e5", "type": "electric_scooter", "is_reserved": 0, "lon": -77.06752566666667}, {"fusion_lat": 0.0, "name": "7f737eff5626bbb49beaf245e525318d", "is_disabled": 0, "rental_uris": {"android": "https://dc.lft.to/lastmile_qr_scan", "ios": "https://dc.lft.to/lastmile_qr_scan"}, "fusion_lon": 0.0, "lat": 38.94408416666667, "bike_id": "7f737eff5626bbb49beaf245e525318d", "type": "electric_scooter", "is_reserved": 0, "lon": -77.03208633333334}, {"fusion_lat": 0.0, "name": "ce27e6217160bd4707eab17f5b1513e4", "is_disabled": 0, "rental_uris": {"android": "https://dc.lft.to/lastmile_qr_scan", "ios": "https://dc.lft.to/lastmile_qr_scan"}, "fusion_lon": 0.0, "lat": 38.91326733333333, "bike_id": "ce27e6217160bd4707eab17f5b1513e4", "type": "electric_scooter", "is_reserved": 0, "lon": -77.05033233333333}, {"fusion_lat": 0.0, "name": "6bab7abf31ca7bb0e763c5f0021f3186", "is_disabled": 0, "rental_uris": {"android": "https://dc.lft.to/lastmile_qr_scan", "ios": "https://dc.lft.to/lastmile_qr_scan"}, "fusion_lon": 0.0, "lat": 38.87896833333333, "bike_id": "6bab7abf31ca7bb0e763c5f0021f3186", "type": "electric_scooter", "is_reserved": 0, "lon": -77.01363966666666}, {"fusion_lat": 0.0, "name": "341ac910bae644cd4db30c124e673bf4", "is_disabled": 0, "rental_uris": {"android": "https://dc.lft.to/lastmile_qr_scan", "ios": "https://dc.lft.to/lastmile_qr_scan"}, "fusion_lon": 0.0, "lat": 38.912081, "bike_id": "341ac910bae644cd4db30c124e673bf4", "type": "electric_scooter", "is_reserved": 0, "lon": -77.038561}, {"fusion_lat": 0.0, "name": "18a81975a858cb0fed8f8a154646884f", "is_disabled": 0, "rental_uris": {"android": "https://dc.lft.to/lastmile_qr_scan", "ios": "https://dc.lft.to/lastmile_qr_scan"}, "fusion_lon": 0.0, "lat": 38.88586683333333, "bike_id": "18a81975a858cb0fed8f8a154646884f", "type": "electric_scooter", "is_reserved": 0, "lon": -77.01718766666667}, {"fusion_lat": 0.0, "name": "cdb293bb2d0f4cefcebfe2086f52ef02", "is_disabled": 0, "rental_uris": {"android": "https://dc.lft.to/lastmile_qr_scan", "ios": "https://dc.lft.to/lastmile_qr_scan"}, "fusion_lon": 0.0, "lat": 38.9046615, "bike_id": "cdb293bb2d0f4cefcebfe2086f52ef02", "type": "electric_scooter", "is_reserved": 0, "lon": -77.02391316666667}, {"fusion_lat": 0.0, "name": "798c9d91edd93adc5f5b608c65b2944e", "is_disabled": 0, "rental_uris": {"android": "https://dc.lft.to/lastmile_qr_scan", "ios": "https://dc.lft.to/lastmile_qr_scan"}, "fusion_lon": 0.0, "lat": 38.919764666666666, "bike_id": "798c9d91edd93adc5f5b608c65b2944e", "type": "electric_scooter", "is_reserved": 0, "lon": -77.03259283333334}, {"fusion_lat": 0.0, "name": "b36f8715e986d77fc361b5222df4f849", "is_disabled": 0, "rental_uris": {"android": "https://dc.lft.to/lastmile_qr_scan", "ios": "https://dc.lft.to/lastmile_qr_scan"}, "fusion_lon": 0.0, "lat": 38.9505255, "bike_id": "b36f8715e986d77fc361b5222df4f849", "type": "electric_scooter", "is_reserved": 0, "lon": -77.0802805}, {"fusion_lat": 0.0, "name": "6f2528911c9fc7321c8dec609506afcf", "is_disabled": 0, "rental_uris": {"android": "https://dc.lft.to/lastmile_qr_scan", "ios": "https://dc.lft.to/lastmile_qr_scan"}, "fusion_lon": 0.0, "lat": 38.93398366666667, "bike_id": "6f2528911c9fc7321c8dec609506afcf", "type": "electric_scooter", "is_reserved": 0, "lon": -77.05742366666666}, {"fusion_lat": 0.0, "name": "153a670c6377f392e39c9effbf87a64c", "is_disabled": 0, "rental_uris": {"android": "https://dc.lft.to/lastmile_qr_scan", "ios": "https://dc.lft.to/lastmile_qr_scan"}, "fusion_lon": 0.0, "lat": 38.916915333333336, "bike_id": "153a670c6377f392e39c9effbf87a64c", "type": "electric_scooter", "is_reserved": 0, "lon": -77.02597666666666}, {"fusion_lat": 0.0, "name": "74ea16dbbb5cb3ea500c522822cf2b50", "is_disabled": 0, "rental_uris": {"android": "https://dc.lft.to/lastmile_qr_scan", "ios": "https://dc.lft.to/lastmile_qr_scan"}, "fusion_lon": 0.0, "lat": 38.89993466666667, "bike_id": "74ea16dbbb5cb3ea500c522822cf2b50", "type": "electric_scooter", "is_reserved": 0, "lon": -77.04970733333333}, {"fusion_lat": 0.0, "name": "0f7003f6aeaf0a6b65ebc1639e6e123c", "is_disabled": 0, "rental_uris": {"android": "https://dc.lft.to/lastmile_qr_scan", "ios": "https://dc.lft.to/lastmile_qr_scan"}, "fusion_lon": 0.0, "lat": 38.914133, "bike_id": "0f7003f6aeaf0a6b65ebc1639e6e123c", "type": "electric_scooter", "is_reserved": 0, "lon": -77.03149683333334}, {"fusion_lat": 0.0, "name": "45dad6655a07799ef397a9ed20eccbec", "is_disabled": 0, "rental_uris": {"android": "https://dc.lft.to/lastmile_qr_scan", "ios": "https://dc.lft.to/lastmile_qr_scan"}, "fusion_lon": 0.0, "lat": 38.9035645, "bike_id": "45dad6655a07799ef397a9ed20eccbec", "type": "electric_scooter", "is_reserved": 0, "lon": -77.06271016666666}, {"fusion_lat": 0.0, "name": "7db306e9f5af52ebb6304b06ff86f6bb", "is_disabled": 0, "rental_uris": {"android": "https://dc.lft.to/lastmile_qr_scan", "ios": "https://dc.lft.to/lastmile_qr_scan"}, "fusion_lon": 0.0, "lat": 38.86515283333333, "bike_id": "7db306e9f5af52ebb6304b06ff86f6bb", "type": "electric_bike", "is_reserved": 0, "lon": -76.973369}, {"fusion_lat": 0.0, "name": "c460a6bd763ab6185e7af2a6cd57d505", "is_disabled": 0, "rental_uris": {"android": "https://dc.lft.to/lastmile_qr_scan", "ios": "https://dc.lft.to/lastmile_qr_scan"}, "fusion_lon": 0.0, "lat": 38.934287833333336, "bike_id": "c460a6bd763ab6185e7af2a6cd57d505", "type": "electric_scooter", "is_reserved": 0, "lon": -77.03455583333333}, {"fusion_lat": 0.0, "name": "e27a1a2cde202378030dd022b81eb5be", "is_disabled": 0, "rental_uris": {"android": "https://dc.lft.to/lastmile_qr_scan", "ios": "https://dc.lft.to/lastmile_qr_scan"}, "fusion_lon": 0.0, "lat": 38.9001785, "bike_id": "e27a1a2cde202378030dd022b81eb5be", "type": "electric_scooter", "is_reserved": 0, "lon": -77.0434755}, {"fusion_lat": 0.0, "name": "8fc2d5277dd0b7ff32b186c2538fea37", "is_disabled": 0, "rental_uris": {"android": "https://dc.lft.to/lastmile_qr_scan", "ios": "https://dc.lft.to/lastmile_qr_scan"}, "fusion_lon": 0.0, "lat": 38.873722666666666, "bike_id": "8fc2d5277dd0b7ff32b186c2538fea37", "type": "electric_scooter", "is_reserved": 0, "lon": -77.0009225}, {"fusion_lat": 0.0, "name": "9cf20e5e419218ce6edc3a8c2d127e8d", "is_disabled": 0, "rental_uris": {"android": "https://dc.lft.to/lastmile_qr_scan", "ios": "https://dc.lft.to/lastmile_qr_scan"}, "fusion_lon": 0.0, "lat": 38.928683, "bike_id": "9cf20e5e419218ce6edc3a8c2d127e8d", "type": "electric_scooter", "is_reserved": 0, "lon": -77.03478683333333}, {"fusion_lat": 0.0, "name": "84a57f4bd020dc45fa17b03f643c4a1c", "is_disabled": 0, "rental_uris": {"android": "https://dc.lft.to/lastmile_qr_scan", "ios": "https://dc.lft.to/lastmile_qr_scan"}, "fusion_lon": 0.0, "lat": 38.905006166666666, "bike_id": "84a57f4bd020dc45fa17b03f643c4a1c", "type": "electric_scooter", "is_reserved": 0, "lon": -77.02954733333333}, {"fusion_lat": 0.0, "name": "44ef98c5cce6053954a61d0f545a9c97", "is_disabled": 0, "rental_uris": {"android": "https://dc.lft.to/lastmile_qr_scan", "ios": "https://dc.lft.to/lastmile_qr_scan"}, "fusion_lon": 0.0, "lat": 38.903799666666664, "bike_id": "44ef98c5cce6053954a61d0f545a9c97", "type": "electric_scooter", "is_reserved": 0, "lon": -77.04476066666666}, {"fusion_lat": 0.0, "name": "06d5ea9a135707f67703a908ad7b8fb2", "is_disabled": 0, "rental_uris": {"android": "https://dc.lft.to/lastmile_qr_scan", "ios": "https://dc.lft.to/lastmile_qr_scan"}, "fusion_lon": 0.0, "lat": 38.8650695, "bike_id": "06d5ea9a135707f67703a908ad7b8fb2", "type": "electric_scooter", "is_reserved": 0, "lon": -76.99007033333334}, {"fusion_lat": 0.0, "name": "989f1e1fb16ed8fcddb68ec26ca1e5ef", "is_disabled": 0, "rental_uris": {"android": "https://dc.lft.to/lastmile_qr_scan", "ios": "https://dc.lft.to/lastmile_qr_scan"}, "fusion_lon": 0.0, "lat": 38.91786716666667, "bike_id": "989f1e1fb16ed8fcddb68ec26ca1e5ef", "type": "electric_scooter", "is_reserved": 0, "lon": -77.023203}, {"fusion_lat": 0.0, "name": "24cd0be8740838965bd406720051b970", "is_disabled": 0, "rental_uris": {"android": "https://dc.lft.to/lastmile_qr_scan", "ios": "https://dc.lft.to/lastmile_qr_scan"}, "fusion_lon": 0.0, "lat": 38.9022065, "bike_id": "24cd0be8740838965bd406720051b970", "type": "electric_scooter", "is_reserved": 0, "lon": -77.04343566666667}, {"fusion_lat": 0.0, "name": "cbb079fffaa2e89fed50f710f78e3daf", "is_disabled": 0, "rental_uris": {"android": "https://dc.lft.to/lastmile_qr_scan", "ios": "https://dc.lft.to/lastmile_qr_scan"}, "fusion_lon": 0.0, "lat": 38.905565333333335, "bike_id": "cbb079fffaa2e89fed50f710f78e3daf", "type": "electric_scooter", "is_reserved": 0, "lon": -77.03121966666667}, {"fusion_lat": 0.0, "name": "48cd467d15b1b37b7d9c4fe4e617e8f3", "is_disabled": 0, "rental_uris": {"android": "https://dc.lft.to/lastmile_qr_scan", "ios": "https://dc.lft.to/lastmile_qr_scan"}, "fusion_lon": 0.0, "lat": 38.84910033333333, "bike_id": "48cd467d15b1b37b7d9c4fe4e617e8f3", "type": "electric_bike", "is_reserved": 0, "lon": -77.09982616666667}, {"fusion_lat": 0.0, "name": "27d34aad51a9a55a7bd18684fed52937", "is_disabled": 0, "rental_uris": {"android": "https://dc.lft.to/lastmile_qr_scan", "ios": "https://dc.lft.to/lastmile_qr_scan"}, "fusion_lon": 0.0, "lat": 38.93876866666667, "bike_id": "27d34aad51a9a55a7bd18684fed52937", "type": "electric_scooter", "is_reserved": 0, "lon": -77.02468483333334}, {"fusion_lat": 0.0, "name": "b5aefbdffb762dcbfe3775a1ca9f7eab", "is_disabled": 0, "rental_uris": {"android": "https://dc.lft.to/lastmile_qr_scan", "ios": "https://dc.lft.to/lastmile_qr_scan"}, "fusion_lon": 0.0, "lat": 38.90413216666666, "bike_id": "b5aefbdffb762dcbfe3775a1ca9f7eab", "type": "electric_scooter", "is_reserved": 0, "lon": -77.0189405}, {"fusion_lat": 0.0, "name": "ee0ff0978ef46e956722329a647f678d", "is_disabled": 0, "rental_uris": {"android": "https://dc.lft.to/lastmile_qr_scan", "ios": "https://dc.lft.to/lastmile_qr_scan"}, "fusion_lon": 0.0, "lat": 38.98784966666667, "bike_id": "ee0ff0978ef46e956722329a647f678d", "type": "electric_bike", "is_reserved": 0, "lon": -77.140915}, {"fusion_lat": 0.0, "name": "a1707f54a19b416846f3ae1d04496088", "is_disabled": 0, "rental_uris": {"android": "https://dc.lft.to/lastmile_qr_scan", "ios": "https://dc.lft.to/lastmile_qr_scan"}, "fusion_lon": 0.0, "lat": 38.92974566666667, "bike_id": "a1707f54a19b416846f3ae1d04496088", "type": "electric_scooter", "is_reserved": 0, "lon": -77.03142566666666}, {"fusion_lat": 0.0, "name": "50ca568631d45b2fdb708d0caf53848b", "is_disabled": 0, "rental_uris": {"android": "https://dc.lft.to/lastmile_qr_scan", "ios": "https://dc.lft.to/lastmile_qr_scan"}, "fusion_lon": 0.0, "lat": 38.8993995, "bike_id": "50ca568631d45b2fdb708d0caf53848b", "type": "electric_scooter", "is_reserved": 0, "lon": -77.0500175}, {"fusion_lat": 0.0, "name": "babd7c39f6aedd6720f2071e1b181507", "is_disabled": 0, "rental_uris": {"android": "https://dc.lft.to/lastmile_qr_scan", "ios": "https://dc.lft.to/lastmile_qr_scan"}, "fusion_lon": 0.0, "lat": 38.90229716666666, "bike_id": "babd7c39f6aedd6720f2071e1b181507", "type": "electric_scooter", "is_reserved": 0, "lon": -77.0601785}, {"fusion_lat": 0.0, "name": "0124d61578901a4e8934d75af4c11f7f", "is_disabled": 0, "rental_uris": {"android": "https://dc.lft.to/lastmile_qr_scan", "ios": "https://dc.lft.to/lastmile_qr_scan"}, "fusion_lon": 0.0, "lat": 38.904103, "bike_id": "0124d61578901a4e8934d75af4c11f7f", "type": "electric_scooter", "is_reserved": 0, "lon": -76.9732875}, {"fusion_lat": 0.0, "name": "5db576cc70d3208d3f6af2a08bc3aba2", "is_disabled": 0, "rental_uris": {"android": "https://dc.lft.to/lastmile_qr_scan", "ios": "https://dc.lft.to/lastmile_qr_scan"}, "fusion_lon": 0.0, "lat": 38.9415345, "bike_id": "5db576cc70d3208d3f6af2a08bc3aba2", "type": "electric_bike", "is_reserved": 0, "lon": -77.001884}, {"fusion_lat": 0.0, "name": "63f117a626a91504578b5da0a9d3e7dd", "is_disabled": 0, "rental_uris": {"android": "https://dc.lft.to/lastmile_qr_scan", "ios": "https://dc.lft.to/lastmile_qr_scan"}, "fusion_lon": 0.0, "lat": 38.913244666666664, "bike_id": "63f117a626a91504578b5da0a9d3e7dd", "type": "electric_scooter", "is_reserved": 0, "lon": -77.0318815}, {"fusion_lat": 0.0, "name": "2105fb4ef0ac2c3db7bcdb81391f9955", "is_disabled": 0, "rental_uris": {"android": "https://dc.lft.to/lastmile_qr_scan", "ios": "https://dc.lft.to/lastmile_qr_scan"}, "fusion_lon": 0.0, "lat": 38.93238933333333, "bike_id": "2105fb4ef0ac2c3db7bcdb81391f9955", "type": "electric_scooter", "is_reserved": 0, "lon": -77.04068333333333}, {"fusion_lat": 0.0, "name": "9818949dd859140a9ef2ca9768bb63c0", "is_disabled": 0, "rental_uris": {"android": "https://dc.lft.to/lastmile_qr_scan", "ios": "https://dc.lft.to/lastmile_qr_scan"}, "fusion_lon": 0.0, "lat": 38.88889066666667, "bike_id": "9818949dd859140a9ef2ca9768bb63c0", "type": "electric_bike", "is_reserved": 0, "lon": -77.11526833333333}, {"fusion_lat": 0.0, "name": "34530f16d04fc89eca408ab308b21d8d", "is_disabled": 0, "rental_uris": {"android": "https://dc.lft.to/lastmile_qr_scan", "ios": "https://dc.lft.to/lastmile_qr_scan"}, "fusion_lon": 0.0, "lat": 38.89852666666667, "bike_id": "34530f16d04fc89eca408ab308b21d8d", "type": "electric_scooter", "is_reserved": 0, "lon": -76.99272833333333}, {"fusion_lat": 0.0, "name": "6b3b9ad219c0044d86205cb7eab409ef", "is_disabled": 0, "rental_uris": {"android": "https://dc.lft.to/lastmile_qr_scan", "ios": "https://dc.lft.to/lastmile_qr_scan"}, "fusion_lon": 0.0, "lat": 38.918150833333335, "bike_id": "6b3b9ad219c0044d86205cb7eab409ef", "type": "electric_scooter", "is_reserved": 0, "lon": -77.030843}, {"fusion_lat": 0.0, "name": "006512a92eacb97a190e7dc84f21135e", "is_disabled": 0, "rental_uris": {"android": "https://dc.lft.to/lastmile_qr_scan", "ios": "https://dc.lft.to/lastmile_qr_scan"}, "fusion_lon": 0.0, "lat": 38.8871885, "bike_id": "006512a92eacb97a190e7dc84f21135e", "type": "electric_scooter", "is_reserved": 0, "lon": -77.01984016666667}, {"fusion_lat": 0.0, "name": "3a156f7595aba804e7e88def2197d9e5", "is_disabled": 0, "rental_uris": {"android": "https://dc.lft.to/lastmile_qr_scan", "ios": "https://dc.lft.to/lastmile_qr_scan"}, "fusion_lon": 0.0, "lat": 38.91395266666667, "bike_id": "3a156f7595aba804e7e88def2197d9e5", "type": "electric_scooter", "is_reserved": 0, "lon": -77.03186883333333}, {"fusion_lat": 0.0, "name": "482a8655c9a671f37eea3f77451a821d", "is_disabled": 0, "rental_uris": {"android": "https://dc.lft.to/lastmile_qr_scan", "ios": "https://dc.lft.to/lastmile_qr_scan"}, "fusion_lon": 0.0, "lat": 38.880669833333336, "bike_id": "482a8655c9a671f37eea3f77451a821d", "type": "electric_scooter", "is_reserved": 0, "lon": -76.93222033333333}, {"fusion_lat": 0.0, "name": "784eb9768b8a2361f7f9f0df94d8a757", "is_disabled": 0, "rental_uris": {"android": "https://dc.lft.to/lastmile_qr_scan", "ios": "https://dc.lft.to/lastmile_qr_scan"}, "fusion_lon": 0.0, "lat": 38.91254383333333, "bike_id": "784eb9768b8a2361f7f9f0df94d8a757", "type": "electric_scooter", "is_reserved": 0, "lon": -77.0333415}, {"fusion_lat": 0.0, "name": "6b4919e1a68f0c89be65042ee00db286", "is_disabled": 0, "rental_uris": {"android": "https://dc.lft.to/lastmile_qr_scan", "ios": "https://dc.lft.to/lastmile_qr_scan"}, "fusion_lon": 0.0, "lat": 38.903435333333334, "bike_id": "6b4919e1a68f0c89be65042ee00db286", "type": "electric_scooter", "is_reserved": 0, "lon": -77.0328115}, {"fusion_lat": 0.0, "name": "5710776a2494c409b7833aea4454cf2e", "is_disabled": 0, "rental_uris": {"android": "https://dc.lft.to/lastmile_qr_scan", "ios": "https://dc.lft.to/lastmile_qr_scan"}, "fusion_lon": 0.0, "lat": 38.9348905, "bike_id": "5710776a2494c409b7833aea4454cf2e", "type": "electric_scooter", "is_reserved": 0, "lon": -77.03083983333333}, {"fusion_lat": 0.0, "name": "d9c3f94054b38e75e342f4bf0e2fbf1d", "is_disabled": 0, "rental_uris": {"android": "https://dc.lft.to/lastmile_qr_scan", "ios": "https://dc.lft.to/lastmile_qr_scan"}, "fusion_lon": 0.0, "lat": 38.899944166666664, "bike_id": "d9c3f94054b38e75e342f4bf0e2fbf1d", "type": "electric_scooter", "is_reserved": 0, "lon": -77.01632416666666}, {"fusion_lat": 0.0, "name": "ea73a4587b42fb7358eb84a03cec75c8", "is_disabled": 0, "rental_uris": {"android": "https://dc.lft.to/lastmile_qr_scan", "ios": "https://dc.lft.to/lastmile_qr_scan"}, "fusion_lon": 0.0, "lat": 38.925557833333336, "bike_id": "ea73a4587b42fb7358eb84a03cec75c8", "type": "electric_scooter", "is_reserved": 0, "lon": -77.02279816666666}, {"fusion_lat": 0.0, "name": "416de30500784719e152c0042dc2e445", "is_disabled": 0, "rental_uris": {"android": "https://dc.lft.to/lastmile_qr_scan", "ios": "https://dc.lft.to/lastmile_qr_scan"}, "fusion_lon": 0.0, "lat": 38.91572566666667, "bike_id": "416de30500784719e152c0042dc2e445", "type": "electric_scooter", "is_reserved": 0, "lon": -77.05004433333333}, {"fusion_lat": 0.0, "name": "8deee073c468f81640e7b1986c42cf20", "is_disabled": 0, "rental_uris": {"android": "https://dc.lft.to/lastmile_qr_scan", "ios": "https://dc.lft.to/lastmile_qr_scan"}, "fusion_lon": 0.0, "lat": 38.9250465, "bike_id": "8deee073c468f81640e7b1986c42cf20", "type": "electric_scooter", "is_reserved": 0, "lon": -77.03816866666666}, {"fusion_lat": 0.0, "name": "c7c7beaf1967cae3c2a8a992744564a7", "is_disabled": 0, "rental_uris": {"android": "https://dc.lft.to/lastmile_qr_scan", "ios": "https://dc.lft.to/lastmile_qr_scan"}, "fusion_lon": 0.0, "lat": 38.9095665, "bike_id": "c7c7beaf1967cae3c2a8a992744564a7", "type": "electric_bike", "is_reserved": 0, "lon": -77.228878}, {"fusion_lat": 0.0, "name": "0e160dbaed7d9d3ef804eb14d8f2addf", "is_disabled": 0, "rental_uris": {"android": "https://dc.lft.to/lastmile_qr_scan", "ios": "https://dc.lft.to/lastmile_qr_scan"}, "fusion_lon": 0.0, "lat": 38.90878333333333, "bike_id": "0e160dbaed7d9d3ef804eb14d8f2addf", "type": "electric_scooter", "is_reserved": 0, "lon": -77.04348766666666}, {"fusion_lat": 0.0, "name": "f1a5f62b4b9f0b28a0e7978fb74022e1", "is_disabled": 0, "rental_uris": {"android": "https://dc.lft.to/lastmile_qr_scan", "ios": "https://dc.lft.to/lastmile_qr_scan"}, "fusion_lon": 0.0, "lat": 38.9206895, "bike_id": "f1a5f62b4b9f0b28a0e7978fb74022e1", "type": "electric_scooter", "is_reserved": 0, "lon": -77.02408216666667}, {"fusion_lat": 0.0, "name": "67e39f36c388a4db50037550b0122108", "is_disabled": 0, "rental_uris": {"android": "https://dc.lft.to/lastmile_qr_scan", "ios": "https://dc.lft.to/lastmile_qr_scan"}, "fusion_lon": 0.0, "lat": 38.907531666666664, "bike_id": "67e39f36c388a4db50037550b0122108", "type": "electric_scooter", "is_reserved": 0, "lon": -76.99879933333334}, {"fusion_lat": 0.0, "name": "52cd557c46a12acfe5a530595c2660c0", "is_disabled": 0, "rental_uris": {"android": "https://dc.lft.to/lastmile_qr_scan", "ios": "https://dc.lft.to/lastmile_qr_scan"}, "fusion_lon": 0.0, "lat": 38.8934855, "bike_id": "52cd557c46a12acfe5a530595c2660c0", "type": "electric_scooter", "is_reserved": 0, "lon": -77.0398655}, {"fusion_lat": 0.0, "name": "df1b9181a0207067f3e877dbfdd9159d", "is_disabled": 0, "rental_uris": {"android": "https://dc.lft.to/lastmile_qr_scan", "ios": "https://dc.lft.to/lastmile_qr_scan"}, "fusion_lon": 0.0, "lat": 38.89897233333333, "bike_id": "df1b9181a0207067f3e877dbfdd9159d", "type": "electric_scooter", "is_reserved": 0, "lon": -77.02595983333333}, {"fusion_lat": 0.0, "name": "e4c22f5655b474d3ec01feef0fd406c1", "is_disabled": 0, "rental_uris": {"android": "https://dc.lft.to/lastmile_qr_scan", "ios": "https://dc.lft.to/lastmile_qr_scan"}, "fusion_lon": 0.0, "lat": 38.926944, "bike_id": "e4c22f5655b474d3ec01feef0fd406c1", "type": "electric_scooter", "is_reserved": 0, "lon": -77.02128133333333}, {"fusion_lat": 0.0, "name": "2b4a035dcae5e46b97325bfa1b6d7f8e", "is_disabled": 0, "rental_uris": {"android": "https://dc.lft.to/lastmile_qr_scan", "ios": "https://dc.lft.to/lastmile_qr_scan"}, "fusion_lon": 0.0, "lat": 38.90500316666667, "bike_id": "2b4a035dcae5e46b97325bfa1b6d7f8e", "type": "electric_scooter", "is_reserved": 0, "lon": -76.9795565}, {"fusion_lat": 0.0, "name": "270b1c7b830af6e639017ff2d1cd9d54", "is_disabled": 0, "rental_uris": {"android": "https://dc.lft.to/lastmile_qr_scan", "ios": "https://dc.lft.to/lastmile_qr_scan"}, "fusion_lon": 0.0, "lat": 38.9197665, "bike_id": "270b1c7b830af6e639017ff2d1cd9d54", "type": "electric_scooter", "is_reserved": 0, "lon": -77.03265216666667}, {"fusion_lat": 0.0, "name": "2b9ba1b6b8f90de9568ce9de9bc20860", "is_disabled": 0, "rental_uris": {"android": "https://dc.lft.to/lastmile_qr_scan", "ios": "https://dc.lft.to/lastmile_qr_scan"}, "fusion_lon": 0.0, "lat": 38.9393775, "bike_id": "2b9ba1b6b8f90de9568ce9de9bc20860", "type": "electric_bike", "is_reserved": 0, "lon": -77.03680716666666}, {"fusion_lat": 0.0, "name": "7f8926af904a72308d5cd8b5dd46f3a1", "is_disabled": 0, "rental_uris": {"android": "https://dc.lft.to/lastmile_qr_scan", "ios": "https://dc.lft.to/lastmile_qr_scan"}, "fusion_lon": 0.0, "lat": 38.86137516666667, "bike_id": "7f8926af904a72308d5cd8b5dd46f3a1", "type": "electric_bike", "is_reserved": 0, "lon": -76.97172333333333}, {"fusion_lat": 0.0, "name": "e24445979ff32a48e70a321b3675d203", "is_disabled": 0, "rental_uris": {"android": "https://dc.lft.to/lastmile_qr_scan", "ios": "https://dc.lft.to/lastmile_qr_scan"}, "fusion_lon": 0.0, "lat": 38.949806, "bike_id": "e24445979ff32a48e70a321b3675d203", "type": "electric_scooter", "is_reserved": 0, "lon": -77.02699516666667}, {"fusion_lat": 0.0, "name": "5b429fb9a8e3b388413b758982391518", "is_disabled": 0, "rental_uris": {"android": "https://dc.lft.to/lastmile_qr_scan", "ios": "https://dc.lft.to/lastmile_qr_scan"}, "fusion_lon": 0.0, "lat": 38.9088105, "bike_id": "5b429fb9a8e3b388413b758982391518", "type": "electric_scooter", "is_reserved": 0, "lon": -77.04328133333334}, {"fusion_lat": 0.0, "name": "a7039016ca2c5eed54d58504792eae7d", "is_disabled": 0, "rental_uris": {"android": "https://dc.lft.to/lastmile_qr_scan", "ios": "https://dc.lft.to/lastmile_qr_scan"}, "fusion_lon": 0.0, "lat": 38.922556, "bike_id": "a7039016ca2c5eed54d58504792eae7d", "type": "electric_scooter", "is_reserved": 0, "lon": -77.01841433333334}, {"fusion_lat": 0.0, "name": "181bb99f51aa407614139898ea50abd1", "is_disabled": 0, "rental_uris": {"android": "https://dc.lft.to/lastmile_qr_scan", "ios": "https://dc.lft.to/lastmile_qr_scan"}, "fusion_lon": 0.0, "lat": 38.911763666666666, "bike_id": "181bb99f51aa407614139898ea50abd1", "type": "electric_scooter", "is_reserved": 0, "lon": -77.06862766666667}, {"fusion_lat": 0.0, "name": "f5a4b9634d5174315106d5b1c2e88eb1", "is_disabled": 0, "rental_uris": {"android": "https://dc.lft.to/lastmile_qr_scan", "ios": "https://dc.lft.to/lastmile_qr_scan"}, "fusion_lon": 0.0, "lat": 38.9351965, "bike_id": "f5a4b9634d5174315106d5b1c2e88eb1", "type": "electric_scooter", "is_reserved": 0, "lon": -77.07291416666666}, {"fusion_lat": 0.0, "name": "fc6355d24df33a7c3ecb03288173522d", "is_disabled": 0, "rental_uris": {"android": "https://dc.lft.to/lastmile_qr_scan", "ios": "https://dc.lft.to/lastmile_qr_scan"}, "fusion_lon": 0.0, "lat": 38.921064, "bike_id": "fc6355d24df33a7c3ecb03288173522d", "type": "electric_scooter", "is_reserved": 0, "lon": -77.07470983333333}, {"fusion_lat": 0.0, "name": "55c04c55a75b1d1f552dc6dee3bc5ef9", "is_disabled": 0, "rental_uris": {"android": "https://dc.lft.to/lastmile_qr_scan", "ios": "https://dc.lft.to/lastmile_qr_scan"}, "fusion_lon": 0.0, "lat": 38.8739405, "bike_id": "55c04c55a75b1d1f552dc6dee3bc5ef9", "type": "electric_scooter", "is_reserved": 0, "lon": -77.00030716666667}, {"fusion_lat": 0.0, "name": "fc88507e24199b54bea67e323dd16226", "is_disabled": 0, "rental_uris": {"android": "https://dc.lft.to/lastmile_qr_scan", "ios": "https://dc.lft.to/lastmile_qr_scan"}, "fusion_lon": 0.0, "lat": 38.916966333333335, "bike_id": "fc88507e24199b54bea67e323dd16226", "type": "electric_scooter", "is_reserved": 0, "lon": -77.00113633333333}, {"fusion_lat": 0.0, "name": "b0d245001ae8e85d0cd5e5ac889de448", "is_disabled": 0, "rental_uris": {"android": "https://dc.lft.to/lastmile_qr_scan", "ios": "https://dc.lft.to/lastmile_qr_scan"}, "fusion_lon": 0.0, "lat": 38.922579999999996, "bike_id": "b0d245001ae8e85d0cd5e5ac889de448", "type": "electric_scooter", "is_reserved": 0, "lon": -77.018392}, {"fusion_lat": 0.0, "name": "24c504f77d1a580c0989d08adae84dd8", "is_disabled": 0, "rental_uris": {"android": "https://dc.lft.to/lastmile_qr_scan", "ios": "https://dc.lft.to/lastmile_qr_scan"}, "fusion_lon": 0.0, "lat": 38.933158166666665, "bike_id": "24c504f77d1a580c0989d08adae84dd8", "type": "electric_scooter", "is_reserved": 0, "lon": -77.0275595}, {"fusion_lat": 0.0, "name": "03066e4f7b76c3efc49410bbe657576a", "is_disabled": 0, "rental_uris": {"android": "https://dc.lft.to/lastmile_qr_scan", "ios": "https://dc.lft.to/lastmile_qr_scan"}, "fusion_lon": 0.0, "lat": 38.904981666666664, "bike_id": "03066e4f7b76c3efc49410bbe657576a", "type": "electric_scooter", "is_reserved": 0, "lon": -77.02948366666666}, {"fusion_lat": 0.0, "name": "d240c08d2b76e7d8abd57aee2cd70825", "is_disabled": 0, "rental_uris": {"android": "https://dc.lft.to/lastmile_qr_scan", "ios": "https://dc.lft.to/lastmile_qr_scan"}, "fusion_lon": 0.0, "lat": 38.90025816666667, "bike_id": "d240c08d2b76e7d8abd57aee2cd70825", "type": "electric_scooter", "is_reserved": 0, "lon": -77.00031466666667}, {"fusion_lat": 0.0, "name": "6737b7564102f1c09a952e42df59c36e", "is_disabled": 0, "rental_uris": {"android": "https://dc.lft.to/lastmile_qr_scan", "ios": "https://dc.lft.to/lastmile_qr_scan"}, "fusion_lon": 0.0, "lat": 38.9002325, "bike_id": "6737b7564102f1c09a952e42df59c36e", "type": "electric_scooter", "is_reserved": 0, "lon": -76.99556516666667}, {"fusion_lat": 0.0, "name": "eafa7cc2cc9afb439a18669c6056a12a", "is_disabled": 0, "rental_uris": {"android": "https://dc.lft.to/lastmile_qr_scan", "ios": "https://dc.lft.to/lastmile_qr_scan"}, "fusion_lon": 0.0, "lat": 38.9286845, "bike_id": "eafa7cc2cc9afb439a18669c6056a12a", "type": "electric_scooter", "is_reserved": 0, "lon": -77.03478383333334}, {"fusion_lat": 0.0, "name": "71e620107a6d8adfe220795dc5bd6b10", "is_disabled": 0, "rental_uris": {"android": "https://dc.lft.to/lastmile_qr_scan", "ios": "https://dc.lft.to/lastmile_qr_scan"}, "fusion_lon": 0.0, "lat": 38.91565216666667, "bike_id": "71e620107a6d8adfe220795dc5bd6b10", "type": "electric_scooter", "is_reserved": 0, "lon": -77.00757}, {"fusion_lat": 0.0, "name": "c8b14d25e7fb6fdcc19570bdf704c493", "is_disabled": 0, "rental_uris": {"android": "https://dc.lft.to/lastmile_qr_scan", "ios": "https://dc.lft.to/lastmile_qr_scan"}, "fusion_lon": 0.0, "lat": 38.92104533333333, "bike_id": "c8b14d25e7fb6fdcc19570bdf704c493", "type": "electric_scooter", "is_reserved": 0, "lon": -77.039234}, {"fusion_lat": 0.0, "name": "34ecc1fee6971aad78e469f676180973", "is_disabled": 0, "rental_uris": {"android": "https://dc.lft.to/lastmile_qr_scan", "ios": "https://dc.lft.to/lastmile_qr_scan"}, "fusion_lon": 0.0, "lat": 38.914657, "bike_id": "34ecc1fee6971aad78e469f676180973", "type": "electric_scooter", "is_reserved": 0, "lon": -77.03906483333333}, {"fusion_lat": 0.0, "name": "8e213954062b1651d40bb1e743104d16", "is_disabled": 0, "rental_uris": {"android": "https://dc.lft.to/lastmile_qr_scan", "ios": "https://dc.lft.to/lastmile_qr_scan"}, "fusion_lon": 0.0, "lat": 38.928757, "bike_id": "8e213954062b1651d40bb1e743104d16", "type": "electric_scooter", "is_reserved": 0, "lon": -77.037916}, {"fusion_lat": 0.0, "name": "a093ac69dba065d7e8e623afd2f1af01", "is_disabled": 0, "rental_uris": {"android": "https://dc.lft.to/lastmile_qr_scan", "ios": "https://dc.lft.to/lastmile_qr_scan"}, "fusion_lon": 0.0, "lat": 38.9041025, "bike_id": "a093ac69dba065d7e8e623afd2f1af01", "type": "electric_scooter", "is_reserved": 0, "lon": -76.97330166666667}, {"fusion_lat": 0.0, "name": "3b4d4bcb7323fd066095f59012311644", "is_disabled": 0, "rental_uris": {"android": "https://dc.lft.to/lastmile_qr_scan", "ios": "https://dc.lft.to/lastmile_qr_scan"}, "fusion_lon": 0.0, "lat": 38.9225355, "bike_id": "3b4d4bcb7323fd066095f59012311644", "type": "electric_scooter", "is_reserved": 0, "lon": -77.01841183333333}, {"fusion_lat": 0.0, "name": "859ac278994298e549c803722a5dc8b9", "is_disabled": 0, "rental_uris": {"android": "https://dc.lft.to/lastmile_qr_scan", "ios": "https://dc.lft.to/lastmile_qr_scan"}, "fusion_lon": 0.0, "lat": 38.834089166666665, "bike_id": "859ac278994298e549c803722a5dc8b9", "type": "electric_bike", "is_reserved": 0, "lon": -77.00326833333334}, {"fusion_lat": 0.0, "name": "d89b1062f50bdfc525a8ba0823927213", "is_disabled": 0, "rental_uris": {"android": "https://dc.lft.to/lastmile_qr_scan", "ios": "https://dc.lft.to/lastmile_qr_scan"}, "fusion_lon": 0.0, "lat": 38.9000585, "bike_id": "d89b1062f50bdfc525a8ba0823927213", "type": "electric_scooter", "is_reserved": 0, "lon": -77.01239683333333}, {"fusion_lat": 0.0, "name": "c7a2385c856d0be488383301a1c42603", "is_disabled": 0, "rental_uris": {"android": "https://dc.lft.to/lastmile_qr_scan", "ios": "https://dc.lft.to/lastmile_qr_scan"}, "fusion_lon": 0.0, "lat": 38.89440416666667, "bike_id": "c7a2385c856d0be488383301a1c42603", "type": "electric_scooter", "is_reserved": 0, "lon": -76.974867}, {"fusion_lat": 0.0, "name": "dda30a6ceca60eeb53a2cfc20c011b52", "is_disabled": 0, "rental_uris": {"android": "https://dc.lft.to/lastmile_qr_scan", "ios": "https://dc.lft.to/lastmile_qr_scan"}, "fusion_lon": 0.0, "lat": 38.899807333333335, "bike_id": "dda30a6ceca60eeb53a2cfc20c011b52", "type": "electric_scooter", "is_reserved": 0, "lon": -77.02215616666666}, {"fusion_lat": 0.0, "name": "a2b607a82800cb4874f290a15819f222", "is_disabled": 0, "rental_uris": {"android": "https://dc.lft.to/lastmile_qr_scan", "ios": "https://dc.lft.to/lastmile_qr_scan"}, "fusion_lon": 0.0, "lat": 38.87761283333333, "bike_id": "a2b607a82800cb4874f290a15819f222", "type": "electric_scooter", "is_reserved": 0, "lon": -76.99388633333334}, {"fusion_lat": 0.0, "name": "51291cf2a5853edf9d3957d96372077d", "is_disabled": 0, "rental_uris": {"android": "https://dc.lft.to/lastmile_qr_scan", "ios": "https://dc.lft.to/lastmile_qr_scan"}, "fusion_lon": 0.0, "lat": 38.897582, "bike_id": "51291cf2a5853edf9d3957d96372077d", "type": "electric_scooter", "is_reserved": 0, "lon": -77.05133433333333}, {"fusion_lat": 0.0, "name": "5e2b1888b24eb31d9f8cdbf7e2389ae5", "is_disabled": 0, "rental_uris": {"android": "https://dc.lft.to/lastmile_qr_scan", "ios": "https://dc.lft.to/lastmile_qr_scan"}, "fusion_lon": 0.0, "lat": 38.90446933333333, "bike_id": "5e2b1888b24eb31d9f8cdbf7e2389ae5", "type": "electric_scooter", "is_reserved": 0, "lon": -77.040646}, {"fusion_lat": 0.0, "name": "8fd620d6eaebf7413ec87dc046b141ba", "is_disabled": 0, "rental_uris": {"android": "https://dc.lft.to/lastmile_qr_scan", "ios": "https://dc.lft.to/lastmile_qr_scan"}, "fusion_lon": 0.0, "lat": 38.93303933333333, "bike_id": "8fd620d6eaebf7413ec87dc046b141ba", "type": "electric_scooter", "is_reserved": 0, "lon": -77.0308405}, {"fusion_lat": 0.0, "name": "379b318ae91093d660654561273ce112", "is_disabled": 0, "rental_uris": {"android": "https://dc.lft.to/lastmile_qr_scan", "ios": "https://dc.lft.to/lastmile_qr_scan"}, "fusion_lon": 0.0, "lat": 38.905088666666664, "bike_id": "379b318ae91093d660654561273ce112", "type": "electric_scooter", "is_reserved": 0, "lon": -77.0483125}, {"fusion_lat": 0.0, "name": "09ee92713e46c93aedd8898d801e3be9", "is_disabled": 0, "rental_uris": {"android": "https://dc.lft.to/lastmile_qr_scan", "ios": "https://dc.lft.to/lastmile_qr_scan"}, "fusion_lon": 0.0, "lat": 38.8575635, "bike_id": "09ee92713e46c93aedd8898d801e3be9", "type": "electric_bike", "is_reserved": 0, "lon": -76.98763583333333}, {"fusion_lat": 0.0, "name": "4e1216b6a0e3cbe8b95cd09f66b38e28", "is_disabled": 0, "rental_uris": {"android": "https://dc.lft.to/lastmile_qr_scan", "ios": "https://dc.lft.to/lastmile_qr_scan"}, "fusion_lon": 0.0, "lat": 38.94327883333333, "bike_id": "4e1216b6a0e3cbe8b95cd09f66b38e28", "type": "electric_scooter", "is_reserved": 0, "lon": -77.06156633333333}, {"fusion_lat": 0.0, "name": "9a6aad5255f9aa448aecbd72b5662672", "is_disabled": 0, "rental_uris": {"android": "https://dc.lft.to/lastmile_qr_scan", "ios": "https://dc.lft.to/lastmile_qr_scan"}, "fusion_lon": 0.0, "lat": 38.8838475, "bike_id": "9a6aad5255f9aa448aecbd72b5662672", "type": "electric_scooter", "is_reserved": 0, "lon": -76.93052733333333}, {"fusion_lat": 0.0, "name": "5a4b2bbf468b5217bc42e6562e3b5acf", "is_disabled": 0, "rental_uris": {"android": "https://dc.lft.to/lastmile_qr_scan", "ios": "https://dc.lft.to/lastmile_qr_scan"}, "fusion_lon": 0.0, "lat": 38.91342133333333, "bike_id": "5a4b2bbf468b5217bc42e6562e3b5acf", "type": "electric_scooter", "is_reserved": 0, "lon": -77.03208066666667}, {"fusion_lat": 0.0, "name": "e131a85c8399362c1efef74a944a7dfb", "is_disabled": 0, "rental_uris": {"android": "https://dc.lft.to/lastmile_qr_scan", "ios": "https://dc.lft.to/lastmile_qr_scan"}, "fusion_lon": 0.0, "lat": 38.91106833333333, "bike_id": "e131a85c8399362c1efef74a944a7dfb", "type": "electric_scooter", "is_reserved": 0, "lon": -77.037404}, {"fusion_lat": 0.0, "name": "dac08101dce6023b126955f6a1a66773", "is_disabled": 0, "rental_uris": {"android": "https://dc.lft.to/lastmile_qr_scan", "ios": "https://dc.lft.to/lastmile_qr_scan"}, "fusion_lon": 0.0, "lat": 38.933943, "bike_id": "dac08101dce6023b126955f6a1a66773", "type": "electric_scooter", "is_reserved": 0, "lon": -77.0284425}, {"fusion_lat": 0.0, "name": "fcbcece0b1f3482be04220fdf48adf6c", "is_disabled": 0, "rental_uris": {"android": "https://dc.lft.to/lastmile_qr_scan", "ios": "https://dc.lft.to/lastmile_qr_scan"}, "fusion_lon": 0.0, "lat": 38.91688666666667, "bike_id": "fcbcece0b1f3482be04220fdf48adf6c", "type": "electric_scooter", "is_reserved": 0, "lon": -77.028757}, {"fusion_lat": 0.0, "name": "32512c7a76286aebe2a8e9954fb0e8f7", "is_disabled": 0, "rental_uris": {"android": "https://dc.lft.to/lastmile_qr_scan", "ios": "https://dc.lft.to/lastmile_qr_scan"}, "fusion_lon": 0.0, "lat": 38.9335495, "bike_id": "32512c7a76286aebe2a8e9954fb0e8f7", "type": "electric_scooter", "is_reserved": 0, "lon": -77.03437566666666}, {"fusion_lat": 0.0, "name": "52c65bef624dc599d55591956585d5b7", "is_disabled": 0, "rental_uris": {"android": "https://dc.lft.to/lastmile_qr_scan", "ios": "https://dc.lft.to/lastmile_qr_scan"}, "fusion_lon": 0.0, "lat": 38.94086033333333, "bike_id": "52c65bef624dc599d55591956585d5b7", "type": "electric_scooter", "is_reserved": 0, "lon": -77.06184266666666}, {"fusion_lat": 0.0, "name": "93300184a94e07b89de0bd8ad4dbe7ea", "is_disabled": 0, "rental_uris": {"android": "https://dc.lft.to/lastmile_qr_scan", "ios": "https://dc.lft.to/lastmile_qr_scan"}, "fusion_lon": 0.0, "lat": 38.9008255, "bike_id": "93300184a94e07b89de0bd8ad4dbe7ea", "type": "electric_scooter", "is_reserved": 0, "lon": -77.02621016666667}, {"fusion_lat": 0.0, "name": "5b0367fbacd69398aba746d9a0dfe96e", "is_disabled": 0, "rental_uris": {"android": "https://dc.lft.to/lastmile_qr_scan", "ios": "https://dc.lft.to/lastmile_qr_scan"}, "fusion_lon": 0.0, "lat": 38.90969366666667, "bike_id": "5b0367fbacd69398aba746d9a0dfe96e", "type": "electric_scooter", "is_reserved": 0, "lon": -77.00895316666667}, {"fusion_lat": 0.0, "name": "c1fd9afd691023f0a222411133250178", "is_disabled": 0, "rental_uris": {"android": "https://dc.lft.to/lastmile_qr_scan", "ios": "https://dc.lft.to/lastmile_qr_scan"}, "fusion_lon": 0.0, "lat": 38.892292166666664, "bike_id": "c1fd9afd691023f0a222411133250178", "type": "electric_scooter", "is_reserved": 0, "lon": -77.01717266666667}, {"fusion_lat": 0.0, "name": "f298c6cfc724028f2c520d94f64c4c9b", "is_disabled": 0, "rental_uris": {"android": "https://dc.lft.to/lastmile_qr_scan", "ios": "https://dc.lft.to/lastmile_qr_scan"}, "fusion_lon": 0.0, "lat": 38.85456666666666, "bike_id": "f298c6cfc724028f2c520d94f64c4c9b", "type": "electric_scooter", "is_reserved": 0, "lon": -76.9722925}, {"fusion_lat": 0.0, "name": "fb9cd99297e6ee42fd60c34d01accc17", "is_disabled": 0, "rental_uris": {"android": "https://dc.lft.to/lastmile_qr_scan", "ios": "https://dc.lft.to/lastmile_qr_scan"}, "fusion_lon": 0.0, "lat": 38.88731583333333, "bike_id": "fb9cd99297e6ee42fd60c34d01accc17", "type": "electric_scooter", "is_reserved": 0, "lon": -76.99486183333333}, {"fusion_lat": 0.0, "name": "e133330dca12d822a24bc77f662a91d8", "is_disabled": 0, "rental_uris": {"android": "https://dc.lft.to/lastmile_qr_scan", "ios": "https://dc.lft.to/lastmile_qr_scan"}, "fusion_lon": 0.0, "lat": 38.88132483333333, "bike_id": "e133330dca12d822a24bc77f662a91d8", "type": "electric_scooter", "is_reserved": 0, "lon": -77.027188}, {"fusion_lat": 0.0, "name": "02ddd33862e6236e5f4538cead17343a", "is_disabled": 0, "rental_uris": {"android": "https://dc.lft.to/lastmile_qr_scan", "ios": "https://dc.lft.to/lastmile_qr_scan"}, "fusion_lon": 0.0, "lat": 38.92132566666667, "bike_id": "02ddd33862e6236e5f4538cead17343a", "type": "electric_scooter", "is_reserved": 0, "lon": -77.00960366666666}, {"fusion_lat": 0.0, "name": "6ac2b64ddf627f93abff7347c4a88351", "is_disabled": 0, "rental_uris": {"android": "https://dc.lft.to/lastmile_qr_scan", "ios": "https://dc.lft.to/lastmile_qr_scan"}, "fusion_lon": 0.0, "lat": 38.92849016666667, "bike_id": "6ac2b64ddf627f93abff7347c4a88351", "type": "electric_scooter", "is_reserved": 0, "lon": -77.02440633333333}, {"fusion_lat": 0.0, "name": "e90b91972373f1af9cc4637497c53688", "is_disabled": 0, "rental_uris": {"android": "https://dc.lft.to/lastmile_qr_scan", "ios": "https://dc.lft.to/lastmile_qr_scan"}, "fusion_lon": 0.0, "lat": 38.88771083333334, "bike_id": "e90b91972373f1af9cc4637497c53688", "type": "electric_scooter", "is_reserved": 0, "lon": -76.977486}, {"fusion_lat": 0.0, "name": "83ff16384296075435e0c5ccf36d5003", "is_disabled": 0, "rental_uris": {"android": "https://dc.lft.to/lastmile_qr_scan", "ios": "https://dc.lft.to/lastmile_qr_scan"}, "fusion_lon": 0.0, "lat": 38.91015566666667, "bike_id": "83ff16384296075435e0c5ccf36d5003", "type": "electric_scooter", "is_reserved": 0, "lon": -77.03862483333333}, {"fusion_lat": 0.0, "name": "519c581944020bc435e6703c5ddb9fb9", "is_disabled": 0, "rental_uris": {"android": "https://dc.lft.to/lastmile_qr_scan", "ios": "https://dc.lft.to/lastmile_qr_scan"}, "fusion_lon": 0.0, "lat": 38.8736485, "bike_id": "519c581944020bc435e6703c5ddb9fb9", "type": "electric_scooter", "is_reserved": 0, "lon": -77.000879}, {"fusion_lat": 0.0, "name": "e87675a85639acea69d75124d75fd785", "is_disabled": 0, "rental_uris": {"android": "https://dc.lft.to/lastmile_qr_scan", "ios": "https://dc.lft.to/lastmile_qr_scan"}, "fusion_lon": 0.0, "lat": 38.924697333333334, "bike_id": "e87675a85639acea69d75124d75fd785", "type": "electric_scooter", "is_reserved": 0, "lon": -77.03109516666666}, {"fusion_lat": 0.0, "name": "4efe52acc995f6727d11ab6f95787083", "is_disabled": 0, "rental_uris": {"android": "https://dc.lft.to/lastmile_qr_scan", "ios": "https://dc.lft.to/lastmile_qr_scan"}, "fusion_lon": 0.0, "lat": 38.918446333333335, "bike_id": "4efe52acc995f6727d11ab6f95787083", "type": "electric_scooter", "is_reserved": 0, "lon": -77.02452266666667}, {"fusion_lat": 0.0, "name": "0d58ff913ae2c0d536d064083f8523f7", "is_disabled": 0, "rental_uris": {"android": "https://dc.lft.to/lastmile_qr_scan", "ios": "https://dc.lft.to/lastmile_qr_scan"}, "fusion_lon": 0.0, "lat": 38.884916, "bike_id": "0d58ff913ae2c0d536d064083f8523f7", "type": "electric_scooter", "is_reserved": 0, "lon": -77.01084966666667}, {"fusion_lat": 0.0, "name": "19aad775e1eb673655a4d37731b9322b", "is_disabled": 0, "rental_uris": {"android": "https://dc.lft.to/lastmile_qr_scan", "ios": "https://dc.lft.to/lastmile_qr_scan"}, "fusion_lon": 0.0, "lat": 38.9086305, "bike_id": "19aad775e1eb673655a4d37731b9322b", "type": "electric_scooter", "is_reserved": 0, "lon": -76.99961316666666}, {"fusion_lat": 0.0, "name": "4131de5c231ca165312e741ed4b17f49", "is_disabled": 0, "rental_uris": {"android": "https://dc.lft.to/lastmile_qr_scan", "ios": "https://dc.lft.to/lastmile_qr_scan"}, "fusion_lon": 0.0, "lat": 38.9132835, "bike_id": "4131de5c231ca165312e741ed4b17f49", "type": "electric_scooter", "is_reserved": 0, "lon": -77.02136116666667}, {"fusion_lat": 0.0, "name": "0a4a0cbdc5286fba837e09d3498bccc0", "is_disabled": 0, "rental_uris": {"android": "https://dc.lft.to/lastmile_qr_scan", "ios": "https://dc.lft.to/lastmile_qr_scan"}, "fusion_lon": 0.0, "lat": 38.92321966666667, "bike_id": "0a4a0cbdc5286fba837e09d3498bccc0", "type": "electric_scooter", "is_reserved": 0, "lon": -77.04309116666667}, {"fusion_lat": 0.0, "name": "d4683871e6d5b83647202f90243e7cce", "is_disabled": 0, "rental_uris": {"android": "https://dc.lft.to/lastmile_qr_scan", "ios": "https://dc.lft.to/lastmile_qr_scan"}, "fusion_lon": 0.0, "lat": 38.890171, "bike_id": "d4683871e6d5b83647202f90243e7cce", "type": "electric_scooter", "is_reserved": 0, "lon": -76.93731}, {"fusion_lat": 0.0, "name": "8d38d9a5ef393356c7a169c3180da1c5", "is_disabled": 0, "rental_uris": {"android": "https://dc.lft.to/lastmile_qr_scan", "ios": "https://dc.lft.to/lastmile_qr_scan"}, "fusion_lon": 0.0, "lat": 38.907162666666665, "bike_id": "8d38d9a5ef393356c7a169c3180da1c5", "type": "electric_scooter", "is_reserved": 0, "lon": -77.02884716666667}, {"fusion_lat": 0.0, "name": "d5462e93dc6ae76c60bcca2c9651c157", "is_disabled": 0, "rental_uris": {"android": "https://dc.lft.to/lastmile_qr_scan", "ios": "https://dc.lft.to/lastmile_qr_scan"}, "fusion_lon": 0.0, "lat": 38.92106866666666, "bike_id": "d5462e93dc6ae76c60bcca2c9651c157", "type": "electric_scooter", "is_reserved": 0, "lon": -77.02207533333333}, {"fusion_lat": 0.0, "name": "0c2f09e7e38f48d0839819a83f8636c7", "is_disabled": 0, "rental_uris": {"android": "https://dc.lft.to/lastmile_qr_scan", "ios": "https://dc.lft.to/lastmile_qr_scan"}, "fusion_lon": 0.0, "lat": 38.89958333333333, "bike_id": "0c2f09e7e38f48d0839819a83f8636c7", "type": "electric_scooter", "is_reserved": 0, "lon": -77.04792616666667}, {"fusion_lat": 0.0, "name": "1067362d5b91d63ed72130e92e32c7fa", "is_disabled": 0, "rental_uris": {"android": "https://dc.lft.to/lastmile_qr_scan", "ios": "https://dc.lft.to/lastmile_qr_scan"}, "fusion_lon": 0.0, "lat": 38.948537, "bike_id": "1067362d5b91d63ed72130e92e32c7fa", "type": "electric_scooter", "is_reserved": 0, "lon": -77.02577216666667}, {"fusion_lat": 0.0, "name": "abc3f906989279dc5355b49aac019f20", "is_disabled": 0, "rental_uris": {"android": "https://dc.lft.to/lastmile_qr_scan", "ios": "https://dc.lft.to/lastmile_qr_scan"}, "fusion_lon": 0.0, "lat": 38.9001265, "bike_id": "abc3f906989279dc5355b49aac019f20", "type": "electric_scooter", "is_reserved": 0, "lon": -77.03340616666667}, {"fusion_lat": 0.0, "name": "6434c60a8b70bdaf44299e2160c26e8f", "is_disabled": 0, "rental_uris": {"android": "https://dc.lft.to/lastmile_qr_scan", "ios": "https://dc.lft.to/lastmile_qr_scan"}, "fusion_lon": 0.0, "lat": 38.900264, "bike_id": "6434c60a8b70bdaf44299e2160c26e8f", "type": "electric_scooter", "is_reserved": 0, "lon": -76.9985965}, {"fusion_lat": 0.0, "name": "46c024c66f5cced057983cb2e9dac0cd", "is_disabled": 0, "rental_uris": {"android": "https://dc.lft.to/lastmile_qr_scan", "ios": "https://dc.lft.to/lastmile_qr_scan"}, "fusion_lon": 0.0, "lat": 38.8847345, "bike_id": "46c024c66f5cced057983cb2e9dac0cd", "type": "electric_scooter", "is_reserved": 0, "lon": -76.99673683333333}, {"fusion_lat": 0.0, "name": "8e5bd36342c5106f3b850dbd152d16c5", "is_disabled": 0, "rental_uris": {"android": "https://dc.lft.to/lastmile_qr_scan", "ios": "https://dc.lft.to/lastmile_qr_scan"}, "fusion_lon": 0.0, "lat": 38.90061583333333, "bike_id": "8e5bd36342c5106f3b850dbd152d16c5", "type": "electric_scooter", "is_reserved": 0, "lon": -76.93386666666666}, {"fusion_lat": 0.0, "name": "46554db48f6bc71299d82b7a24b6f294", "is_disabled": 0, "rental_uris": {"android": "https://dc.lft.to/lastmile_qr_scan", "ios": "https://dc.lft.to/lastmile_qr_scan"}, "fusion_lon": 0.0, "lat": 38.896637, "bike_id": "46554db48f6bc71299d82b7a24b6f294", "type": "electric_scooter", "is_reserved": 0, "lon": -77.03352966666667}, {"fusion_lat": 0.0, "name": "4b5ce1f52320c622a5dd981b20877236", "is_disabled": 0, "rental_uris": {"android": "https://dc.lft.to/lastmile_qr_scan", "ios": "https://dc.lft.to/lastmile_qr_scan"}, "fusion_lon": 0.0, "lat": 38.90373816666666, "bike_id": "4b5ce1f52320c622a5dd981b20877236", "type": "electric_scooter", "is_reserved": 0, "lon": -77.05505366666667}, {"fusion_lat": 0.0, "name": "211011c81b963257b5bc9dadba3ef667", "is_disabled": 0, "rental_uris": {"android": "https://dc.lft.to/lastmile_qr_scan", "ios": "https://dc.lft.to/lastmile_qr_scan"}, "fusion_lon": 0.0, "lat": 38.94229466666667, "bike_id": "211011c81b963257b5bc9dadba3ef667", "type": "electric_scooter", "is_reserved": 0, "lon": -77.07645233333334}, {"fusion_lat": 0.0, "name": "b4bd4c562b92bac56972779c05cc8d20", "is_disabled": 0, "rental_uris": {"android": "https://dc.lft.to/lastmile_qr_scan", "ios": "https://dc.lft.to/lastmile_qr_scan"}, "fusion_lon": 0.0, "lat": 38.93252783333333, "bike_id": "b4bd4c562b92bac56972779c05cc8d20", "type": "electric_scooter", "is_reserved": 0, "lon": -77.03448833333333}, {"fusion_lat": 0.0, "name": "3740a292d279c1b7cec0843bbd9dfc8e", "is_disabled": 0, "rental_uris": {"android": "https://dc.lft.to/lastmile_qr_scan", "ios": "https://dc.lft.to/lastmile_qr_scan"}, "fusion_lon": 0.0, "lat": 38.907661, "bike_id": "3740a292d279c1b7cec0843bbd9dfc8e", "type": "electric_scooter", "is_reserved": 0, "lon": -77.05592883333334}, {"fusion_lat": 0.0, "name": "83516da51eb43d9453a3ecd74a420257", "is_disabled": 0, "rental_uris": {"android": "https://dc.lft.to/lastmile_qr_scan", "ios": "https://dc.lft.to/lastmile_qr_scan"}, "fusion_lon": 0.0, "lat": 38.91554416666666, "bike_id": "83516da51eb43d9453a3ecd74a420257", "type": "electric_scooter", "is_reserved": 0, "lon": -77.01131083333334}, {"fusion_lat": 0.0, "name": "499df8e1ddfec15d8568a0a1b6e59d37", "is_disabled": 0, "rental_uris": {"android": "https://dc.lft.to/lastmile_qr_scan", "ios": "https://dc.lft.to/lastmile_qr_scan"}, "fusion_lon": 0.0, "lat": 38.902413833333334, "bike_id": "499df8e1ddfec15d8568a0a1b6e59d37", "type": "electric_scooter", "is_reserved": 0, "lon": -77.02832983333333}, {"fusion_lat": 0.0, "name": "137db4d665beb5e76d91c8cabba27071", "is_disabled": 0, "rental_uris": {"android": "https://dc.lft.to/lastmile_qr_scan", "ios": "https://dc.lft.to/lastmile_qr_scan"}, "fusion_lon": 0.0, "lat": 38.83507683333333, "bike_id": "137db4d665beb5e76d91c8cabba27071", "type": "electric_bike", "is_reserved": 0, "lon": -76.98669566666666}, {"fusion_lat": 0.0, "name": "1dc713922428f91ba979939f8cdc1e02", "is_disabled": 0, "rental_uris": {"android": "https://dc.lft.to/lastmile_qr_scan", "ios": "https://dc.lft.to/lastmile_qr_scan"}, "fusion_lon": 0.0, "lat": 38.88673216666667, "bike_id": "1dc713922428f91ba979939f8cdc1e02", "type": "electric_scooter", "is_reserved": 0, "lon": -77.0137405}, {"fusion_lat": 0.0, "name": "e53742760a5a175845f832922b7795ef", "is_disabled": 0, "rental_uris": {"android": "https://dc.lft.to/lastmile_qr_scan", "ios": "https://dc.lft.to/lastmile_qr_scan"}, "fusion_lon": 0.0, "lat": 38.9244825, "bike_id": "e53742760a5a175845f832922b7795ef", "type": "electric_scooter", "is_reserved": 0, "lon": -77.0342495}, {"fusion_lat": 0.0, "name": "b647794ec3f8f1ef72b1417e2946db61", "is_disabled": 0, "rental_uris": {"android": "https://dc.lft.to/lastmile_qr_scan", "ios": "https://dc.lft.to/lastmile_qr_scan"},