{"data": {"bikes": [{"name": "6ab9560762c8b32d269b00fa3598f85f", "type": "electric_scooter", "lat": 38.927299, "is_reserved": 0, "lon": -77.029816, "fusion_lon": 0.0, "is_disabled": 0, "fusion_lat": 0.0, "bike_id": "6ab9560762c8b32d269b00fa3598f85f", "rental_uris": {"ios": "https://dc.lft.to/lastmile_qr_scan", "android": "https://dc.lft.to/lastmile_qr_scan"}}, {"name": "e608178af664b68bd243b08f4096ba5e", "type": "electric_scooter", "lat": 38.9337685, "is_reserved": 0, "lon": -77.03459783333334, "fusion_lon": 0.0, "is_disabled": 0, "fusion_lat": 0.0, "bike_id": "e608178af664b68bd243b08f4096ba5e", "rental_uris": {"ios": "https://dc.lft.to/lastmile_qr_scan", "android": "https://dc.lft.to/lastmile_qr_scan"}}, {"name": "8cfc1df8b200e9a5f509502fda8131f1", "type": "electric_scooter", "lat": 38.958352833333336, "is_reserved": 0, "lon": -77.02929016666667, "fusion_lon": 0.0, "is_disabled": 0, "fusion_lat": 0.0, "bike_id": "8cfc1df8b200e9a5f509502fda8131f1", "rental_uris": {"ios": "https://dc.lft.to/lastmile_qr_scan", "android": "https://dc.lft.to/lastmile_qr_scan"}}, {"name": "82f9c50ebbaedcc4907b77988d857a38", "type": "electric_scooter", "lat": 38.918398833333335, "is_reserved": 0, "lon": -77.02288533333333, "fusion_lon": 0.0, "is_disabled": 0, "fusion_lat": 0.0, "bike_id": "82f9c50ebbaedcc4907b77988d857a38", "rental_uris": {"ios": "https://dc.lft.to/lastmile_qr_scan", "android": "https://dc.lft.to/lastmile_qr_scan"}}, {"name": "abf496fab20dab2447b3c65beb396cb5", "type": "electric_scooter", "lat": 38.93486733333334, "is_reserved": 0, "lon": -77.03286683333333, "fusion_lon": 0.0, "is_disabled": 0, "fusion_lat": 0.0, "bike_id": "abf496fab20dab2447b3c65beb396cb5", "rental_uris": {"ios": "https://dc.lft.to/lastmile_qr_scan", "android": "https://dc.lft.to/lastmile_qr_scan"}}, {"name": "93034ec3e5f5ef21ca2807904f8bd9c6", "type": "electric_scooter", "lat": 38.89474533333333, "is_reserved": 0, "lon": -77.030678, "fusion_lon": 0.0, "is_disabled": 0, "fusion_lat": 0.0, "bike_id": "93034ec3e5f5ef21ca2807904f8bd9c6", "rental_uris": {"ios": "https://dc.lft.to/lastmile_qr_scan", "android": "https://dc.lft.to/lastmile_qr_scan"}}, {"name": "a0244461ce0a9a994cee61ef3a7a9235", "type": "electric_scooter", "lat": 38.924928, "is_reserved": 0, "lon": -77.0732415, "fusion_lon": 0.0, "is_disabled": 0, "fusion_lat": 0.0, "bike_id": "a0244461ce0a9a994cee61ef3a7a9235", "rental_uris": {"ios": "https://dc.lft.to/lastmile_qr_scan", "android": "https://dc.lft.to/lastmile_qr_scan"}}, {"name": "fddc8cdcaf9995786155c41e5fc78f02", "type": "electric_scooter", "lat": 38.917222, "is_reserved": 0, "lon": -77.068397, "fusion_lon": 0.0, "is_disabled": 0, "fusion_lat": 0.0, "bike_id": "fddc8cdcaf9995786155c41e5fc78f02", "rental_uris": {"ios": "https://dc.lft.to/lastmile_qr_scan", "android": "https://dc.lft.to/lastmile_qr_scan"}}, {"name": "a48b2b99d527988acc9d1d84d35c9168", "type": "electric_scooter", "lat": 38.91211933333334, "is_reserved": 0, "lon": -77.04495783333333, "fusion_lon": 0.0, "is_disabled": 0, "fusion_lat": 0.0, "bike_id": "a48b2b99d527988acc9d1d84d35c9168", "rental_uris": {"ios": "https://dc.lft.to/lastmile_qr_scan", "android": "https://dc.lft.to/lastmile_qr_scan"}}, {"name": "ca0f80cee7d7e21aeea2e4b1909d1ed7", "type": "electric_bike", "lat": 38.94827983333333, "is_reserved": 0, "lon": -77.03898666666667, "fusion_lon": 0.0, "is_disabled": 0, "fusion_lat": 0.0, "bike_id": "ca0f80cee7d7e21aeea2e4b1909d1ed7", "rental_uris": {"ios": "https://dc.lft.to/lastmile_qr_scan", "android": "https://dc.lft.to/lastmile_qr_scan"}}, {"name": "df6866514467eaa66539950e993abcc2", "type": "electric_scooter", "lat": 38.9167355, "is_reserved": 0, "lon": -77.02970883333333, "fusion_lon": 0.0, "is_disabled": 0, "fusion_lat": 0.0, "bike_id": "df6866514467eaa66539950e993abcc2", "rental_uris": {"ios": "https://dc.lft.to/lastmile_qr_scan", "android": "https://dc.lft.to/lastmile_qr_scan"}}, {"name": "3890aa091fdaa3ac97c14857c5084a62", "type": "electric_scooter", "lat": 38.9357905, "is_reserved": 0, "lon": -76.99105766666666, "fusion_lon": 0.0, "is_disabled": 0, "fusion_lat": 0.0, "bike_id": "3890aa091fdaa3ac97c14857c5084a62", "rental_uris": {"ios": "https://dc.lft.to/lastmile_qr_scan", "android": "https://dc.lft.to/lastmile_qr_scan"}}, {"name": "93914940b13af5db038eda49e658dcd1", "type": "electric_scooter", "lat": 38.922373666666665, "is_reserved": 0, "lon": -77.03362233333333, "fusion_lon": 0.0, "is_disabled": 0, "fusion_lat": 0.0, "bike_id": "93914940b13af5db038eda49e658dcd1", "rental_uris": {"ios": "https://dc.lft.to/lastmile_qr_scan", "android": "https://dc.lft.to/lastmile_qr_scan"}}, {"name": "3653698265c0eceff69fbb8b1d45eeee", "type": "electric_scooter", "lat": 38.925297, "is_reserved": 0, "lon": -77.05553016666667, "fusion_lon": 0.0, "is_disabled": 0, "fusion_lat": 0.0, "bike_id": "3653698265c0eceff69fbb8b1d45eeee", "rental_uris": {"ios": "https://dc.lft.to/lastmile_qr_scan", "android": "https://dc.lft.to/lastmile_qr_scan"}}, {"name": "f7fbff977b05893919f9a375e0446aff", "type": "electric_scooter", "lat": 38.9246845, "is_reserved": 0, "lon": -77.028341, "fusion_lon": 0.0, "is_disabled": 0, "fusion_lat": 0.0, "bike_id": "f7fbff977b05893919f9a375e0446aff", "rental_uris": {"ios": "https://dc.lft.to/lastmile_qr_scan", "android": "https://dc.lft.to/lastmile_qr_scan"}}, {"name": "145751b50f301d3b3d495889ddca6b0b", "type": "electric_scooter", "lat": 38.9014995, "is_reserved": 0, "lon": -76.93067083333334, "fusion_lon": 0.0, "is_disabled": 0, "fusion_lat": 0.0, "bike_id": "145751b50f301d3b3d495889ddca6b0b", "rental_uris": {"ios": "https://dc.lft.to/lastmile_qr_scan", "android": "https://dc.lft.to/lastmile_qr_scan"}}, {"name": "de51d9e27c7d3f8fb75bdad366e49da5", "type": "electric_scooter", "lat": 38.924681666666665, "is_reserved": 0, "lon": -77.03756533333333, "fusion_lon": 0.0, "is_disabled": 0, "fusion_lat": 0.0, "bike_id": "de51d9e27c7d3f8fb75bdad366e49da5", "rental_uris": {"ios": "https://dc.lft.to/lastmile_qr_scan", "android": "https://dc.lft.to/lastmile_qr_scan"}}, {"name": "472b1f18d59d0e03310414307098c673", "type": "electric_scooter", "lat": 38.91087, "is_reserved": 0, "lon": -77.03846983333334, "fusion_lon": 0.0, "is_disabled": 0, "fusion_lat": 0.0, "bike_id": "472b1f18d59d0e03310414307098c673", "rental_uris": {"ios": "https://dc.lft.to/lastmile_qr_scan", "android": "https://dc.lft.to/lastmile_qr_scan"}}, {"name": "9f9fbf13a9a83cd5fac163b330f1f8ec", "type": "electric_scooter", "lat": 38.89403383333333, "is_reserved": 0, "lon": -76.94796566666666, "fusion_lon": 0.0, "is_disabled": 0, "fusion_lat": 0.0, "bike_id": "9f9fbf13a9a83cd5fac163b330f1f8ec", "rental_uris": {"ios": "https://dc.lft.to/lastmile_qr_scan", "android": "https://dc.lft.to/lastmile_qr_scan"}}, {"name": "383b9b235246dcbf9f3b872bf183ade2", "type": "electric_scooter", "lat": 38.92312416666667, "is_reserved": 0, "lon": -77.03909833333333, "fusion_lon": 0.0, "is_disabled": 0, "fusion_lat": 0.0, "bike_id": "383b9b235246dcbf9f3b872bf183ade2", "rental_uris": {"ios": "https://dc.lft.to/lastmile_qr_scan", "android": "https://dc.lft.to/lastmile_qr_scan"}}, {"name": "4c91ea97e8c3b27166978ec744470a6d", "type": "electric_scooter", "lat": 38.8570955, "is_reserved": 0, "lon": -76.98129433333334, "fusion_lon": 0.0, "is_disabled": 0, "fusion_lat": 0.0, "bike_id": "4c91ea97e8c3b27166978ec744470a6d", "rental_uris": {"ios": "https://dc.lft.to/lastmile_qr_scan", "android": "https://dc.lft.to/lastmile_qr_scan"}}, {"name": "8da7c710c0ee48cbf1df8c67a98d5487", "type": "electric_scooter", "lat": 38.9158475, "is_reserved": 0, "lon": -77.0448055, "fusion_lon": 0.0, "is_disabled": 0, "fusion_lat": 0.0, "bike_id": "8da7c710c0ee48cbf1df8c67a98d5487", "rental_uris": {"ios": "https://dc.lft.to/lastmile_qr_scan", "android": "https://dc.lft.to/lastmile_qr_scan"}}, {"name": "92ea05ee5e581d48570a232c1ac76bdb", "type": "electric_scooter", "lat": 38.892362166666665, "is_reserved": 0, "lon": -77.03178966666667, "fusion_lon": 0.0, "is_disabled": 0, "fusion_lat": 0.0, "bike_id": "92ea05ee5e581d48570a232c1ac76bdb", "rental_uris": {"ios": "https://dc.lft.to/lastmile_qr_scan", "android": "https://dc.lft.to/lastmile_qr_scan"}}, {"name": "c33da52f5a98885ba9fb7a6c0e75178c", "type": "electric_scooter", "lat": 38.926357833333334, "is_reserved": 0, "lon": -77.03709633333334, "fusion_lon": 0.0, "is_disabled": 0, "fusion_lat": 0.0, "bike_id": "c33da52f5a98885ba9fb7a6c0e75178c", "rental_uris": {"ios": "https://dc.lft.to/lastmile_qr_scan", "android": "https://dc.lft.to/lastmile_qr_scan"}}, {"name": "6e02841de1d60638806c1f90ade26142", "type": "electric_scooter", "lat": 38.90564783333333, "is_reserved": 0, "lon": -77.005761, "fusion_lon": 0.0, "is_disabled": 0, "fusion_lat": 0.0, "bike_id": "6e02841de1d60638806c1f90ade26142", "rental_uris": {"ios": "https://dc.lft.to/lastmile_qr_scan", "android": "https://dc.lft.to/lastmile_qr_scan"}}, {"name": "6f8bbab6c2d6e1a925f21e4afb42214c", "type": "electric_scooter", "lat": 38.9012095, "is_reserved": 0, "lon": -77.0331475, "fusion_lon": 0.0, "is_disabled": 0, "fusion_lat": 0.0, "bike_id": "6f8bbab6c2d6e1a925f21e4afb42214c", "rental_uris": {"ios": "https://dc.lft.to/lastmile_qr_scan", "android": "https://dc.lft.to/lastmile_qr_scan"}}, {"name": "2a9ce33df6a29d9c0870edeacf0aeb04", "type": "electric_scooter", "lat": 38.90492866666666, "is_reserved": 0, "lon": -77.029549, "fusion_lon": 0.0, "is_disabled": 0, "fusion_lat": 0.0, "bike_id": "2a9ce33df6a29d9c0870edeacf0aeb04", "rental_uris": {"ios": "https://dc.lft.to/lastmile_qr_scan", "android": "https://dc.lft.to/lastmile_qr_scan"}}, {"name": "3b66b877b57073b87da636d16a185c57", "type": "electric_scooter", "lat": 38.9271825, "is_reserved": 0, "lon": -77.0397755, "fusion_lon": 0.0, "is_disabled": 0, "fusion_lat": 0.0, "bike_id": "3b66b877b57073b87da636d16a185c57", "rental_uris": {"ios": "https://dc.lft.to/lastmile_qr_scan", "android": "https://dc.lft.to/lastmile_qr_scan"}}, {"name": "906ea4ee0c93fbc1cdc455dc819c8d65", "type": "electric_scooter", "lat": 38.905266, "is_reserved": 0, "lon": -77.06519183333333, "fusion_lon": 0.0, "is_disabled": 0, "fusion_lat": 0.0, "bike_id": "906ea4ee0c93fbc1cdc455dc819c8d65", "rental_uris": {"ios": "https://dc.lft.to/lastmile_qr_scan", "android": "https://dc.lft.to/lastmile_qr_scan"}}, {"name": "d3b95aadfa4aec2f92c3ffebd38d3467", "type": "electric_scooter", "lat": 38.8995415, "is_reserved": 0, "lon": -77.052739, "fusion_lon": 0.0, "is_disabled": 0, "fusion_lat": 0.0, "bike_id": "d3b95aadfa4aec2f92c3ffebd38d3467", "rental_uris": {"ios": "https://dc.lft.to/lastmile_qr_scan", "android": "https://dc.lft.to/lastmile_qr_scan"}}, {"name": "cc042dd8f2a44e73d9dfccb40e724d70", "type": "electric_scooter", "lat": 38.902604333333336, "is_reserved": 0, "lon": -77.0176435, "fusion_lon": 0.0, "is_disabled": 0, "fusion_lat": 0.0, "bike_id": "cc042dd8f2a44e73d9dfccb40e724d70", "rental_uris": {"ios": "https://dc.lft.to/lastmile_qr_scan", "android": "https://dc.lft.to/lastmile_qr_scan"}}, {"name": "c80b2cea25864762304e6c64ac077f32", "type": "electric_scooter", "lat": 38.9149, "is_reserved": 0, "lon": -77.02193783333334, "fusion_lon": 0.0, "is_disabled": 0, "fusion_lat": 0.0, "bike_id": "c80b2cea25864762304e6c64ac077f32", "rental_uris": {"ios": "https://dc.lft.to/lastmile_qr_scan", "android": "https://dc.lft.to/lastmile_qr_scan"}}, {"name": "bc33a5132a0b1a0d6f7d2b5d2a42e317", "type": "electric_scooter", "lat": 38.89220516666666, "is_reserved": 0, "lon": -77.048671, "fusion_lon": 0.0, "is_disabled": 0, "fusion_lat": 0.0, "bike_id": "bc33a5132a0b1a0d6f7d2b5d2a42e317", "rental_uris": {"ios": "https://dc.lft.to/lastmile_qr_scan", "android": "https://dc.lft.to/lastmile_qr_scan"}}, {"name": "eafeedec87f8f4682bfc2389ae647b60", "type": "electric_scooter", "lat": 38.880512833333334, "is_reserved": 0, "lon": -77.013317, "fusion_lon": 0.0, "is_disabled": 0, "fusion_lat": 0.0, "bike_id": "eafeedec87f8f4682bfc2389ae647b60", "rental_uris": {"ios": "https://dc.lft.to/lastmile_qr_scan", "android": "https://dc.lft.to/lastmile_qr_scan"}}, {"name": "bac3028ea8b2f9c3a57bfc1a63ce4229", "type": "electric_scooter", "lat": 38.898846666666664, "is_reserved": 0, "lon": -76.93174083333334, "fusion_lon": 0.0, "is_disabled": 0, "fusion_lat": 0.0, "bike_id": "bac3028ea8b2f9c3a57bfc1a63ce4229", "rental_uris": {"ios": "https://dc.lft.to/lastmile_qr_scan", "android": "https://dc.lft.to/lastmile_qr_scan"}}, {"name": "7e02ed5a559e4999e628f3f2682cf1c8", "type": "electric_scooter", "lat": 38.895204, "is_reserved": 0, "lon": -76.99155266666666, "fusion_lon": 0.0, "is_disabled": 0, "fusion_lat": 0.0, "bike_id": "7e02ed5a559e4999e628f3f2682cf1c8", "rental_uris": {"ios": "https://dc.lft.to/lastmile_qr_scan", "android": "https://dc.lft.to/lastmile_qr_scan"}}, {"name": "bf2f43552a1ccdd517a7f555228f9e0a", "type": "electric_scooter", "lat": 38.942066833333335, "is_reserved": 0, "lon": -77.03590683333333, "fusion_lon": 0.0, "is_disabled": 0, "fusion_lat": 0.0, "bike_id": "bf2f43552a1ccdd517a7f555228f9e0a", "rental_uris": {"ios": "https://dc.lft.to/lastmile_qr_scan", "android": "https://dc.lft.to/lastmile_qr_scan"}}, {"name": "e37c669fd3d65b067c7bfb0ebe5df166", "type": "electric_scooter", "lat": 38.90364116666667, "is_reserved": 0, "lon": -77.03982383333333, "fusion_lon": 0.0, "is_disabled": 0, "fusion_lat": 0.0, "bike_id": "e37c669fd3d65b067c7bfb0ebe5df166", "rental_uris": {"ios": "https://dc.lft.to/lastmile_qr_scan", "android": "https://dc.lft.to/lastmile_qr_scan"}}, {"name": "b9a5bb3ea97bcd6cdbb7101809104ad6", "type": "electric_scooter", "lat": 38.920323833333335, "is_reserved": 0, "lon": -77.02426633333333, "fusion_lon": 0.0, "is_disabled": 0, "fusion_lat": 0.0, "bike_id": "b9a5bb3ea97bcd6cdbb7101809104ad6", "rental_uris": {"ios": "https://dc.lft.to/lastmile_qr_scan", "android": "https://dc.lft.to/lastmile_qr_scan"}}, {"name": "0627622589d0c3e635823d839f0c3e8d", "type": "electric_scooter", "lat": 38.903561333333336, "is_reserved": 0, "lon": -77.03545966666667, "fusion_lon": 0.0, "is_disabled": 0, "fusion_lat": 0.0, "bike_id": "0627622589d0c3e635823d839f0c3e8d", "rental_uris": {"ios": "https://dc.lft.to/lastmile_qr_scan", "android": "https://dc.lft.to/lastmile_qr_scan"}}, {"name": "a0af03c1828a6bcdca7b29bf7498a6cf", "type": "electric_scooter", "lat": 38.921181833333335, "is_reserved": 0, "lon": -77.0365775, "fusion_lon": 0.0, "is_disabled": 0, "fusion_lat": 0.0, "bike_id": "a0af03c1828a6bcdca7b29bf7498a6cf", "rental_uris": {"ios": "https://dc.lft.to/lastmile_qr_scan", "android": "https://dc.lft.to/lastmile_qr_scan"}}, {"name": "5df8a36453e13fcae9e856b6b21f9304", "type": "electric_bike", "lat": 38.935774, "is_reserved": 0, "lon": -77.0212015, "fusion_lon": 0.0, "is_disabled": 0, "fusion_lat": 0.0, "bike_id": "5df8a36453e13fcae9e856b6b21f9304", "rental_uris": {"ios": "https://dc.lft.to/lastmile_qr_scan", "android": "https://dc.lft.to/lastmile_qr_scan"}}, {"name": "0c645ba3170a3a4df5e51487016605ed", "type": "electric_scooter", "lat": 38.9062505, "is_reserved": 0, "lon": -77.04180283333334, "fusion_lon": 0.0, "is_disabled": 0, "fusion_lat": 0.0, "bike_id": "0c645ba3170a3a4df5e51487016605ed", "rental_uris": {"ios": "https://dc.lft.to/lastmile_qr_scan", "android": "https://dc.lft.to/lastmile_qr_scan"}}, {"name": "6247d6d604d256b513c235ba59010dec", "type": "electric_scooter", "lat": 38.8635755, "is_reserved": 0, "lon": -76.99074, "fusion_lon": 0.0, "is_disabled": 0, "fusion_lat": 0.0, "bike_id": "6247d6d604d256b513c235ba59010dec", "rental_uris": {"ios": "https://dc.lft.to/lastmile_qr_scan", "android": "https://dc.lft.to/lastmile_qr_scan"}}, {"name": "21472f8abd8bf1872ad1f5deb0bf6c99", "type": "electric_scooter", "lat": 38.90006733333333, "is_reserved": 0, "lon": -76.9980555, "fusion_lon": 0.0, "is_disabled": 0, "fusion_lat": 0.0, "bike_id": "21472f8abd8bf1872ad1f5deb0bf6c99", "rental_uris": {"ios": "https://dc.lft.to/lastmile_qr_scan", "android": "https://dc.lft.to/lastmile_qr_scan"}}, {"name": "fe4c486367736832f8534be363cfed58", "type": "electric_scooter", "lat": 38.906658166666666, "is_reserved": 0, "lon": -77.03859533333333, "fusion_lon": 0.0, "is_disabled": 0, "fusion_lat": 0.0, "bike_id": "fe4c486367736832f8534be363cfed58", "rental_uris": {"ios": "https://dc.lft.to/lastmile_qr_scan", "android": "https://dc.lft.to/lastmile_qr_scan"}}, {"name": "9145f2e6cd426350386245355693debd", "type": "electric_scooter", "lat": 38.9075405, "is_reserved": 0, "lon": -77.030775, "fusion_lon": 0.0, "is_disabled": 0, "fusion_lat": 0.0, "bike_id": "9145f2e6cd426350386245355693debd", "rental_uris": {"ios": "https://dc.lft.to/lastmile_qr_scan", "android": "https://dc.lft.to/lastmile_qr_scan"}}, {"name": "dbbc6c463c8570620dcb29e66203f3b8", "type": "electric_scooter", "lat": 38.91333383333333, "is_reserved": 0, "lon": -77.04838816666667, "fusion_lon": 0.0, "is_disabled": 0, "fusion_lat": 0.0, "bike_id": "dbbc6c463c8570620dcb29e66203f3b8", "rental_uris": {"ios": "https://dc.lft.to/lastmile_qr_scan", "android": "https://dc.lft.to/lastmile_qr_scan"}}, {"name": "3c8807f671155729f384896ae04bc002", "type": "electric_scooter", "lat": 38.9012685, "is_reserved": 0, "lon": -77.050154, "fusion_lon": 0.0, "is_disabled": 0, "fusion_lat": 0.0, "bike_id": "3c8807f671155729f384896ae04bc002", "rental_uris": {"ios": "https://dc.lft.to/lastmile_qr_scan", "android": "https://dc.lft.to/lastmile_qr_scan"}}, {"name": "1fbab8782fba9a49eaf40bdddf2515f7", "type": "electric_scooter", "lat": 38.86825533333333, "is_reserved": 0, "lon": -76.986098, "fusion_lon": 0.0, "is_disabled": 0, "fusion_lat": 0.0, "bike_id": "1fbab8782fba9a49eaf40bdddf2515f7", "rental_uris": {"ios": "https://dc.lft.to/lastmile_qr_scan", "android": "https://dc.lft.to/lastmile_qr_scan"}}, {"name": "a157cace28739c5c178076b50facd264", "type": "electric_scooter", "lat": 38.905885166666664, "is_reserved": 0, "lon": -77.04882933333333, "fusion_lon": 0.0, "is_disabled": 0, "fusion_lat": 0.0, "bike_id": "a157cace28739c5c178076b50facd264", "rental_uris": {"ios": "https://dc.lft.to/lastmile_qr_scan", "android": "https://dc.lft.to/lastmile_qr_scan"}}, {"name": "ac1a12115245a2f9e1909f940aaab62b", "type": "electric_scooter", "lat": 38.90520733333334, "is_reserved": 0, "lon": -77.065899, "fusion_lon": 0.0, "is_disabled": 0, "fusion_lat": 0.0, "bike_id": "ac1a12115245a2f9e1909f940aaab62b", "rental_uris": {"ios": "https://dc.lft.to/lastmile_qr_scan", "android": "https://dc.lft.to/lastmile_qr_scan"}}, {"name": "93ef0845a36ff49672b8bf660dcf4be2", "type": "electric_scooter", "lat": 38.901974333333335, "is_reserved": 0, "lon": -76.98203633333333, "fusion_lon": 0.0, "is_disabled": 0, "fusion_lat": 0.0, "bike_id": "93ef0845a36ff49672b8bf660dcf4be2", "rental_uris": {"ios": "https://dc.lft.to/lastmile_qr_scan", "android": "https://dc.lft.to/lastmile_qr_scan"}}, {"name": "0baf77e51bf0f26d22fc7e279826897a", "type": "electric_scooter", "lat": 38.92766966666667, "is_reserved": 0, "lon": -77.0273575, "fusion_lon": 0.0, "is_disabled": 0, "fusion_lat": 0.0, "bike_id": "0baf77e51bf0f26d22fc7e279826897a", "rental_uris": {"ios": "https://dc.lft.to/lastmile_qr_scan", "android": "https://dc.lft.to/lastmile_qr_scan"}}, {"name": "b3df5271bb98c2f08e535b5e38e1b6a9", "type": "electric_scooter", "lat": 38.927927, "is_reserved": 0, "lon": -77.01404866666667, "fusion_lon": 0.0, "is_disabled": 0, "fusion_lat": 0.0, "bike_id": "b3df5271bb98c2f08e535b5e38e1b6a9", "rental_uris": {"ios": "https://dc.lft.to/lastmile_qr_scan", "android": "https://dc.lft.to/lastmile_qr_scan"}}, {"name": "de479b605dd1ee67ff25e383bc4b2933", "type": "electric_scooter", "lat": 38.932816333333335, "is_reserved": 0, "lon": -77.0297175, "fusion_lon": 0.0, "is_disabled": 0, "fusion_lat": 0.0, "bike_id": "de479b605dd1ee67ff25e383bc4b2933", "rental_uris": {"ios": "https://dc.lft.to/lastmile_qr_scan", "android": "https://dc.lft.to/lastmile_qr_scan"}}, {"name": "77f8b7b6a879d231cde54f3643991028", "type": "electric_scooter", "lat": 38.88296316666667, "is_reserved": 0, "lon": -76.98614783333333, "fusion_lon": 0.0, "is_disabled": 0, "fusion_lat": 0.0, "bike_id": "77f8b7b6a879d231cde54f3643991028", "rental_uris": {"ios": "https://dc.lft.to/lastmile_qr_scan", "android": "https://dc.lft.to/lastmile_qr_scan"}}, {"name": "8bfc0df5d5896d1fea5d89d95b94b5a9", "type": "electric_scooter", "lat": 38.9208515, "is_reserved": 0, "lon": -77.01369666666666, "fusion_lon": 0.0, "is_disabled": 0, "fusion_lat": 0.0, "bike_id": "8bfc0df5d5896d1fea5d89d95b94b5a9", "rental_uris": {"ios": "https://dc.lft.to/lastmile_qr_scan", "android": "https://dc.lft.to/lastmile_qr_scan"}}, {"name": "ef7366f114aaf35f9c699c5bc9815e9e", "type": "electric_scooter", "lat": 38.90443283333333, "is_reserved": 0, "lon": -76.99619033333333, "fusion_lon": 0.0, "is_disabled": 0, "fusion_lat": 0.0, "bike_id": "ef7366f114aaf35f9c699c5bc9815e9e", "rental_uris": {"ios": "https://dc.lft.to/lastmile_qr_scan", "android": "https://dc.lft.to/lastmile_qr_scan"}}, {"name": "7830221b1af6dc33378631355afc5baf", "type": "electric_scooter", "lat": 38.84293233333333, "is_reserved": 0, "lon": -76.99948016666667, "fusion_lon": 0.0, "is_disabled": 0, "fusion_lat": 0.0, "bike_id": "7830221b1af6dc33378631355afc5baf", "rental_uris": {"ios": "https://dc.lft.to/lastmile_qr_scan", "android": "https://dc.lft.to/lastmile_qr_scan"}}, {"name": "aacf8ab4f39a3ffeadf2af40e97e8d77", "type": "electric_scooter", "lat": 38.910163, "is_reserved": 0, "lon": -77.00917383333334, "fusion_lon": 0.0, "is_disabled": 0, "fusion_lat": 0.0, "bike_id": "aacf8ab4f39a3ffeadf2af40e97e8d77", "rental_uris": {"ios": "https://dc.lft.to/lastmile_qr_scan", "android": "https://dc.lft.to/lastmile_qr_scan"}}, {"name": "357e518244b3993d400dff7dde8ad553", "type": "electric_scooter", "lat": 38.905642, "is_reserved": 0, "lon": -77.00589416666666, "fusion_lon": 0.0, "is_disabled": 0, "fusion_lat": 0.0, "bike_id": "357e518244b3993d400dff7dde8ad553", "rental_uris": {"ios": "https://dc.lft.to/lastmile_qr_scan", "android": "https://dc.lft.to/lastmile_qr_scan"}}, {"name": "3d7b4bb1b67ae3ad771fd0fdf7c56a1c", "type": "electric_scooter", "lat": 38.87834483333334, "is_reserved": 0, "lon": -76.990333, "fusion_lon": 0.0, "is_disabled": 0, "fusion_lat": 0.0, "bike_id": "3d7b4bb1b67ae3ad771fd0fdf7c56a1c", "rental_uris": {"ios": "https://dc.lft.to/lastmile_qr_scan", "android": "https://dc.lft.to/lastmile_qr_scan"}}, {"name": "f4699bf01f183d17aba393c3ea7048e0", "type": "electric_scooter", "lat": 38.917203666666666, "is_reserved": 0, "lon": -77.06842266666666, "fusion_lon": 0.0, "is_disabled": 0, "fusion_lat": 0.0, "bike_id": "f4699bf01f183d17aba393c3ea7048e0", "rental_uris": {"ios": "https://dc.lft.to/lastmile_qr_scan", "android": "https://dc.lft.to/lastmile_qr_scan"}}, {"name": "5f20354466ca728b95795cdee5be9bd3", "type": "electric_scooter", "lat": 38.9029335, "is_reserved": 0, "lon": -76.99858783333333, "fusion_lon": 0.0, "is_disabled": 0, "fusion_lat": 0.0, "bike_id": "5f20354466ca728b95795cdee5be9bd3", "rental_uris": {"ios": "https://dc.lft.to/lastmile_qr_scan", "android": "https://dc.lft.to/lastmile_qr_scan"}}, {"name": "351d70e9d05a65faed2b1661e17e5dd2", "type": "electric_scooter", "lat": 38.934858166666665, "is_reserved": 0, "lon": -77.032836, "fusion_lon": 0.0, "is_disabled": 0, "fusion_lat": 0.0, "bike_id": "351d70e9d05a65faed2b1661e17e5dd2", "rental_uris": {"ios": "https://dc.lft.to/lastmile_qr_scan", "android": "https://dc.lft.to/lastmile_qr_scan"}}, {"name": "0442afb625eefb0de44840499cb5c9be", "type": "electric_scooter", "lat": 38.919064, "is_reserved": 0, "lon": -77.013446, "fusion_lon": 0.0, "is_disabled": 0, "fusion_lat": 0.0, "bike_id": "0442afb625eefb0de44840499cb5c9be", "rental_uris": {"ios": "https://dc.lft.to/lastmile_qr_scan", "android": "https://dc.lft.to/lastmile_qr_scan"}}, {"name": "6a94ded743f565f258332833e0a5b4cb", "type": "electric_scooter", "lat": 38.856104333333334, "is_reserved": 0, "lon": -76.98022283333333, "fusion_lon": 0.0, "is_disabled": 0, "fusion_lat": 0.0, "bike_id": "6a94ded743f565f258332833e0a5b4cb", "rental_uris": {"ios": "https://dc.lft.to/lastmile_qr_scan", "android": "https://dc.lft.to/lastmile_qr_scan"}}, {"name": "70cc324b6d89bc3f8cc7f65edffa2309", "type": "electric_scooter", "lat": 38.91987866666667, "is_reserved": 0, "lon": -76.999609, "fusion_lon": 0.0, "is_disabled": 0, "fusion_lat": 0.0, "bike_id": "70cc324b6d89bc3f8cc7f65edffa2309", "rental_uris": {"ios": "https://dc.lft.to/lastmile_qr_scan", "android": "https://dc.lft.to/lastmile_qr_scan"}}, {"name": "ec6210bb4b9955796cfaf1d312f4dd62", "type": "electric_scooter", "lat": 38.89581783333333, "is_reserved": 0, "lon": -76.93721533333333, "fusion_lon": 0.0, "is_disabled": 0, "fusion_lat": 0.0, "bike_id": "ec6210bb4b9955796cfaf1d312f4dd62", "rental_uris": {"ios": "https://dc.lft.to/lastmile_qr_scan", "android": "https://dc.lft.to/lastmile_qr_scan"}}, {"name": "0145123a57a2e27fae8385a58d8e9705", "type": "electric_scooter", "lat": 38.9126725, "is_reserved": 0, "lon": -77.06089116666666, "fusion_lon": 0.0, "is_disabled": 0, "fusion_lat": 0.0, "bike_id": "0145123a57a2e27fae8385a58d8e9705", "rental_uris": {"ios": "https://dc.lft.to/lastmile_qr_scan", "android": "https://dc.lft.to/lastmile_qr_scan"}}, {"name": "cd4c72ecc03c203cb37e542eff630b2f", "type": "electric_scooter", "lat": 38.9131655, "is_reserved": 0, "lon": -77.03850166666666, "fusion_lon": 0.0, "is_disabled": 0, "fusion_lat": 0.0, "bike_id": "cd4c72ecc03c203cb37e542eff630b2f", "rental_uris": {"ios": "https://dc.lft.to/lastmile_qr_scan", "android": "https://dc.lft.to/lastmile_qr_scan"}}, {"name": "22a9b1a89306c6b2c6a9d4fc2e0fc7f2", "type": "electric_bike", "lat": 38.80222966666667, "is_reserved": 0, "lon": -77.07913683333334, "fusion_lon": 0.0, "is_disabled": 0, "fusion_lat": 0.0, "bike_id": "22a9b1a89306c6b2c6a9d4fc2e0fc7f2", "rental_uris": {"ios": "https://dc.lft.to/lastmile_qr_scan", "android": "https://dc.lft.to/lastmile_qr_scan"}}, {"name": "fbdee9c6d8257dae2dcdd0ffdb526a70", "type": "electric_bike", "lat": 38.90684666666667, "is_reserved": 0, "lon": -76.951847, "fusion_lon": 0.0, "is_disabled": 0, "fusion_lat": 0.0, "bike_id": "fbdee9c6d8257dae2dcdd0ffdb526a70", "rental_uris": {"ios": "https://dc.lft.to/lastmile_qr_scan", "android": "https://dc.lft.to/lastmile_qr_scan"}}, {"name": "abfdc1f23f94049e7988a94f3043aca3", "type": "electric_scooter", "lat": 38.904693, "is_reserved": 0, "lon": -77.04659566666666, "fusion_lon": 0.0, "is_disabled": 0, "fusion_lat": 0.0, "bike_id": "abfdc1f23f94049e7988a94f3043aca3", "rental_uris": {"ios": "https://dc.lft.to/lastmile_qr_scan", "android": "https://dc.lft.to/lastmile_qr_scan"}}, {"name": "829227d5086d49b22de0c3cad2ede041", "type": "electric_scooter", "lat": 38.909668333333336, "is_reserved": 0, "lon": -77.00771683333333, "fusion_lon": 0.0, "is_disabled": 0, "fusion_lat": 0.0, "bike_id": "829227d5086d49b22de0c3cad2ede041", "rental_uris": {"ios": "https://dc.lft.to/lastmile_qr_scan", "android": "https://dc.lft.to/lastmile_qr_scan"}}, {"name": "10058ad46c7d4d8acae5de189af574c6", "type": "electric_scooter", "lat": 38.93675433333333, "is_reserved": 0, "lon": -77.03629083333334, "fusion_lon": 0.0, "is_disabled": 0, "fusion_lat": 0.0, "bike_id": "10058ad46c7d4d8acae5de189af574c6", "rental_uris": {"ios": "https://dc.lft.to/lastmile_qr_scan", "android": "https://dc.lft.to/lastmile_qr_scan"}}, {"name": "3303660379a8d0610da2ba5c23874bae", "type": "electric_scooter", "lat": 38.91681483333333, "is_reserved": 0, "lon": -77.03636766666666, "fusion_lon": 0.0, "is_disabled": 0, "fusion_lat": 0.0, "bike_id": "3303660379a8d0610da2ba5c23874bae", "rental_uris": {"ios": "https://dc.lft.to/lastmile_qr_scan", "android": "https://dc.lft.to/lastmile_qr_scan"}}, {"name": "2ffc76710a1ba450f0fd8160f76e2b87", "type": "electric_scooter", "lat": 38.89635583333333, "is_reserved": 0, "lon": -77.041779, "fusion_lon": 0.0, "is_disabled": 0, "fusion_lat": 0.0, "bike_id": "2ffc76710a1ba450f0fd8160f76e2b87", "rental_uris": {"ios": "https://dc.lft.to/lastmile_qr_scan", "android": "https://dc.lft.to/lastmile_qr_scan"}}, {"name": "6e7dae380d4c31faeaf586586939f589", "type": "electric_scooter", "lat": 38.9036695, "is_reserved": 0, "lon": -77.01088483333334, "fusion_lon": 0.0, "is_disabled": 0, "fusion_lat": 0.0, "bike_id": "6e7dae380d4c31faeaf586586939f589", "rental_uris": {"ios": "https://dc.lft.to/lastmile_qr_scan", "android": "https://dc.lft.to/lastmile_qr_scan"}}, {"name": "e0de867c31342776da07eb11657f2ee3", "type": "electric_scooter", "lat": 38.91782716666667, "is_reserved": 0, "lon": -77.04098633333334, "fusion_lon": 0.0, "is_disabled": 0, "fusion_lat": 0.0, "bike_id": "e0de867c31342776da07eb11657f2ee3", "rental_uris": {"ios": "https://dc.lft.to/lastmile_qr_scan", "android": "https://dc.lft.to/lastmile_qr_scan"}}, {"name": "64d89e5f7d47ec2d1c4de84b999197b9", "type": "electric_scooter", "lat": 38.89228933333333, "is_reserved": 0, "lon": -77.04640983333333, "fusion_lon": 0.0, "is_disabled": 0, "fusion_lat": 0.0, "bike_id": "64d89e5f7d47ec2d1c4de84b999197b9", "rental_uris": {"ios": "https://dc.lft.to/lastmile_qr_scan", "android": "https://dc.lft.to/lastmile_qr_scan"}}, {"name": "11539a28b6e58010f2cbfa2ff34ff0fe", "type": "electric_scooter", "lat": 38.9444415, "is_reserved": 0, "lon": -77.06356083333333, "fusion_lon": 0.0, "is_disabled": 0, "fusion_lat": 0.0, "bike_id": "11539a28b6e58010f2cbfa2ff34ff0fe", "rental_uris": {"ios": "https://dc.lft.to/lastmile_qr_scan", "android": "https://dc.lft.to/lastmile_qr_scan"}}, {"name": "dd1c98006cc89ab3dbad18c241907cd9", "type": "electric_scooter", "lat": 38.90544716666667, "is_reserved": 0, "lon": -77.02171383333334, "fusion_lon": 0.0, "is_disabled": 0, "fusion_lat": 0.0, "bike_id": "dd1c98006cc89ab3dbad18c241907cd9", "rental_uris": {"ios": "https://dc.lft.to/lastmile_qr_scan", "android": "https://dc.lft.to/lastmile_qr_scan"}}, {"name": "a6bff3cf106005635ef5939d13bf7c95", "type": "electric_scooter", "lat": 38.9214335, "is_reserved": 0, "lon": -77.043538, "fusion_lon": 0.0, "is_disabled": 0, "fusion_lat": 0.0, "bike_id": "a6bff3cf106005635ef5939d13bf7c95", "rental_uris": {"ios": "https://dc.lft.to/lastmile_qr_scan", "android": "https://dc.lft.to/lastmile_qr_scan"}}, {"name": "30ae74eacee84f0e63de28bb3344231f", "type": "electric_scooter", "lat": 38.906676833333336, "is_reserved": 0, "lon": -77.027087, "fusion_lon": 0.0, "is_disabled": 0, "fusion_lat": 0.0, "bike_id": "30ae74eacee84f0e63de28bb3344231f", "rental_uris": {"ios": "https://dc.lft.to/lastmile_qr_scan", "android": "https://dc.lft.to/lastmile_qr_scan"}}, {"name": "c6175e76b75e98321060fedd890d4573", "type": "electric_scooter", "lat": 38.909856833333336, "is_reserved": 0, "lon": -77.008902, "fusion_lon": 0.0, "is_disabled": 0, "fusion_lat": 0.0, "bike_id": "c6175e76b75e98321060fedd890d4573", "rental_uris": {"ios": "https://dc.lft.to/lastmile_qr_scan", "android": "https://dc.lft.to/lastmile_qr_scan"}}, {"name": "8421b0839d19b6d91fd8721814fddf51", "type": "electric_scooter", "lat": 38.899659666666665, "is_reserved": 0, "lon": -76.9377555, "fusion_lon": 0.0, "is_disabled": 0, "fusion_lat": 0.0, "bike_id": "8421b0839d19b6d91fd8721814fddf51", "rental_uris": {"ios": "https://dc.lft.to/lastmile_qr_scan", "android": "https://dc.lft.to/lastmile_qr_scan"}}, {"name": "6e384d6eee8d9bf30971f34f496e453f", "type": "electric_scooter", "lat": 38.91220633333333, "is_reserved": 0, "lon": -77.004726, "fusion_lon": 0.0, "is_disabled": 0, "fusion_lat": 0.0, "bike_id": "6e384d6eee8d9bf30971f34f496e453f", "rental_uris": {"ios": "https://dc.lft.to/lastmile_qr_scan", "android": "https://dc.lft.to/lastmile_qr_scan"}}, {"name": "a1f91ddd0766af6ba7038eb9ae4ce189", "type": "electric_scooter", "lat": 38.909575833333335, "is_reserved": 0, "lon": -77.048249, "fusion_lon": 0.0, "is_disabled": 0, "fusion_lat": 0.0, "bike_id": "a1f91ddd0766af6ba7038eb9ae4ce189", "rental_uris": {"ios": "https://dc.lft.to/lastmile_qr_scan", "android": "https://dc.lft.to/lastmile_qr_scan"}}, {"name": "095f3218091a27c5037fbbd0726307d4", "type": "electric_scooter", "lat": 38.908454666666664, "is_reserved": 0, "lon": -77.08531033333334, "fusion_lon": 0.0, "is_disabled": 0, "fusion_lat": 0.0, "bike_id": "095f3218091a27c5037fbbd0726307d4", "rental_uris": {"ios": "https://dc.lft.to/lastmile_qr_scan", "android": "https://dc.lft.to/lastmile_qr_scan"}}, {"name": "56947c80e9a40fc5d5cde60d1ac79fc6", "type": "electric_scooter", "lat": 38.897686666666665, "is_reserved": 0, "lon": -77.0293055, "fusion_lon": 0.0, "is_disabled": 0, "fusion_lat": 0.0, "bike_id": "56947c80e9a40fc5d5cde60d1ac79fc6", "rental_uris": {"ios": "https://dc.lft.to/lastmile_qr_scan", "android": "https://dc.lft.to/lastmile_qr_scan"}}, {"name": "474488e10fa03ab4df54d72fa715a851", "type": "electric_scooter", "lat": 38.9187425, "is_reserved": 0, "lon": -77.041957, "fusion_lon": 0.0, "is_disabled": 0, "fusion_lat": 0.0, "bike_id": "474488e10fa03ab4df54d72fa715a851", "rental_uris": {"ios": "https://dc.lft.to/lastmile_qr_scan", "android": "https://dc.lft.to/lastmile_qr_scan"}}, {"name": "cd0e904ab83b79b41d3379d3554ae1db", "type": "electric_scooter", "lat": 38.9187415, "is_reserved": 0, "lon": -77.03504766666667, "fusion_lon": 0.0, "is_disabled": 0, "fusion_lat": 0.0, "bike_id": "cd0e904ab83b79b41d3379d3554ae1db", "rental_uris": {"ios": "https://dc.lft.to/lastmile_qr_scan", "android": "https://dc.lft.to/lastmile_qr_scan"}}, {"name": "93d18dc16286b367680a238b25379779", "type": "electric_scooter", "lat": 38.87677733333334, "is_reserved": 0, "lon": -77.00074533333333, "fusion_lon": 0.0, "is_disabled": 0, "fusion_lat": 0.0, "bike_id": "93d18dc16286b367680a238b25379779", "rental_uris": {"ios": "https://dc.lft.to/lastmile_qr_scan", "android": "https://dc.lft.to/lastmile_qr_scan"}}, {"name": "ee51d15a9f2777598bbe5f12c7bfbc72", "type": "electric_scooter", "lat": 38.905643833333336, "is_reserved": 0, "lon": -76.981359, "fusion_lon": 0.0, "is_disabled": 0, "fusion_lat": 0.0, "bike_id": "ee51d15a9f2777598bbe5f12c7bfbc72", "rental_uris": {"ios": "https://dc.lft.to/lastmile_qr_scan", "android": "https://dc.lft.to/lastmile_qr_scan"}}, {"name": "75c33f2a3ee6298f7809db62cd447cf0", "type": "electric_scooter", "lat": 38.90628233333333, "is_reserved": 0, "lon": -77.04172516666667, "fusion_lon": 0.0, "is_disabled": 0, "fusion_lat": 0.0, "bike_id": "75c33f2a3ee6298f7809db62cd447cf0", "rental_uris": {"ios": "https://dc.lft.to/lastmile_qr_scan", "android": "https://dc.lft.to/lastmile_qr_scan"}}, {"name": "20a7be025167596d943e1546d23b8042", "type": "electric_scooter", "lat": 38.90028383333333, "is_reserved": 0, "lon": -76.998597, "fusion_lon": 0.0, "is_disabled": 0, "fusion_lat": 0.0, "bike_id": "20a7be025167596d943e1546d23b8042", "rental_uris": {"ios": "https://dc.lft.to/lastmile_qr_scan", "android": "https://dc.lft.to/lastmile_qr_scan"}}, {"name": "5acebfbf1fff9ddbb5143bea68462e19", "type": "electric_scooter", "lat": 38.9427885, "is_reserved": 0, "lon": -77.0250425, "fusion_lon": 0.0, "is_disabled": 0, "fusion_lat": 0.0, "bike_id": "5acebfbf1fff9ddbb5143bea68462e19", "rental_uris": {"ios": "https://dc.lft.to/lastmile_qr_scan", "android": "https://dc.lft.to/lastmile_qr_scan"}}, {"name": "0038e754acabfd1a3b75cff41291303b", "type": "electric_scooter", "lat": 38.86697566666667, "is_reserved": 0, "lon": -76.98709583333333, "fusion_lon": 0.0, "is_disabled": 0, "fusion_lat": 0.0, "bike_id": "0038e754acabfd1a3b75cff41291303b", "rental_uris": {"ios": "https://dc.lft.to/lastmile_qr_scan", "android": "https://dc.lft.to/lastmile_qr_scan"}}, {"name": "a11532b64ae081aa3d57938df97ed3d5", "type": "electric_scooter", "lat": 38.916174166666664, "is_reserved": 0, "lon": -77.03169966666667, "fusion_lon": 0.0, "is_disabled": 0, "fusion_lat": 0.0, "bike_id": "a11532b64ae081aa3d57938df97ed3d5", "rental_uris": {"ios": "https://dc.lft.to/lastmile_qr_scan", "android": "https://dc.lft.to/lastmile_qr_scan"}}, {"name": "0c5464074b641baaf920d140d6ba432d", "type": "electric_bike", "lat": 38.90531033333333, "is_reserved": 0, "lon": -76.9979965, "fusion_lon": 0.0, "is_disabled": 0, "fusion_lat": 0.0, "bike_id": "0c5464074b641baaf920d140d6ba432d", "rental_uris": {"ios": "https://dc.lft.to/lastmile_qr_scan", "android": "https://dc.lft.to/lastmile_qr_scan"}}, {"name": "a7edfd9112ae03926d3a0c0fe16053f6", "type": "electric_scooter", "lat": 38.89675733333333, "is_reserved": 0, "lon": -77.0540465, "fusion_lon": 0.0, "is_disabled": 0, "fusion_lat": 0.0, "bike_id": "a7edfd9112ae03926d3a0c0fe16053f6", "rental_uris": {"ios": "https://dc.lft.to/lastmile_qr_scan", "android": "https://dc.lft.to/lastmile_qr_scan"}}, {"name": "690c66633f604ec36f687db42fc68984", "type": "electric_scooter", "lat": 38.89892066666667, "is_reserved": 0, "lon": -76.93174483333334, "fusion_lon": 0.0, "is_disabled": 0, "fusion_lat": 0.0, "bike_id": "690c66633f604ec36f687db42fc68984", "rental_uris": {"ios": "https://dc.lft.to/lastmile_qr_scan", "android": "https://dc.lft.to/lastmile_qr_scan"}}, {"name": "473ab178c39663ab2a6c68b03cb695c3", "type": "electric_scooter", "lat": 38.922904, "is_reserved": 0, "lon": -77.02074316666666, "fusion_lon": 0.0, "is_disabled": 0, "fusion_lat": 0.0, "bike_id": "473ab178c39663ab2a6c68b03cb695c3", "rental_uris": {"ios": "https://dc.lft.to/lastmile_qr_scan", "android": "https://dc.lft.to/lastmile_qr_scan"}}, {"name": "c2b4699470fa97dcd74cc9f52db0e624", "type": "electric_scooter", "lat": 38.93712716666667, "is_reserved": 0, "lon": -77.036533, "fusion_lon": 0.0, "is_disabled": 0, "fusion_lat": 0.0, "bike_id": "c2b4699470fa97dcd74cc9f52db0e624", "rental_uris": {"ios": "https://dc.lft.to/lastmile_qr_scan", "android": "https://dc.lft.to/lastmile_qr_scan"}}, {"name": "2dc77d7abc8ec9079d099465e31991fe", "type": "electric_scooter", "lat": 38.899019333333335, "is_reserved": 0, "lon": -77.00735533333334, "fusion_lon": 0.0, "is_disabled": 0, "fusion_lat": 0.0, "bike_id": "2dc77d7abc8ec9079d099465e31991fe", "rental_uris": {"ios": "https://dc.lft.to/lastmile_qr_scan", "android": "https://dc.lft.to/lastmile_qr_scan"}}, {"name": "d037ea3a7a794f0f986dadd80a237d79", "type": "electric_scooter", "lat": 38.913303, "is_reserved": 0, "lon": -77.03039983333333, "fusion_lon": 0.0, "is_disabled": 0, "fusion_lat": 0.0, "bike_id": "d037ea3a7a794f0f986dadd80a237d79", "rental_uris": {"ios": "https://dc.lft.to/lastmile_qr_scan", "android": "https://dc.lft.to/lastmile_qr_scan"}}, {"name": "e50ba0a63f144f5bc8efd3c4e5812fda", "type": "electric_bike", "lat": 38.990906333333335, "is_reserved": 0, "lon": -76.8749895, "fusion_lon": 0.0, "is_disabled": 0, "fusion_lat": 0.0, "bike_id": "e50ba0a63f144f5bc8efd3c4e5812fda", "rental_uris": {"ios": "https://dc.lft.to/lastmile_qr_scan", "android": "https://dc.lft.to/lastmile_qr_scan"}}, {"name": "0772d4ae44a963a18f06bc6542a7c4c8", "type": "electric_scooter", "lat": 38.90362066666667, "is_reserved": 0, "lon": -77.046788, "fusion_lon": 0.0, "is_disabled": 0, "fusion_lat": 0.0, "bike_id": "0772d4ae44a963a18f06bc6542a7c4c8", "rental_uris": {"ios": "https://dc.lft.to/lastmile_qr_scan", "android": "https://dc.lft.to/lastmile_qr_scan"}}, {"name": "a9ed138070e539b8d4e1f8abb353b584", "type": "electric_bike", "lat": 38.918748666666666, "is_reserved": 0, "lon": -77.0375515, "fusion_lon": 0.0, "is_disabled": 0, "fusion_lat": 0.0, "bike_id": "a9ed138070e539b8d4e1f8abb353b584", "rental_uris": {"ios": "https://dc.lft.to/lastmile_qr_scan", "android": "https://dc.lft.to/lastmile_qr_scan"}}, {"name": "56dcf1151cddcdb5298413b6aede3724", "type": "electric_scooter", "lat": 38.93272, "is_reserved": 0, "lon": -77.03485333333333, "fusion_lon": 0.0, "is_disabled": 0, "fusion_lat": 0.0, "bike_id": "56dcf1151cddcdb5298413b6aede3724", "rental_uris": {"ios": "https://dc.lft.to/lastmile_qr_scan", "android": "https://dc.lft.to/lastmile_qr_scan"}}, {"name": "7f39b0d0477f5b093df52d80a8c1436a", "type": "electric_scooter", "lat": 38.90302583333333, "is_reserved": 0, "lon": -77.0319105, "fusion_lon": 0.0, "is_disabled": 0, "fusion_lat": 0.0, "bike_id": "7f39b0d0477f5b093df52d80a8c1436a", "rental_uris": {"ios": "https://dc.lft.to/lastmile_qr_scan", "android": "https://dc.lft.to/lastmile_qr_scan"}}, {"name": "5b6aa79ca40837efb605009877410d07", "type": "electric_scooter", "lat": 38.930718666666664, "is_reserved": 0, "lon": -77.033959, "fusion_lon": 0.0, "is_disabled": 0, "fusion_lat": 0.0, "bike_id": "5b6aa79ca40837efb605009877410d07", "rental_uris": {"ios": "https://dc.lft.to/lastmile_qr_scan", "android": "https://dc.lft.to/lastmile_qr_scan"}}, {"name": "1129912149f93b9f34bc62826b4fe26e", "type": "electric_scooter", "lat": 38.865635833333336, "is_reserved": 0, "lon": -76.985486, "fusion_lon": 0.0, "is_disabled": 0, "fusion_lat": 0.0, "bike_id": "1129912149f93b9f34bc62826b4fe26e", "rental_uris": {"ios": "https://dc.lft.to/lastmile_qr_scan", "android": "https://dc.lft.to/lastmile_qr_scan"}}, {"name": "27a7e8da7b85c18b9dbfc9669bd7f97b", "type": "electric_bike", "lat": 38.98503633333333, "is_reserved": 0, "lon": -76.98205233333333, "fusion_lon": 0.0, "is_disabled": 0, "fusion_lat": 0.0, "bike_id": "27a7e8da7b85c18b9dbfc9669bd7f97b", "rental_uris": {"ios": "https://dc.lft.to/lastmile_qr_scan", "android": "https://dc.lft.to/lastmile_qr_scan"}}, {"name": "4d1d3afca76d0ae15ba19bf24488e8aa", "type": "electric_scooter", "lat": 38.944626, "is_reserved": 0, "lon": -77.00656033333334, "fusion_lon": 0.0, "is_disabled": 0, "fusion_lat": 0.0, "bike_id": "4d1d3afca76d0ae15ba19bf24488e8aa", "rental_uris": {"ios": "https://dc.lft.to/lastmile_qr_scan", "android": "https://dc.lft.to/lastmile_qr_scan"}}, {"name": "a93caa77eb592f34bbb40e67411019bb", "type": "electric_scooter", "lat": 38.90569583333333, "is_reserved": 0, "lon": -77.00573683333333, "fusion_lon": 0.0, "is_disabled": 0, "fusion_lat": 0.0, "bike_id": "a93caa77eb592f34bbb40e67411019bb", "rental_uris": {"ios": "https://dc.lft.to/lastmile_qr_scan", "android": "https://dc.lft.to/lastmile_qr_scan"}}, {"name": "50bb7b018f02aa0874fe3a08cb54eb10", "type": "electric_scooter", "lat": 38.884330166666665, "is_reserved": 0, "lon": -77.02965666666667, "fusion_lon": 0.0, "is_disabled": 0, "fusion_lat": 0.0, "bike_id": "50bb7b018f02aa0874fe3a08cb54eb10", "rental_uris": {"ios": "https://dc.lft.to/lastmile_qr_scan", "android": "https://dc.lft.to/lastmile_qr_scan"}}, {"name": "18831799fd2ac10c0a279c30c3486494", "type": "electric_scooter", "lat": 38.873372333333336, "is_reserved": 0, "lon": -77.01852633333333, "fusion_lon": 0.0, "is_disabled": 0, "fusion_lat": 0.0, "bike_id": "18831799fd2ac10c0a279c30c3486494", "rental_uris": {"ios": "https://dc.lft.to/lastmile_qr_scan", "android": "https://dc.lft.to/lastmile_qr_scan"}}, {"name": "5ddbf24343d3bcc17ce003ae960ad93e", "type": "electric_bike", "lat": 38.865592666666664, "is_reserved": 0, "lon": -76.97368433333334, "fusion_lon": 0.0, "is_disabled": 0, "fusion_lat": 0.0, "bike_id": "5ddbf24343d3bcc17ce003ae960ad93e", "rental_uris": {"ios": "https://dc.lft.to/lastmile_qr_scan", "android": "https://dc.lft.to/lastmile_qr_scan"}}, {"name": "371fb7b372605da1ec582d92cf00a90e", "type": "electric_scooter", "lat": 38.8700975, "is_reserved": 0, "lon": -77.0122805, "fusion_lon": 0.0, "is_disabled": 0, "fusion_lat": 0.0, "bike_id": "371fb7b372605da1ec582d92cf00a90e", "rental_uris": {"ios": "https://dc.lft.to/lastmile_qr_scan", "android": "https://dc.lft.to/lastmile_qr_scan"}}, {"name": "5434ec8d9174c95d51e7b89a1e4f0997", "type": "electric_bike", "lat": 38.81330883333333, "is_reserved": 0, "lon": -77.05112, "fusion_lon": 0.0, "is_disabled": 0, "fusion_lat": 0.0, "bike_id": "5434ec8d9174c95d51e7b89a1e4f0997", "rental_uris": {"ios": "https://dc.lft.to/lastmile_qr_scan", "android": "https://dc.lft.to/lastmile_qr_scan"}}, {"name": "a8c94b6e2b160b9e863448d26d7b9a1d", "type": "electric_scooter", "lat": 38.897314, "is_reserved": 0, "lon": -77.05473666666667, "fusion_lon": 0.0, "is_disabled": 0, "fusion_lat": 0.0, "bike_id": "a8c94b6e2b160b9e863448d26d7b9a1d", "rental_uris": {"ios": "https://dc.lft.to/lastmile_qr_scan", "android": "https://dc.lft.to/lastmile_qr_scan"}}, {"name": "46aa7d78b07b76c33559a0267ad29015", "type": "electric_scooter", "lat": 38.932345166666664, "is_reserved": 0, "lon": -77.03837883333334, "fusion_lon": 0.0, "is_disabled": 0, "fusion_lat": 0.0, "bike_id": "46aa7d78b07b76c33559a0267ad29015", "rental_uris": {"ios": "https://dc.lft.to/lastmile_qr_scan", "android": "https://dc.lft.to/lastmile_qr_scan"}}, {"name": "9ba8450ad93c9550701b64722dc7f5ad", "type": "electric_scooter", "lat": 38.94436366666667, "is_reserved": 0, "lon": -77.06352816666667, "fusion_lon": 0.0, "is_disabled": 0, "fusion_lat": 0.0, "bike_id": "9ba8450ad93c9550701b64722dc7f5ad", "rental_uris": {"ios": "https://dc.lft.to/lastmile_qr_scan", "android": "https://dc.lft.to/lastmile_qr_scan"}}, {"name": "6dcd07a81f85cf28668fc2b68d03cdb9", "type": "electric_scooter", "lat": 38.862399, "is_reserved": 0, "lon": -76.99494766666666, "fusion_lon": 0.0, "is_disabled": 0, "fusion_lat": 0.0, "bike_id": "6dcd07a81f85cf28668fc2b68d03cdb9", "rental_uris": {"ios": "https://dc.lft.to/lastmile_qr_scan", "android": "https://dc.lft.to/lastmile_qr_scan"}}, {"name": "b91962da25aa71adc2b2eae1f4d8882d", "type": "electric_scooter", "lat": 38.909378, "is_reserved": 0, "lon": -76.99958533333333, "fusion_lon": 0.0, "is_disabled": 0, "fusion_lat": 0.0, "bike_id": "b91962da25aa71adc2b2eae1f4d8882d", "rental_uris": {"ios": "https://dc.lft.to/lastmile_qr_scan", "android": "https://dc.lft.to/lastmile_qr_scan"}}, {"name": "e894a16b6bb264ede4af206f195c7ee2", "type": "electric_scooter", "lat": 38.91693866666667, "is_reserved": 0, "lon": -77.031863, "fusion_lon": 0.0, "is_disabled": 0, "fusion_lat": 0.0, "bike_id": "e894a16b6bb264ede4af206f195c7ee2", "rental_uris": {"ios": "https://dc.lft.to/lastmile_qr_scan", "android": "https://dc.lft.to/lastmile_qr_scan"}}, {"name": "b983a113aa6ff7dbcd6aaf8157bfb7cd", "type": "electric_scooter", "lat": 38.865198, "is_reserved": 0, "lon": -76.9902975, "fusion_lon": 0.0, "is_disabled": 0, "fusion_lat": 0.0, "bike_id": "b983a113aa6ff7dbcd6aaf8157bfb7cd", "rental_uris": {"ios": "https://dc.lft.to/lastmile_qr_scan", "android": "https://dc.lft.to/lastmile_qr_scan"}}, {"name": "a4a43208d764a5ae4018b6b5ff279d62", "type": "electric_scooter", "lat": 38.927416, "is_reserved": 0, "lon": -77.03264916666667, "fusion_lon": 0.0, "is_disabled": 0, "fusion_lat": 0.0, "bike_id": "a4a43208d764a5ae4018b6b5ff279d62", "rental_uris": {"ios": "https://dc.lft.to/lastmile_qr_scan", "android": "https://dc.lft.to/lastmile_qr_scan"}}, {"name": "2f27ef66d542431972b0ea47df7ce0a1", "type": "electric_scooter", "lat": 38.95520883333333, "is_reserved": 0, "lon": -77.06987966666667, "fusion_lon": 0.0, "is_disabled": 0, "fusion_lat": 0.0, "bike_id": "2f27ef66d542431972b0ea47df7ce0a1", "rental_uris": {"ios": "https://dc.lft.to/lastmile_qr_scan", "android": "https://dc.lft.to/lastmile_qr_scan"}}, {"name": "e6d67e1480af311a0e2feaa944f5d509", "type": "electric_scooter", "lat": 38.924711333333335, "is_reserved": 0, "lon": -77.026657, "fusion_lon": 0.0, "is_disabled": 0, "fusion_lat": 0.0, "bike_id": "e6d67e1480af311a0e2feaa944f5d509", "rental_uris": {"ios": "https://dc.lft.to/lastmile_qr_scan", "android": "https://dc.lft.to/lastmile_qr_scan"}}, {"name": "1f4a89b514750b96ead1447aec97023a", "type": "electric_scooter", "lat": 38.922612666666666, "is_reserved": 0, "lon": -77.03636766666666, "fusion_lon": 0.0, "is_disabled": 0, "fusion_lat": 0.0, "bike_id": "1f4a89b514750b96ead1447aec97023a", "rental_uris": {"ios": "https://dc.lft.to/lastmile_qr_scan", "android": "https://dc.lft.to/lastmile_qr_scan"}}, {"name": "e30da6da3bdf8258fdaa1adc3f4762b3", "type": "electric_scooter", "lat": 38.8997745, "is_reserved": 0, "lon": -77.02949733333334, "fusion_lon": 0.0, "is_disabled": 0, "fusion_lat": 0.0, "bike_id": "e30da6da3bdf8258fdaa1adc3f4762b3", "rental_uris": {"ios": "https://dc.lft.to/lastmile_qr_scan", "android": "https://dc.lft.to/lastmile_qr_scan"}}, {"name": "8a502fbce99e2f09d25ad4bd6247f721", "type": "electric_scooter", "lat": 38.9194985, "is_reserved": 0, "lon": -77.045578, "fusion_lon": 0.0, "is_disabled": 0, "fusion_lat": 0.0, "bike_id": "8a502fbce99e2f09d25ad4bd6247f721", "rental_uris": {"ios": "https://dc.lft.to/lastmile_qr_scan", "android": "https://dc.lft.to/lastmile_qr_scan"}}, {"name": "cc60e9ea51dccaab0e705827f83528a7", "type": "electric_bike", "lat": 38.958798333333334, "is_reserved": 0, "lon": -77.01735683333334, "fusion_lon": 0.0, "is_disabled": 0, "fusion_lat": 0.0, "bike_id": "cc60e9ea51dccaab0e705827f83528a7", "rental_uris": {"ios": "https://dc.lft.to/lastmile_qr_scan", "android": "https://dc.lft.to/lastmile_qr_scan"}}, {"name": "3e20f4e6c1ade02373e45ae687d136e5", "type": "electric_scooter", "lat": 38.906642833333336, "is_reserved": 0, "lon": -77.026893, "fusion_lon": 0.0, "is_disabled": 0, "fusion_lat": 0.0, "bike_id": "3e20f4e6c1ade02373e45ae687d136e5", "rental_uris": {"ios": "https://dc.lft.to/lastmile_qr_scan", "android": "https://dc.lft.to/lastmile_qr_scan"}}, {"name": "140b64983c4ebf17afaf9729a36c16a9", "type": "electric_scooter", "lat": 38.9427565, "is_reserved": 0, "lon": -77.02504516666667, "fusion_lon": 0.0, "is_disabled": 0, "fusion_lat": 0.0, "bike_id": "140b64983c4ebf17afaf9729a36c16a9", "rental_uris": {"ios": "https://dc.lft.to/lastmile_qr_scan", "android": "https://dc.lft.to/lastmile_qr_scan"}}, {"name": "403b28ba60e44590e278665dbae3c4f6", "type": "electric_scooter", "lat": 38.900108, "is_reserved": 0, "lon": -76.98457283333333, "fusion_lon": 0.0, "is_disabled": 0, "fusion_lat": 0.0, "bike_id": "403b28ba60e44590e278665dbae3c4f6", "rental_uris": {"ios": "https://dc.lft.to/lastmile_qr_scan", "android": "https://dc.lft.to/lastmile_qr_scan"}}, {"name": "c74af4865abca9ab4e454cd66a165aac", "type": "electric_scooter", "lat": 38.916267833333336, "is_reserved": 0, "lon": -77.0108725, "fusion_lon": 0.0, "is_disabled": 0, "fusion_lat": 0.0, "bike_id": "c74af4865abca9ab4e454cd66a165aac", "rental_uris": {"ios": "https://dc.lft.to/lastmile_qr_scan", "android": "https://dc.lft.to/lastmile_qr_scan"}}, {"name": "3ad59caa0213f878d50bf83aa7808d76", "type": "electric_scooter", "lat": 38.866553833333334, "is_reserved": 0, "lon": -76.98883633333334, "fusion_lon": 0.0, "is_disabled": 0, "fusion_lat": 0.0, "bike_id": "3ad59caa0213f878d50bf83aa7808d76", "rental_uris": {"ios": "https://dc.lft.to/lastmile_qr_scan", "android": "https://dc.lft.to/lastmile_qr_scan"}}, {"name": "4aa01e50ce90a6ccae01bb1db17a2d4a", "type": "electric_scooter", "lat": 38.927672666666666, "is_reserved": 0, "lon": -77.02736233333333, "fusion_lon": 0.0, "is_disabled": 0, "fusion_lat": 0.0, "bike_id": "4aa01e50ce90a6ccae01bb1db17a2d4a", "rental_uris": {"ios": "https://dc.lft.to/lastmile_qr_scan", "android": "https://dc.lft.to/lastmile_qr_scan"}}, {"name": "2f2ece6444cd518a0ab022c6163e288d", "type": "electric_scooter", "lat": 38.89650916666667, "is_reserved": 0, "lon": -77.032307, "fusion_lon": 0.0, "is_disabled": 0, "fusion_lat": 0.0, "bike_id": "2f2ece6444cd518a0ab022c6163e288d", "rental_uris": {"ios": "https://dc.lft.to/lastmile_qr_scan", "android": "https://dc.lft.to/lastmile_qr_scan"}}, {"name": "58872ad8298ab9a03802e9529002c1f9", "type": "electric_scooter", "lat": 38.916214833333335, "is_reserved": 0, "lon": -77.03643383333333, "fusion_lon": 0.0, "is_disabled": 0, "fusion_lat": 0.0, "bike_id": "58872ad8298ab9a03802e9529002c1f9", "rental_uris": {"ios": "https://dc.lft.to/lastmile_qr_scan", "android": "https://dc.lft.to/lastmile_qr_scan"}}, {"name": "e9d3552b439285bc36ad588cc9750a15", "type": "electric_scooter", "lat": 38.895877, "is_reserved": 0, "lon": -77.02729016666666, "fusion_lon": 0.0, "is_disabled": 0, "fusion_lat": 0.0, "bike_id": "e9d3552b439285bc36ad588cc9750a15", "rental_uris": {"ios": "https://dc.lft.to/lastmile_qr_scan", "android": "https://dc.lft.to/lastmile_qr_scan"}}, {"name": "0527372160bc4bd0cfbeb90451c51d63", "type": "electric_scooter", "lat": 38.9023785, "is_reserved": 0, "lon": -77.00197633333333, "fusion_lon": 0.0, "is_disabled": 0, "fusion_lat": 0.0, "bike_id": "0527372160bc4bd0cfbeb90451c51d63", "rental_uris": {"ios": "https://dc.lft.to/lastmile_qr_scan", "android": "https://dc.lft.to/lastmile_qr_scan"}}, {"name": "71ac71e10459594105db16b9ae40a226", "type": "electric_scooter", "lat": 38.92564816666667, "is_reserved": 0, "lon": -77.02281833333333, "fusion_lon": 0.0, "is_disabled": 0, "fusion_lat": 0.0, "bike_id": "71ac71e10459594105db16b9ae40a226", "rental_uris": {"ios": "https://dc.lft.to/lastmile_qr_scan", "android": "https://dc.lft.to/lastmile_qr_scan"}}, {"name": "bdb76e702f1428aa6a1cdf280b03f182", "type": "electric_scooter", "lat": 38.930149, "is_reserved": 0, "lon": -77.03783983333334, "fusion_lon": 0.0, "is_disabled": 0, "fusion_lat": 0.0, "bike_id": "bdb76e702f1428aa6a1cdf280b03f182", "rental_uris": {"ios": "https://dc.lft.to/lastmile_qr_scan", "android": "https://dc.lft.to/lastmile_qr_scan"}}, {"name": "68e56597dc2eb2df07d13052496b036f", "type": "electric_scooter", "lat": 38.92365133333333, "is_reserved": 0, "lon": -77.0503075, "fusion_lon": 0.0, "is_disabled": 0, "fusion_lat": 0.0, "bike_id": "68e56597dc2eb2df07d13052496b036f", "rental_uris": {"ios": "https://dc.lft.to/lastmile_qr_scan", "android": "https://dc.lft.to/lastmile_qr_scan"}}, {"name": "c7e740d112ec89cfac9bdbc6941cdab0", "type": "electric_scooter", "lat": 38.92736033333333, "is_reserved": 0, "lon": -77.02491516666667, "fusion_lon": 0.0, "is_disabled": 0, "fusion_lat": 0.0, "bike_id": "c7e740d112ec89cfac9bdbc6941cdab0", "rental_uris": {"ios": "https://dc.lft.to/lastmile_qr_scan", "android": "https://dc.lft.to/lastmile_qr_scan"}}, {"name": "ecdb14493694d9d1dc6007b166a6c007", "type": "electric_scooter", "lat": 38.892308, "is_reserved": 0, "lon": -77.01266783333334, "fusion_lon": 0.0, "is_disabled": 0, "fusion_lat": 0.0, "bike_id": "ecdb14493694d9d1dc6007b166a6c007", "rental_uris": {"ios": "https://dc.lft.to/lastmile_qr_scan", "android": "https://dc.lft.to/lastmile_qr_scan"}}, {"name": "1f6cd3dec526e651b2f1a736c7b6b163", "type": "electric_scooter", "lat": 38.880294166666665, "is_reserved": 0, "lon": -76.9884085, "fusion_lon": 0.0, "is_disabled": 0, "fusion_lat": 0.0, "bike_id": "1f6cd3dec526e651b2f1a736c7b6b163", "rental_uris": {"ios": "https://dc.lft.to/lastmile_qr_scan", "android": "https://dc.lft.to/lastmile_qr_scan"}}, {"name": "048e16775453c06c28dbbdb5b8a35c50", "type": "electric_scooter", "lat": 38.93398066666666, "is_reserved": 0, "lon": -77.0388195, "fusion_lon": 0.0, "is_disabled": 0, "fusion_lat": 0.0, "bike_id": "048e16775453c06c28dbbdb5b8a35c50", "rental_uris": {"ios": "https://dc.lft.to/lastmile_qr_scan", "android": "https://dc.lft.to/lastmile_qr_scan"}}, {"name": "f0e23575022a1ec1a274922de018cfc8", "type": "electric_scooter", "lat": 38.87124633333333, "is_reserved": 0, "lon": -77.005994, "fusion_lon": 0.0, "is_disabled": 0, "fusion_lat": 0.0, "bike_id": "f0e23575022a1ec1a274922de018cfc8", "rental_uris": {"ios": "https://dc.lft.to/lastmile_qr_scan", "android": "https://dc.lft.to/lastmile_qr_scan"}}, {"name": "0f59047eaa6f025a5c83d164c9e2e5b7", "type": "electric_scooter", "lat": 38.87730166666667, "is_reserved": 0, "lon": -77.00596416666667, "fusion_lon": 0.0, "is_disabled": 0, "fusion_lat": 0.0, "bike_id": "0f59047eaa6f025a5c83d164c9e2e5b7", "rental_uris": {"ios": "https://dc.lft.to/lastmile_qr_scan", "android": "https://dc.lft.to/lastmile_qr_scan"}}, {"name": "ad48e51bad8aa320e47df2eb02222c19", "type": "electric_scooter", "lat": 38.904998666666664, "is_reserved": 0, "lon": -77.053318, "fusion_lon": 0.0, "is_disabled": 0, "fusion_lat": 0.0, "bike_id": "ad48e51bad8aa320e47df2eb02222c19", "rental_uris": {"ios": "https://dc.lft.to/lastmile_qr_scan", "android": "https://dc.lft.to/lastmile_qr_scan"}}, {"name": "7c82c4257ad17d23e56926cfd0378b94", "type": "electric_scooter", "lat": 38.917051666666666, "is_reserved": 0, "lon": -77.02511066666666, "fusion_lon": 0.0, "is_disabled": 0, "fusion_lat": 0.0, "bike_id": "7c82c4257ad17d23e56926cfd0378b94", "rental_uris": {"ios": "https://dc.lft.to/lastmile_qr_scan", "android": "https://dc.lft.to/lastmile_qr_scan"}}, {"name": "e26f4852024847081a874705f1b0baa9", "type": "electric_scooter", "lat": 38.88331066666667, "is_reserved": 0, "lon": -77.01524066666667, "fusion_lon": 0.0, "is_disabled": 0, "fusion_lat": 0.0, "bike_id": "e26f4852024847081a874705f1b0baa9", "rental_uris": {"ios": "https://dc.lft.to/lastmile_qr_scan", "android": "https://dc.lft.to/lastmile_qr_scan"}}, {"name": "5180da10470c1be7b9c8d7a3cf003b2f", "type": "electric_scooter", "lat": 38.93910133333333, "is_reserved": 0, "lon": -77.060467, "fusion_lon": 0.0, "is_disabled": 0, "fusion_lat": 0.0, "bike_id": "5180da10470c1be7b9c8d7a3cf003b2f", "rental_uris": {"ios": "https://dc.lft.to/lastmile_qr_scan", "android": "https://dc.lft.to/lastmile_qr_scan"}}, {"name": "8e7917fecfdde2d686c0917a16c3b1d6", "type": "electric_scooter", "lat": 38.88495483333333, "is_reserved": 0, "lon": -77.00725166666666, "fusion_lon": 0.0, "is_disabled": 0, "fusion_lat": 0.0, "bike_id": "8e7917fecfdde2d686c0917a16c3b1d6", "rental_uris": {"ios": "https://dc.lft.to/lastmile_qr_scan", "android": "https://dc.lft.to/lastmile_qr_scan"}}, {"name": "384b5aaf7f2f37c0e420d88b97d16ae5", "type": "electric_scooter", "lat": 38.934151, "is_reserved": 0, "lon": -77.02418883333333, "fusion_lon": 0.0, "is_disabled": 0, "fusion_lat": 0.0, "bike_id": "384b5aaf7f2f37c0e420d88b97d16ae5", "rental_uris": {"ios": "https://dc.lft.to/lastmile_qr_scan", "android": "https://dc.lft.to/lastmile_qr_scan"}}, {"name": "6be0404fae44960fe9ad4013a8bade1b", "type": "electric_scooter", "lat": 38.89503783333333, "is_reserved": 0, "lon": -77.02391533333333, "fusion_lon": 0.0, "is_disabled": 0, "fusion_lat": 0.0, "bike_id": "6be0404fae44960fe9ad4013a8bade1b", "rental_uris": {"ios": "https://dc.lft.to/lastmile_qr_scan", "android": "https://dc.lft.to/lastmile_qr_scan"}}, {"name": "37292dd62140b3fb655d8947ab97d378", "type": "electric_scooter", "lat": 38.90060183333333, "is_reserved": 0, "lon": -77.03194466666666, "fusion_lon": 0.0, "is_disabled": 0, "fusion_lat": 0.0, "bike_id": "37292dd62140b3fb655d8947ab97d378", "rental_uris": {"ios": "https://dc.lft.to/lastmile_qr_scan", "android": "https://dc.lft.to/lastmile_qr_scan"}}, {"name": "44cdf94fade2038988eee7377211afcd", "type": "electric_scooter", "lat": 38.9167945, "is_reserved": 0, "lon": -77.02807766666666, "fusion_lon": 0.0, "is_disabled": 0, "fusion_lat": 0.0, "bike_id": "44cdf94fade2038988eee7377211afcd", "rental_uris": {"ios": "https://dc.lft.to/lastmile_qr_scan", "android": "https://dc.lft.to/lastmile_qr_scan"}}, {"name": "436ad9b63b0941d90a5b767768867f3b", "type": "electric_scooter", "lat": 38.90030983333333, "is_reserved": 0, "lon": -76.99731166666666, "fusion_lon": 0.0, "is_disabled": 0, "fusion_lat": 0.0, "bike_id": "436ad9b63b0941d90a5b767768867f3b", "rental_uris": {"ios": "https://dc.lft.to/lastmile_qr_scan", "android": "https://dc.lft.to/lastmile_qr_scan"}}, {"name": "b90b953c3fd8a8c948f4e8ab3e9dc99b", "type": "electric_scooter", "lat": 38.888703, "is_reserved": 0, "lon": -76.99028083333333, "fusion_lon": 0.0, "is_disabled": 0, "fusion_lat": 0.0, "bike_id": "b90b953c3fd8a8c948f4e8ab3e9dc99b", "rental_uris": {"ios": "https://dc.lft.to/lastmile_qr_scan", "android": "https://dc.lft.to/lastmile_qr_scan"}}, {"name": "a2768eae68a091fb1f21c22831487c1e", "type": "electric_bike", "lat": 38.82724433333333, "is_reserved": 0, "lon": -77.00859683333333, "fusion_lon": 0.0, "is_disabled": 0, "fusion_lat": 0.0, "bike_id": "a2768eae68a091fb1f21c22831487c1e", "rental_uris": {"ios": "https://dc.lft.to/lastmile_qr_scan", "android": "https://dc.lft.to/lastmile_qr_scan"}}, {"name": "d0b32a95e0eb175e238cceeb4b5026e1", "type": "electric_scooter", "lat": 38.899127666666665, "is_reserved": 0, "lon": -77.03294, "fusion_lon": 0.0, "is_disabled": 0, "fusion_lat": 0.0, "bike_id": "d0b32a95e0eb175e238cceeb4b5026e1", "rental_uris": {"ios": "https://dc.lft.to/lastmile_qr_scan", "android": "https://dc.lft.to/lastmile_qr_scan"}}, {"name": "60b5c1c852552dd78d7b4657587cd28e", "type": "electric_scooter", "lat": 38.90081816666667, "is_reserved": 0, "lon": -76.938653, "fusion_lon": 0.0, "is_disabled": 0, "fusion_lat": 0.0, "bike_id": "60b5c1c852552dd78d7b4657587cd28e", "rental_uris": {"ios": "https://dc.lft.to/lastmile_qr_scan", "android": "https://dc.lft.to/lastmile_qr_scan"}}, {"name": "3d53fce1e051c7d518ff4e6a003937b9", "type": "electric_scooter", "lat": 38.92346966666667, "is_reserved": 0, "lon": -77.03525483333334, "fusion_lon": 0.0, "is_disabled": 0, "fusion_lat": 0.0, "bike_id": "3d53fce1e051c7d518ff4e6a003937b9", "rental_uris": {"ios": "https://dc.lft.to/lastmile_qr_scan", "android": "https://dc.lft.to/lastmile_qr_scan"}}, {"name": "13f587888e2976fd624c3b173f1e8e98", "type": "electric_scooter", "lat": 38.9203845, "is_reserved": 0, "lon": -77.024402, "fusion_lon": 0.0, "is_disabled": 0, "fusion_lat": 0.0, "bike_id": "13f587888e2976fd624c3b173f1e8e98", "rental_uris": {"ios": "https://dc.lft.to/lastmile_qr_scan", "android": "https://dc.lft.to/lastmile_qr_scan"}}, {"name": "2316f0d7bd546790f1c32d66a02a3520", "type": "electric_scooter", "lat": 38.91892566666667, "is_reserved": 0, "lon": -77.05289933333333, "fusion_lon": 0.0, "is_disabled": 0, "fusion_lat": 0.0, "bike_id": "2316f0d7bd546790f1c32d66a02a3520", "rental_uris": {"ios": "https://dc.lft.to/lastmile_qr_scan", "android": "https://dc.lft.to/lastmile_qr_scan"}}, {"name": "ac0fa317759d1c0211502226621b7887", "type": "electric_scooter", "lat": 38.880175666666666, "is_reserved": 0, "lon": -76.93132266666667, "fusion_lon": 0.0, "is_disabled": 0, "fusion_lat": 0.0, "bike_id": "ac0fa317759d1c0211502226621b7887", "rental_uris": {"ios": "https://dc.lft.to/lastmile_qr_scan", "android": "https://dc.lft.to/lastmile_qr_scan"}}, {"name": "6f8f952ff7d0a1b7ac41aab33ed412fb", "type": "electric_scooter", "lat": 38.929769666666665, "is_reserved": 0, "lon": -77.0261545, "fusion_lon": 0.0, "is_disabled": 0, "fusion_lat": 0.0, "bike_id": "6f8f952ff7d0a1b7ac41aab33ed412fb", "rental_uris": {"ios": "https://dc.lft.to/lastmile_qr_scan", "android": "https://dc.lft.to/lastmile_qr_scan"}}, {"name": "651802fd2b3b0b4d548d565ba814c371", "type": "electric_scooter", "lat": 38.90826083333333, "is_reserved": 0, "lon": -77.03655733333333, "fusion_lon": 0.0, "is_disabled": 0, "fusion_lat": 0.0, "bike_id": "651802fd2b3b0b4d548d565ba814c371", "rental_uris": {"ios": "https://dc.lft.to/lastmile_qr_scan", "android": "https://dc.lft.to/lastmile_qr_scan"}}, {"name": "da9d0f68e48120189d333621d7c8d74c", "type": "electric_scooter", "lat": 38.927914333333334, "is_reserved": 0, "lon": -77.05359333333334, "fusion_lon": 0.0, "is_disabled": 0, "fusion_lat": 0.0, "bike_id": "da9d0f68e48120189d333621d7c8d74c", "rental_uris": {"ios": "https://dc.lft.to/lastmile_qr_scan", "android": "https://dc.lft.to/lastmile_qr_scan"}}, {"name": "147ebcb4edf0d87d68b98a54b967909a", "type": "electric_scooter", "lat": 38.91061583333333, "is_reserved": 0, "lon": -77.0457425, "fusion_lon": 0.0, "is_disabled": 0, "fusion_lat": 0.0, "bike_id": "147ebcb4edf0d87d68b98a54b967909a", "rental_uris": {"ios": "https://dc.lft.to/lastmile_qr_scan", "android": "https://dc.lft.to/lastmile_qr_scan"}}, {"name": "d7df9b7152055d3e375098aa7e4557a9", "type": "electric_scooter", "lat": 38.91400983333333, "is_reserved": 0, "lon": -77.02117566666666, "fusion_lon": 0.0, "is_disabled": 0, "fusion_lat": 0.0, "bike_id": "d7df9b7152055d3e375098aa7e4557a9", "rental_uris": {"ios": "https://dc.lft.to/lastmile_qr_scan", "android": "https://dc.lft.to/lastmile_qr_scan"}}, {"name": "064e445664fe1866bd1f2ecdfc04a8e9", "type": "electric_scooter", "lat": 38.9007975, "is_reserved": 0, "lon": -77.04907583333333, "fusion_lon": 0.0, "is_disabled": 0, "fusion_lat": 0.0, "bike_id": "064e445664fe1866bd1f2ecdfc04a8e9", "rental_uris": {"ios": "https://dc.lft.to/lastmile_qr_scan", "android": "https://dc.lft.to/lastmile_qr_scan"}}, {"name": "0683edea6f41ab916269a499b951a812", "type": "electric_scooter", "lat": 38.9110575, "is_reserved": 0, "lon": -77.0105685, "fusion_lon": 0.0, "is_disabled": 0, "fusion_lat": 0.0, "bike_id": "0683edea6f41ab916269a499b951a812", "rental_uris": {"ios": "https://dc.lft.to/lastmile_qr_scan", "android": "https://dc.lft.to/lastmile_qr_scan"}}, {"name": "64531cbda80dc12b2d9e13e18024adbb", "type": "electric_scooter", "lat": 38.923331833333336, "is_reserved": 0, "lon": -77.03890916666667, "fusion_lon": 0.0, "is_disabled": 0, "fusion_lat": 0.0, "bike_id": "64531cbda80dc12b2d9e13e18024adbb", "rental_uris": {"ios": "https://dc.lft.to/lastmile_qr_scan", "android": "https://dc.lft.to/lastmile_qr_scan"}}, {"name": "17097a045ff9b2d924937f3fa1eff35a", "type": "electric_scooter", "lat": 38.89236916666667, "is_reserved": 0, "lon": -77.03207216666667, "fusion_lon": 0.0, "is_disabled": 0, "fusion_lat": 0.0, "bike_id": "17097a045ff9b2d924937f3fa1eff35a", "rental_uris": {"ios": "https://dc.lft.to/lastmile_qr_scan", "android": "https://dc.lft.to/lastmile_qr_scan"}}, {"name": "b65aa415d4a046034dd68bf4fdc359c6", "type": "electric_scooter", "lat": 38.916865333333334, "is_reserved": 0, "lon": -77.02526683333333, "fusion_lon": 0.0, "is_disabled": 0, "fusion_lat": 0.0, "bike_id": "b65aa415d4a046034dd68bf4fdc359c6", "rental_uris": {"ios": "https://dc.lft.to/lastmile_qr_scan", "android": "https://dc.lft.to/lastmile_qr_scan"}}, {"name": "650348585af966d63cca999237f9054c", "type": "electric_bike", "lat": 38.89462316666667, "is_reserved": 0, "lon": -77.07586316666666, "fusion_lon": 0.0, "is_disabled": 0, "fusion_lat": 0.0, "bike_id": "650348585af966d63cca999237f9054c", "rental_uris": {"ios": "https://dc.lft.to/lastmile_qr_scan", "android": "https://dc.lft.to/lastmile_qr_scan"}}, {"name": "3b5e9c4a1e652bceb665d756dcd23cd2", "type": "electric_scooter", "lat": 38.927889666666665, "is_reserved": 0, "lon": -77.031497, "fusion_lon": 0.0, "is_disabled": 0, "fusion_lat": 0.0, "bike_id": "3b5e9c4a1e652bceb665d756dcd23cd2", "rental_uris": {"ios": "https://dc.lft.to/lastmile_qr_scan", "android": "https://dc.lft.to/lastmile_qr_scan"}}, {"name": "7275f2d4565a071e024e2a4388581120", "type": "electric_scooter", "lat": 38.90522933333333, "is_reserved": 0, "lon": -77.06934316666667, "fusion_lon": 0.0, "is_disabled": 0, "fusion_lat": 0.0, "bike_id": "7275f2d4565a071e024e2a4388581120", "rental_uris": {"ios": "https://dc.lft.to/lastmile_qr_scan", "android": "https://dc.lft.to/lastmile_qr_scan"}}, {"name": "ef1d0b4e7d744b3578992f49da777005", "type": "electric_scooter", "lat": 38.920494833333336, "is_reserved": 0, "lon": -77.03426066666667, "fusion_lon": 0.0, "is_disabled": 0, "fusion_lat": 0.0, "bike_id": "ef1d0b4e7d744b3578992f49da777005", "rental_uris": {"ios": "https://dc.lft.to/lastmile_qr_scan", "android": "https://dc.lft.to/lastmile_qr_scan"}}, {"name": "88d6cf4d0ed115cff7a48866d086ab2b", "type": "electric_scooter", "lat": 38.9391165, "is_reserved": 0, "lon": -77.02469383333333, "fusion_lon": 0.0, "is_disabled": 0, "fusion_lat": 0.0, "bike_id": "88d6cf4d0ed115cff7a48866d086ab2b", "rental_uris": {"ios": "https://dc.lft.to/lastmile_qr_scan", "android": "https://dc.lft.to/lastmile_qr_scan"}}, {"name": "9926df192ed2ab7016a249d60efb7cd5", "type": "electric_scooter", "lat": 38.910197833333335, "is_reserved": 0, "lon": -77.05283483333334, "fusion_lon": 0.0, "is_disabled": 0, "fusion_lat": 0.0, "bike_id": "9926df192ed2ab7016a249d60efb7cd5", "rental_uris": {"ios": "https://dc.lft.to/lastmile_qr_scan", "android": "https://dc.lft.to/lastmile_qr_scan"}}, {"name": "6e3f1a4e0cba17a4effcc51e0a6fe2d8", "type": "electric_scooter", "lat": 38.90583733333333, "is_reserved": 0, "lon": -77.04878, "fusion_lon": 0.0, "is_disabled": 0, "fusion_lat": 0.0, "bike_id": "6e3f1a4e0cba17a4effcc51e0a6fe2d8", "rental_uris": {"ios": "https://dc.lft.to/lastmile_qr_scan", "android": "https://dc.lft.to/lastmile_qr_scan"}}, {"name": "78d4eeeb70126a13629ad0a8bed1d4ac", "type": "electric_scooter", "lat": 38.90014, "is_reserved": 0, "lon": -77.002007, "fusion_lon": 0.0, "is_disabled": 0, "fusion_lat": 0.0, "bike_id": "78d4eeeb70126a13629ad0a8bed1d4ac", "rental_uris": {"ios": "https://dc.lft.to/lastmile_qr_scan", "android": "https://dc.lft.to/lastmile_qr_scan"}}, {"name": "ff88cfb63fc433a8cc969325259a49dc", "type": "electric_scooter", "lat": 38.917125666666664, "is_reserved": 0, "lon": -77.03855666666666, "fusion_lon": 0.0, "is_disabled": 0, "fusion_lat": 0.0, "bike_id": "ff88cfb63fc433a8cc969325259a49dc", "rental_uris": {"ios": "https://dc.lft.to/lastmile_qr_scan", "android": "https://dc.lft.to/lastmile_qr_scan"}}, {"name": "2bee1b70af8731a0a066850a554955a2", "type": "electric_scooter", "lat": 38.9190195, "is_reserved": 0, "lon": -77.03123166666667, "fusion_lon": 0.0, "is_disabled": 0, "fusion_lat": 0.0, "bike_id": "2bee1b70af8731a0a066850a554955a2", "rental_uris": {"ios": "https://dc.lft.to/lastmile_qr_scan", "android": "https://dc.lft.to/lastmile_qr_scan"}}, {"name": "f42f254a86df909105af068abfa14ae5", "type": "electric_bike", "lat": 38.99087816666667, "is_reserved": 0, "lon": -76.87497966666666, "fusion_lon": 0.0, "is_disabled": 0, "fusion_lat": 0.0, "bike_id": "f42f254a86df909105af068abfa14ae5", "rental_uris": {"ios": "https://dc.lft.to/lastmile_qr_scan", "android": "https://dc.lft.to/lastmile_qr_scan"}}, {"name": "4ce68881833049af17d8378e7bbb162d", "type": "electric_scooter", "lat": 38.892310333333334, "is_reserved": 0, "lon": -77.02206133333334, "fusion_lon": 0.0, "is_disabled": 0, "fusion_lat": 0.0, "bike_id": "4ce68881833049af17d8378e7bbb162d", "rental_uris": {"ios": "https://dc.lft.to/lastmile_qr_scan", "android": "https://dc.lft.to/lastmile_qr_scan"}}, {"name": "03cc2de04dda87a904a834d7bd477ed6", "type": "electric_scooter", "lat": 38.905353833333336, "is_reserved": 0, "lon": -77.059319, "fusion_lon": 0.0, "is_disabled": 0, "fusion_lat": 0.0, "bike_id": "03cc2de04dda87a904a834d7bd477ed6", "rental_uris": {"ios": "https://dc.lft.to/lastmile_qr_scan", "android": "https://dc.lft.to/lastmile_qr_scan"}}, {"name": "541ca390278a8e4de8b119968e683d13", "type": "electric_bike", "lat": 38.82875716666667, "is_reserved": 0, "lon": -77.1121385, "fusion_lon": 0.0, "is_disabled": 0, "fusion_lat": 0.0, "bike_id": "541ca390278a8e4de8b119968e683d13", "rental_uris": {"ios": "https://dc.lft.to/lastmile_qr_scan", "android": "https://dc.lft.to/lastmile_qr_scan"}}, {"name": "1ece093500f7da6f06b166991ecd848d", "type": "electric_scooter", "lat": 38.88408666666667, "is_reserved": 0, "lon": -77.01530333333334, "fusion_lon": 0.0, "is_disabled": 0, "fusion_lat": 0.0, "bike_id": "1ece093500f7da6f06b166991ecd848d", "rental_uris": {"ios": "https://dc.lft.to/lastmile_qr_scan", "android": "https://dc.lft.to/lastmile_qr_scan"}}, {"name": "5be05e3cb4716e0fdba89946bae6a4df", "type": "electric_scooter", "lat": 38.876867833333336, "is_reserved": 0, "lon": -77.01750683333333, "fusion_lon": 0.0, "is_disabled": 0, "fusion_lat": 0.0, "bike_id": "5be05e3cb4716e0fdba89946bae6a4df", "rental_uris": {"ios": "https://dc.lft.to/lastmile_qr_scan", "android": "https://dc.lft.to/lastmile_qr_scan"}}, {"name": "e492456cd7d852a4226d1b400a85a78e", "type": "electric_scooter", "lat": 38.924436166666666, "is_reserved": 0, "lon": -77.03350916666666, "fusion_lon": 0.0, "is_disabled": 0, "fusion_lat": 0.0, "bike_id": "e492456cd7d852a4226d1b400a85a78e", "rental_uris": {"ios": "https://dc.lft.to/lastmile_qr_scan", "android": "https://dc.lft.to/lastmile_qr_scan"}}, {"name": "e2de2708d103efa28e2a1c36006a7ade", "type": "electric_scooter", "lat": 38.866680833333334, "is_reserved": 0, "lon": -76.98453066666667, "fusion_lon": 0.0, "is_disabled": 0, "fusion_lat": 0.0, "bike_id": "e2de2708d103efa28e2a1c36006a7ade", "rental_uris": {"ios": "https://dc.lft.to/lastmile_qr_scan", "android": "https://dc.lft.to/lastmile_qr_scan"}}, {"name": "94e801635372d4baddab5412203eadc7", "type": "electric_scooter", "lat": 38.909237833333336, "is_reserved": 0, "lon": -76.99936516666666, "fusion_lon": 0.0, "is_disabled": 0, "fusion_lat": 0.0, "bike_id": "94e801635372d4baddab5412203eadc7", "rental_uris": {"ios": "https://dc.lft.to/lastmile_qr_scan", "android": "https://dc.lft.to/lastmile_qr_scan"}}, {"name": "ce1a048a7c718a3cf9b62b92e0ca8f5e", "type": "electric_scooter", "lat": 38.916929, "is_reserved": 0, "lon": -77.031884, "fusion_lon": 0.0, "is_disabled": 0, "fusion_lat": 0.0, "bike_id": "ce1a048a7c718a3cf9b62b92e0ca8f5e", "rental_uris": {"ios": "https://dc.lft.to/lastmile_qr_scan", "android": "https://dc.lft.to/lastmile_qr_scan"}}, {"name": "3a3903e31cd8b537fc759474c3467aa9", "type": "electric_scooter", "lat": 38.89508333333333, "is_reserved": 0, "lon": -77.00337016666667, "fusion_lon": 0.0, "is_disabled": 0, "fusion_lat": 0.0, "bike_id": "3a3903e31cd8b537fc759474c3467aa9", "rental_uris": {"ios": "https://dc.lft.to/lastmile_qr_scan", "android": "https://dc.lft.to/lastmile_qr_scan"}}, {"name": "0f02cb80c2fa747b74552d259a4ec803", "type": "electric_scooter", "lat": 38.89472166666667, "is_reserved": 0, "lon": -77.00137733333334, "fusion_lon": 0.0, "is_disabled": 0, "fusion_lat": 0.0, "bike_id": "0f02cb80c2fa747b74552d259a4ec803", "rental_uris": {"ios": "https://dc.lft.to/lastmile_qr_scan", "android": "https://dc.lft.to/lastmile_qr_scan"}}, {"name": "5261828ca120a17ce1cdc99955e5940c", "type": "electric_scooter", "lat": 38.89035066666667, "is_reserved": 0, "lon": -77.02972216666667, "fusion_lon": 0.0, "is_disabled": 0, "fusion_lat": 0.0, "bike_id": "5261828ca120a17ce1cdc99955e5940c", "rental_uris": {"ios": "https://dc.lft.to/lastmile_qr_scan", "android": "https://dc.lft.to/lastmile_qr_scan"}}, {"name": "75931083177e1ab5578048b07f3cfbc5", "type": "electric_scooter", "lat": 38.920751833333334, "is_reserved": 0, "lon": -77.02538666666666, "fusion_lon": 0.0, "is_disabled": 0, "fusion_lat": 0.0, "bike_id": "75931083177e1ab5578048b07f3cfbc5", "rental_uris": {"ios": "https://dc.lft.to/lastmile_qr_scan", "android": "https://dc.lft.to/lastmile_qr_scan"}}, {"name": "07a929e2d5882335b36951d4e0c801cd", "type": "electric_scooter", "lat": 38.895283166666665, "is_reserved": 0, "lon": -77.03348916666667, "fusion_lon": 0.0, "is_disabled": 0, "fusion_lat": 0.0, "bike_id": "07a929e2d5882335b36951d4e0c801cd", "rental_uris": {"ios": "https://dc.lft.to/lastmile_qr_scan", "android": "https://dc.lft.to/lastmile_qr_scan"}}, {"name": "cd1b5f0782539756044f110025af71f3", "type": "electric_scooter", "lat": 38.914989, "is_reserved": 0, "lon": -77.01224166666667, "fusion_lon": 0.0, "is_disabled": 0, "fusion_lat": 0.0, "bike_id": "cd1b5f0782539756044f110025af71f3", "rental_uris": {"ios": "https://dc.lft.to/lastmile_qr_scan", "android": "https://dc.lft.to/lastmile_qr_scan"}}, {"name": "c721f12502d04df7b954375ae228a5b4", "type": "electric_scooter", "lat": 38.92340083333333, "is_reserved": 0, "lon": -77.050717, "fusion_lon": 0.0, "is_disabled": 0, "fusion_lat": 0.0, "bike_id": "c721f12502d04df7b954375ae228a5b4", "rental_uris": {"ios": "https://dc.lft.to/lastmile_qr_scan", "android": "https://dc.lft.to/lastmile_qr_scan"}}, {"name": "964a716a2f6b5fd92a9837bc70bf3b3d", "type": "electric_scooter", "lat": 38.920704666666666, "is_reserved": 0, "lon": -77.0221245, "fusion_lon": 0.0, "is_disabled": 0, "fusion_lat": 0.0, "bike_id": "964a716a2f6b5fd92a9837bc70bf3b3d", "rental_uris": {"ios": "https://dc.lft.to/lastmile_qr_scan", "android": "https://dc.lft.to/lastmile_qr_scan"}}, {"name": "312bc5f1ac78c3ee066a50519300a339", "type": "electric_scooter", "lat": 38.89884933333333, "is_reserved": 0, "lon": -77.03287266666666, "fusion_lon": 0.0, "is_disabled": 0, "fusion_lat": 0.0, "bike_id": "312bc5f1ac78c3ee066a50519300a339", "rental_uris": {"ios": "https://dc.lft.to/lastmile_qr_scan", "android": "https://dc.lft.to/lastmile_qr_scan"}}, {"name": "a09617a3e651a124ed8debdc582bd3e0", "type": "electric_scooter", "lat": 38.88767033333333, "is_reserved": 0, "lon": -76.927135, "fusion_lon": 0.0, "is_disabled": 0, "fusion_lat": 0.0, "bike_id": "a09617a3e651a124ed8debdc582bd3e0", "rental_uris": {"ios": "https://dc.lft.to/lastmile_qr_scan", "android": "https://dc.lft.to/lastmile_qr_scan"}}, {"name": "acfe272135214872f6499bb6ea726072", "type": "electric_scooter", "lat": 38.87711216666667, "is_reserved": 0, "lon": -76.99386066666666, "fusion_lon": 0.0, "is_disabled": 0, "fusion_lat": 0.0, "bike_id": "acfe272135214872f6499bb6ea726072", "rental_uris": {"ios": "https://dc.lft.to/lastmile_qr_scan", "android": "https://dc.lft.to/lastmile_qr_scan"}}, {"name": "55fd9db258131f33769a75d19a7e1789", "type": "electric_scooter", "lat": 38.9132925, "is_reserved": 0, "lon": -77.048732, "fusion_lon": 0.0, "is_disabled": 0, "fusion_lat": 0.0, "bike_id": "55fd9db258131f33769a75d19a7e1789", "rental_uris": {"ios": "https://dc.lft.to/lastmile_qr_scan", "android": "https://dc.lft.to/lastmile_qr_scan"}}, {"name": "13186f3f6b86507abc2d285ccae15ba9", "type": "electric_scooter", "lat": 38.906486666666666, "is_reserved": 0, "lon": -77.011558, "fusion_lon": 0.0, "is_disabled": 0, "fusion_lat": 0.0, "bike_id": "13186f3f6b86507abc2d285ccae15ba9", "rental_uris": {"ios": "https://dc.lft.to/lastmile_qr_scan", "android": "https://dc.lft.to/lastmile_qr_scan"}}, {"name": "c113a0d8d2c4364da7118941376e89e3", "type": "electric_scooter", "lat": 38.930485, "is_reserved": 0, "lon": -77.02788783333334, "fusion_lon": 0.0, "is_disabled": 0, "fusion_lat": 0.0, "bike_id": "c113a0d8d2c4364da7118941376e89e3", "rental_uris": {"ios": "https://dc.lft.to/lastmile_qr_scan", "android": "https://dc.lft.to/lastmile_qr_scan"}}, {"name": "ccf742affdacac2ebe3d9a2a8c22bf1b", "type": "electric_scooter", "lat": 38.903824, "is_reserved": 0, "lon": -77.03569066666667, "fusion_lon": 0.0, "is_disabled": 0, "fusion_lat": 0.0, "bike_id": "ccf742affdacac2ebe3d9a2a8c22bf1b", "rental_uris": {"ios": "https://dc.lft.to/lastmile_qr_scan", "android": "https://dc.lft.to/lastmile_qr_scan"}}, {"name": "b169e37b040eccfde071d79bde59d9ee", "type": "electric_scooter", "lat": 38.8982715, "is_reserved": 0, "lon": -77.02724116666667, "fusion_lon": 0.0, "is_disabled": 0, "fusion_lat": 0.0, "bike_id": "b169e37b040eccfde071d79bde59d9ee", "rental_uris": {"ios": "https://dc.lft.to/lastmile_qr_scan", "android": "https://dc.lft.to/lastmile_qr_scan"}}, {"name": "568392eb1a976eabbd68501429cd5164", "type": "electric_scooter", "lat": 38.93141116666666, "is_reserved": 0, "lon": -77.03850566666667, "fusion_lon": 0.0, "is_disabled": 0, "fusion_lat": 0.0, "bike_id": "568392eb1a976eabbd68501429cd5164", "rental_uris": {"ios": "https://dc.lft.to/lastmile_qr_scan", "android": "https://dc.lft.to/lastmile_qr_scan"}}, {"name": "7f155932e9b9b734a76a6d77407bb920", "type": "electric_scooter", "lat": 38.9388665, "is_reserved": 0, "lon": -77.0246445, "fusion_lon": 0.0, "is_disabled": 0, "fusion_lat": 0.0, "bike_id": "7f155932e9b9b734a76a6d77407bb920", "rental_uris": {"ios": "https://dc.lft.to/lastmile_qr_scan", "android": "https://dc.lft.to/lastmile_qr_scan"}}, {"name": "a4307abe38962303b8db7620c6add8d8", "type": "electric_scooter", "lat": 38.902615833333336, "is_reserved": 0, "lon": -77.04603083333333, "fusion_lon": 0.0, "is_disabled": 0, "fusion_lat": 0.0, "bike_id": "a4307abe38962303b8db7620c6add8d8", "rental_uris": {"ios": "https://dc.lft.to/lastmile_qr_scan", "android": "https://dc.lft.to/lastmile_qr_scan"}}, {"name": "103be0e2dfea87546b41df723054a798", "type": "electric_bike", "lat": 38.970874, "is_reserved": 0, "lon": -77.06966716666666, "fusion_lon": 0.0, "is_disabled": 0, "fusion_lat": 0.0, "bike_id": "103be0e2dfea87546b41df723054a798", "rental_uris": {"ios": "https://dc.lft.to/lastmile_qr_scan", "android": "https://dc.lft.to/lastmile_qr_scan"}}, {"name": "a014a3de01ee2389b0e518475d572044", "type": "electric_scooter", "lat": 38.92625433333333, "is_reserved": 0, "lon": -77.0378945, "fusion_lon": 0.0, "is_disabled": 0, "fusion_lat": 0.0, "bike_id": "a014a3de01ee2389b0e518475d572044", "rental_uris": {"ios": "https://dc.lft.to/lastmile_qr_scan", "android": "https://dc.lft.to/lastmile_qr_scan"}}, {"name": "8fb93acfa87ae6d3d6096a1ce52c09ce", "type": "electric_scooter", "lat": 38.9039515, "is_reserved": 0, "lon": -76.98945466666666, "fusion_lon": 0.0, "is_disabled": 0, "fusion_lat": 0.0, "bike_id": "8fb93acfa87ae6d3d6096a1ce52c09ce", "rental_uris": {"ios": "https://dc.lft.to/lastmile_qr_scan", "android": "https://dc.lft.to/lastmile_qr_scan"}}, {"name": "6de189d39fb0ccb9c6214dad8c2300bd", "type": "electric_scooter", "lat": 38.910606333333334, "is_reserved": 0, "lon": -77.030397, "fusion_lon": 0.0, "is_disabled": 0, "fusion_lat": 0.0, "bike_id": "6de189d39fb0ccb9c6214dad8c2300bd", "rental_uris": {"ios": "https://dc.lft.to/lastmile_qr_scan", "android": "https://dc.lft.to/lastmile_qr_scan"}}, {"name": "2fb307551cb27443fd9dd8eaf653525e", "type": "electric_scooter", "lat": 38.92069466666667, "is_reserved": 0, "lon": -77.0321245, "fusion_lon": 0.0, "is_disabled": 0, "fusion_lat": 0.0, "bike_id": "2fb307551cb27443fd9dd8eaf653525e", "rental_uris": {"ios": "https://dc.lft.to/lastmile_qr_scan", "android": "https://dc.lft.to/lastmile_qr_scan"}}, {"name": "64217dda7c2f0ce29cf1d9d7b7fc75f4", "type": "electric_scooter", "lat": 38.935006, "is_reserved": 0, "lon": -77.0284425, "fusion_lon": 0.0, "is_disabled": 0, "fusion_lat": 0.0, "bike_id": "64217dda7c2f0ce29cf1d9d7b7fc75f4", "rental_uris": {"ios": "https://dc.lft.to/lastmile_qr_scan", "android": "https://dc.lft.to/lastmile_qr_scan"}}, {"name": "65fcdb9aaaf1fae182912ef350a26eec", "type": "electric_bike", "lat": 38.854343, "is_reserved": 0, "lon": -77.1170905, "fusion_lon": 0.0, "is_disabled": 0, "fusion_lat": 0.0, "bike_id": "65fcdb9aaaf1fae182912ef350a26eec", "rental_uris": {"ios": "https://dc.lft.to/lastmile_qr_scan", "android": "https://dc.lft.to/lastmile_qr_scan"}}, {"name": "80d8bc9bdb00924791ba3a5379b353ff", "type": "electric_scooter", "lat": 38.90985966666667, "is_reserved": 0, "lon": -77.03203283333333, "fusion_lon": 0.0, "is_disabled": 0, "fusion_lat": 0.0, "bike_id": "80d8bc9bdb00924791ba3a5379b353ff", "rental_uris": {"ios": "https://dc.lft.to/lastmile_qr_scan", "android": "https://dc.lft.to/lastmile_qr_scan"}}, {"name": "22441762bafe674ba7a7b3f093165108", "type": "electric_scooter", "lat": 38.94179, "is_reserved": 0, "lon": -77.0309135, "fusion_lon": 0.0, "is_disabled": 0, "fusion_lat": 0.0, "bike_id": "22441762bafe674ba7a7b3f093165108", "rental_uris": {"ios": "https://dc.lft.to/lastmile_qr_scan", "android": "https://dc.lft.to/lastmile_qr_scan"}}, {"name": "7d689f64dc3707f40c450e201a016994", "type": "electric_bike", "lat": 38.91174216666667, "is_reserved": 0, "lon": -77.01151116666666, "fusion_lon": 0.0, "is_disabled": 0, "fusion_lat": 0.0, "bike_id": "7d689f64dc3707f40c450e201a016994", "rental_uris": {"ios": "https://dc.lft.to/lastmile_qr_scan", "android": "https://dc.lft.to/lastmile_qr_scan"}}, {"name": "0b9b2235383bb96b2a1e508e224f89ae", "type": "electric_scooter", "lat": 38.90605766666667, "is_reserved": 0, "lon": -77.01323633333334, "fusion_lon": 0.0, "is_disabled": 0, "fusion_lat": 0.0, "bike_id": "0b9b2235383bb96b2a1e508e224f89ae", "rental_uris": {"ios": "https://dc.lft.to/lastmile_qr_scan", "android": "https://dc.lft.to/lastmile_qr_scan"}}, {"name": "ff636d66b411100905399a011a862843", "type": "electric_scooter", "lat": 38.929244833333335, "is_reserved": 0, "lon": -77.03290183333333, "fusion_lon": 0.0, "is_disabled": 0, "fusion_lat": 0.0, "bike_id": "ff636d66b411100905399a011a862843", "rental_uris": {"ios": "https://dc.lft.to/lastmile_qr_scan", "android": "https://dc.lft.to/lastmile_qr_scan"}}, {"name": "b77f630ce314edebd83b1cddc1a509c1", "type": "electric_scooter", "lat": 38.878924833333336, "is_reserved": 0, "lon": -77.02203933333334, "fusion_lon": 0.0, "is_disabled": 0, "fusion_lat": 0.0, "bike_id": "b77f630ce314edebd83b1cddc1a509c1", "rental_uris": {"ios": "https://dc.lft.to/lastmile_qr_scan", "android": "https://dc.lft.to/lastmile_qr_scan"}}, {"name": "5447c292e054e807c722de3f22afc1dc", "type": "electric_bike", "lat": 38.96279966666667, "is_reserved": 0, "lon": -77.02427083333333, "fusion_lon": 0.0, "is_disabled": 0, "fusion_lat": 0.0, "bike_id": "5447c292e054e807c722de3f22afc1dc", "rental_uris": {"ios": "https://dc.lft.to/lastmile_qr_scan", "android": "https://dc.lft.to/lastmile_qr_scan"}}, {"name": "871f3d7bc47456745ada14d12b6207f8", "type": "electric_scooter", "lat": 38.90716833333333, "is_reserved": 0, "lon": -77.02508916666666, "fusion_lon": 0.0, "is_disabled": 0, "fusion_lat": 0.0, "bike_id": "871f3d7bc47456745ada14d12b6207f8", "rental_uris": {"ios": "https://dc.lft.to/lastmile_qr_scan", "android": "https://dc.lft.to/lastmile_qr_scan"}}, {"name": "d6e4575bfe39f9464013407e4b2aa4b4", "type": "electric_scooter", "lat": 38.935244, "is_reserved": 0, "lon": -77.02853266666666, "fusion_lon": 0.0, "is_disabled": 0, "fusion_lat": 0.0, "bike_id": "d6e4575bfe39f9464013407e4b2aa4b4", "rental_uris": {"ios": "https://dc.lft.to/lastmile_qr_scan", "android": "https://dc.lft.to/lastmile_qr_scan"}}, {"name": "8898d1f9d412d01a5dd94b34c58d07cc", "type": "electric_scooter", "lat": 38.90797083333333, "is_reserved": 0, "lon": -76.99700883333334, "fusion_lon": 0.0, "is_disabled": 0, "fusion_lat": 0.0, "bike_id": "8898d1f9d412d01a5dd94b34c58d07cc", "rental_uris": {"ios": "https://dc.lft.to/lastmile_qr_scan", "android": "https://dc.lft.to/lastmile_qr_scan"}}, {"name": "f3ea9d563443bc1453b2dc8ab4042e61", "type": "electric_scooter", "lat": 38.89523666666667, "is_reserved": 0, "lon": -77.016125, "fusion_lon": 0.0, "is_disabled": 0, "fusion_lat": 0.0, "bike_id": "f3ea9d563443bc1453b2dc8ab4042e61", "rental_uris": {"ios": "https://dc.lft.to/lastmile_qr_scan", "android": "https://dc.lft.to/lastmile_qr_scan"}}, {"name": "52de21845e9c33b70cc4697f10131d90", "type": "electric_scooter", "lat": 38.90343283333333, "is_reserved": 0, "lon": -77.03958066666667, "fusion_lon": 0.0, "is_disabled": 0, "fusion_lat": 0.0, "bike_id": "52de21845e9c33b70cc4697f10131d90", "rental_uris": {"ios": "https://dc.lft.to/lastmile_qr_scan", "android": "https://dc.lft.to/lastmile_qr_scan"}}, {"name": "d0f4891ffa732064838140ef8af71cfa", "type": "electric_scooter", "lat": 38.932256, "is_reserved": 0, "lon": -77.03541183333333, "fusion_lon": 0.0, "is_disabled": 0, "fusion_lat": 0.0, "bike_id": "d0f4891ffa732064838140ef8af71cfa", "rental_uris": {"ios": "https://dc.lft.to/lastmile_qr_scan", "android": "https://dc.lft.to/lastmile_qr_scan"}}, {"name": "8394bf3917d917a210446cf6ab9aaf01", "type": "electric_scooter", "lat": 38.901233, "is_reserved": 0, "lon": -77.00046483333334, "fusion_lon": 0.0, "is_disabled": 0, "fusion_lat": 0.0, "bike_id": "8394bf3917d917a210446cf6ab9aaf01", "rental_uris": {"ios": "https://dc.lft.to/lastmile_qr_scan", "android": "https://dc.lft.to/lastmile_qr_scan"}}, {"name": "331fcedc262cec0c105e7e99102396f7", "type": "electric_scooter", "lat": 38.88937933333333, "is_reserved": 0, "lon": -76.94817516666667, "fusion_lon": 0.0, "is_disabled": 0, "fusion_lat": 0.0, "bike_id": "331fcedc262cec0c105e7e99102396f7", "rental_uris": {"ios": "https://dc.lft.to/lastmile_qr_scan", "android": "https://dc.lft.to/lastmile_qr_scan"}}, {"name": "b903d2d275aa26cfa3558e110e4c1ac9", "type": "electric_scooter", "lat": 38.9032735, "is_reserved": 0, "lon": -77.03857183333334, "fusion_lon": 0.0, "is_disabled": 0, "fusion_lat": 0.0, "bike_id": "b903d2d275aa26cfa3558e110e4c1ac9", "rental_uris": {"ios": "https://dc.lft.to/lastmile_qr_scan", "android": "https://dc.lft.to/lastmile_qr_scan"}}, {"name": "41e531c407acd4781e2103c07dd06624", "type": "electric_scooter", "lat": 38.929078, "is_reserved": 0, "lon": -77.02188066666666, "fusion_lon": 0.0, "is_disabled": 0, "fusion_lat": 0.0, "bike_id": "41e531c407acd4781e2103c07dd06624", "rental_uris": {"ios": "https://dc.lft.to/lastmile_qr_scan", "android": "https://dc.lft.to/lastmile_qr_scan"}}, {"name": "c9a426802df404e5f205c76e2f349b33", "type": "electric_bike", "lat": 38.83859116666667, "is_reserved": 0, "lon": -77.08869116666666, "fusion_lon": 0.0, "is_disabled": 0, "fusion_lat": 0.0, "bike_id": "c9a426802df404e5f205c76e2f349b33", "rental_uris": {"ios": "https://dc.lft.to/lastmile_qr_scan", "android": "https://dc.lft.to/lastmile_qr_scan"}}, {"name": "0b328026382741323186073854df9201", "type": "electric_bike", "lat": 38.95886333333333, "is_reserved": 0, "lon": -76.92480516666667, "fusion_lon": 0.0, "is_disabled": 0, "fusion_lat": 0.0, "bike_id": "0b328026382741323186073854df9201", "rental_uris": {"ios": "https://dc.lft.to/lastmile_qr_scan", "android": "https://dc.lft.to/lastmile_qr_scan"}}, {"name": "31f87a496b49e6f2317467b85368f850", "type": "electric_bike", "lat": 38.9732245, "is_reserved": 0, "lon": -77.02149083333333, "fusion_lon": 0.0, "is_disabled": 0, "fusion_lat": 0.0, "bike_id": "31f87a496b49e6f2317467b85368f850", "rental_uris": {"ios": "https://dc.lft.to/lastmile_qr_scan", "android": "https://dc.lft.to/lastmile_qr_scan"}}, {"name": "a36fdd818444cb0d3893052a4b286bc8", "type": "electric_bike", "lat": 38.90111983333333, "is_reserved": 0, "lon": -76.98008733333333, "fusion_lon": 0.0, "is_disabled": 0, "fusion_lat": 0.0, "bike_id": "a36fdd818444cb0d3893052a4b286bc8", "rental_uris": {"ios": "https://dc.lft.to/lastmile_qr_scan", "android": "https://dc.lft.to/lastmile_qr_scan"}}, {"name": "27a5d13e726980eda0f7ed2badc0b0c5", "type": "electric_scooter", "lat": 38.91705666666667, "is_reserved": 0, "lon": -77.03478133333333, "fusion_lon": 0.0, "is_disabled": 0, "fusion_lat": 0.0, "bike_id": "27a5d13e726980eda0f7ed2badc0b0c5", "rental_uris": {"ios": "https://dc.lft.to/lastmile_qr_scan", "android": "https://dc.lft.to/lastmile_qr_scan"}}, {"name": "45ee8ac3b5415dd6aca0918ce2b94508", "type": "electric_scooter", "lat": 38.908479666666665, "is_reserved": 0, "lon": -77.02056166666667, "fusion_lon": 0.0, "is_disabled": 0, "fusion_lat": 0.0, "bike_id": "45ee8ac3b5415dd6aca0918ce2b94508", "rental_uris": {"ios": "https://dc.lft.to/lastmile_qr_scan", "android": "https://dc.lft.to/lastmile_qr_scan"}}, {"name": "95ab144fc33446eddaeda6056a83dbc2", "type": "electric_scooter", "lat": 38.910009, "is_reserved": 0, "lon": -77.03464, "fusion_lon": 0.0, "is_disabled": 0, "fusion_lat": 0.0, "bike_id": "95ab144fc33446eddaeda6056a83dbc2", "rental_uris": {"ios": "https://dc.lft.to/lastmile_qr_scan", "android": "https://dc.lft.to/lastmile_qr_scan"}}, {"name": "c5dfbdad3587f5d22f6853c2c609b630", "type": "electric_scooter", "lat": 38.896531833333334, "is_reserved": 0, "lon": -76.94849766666667, "fusion_lon": 0.0, "is_disabled": 0, "fusion_lat": 0.0, "bike_id": "c5dfbdad3587f5d22f6853c2c609b630", "rental_uris": {"ios": "https://dc.lft.to/lastmile_qr_scan", "android": "https://dc.lft.to/lastmile_qr_scan"}}, {"name": "754efec0f3ef5b5475c83a6ca5bdac41", "type": "electric_scooter", "lat": 38.9311465, "is_reserved": 0, "lon": -77.0210015, "fusion_lon": 0.0, "is_disabled": 0, "fusion_lat": 0.0, "bike_id": "754efec0f3ef5b5475c83a6ca5bdac41", "rental_uris": {"ios": "https://dc.lft.to/lastmile_qr_scan", "android": "https://dc.lft.to/lastmile_qr_scan"}}, {"name": "2f4dc4df1a2d78c735f50777d4e65fd5", "type": "electric_scooter", "lat": 38.908126833333334, "is_reserved": 0, "lon": -77.000397, "fusion_lon": 0.0, "is_disabled": 0, "fusion_lat": 0.0, "bike_id": "2f4dc4df1a2d78c735f50777d4e65fd5", "rental_uris": {"ios": "https://dc.lft.to/lastmile_qr_scan", "android": "https://dc.lft.to/lastmile_qr_scan"}}, {"name": "0167163e49bff8067c86c3a98059d40a", "type": "electric_scooter", "lat": 38.91873833333333, "is_reserved": 0, "lon": -77.02305616666666, "fusion_lon": 0.0, "is_disabled": 0, "fusion_lat": 0.0, "bike_id": "0167163e49bff8067c86c3a98059d40a", "rental_uris": {"ios": "https://dc.lft.to/lastmile_qr_scan", "android": "https://dc.lft.to/lastmile_qr_scan"}}, {"name": "ed168d12b6ffa73ec6398a429dd9fd66", "type": "electric_scooter", "lat": 38.88323583333333, "is_reserved": 0, "lon": -77.017655, "fusion_lon": 0.0, "is_disabled": 0, "fusion_lat": 0.0, "bike_id": "ed168d12b6ffa73ec6398a429dd9fd66", "rental_uris": {"ios": "https://dc.lft.to/lastmile_qr_scan", "android": "https://dc.lft.to/lastmile_qr_scan"}}, {"name": "be2b66c5445571ac6eb7c5332c2251cd", "type": "electric_scooter", "lat": 38.9097895, "is_reserved": 0, "lon": -77.06712833333333, "fusion_lon": 0.0, "is_disabled": 0, "fusion_lat": 0.0, "bike_id": "be2b66c5445571ac6eb7c5332c2251cd", "rental_uris": {"ios": "https://dc.lft.to/lastmile_qr_scan", "android": "https://dc.lft.to/lastmile_qr_scan"}}, {"name": "5d97ea0282956baa98dfa218e3780265", "type": "electric_scooter", "lat": 38.9492585, "is_reserved": 0, "lon": -77.0193735, "fusion_lon": 0.0, "is_disabled": 0, "fusion_lat": 0.0, "bike_id": "5d97ea0282956baa98dfa218e3780265", "rental_uris": {"ios": "https://dc.lft.to/lastmile_qr_scan", "android": "https://dc.lft.to/lastmile_qr_scan"}}, {"name": "0a286fc24cc70824a190208b87bbf1ac", "type": "electric_scooter", "lat": 38.93484866666667, "is_reserved": 0, "lon": -77.072436, "fusion_lon": 0.0, "is_disabled": 0, "fusion_lat": 0.0, "bike_id": "0a286fc24cc70824a190208b87bbf1ac", "rental_uris": {"ios": "https://dc.lft.to/lastmile_qr_scan", "android": "https://dc.lft.to/lastmile_qr_scan"}}, {"name": "4e243503a732b2a98b5b54e91e4bd076", "type": "electric_bike", "lat": 39.0945935, "is_reserved": 0, "lon": -77.14993916666667, "fusion_lon": 0.0, "is_disabled": 0, "fusion_lat": 0.0, "bike_id": "4e243503a732b2a98b5b54e91e4bd076", "rental_uris": {"ios": "https://dc.lft.to/lastmile_qr_scan", "android": "https://dc.lft.to/lastmile_qr_scan"}}, {"name": "568b5c1c05bdc2d4b38473a9794af3e2", "type": "electric_scooter", "lat": 38.862402, "is_reserved": 0, "lon": -76.99498466666667, "fusion_lon": 0.0, "is_disabled": 0, "fusion_lat": 0.0, "bike_id": "568b5c1c05bdc2d4b38473a9794af3e2", "rental_uris": {"ios": "https://dc.lft.to/lastmile_qr_scan", "android": "https://dc.lft.to/lastmile_qr_scan"}}, {"name": "ac778f562d8a93e236fc2fa7cf17943c", "type": "electric_scooter", "lat": 38.92722416666667, "is_reserved": 0, "lon": -77.00554033333333, "fusion_lon": 0.0, "is_disabled": 0, "fusion_lat": 0.0, "bike_id": "ac778f562d8a93e236fc2fa7cf17943c", "rental_uris": {"ios": "https://dc.lft.to/lastmile_qr_scan", "android": "https://dc.lft.to/lastmile_qr_scan"}}, {"name": "6fe232406307ee74d92de61e0d7a44bb", "type": "electric_scooter", "lat": 38.899126333333335, "is_reserved": 0, "lon": -76.93346966666667, "fusion_lon": 0.0, "is_disabled": 0, "fusion_lat": 0.0, "bike_id": "6fe232406307ee74d92de61e0d7a44bb", "rental_uris": {"ios": "https://dc.lft.to/lastmile_qr_scan", "android": "https://dc.lft.to/lastmile_qr_scan"}}, {"name": "bf8c5eacb49eb2893fe8e6719d76fd69", "type": "electric_bike", "lat": 38.840549, "is_reserved": 0, "lon": -77.06405716666667, "fusion_lon": 0.0, "is_disabled": 0, "fusion_lat": 0.0, "bike_id": "bf8c5eacb49eb2893fe8e6719d76fd69", "rental_uris": {"ios": "https://dc.lft.to/lastmile_qr_scan", "android": "https://dc.lft.to/lastmile_qr_scan"}}, {"name": "4632ccfe081fc405d128f57ff9994184", "type": "electric_scooter", "lat": 38.92948116666667, "is_reserved": 0, "lon": -77.05509466666666, "fusion_lon": 0.0, "is_disabled": 0, "fusion_lat": 0.0, "bike_id": "4632ccfe081fc405d128f57ff9994184", "rental_uris": {"ios": "https://dc.lft.to/lastmile_qr_scan", "android": "https://dc.lft.to/lastmile_qr_scan"}}, {"name": "d86db44e77e2a29cd89c00146d9d2497", "type": "electric_scooter", "lat": 38.89721616666667, "is_reserved": 0, "lon": -77.0105005, "fusion_lon": 0.0, "is_disabled": 0, "fusion_lat": 0.0, "bike_id": "d86db44e77e2a29cd89c00146d9d2497", "rental_uris": {"ios": "https://dc.lft.to/lastmile_qr_scan", "android": "https://dc.lft.to/lastmile_qr_scan"}}, {"name": "f889c40859aa2aa1d5a3f513ca2f4b91", "type": "electric_bike", "lat": 38.8278475, "is_reserved": 0, "lon": -77.00910833333333, "fusion_lon": 0.0, "is_disabled": 0, "fusion_lat": 0.0, "bike_id": "f889c40859aa2aa1d5a3f513ca2f4b91", "rental_uris": {"ios": "https://dc.lft.to/lastmile_qr_scan", "android": "https://dc.lft.to/lastmile_qr_scan"}}, {"name": "e4ffe356708658763d4ce2a371468058", "type": "electric_bike", "lat": 38.875267, "is_reserved": 0, "lon": -77.19910966666667, "fusion_lon": 0.0, "is_disabled": 0, "fusion_lat": 0.0, "bike_id": "e4ffe356708658763d4ce2a371468058", "rental_uris": {"ios": "https://dc.lft.to/lastmile_qr_scan", "android": "https://dc.lft.to/lastmile_qr_scan"}}, {"name": "ff967f3b57aa7518c539a77d9d5f6b60", "type": "electric_scooter", "lat": 38.89845066666667, "is_reserved": 0, "lon": -76.94474733333334, "fusion_lon": 0.0, "is_disabled": 0, "fusion_lat": 0.0, "bike_id": "ff967f3b57aa7518c539a77d9d5f6b60", "rental_uris": {"ios": "https://dc.lft.to/lastmile_qr_scan", "android": "https://dc.lft.to/lastmile_qr_scan"}}, {"name": "f4cb4a5e09877bb2a53bffb2e70537d9", "type": "electric_scooter", "lat": 38.89494766666667, "is_reserved": 0, "lon": -77.002131, "fusion_lon": 0.0, "is_disabled": 0, "fusion_lat": 0.0, "bike_id": "f4cb4a5e09877bb2a53bffb2e70537d9", "rental_uris": {"ios": "https://dc.lft.to/lastmile_qr_scan", "android": "https://dc.lft.to/lastmile_qr_scan"}}, {"name": "82d7973b64a48b0ae3f540f7e19eb6f6", "type": "electric_scooter", "lat": 38.938633, "is_reserved": 0, "lon": -77.0267115, "fusion_lon": 0.0, "is_disabled": 0, "fusion_lat": 0.0, "bike_id": "82d7973b64a48b0ae3f540f7e19eb6f6", "rental_uris": {"ios": "https://dc.lft.to/lastmile_qr_scan", "android": "https://dc.lft.to/lastmile_qr_scan"}}, {"name": "cfb88e03343dcb9285fd530ff5ff0063", "type": "electric_bike", "lat": 38.95683833333333, "is_reserved": 0, "lon": -77.02227933333333, "fusion_lon": 0.0, "is_disabled": 0, "fusion_lat": 0.0, "bike_id": "cfb88e03343dcb9285fd530ff5ff0063", "rental_uris": {"ios": "https://dc.lft.to/lastmile_qr_scan", "android": "https://dc.lft.to/lastmile_qr_scan"}}, {"name": "8a78bc287411d64ffa984f8d61543c66", "type": "electric_scooter", "lat": 38.92636533333334, "is_reserved": 0, "lon": -77.03468433333333, "fusion_lon": 0.0, "is_disabled": 0, "fusion_lat": 0.0, "bike_id": "8a78bc287411d64ffa984f8d61543c66", "rental_uris": {"ios": "https://dc.lft.to/lastmile_qr_scan", "android": "https://dc.lft.to/lastmile_qr_scan"}}, {"name": "47ffdac425e5cba5175c1575cb3b5536", "type": "electric_scooter", "lat": 38.89475, "is_reserved": 0, "lon": -77.02100283333333, "fusion_lon": 0.0, "is_disabled": 0, "fusion_lat": 0.0, "bike_id": "47ffdac425e5cba5175c1575cb3b5536", "rental_uris": {"ios": "https://dc.lft.to/lastmile_qr_scan", "android": "https://dc.lft.to/lastmile_qr_scan"}}, {"name": "82c703f3234e7b70d3df824b9deb9893", "type": "electric_scooter", "lat": 38.929637, "is_reserved": 0, "lon": -77.00533383333334, "fusion_lon": 0.0, "is_disabled": 0, "fusion_lat": 0.0, "bike_id": "82c703f3234e7b70d3df824b9deb9893", "rental_uris": {"ios": "https://dc.lft.to/lastmile_qr_scan", "android": "https://dc.lft.to/lastmile_qr_scan"}}, {"name": "e882feebd090602677c83d7b589fb667", "type": "electric_scooter", "lat": 38.9154425, "is_reserved": 0, "lon": -77.03856433333333, "fusion_lon": 0.0, "is_disabled": 0, "fusion_lat": 0.0, "bike_id": "e882feebd090602677c83d7b589fb667", "rental_uris": {"ios": "https://dc.lft.to/lastmile_qr_scan", "android": "https://dc.lft.to/lastmile_qr_scan"}}, {"name": "b0a12189fe8f5f267892383f998fee57", "type": "electric_scooter", "lat": 38.896717833333334, "is_reserved": 0, "lon": -77.0262235, "fusion_lon": 0.0, "is_disabled": 0, "fusion_lat": 0.0, "bike_id": "b0a12189fe8f5f267892383f998fee57", "rental_uris": {"ios": "https://dc.lft.to/lastmile_qr_scan", "android": "https://dc.lft.to/lastmile_qr_scan"}}, {"name": "e0d1aa23f036fe7de11941455a18a315", "type": "electric_scooter", "lat": 38.8877195, "is_reserved": 0, "lon": -76.932625, "fusion_lon": 0.0, "is_disabled": 0, "fusion_lat": 0.0, "bike_id": "e0d1aa23f036fe7de11941455a18a315", "rental_uris": {"ios": "https://dc.lft.to/lastmile_qr_scan", "android": "https://dc.lft.to/lastmile_qr_scan"}}, {"name": "fda00e9733a4bf3d7005b6090f921d86", "type": "electric_scooter", "lat": 38.92249016666667, "is_reserved": 0, "lon": -77.03456033333333, "fusion_lon": 0.0, "is_disabled": 0, "fusion_lat": 0.0, "bike_id": "fda00e9733a4bf3d7005b6090f921d86", "rental_uris": {"ios": "https://dc.lft.to/lastmile_qr_scan", "android": "https://dc.lft.to/lastmile_qr_scan"}},